{"last_updated":1748898596,"ttl":60,"version":"2.2","data":{"bikes":[{"bike_id":"5736accb-991c-4877-a612-8be882a83c2f","system_id":"levelo_inurba_marseille","lat":43.33771,"lon":5.37424,"is_reserved":false,"is_disabled":true,"rental_uris":{"android":"levelo://app?vid=5736accb-991c-4877-a612-8be882a83c2f","ios":"levelo://app?vid=5736accb-991c-4877-a612-8be882a83c2f"},"vehicle_type_id":"4","last_reported":1748898596,"current_range_meters":0,"station_id":"","pricing_plan_id":"cebpf4jnsgd1na2vs0mg"},{"bike_id":"55a5c057-4e97-4693-8616-8ebd3dc507dc","system_id":"levelo_inurba_marseille","lat":43.337499,"lon":5.374469,"is_reserved":false,"is_disabled":true,"rental_uris":{"android":"levelo://app?vid=55a5c057-4e97-4693-8616-8ebd3dc507dc","ios":"levelo://app?vid=55a5c057-4e97-4693-8616-8ebd3dc507dc"},"vehicle_type_id":"4","last_reported":1748898596,"current_range_meters":0,"station_id":"","pricing_plan_id":"cebpf4jnsgd1na2vs0mg"},{"bike_id":"58872a66-6d13-4e73-8bc3-e26429814b74","system_id":"levelo_inurba_marseille","lat":43.337444,"lon":5.374475,"is_reserved":false,"is_disabled":true,"rental_uris":{"android":"levelo://app?vid=58872a66-6d13-4e73-8bc3-e26429814b74","ios":"levelo://app?vid=58872a66-6d13-4e73-8bc3-e26429814b74"},"vehicle_type_id":"4","last_reported":1748898596,"current_range_meters":0,"station_id":"","pricing_plan_id":"cebpf4jnsgd1na2vs0mg"},{"bike_id":"fe9b2fed-0d6f-49c5-8562-4b92c270e255","system_id":"levelo_inurba_marseille","lat":43.29268,"lon":5.37144,"is_reserved":false,"is_disabled":true,"rental_uris":{"android":"levelo://app?vid=fe9b2fed-0d6f-49c5-8562-4b92c270e255","ios":"levelo://app?vid=fe9b2fed-0d6f-49c5-8562-4b92c270e255"},"vehicle_type_id":"4","last_reported":1748898596,"current_range_meters":0,"station_id":"","pricing_plan_id":"cebpf4jnsgd1na2vs0mg"},{"bike_id":"aedab83c-b9e3-4c27-91f4-79f4c3b37920","system_id":"levelo_inurba_marseille","lat":43.337444,"lon":5.374475,"is_reserved":false,"is_disabled":true,"rental_uris":{"android":"levelo://app?vid=aedab83c-b9e3-4c27-91f4-79f4c3b37920","ios":"levelo://app?vid=aedab83c-b9e3-4c27-91f4-79f4c3b37920"},"vehicle_type_id":"4","last_reported":1748898596,"current_range_meters":0,"station_id":"","pricing_plan_id":"cebpf4jnsgd1na2vs0mg"},{"bike_id":"0e5c7fc5-efe6-4da0-bbfc-434e48e22be5","system_id":"levelo_inurba_marseille","lat":43.31961,"lon":5.44168,"is_reserved":false,"is_disabled":true,"rental_uris":{"android":"levelo://app?vid=0e5c7fc5-efe6-4da0-bbfc-434e48e22be5","ios":"levelo://app?vid=0e5c7fc5-efe6-4da0-bbfc-434e48e22be5"},"vehicle_type_id":"4","last_reported":1748898596,"current_range_meters":0,"station_id":"","pricing_plan_id":"cebpf4jnsgd1na2vs0mg"},{"bike_id":"6e7e5163-991a-4d7d-9c2b-4faf721e9959","system_id":"levelo_inurba_marseille","lat":43.27912,"lon":5.353223,"is_reserved":false,"is_disabled":true,"rental_uris":{"android":"levelo://app?vid=6e7e5163-991a-4d7d-9c2b-4faf721e9959","ios":"levelo://app?vid=6e7e5163-991a-4d7d-9c2b-4faf721e9959"},"vehicle_type_id":"4","last_reported":1748898596,"current_range_meters":0,"station_id":"","pricing_plan_id":"cebpf4jnsgd1na2vs0mg"},{"bike_id":"efc8002f-28f9-4e9a-866c-ac8a3fbd1654","system_id":"levelo_inurba_marseille","lat":43.29848,"lon":5.36287,"is_reserved":false,"is_disabled":true,"rental_uris":{"android":"levelo://app?vid=efc8002f-28f9-4e9a-866c-ac8a3fbd1654","ios":"levelo://app?vid=efc8002f-28f9-4e9a-866c-ac8a3fbd1654"},"vehicle_type_id":"4","last_reported":1748898596,"current_range_meters":0,"station_id":"ce4bgpp2rcd13ifvqc3g","pricing_plan_id":"cebpf4jnsgd1na2vs0mg"},{"bike_id":"b07eb18b-0f4c-4b5a-87b0-ed99beab6346","system_id":"levelo_inurba_marseille","lat":43.31116,"lon":5.37762,"is_reserved":false,"is_disabled":false,"rental_uris":{"android":"levelo://app?vid=b07eb18b-0f4c-4b5a-87b0-ed99beab6346","ios":"levelo://app?vid=b07eb18b-0f4c-4b5a-87b0-ed99beab6346"},"vehicle_type_id":"4","last_reported":1748898596,"current_range_meters":0,"station_id":"ce4bgt92rcd13ifvqcg0","pricing_plan_id":"cebpf4jnsgd1na2vs0mg"},{"bike_id":"090eefce-9dff-43e4-ac08-c714f4a37cb3","system_id":"levelo_inurba_marseille","lat":43.28471,"lon":5.38419,"is_reserved":false,"is_disabled":true,"rental_uris":{"android":"levelo://app?vid=090eefce-9dff-43e4-ac08-c714f4a37cb3","ios":"levelo://app?vid=090eefce-9dff-43e4-ac08-c714f4a37cb3"},"vehicle_type_id":"4","last_reported":1748898596,"current_range_meters":0,"station_id":"ce4bh512rcd13ifvqe3g","pricing_plan_id":"cebpf4jnsgd1na2vs0mg"},{"bike_id":"35dcaedc-4d1d-4041-9f0a-8cacfbe3d6fa","system_id":"levelo_inurba_marseille","lat":43.304167,"lon":5.4129,"is_reserved":false,"is_disabled":true,"rental_uris":{"android":"levelo://app?vid=35dcaedc-4d1d-4041-9f0a-8cacfbe3d6fa","ios":"levelo://app?vid=35dcaedc-4d1d-4041-9f0a-8cacfbe3d6fa"},"vehicle_type_id":"4","last_reported":1748898596,"current_range_meters":0,"station_id":"ce4bhop2rcd13ifvqh8g","pricing_plan_id":"cebpf4jnsgd1na2vs0mg"},{"bike_id":"0cb8dc3d-d38b-4878-b5e9-590134d30ddf","system_id":"levelo_inurba_marseille","lat":43.31713,"lon":5.436957,"is_reserved":false,"is_disabled":true,"rental_uris":{"android":"levelo://app?vid=0cb8dc3d-d38b-4878-b5e9-590134d30ddf","ios":"levelo://app?vid=0cb8dc3d-d38b-4878-b5e9-590134d30ddf"},"vehicle_type_id":"4","last_reported":1748898596,"current_range_meters":0,"station_id":"ce4bhp92rcd13ifvqhcg","pricing_plan_id":"cebpf4jnsgd1na2vs0mg"},{"bike_id":"5d07328a-32aa-4e6b-830e-0b4a37aa1c63","system_id":"levelo_inurba_marseille","lat":43.29975,"lon":5.37176,"is_reserved":false,"is_disabled":true,"rental_uris":{"android":"levelo://app?vid=5d07328a-32aa-4e6b-830e-0b4a37aa1c63","ios":"levelo://app?vid=5d07328a-32aa-4e6b-830e-0b4a37aa1c63"},"vehicle_type_id":"4","last_reported":1748898596,"current_range_meters":800,"station_id":"ce4bgr92rcd13ifvqc7g","pricing_plan_id":"cebpf4jnsgd1na2vs0mg"},{"bike_id":"1c1abc4d-aec8-4e72-acbd-81b6f6255a94","system_id":"levelo_inurba_marseille","lat":43.30543,"lon":5.36715,"is_reserved":false,"is_disabled":true,"rental_uris":{"android":"levelo://app?vid=1c1abc4d-aec8-4e72-acbd-81b6f6255a94","ios":"levelo://app?vid=1c1abc4d-aec8-4e72-acbd-81b6f6255a94"},"vehicle_type_id":"4","last_reported":1748898596,"current_range_meters":1600,"station_id":"ce4bgrp2rcd13ifvqc9g","pricing_plan_id":"cebpf4jnsgd1na2vs0mg"},{"bike_id":"745c1e76-4fec-41e7-a61c-28a28b127a83","system_id":"levelo_inurba_marseille","lat":43.28922,"lon":5.38386,"is_reserved":false,"is_disabled":false,"rental_uris":{"android":"levelo://app?vid=745c1e76-4fec-41e7-a61c-28a28b127a83","ios":"levelo://app?vid=745c1e76-4fec-41e7-a61c-28a28b127a83"},"vehicle_type_id":"4","last_reported":1748898596,"current_range_meters":3600,"station_id":"ce4bh612rcd13ifvqe6g","pricing_plan_id":"cebpf4jnsgd1na2vs0mg"},{"bike_id":"aadb95fc-d156-41e0-9614-75d762b11d28","system_id":"levelo_inurba_marseille","lat":43.319652,"lon":5.44043,"is_reserved":false,"is_disabled":false,"rental_uris":{"android":"levelo://app?vid=aadb95fc-d156-41e0-9614-75d762b11d28","ios":"levelo://app?vid=aadb95fc-d156-41e0-9614-75d762b11d28"},"vehicle_type_id":"4","last_reported":1748898596,"current_range_meters":4400,"station_id":"","pricing_plan_id":"cebpf4jnsgd1na2vs0mg"},{"bike_id":"8340a6a2-1b26-46ae-8ec7-c9c5ff9a0a68","system_id":"levelo_inurba_marseille","lat":43.3088,"lon":5.37192,"is_reserved":false,"is_disabled":false,"rental_uris":{"android":"levelo://app?vid=8340a6a2-1b26-46ae-8ec7-c9c5ff9a0a68","ios":"levelo://app?vid=8340a6a2-1b26-46ae-8ec7-c9c5ff9a0a68"},"vehicle_type_id":"4","last_reported":1748898596,"current_range_meters":4800,"station_id":"ce4bguh2rcd13ifvqckg","pricing_plan_id":"cebpf4jnsgd1na2vs0mg"},{"bike_id":"ac126775-9b4e-44f5-9061-4599bf97ec8f","system_id":"levelo_inurba_marseille","lat":43.30945,"lon":5.4014,"is_reserved":false,"is_disabled":false,"rental_uris":{"android":"levelo://app?vid=ac126775-9b4e-44f5-9061-4599bf97ec8f","ios":"levelo://app?vid=ac126775-9b4e-44f5-9061-4599bf97ec8f"},"vehicle_type_id":"4","last_reported":1748898596,"current_range_meters":4800,"station_id":"ce4bgvp2rcd13ifvqct0","pricing_plan_id":"cebpf4jnsgd1na2vs0mg"},{"bike_id":"324c07d9-4b51-4e4e-b193-cee86c30b999","system_id":"levelo_inurba_marseille","lat":43.29532,"lon":5.394,"is_reserved":false,"is_disabled":false,"rental_uris":{"android":"levelo://app?vid=324c07d9-4b51-4e4e-b193-cee86c30b999","ios":"levelo://app?vid=324c07d9-4b51-4e4e-b193-cee86c30b999"},"vehicle_type_id":"4","last_reported":1748898596,"current_range_meters":6000,"station_id":"ce4bh292rcd13ifvqdf0","pricing_plan_id":"cebpf4jnsgd1na2vs0mg"},{"bike_id":"4ebd4316-4e21-44b9-a8ed-b46ab30eb1dd","system_id":"levelo_inurba_marseille","lat":43.28446,"lon":5.39207,"is_reserved":false,"is_disabled":false,"rental_uris":{"android":"levelo://app?vid=4ebd4316-4e21-44b9-a8ed-b46ab30eb1dd","ios":"levelo://app?vid=4ebd4316-4e21-44b9-a8ed-b46ab30eb1dd"},"vehicle_type_id":"4","last_reported":1748898596,"current_range_meters":6400,"station_id":"ce4bhoh2rcd13ifvqh5g","pricing_plan_id":"cebpf4jnsgd1na2vs0mg"},{"bike_id":"29a43ec5-cd5e-4283-9a3d-a594160e7c81","system_id":"levelo_inurba_marseille","lat":43.31071,"lon":5.38351,"is_reserved":false,"is_disabled":false,"rental_uris":{"android":"levelo://app?vid=29a43ec5-cd5e-4283-9a3d-a594160e7c81","ios":"levelo://app?vid=29a43ec5-cd5e-4283-9a3d-a594160e7c81"},"vehicle_type_id":"4","last_reported":1748898596,"current_range_meters":7200,"station_id":"ce4bgv92rcd13ifvqcr0","pricing_plan_id":"cebpf4jnsgd1na2vs0mg"},{"bike_id":"907989c4-217b-4f7b-9ff7-4afa285967be","system_id":"levelo_inurba_marseille","lat":43.30942,"lon":5.40151,"is_reserved":false,"is_disabled":false,"rental_uris":{"android":"levelo://app?vid=907989c4-217b-4f7b-9ff7-4afa285967be","ios":"levelo://app?vid=907989c4-217b-4f7b-9ff7-4afa285967be"},"vehicle_type_id":"4","last_reported":1748898596,"current_range_meters":7200,"station_id":"ce4bgvp2rcd13ifvqct0","pricing_plan_id":"cebpf4jnsgd1na2vs0mg"},{"bike_id":"3fef2ce8-9cce-44ac-bc3b-ecdfd17dadde","system_id":"levelo_inurba_marseille","lat":43.29098,"lon":5.38136,"is_reserved":false,"is_disabled":false,"rental_uris":{"android":"levelo://app?vid=3fef2ce8-9cce-44ac-bc3b-ecdfd17dadde","ios":"levelo://app?vid=3fef2ce8-9cce-44ac-bc3b-ecdfd17dadde"},"vehicle_type_id":"4","last_reported":1748898596,"current_range_meters":7200,"station_id":"ce4bh512rcd13ifvqe2g","pricing_plan_id":"cebpf4jnsgd1na2vs0mg"},{"bike_id":"5dead81c-52cf-467b-885d-461d40fb80a5","system_id":"levelo_inurba_marseille","lat":43.25094,"lon":5.40959,"is_reserved":false,"is_disabled":false,"rental_uris":{"android":"levelo://app?vid=5dead81c-52cf-467b-885d-461d40fb80a5","ios":"levelo://app?vid=5dead81c-52cf-467b-885d-461d40fb80a5"},"vehicle_type_id":"4","last_reported":1748898596,"current_range_meters":8000,"station_id":"","pricing_plan_id":"cebpf4jnsgd1na2vs0mg"},{"bike_id":"6df47c6e-b2ac-4eab-a269-9d0f98ee4b6f","system_id":"levelo_inurba_marseille","lat":43.27841,"lon":5.39213,"is_reserved":false,"is_disabled":false,"rental_uris":{"android":"levelo://app?vid=6df47c6e-b2ac-4eab-a269-9d0f98ee4b6f","ios":"levelo://app?vid=6df47c6e-b2ac-4eab-a269-9d0f98ee4b6f"},"vehicle_type_id":"4","last_reported":1748898596,"current_range_meters":8000,"station_id":"ce4bhjp2rcd13ifvqga0","pricing_plan_id":"cebpf4jnsgd1na2vs0mg"},{"bike_id":"e42ce24e-d816-4bb6-8c02-8469fc4dee05","system_id":"levelo_inurba_marseille","lat":43.28716,"lon":5.39983,"is_reserved":false,"is_disabled":false,"rental_uris":{"android":"levelo://app?vid=e42ce24e-d816-4bb6-8c02-8469fc4dee05","ios":"levelo://app?vid=e42ce24e-d816-4bb6-8c02-8469fc4dee05"},"vehicle_type_id":"4","last_reported":1748898596,"current_range_meters":8000,"station_id":"ce4bho92rcd13ifvqh3g","pricing_plan_id":"cebpf4jnsgd1na2vs0mg"},{"bike_id":"d72d5a5e-a033-4555-a5b7-2e9b101d2f01","system_id":"levelo_inurba_marseille","lat":43.24374,"lon":5.41133,"is_reserved":false,"is_disabled":false,"rental_uris":{"android":"levelo://app?vid=d72d5a5e-a033-4555-a5b7-2e9b101d2f01","ios":"levelo://app?vid=d72d5a5e-a033-4555-a5b7-2e9b101d2f01"},"vehicle_type_id":"4","last_reported":1748898596,"current_range_meters":8400,"station_id":"","pricing_plan_id":"cebpf4jnsgd1na2vs0mg"},{"bike_id":"881498e7-33fc-4c1c-a65b-3c31d2a03915","system_id":"levelo_inurba_marseille","lat":43.3373,"lon":5.39191,"is_reserved":false,"is_disabled":false,"rental_uris":{"android":"levelo://app?vid=881498e7-33fc-4c1c-a65b-3c31d2a03915","ios":"levelo://app?vid=881498e7-33fc-4c1c-a65b-3c31d2a03915"},"vehicle_type_id":"4","last_reported":1748898596,"current_range_meters":8400,"station_id":"ce4bhr92rcd13ifvqhsg","pricing_plan_id":"cebpf4jnsgd1na2vs0mg"},{"bike_id":"421b7de4-a8e3-47f6-991e-1bf607aa00ec","system_id":"levelo_inurba_marseille","lat":43.29781,"lon":5.39339,"is_reserved":false,"is_disabled":false,"rental_uris":{"android":"levelo://app?vid=421b7de4-a8e3-47f6-991e-1bf607aa00ec","ios":"levelo://app?vid=421b7de4-a8e3-47f6-991e-1bf607aa00ec"},"vehicle_type_id":"4","last_reported":1748898596,"current_range_meters":8400,"station_id":"chh1huq6cuj3fo74tm60","pricing_plan_id":"cebpf4jnsgd1na2vs0mg"},{"bike_id":"a1f6c741-8ec9-4829-ab49-e74b20488e2e","system_id":"levelo_inurba_marseille","lat":43.2885,"lon":5.39297,"is_reserved":false,"is_disabled":false,"rental_uris":{"android":"levelo://app?vid=a1f6c741-8ec9-4829-ab49-e74b20488e2e","ios":"levelo://app?vid=a1f6c741-8ec9-4829-ab49-e74b20488e2e"},"vehicle_type_id":"4","last_reported":1748898596,"current_range_meters":8800,"station_id":"ce4bh2p2rcd13ifvqdi0","pricing_plan_id":"cebpf4jnsgd1na2vs0mg"},{"bike_id":"24b5a71f-fabf-4fa6-9fec-f2c7385ad3aa","system_id":"levelo_inurba_marseille","lat":43.330243,"lon":5.39035,"is_reserved":false,"is_disabled":false,"rental_uris":{"android":"levelo://app?vid=24b5a71f-fabf-4fa6-9fec-f2c7385ad3aa","ios":"levelo://app?vid=24b5a71f-fabf-4fa6-9fec-f2c7385ad3aa"},"vehicle_type_id":"4","last_reported":1748898596,"current_range_meters":9200,"station_id":"ce4bhr92rcd13ifvqhrg","pricing_plan_id":"cebpf4jnsgd1na2vs0mg"},{"bike_id":"62bef408-40f3-4f58-bfbc-3e7732ffb339","system_id":"levelo_inurba_marseille","lat":43.29531,"lon":5.38533,"is_reserved":false,"is_disabled":false,"rental_uris":{"android":"levelo://app?vid=62bef408-40f3-4f58-bfbc-3e7732ffb339","ios":"levelo://app?vid=62bef408-40f3-4f58-bfbc-3e7732ffb339"},"vehicle_type_id":"4","last_reported":1748898596,"current_range_meters":9600,"station_id":"ce4bgih2rcd13ifvqba0","pricing_plan_id":"cebpf4jnsgd1na2vs0mg"},{"bike_id":"a0888236-4e90-4aeb-b880-7b9acc4d2d36","system_id":"levelo_inurba_marseille","lat":43.3302,"lon":5.39037,"is_reserved":false,"is_disabled":false,"rental_uris":{"android":"levelo://app?vid=a0888236-4e90-4aeb-b880-7b9acc4d2d36","ios":"levelo://app?vid=a0888236-4e90-4aeb-b880-7b9acc4d2d36"},"vehicle_type_id":"4","last_reported":1748898596,"current_range_meters":9600,"station_id":"ce4bhr92rcd13ifvqhrg","pricing_plan_id":"cebpf4jnsgd1na2vs0mg"},{"bike_id":"acdfb4ec-72f4-4860-9958-ed448301f50b","system_id":"levelo_inurba_marseille","lat":43.30074,"lon":5.37929,"is_reserved":false,"is_disabled":false,"rental_uris":{"android":"levelo://app?vid=acdfb4ec-72f4-4860-9958-ed448301f50b","ios":"levelo://app?vid=acdfb4ec-72f4-4860-9958-ed448301f50b"},"vehicle_type_id":"4","last_reported":1748898596,"current_range_meters":10000,"station_id":"","pricing_plan_id":"cebpf4jnsgd1na2vs0mg"},{"bike_id":"b5f50910-5388-4ef6-ad78-3ee0adac4a70","system_id":"levelo_inurba_marseille","lat":43.3059,"lon":5.39355,"is_reserved":false,"is_disabled":false,"rental_uris":{"android":"levelo://app?vid=b5f50910-5388-4ef6-ad78-3ee0adac4a70","ios":"levelo://app?vid=b5f50910-5388-4ef6-ad78-3ee0adac4a70"},"vehicle_type_id":"4","last_reported":1748898596,"current_range_meters":10000,"station_id":"ce4bh0p2rcd13ifvqd80","pricing_plan_id":"cebpf4jnsgd1na2vs0mg"},{"bike_id":"67f948dd-57b8-4f4e-985e-c2a32bd6f699","system_id":"levelo_inurba_marseille","lat":43.29272,"lon":5.40129,"is_reserved":false,"is_disabled":false,"rental_uris":{"android":"levelo://app?vid=67f948dd-57b8-4f4e-985e-c2a32bd6f699","ios":"levelo://app?vid=67f948dd-57b8-4f4e-985e-c2a32bd6f699"},"vehicle_type_id":"4","last_reported":1748898596,"current_range_meters":10000,"station_id":"ce4bh312rcd13ifvqdk0","pricing_plan_id":"cebpf4jnsgd1na2vs0mg"},{"bike_id":"53ed08a7-8472-4d53-bf74-16546b1301a7","system_id":"levelo_inurba_marseille","lat":43.29287,"lon":5.4011,"is_reserved":false,"is_disabled":false,"rental_uris":{"android":"levelo://app?vid=53ed08a7-8472-4d53-bf74-16546b1301a7","ios":"levelo://app?vid=53ed08a7-8472-4d53-bf74-16546b1301a7"},"vehicle_type_id":"4","last_reported":1748898596,"current_range_meters":10000,"station_id":"ce4bh312rcd13ifvqdk0","pricing_plan_id":"cebpf4jnsgd1na2vs0mg"},{"bike_id":"9f85a91e-9ddc-4b71-a62d-40b30b938aa5","system_id":"levelo_inurba_marseille","lat":43.29798,"lon":5.371,"is_reserved":false,"is_disabled":false,"rental_uris":{"android":"levelo://app?vid=9f85a91e-9ddc-4b71-a62d-40b30b938aa5","ios":"levelo://app?vid=9f85a91e-9ddc-4b71-a62d-40b30b938aa5"},"vehicle_type_id":"4","last_reported":1748898596,"current_range_meters":10800,"station_id":"ce4bgop2rcd13ifvqc1g","pricing_plan_id":"cebpf4jnsgd1na2vs0mg"},{"bike_id":"c1a2c293-cc24-4ae3-a4df-d19cf1f82b1a","system_id":"levelo_inurba_marseille","lat":43.31701,"lon":5.37745,"is_reserved":false,"is_disabled":false,"rental_uris":{"android":"levelo://app?vid=c1a2c293-cc24-4ae3-a4df-d19cf1f82b1a","ios":"levelo://app?vid=c1a2c293-cc24-4ae3-a4df-d19cf1f82b1a"},"vehicle_type_id":"4","last_reported":1748898596,"current_range_meters":10800,"station_id":"ce4bgth2rcd13ifvqch0","pricing_plan_id":"cebpf4jnsgd1na2vs0mg"},{"bike_id":"3f920b0e-805b-4a1e-b243-71a0773046bc","system_id":"levelo_inurba_marseille","lat":43.30645,"lon":5.40101,"is_reserved":false,"is_disabled":false,"rental_uris":{"android":"levelo://app?vid=3f920b0e-805b-4a1e-b243-71a0773046bc","ios":"levelo://app?vid=3f920b0e-805b-4a1e-b243-71a0773046bc"},"vehicle_type_id":"4","last_reported":1748898596,"current_range_meters":10800,"station_id":"ce4bh112rcd13ifvqda0","pricing_plan_id":"cebpf4jnsgd1na2vs0mg"},{"bike_id":"6e97afee-9337-497f-907b-0dcf237dc3c0","system_id":"levelo_inurba_marseille","lat":43.28728,"lon":5.36094,"is_reserved":false,"is_disabled":false,"rental_uris":{"android":"levelo://app?vid=6e97afee-9337-497f-907b-0dcf237dc3c0","ios":"levelo://app?vid=6e97afee-9337-497f-907b-0dcf237dc3c0"},"vehicle_type_id":"4","last_reported":1748898596,"current_range_meters":10800,"station_id":"cki0cbj6b192h4jlfktg","pricing_plan_id":"cebpf4jnsgd1na2vs0mg"},{"bike_id":"f1c8c7e1-3f34-4d38-a503-caa580ebde75","system_id":"levelo_inurba_marseille","lat":43.22513,"lon":5.34777,"is_reserved":false,"is_disabled":false,"rental_uris":{"android":"levelo://app?vid=f1c8c7e1-3f34-4d38-a503-caa580ebde75","ios":"levelo://app?vid=f1c8c7e1-3f34-4d38-a503-caa580ebde75"},"vehicle_type_id":"4","last_reported":1748898596,"current_range_meters":10800,"station_id":"st_cvj5dfep6f1abm77gieg","pricing_plan_id":"cebpf4jnsgd1na2vs0mg"},{"bike_id":"1a1dd11c-f987-40bb-9ad3-48fb9037aec6","system_id":"levelo_inurba_marseille","lat":43.30461,"lon":5.38879,"is_reserved":false,"is_disabled":false,"rental_uris":{"android":"levelo://app?vid=1a1dd11c-f987-40bb-9ad3-48fb9037aec6","ios":"levelo://app?vid=1a1dd11c-f987-40bb-9ad3-48fb9037aec6"},"vehicle_type_id":"4","last_reported":1748898596,"current_range_meters":11200,"station_id":"ce4bgk12rcd13ifvqbi0","pricing_plan_id":"cebpf4jnsgd1na2vs0mg"},{"bike_id":"113d0131-8168-44ff-af6f-a57421e1ccf2","system_id":"levelo_inurba_marseille","lat":43.30939,"lon":5.4014,"is_reserved":false,"is_disabled":false,"rental_uris":{"android":"levelo://app?vid=113d0131-8168-44ff-af6f-a57421e1ccf2","ios":"levelo://app?vid=113d0131-8168-44ff-af6f-a57421e1ccf2"},"vehicle_type_id":"4","last_reported":1748898596,"current_range_meters":11200,"station_id":"ce4bgvp2rcd13ifvqct0","pricing_plan_id":"cebpf4jnsgd1na2vs0mg"},{"bike_id":"9c591c85-69b5-413b-8845-818e4339163d","system_id":"levelo_inurba_marseille","lat":43.30934,"lon":5.40135,"is_reserved":false,"is_disabled":false,"rental_uris":{"android":"levelo://app?vid=9c591c85-69b5-413b-8845-818e4339163d","ios":"levelo://app?vid=9c591c85-69b5-413b-8845-818e4339163d"},"vehicle_type_id":"4","last_reported":1748898596,"current_range_meters":11200,"station_id":"ce4bgvp2rcd13ifvqct0","pricing_plan_id":"cebpf4jnsgd1na2vs0mg"},{"bike_id":"9873ea8e-c2af-49bc-9f62-b61d54c33967","system_id":"levelo_inurba_marseille","lat":43.28946,"lon":5.36386,"is_reserved":false,"is_disabled":false,"rental_uris":{"android":"levelo://app?vid=9873ea8e-c2af-49bc-9f62-b61d54c33967","ios":"levelo://app?vid=9873ea8e-c2af-49bc-9f62-b61d54c33967"},"vehicle_type_id":"4","last_reported":1748898596,"current_range_meters":11200,"station_id":"ce4bhc92rcd13ifvqetg","pricing_plan_id":"cebpf4jnsgd1na2vs0mg"},{"bike_id":"f9ba8850-482d-43cd-93c6-da015477c7af","system_id":"levelo_inurba_marseille","lat":43.286207,"lon":5.383483,"is_reserved":false,"is_disabled":false,"rental_uris":{"android":"levelo://app?vid=f9ba8850-482d-43cd-93c6-da015477c7af","ios":"levelo://app?vid=f9ba8850-482d-43cd-93c6-da015477c7af"},"vehicle_type_id":"4","last_reported":1748898596,"current_range_meters":11600,"station_id":"","pricing_plan_id":"cebpf4jnsgd1na2vs0mg"},{"bike_id":"cd693c4f-7556-46d4-b51d-98253789afd6","system_id":"levelo_inurba_marseille","lat":43.28412,"lon":5.37509,"is_reserved":false,"is_disabled":false,"rental_uris":{"android":"levelo://app?vid=cd693c4f-7556-46d4-b51d-98253789afd6","ios":"levelo://app?vid=cd693c4f-7556-46d4-b51d-98253789afd6"},"vehicle_type_id":"4","last_reported":1748898596,"current_range_meters":11600,"station_id":"ce4bh412rcd13ifvqds0","pricing_plan_id":"cebpf4jnsgd1na2vs0mg"},{"bike_id":"6c842597-662d-4008-b404-86e67251dde8","system_id":"levelo_inurba_marseille","lat":43.28218,"lon":5.39027,"is_reserved":false,"is_disabled":false,"rental_uris":{"android":"levelo://app?vid=6c842597-662d-4008-b404-86e67251dde8","ios":"levelo://app?vid=6c842597-662d-4008-b404-86e67251dde8"},"vehicle_type_id":"4","last_reported":1748898596,"current_range_meters":12000,"station_id":"","pricing_plan_id":"cebpf4jnsgd1na2vs0mg"},{"bike_id":"d0717e1f-025a-4f8f-830a-131dcf6d489d","system_id":"levelo_inurba_marseille","lat":43.29724,"lon":5.36618,"is_reserved":false,"is_disabled":false,"rental_uris":{"android":"levelo://app?vid=d0717e1f-025a-4f8f-830a-131dcf6d489d","ios":"levelo://app?vid=d0717e1f-025a-4f8f-830a-131dcf6d489d"},"vehicle_type_id":"4","last_reported":1748898596,"current_range_meters":12000,"station_id":"ce4bgn12rcd13ifvqbt0","pricing_plan_id":"cebpf4jnsgd1na2vs0mg"},{"bike_id":"82fed7ee-62c2-4848-bb48-5d91af5244c7","system_id":"levelo_inurba_marseille","lat":43.32662,"lon":5.40992,"is_reserved":false,"is_disabled":false,"rental_uris":{"android":"levelo://app?vid=82fed7ee-62c2-4848-bb48-5d91af5244c7","ios":"levelo://app?vid=82fed7ee-62c2-4848-bb48-5d91af5244c7"},"vehicle_type_id":"4","last_reported":1748898596,"current_range_meters":12000,"station_id":"ce4bhpp2rcd13ifvqhgg","pricing_plan_id":"cebpf4jnsgd1na2vs0mg"},{"bike_id":"4a4d6d52-1c98-4646-ac8f-eab0676b6035","system_id":"levelo_inurba_marseille","lat":43.30593,"lon":5.37222,"is_reserved":false,"is_disabled":false,"rental_uris":{"android":"levelo://app?vid=4a4d6d52-1c98-4646-ac8f-eab0676b6035","ios":"levelo://app?vid=4a4d6d52-1c98-4646-ac8f-eab0676b6035"},"vehicle_type_id":"4","last_reported":1748898596,"current_range_meters":12400,"station_id":"ce4bgqh2rcd13ifvqc4g","pricing_plan_id":"cebpf4jnsgd1na2vs0mg"},{"bike_id":"cfd8a61b-5b9f-4b59-b997-bf8355304b02","system_id":"levelo_inurba_marseille","lat":43.28851,"lon":5.35856,"is_reserved":false,"is_disabled":false,"rental_uris":{"android":"levelo://app?vid=cfd8a61b-5b9f-4b59-b997-bf8355304b02","ios":"levelo://app?vid=cfd8a61b-5b9f-4b59-b997-bf8355304b02"},"vehicle_type_id":"4","last_reported":1748898596,"current_range_meters":12400,"station_id":"ce4bhb12rcd13ifvqem0","pricing_plan_id":"cebpf4jnsgd1na2vs0mg"},{"bike_id":"5b0c04c7-3e5d-4981-ba91-7d65704822b2","system_id":"levelo_inurba_marseille","lat":43.27918,"lon":5.38006,"is_reserved":false,"is_disabled":false,"rental_uris":{"android":"levelo://app?vid=5b0c04c7-3e5d-4981-ba91-7d65704822b2","ios":"levelo://app?vid=5b0c04c7-3e5d-4981-ba91-7d65704822b2"},"vehicle_type_id":"4","last_reported":1748898596,"current_range_meters":12400,"station_id":"ce4bhf92rcd13ifvqf50","pricing_plan_id":"cebpf4jnsgd1na2vs0mg"},{"bike_id":"fa62253e-e4db-42d1-9a63-6ab16922bf00","system_id":"levelo_inurba_marseille","lat":43.320146,"lon":5.368177,"is_reserved":false,"is_disabled":false,"rental_uris":{"android":"levelo://app?vid=fa62253e-e4db-42d1-9a63-6ab16922bf00","ios":"levelo://app?vid=fa62253e-e4db-42d1-9a63-6ab16922bf00"},"vehicle_type_id":"4","last_reported":1748898596,"current_range_meters":12800,"station_id":"","pricing_plan_id":"cebpf4jnsgd1na2vs0mg"},{"bike_id":"543575ef-c4c5-4309-92ad-658f80252cfc","system_id":"levelo_inurba_marseille","lat":43.310771,"lon":5.383505,"is_reserved":false,"is_disabled":false,"rental_uris":{"android":"levelo://app?vid=543575ef-c4c5-4309-92ad-658f80252cfc","ios":"levelo://app?vid=543575ef-c4c5-4309-92ad-658f80252cfc"},"vehicle_type_id":"4","last_reported":1748898596,"current_range_meters":12800,"station_id":"ce4bgv92rcd13ifvqcr0","pricing_plan_id":"cebpf4jnsgd1na2vs0mg"},{"bike_id":"132751d0-a1d2-4547-8139-b08ba3b87187","system_id":"levelo_inurba_marseille","lat":43.323408,"lon":5.406168,"is_reserved":false,"is_disabled":false,"rental_uris":{"android":"levelo://app?vid=132751d0-a1d2-4547-8139-b08ba3b87187","ios":"levelo://app?vid=132751d0-a1d2-4547-8139-b08ba3b87187"},"vehicle_type_id":"4","last_reported":1748898596,"current_range_meters":12800,"station_id":"ce4bhq92rcd13ifvqhjg","pricing_plan_id":"cebpf4jnsgd1na2vs0mg"},{"bike_id":"3082751b-d3f4-42ac-b6c0-bf946931c7e5","system_id":"levelo_inurba_marseille","lat":43.21172,"lon":5.35058,"is_reserved":false,"is_disabled":false,"rental_uris":{"android":"levelo://app?vid=3082751b-d3f4-42ac-b6c0-bf946931c7e5","ios":"levelo://app?vid=3082751b-d3f4-42ac-b6c0-bf946931c7e5"},"vehicle_type_id":"4","last_reported":1748898596,"current_range_meters":12800,"station_id":"st_cvj6sg6p6f1abm77japg","pricing_plan_id":"cebpf4jnsgd1na2vs0mg"},{"bike_id":"2e454d1b-7315-4339-b29b-5b569ba90d7a","system_id":"levelo_inurba_marseille","lat":43.28231,"lon":5.39026,"is_reserved":false,"is_disabled":false,"rental_uris":{"android":"levelo://app?vid=2e454d1b-7315-4339-b29b-5b569ba90d7a","ios":"levelo://app?vid=2e454d1b-7315-4339-b29b-5b569ba90d7a"},"vehicle_type_id":"4","last_reported":1748898596,"current_range_meters":13600,"station_id":"","pricing_plan_id":"cebpf4jnsgd1na2vs0mg"},{"bike_id":"399b6894-a57f-4255-81a3-8873dc3d4f63","system_id":"levelo_inurba_marseille","lat":43.30609,"lon":5.37224,"is_reserved":false,"is_disabled":false,"rental_uris":{"android":"levelo://app?vid=399b6894-a57f-4255-81a3-8873dc3d4f63","ios":"levelo://app?vid=399b6894-a57f-4255-81a3-8873dc3d4f63"},"vehicle_type_id":"4","last_reported":1748898596,"current_range_meters":13600,"station_id":"ce4bgqh2rcd13ifvqc4g","pricing_plan_id":"cebpf4jnsgd1na2vs0mg"},{"bike_id":"f5cb770c-864c-402a-9473-5c3f691aa53d","system_id":"levelo_inurba_marseille","lat":43.29537,"lon":5.39051,"is_reserved":false,"is_disabled":false,"rental_uris":{"android":"levelo://app?vid=f5cb770c-864c-402a-9473-5c3f691aa53d","ios":"levelo://app?vid=f5cb770c-864c-402a-9473-5c3f691aa53d"},"vehicle_type_id":"4","last_reported":1748898596,"current_range_meters":13600,"station_id":"ce4bh3p2rcd13ifvqdp0","pricing_plan_id":"cebpf4jnsgd1na2vs0mg"},{"bike_id":"e8c14f21-1550-4e6c-9a9c-8074a741bf93","system_id":"levelo_inurba_marseille","lat":43.25001,"lon":5.38921,"is_reserved":false,"is_disabled":false,"rental_uris":{"android":"levelo://app?vid=e8c14f21-1550-4e6c-9a9c-8074a741bf93","ios":"levelo://app?vid=e8c14f21-1550-4e6c-9a9c-8074a741bf93"},"vehicle_type_id":"4","last_reported":1748898596,"current_range_meters":13600,"station_id":"ce4bhgp2rcd13ifvqfd0","pricing_plan_id":"cebpf4jnsgd1na2vs0mg"},{"bike_id":"a33c9ded-afda-47fd-87fa-ac593a798cfa","system_id":"levelo_inurba_marseille","lat":43.26863,"lon":5.38914,"is_reserved":false,"is_disabled":false,"rental_uris":{"android":"levelo://app?vid=a33c9ded-afda-47fd-87fa-ac593a798cfa","ios":"levelo://app?vid=a33c9ded-afda-47fd-87fa-ac593a798cfa"},"vehicle_type_id":"4","last_reported":1748898596,"current_range_meters":14000,"station_id":"","pricing_plan_id":"cebpf4jnsgd1na2vs0mg"},{"bike_id":"073062b6-7d1e-4b15-bb7d-8f2fd18a166f","system_id":"levelo_inurba_marseille","lat":43.30145,"lon":5.38777,"is_reserved":false,"is_disabled":false,"rental_uris":{"android":"levelo://app?vid=073062b6-7d1e-4b15-bb7d-8f2fd18a166f","ios":"levelo://app?vid=073062b6-7d1e-4b15-bb7d-8f2fd18a166f"},"vehicle_type_id":"4","last_reported":1748898596,"current_range_meters":14000,"station_id":"ce4bghh2rcd13ifvqb60","pricing_plan_id":"cebpf4jnsgd1na2vs0mg"},{"bike_id":"aab1d16a-9f0c-4100-bb72-0114cbb59630","system_id":"levelo_inurba_marseille","lat":43.28406,"lon":5.37517,"is_reserved":false,"is_disabled":false,"rental_uris":{"android":"levelo://app?vid=aab1d16a-9f0c-4100-bb72-0114cbb59630","ios":"levelo://app?vid=aab1d16a-9f0c-4100-bb72-0114cbb59630"},"vehicle_type_id":"4","last_reported":1748898596,"current_range_meters":14000,"station_id":"ce4bh412rcd13ifvqds0","pricing_plan_id":"cebpf4jnsgd1na2vs0mg"},{"bike_id":"9b5f546d-e25a-4080-ba47-25b7850f5bd3","system_id":"levelo_inurba_marseille","lat":43.28741,"lon":5.36081,"is_reserved":false,"is_disabled":false,"rental_uris":{"android":"levelo://app?vid=9b5f546d-e25a-4080-ba47-25b7850f5bd3","ios":"levelo://app?vid=9b5f546d-e25a-4080-ba47-25b7850f5bd3"},"vehicle_type_id":"4","last_reported":1748898596,"current_range_meters":14000,"station_id":"cki0cbj6b192h4jlfktg","pricing_plan_id":"cebpf4jnsgd1na2vs0mg"},{"bike_id":"d144d0a6-8442-4d6c-b649-3639d789aa9f","system_id":"levelo_inurba_marseille","lat":43.2948,"lon":5.38656,"is_reserved":false,"is_disabled":false,"rental_uris":{"android":"levelo://app?vid=d144d0a6-8442-4d6c-b649-3639d789aa9f","ios":"levelo://app?vid=d144d0a6-8442-4d6c-b649-3639d789aa9f"},"vehicle_type_id":"4","last_reported":1748898596,"current_range_meters":14400,"station_id":"","pricing_plan_id":"cebpf4jnsgd1na2vs0mg"},{"bike_id":"64c320f3-8739-4026-9c50-8263b15c7ee9","system_id":"levelo_inurba_marseille","lat":43.30429,"lon":5.38884,"is_reserved":false,"is_disabled":false,"rental_uris":{"android":"levelo://app?vid=64c320f3-8739-4026-9c50-8263b15c7ee9","ios":"levelo://app?vid=64c320f3-8739-4026-9c50-8263b15c7ee9"},"vehicle_type_id":"4","last_reported":1748898596,"current_range_meters":14400,"station_id":"ce4bgk12rcd13ifvqbi0","pricing_plan_id":"cebpf4jnsgd1na2vs0mg"},{"bike_id":"b1ee8fc5-3c7e-41ff-8e00-25509c5d43ce","system_id":"levelo_inurba_marseille","lat":43.29279,"lon":5.40112,"is_reserved":false,"is_disabled":false,"rental_uris":{"android":"levelo://app?vid=b1ee8fc5-3c7e-41ff-8e00-25509c5d43ce","ios":"levelo://app?vid=b1ee8fc5-3c7e-41ff-8e00-25509c5d43ce"},"vehicle_type_id":"4","last_reported":1748898596,"current_range_meters":14400,"station_id":"ce4bh312rcd13ifvqdk0","pricing_plan_id":"cebpf4jnsgd1na2vs0mg"},{"bike_id":"900d1018-62d7-44ad-a7bd-2d294560b817","system_id":"levelo_inurba_marseille","lat":43.251213,"lon":5.403424,"is_reserved":false,"is_disabled":false,"rental_uris":{"android":"levelo://app?vid=900d1018-62d7-44ad-a7bd-2d294560b817","ios":"levelo://app?vid=900d1018-62d7-44ad-a7bd-2d294560b817"},"vehicle_type_id":"4","last_reported":1748898596,"current_range_meters":14400,"station_id":"ce4bhlh2rcd13ifvqgig","pricing_plan_id":"cebpf4jnsgd1na2vs0mg"},{"bike_id":"bbf0d5d8-ea1c-463a-a61e-55931136f355","system_id":"levelo_inurba_marseille","lat":43.28914,"lon":5.3619,"is_reserved":false,"is_disabled":false,"rental_uris":{"android":"levelo://app?vid=bbf0d5d8-ea1c-463a-a61e-55931136f355","ios":"levelo://app?vid=bbf0d5d8-ea1c-463a-a61e-55931136f355"},"vehicle_type_id":"4","last_reported":1748898596,"current_range_meters":14800,"station_id":"","pricing_plan_id":"cebpf4jnsgd1na2vs0mg"},{"bike_id":"8aa10dbe-dddf-4e6c-b770-af6d269267a5","system_id":"levelo_inurba_marseille","lat":43.28443,"lon":5.39199,"is_reserved":false,"is_disabled":false,"rental_uris":{"android":"levelo://app?vid=8aa10dbe-dddf-4e6c-b770-af6d269267a5","ios":"levelo://app?vid=8aa10dbe-dddf-4e6c-b770-af6d269267a5"},"vehicle_type_id":"4","last_reported":1748898596,"current_range_meters":14800,"station_id":"ce4bhoh2rcd13ifvqh5g","pricing_plan_id":"cebpf4jnsgd1na2vs0mg"},{"bike_id":"cf9a9959-303f-40f9-b57e-3ca93b1edd13","system_id":"levelo_inurba_marseille","lat":43.28844,"lon":5.35846,"is_reserved":false,"is_disabled":false,"rental_uris":{"android":"levelo://app?vid=cf9a9959-303f-40f9-b57e-3ca93b1edd13","ios":"levelo://app?vid=cf9a9959-303f-40f9-b57e-3ca93b1edd13"},"vehicle_type_id":"4","last_reported":1748898596,"current_range_meters":15200,"station_id":"ce4bhb12rcd13ifvqem0","pricing_plan_id":"cebpf4jnsgd1na2vs0mg"},{"bike_id":"98d1d76e-4f30-4abc-a043-19e8cb9be672","system_id":"levelo_inurba_marseille","lat":43.24672,"lon":5.38156,"is_reserved":false,"is_disabled":false,"rental_uris":{"android":"levelo://app?vid=98d1d76e-4f30-4abc-a043-19e8cb9be672","ios":"levelo://app?vid=98d1d76e-4f30-4abc-a043-19e8cb9be672"},"vehicle_type_id":"4","last_reported":1748898596,"current_range_meters":15200,"station_id":"ce4bhih2rcd13ifvqfr0","pricing_plan_id":"cebpf4jnsgd1na2vs0mg"},{"bike_id":"5c024f0e-1fdf-49b2-960a-7be5f1b30af7","system_id":"levelo_inurba_marseille","lat":43.29441,"lon":5.39737,"is_reserved":false,"is_disabled":false,"rental_uris":{"android":"levelo://app?vid=5c024f0e-1fdf-49b2-960a-7be5f1b30af7","ios":"levelo://app?vid=5c024f0e-1fdf-49b2-960a-7be5f1b30af7"},"vehicle_type_id":"4","last_reported":1748898596,"current_range_meters":16000,"station_id":"ce4bh3h2rcd13ifvqdo0","pricing_plan_id":"cebpf4jnsgd1na2vs0mg"},{"bike_id":"3217bca0-eca5-48b9-889b-e7329da08508","system_id":"levelo_inurba_marseille","lat":43.29276,"lon":5.38418,"is_reserved":false,"is_disabled":false,"rental_uris":{"android":"levelo://app?vid=3217bca0-eca5-48b9-889b-e7329da08508","ios":"levelo://app?vid=3217bca0-eca5-48b9-889b-e7329da08508"},"vehicle_type_id":"4","last_reported":1748898596,"current_range_meters":16000,"station_id":"ce4bh692rcd13ifvqea0","pricing_plan_id":"cebpf4jnsgd1na2vs0mg"},{"bike_id":"68288e49-174f-40df-b75f-5772a685791e","system_id":"levelo_inurba_marseille","lat":43.28705,"lon":5.39991,"is_reserved":false,"is_disabled":false,"rental_uris":{"android":"levelo://app?vid=68288e49-174f-40df-b75f-5772a685791e","ios":"levelo://app?vid=68288e49-174f-40df-b75f-5772a685791e"},"vehicle_type_id":"4","last_reported":1748898596,"current_range_meters":16000,"station_id":"ce4bho92rcd13ifvqh3g","pricing_plan_id":"cebpf4jnsgd1na2vs0mg"},{"bike_id":"6c7dc0b6-cea1-43c5-94ac-b10f8cfc40be","system_id":"levelo_inurba_marseille","lat":43.33024,"lon":5.39035,"is_reserved":false,"is_disabled":false,"rental_uris":{"android":"levelo://app?vid=6c7dc0b6-cea1-43c5-94ac-b10f8cfc40be","ios":"levelo://app?vid=6c7dc0b6-cea1-43c5-94ac-b10f8cfc40be"},"vehicle_type_id":"4","last_reported":1748898596,"current_range_meters":16000,"station_id":"ce4bhr92rcd13ifvqhrg","pricing_plan_id":"cebpf4jnsgd1na2vs0mg"},{"bike_id":"82762f70-216b-4762-9e82-daaa45d19a35","system_id":"levelo_inurba_marseille","lat":43.24144,"lon":5.36434,"is_reserved":false,"is_disabled":false,"rental_uris":{"android":"levelo://app?vid=82762f70-216b-4762-9e82-daaa45d19a35","ios":"levelo://app?vid=82762f70-216b-4762-9e82-daaa45d19a35"},"vehicle_type_id":"4","last_reported":1748898596,"current_range_meters":16000,"station_id":"cpo36qri1sfpv3e86is0","pricing_plan_id":"cebpf4jnsgd1na2vs0mg"},{"bike_id":"063c29b9-1301-46d1-9308-5957595af501","system_id":"levelo_inurba_marseille","lat":43.309418,"lon":5.401512,"is_reserved":false,"is_disabled":false,"rental_uris":{"android":"levelo://app?vid=063c29b9-1301-46d1-9308-5957595af501","ios":"levelo://app?vid=063c29b9-1301-46d1-9308-5957595af501"},"vehicle_type_id":"4","last_reported":1748898596,"current_range_meters":16400,"station_id":"ce4bgvp2rcd13ifvqct0","pricing_plan_id":"cebpf4jnsgd1na2vs0mg"},{"bike_id":"bd16dfd9-3d3f-4fac-8fb0-b7381057989c","system_id":"levelo_inurba_marseille","lat":43.30093,"lon":5.39083,"is_reserved":false,"is_disabled":false,"rental_uris":{"android":"levelo://app?vid=bd16dfd9-3d3f-4fac-8fb0-b7381057989c","ios":"levelo://app?vid=bd16dfd9-3d3f-4fac-8fb0-b7381057989c"},"vehicle_type_id":"4","last_reported":1748898596,"current_range_meters":16400,"station_id":"ce4bh192rcd13ifvqdb0","pricing_plan_id":"cebpf4jnsgd1na2vs0mg"},{"bike_id":"0bb60c3f-3969-49d1-af29-dbbd3cb394b1","system_id":"levelo_inurba_marseille","lat":43.29192,"lon":5.39323,"is_reserved":false,"is_disabled":false,"rental_uris":{"android":"levelo://app?vid=0bb60c3f-3969-49d1-af29-dbbd3cb394b1","ios":"levelo://app?vid=0bb60c3f-3969-49d1-af29-dbbd3cb394b1"},"vehicle_type_id":"4","last_reported":1748898596,"current_range_meters":16400,"station_id":"ce4bh192rcd13ifvqdd0","pricing_plan_id":"cebpf4jnsgd1na2vs0mg"},{"bike_id":"667c34cd-57b7-4207-b615-fd66ddd9efe2","system_id":"levelo_inurba_marseille","lat":43.29548,"lon":5.39025,"is_reserved":false,"is_disabled":false,"rental_uris":{"android":"levelo://app?vid=667c34cd-57b7-4207-b615-fd66ddd9efe2","ios":"levelo://app?vid=667c34cd-57b7-4207-b615-fd66ddd9efe2"},"vehicle_type_id":"4","last_reported":1748898596,"current_range_meters":16400,"station_id":"ce4bh3p2rcd13ifvqdp0","pricing_plan_id":"cebpf4jnsgd1na2vs0mg"},{"bike_id":"c61aa0f8-37eb-4f90-b064-55fcc4e26378","system_id":"levelo_inurba_marseille","lat":43.28344,"lon":5.38106,"is_reserved":false,"is_disabled":false,"rental_uris":{"android":"levelo://app?vid=c61aa0f8-37eb-4f90-b064-55fcc4e26378","ios":"levelo://app?vid=c61aa0f8-37eb-4f90-b064-55fcc4e26378"},"vehicle_type_id":"4","last_reported":1748898596,"current_range_meters":16400,"station_id":"ce4bh412rcd13ifvqdr0","pricing_plan_id":"cebpf4jnsgd1na2vs0mg"},{"bike_id":"b638e3eb-311a-4243-b35a-0ee06c6221db","system_id":"levelo_inurba_marseille","lat":43.30137,"lon":5.37421,"is_reserved":false,"is_disabled":false,"rental_uris":{"android":"levelo://app?vid=b638e3eb-311a-4243-b35a-0ee06c6221db","ios":"levelo://app?vid=b638e3eb-311a-4243-b35a-0ee06c6221db"},"vehicle_type_id":"4","last_reported":1748898596,"current_range_meters":16800,"station_id":"ce4bgs92rcd13ifvqcc0","pricing_plan_id":"cebpf4jnsgd1na2vs0mg"},{"bike_id":"e7146f3b-a9eb-48e9-be8c-dba034b3e8e4","system_id":"levelo_inurba_marseille","lat":43.30775,"lon":5.37652,"is_reserved":false,"is_disabled":false,"rental_uris":{"android":"levelo://app?vid=e7146f3b-a9eb-48e9-be8c-dba034b3e8e4","ios":"levelo://app?vid=e7146f3b-a9eb-48e9-be8c-dba034b3e8e4"},"vehicle_type_id":"4","last_reported":1748898596,"current_range_meters":16800,"station_id":"ce4bgv92rcd13ifvqcq0","pricing_plan_id":"cebpf4jnsgd1na2vs0mg"},{"bike_id":"4138fca8-1b57-43a6-b6a9-09abaa470214","system_id":"levelo_inurba_marseille","lat":43.30416,"lon":5.41283,"is_reserved":false,"is_disabled":false,"rental_uris":{"android":"levelo://app?vid=4138fca8-1b57-43a6-b6a9-09abaa470214","ios":"levelo://app?vid=4138fca8-1b57-43a6-b6a9-09abaa470214"},"vehicle_type_id":"4","last_reported":1748898596,"current_range_meters":16800,"station_id":"ce4bhop2rcd13ifvqh8g","pricing_plan_id":"cebpf4jnsgd1na2vs0mg"},{"bike_id":"56ebd079-5325-4146-a252-c6e09bfabc00","system_id":"levelo_inurba_marseille","lat":43.31884,"lon":5.40734,"is_reserved":false,"is_disabled":false,"rental_uris":{"android":"levelo://app?vid=56ebd079-5325-4146-a252-c6e09bfabc00","ios":"levelo://app?vid=56ebd079-5325-4146-a252-c6e09bfabc00"},"vehicle_type_id":"4","last_reported":1748898596,"current_range_meters":16800,"station_id":"ce4bhq12rcd13ifvqhig","pricing_plan_id":"cebpf4jnsgd1na2vs0mg"},{"bike_id":"b7557344-82f1-4a35-96d4-b128a1446f19","system_id":"levelo_inurba_marseille","lat":43.32358,"lon":5.38893,"is_reserved":false,"is_disabled":false,"rental_uris":{"android":"levelo://app?vid=b7557344-82f1-4a35-96d4-b128a1446f19","ios":"levelo://app?vid=b7557344-82f1-4a35-96d4-b128a1446f19"},"vehicle_type_id":"4","last_reported":1748898596,"current_range_meters":16800,"station_id":"ce4bhqp2rcd13ifvqhog","pricing_plan_id":"cebpf4jnsgd1na2vs0mg"},{"bike_id":"a082cfc8-70c0-4316-b58b-8dca0406cb1a","system_id":"levelo_inurba_marseille","lat":43.254567,"lon":5.418549,"is_reserved":false,"is_disabled":false,"rental_uris":{"android":"levelo://app?vid=a082cfc8-70c0-4316-b58b-8dca0406cb1a","ios":"levelo://app?vid=a082cfc8-70c0-4316-b58b-8dca0406cb1a"},"vehicle_type_id":"4","last_reported":1748898596,"current_range_meters":17200,"station_id":"","pricing_plan_id":"cebpf4jnsgd1na2vs0mg"},{"bike_id":"f3254fa9-5ad1-4846-bfd4-4f8bc3692f7a","system_id":"levelo_inurba_marseille","lat":43.32599,"lon":5.42514,"is_reserved":false,"is_disabled":false,"rental_uris":{"android":"levelo://app?vid=f3254fa9-5ad1-4846-bfd4-4f8bc3692f7a","ios":"levelo://app?vid=f3254fa9-5ad1-4846-bfd4-4f8bc3692f7a"},"vehicle_type_id":"4","last_reported":1748898596,"current_range_meters":17200,"station_id":"","pricing_plan_id":"cebpf4jnsgd1na2vs0mg"},{"bike_id":"e31c84f5-c44b-48e2-adf2-52a2beace6c7","system_id":"levelo_inurba_marseille","lat":43.31743,"lon":5.37414,"is_reserved":false,"is_disabled":false,"rental_uris":{"android":"levelo://app?vid=e31c84f5-c44b-48e2-adf2-52a2beace6c7","ios":"levelo://app?vid=e31c84f5-c44b-48e2-adf2-52a2beace6c7"},"vehicle_type_id":"4","last_reported":1748898596,"current_range_meters":17200,"station_id":"","pricing_plan_id":"cebpf4jnsgd1na2vs0mg"},{"bike_id":"dba232dd-05ec-4177-8fee-3d3dc476d851","system_id":"levelo_inurba_marseille","lat":43.2795,"lon":5.41607,"is_reserved":false,"is_disabled":false,"rental_uris":{"android":"levelo://app?vid=dba232dd-05ec-4177-8fee-3d3dc476d851","ios":"levelo://app?vid=dba232dd-05ec-4177-8fee-3d3dc476d851"},"vehicle_type_id":"4","last_reported":1748898596,"current_range_meters":17200,"station_id":"","pricing_plan_id":"cebpf4jnsgd1na2vs0mg"},{"bike_id":"ec703396-c7cc-443f-bdac-322633d79fb4","system_id":"levelo_inurba_marseille","lat":43.29102,"lon":5.38156,"is_reserved":false,"is_disabled":false,"rental_uris":{"android":"levelo://app?vid=ec703396-c7cc-443f-bdac-322633d79fb4","ios":"levelo://app?vid=ec703396-c7cc-443f-bdac-322633d79fb4"},"vehicle_type_id":"4","last_reported":1748898596,"current_range_meters":17200,"station_id":"ce4bh512rcd13ifvqe2g","pricing_plan_id":"cebpf4jnsgd1na2vs0mg"},{"bike_id":"4e0e48a3-c0b7-4ff0-ad8a-47d0f7418f77","system_id":"levelo_inurba_marseille","lat":43.28041,"lon":5.36941,"is_reserved":false,"is_disabled":false,"rental_uris":{"android":"levelo://app?vid=4e0e48a3-c0b7-4ff0-ad8a-47d0f7418f77","ios":"levelo://app?vid=4e0e48a3-c0b7-4ff0-ad8a-47d0f7418f77"},"vehicle_type_id":"4","last_reported":1748898596,"current_range_meters":17200,"station_id":"ce4bha12rcd13ifvqef0","pricing_plan_id":"cebpf4jnsgd1na2vs0mg"},{"bike_id":"afd16c10-99dc-4900-b89b-fa3b07370883","system_id":"levelo_inurba_marseille","lat":43.2846,"lon":5.35883,"is_reserved":false,"is_disabled":false,"rental_uris":{"android":"levelo://app?vid=afd16c10-99dc-4900-b89b-fa3b07370883","ios":"levelo://app?vid=afd16c10-99dc-4900-b89b-fa3b07370883"},"vehicle_type_id":"4","last_reported":1748898596,"current_range_meters":17200,"station_id":"ce4bhah2rcd13ifvqei0","pricing_plan_id":"cebpf4jnsgd1na2vs0mg"},{"bike_id":"89fe64c7-aff6-494e-8271-d9c172c2b8af","system_id":"levelo_inurba_marseille","lat":43.27946,"lon":5.41037,"is_reserved":false,"is_disabled":false,"rental_uris":{"android":"levelo://app?vid=89fe64c7-aff6-494e-8271-d9c172c2b8af","ios":"levelo://app?vid=89fe64c7-aff6-494e-8271-d9c172c2b8af"},"vehicle_type_id":"4","last_reported":1748898596,"current_range_meters":17200,"station_id":"ce4bhnp2rcd13ifvqh0g","pricing_plan_id":"cebpf4jnsgd1na2vs0mg"},{"bike_id":"1cb7c0a1-48f8-49ab-9106-52040059037c","system_id":"levelo_inurba_marseille","lat":43.23055,"lon":5.35496,"is_reserved":false,"is_disabled":false,"rental_uris":{"android":"levelo://app?vid=1cb7c0a1-48f8-49ab-9106-52040059037c","ios":"levelo://app?vid=1cb7c0a1-48f8-49ab-9106-52040059037c"},"vehicle_type_id":"4","last_reported":1748898596,"current_range_meters":17200,"station_id":"cpo3342slgdg3j2ifvpg","pricing_plan_id":"cebpf4jnsgd1na2vs0mg"},{"bike_id":"6db8da9d-ed27-45cf-9935-6e37c99d0be9","system_id":"levelo_inurba_marseille","lat":43.26245,"lon":5.40116,"is_reserved":false,"is_disabled":false,"rental_uris":{"android":"levelo://app?vid=6db8da9d-ed27-45cf-9935-6e37c99d0be9","ios":"levelo://app?vid=6db8da9d-ed27-45cf-9935-6e37c99d0be9"},"vehicle_type_id":"4","last_reported":1748898596,"current_range_meters":17600,"station_id":"","pricing_plan_id":"cebpf4jnsgd1na2vs0mg"},{"bike_id":"e9bbb308-6d20-4f51-b045-5d1fb32e4b86","system_id":"levelo_inurba_marseille","lat":43.29946,"lon":5.3652,"is_reserved":false,"is_disabled":false,"rental_uris":{"android":"levelo://app?vid=e9bbb308-6d20-4f51-b045-5d1fb32e4b86","ios":"levelo://app?vid=e9bbb308-6d20-4f51-b045-5d1fb32e4b86"},"vehicle_type_id":"4","last_reported":1748898596,"current_range_meters":17600,"station_id":"ce4bgm92rcd13ifvqbr0","pricing_plan_id":"cebpf4jnsgd1na2vs0mg"},{"bike_id":"07c9594d-b99e-400e-a80c-09207d93fe35","system_id":"levelo_inurba_marseille","lat":43.30603,"lon":5.3722,"is_reserved":false,"is_disabled":false,"rental_uris":{"android":"levelo://app?vid=07c9594d-b99e-400e-a80c-09207d93fe35","ios":"levelo://app?vid=07c9594d-b99e-400e-a80c-09207d93fe35"},"vehicle_type_id":"4","last_reported":1748898596,"current_range_meters":17600,"station_id":"ce4bgqh2rcd13ifvqc4g","pricing_plan_id":"cebpf4jnsgd1na2vs0mg"},{"bike_id":"91e2ebb5-9aae-49b8-891c-7675c71ef12d","system_id":"levelo_inurba_marseille","lat":43.30871,"lon":5.39638,"is_reserved":false,"is_disabled":false,"rental_uris":{"android":"levelo://app?vid=91e2ebb5-9aae-49b8-891c-7675c71ef12d","ios":"levelo://app?vid=91e2ebb5-9aae-49b8-891c-7675c71ef12d"},"vehicle_type_id":"4","last_reported":1748898596,"current_range_meters":17600,"station_id":"ce4bh012rcd13ifvqcv0","pricing_plan_id":"cebpf4jnsgd1na2vs0mg"},{"bike_id":"cb9f28bf-c429-4345-8707-db2b7f7b2e19","system_id":"levelo_inurba_marseille","lat":43.28931,"lon":5.384,"is_reserved":false,"is_disabled":false,"rental_uris":{"android":"levelo://app?vid=cb9f28bf-c429-4345-8707-db2b7f7b2e19","ios":"levelo://app?vid=cb9f28bf-c429-4345-8707-db2b7f7b2e19"},"vehicle_type_id":"4","last_reported":1748898596,"current_range_meters":17600,"station_id":"ce4bh612rcd13ifvqe6g","pricing_plan_id":"cebpf4jnsgd1na2vs0mg"},{"bike_id":"1accb266-5c06-4e0b-9cf8-05659bb1df76","system_id":"levelo_inurba_marseille","lat":43.2944,"lon":5.39749,"is_reserved":false,"is_disabled":false,"rental_uris":{"android":"levelo://app?vid=1accb266-5c06-4e0b-9cf8-05659bb1df76","ios":"levelo://app?vid=1accb266-5c06-4e0b-9cf8-05659bb1df76"},"vehicle_type_id":"4","last_reported":1748898596,"current_range_meters":18000,"station_id":"ce4bh3h2rcd13ifvqdo0","pricing_plan_id":"cebpf4jnsgd1na2vs0mg"},{"bike_id":"bd687d19-15c6-41dc-a260-543fd5943fd2","system_id":"levelo_inurba_marseille","lat":43.246548,"lon":5.388902,"is_reserved":false,"is_disabled":false,"rental_uris":{"android":"levelo://app?vid=bd687d19-15c6-41dc-a260-543fd5943fd2","ios":"levelo://app?vid=bd687d19-15c6-41dc-a260-543fd5943fd2"},"vehicle_type_id":"4","last_reported":1748898596,"current_range_meters":18000,"station_id":"ce4bhg12rcd13ifvqf60","pricing_plan_id":"cebpf4jnsgd1na2vs0mg"},{"bike_id":"8e45c534-9f38-4aaf-bfc0-20831aa0c778","system_id":"levelo_inurba_marseille","lat":43.26061,"lon":5.3937,"is_reserved":false,"is_disabled":false,"rental_uris":{"android":"levelo://app?vid=8e45c534-9f38-4aaf-bfc0-20831aa0c778","ios":"levelo://app?vid=8e45c534-9f38-4aaf-bfc0-20831aa0c778"},"vehicle_type_id":"4","last_reported":1748898596,"current_range_meters":18000,"station_id":"ce4bhh92rcd13ifvqfj0","pricing_plan_id":"cebpf4jnsgd1na2vs0mg"},{"bike_id":"859fcab1-74b2-40a1-b9e6-866c899a681e","system_id":"levelo_inurba_marseille","lat":43.279964,"lon":5.400092,"is_reserved":false,"is_disabled":false,"rental_uris":{"android":"levelo://app?vid=859fcab1-74b2-40a1-b9e6-866c899a681e","ios":"levelo://app?vid=859fcab1-74b2-40a1-b9e6-866c899a681e"},"vehicle_type_id":"4","last_reported":1748898596,"current_range_meters":18000,"station_id":"ce4bho92rcd13ifvqh4g","pricing_plan_id":"cebpf4jnsgd1na2vs0mg"},{"bike_id":"61ce4ee7-d702-4080-8219-2a202017ab3c","system_id":"levelo_inurba_marseille","lat":43.29882,"lon":5.3973,"is_reserved":false,"is_disabled":false,"rental_uris":{"android":"levelo://app?vid=61ce4ee7-d702-4080-8219-2a202017ab3c","ios":"levelo://app?vid=61ce4ee7-d702-4080-8219-2a202017ab3c"},"vehicle_type_id":"4","last_reported":1748898596,"current_range_meters":18800,"station_id":"ce4bh0h2rcd13ifvqd50","pricing_plan_id":"cebpf4jnsgd1na2vs0mg"},{"bike_id":"b8e06d94-0159-4649-a865-7bdd7cb90736","system_id":"levelo_inurba_marseille","lat":43.30583,"lon":5.39346,"is_reserved":false,"is_disabled":false,"rental_uris":{"android":"levelo://app?vid=b8e06d94-0159-4649-a865-7bdd7cb90736","ios":"levelo://app?vid=b8e06d94-0159-4649-a865-7bdd7cb90736"},"vehicle_type_id":"4","last_reported":1748898596,"current_range_meters":18800,"station_id":"ce4bh0p2rcd13ifvqd80","pricing_plan_id":"cebpf4jnsgd1na2vs0mg"},{"bike_id":"acc3e4ee-a7dd-4f1c-a2ef-71b8a1ea21b8","system_id":"levelo_inurba_marseille","lat":43.28968,"lon":5.37832,"is_reserved":false,"is_disabled":false,"rental_uris":{"android":"levelo://app?vid=acc3e4ee-a7dd-4f1c-a2ef-71b8a1ea21b8","ios":"levelo://app?vid=acc3e4ee-a7dd-4f1c-a2ef-71b8a1ea21b8"},"vehicle_type_id":"4","last_reported":1748898596,"current_range_meters":18800,"station_id":"ce4bh9p2rcd13ifvqed0","pricing_plan_id":"cebpf4jnsgd1na2vs0mg"},{"bike_id":"6e95673a-fc97-481f-9569-79e0a78bf150","system_id":"levelo_inurba_marseille","lat":43.2794,"lon":5.41043,"is_reserved":false,"is_disabled":false,"rental_uris":{"android":"levelo://app?vid=6e95673a-fc97-481f-9569-79e0a78bf150","ios":"levelo://app?vid=6e95673a-fc97-481f-9569-79e0a78bf150"},"vehicle_type_id":"4","last_reported":1748898596,"current_range_meters":18800,"station_id":"ce4bhnp2rcd13ifvqh0g","pricing_plan_id":"cebpf4jnsgd1na2vs0mg"},{"bike_id":"e073c3b9-579e-431b-8c54-b6a28caa0933","system_id":"levelo_inurba_marseille","lat":43.229366,"lon":5.353879,"is_reserved":false,"is_disabled":false,"rental_uris":{"android":"levelo://app?vid=e073c3b9-579e-431b-8c54-b6a28caa0933","ios":"levelo://app?vid=e073c3b9-579e-431b-8c54-b6a28caa0933"},"vehicle_type_id":"4","last_reported":1748898596,"current_range_meters":18800,"station_id":"cpo3532slgdg3j2ikp40","pricing_plan_id":"cebpf4jnsgd1na2vs0mg"},{"bike_id":"4e17c123-8236-4a02-a8a2-a61cdc625d7e","system_id":"levelo_inurba_marseille","lat":43.3047,"lon":5.37064,"is_reserved":false,"is_disabled":false,"rental_uris":{"android":"levelo://app?vid=4e17c123-8236-4a02-a8a2-a61cdc625d7e","ios":"levelo://app?vid=4e17c123-8236-4a02-a8a2-a61cdc625d7e"},"vehicle_type_id":"4","last_reported":1748898596,"current_range_meters":19200,"station_id":"","pricing_plan_id":"cebpf4jnsgd1na2vs0mg"},{"bike_id":"ed2ade22-5b7a-41a9-9182-3b41389df743","system_id":"levelo_inurba_marseille","lat":43.28222,"lon":5.39071,"is_reserved":false,"is_disabled":false,"rental_uris":{"android":"levelo://app?vid=ed2ade22-5b7a-41a9-9182-3b41389df743","ios":"levelo://app?vid=ed2ade22-5b7a-41a9-9182-3b41389df743"},"vehicle_type_id":"4","last_reported":1748898596,"current_range_meters":19200,"station_id":"","pricing_plan_id":"cebpf4jnsgd1na2vs0mg"},{"bike_id":"1c0d1be6-a5fc-47ef-9364-f57695611439","system_id":"levelo_inurba_marseille","lat":43.3312,"lon":5.41398,"is_reserved":false,"is_disabled":false,"rental_uris":{"android":"levelo://app?vid=1c0d1be6-a5fc-47ef-9364-f57695611439","ios":"levelo://app?vid=1c0d1be6-a5fc-47ef-9364-f57695611439"},"vehicle_type_id":"4","last_reported":1748898596,"current_range_meters":19200,"station_id":"","pricing_plan_id":"cebpf4jnsgd1na2vs0mg"},{"bike_id":"5078f4c3-6e97-4a53-af7c-872f764df23c","system_id":"levelo_inurba_marseille","lat":43.30928,"lon":5.40139,"is_reserved":false,"is_disabled":false,"rental_uris":{"android":"levelo://app?vid=5078f4c3-6e97-4a53-af7c-872f764df23c","ios":"levelo://app?vid=5078f4c3-6e97-4a53-af7c-872f764df23c"},"vehicle_type_id":"4","last_reported":1748898596,"current_range_meters":19200,"station_id":"ce4bgvp2rcd13ifvqct0","pricing_plan_id":"cebpf4jnsgd1na2vs0mg"},{"bike_id":"8f95e577-8eb4-4bee-9047-5cee0eb4c71c","system_id":"levelo_inurba_marseille","lat":43.28938,"lon":5.36635,"is_reserved":false,"is_disabled":false,"rental_uris":{"android":"levelo://app?vid=8f95e577-8eb4-4bee-9047-5cee0eb4c71c","ios":"levelo://app?vid=8f95e577-8eb4-4bee-9047-5cee0eb4c71c"},"vehicle_type_id":"4","last_reported":1748898596,"current_range_meters":19200,"station_id":"ce4bhap2rcd13ifvqek0","pricing_plan_id":"cebpf4jnsgd1na2vs0mg"},{"bike_id":"bae57be5-cdae-42d5-be07-b232b26642d0","system_id":"levelo_inurba_marseille","lat":43.32331,"lon":5.40601,"is_reserved":false,"is_disabled":false,"rental_uris":{"android":"levelo://app?vid=bae57be5-cdae-42d5-be07-b232b26642d0","ios":"levelo://app?vid=bae57be5-cdae-42d5-be07-b232b26642d0"},"vehicle_type_id":"4","last_reported":1748898596,"current_range_meters":19200,"station_id":"ce4bhq92rcd13ifvqhjg","pricing_plan_id":"cebpf4jnsgd1na2vs0mg"},{"bike_id":"5b536054-600d-4e23-8558-f74f4f3ec365","system_id":"levelo_inurba_marseille","lat":43.330178,"lon":5.390478,"is_reserved":false,"is_disabled":false,"rental_uris":{"android":"levelo://app?vid=5b536054-600d-4e23-8558-f74f4f3ec365","ios":"levelo://app?vid=5b536054-600d-4e23-8558-f74f4f3ec365"},"vehicle_type_id":"4","last_reported":1748898596,"current_range_meters":19200,"station_id":"ce4bhr92rcd13ifvqhrg","pricing_plan_id":"cebpf4jnsgd1na2vs0mg"},{"bike_id":"2a804f07-ef43-4ee0-aa11-f4b6cb9df5af","system_id":"levelo_inurba_marseille","lat":43.29799,"lon":5.3934,"is_reserved":false,"is_disabled":false,"rental_uris":{"android":"levelo://app?vid=2a804f07-ef43-4ee0-aa11-f4b6cb9df5af","ios":"levelo://app?vid=2a804f07-ef43-4ee0-aa11-f4b6cb9df5af"},"vehicle_type_id":"4","last_reported":1748898596,"current_range_meters":19200,"station_id":"chh1huq6cuj3fo74tm60","pricing_plan_id":"cebpf4jnsgd1na2vs0mg"},{"bike_id":"0b356486-7882-4a7b-adf5-4fabd328daf9","system_id":"levelo_inurba_marseille","lat":43.28727,"lon":5.36076,"is_reserved":false,"is_disabled":false,"rental_uris":{"android":"levelo://app?vid=0b356486-7882-4a7b-adf5-4fabd328daf9","ios":"levelo://app?vid=0b356486-7882-4a7b-adf5-4fabd328daf9"},"vehicle_type_id":"4","last_reported":1748898596,"current_range_meters":19200,"station_id":"cki0cbj6b192h4jlfktg","pricing_plan_id":"cebpf4jnsgd1na2vs0mg"},{"bike_id":"a062fae3-bf19-4ed3-b11f-bbec44e3344b","system_id":"levelo_inurba_marseille","lat":43.321167,"lon":5.407778,"is_reserved":false,"is_disabled":false,"rental_uris":{"android":"levelo://app?vid=a062fae3-bf19-4ed3-b11f-bbec44e3344b","ios":"levelo://app?vid=a062fae3-bf19-4ed3-b11f-bbec44e3344b"},"vehicle_type_id":"4","last_reported":1748898596,"current_range_meters":19600,"station_id":"","pricing_plan_id":"cebpf4jnsgd1na2vs0mg"},{"bike_id":"279df24f-11ab-4cd9-8fdb-d240718623c9","system_id":"levelo_inurba_marseille","lat":43.29527,"lon":5.39035,"is_reserved":false,"is_disabled":false,"rental_uris":{"android":"levelo://app?vid=279df24f-11ab-4cd9-8fdb-d240718623c9","ios":"levelo://app?vid=279df24f-11ab-4cd9-8fdb-d240718623c9"},"vehicle_type_id":"4","last_reported":1748898596,"current_range_meters":19600,"station_id":"ce4bh3p2rcd13ifvqdp0","pricing_plan_id":"cebpf4jnsgd1na2vs0mg"},{"bike_id":"f76fef82-f050-49ee-893b-b71824e9c659","system_id":"levelo_inurba_marseille","lat":43.28688,"lon":5.37403,"is_reserved":false,"is_disabled":false,"rental_uris":{"android":"levelo://app?vid=f76fef82-f050-49ee-893b-b71824e9c659","ios":"levelo://app?vid=f76fef82-f050-49ee-893b-b71824e9c659"},"vehicle_type_id":"4","last_reported":1748898596,"current_range_meters":19600,"station_id":"ce4bh3p2rcd13ifvqdq0","pricing_plan_id":"cebpf4jnsgd1na2vs0mg"},{"bike_id":"3795a319-3e3b-4fcc-8a4f-4e5865cac8f9","system_id":"levelo_inurba_marseille","lat":43.2902,"lon":5.38127,"is_reserved":false,"is_disabled":false,"rental_uris":{"android":"levelo://app?vid=3795a319-3e3b-4fcc-8a4f-4e5865cac8f9","ios":"levelo://app?vid=3795a319-3e3b-4fcc-8a4f-4e5865cac8f9"},"vehicle_type_id":"4","last_reported":1748898596,"current_range_meters":19600,"station_id":"ce4bh4p2rcd13ifvqe1g","pricing_plan_id":"cebpf4jnsgd1na2vs0mg"},{"bike_id":"d132d9b5-c167-4dfd-afdf-58198eef141b","system_id":"levelo_inurba_marseille","lat":43.24547,"lon":5.39539,"is_reserved":false,"is_disabled":false,"rental_uris":{"android":"levelo://app?vid=d132d9b5-c167-4dfd-afdf-58198eef141b","ios":"levelo://app?vid=d132d9b5-c167-4dfd-afdf-58198eef141b"},"vehicle_type_id":"4","last_reported":1748898596,"current_range_meters":19600,"station_id":"ce4bhlp2rcd13ifvqgjg","pricing_plan_id":"cebpf4jnsgd1na2vs0mg"},{"bike_id":"96425785-67ec-44b8-ac35-6530cd1939ae","system_id":"levelo_inurba_marseille","lat":43.24181,"lon":5.39728,"is_reserved":false,"is_disabled":false,"rental_uris":{"android":"levelo://app?vid=96425785-67ec-44b8-ac35-6530cd1939ae","ios":"levelo://app?vid=96425785-67ec-44b8-ac35-6530cd1939ae"},"vehicle_type_id":"4","last_reported":1748898596,"current_range_meters":19600,"station_id":"ce4bhn12rcd13ifvqgpg","pricing_plan_id":"cebpf4jnsgd1na2vs0mg"},{"bike_id":"22f839c0-7837-49f4-b4b1-6cd233d79363","system_id":"levelo_inurba_marseille","lat":43.29901,"lon":5.43664,"is_reserved":false,"is_disabled":false,"rental_uris":{"android":"levelo://app?vid=22f839c0-7837-49f4-b4b1-6cd233d79363","ios":"levelo://app?vid=22f839c0-7837-49f4-b4b1-6cd233d79363"},"vehicle_type_id":"4","last_reported":1748898596,"current_range_meters":19600,"station_id":"ce4bhpp2rcd13ifvqhfg","pricing_plan_id":"cebpf4jnsgd1na2vs0mg"},{"bike_id":"23976131-e815-4c78-b392-beb17b57ea0f","system_id":"levelo_inurba_marseille","lat":43.341522,"lon":5.408988,"is_reserved":false,"is_disabled":false,"rental_uris":{"android":"levelo://app?vid=23976131-e815-4c78-b392-beb17b57ea0f","ios":"levelo://app?vid=23976131-e815-4c78-b392-beb17b57ea0f"},"vehicle_type_id":"4","last_reported":1748898596,"current_range_meters":19600,"station_id":"ce4bhqh2rcd13ifvqhlg","pricing_plan_id":"cebpf4jnsgd1na2vs0mg"},{"bike_id":"5b37d2d0-65a9-4ed5-9e50-fc43db45bb7c","system_id":"levelo_inurba_marseille","lat":43.32001,"lon":5.38157,"is_reserved":false,"is_disabled":false,"rental_uris":{"android":"levelo://app?vid=5b37d2d0-65a9-4ed5-9e50-fc43db45bb7c","ios":"levelo://app?vid=5b37d2d0-65a9-4ed5-9e50-fc43db45bb7c"},"vehicle_type_id":"4","last_reported":1748898596,"current_range_meters":19600,"station_id":"ce4bhr12rcd13ifvqhpg","pricing_plan_id":"cebpf4jnsgd1na2vs0mg"},{"bike_id":"f0d34e7f-8103-46e9-a438-c85d36f28543","system_id":"levelo_inurba_marseille","lat":43.27836,"lon":5.3537,"is_reserved":false,"is_disabled":false,"rental_uris":{"android":"levelo://app?vid=f0d34e7f-8103-46e9-a438-c85d36f28543","ios":"levelo://app?vid=f0d34e7f-8103-46e9-a438-c85d36f28543"},"vehicle_type_id":"4","last_reported":1748898596,"current_range_meters":20000,"station_id":"","pricing_plan_id":"cebpf4jnsgd1na2vs0mg"},{"bike_id":"2e9ee4ff-5831-4b9b-b935-4fed01d965f7","system_id":"levelo_inurba_marseille","lat":43.30212,"lon":5.39471,"is_reserved":false,"is_disabled":false,"rental_uris":{"android":"levelo://app?vid=2e9ee4ff-5831-4b9b-b935-4fed01d965f7","ios":"levelo://app?vid=2e9ee4ff-5831-4b9b-b935-4fed01d965f7"},"vehicle_type_id":"4","last_reported":1748898596,"current_range_meters":20000,"station_id":"ce4bh0p2rcd13ifvqd70","pricing_plan_id":"cebpf4jnsgd1na2vs0mg"},{"bike_id":"1549266d-daaf-4fc4-acfb-93db248bc563","system_id":"levelo_inurba_marseille","lat":43.28934,"lon":5.39622,"is_reserved":false,"is_disabled":false,"rental_uris":{"android":"levelo://app?vid=1549266d-daaf-4fc4-acfb-93db248bc563","ios":"levelo://app?vid=1549266d-daaf-4fc4-acfb-93db248bc563"},"vehicle_type_id":"4","last_reported":1748898596,"current_range_meters":20000,"station_id":"ce4bh3h2rcd13ifvqdn0","pricing_plan_id":"cebpf4jnsgd1na2vs0mg"},{"bike_id":"549377c2-872f-481d-9866-fa5d22982b8f","system_id":"levelo_inurba_marseille","lat":43.292605,"lon":5.384395,"is_reserved":false,"is_disabled":false,"rental_uris":{"android":"levelo://app?vid=549377c2-872f-481d-9866-fa5d22982b8f","ios":"levelo://app?vid=549377c2-872f-481d-9866-fa5d22982b8f"},"vehicle_type_id":"4","last_reported":1748898596,"current_range_meters":20000,"station_id":"ce4bh692rcd13ifvqea0","pricing_plan_id":"cebpf4jnsgd1na2vs0mg"},{"bike_id":"fb596a8f-b4d3-43a2-8ca3-55a861bd54ea","system_id":"levelo_inurba_marseille","lat":43.28855,"lon":5.35847,"is_reserved":false,"is_disabled":false,"rental_uris":{"android":"levelo://app?vid=fb596a8f-b4d3-43a2-8ca3-55a861bd54ea","ios":"levelo://app?vid=fb596a8f-b4d3-43a2-8ca3-55a861bd54ea"},"vehicle_type_id":"4","last_reported":1748898596,"current_range_meters":20000,"station_id":"ce4bhb12rcd13ifvqem0","pricing_plan_id":"cebpf4jnsgd1na2vs0mg"},{"bike_id":"75b78a8c-e650-4bd1-8ece-c515b3b1ca86","system_id":"levelo_inurba_marseille","lat":43.24075,"lon":5.37759,"is_reserved":false,"is_disabled":false,"rental_uris":{"android":"levelo://app?vid=75b78a8c-e650-4bd1-8ece-c515b3b1ca86","ios":"levelo://app?vid=75b78a8c-e650-4bd1-8ece-c515b3b1ca86"},"vehicle_type_id":"4","last_reported":1748898596,"current_range_meters":20000,"station_id":"ce4bhnp2rcd13ifvqgvg","pricing_plan_id":"cebpf4jnsgd1na2vs0mg"},{"bike_id":"03c8c524-d600-4d9e-aa7f-f80a900da483","system_id":"levelo_inurba_marseille","lat":43.27948,"lon":5.41044,"is_reserved":false,"is_disabled":false,"rental_uris":{"android":"levelo://app?vid=03c8c524-d600-4d9e-aa7f-f80a900da483","ios":"levelo://app?vid=03c8c524-d600-4d9e-aa7f-f80a900da483"},"vehicle_type_id":"4","last_reported":1748898596,"current_range_meters":20000,"station_id":"ce4bhnp2rcd13ifvqh0g","pricing_plan_id":"cebpf4jnsgd1na2vs0mg"},{"bike_id":"80b1fd5c-60f4-4f78-9ee6-4553d53a90b1","system_id":"levelo_inurba_marseille","lat":43.287103,"lon":5.399855,"is_reserved":false,"is_disabled":false,"rental_uris":{"android":"levelo://app?vid=80b1fd5c-60f4-4f78-9ee6-4553d53a90b1","ios":"levelo://app?vid=80b1fd5c-60f4-4f78-9ee6-4553d53a90b1"},"vehicle_type_id":"4","last_reported":1748898596,"current_range_meters":20000,"station_id":"ce4bho92rcd13ifvqh3g","pricing_plan_id":"cebpf4jnsgd1na2vs0mg"},{"bike_id":"c4704f11-508e-4aaf-bea9-474c3265ad65","system_id":"levelo_inurba_marseille","lat":43.302653,"lon":5.400525,"is_reserved":false,"is_disabled":false,"rental_uris":{"android":"levelo://app?vid=c4704f11-508e-4aaf-bea9-474c3265ad65","ios":"levelo://app?vid=c4704f11-508e-4aaf-bea9-474c3265ad65"},"vehicle_type_id":"4","last_reported":1748898596,"current_range_meters":20400,"station_id":"ce4bgvh2rcd13ifvqcs0","pricing_plan_id":"cebpf4jnsgd1na2vs0mg"},{"bike_id":"a5ebabb8-24ce-4621-a633-aaada072c9fb","system_id":"levelo_inurba_marseille","lat":43.31331,"lon":5.39677,"is_reserved":false,"is_disabled":false,"rental_uris":{"android":"levelo://app?vid=a5ebabb8-24ce-4621-a633-aaada072c9fb","ios":"levelo://app?vid=a5ebabb8-24ce-4621-a633-aaada072c9fb"},"vehicle_type_id":"4","last_reported":1748898596,"current_range_meters":20400,"station_id":"ce4bgvp2rcd13ifvqcu0","pricing_plan_id":"cebpf4jnsgd1na2vs0mg"},{"bike_id":"3c8e7a18-de47-410f-938b-d8977225abf3","system_id":"levelo_inurba_marseille","lat":43.29279,"lon":5.4012,"is_reserved":false,"is_disabled":false,"rental_uris":{"android":"levelo://app?vid=3c8e7a18-de47-410f-938b-d8977225abf3","ios":"levelo://app?vid=3c8e7a18-de47-410f-938b-d8977225abf3"},"vehicle_type_id":"4","last_reported":1748898596,"current_range_meters":20400,"station_id":"ce4bh312rcd13ifvqdk0","pricing_plan_id":"cebpf4jnsgd1na2vs0mg"},{"bike_id":"f499ec0f-5b97-4106-9d62-953eecf013c2","system_id":"levelo_inurba_marseille","lat":43.24068,"lon":5.37744,"is_reserved":false,"is_disabled":false,"rental_uris":{"android":"levelo://app?vid=f499ec0f-5b97-4106-9d62-953eecf013c2","ios":"levelo://app?vid=f499ec0f-5b97-4106-9d62-953eecf013c2"},"vehicle_type_id":"4","last_reported":1748898596,"current_range_meters":20400,"station_id":"ce4bhnp2rcd13ifvqgvg","pricing_plan_id":"cebpf4jnsgd1na2vs0mg"},{"bike_id":"82da598f-c65a-40d0-8c8d-fb7fe4ce4e62","system_id":"levelo_inurba_marseille","lat":43.31997,"lon":5.38152,"is_reserved":false,"is_disabled":false,"rental_uris":{"android":"levelo://app?vid=82da598f-c65a-40d0-8c8d-fb7fe4ce4e62","ios":"levelo://app?vid=82da598f-c65a-40d0-8c8d-fb7fe4ce4e62"},"vehicle_type_id":"4","last_reported":1748898596,"current_range_meters":20400,"station_id":"ce4bhr12rcd13ifvqhpg","pricing_plan_id":"cebpf4jnsgd1na2vs0mg"},{"bike_id":"4f2e49a2-da71-4850-b09d-3b6098797140","system_id":"levelo_inurba_marseille","lat":43.29615,"lon":5.37722,"is_reserved":false,"is_disabled":false,"rental_uris":{"android":"levelo://app?vid=4f2e49a2-da71-4850-b09d-3b6098797140","ios":"levelo://app?vid=4f2e49a2-da71-4850-b09d-3b6098797140"},"vehicle_type_id":"4","last_reported":1748898596,"current_range_meters":20800,"station_id":"ce4bgi92rcd13ifvqb90","pricing_plan_id":"cebpf4jnsgd1na2vs0mg"},{"bike_id":"da24cf1b-31fd-471a-8de6-a08b484d1617","system_id":"levelo_inurba_marseille","lat":43.30138,"lon":5.39847,"is_reserved":false,"is_disabled":false,"rental_uris":{"android":"levelo://app?vid=da24cf1b-31fd-471a-8de6-a08b484d1617","ios":"levelo://app?vid=da24cf1b-31fd-471a-8de6-a08b484d1617"},"vehicle_type_id":"4","last_reported":1748898596,"current_range_meters":20800,"station_id":"ce4bh0h2rcd13ifvqd40","pricing_plan_id":"cebpf4jnsgd1na2vs0mg"},{"bike_id":"da26f9ff-4cda-48ab-9722-2ad8b0e7cac4","system_id":"levelo_inurba_marseille","lat":43.28411,"lon":5.37543,"is_reserved":false,"is_disabled":false,"rental_uris":{"android":"levelo://app?vid=da26f9ff-4cda-48ab-9722-2ad8b0e7cac4","ios":"levelo://app?vid=da26f9ff-4cda-48ab-9722-2ad8b0e7cac4"},"vehicle_type_id":"4","last_reported":1748898596,"current_range_meters":20800,"station_id":"ce4bh412rcd13ifvqds0","pricing_plan_id":"cebpf4jnsgd1na2vs0mg"},{"bike_id":"e69a33a5-c4d6-4eaa-8ae6-4cc135b884a8","system_id":"levelo_inurba_marseille","lat":43.292546,"lon":5.384342,"is_reserved":false,"is_disabled":false,"rental_uris":{"android":"levelo://app?vid=e69a33a5-c4d6-4eaa-8ae6-4cc135b884a8","ios":"levelo://app?vid=e69a33a5-c4d6-4eaa-8ae6-4cc135b884a8"},"vehicle_type_id":"4","last_reported":1748898596,"current_range_meters":20800,"station_id":"ce4bh692rcd13ifvqea0","pricing_plan_id":"cebpf4jnsgd1na2vs0mg"},{"bike_id":"826b2db6-1579-4beb-a849-09c1cda03041","system_id":"levelo_inurba_marseille","lat":43.279088,"lon":5.380041,"is_reserved":false,"is_disabled":false,"rental_uris":{"android":"levelo://app?vid=826b2db6-1579-4beb-a849-09c1cda03041","ios":"levelo://app?vid=826b2db6-1579-4beb-a849-09c1cda03041"},"vehicle_type_id":"4","last_reported":1748898596,"current_range_meters":20800,"station_id":"ce4bhf92rcd13ifvqf50","pricing_plan_id":"cebpf4jnsgd1na2vs0mg"},{"bike_id":"39465794-52fd-4ae0-a617-b2ec2aa583f4","system_id":"levelo_inurba_marseille","lat":43.28711,"lon":5.39984,"is_reserved":false,"is_disabled":false,"rental_uris":{"android":"levelo://app?vid=39465794-52fd-4ae0-a617-b2ec2aa583f4","ios":"levelo://app?vid=39465794-52fd-4ae0-a617-b2ec2aa583f4"},"vehicle_type_id":"4","last_reported":1748898596,"current_range_meters":20800,"station_id":"ce4bho92rcd13ifvqh3g","pricing_plan_id":"cebpf4jnsgd1na2vs0mg"},{"bike_id":"a3dfb24d-2bc1-4dbc-b2b2-807b9fa8d499","system_id":"levelo_inurba_marseille","lat":43.308,"lon":5.43525,"is_reserved":false,"is_disabled":false,"rental_uris":{"android":"levelo://app?vid=a3dfb24d-2bc1-4dbc-b2b2-807b9fa8d499","ios":"levelo://app?vid=a3dfb24d-2bc1-4dbc-b2b2-807b9fa8d499"},"vehicle_type_id":"4","last_reported":1748898596,"current_range_meters":20800,"station_id":"ce4bhph2rcd13ifvqheg","pricing_plan_id":"cebpf4jnsgd1na2vs0mg"},{"bike_id":"8dd40f6b-85b1-43f0-9250-5e6e12011669","system_id":"levelo_inurba_marseille","lat":43.30786,"lon":5.37646,"is_reserved":false,"is_disabled":false,"rental_uris":{"android":"levelo://app?vid=8dd40f6b-85b1-43f0-9250-5e6e12011669","ios":"levelo://app?vid=8dd40f6b-85b1-43f0-9250-5e6e12011669"},"vehicle_type_id":"4","last_reported":1748898596,"current_range_meters":21600,"station_id":"ce4bgv92rcd13ifvqcq0","pricing_plan_id":"cebpf4jnsgd1na2vs0mg"},{"bike_id":"50f2762f-7ef4-4d8a-8d1e-6ecf8747f020","system_id":"levelo_inurba_marseille","lat":43.30936,"lon":5.40141,"is_reserved":false,"is_disabled":false,"rental_uris":{"android":"levelo://app?vid=50f2762f-7ef4-4d8a-8d1e-6ecf8747f020","ios":"levelo://app?vid=50f2762f-7ef4-4d8a-8d1e-6ecf8747f020"},"vehicle_type_id":"4","last_reported":1748898596,"current_range_meters":21600,"station_id":"ce4bgvp2rcd13ifvqct0","pricing_plan_id":"cebpf4jnsgd1na2vs0mg"},{"bike_id":"b3e9e6a3-8b24-44f4-8cb4-4778f79554da","system_id":"levelo_inurba_marseille","lat":43.2834,"lon":5.38093,"is_reserved":false,"is_disabled":false,"rental_uris":{"android":"levelo://app?vid=b3e9e6a3-8b24-44f4-8cb4-4778f79554da","ios":"levelo://app?vid=b3e9e6a3-8b24-44f4-8cb4-4778f79554da"},"vehicle_type_id":"4","last_reported":1748898596,"current_range_meters":21600,"station_id":"ce4bh412rcd13ifvqdr0","pricing_plan_id":"cebpf4jnsgd1na2vs0mg"},{"bike_id":"2a6dca92-5f50-417b-99c5-6c535ece6724","system_id":"levelo_inurba_marseille","lat":43.275,"lon":5.42455,"is_reserved":false,"is_disabled":false,"rental_uris":{"android":"levelo://app?vid=2a6dca92-5f50-417b-99c5-6c535ece6724","ios":"levelo://app?vid=2a6dca92-5f50-417b-99c5-6c535ece6724"},"vehicle_type_id":"4","last_reported":1748898596,"current_range_meters":21600,"station_id":"ce4bhn92rcd13ifvqgrg","pricing_plan_id":"cebpf4jnsgd1na2vs0mg"},{"bike_id":"e5ffc1cb-a704-403e-ab7b-31df1fc02011","system_id":"levelo_inurba_marseille","lat":43.27951,"lon":5.41026,"is_reserved":false,"is_disabled":false,"rental_uris":{"android":"levelo://app?vid=e5ffc1cb-a704-403e-ab7b-31df1fc02011","ios":"levelo://app?vid=e5ffc1cb-a704-403e-ab7b-31df1fc02011"},"vehicle_type_id":"4","last_reported":1748898596,"current_range_meters":21600,"station_id":"ce4bhnp2rcd13ifvqh0g","pricing_plan_id":"cebpf4jnsgd1na2vs0mg"},{"bike_id":"143434d9-c66a-4f6f-95e1-671fee3703ec","system_id":"levelo_inurba_marseille","lat":43.25322,"lon":5.377037,"is_reserved":false,"is_disabled":false,"rental_uris":{"android":"levelo://app?vid=143434d9-c66a-4f6f-95e1-671fee3703ec","ios":"levelo://app?vid=143434d9-c66a-4f6f-95e1-671fee3703ec"},"vehicle_type_id":"4","last_reported":1748898596,"current_range_meters":22000,"station_id":"","pricing_plan_id":"cebpf4jnsgd1na2vs0mg"},{"bike_id":"2ac8cccf-04bd-419e-93fb-4c508cecefb0","system_id":"levelo_inurba_marseille","lat":43.29714,"lon":5.3659,"is_reserved":false,"is_disabled":false,"rental_uris":{"android":"levelo://app?vid=2ac8cccf-04bd-419e-93fb-4c508cecefb0","ios":"levelo://app?vid=2ac8cccf-04bd-419e-93fb-4c508cecefb0"},"vehicle_type_id":"4","last_reported":1748898596,"current_range_meters":22000,"station_id":"ce4bgn12rcd13ifvqbt0","pricing_plan_id":"cebpf4jnsgd1na2vs0mg"},{"bike_id":"2cf5c3dc-6026-40f6-970c-d851d11de452","system_id":"levelo_inurba_marseille","lat":43.30224,"lon":5.3949,"is_reserved":false,"is_disabled":false,"rental_uris":{"android":"levelo://app?vid=2cf5c3dc-6026-40f6-970c-d851d11de452","ios":"levelo://app?vid=2cf5c3dc-6026-40f6-970c-d851d11de452"},"vehicle_type_id":"4","last_reported":1748898596,"current_range_meters":22000,"station_id":"ce4bh0p2rcd13ifvqd70","pricing_plan_id":"cebpf4jnsgd1na2vs0mg"},{"bike_id":"71af0257-4ccb-49c9-89e1-f5353687ca7e","system_id":"levelo_inurba_marseille","lat":43.30104,"lon":5.39079,"is_reserved":false,"is_disabled":false,"rental_uris":{"android":"levelo://app?vid=71af0257-4ccb-49c9-89e1-f5353687ca7e","ios":"levelo://app?vid=71af0257-4ccb-49c9-89e1-f5353687ca7e"},"vehicle_type_id":"4","last_reported":1748898596,"current_range_meters":22000,"station_id":"ce4bh192rcd13ifvqdb0","pricing_plan_id":"cebpf4jnsgd1na2vs0mg"},{"bike_id":"173a5161-ddae-4cc6-9b63-44c7e82862bd","system_id":"levelo_inurba_marseille","lat":43.28348,"lon":5.38101,"is_reserved":false,"is_disabled":false,"rental_uris":{"android":"levelo://app?vid=173a5161-ddae-4cc6-9b63-44c7e82862bd","ios":"levelo://app?vid=173a5161-ddae-4cc6-9b63-44c7e82862bd"},"vehicle_type_id":"4","last_reported":1748898596,"current_range_meters":22000,"station_id":"ce4bh412rcd13ifvqdr0","pricing_plan_id":"cebpf4jnsgd1na2vs0mg"},{"bike_id":"aaa8bf7e-3faf-4a25-a864-320452170028","system_id":"levelo_inurba_marseille","lat":43.28349,"lon":5.38085,"is_reserved":false,"is_disabled":false,"rental_uris":{"android":"levelo://app?vid=aaa8bf7e-3faf-4a25-a864-320452170028","ios":"levelo://app?vid=aaa8bf7e-3faf-4a25-a864-320452170028"},"vehicle_type_id":"4","last_reported":1748898596,"current_range_meters":22000,"station_id":"ce4bh412rcd13ifvqdr0","pricing_plan_id":"cebpf4jnsgd1na2vs0mg"},{"bike_id":"48da913c-189e-4adb-8b41-df2f525f675f","system_id":"levelo_inurba_marseille","lat":43.278992,"lon":5.380115,"is_reserved":false,"is_disabled":false,"rental_uris":{"android":"levelo://app?vid=48da913c-189e-4adb-8b41-df2f525f675f","ios":"levelo://app?vid=48da913c-189e-4adb-8b41-df2f525f675f"},"vehicle_type_id":"4","last_reported":1748898596,"current_range_meters":22000,"station_id":"ce4bhf92rcd13ifvqf50","pricing_plan_id":"cebpf4jnsgd1na2vs0mg"},{"bike_id":"4901d718-8c38-4512-b63a-0e73367e8911","system_id":"levelo_inurba_marseille","lat":43.26687,"lon":5.38272,"is_reserved":false,"is_disabled":false,"rental_uris":{"android":"levelo://app?vid=4901d718-8c38-4512-b63a-0e73367e8911","ios":"levelo://app?vid=4901d718-8c38-4512-b63a-0e73367e8911"},"vehicle_type_id":"4","last_reported":1748898596,"current_range_meters":22000,"station_id":"ce4bhg92rcd13ifvqf90","pricing_plan_id":"cebpf4jnsgd1na2vs0mg"},{"bike_id":"ba04a7a3-0ee0-4a4a-a541-5893a2d59118","system_id":"levelo_inurba_marseille","lat":43.25831,"lon":5.39409,"is_reserved":false,"is_disabled":false,"rental_uris":{"android":"levelo://app?vid=ba04a7a3-0ee0-4a4a-a541-5893a2d59118","ios":"levelo://app?vid=ba04a7a3-0ee0-4a4a-a541-5893a2d59118"},"vehicle_type_id":"4","last_reported":1748898596,"current_range_meters":22000,"station_id":"ce4bhip2rcd13ifvqft0","pricing_plan_id":"cebpf4jnsgd1na2vs0mg"},{"bike_id":"1f7647d3-70cd-424d-bb59-10046bafbf36","system_id":"levelo_inurba_marseille","lat":43.27054,"lon":5.40258,"is_reserved":false,"is_disabled":false,"rental_uris":{"android":"levelo://app?vid=1f7647d3-70cd-424d-bb59-10046bafbf36","ios":"levelo://app?vid=1f7647d3-70cd-424d-bb59-10046bafbf36"},"vehicle_type_id":"4","last_reported":1748898596,"current_range_meters":22000,"station_id":"ce4bhk92rcd13ifvqgc0","pricing_plan_id":"cebpf4jnsgd1na2vs0mg"},{"bike_id":"785c4a3a-2545-42e1-88f0-1fc4e0a13ad3","system_id":"levelo_inurba_marseille","lat":43.2871,"lon":5.39993,"is_reserved":false,"is_disabled":false,"rental_uris":{"android":"levelo://app?vid=785c4a3a-2545-42e1-88f0-1fc4e0a13ad3","ios":"levelo://app?vid=785c4a3a-2545-42e1-88f0-1fc4e0a13ad3"},"vehicle_type_id":"4","last_reported":1748898596,"current_range_meters":22000,"station_id":"ce4bho92rcd13ifvqh3g","pricing_plan_id":"cebpf4jnsgd1na2vs0mg"},{"bike_id":"4dbf5475-d820-4fec-a3e0-5c925cc554bd","system_id":"levelo_inurba_marseille","lat":43.31897,"lon":5.40729,"is_reserved":false,"is_disabled":false,"rental_uris":{"android":"levelo://app?vid=4dbf5475-d820-4fec-a3e0-5c925cc554bd","ios":"levelo://app?vid=4dbf5475-d820-4fec-a3e0-5c925cc554bd"},"vehicle_type_id":"4","last_reported":1748898596,"current_range_meters":22000,"station_id":"ce4bhq12rcd13ifvqhig","pricing_plan_id":"cebpf4jnsgd1na2vs0mg"},{"bike_id":"974f370c-97c1-408b-8bbb-7e476b676ad0","system_id":"levelo_inurba_marseille","lat":43.30934,"lon":5.4014,"is_reserved":false,"is_disabled":false,"rental_uris":{"android":"levelo://app?vid=974f370c-97c1-408b-8bbb-7e476b676ad0","ios":"levelo://app?vid=974f370c-97c1-408b-8bbb-7e476b676ad0"},"vehicle_type_id":"4","last_reported":1748898596,"current_range_meters":22400,"station_id":"ce4bgvp2rcd13ifvqct0","pricing_plan_id":"cebpf4jnsgd1na2vs0mg"},{"bike_id":"1f59fcca-0a4a-42c2-a297-28cf8298a661","system_id":"levelo_inurba_marseille","lat":43.29573,"lon":5.39968,"is_reserved":false,"is_disabled":false,"rental_uris":{"android":"levelo://app?vid=1f59fcca-0a4a-42c2-a297-28cf8298a661","ios":"levelo://app?vid=1f59fcca-0a4a-42c2-a297-28cf8298a661"},"vehicle_type_id":"4","last_reported":1748898596,"current_range_meters":22400,"station_id":"ce4bh312rcd13ifvqdj0","pricing_plan_id":"cebpf4jnsgd1na2vs0mg"},{"bike_id":"ed58e77d-5129-46f9-b1eb-7172074a5190","system_id":"levelo_inurba_marseille","lat":43.28696,"lon":5.37407,"is_reserved":false,"is_disabled":false,"rental_uris":{"android":"levelo://app?vid=ed58e77d-5129-46f9-b1eb-7172074a5190","ios":"levelo://app?vid=ed58e77d-5129-46f9-b1eb-7172074a5190"},"vehicle_type_id":"4","last_reported":1748898596,"current_range_meters":22400,"station_id":"ce4bh3p2rcd13ifvqdq0","pricing_plan_id":"cebpf4jnsgd1na2vs0mg"},{"bike_id":"98c734dd-e4aa-447d-891b-d6b331d7f13e","system_id":"levelo_inurba_marseille","lat":43.258228,"lon":5.394303,"is_reserved":false,"is_disabled":false,"rental_uris":{"android":"levelo://app?vid=98c734dd-e4aa-447d-891b-d6b331d7f13e","ios":"levelo://app?vid=98c734dd-e4aa-447d-891b-d6b331d7f13e"},"vehicle_type_id":"4","last_reported":1748898596,"current_range_meters":22400,"station_id":"ce4bhip2rcd13ifvqft0","pricing_plan_id":"cebpf4jnsgd1na2vs0mg"},{"bike_id":"c2e1d283-a417-4a2a-b2e7-7c87606a7a42","system_id":"levelo_inurba_marseille","lat":43.25114,"lon":5.40316,"is_reserved":false,"is_disabled":false,"rental_uris":{"android":"levelo://app?vid=c2e1d283-a417-4a2a-b2e7-7c87606a7a42","ios":"levelo://app?vid=c2e1d283-a417-4a2a-b2e7-7c87606a7a42"},"vehicle_type_id":"4","last_reported":1748898596,"current_range_meters":22400,"station_id":"ce4bhlh2rcd13ifvqgig","pricing_plan_id":"cebpf4jnsgd1na2vs0mg"},{"bike_id":"1eec2072-a52b-4af8-8b2c-ae122356f86f","system_id":"levelo_inurba_marseille","lat":43.282217,"lon":5.390682,"is_reserved":false,"is_disabled":false,"rental_uris":{"android":"levelo://app?vid=1eec2072-a52b-4af8-8b2c-ae122356f86f","ios":"levelo://app?vid=1eec2072-a52b-4af8-8b2c-ae122356f86f"},"vehicle_type_id":"4","last_reported":1748898596,"current_range_meters":22800,"station_id":"","pricing_plan_id":"cebpf4jnsgd1na2vs0mg"},{"bike_id":"cc2ccf29-b579-4ce4-9787-d87fb43c2382","system_id":"levelo_inurba_marseille","lat":43.29534,"lon":5.38533,"is_reserved":false,"is_disabled":false,"rental_uris":{"android":"levelo://app?vid=cc2ccf29-b579-4ce4-9787-d87fb43c2382","ios":"levelo://app?vid=cc2ccf29-b579-4ce4-9787-d87fb43c2382"},"vehicle_type_id":"4","last_reported":1748898596,"current_range_meters":22800,"station_id":"ce4bgih2rcd13ifvqba0","pricing_plan_id":"cebpf4jnsgd1na2vs0mg"},{"bike_id":"b9f111af-5490-4e7a-8550-a8876a43d2c3","system_id":"levelo_inurba_marseille","lat":43.308819,"lon":5.396473,"is_reserved":false,"is_disabled":false,"rental_uris":{"android":"levelo://app?vid=b9f111af-5490-4e7a-8550-a8876a43d2c3","ios":"levelo://app?vid=b9f111af-5490-4e7a-8550-a8876a43d2c3"},"vehicle_type_id":"4","last_reported":1748898596,"current_range_meters":22800,"station_id":"ce4bh012rcd13ifvqcv0","pricing_plan_id":"cebpf4jnsgd1na2vs0mg"},{"bike_id":"a420a979-0a36-4c6f-9b7f-486d3839b77c","system_id":"levelo_inurba_marseille","lat":43.29254,"lon":5.409,"is_reserved":false,"is_disabled":false,"rental_uris":{"android":"levelo://app?vid=a420a979-0a36-4c6f-9b7f-486d3839b77c","ios":"levelo://app?vid=a420a979-0a36-4c6f-9b7f-486d3839b77c"},"vehicle_type_id":"4","last_reported":1748898596,"current_range_meters":22800,"station_id":"ce4bh192rcd13ifvqdc0","pricing_plan_id":"cebpf4jnsgd1na2vs0mg"},{"bike_id":"d0a38fbf-480a-44f9-8c88-81888fc6618a","system_id":"levelo_inurba_marseille","lat":43.29419,"lon":5.38613,"is_reserved":false,"is_disabled":false,"rental_uris":{"android":"levelo://app?vid=d0a38fbf-480a-44f9-8c88-81888fc6618a","ios":"levelo://app?vid=d0a38fbf-480a-44f9-8c88-81888fc6618a"},"vehicle_type_id":"4","last_reported":1748898596,"current_range_meters":22800,"station_id":"ce4bh2h2rcd13ifvqdh0","pricing_plan_id":"cebpf4jnsgd1na2vs0mg"},{"bike_id":"4b8b6b82-1649-48a5-8568-c6d2a474a21c","system_id":"levelo_inurba_marseille","lat":43.28713,"lon":5.37377,"is_reserved":false,"is_disabled":false,"rental_uris":{"android":"levelo://app?vid=4b8b6b82-1649-48a5-8568-c6d2a474a21c","ios":"levelo://app?vid=4b8b6b82-1649-48a5-8568-c6d2a474a21c"},"vehicle_type_id":"4","last_reported":1748898596,"current_range_meters":22800,"station_id":"ce4bh3p2rcd13ifvqdq0","pricing_plan_id":"cebpf4jnsgd1na2vs0mg"},{"bike_id":"f04d4ca6-faf1-4b95-ac49-0456b84ca153","system_id":"levelo_inurba_marseille","lat":43.29031,"lon":5.38655,"is_reserved":false,"is_disabled":false,"rental_uris":{"android":"levelo://app?vid=f04d4ca6-faf1-4b95-ac49-0456b84ca153","ios":"levelo://app?vid=f04d4ca6-faf1-4b95-ac49-0456b84ca153"},"vehicle_type_id":"4","last_reported":1748898596,"current_range_meters":22800,"station_id":"ce4bh4p2rcd13ifvqe0g","pricing_plan_id":"cebpf4jnsgd1na2vs0mg"},{"bike_id":"ddea05cf-725e-4434-ada8-8766d2fc8394","system_id":"levelo_inurba_marseille","lat":43.28947,"lon":5.36399,"is_reserved":false,"is_disabled":false,"rental_uris":{"android":"levelo://app?vid=ddea05cf-725e-4434-ada8-8766d2fc8394","ios":"levelo://app?vid=ddea05cf-725e-4434-ada8-8766d2fc8394"},"vehicle_type_id":"4","last_reported":1748898596,"current_range_meters":22800,"station_id":"ce4bhc92rcd13ifvqetg","pricing_plan_id":"cebpf4jnsgd1na2vs0mg"},{"bike_id":"5f6b6103-d4f1-4e87-b00b-6ea81a079703","system_id":"levelo_inurba_marseille","lat":43.2467,"lon":5.38155,"is_reserved":false,"is_disabled":false,"rental_uris":{"android":"levelo://app?vid=5f6b6103-d4f1-4e87-b00b-6ea81a079703","ios":"levelo://app?vid=5f6b6103-d4f1-4e87-b00b-6ea81a079703"},"vehicle_type_id":"4","last_reported":1748898596,"current_range_meters":22800,"station_id":"ce4bhih2rcd13ifvqfr0","pricing_plan_id":"cebpf4jnsgd1na2vs0mg"},{"bike_id":"a11ea1a8-2e68-484b-8edf-fe757e754272","system_id":"levelo_inurba_marseille","lat":43.278164,"lon":5.407231,"is_reserved":false,"is_disabled":false,"rental_uris":{"android":"levelo://app?vid=a11ea1a8-2e68-484b-8edf-fe757e754272","ios":"levelo://app?vid=a11ea1a8-2e68-484b-8edf-fe757e754272"},"vehicle_type_id":"4","last_reported":1748898596,"current_range_meters":22800,"station_id":"ce4bhnh2rcd13ifvqgtg","pricing_plan_id":"cebpf4jnsgd1na2vs0mg"},{"bike_id":"cba6c288-7603-41a8-92a6-e8587baf262b","system_id":"levelo_inurba_marseille","lat":43.33729,"lon":5.391803,"is_reserved":false,"is_disabled":false,"rental_uris":{"android":"levelo://app?vid=cba6c288-7603-41a8-92a6-e8587baf262b","ios":"levelo://app?vid=cba6c288-7603-41a8-92a6-e8587baf262b"},"vehicle_type_id":"4","last_reported":1748898596,"current_range_meters":22800,"station_id":"ce4bhr92rcd13ifvqhsg","pricing_plan_id":"cebpf4jnsgd1na2vs0mg"},{"bike_id":"22aef0b3-cf57-4f63-9e76-c9cf4d37d2c9","system_id":"levelo_inurba_marseille","lat":43.29374,"lon":5.37862,"is_reserved":false,"is_disabled":false,"rental_uris":{"android":"levelo://app?vid=22aef0b3-cf57-4f63-9e76-c9cf4d37d2c9","ios":"levelo://app?vid=22aef0b3-cf57-4f63-9e76-c9cf4d37d2c9"},"vehicle_type_id":"4","last_reported":1748898596,"current_range_meters":23200,"station_id":"ce4bgjh2rcd13ifvqbf0","pricing_plan_id":"cebpf4jnsgd1na2vs0mg"},{"bike_id":"b98b1bb6-7ad7-4d72-af24-a1adcc6d5073","system_id":"levelo_inurba_marseille","lat":43.29014,"lon":5.38135,"is_reserved":false,"is_disabled":false,"rental_uris":{"android":"levelo://app?vid=b98b1bb6-7ad7-4d72-af24-a1adcc6d5073","ios":"levelo://app?vid=b98b1bb6-7ad7-4d72-af24-a1adcc6d5073"},"vehicle_type_id":"4","last_reported":1748898596,"current_range_meters":23200,"station_id":"ce4bh4p2rcd13ifvqe1g","pricing_plan_id":"cebpf4jnsgd1na2vs0mg"},{"bike_id":"d066c01f-0db1-47e0-823d-32ee04588d8a","system_id":"levelo_inurba_marseille","lat":43.284545,"lon":5.358877,"is_reserved":false,"is_disabled":false,"rental_uris":{"android":"levelo://app?vid=d066c01f-0db1-47e0-823d-32ee04588d8a","ios":"levelo://app?vid=d066c01f-0db1-47e0-823d-32ee04588d8a"},"vehicle_type_id":"4","last_reported":1748898596,"current_range_meters":23200,"station_id":"ce4bhah2rcd13ifvqei0","pricing_plan_id":"cebpf4jnsgd1na2vs0mg"},{"bike_id":"48e98ebd-9c2e-432a-9298-0c63437563bf","system_id":"levelo_inurba_marseille","lat":43.272308,"lon":5.400719,"is_reserved":false,"is_disabled":false,"rental_uris":{"android":"levelo://app?vid=48e98ebd-9c2e-432a-9298-0c63437563bf","ios":"levelo://app?vid=48e98ebd-9c2e-432a-9298-0c63437563bf"},"vehicle_type_id":"4","last_reported":1748898596,"current_range_meters":23200,"station_id":"ce4bhk92rcd13ifvqgc0","pricing_plan_id":"cebpf4jnsgd1na2vs0mg"},{"bike_id":"392aba08-8c80-4f58-bd27-a0f1e97f2380","system_id":"levelo_inurba_marseille","lat":43.3414,"lon":5.40889,"is_reserved":false,"is_disabled":false,"rental_uris":{"android":"levelo://app?vid=392aba08-8c80-4f58-bd27-a0f1e97f2380","ios":"levelo://app?vid=392aba08-8c80-4f58-bd27-a0f1e97f2380"},"vehicle_type_id":"4","last_reported":1748898596,"current_range_meters":23200,"station_id":"ce4bhqh2rcd13ifvqhlg","pricing_plan_id":"cebpf4jnsgd1na2vs0mg"},{"bike_id":"bd15d3c1-5fc5-4006-9923-c4638e3da994","system_id":"levelo_inurba_marseille","lat":43.301075,"lon":5.371115,"is_reserved":false,"is_disabled":false,"rental_uris":{"android":"levelo://app?vid=bd15d3c1-5fc5-4006-9923-c4638e3da994","ios":"levelo://app?vid=bd15d3c1-5fc5-4006-9923-c4638e3da994"},"vehicle_type_id":"4","last_reported":1748898596,"current_range_meters":24000,"station_id":"","pricing_plan_id":"cebpf4jnsgd1na2vs0mg"},{"bike_id":"ab5d2105-3b49-4248-b687-16ee21d598c0","system_id":"levelo_inurba_marseille","lat":43.33475,"lon":5.38157,"is_reserved":false,"is_disabled":false,"rental_uris":{"android":"levelo://app?vid=ab5d2105-3b49-4248-b687-16ee21d598c0","ios":"levelo://app?vid=ab5d2105-3b49-4248-b687-16ee21d598c0"},"vehicle_type_id":"4","last_reported":1748898596,"current_range_meters":24000,"station_id":"","pricing_plan_id":"cebpf4jnsgd1na2vs0mg"},{"bike_id":"a25d4b10-15b2-45cc-9761-1049a81ecb26","system_id":"levelo_inurba_marseille","lat":43.30598,"lon":5.37287,"is_reserved":false,"is_disabled":false,"rental_uris":{"android":"levelo://app?vid=a25d4b10-15b2-45cc-9761-1049a81ecb26","ios":"levelo://app?vid=a25d4b10-15b2-45cc-9761-1049a81ecb26"},"vehicle_type_id":"4","last_reported":1748898596,"current_range_meters":24000,"station_id":"","pricing_plan_id":"cebpf4jnsgd1na2vs0mg"},{"bike_id":"9f55290d-8d98-428e-9d44-dcf0ffb64500","system_id":"levelo_inurba_marseille","lat":43.31171,"lon":5.38721,"is_reserved":false,"is_disabled":false,"rental_uris":{"android":"levelo://app?vid=9f55290d-8d98-428e-9d44-dcf0ffb64500","ios":"levelo://app?vid=9f55290d-8d98-428e-9d44-dcf0ffb64500"},"vehicle_type_id":"4","last_reported":1748898596,"current_range_meters":24000,"station_id":"ce4bgv12rcd13ifvqcp0","pricing_plan_id":"cebpf4jnsgd1na2vs0mg"},{"bike_id":"aade0917-1da7-445e-b146-a15c7cfad8e7","system_id":"levelo_inurba_marseille","lat":43.31064,"lon":5.38362,"is_reserved":false,"is_disabled":false,"rental_uris":{"android":"levelo://app?vid=aade0917-1da7-445e-b146-a15c7cfad8e7","ios":"levelo://app?vid=aade0917-1da7-445e-b146-a15c7cfad8e7"},"vehicle_type_id":"4","last_reported":1748898596,"current_range_meters":24000,"station_id":"ce4bgv92rcd13ifvqcr0","pricing_plan_id":"cebpf4jnsgd1na2vs0mg"},{"bike_id":"991767c3-91b0-4519-b925-beb59e0f0895","system_id":"levelo_inurba_marseille","lat":43.30881,"lon":5.39633,"is_reserved":false,"is_disabled":false,"rental_uris":{"android":"levelo://app?vid=991767c3-91b0-4519-b925-beb59e0f0895","ios":"levelo://app?vid=991767c3-91b0-4519-b925-beb59e0f0895"},"vehicle_type_id":"4","last_reported":1748898596,"current_range_meters":24000,"station_id":"ce4bh012rcd13ifvqcv0","pricing_plan_id":"cebpf4jnsgd1na2vs0mg"},{"bike_id":"aedf6f81-d476-43aa-967e-b91c63b8fed7","system_id":"levelo_inurba_marseille","lat":43.28699,"lon":5.37403,"is_reserved":false,"is_disabled":false,"rental_uris":{"android":"levelo://app?vid=aedf6f81-d476-43aa-967e-b91c63b8fed7","ios":"levelo://app?vid=aedf6f81-d476-43aa-967e-b91c63b8fed7"},"vehicle_type_id":"4","last_reported":1748898596,"current_range_meters":24000,"station_id":"ce4bh3p2rcd13ifvqdq0","pricing_plan_id":"cebpf4jnsgd1na2vs0mg"},{"bike_id":"b357ff8d-9043-4978-b714-9bbab24911fe","system_id":"levelo_inurba_marseille","lat":43.28346,"lon":5.38097,"is_reserved":false,"is_disabled":false,"rental_uris":{"android":"levelo://app?vid=b357ff8d-9043-4978-b714-9bbab24911fe","ios":"levelo://app?vid=b357ff8d-9043-4978-b714-9bbab24911fe"},"vehicle_type_id":"4","last_reported":1748898596,"current_range_meters":24000,"station_id":"ce4bh412rcd13ifvqdr0","pricing_plan_id":"cebpf4jnsgd1na2vs0mg"},{"bike_id":"7bcd976b-4b97-42d8-be87-08d4dbb890de","system_id":"levelo_inurba_marseille","lat":43.23182,"lon":5.39983,"is_reserved":false,"is_disabled":false,"rental_uris":{"android":"levelo://app?vid=7bcd976b-4b97-42d8-be87-08d4dbb890de","ios":"levelo://app?vid=7bcd976b-4b97-42d8-be87-08d4dbb890de"},"vehicle_type_id":"4","last_reported":1748898596,"current_range_meters":24000,"station_id":"ce4bhn12rcd13ifvqgqg","pricing_plan_id":"cebpf4jnsgd1na2vs0mg"},{"bike_id":"59f0cfae-2cf1-4af7-b349-41c24f6b0f68","system_id":"levelo_inurba_marseille","lat":43.28081,"lon":5.39644,"is_reserved":false,"is_disabled":false,"rental_uris":{"android":"levelo://app?vid=59f0cfae-2cf1-4af7-b349-41c24f6b0f68","ios":"levelo://app?vid=59f0cfae-2cf1-4af7-b349-41c24f6b0f68"},"vehicle_type_id":"4","last_reported":1748898596,"current_range_meters":24000,"station_id":"ce4bho12rcd13ifvqh2g","pricing_plan_id":"cebpf4jnsgd1na2vs0mg"},{"bike_id":"67025b4c-b990-4842-b8ee-7321a057148a","system_id":"levelo_inurba_marseille","lat":43.265618,"lon":5.403235,"is_reserved":false,"is_disabled":false,"rental_uris":{"android":"levelo://app?vid=67025b4c-b990-4842-b8ee-7321a057148a","ios":"levelo://app?vid=67025b4c-b990-4842-b8ee-7321a057148a"},"vehicle_type_id":"4","last_reported":1748898596,"current_range_meters":24400,"station_id":"","pricing_plan_id":"cebpf4jnsgd1na2vs0mg"},{"bike_id":"8b13bdc1-d9ad-402b-9335-01bd02d81f63","system_id":"levelo_inurba_marseille","lat":43.31069,"lon":5.39076,"is_reserved":false,"is_disabled":false,"rental_uris":{"android":"levelo://app?vid=8b13bdc1-d9ad-402b-9335-01bd02d81f63","ios":"levelo://app?vid=8b13bdc1-d9ad-402b-9335-01bd02d81f63"},"vehicle_type_id":"4","last_reported":1748898596,"current_range_meters":24400,"station_id":"","pricing_plan_id":"cebpf4jnsgd1na2vs0mg"},{"bike_id":"83302060-b3ed-4cab-bb63-30cfa9c0b348","system_id":"levelo_inurba_marseille","lat":43.29538,"lon":5.39032,"is_reserved":false,"is_disabled":false,"rental_uris":{"android":"levelo://app?vid=83302060-b3ed-4cab-bb63-30cfa9c0b348","ios":"levelo://app?vid=83302060-b3ed-4cab-bb63-30cfa9c0b348"},"vehicle_type_id":"4","last_reported":1748898596,"current_range_meters":24400,"station_id":"ce4bh3p2rcd13ifvqdp0","pricing_plan_id":"cebpf4jnsgd1na2vs0mg"},{"bike_id":"23e204a8-ae58-4c70-acc1-8b7210317b05","system_id":"levelo_inurba_marseille","lat":43.28699,"lon":5.37384,"is_reserved":false,"is_disabled":false,"rental_uris":{"android":"levelo://app?vid=23e204a8-ae58-4c70-acc1-8b7210317b05","ios":"levelo://app?vid=23e204a8-ae58-4c70-acc1-8b7210317b05"},"vehicle_type_id":"4","last_reported":1748898596,"current_range_meters":24400,"station_id":"ce4bh3p2rcd13ifvqdq0","pricing_plan_id":"cebpf4jnsgd1na2vs0mg"},{"bike_id":"976587a7-46e9-4757-beb3-60a5dbb1cf05","system_id":"levelo_inurba_marseille","lat":43.28348,"lon":5.38086,"is_reserved":false,"is_disabled":false,"rental_uris":{"android":"levelo://app?vid=976587a7-46e9-4757-beb3-60a5dbb1cf05","ios":"levelo://app?vid=976587a7-46e9-4757-beb3-60a5dbb1cf05"},"vehicle_type_id":"4","last_reported":1748898596,"current_range_meters":24400,"station_id":"ce4bh412rcd13ifvqdr0","pricing_plan_id":"cebpf4jnsgd1na2vs0mg"},{"bike_id":"41cc959b-a23c-45c8-b31e-0a514d4b983e","system_id":"levelo_inurba_marseille","lat":43.28733,"lon":5.379332,"is_reserved":false,"is_disabled":false,"rental_uris":{"android":"levelo://app?vid=41cc959b-a23c-45c8-b31e-0a514d4b983e","ios":"levelo://app?vid=41cc959b-a23c-45c8-b31e-0a514d4b983e"},"vehicle_type_id":"4","last_reported":1748898596,"current_range_meters":24400,"station_id":"ce4bh9p2rcd13ifvqec0","pricing_plan_id":"cebpf4jnsgd1na2vs0mg"},{"bike_id":"2b18493f-29d3-4575-a718-84f4a840c2c7","system_id":"levelo_inurba_marseille","lat":43.261532,"lon":5.393446,"is_reserved":false,"is_disabled":false,"rental_uris":{"android":"levelo://app?vid=2b18493f-29d3-4575-a718-84f4a840c2c7","ios":"levelo://app?vid=2b18493f-29d3-4575-a718-84f4a840c2c7"},"vehicle_type_id":"4","last_reported":1748898596,"current_range_meters":24400,"station_id":"ce4bhip2rcd13ifvqft0","pricing_plan_id":"cebpf4jnsgd1na2vs0mg"},{"bike_id":"da71f552-d9e5-46af-bdef-e0177c564da4","system_id":"levelo_inurba_marseille","lat":43.30534,"lon":5.38416,"is_reserved":false,"is_disabled":false,"rental_uris":{"android":"levelo://app?vid=da71f552-d9e5-46af-bdef-e0177c564da4","ios":"levelo://app?vid=da71f552-d9e5-46af-bdef-e0177c564da4"},"vehicle_type_id":"4","last_reported":1748898596,"current_range_meters":24800,"station_id":"ce4bgg92rcd13ifvqb30","pricing_plan_id":"cebpf4jnsgd1na2vs0mg"},{"bike_id":"eec6d8b3-6953-42e3-81ad-17cf49e99da0","system_id":"levelo_inurba_marseille","lat":43.30887,"lon":5.39654,"is_reserved":false,"is_disabled":false,"rental_uris":{"android":"levelo://app?vid=eec6d8b3-6953-42e3-81ad-17cf49e99da0","ios":"levelo://app?vid=eec6d8b3-6953-42e3-81ad-17cf49e99da0"},"vehicle_type_id":"4","last_reported":1748898596,"current_range_meters":24800,"station_id":"ce4bh012rcd13ifvqcv0","pricing_plan_id":"cebpf4jnsgd1na2vs0mg"},{"bike_id":"e468418f-cf3b-449d-8131-cd84b3911789","system_id":"levelo_inurba_marseille","lat":43.29422,"lon":5.38622,"is_reserved":false,"is_disabled":false,"rental_uris":{"android":"levelo://app?vid=e468418f-cf3b-449d-8131-cd84b3911789","ios":"levelo://app?vid=e468418f-cf3b-449d-8131-cd84b3911789"},"vehicle_type_id":"4","last_reported":1748898596,"current_range_meters":24800,"station_id":"ce4bh2h2rcd13ifvqdh0","pricing_plan_id":"cebpf4jnsgd1na2vs0mg"},{"bike_id":"99f0b70b-0749-4613-8f0b-52750b17cc5a","system_id":"levelo_inurba_marseille","lat":43.29277,"lon":5.4011,"is_reserved":false,"is_disabled":false,"rental_uris":{"android":"levelo://app?vid=99f0b70b-0749-4613-8f0b-52750b17cc5a","ios":"levelo://app?vid=99f0b70b-0749-4613-8f0b-52750b17cc5a"},"vehicle_type_id":"4","last_reported":1748898596,"current_range_meters":24800,"station_id":"ce4bh312rcd13ifvqdk0","pricing_plan_id":"cebpf4jnsgd1na2vs0mg"},{"bike_id":"fb223d78-6a35-44bd-9bb1-79d5abaefe53","system_id":"levelo_inurba_marseille","lat":43.29099,"lon":5.38144,"is_reserved":false,"is_disabled":false,"rental_uris":{"android":"levelo://app?vid=fb223d78-6a35-44bd-9bb1-79d5abaefe53","ios":"levelo://app?vid=fb223d78-6a35-44bd-9bb1-79d5abaefe53"},"vehicle_type_id":"4","last_reported":1748898596,"current_range_meters":24800,"station_id":"ce4bh512rcd13ifvqe2g","pricing_plan_id":"cebpf4jnsgd1na2vs0mg"},{"bike_id":"67079772-4496-419f-8f60-de37ff9300e4","system_id":"levelo_inurba_marseille","lat":43.28458,"lon":5.35882,"is_reserved":false,"is_disabled":false,"rental_uris":{"android":"levelo://app?vid=67079772-4496-419f-8f60-de37ff9300e4","ios":"levelo://app?vid=67079772-4496-419f-8f60-de37ff9300e4"},"vehicle_type_id":"4","last_reported":1748898596,"current_range_meters":24800,"station_id":"ce4bhah2rcd13ifvqei0","pricing_plan_id":"cebpf4jnsgd1na2vs0mg"},{"bike_id":"05dd8858-2240-4ec1-a8bd-ad471b03b4f3","system_id":"levelo_inurba_marseille","lat":43.288507,"lon":5.35852,"is_reserved":false,"is_disabled":false,"rental_uris":{"android":"levelo://app?vid=05dd8858-2240-4ec1-a8bd-ad471b03b4f3","ios":"levelo://app?vid=05dd8858-2240-4ec1-a8bd-ad471b03b4f3"},"vehicle_type_id":"4","last_reported":1748898596,"current_range_meters":24800,"station_id":"ce4bhb12rcd13ifvqem0","pricing_plan_id":"cebpf4jnsgd1na2vs0mg"},{"bike_id":"ef8ba81d-f335-41e7-8151-da08c856b7d9","system_id":"levelo_inurba_marseille","lat":43.27919,"lon":5.39577,"is_reserved":false,"is_disabled":false,"rental_uris":{"android":"levelo://app?vid=ef8ba81d-f335-41e7-8151-da08c856b7d9","ios":"levelo://app?vid=ef8ba81d-f335-41e7-8151-da08c856b7d9"},"vehicle_type_id":"4","last_reported":1748898596,"current_range_meters":24800,"station_id":"ce4bhf92rcd13ifvqf40","pricing_plan_id":"cebpf4jnsgd1na2vs0mg"},{"bike_id":"f4831d0d-68d7-418e-b50e-5e455fb4c280","system_id":"levelo_inurba_marseille","lat":43.34139,"lon":5.409,"is_reserved":false,"is_disabled":false,"rental_uris":{"android":"levelo://app?vid=f4831d0d-68d7-418e-b50e-5e455fb4c280","ios":"levelo://app?vid=f4831d0d-68d7-418e-b50e-5e455fb4c280"},"vehicle_type_id":"4","last_reported":1748898596,"current_range_meters":24800,"station_id":"ce4bhqh2rcd13ifvqhlg","pricing_plan_id":"cebpf4jnsgd1na2vs0mg"},{"bike_id":"100dab3b-2c95-4b9f-badb-ad739d9e60f0","system_id":"levelo_inurba_marseille","lat":43.29963,"lon":5.38496,"is_reserved":false,"is_disabled":false,"rental_uris":{"android":"levelo://app?vid=100dab3b-2c95-4b9f-badb-ad739d9e60f0","ios":"levelo://app?vid=100dab3b-2c95-4b9f-badb-ad739d9e60f0"},"vehicle_type_id":"4","last_reported":1748898596,"current_range_meters":25200,"station_id":"ce4bgj92rcd13ifvqbd0","pricing_plan_id":"cebpf4jnsgd1na2vs0mg"},{"bike_id":"efad2ba9-2415-4214-bb49-234487517d62","system_id":"levelo_inurba_marseille","lat":43.31328,"lon":5.39689,"is_reserved":false,"is_disabled":false,"rental_uris":{"android":"levelo://app?vid=efad2ba9-2415-4214-bb49-234487517d62","ios":"levelo://app?vid=efad2ba9-2415-4214-bb49-234487517d62"},"vehicle_type_id":"4","last_reported":1748898596,"current_range_meters":25200,"station_id":"ce4bgvp2rcd13ifvqcu0","pricing_plan_id":"cebpf4jnsgd1na2vs0mg"},{"bike_id":"cd0299e3-5ec0-41b2-81a9-fe17d0352b70","system_id":"levelo_inurba_marseille","lat":43.29437,"lon":5.39743,"is_reserved":false,"is_disabled":false,"rental_uris":{"android":"levelo://app?vid=cd0299e3-5ec0-41b2-81a9-fe17d0352b70","ios":"levelo://app?vid=cd0299e3-5ec0-41b2-81a9-fe17d0352b70"},"vehicle_type_id":"4","last_reported":1748898596,"current_range_meters":25200,"station_id":"ce4bh3h2rcd13ifvqdo0","pricing_plan_id":"cebpf4jnsgd1na2vs0mg"},{"bike_id":"0f31690a-370e-4568-8696-d5fbb14d2628","system_id":"levelo_inurba_marseille","lat":43.29031,"lon":5.3813,"is_reserved":false,"is_disabled":false,"rental_uris":{"android":"levelo://app?vid=0f31690a-370e-4568-8696-d5fbb14d2628","ios":"levelo://app?vid=0f31690a-370e-4568-8696-d5fbb14d2628"},"vehicle_type_id":"4","last_reported":1748898596,"current_range_meters":25200,"station_id":"ce4bh4p2rcd13ifvqe1g","pricing_plan_id":"cebpf4jnsgd1na2vs0mg"},{"bike_id":"538fbf07-6c51-4c2b-b04c-60b124695884","system_id":"levelo_inurba_marseille","lat":43.288736,"lon":5.358392,"is_reserved":false,"is_disabled":false,"rental_uris":{"android":"levelo://app?vid=538fbf07-6c51-4c2b-b04c-60b124695884","ios":"levelo://app?vid=538fbf07-6c51-4c2b-b04c-60b124695884"},"vehicle_type_id":"4","last_reported":1748898596,"current_range_meters":25200,"station_id":"ce4bhb12rcd13ifvqem0","pricing_plan_id":"cebpf4jnsgd1na2vs0mg"},{"bike_id":"42e5de30-2d32-429b-8b1d-e095ea273922","system_id":"levelo_inurba_marseille","lat":43.23187,"lon":5.39976,"is_reserved":false,"is_disabled":false,"rental_uris":{"android":"levelo://app?vid=42e5de30-2d32-429b-8b1d-e095ea273922","ios":"levelo://app?vid=42e5de30-2d32-429b-8b1d-e095ea273922"},"vehicle_type_id":"4","last_reported":1748898596,"current_range_meters":25200,"station_id":"ce4bhn12rcd13ifvqgqg","pricing_plan_id":"cebpf4jnsgd1na2vs0mg"},