{"last_updated":1702328808,"ttl":30,"version":"2.2","data":{"bikes":[{"bike_id":"782c66b7-e36b-4fe1-84e7-b58d31cd4a8c","system_id":"levelo_inurba_marseille","lat":43.31343,"lon":5.36691,"is_reserved":false,"is_disabled":false,"rental_uris":{"android":"levelo://app?vid=782c66b7-e36b-4fe1-84e7-b58d31cd4a8c","ios":"levelo://app?vid=782c66b7-e36b-4fe1-84e7-b58d31cd4a8c"},"vehicle_type_id":"4","last_reported":1702328808,"current_range_meters":24000,"station_id":"ce4bgr92rcd13ifvqc6g","pricing_plan_id":"free"},{"bike_id":"94a4d569-7218-4e40-8b99-974da32279ac","system_id":"levelo_inurba_marseille","lat":43.31351,"lon":5.36692,"is_reserved":false,"is_disabled":false,"rental_uris":{"android":"levelo://app?vid=94a4d569-7218-4e40-8b99-974da32279ac","ios":"levelo://app?vid=94a4d569-7218-4e40-8b99-974da32279ac"},"vehicle_type_id":"4","last_reported":1702328808,"current_range_meters":29600,"station_id":"ce4bgr92rcd13ifvqc6g","pricing_plan_id":"free"},{"bike_id":"2e1fefc4-92da-4cf0-be43-73beca4f8e67","system_id":"levelo_inurba_marseille","lat":43.31357,"lon":5.36675,"is_reserved":false,"is_disabled":false,"rental_uris":{"android":"levelo://app?vid=2e1fefc4-92da-4cf0-be43-73beca4f8e67","ios":"levelo://app?vid=2e1fefc4-92da-4cf0-be43-73beca4f8e67"},"vehicle_type_id":"4","last_reported":1702328808,"current_range_meters":30000,"station_id":"ce4bgr92rcd13ifvqc6g","pricing_plan_id":"free"},{"bike_id":"912a4a48-0ae8-406a-96e1-2219af4403f2","system_id":"levelo_inurba_marseille","lat":43.31361,"lon":5.366665,"is_reserved":false,"is_disabled":false,"rental_uris":{"android":"levelo://app?vid=912a4a48-0ae8-406a-96e1-2219af4403f2","ios":"levelo://app?vid=912a4a48-0ae8-406a-96e1-2219af4403f2"},"vehicle_type_id":"4","last_reported":1702328808,"current_range_meters":26400,"station_id":"ce4bgr92rcd13ifvqc6g","pricing_plan_id":"free"},{"bike_id":"9232e33d-f26e-4003-84ad-a19813a3f7b4","system_id":"levelo_inurba_marseille","lat":43.312239,"lon":5.368562,"is_reserved":false,"is_disabled":false,"rental_uris":{"android":"levelo://app?vid=9232e33d-f26e-4003-84ad-a19813a3f7b4","ios":"levelo://app?vid=9232e33d-f26e-4003-84ad-a19813a3f7b4"},"vehicle_type_id":"4","last_reported":1702328808,"current_range_meters":13600,"station_id":"ce4bgl92rcd13ifvqbq0","pricing_plan_id":"free"},{"bike_id":"5e1b72c6-e220-4950-9b9d-b4266430ffbc","system_id":"levelo_inurba_marseille","lat":43.309076,"lon":5.368465,"is_reserved":false,"is_disabled":false,"rental_uris":{"android":"levelo://app?vid=5e1b72c6-e220-4950-9b9d-b4266430ffbc","ios":"levelo://app?vid=5e1b72c6-e220-4950-9b9d-b4266430ffbc"},"vehicle_type_id":"4","last_reported":1702328808,"current_range_meters":8400,"station_id":"ce4bgn92rcd13ifvqbvg","pricing_plan_id":"free"},{"bike_id":"be62d624-f26c-45b5-bd49-1edf3e729e48","system_id":"levelo_inurba_marseille","lat":43.305368,"lon":5.367343,"is_reserved":false,"is_disabled":false,"rental_uris":{"android":"levelo://app?vid=be62d624-f26c-45b5-bd49-1edf3e729e48","ios":"levelo://app?vid=be62d624-f26c-45b5-bd49-1edf3e729e48"},"vehicle_type_id":"4","last_reported":1702328808,"current_range_meters":20000,"station_id":"ce4bgrp2rcd13ifvqc9g","pricing_plan_id":"free"},{"bike_id":"cd56c36b-c46a-4c79-8849-f952373aa79b","system_id":"levelo_inurba_marseille","lat":43.307945,"lon":5.376487,"is_reserved":false,"is_disabled":false,"rental_uris":{"android":"levelo://app?vid=cd56c36b-c46a-4c79-8849-f952373aa79b","ios":"levelo://app?vid=cd56c36b-c46a-4c79-8849-f952373aa79b"},"vehicle_type_id":"4","last_reported":1702328808,"current_range_meters":22000,"station_id":"ce4bgv92rcd13ifvqcq0","pricing_plan_id":"free"},{"bike_id":"01793230-e62c-4c90-94bf-38c2f6dbb101","system_id":"levelo_inurba_marseille","lat":43.307945,"lon":5.376487,"is_reserved":false,"is_disabled":false,"rental_uris":{"android":"levelo://app?vid=01793230-e62c-4c90-94bf-38c2f6dbb101","ios":"levelo://app?vid=01793230-e62c-4c90-94bf-38c2f6dbb101"},"vehicle_type_id":"4","last_reported":1702328808,"current_range_meters":2400,"station_id":"ce4bgv92rcd13ifvqcq0","pricing_plan_id":"free"},{"bike_id":"a9e8efa3-e30a-4e32-aa72-dbca40cebdb6","system_id":"levelo_inurba_marseille","lat":43.317075,"lon":5.377367,"is_reserved":false,"is_disabled":false,"rental_uris":{"android":"levelo://app?vid=a9e8efa3-e30a-4e32-aa72-dbca40cebdb6","ios":"levelo://app?vid=a9e8efa3-e30a-4e32-aa72-dbca40cebdb6"},"vehicle_type_id":"4","last_reported":1702328808,"current_range_meters":30000,"station_id":"ce4bgth2rcd13ifvqch0","pricing_plan_id":"free"},{"bike_id":"834d4041-dfc6-4642-8c9e-a4f1697fa58b","system_id":"levelo_inurba_marseille","lat":43.303046,"lon":5.368981,"is_reserved":false,"is_disabled":false,"rental_uris":{"android":"levelo://app?vid=834d4041-dfc6-4642-8c9e-a4f1697fa58b","ios":"levelo://app?vid=834d4041-dfc6-4642-8c9e-a4f1697fa58b"},"vehicle_type_id":"4","last_reported":1702328808,"current_range_meters":21200,"station_id":"ce4bgqh2rcd13ifvqc5g","pricing_plan_id":"free"},{"bike_id":"fb92bdac-d369-4936-af8c-ffd52de7386f","system_id":"levelo_inurba_marseille","lat":43.30963,"lon":5.37984,"is_reserved":false,"is_disabled":false,"rental_uris":{"android":"levelo://app?vid=fb92bdac-d369-4936-af8c-ffd52de7386f","ios":"levelo://app?vid=fb92bdac-d369-4936-af8c-ffd52de7386f"},"vehicle_type_id":"4","last_reported":1702328808,"current_range_meters":8000,"station_id":"","pricing_plan_id":"free"},{"bike_id":"20f1b7c4-0297-4380-9404-8677dfb4f5ad","system_id":"levelo_inurba_marseille","lat":43.315227,"lon":5.380327,"is_reserved":false,"is_disabled":false,"rental_uris":{"android":"levelo://app?vid=20f1b7c4-0297-4380-9404-8677dfb4f5ad","ios":"levelo://app?vid=20f1b7c4-0297-4380-9404-8677dfb4f5ad"},"vehicle_type_id":"4","last_reported":1702328808,"current_range_meters":12800,"station_id":"ce4bhsp2rcd13ifvqi50","pricing_plan_id":"free"},{"bike_id":"ca1e2cf0-263f-41d8-954a-eef3e243c96c","system_id":"levelo_inurba_marseille","lat":43.308012,"lon":5.381511,"is_reserved":false,"is_disabled":false,"rental_uris":{"android":"levelo://app?vid=ca1e2cf0-263f-41d8-954a-eef3e243c96c","ios":"levelo://app?vid=ca1e2cf0-263f-41d8-954a-eef3e243c96c"},"vehicle_type_id":"4","last_reported":1702328808,"current_range_meters":10800,"station_id":"ce4bgt12rcd13ifvqce0","pricing_plan_id":"free"},{"bike_id":"9c10fd33-7a02-4023-b67a-483ea875fecd","system_id":"levelo_inurba_marseille","lat":43.308012,"lon":5.381511,"is_reserved":false,"is_disabled":false,"rental_uris":{"android":"levelo://app?vid=9c10fd33-7a02-4023-b67a-483ea875fecd","ios":"levelo://app?vid=9c10fd33-7a02-4023-b67a-483ea875fecd"},"vehicle_type_id":"4","last_reported":1702328808,"current_range_meters":24000,"station_id":"ce4bgt12rcd13ifvqce0","pricing_plan_id":"free"},{"bike_id":"16865821-160f-4d5c-85c5-3cae18cbefb6","system_id":"levelo_inurba_marseille","lat":43.304606,"lon":5.379026,"is_reserved":false,"is_disabled":false,"rental_uris":{"android":"levelo://app?vid=16865821-160f-4d5c-85c5-3cae18cbefb6","ios":"levelo://app?vid=16865821-160f-4d5c-85c5-3cae18cbefb6"},"vehicle_type_id":"4","last_reported":1702328808,"current_range_meters":8000,"station_id":"ce4bgup2rcd13ifvqcn0","pricing_plan_id":"free"},{"bike_id":"a5589e38-f15a-46fe-9b37-27cf16ba9de2","system_id":"levelo_inurba_marseille","lat":43.316241,"lon":5.383167,"is_reserved":false,"is_disabled":false,"rental_uris":{"android":"levelo://app?vid=a5589e38-f15a-46fe-9b37-27cf16ba9de2","ios":"levelo://app?vid=a5589e38-f15a-46fe-9b37-27cf16ba9de2"},"vehicle_type_id":"4","last_reported":1702328808,"current_range_meters":22800,"station_id":"","pricing_plan_id":"free"},{"bike_id":"64e486c9-9031-473b-827b-bc4a33617979","system_id":"levelo_inurba_marseille","lat":43.313571,"lon":5.384829,"is_reserved":false,"is_disabled":false,"rental_uris":{"android":"levelo://app?vid=64e486c9-9031-473b-827b-bc4a33617979","ios":"levelo://app?vid=64e486c9-9031-473b-827b-bc4a33617979"},"vehicle_type_id":"4","last_reported":1702328808,"current_range_meters":21600,"station_id":"ce4bgt92rcd13ifvqcf0","pricing_plan_id":"free"},{"bike_id":"e6219f3c-4588-456b-9afb-ba8f00b2488c","system_id":"levelo_inurba_marseille","lat":43.313571,"lon":5.384829,"is_reserved":false,"is_disabled":false,"rental_uris":{"android":"levelo://app?vid=e6219f3c-4588-456b-9afb-ba8f00b2488c","ios":"levelo://app?vid=e6219f3c-4588-456b-9afb-ba8f00b2488c"},"vehicle_type_id":"4","last_reported":1702328808,"current_range_meters":31200,"station_id":"ce4bgt92rcd13ifvqcf0","pricing_plan_id":"free"},{"bike_id":"f5dc87db-1627-40f9-8d4d-6dfa629a504a","system_id":"levelo_inurba_marseille","lat":43.31356,"lon":5.38493,"is_reserved":false,"is_disabled":false,"rental_uris":{"android":"levelo://app?vid=f5dc87db-1627-40f9-8d4d-6dfa629a504a","ios":"levelo://app?vid=f5dc87db-1627-40f9-8d4d-6dfa629a504a"},"vehicle_type_id":"4","last_reported":1702328808,"current_range_meters":15200,"station_id":"ce4bgt92rcd13ifvqcf0","pricing_plan_id":"free"},{"bike_id":"89174b6c-7157-464f-821e-2b2484992d0c","system_id":"levelo_inurba_marseille","lat":43.32544,"lon":5.37407,"is_reserved":false,"is_disabled":false,"rental_uris":{"android":"levelo://app?vid=89174b6c-7157-464f-821e-2b2484992d0c","ios":"levelo://app?vid=89174b6c-7157-464f-821e-2b2484992d0c"},"vehicle_type_id":"4","last_reported":1702328808,"current_range_meters":30000,"station_id":"","pricing_plan_id":"free"},{"bike_id":"c53ee6c7-c9fe-475c-990b-60a6b4b2e711","system_id":"levelo_inurba_marseille","lat":43.311722,"lon":5.387247,"is_reserved":false,"is_disabled":false,"rental_uris":{"android":"levelo://app?vid=c53ee6c7-c9fe-475c-990b-60a6b4b2e711","ios":"levelo://app?vid=c53ee6c7-c9fe-475c-990b-60a6b4b2e711"},"vehicle_type_id":"4","last_reported":1702328808,"current_range_meters":6800,"station_id":"ce4bgv12rcd13ifvqcp0","pricing_plan_id":"free"},{"bike_id":"9e689e78-810a-4a8a-bda1-de445e3ee726","system_id":"levelo_inurba_marseille","lat":43.311722,"lon":5.387247,"is_reserved":false,"is_disabled":false,"rental_uris":{"android":"levelo://app?vid=9e689e78-810a-4a8a-bda1-de445e3ee726","ios":"levelo://app?vid=9e689e78-810a-4a8a-bda1-de445e3ee726"},"vehicle_type_id":"4","last_reported":1702328808,"current_range_meters":16400,"station_id":"ce4bgv12rcd13ifvqcp0","pricing_plan_id":"free"},{"bike_id":"068f4cd4-969c-4b32-8f76-905916e866f7","system_id":"levelo_inurba_marseille","lat":43.311722,"lon":5.387247,"is_reserved":false,"is_disabled":false,"rental_uris":{"android":"levelo://app?vid=068f4cd4-969c-4b32-8f76-905916e866f7","ios":"levelo://app?vid=068f4cd4-969c-4b32-8f76-905916e866f7"},"vehicle_type_id":"4","last_reported":1702328808,"current_range_meters":30400,"station_id":"ce4bgv12rcd13ifvqcp0","pricing_plan_id":"free"},{"bike_id":"d3697dae-79fa-4e0f-a9b0-b17da63fad10","system_id":"levelo_inurba_marseille","lat":43.311722,"lon":5.387247,"is_reserved":false,"is_disabled":false,"rental_uris":{"android":"levelo://app?vid=d3697dae-79fa-4e0f-a9b0-b17da63fad10","ios":"levelo://app?vid=d3697dae-79fa-4e0f-a9b0-b17da63fad10"},"vehicle_type_id":"4","last_reported":1702328808,"current_range_meters":26800,"station_id":"ce4bgv12rcd13ifvqcp0","pricing_plan_id":"free"},{"bike_id":"622d19e3-f8c8-471b-bfdb-558ec99dd8bc","system_id":"levelo_inurba_marseille","lat":43.311722,"lon":5.387247,"is_reserved":false,"is_disabled":false,"rental_uris":{"android":"levelo://app?vid=622d19e3-f8c8-471b-bfdb-558ec99dd8bc","ios":"levelo://app?vid=622d19e3-f8c8-471b-bfdb-558ec99dd8bc"},"vehicle_type_id":"4","last_reported":1702328808,"current_range_meters":8400,"station_id":"ce4bgv12rcd13ifvqcp0","pricing_plan_id":"free"},{"bike_id":"405025e1-ad99-444c-bca7-63ee9c8da0a9","system_id":"levelo_inurba_marseille","lat":43.297794,"lon":5.370888,"is_reserved":false,"is_disabled":false,"rental_uris":{"android":"levelo://app?vid=405025e1-ad99-444c-bca7-63ee9c8da0a9","ios":"levelo://app?vid=405025e1-ad99-444c-bca7-63ee9c8da0a9"},"vehicle_type_id":"4","last_reported":1702328808,"current_range_meters":15600,"station_id":"ce4bgop2rcd13ifvqc1g","pricing_plan_id":"free"},{"bike_id":"39ee9a89-500c-428a-984f-632f4eb66c7b","system_id":"levelo_inurba_marseille","lat":43.32825,"lon":5.366695,"is_reserved":false,"is_disabled":false,"rental_uris":{"android":"levelo://app?vid=39ee9a89-500c-428a-984f-632f4eb66c7b","ios":"levelo://app?vid=39ee9a89-500c-428a-984f-632f4eb66c7b"},"vehicle_type_id":"4","last_reported":1702328808,"current_range_meters":19200,"station_id":"ce4bhs92rcd13ifvqi0g","pricing_plan_id":"free"},{"bike_id":"d33a1cd8-e152-410e-a93d-a21b1f4688b1","system_id":"levelo_inurba_marseille","lat":43.2968,"lon":5.37291,"is_reserved":false,"is_disabled":false,"rental_uris":{"android":"levelo://app?vid=d33a1cd8-e152-410e-a93d-a21b1f4688b1","ios":"levelo://app?vid=d33a1cd8-e152-410e-a93d-a21b1f4688b1"},"vehicle_type_id":"4","last_reported":1702328808,"current_range_meters":31200,"station_id":"ce4bgk12rcd13ifvqbj0","pricing_plan_id":"free"},{"bike_id":"a5be44c7-6770-4c1f-b822-9ccd5c028237","system_id":"levelo_inurba_marseille","lat":43.296131,"lon":5.370791,"is_reserved":false,"is_disabled":false,"rental_uris":{"android":"levelo://app?vid=a5be44c7-6770-4c1f-b822-9ccd5c028237","ios":"levelo://app?vid=a5be44c7-6770-4c1f-b822-9ccd5c028237"},"vehicle_type_id":"4","last_reported":1702328808,"current_range_meters":16000,"station_id":"ce4bgnh2rcd13ifvqc0g","pricing_plan_id":"free"},{"bike_id":"e943b487-c43c-4967-b791-c50dc3993506","system_id":"levelo_inurba_marseille","lat":43.2957,"lon":5.368117,"is_reserved":false,"is_disabled":false,"rental_uris":{"android":"levelo://app?vid=e943b487-c43c-4967-b791-c50dc3993506","ios":"levelo://app?vid=e943b487-c43c-4967-b791-c50dc3993506"},"vehicle_type_id":"4","last_reported":1702328808,"current_range_meters":27600,"station_id":"","pricing_plan_id":"free"},{"bike_id":"c66d7ad2-1cb7-48cd-b397-09f0c1ed512f","system_id":"levelo_inurba_marseille","lat":43.317557,"lon":5.390173,"is_reserved":false,"is_disabled":false,"rental_uris":{"android":"levelo://app?vid=c66d7ad2-1cb7-48cd-b397-09f0c1ed512f","ios":"levelo://app?vid=c66d7ad2-1cb7-48cd-b397-09f0c1ed512f"},"vehicle_type_id":"4","last_reported":1702328808,"current_range_meters":5600,"station_id":"ce4bhqp2rcd13ifvqhng","pricing_plan_id":"free"},{"bike_id":"8d29c8b9-4f5e-4637-beaa-0cc6b2fd2a9f","system_id":"levelo_inurba_marseille","lat":43.317557,"lon":5.390173,"is_reserved":false,"is_disabled":false,"rental_uris":{"android":"levelo://app?vid=8d29c8b9-4f5e-4637-beaa-0cc6b2fd2a9f","ios":"levelo://app?vid=8d29c8b9-4f5e-4637-beaa-0cc6b2fd2a9f"},"vehicle_type_id":"4","last_reported":1702328808,"current_range_meters":27200,"station_id":"ce4bhqp2rcd13ifvqhng","pricing_plan_id":"free"},{"bike_id":"823bb91b-762a-4ec2-a01a-ad3bc229cdbd","system_id":"levelo_inurba_marseille","lat":43.317557,"lon":5.390173,"is_reserved":false,"is_disabled":false,"rental_uris":{"android":"levelo://app?vid=823bb91b-762a-4ec2-a01a-ad3bc229cdbd","ios":"levelo://app?vid=823bb91b-762a-4ec2-a01a-ad3bc229cdbd"},"vehicle_type_id":"4","last_reported":1702328808,"current_range_meters":5600,"station_id":"ce4bhqp2rcd13ifvqhng","pricing_plan_id":"free"},{"bike_id":"20d3374e-7777-4a3a-aac3-6bcbb3f05466","system_id":"levelo_inurba_marseille","lat":43.317557,"lon":5.390173,"is_reserved":false,"is_disabled":false,"rental_uris":{"android":"levelo://app?vid=20d3374e-7777-4a3a-aac3-6bcbb3f05466","ios":"levelo://app?vid=20d3374e-7777-4a3a-aac3-6bcbb3f05466"},"vehicle_type_id":"4","last_reported":1702328808,"current_range_meters":23200,"station_id":"ce4bhqp2rcd13ifvqhng","pricing_plan_id":"free"},{"bike_id":"52d8b7ba-7505-413c-b898-efb75f14c13c","system_id":"levelo_inurba_marseille","lat":43.33061,"lon":5.37071,"is_reserved":false,"is_disabled":false,"rental_uris":{"android":"levelo://app?vid=52d8b7ba-7505-413c-b898-efb75f14c13c","ios":"levelo://app?vid=52d8b7ba-7505-413c-b898-efb75f14c13c"},"vehicle_type_id":"4","last_reported":1702328808,"current_range_meters":19200,"station_id":"","pricing_plan_id":"free"},{"bike_id":"61a9d821-211d-4cd3-b66f-6a9b3fadd2d2","system_id":"levelo_inurba_marseille","lat":43.330673,"lon":5.370897,"is_reserved":false,"is_disabled":false,"rental_uris":{"android":"levelo://app?vid=61a9d821-211d-4cd3-b66f-6a9b3fadd2d2","ios":"levelo://app?vid=61a9d821-211d-4cd3-b66f-6a9b3fadd2d2"},"vehicle_type_id":"4","last_reported":1702328808,"current_range_meters":24000,"station_id":"","pricing_plan_id":"free"},{"bike_id":"cbff414b-de45-430f-90c7-149f5f69206b","system_id":"levelo_inurba_marseille","lat":43.29988,"lon":5.38488,"is_reserved":false,"is_disabled":false,"rental_uris":{"android":"levelo://app?vid=cbff414b-de45-430f-90c7-149f5f69206b","ios":"levelo://app?vid=cbff414b-de45-430f-90c7-149f5f69206b"},"vehicle_type_id":"4","last_reported":1702328808,"current_range_meters":21200,"station_id":"","pricing_plan_id":"free"},{"bike_id":"d7e00144-d8dc-4f60-93c3-131d1d5baf01","system_id":"levelo_inurba_marseille","lat":43.299717,"lon":5.384845,"is_reserved":false,"is_disabled":false,"rental_uris":{"android":"levelo://app?vid=d7e00144-d8dc-4f60-93c3-131d1d5baf01","ios":"levelo://app?vid=d7e00144-d8dc-4f60-93c3-131d1d5baf01"},"vehicle_type_id":"4","last_reported":1702328808,"current_range_meters":16800,"station_id":"ce4bgj92rcd13ifvqbd0","pricing_plan_id":"free"},{"bike_id":"77a6c46d-d898-4e4f-8846-efa91689c7f0","system_id":"levelo_inurba_marseille","lat":43.295517,"lon":5.379273,"is_reserved":false,"is_disabled":false,"rental_uris":{"android":"levelo://app?vid=77a6c46d-d898-4e4f-8846-efa91689c7f0","ios":"levelo://app?vid=77a6c46d-d898-4e4f-8846-efa91689c7f0"},"vehicle_type_id":"4","last_reported":1702328808,"current_range_meters":0,"station_id":"","pricing_plan_id":"free"},{"bike_id":"29f88818-2b54-4a71-b420-b2c16ae63f83","system_id":"levelo_inurba_marseille","lat":43.29376,"lon":5.37864,"is_reserved":false,"is_disabled":false,"rental_uris":{"android":"levelo://app?vid=29f88818-2b54-4a71-b420-b2c16ae63f83","ios":"levelo://app?vid=29f88818-2b54-4a71-b420-b2c16ae63f83"},"vehicle_type_id":"4","last_reported":1702328808,"current_range_meters":2800,"station_id":"ce4bgjh2rcd13ifvqbf0","pricing_plan_id":"free"},{"bike_id":"d60c28fc-d611-4784-9880-e822c91fa195","system_id":"levelo_inurba_marseille","lat":43.300852,"lon":5.390859,"is_reserved":false,"is_disabled":false,"rental_uris":{"android":"levelo://app?vid=d60c28fc-d611-4784-9880-e822c91fa195","ios":"levelo://app?vid=d60c28fc-d611-4784-9880-e822c91fa195"},"vehicle_type_id":"4","last_reported":1702328808,"current_range_meters":18800,"station_id":"ce4bh192rcd13ifvqdb0","pricing_plan_id":"free"},{"bike_id":"6a97180c-6a50-4efb-8edc-57ad9ad1d9d6","system_id":"levelo_inurba_marseille","lat":43.304403,"lon":5.393287,"is_reserved":false,"is_disabled":false,"rental_uris":{"android":"levelo://app?vid=6a97180c-6a50-4efb-8edc-57ad9ad1d9d6","ios":"levelo://app?vid=6a97180c-6a50-4efb-8edc-57ad9ad1d9d6"},"vehicle_type_id":"4","last_reported":1702328808,"current_range_meters":0,"station_id":"","pricing_plan_id":"free"},{"bike_id":"ca4e135c-886c-4148-ae09-abe9471e060c","system_id":"levelo_inurba_marseille","lat":43.292311,"lon":5.360731,"is_reserved":false,"is_disabled":false,"rental_uris":{"android":"levelo://app?vid=ca4e135c-886c-4148-ae09-abe9471e060c","ios":"levelo://app?vid=ca4e135c-886c-4148-ae09-abe9471e060c"},"vehicle_type_id":"4","last_reported":1702328808,"current_range_meters":30400,"station_id":"ce4bhbh2rcd13ifvqeqg","pricing_plan_id":"free"},{"bike_id":"0d7ae7f6-1d18-420f-bb81-6aea8d214a45","system_id":"levelo_inurba_marseille","lat":43.292311,"lon":5.360731,"is_reserved":false,"is_disabled":false,"rental_uris":{"android":"levelo://app?vid=0d7ae7f6-1d18-420f-bb81-6aea8d214a45","ios":"levelo://app?vid=0d7ae7f6-1d18-420f-bb81-6aea8d214a45"},"vehicle_type_id":"4","last_reported":1702328808,"current_range_meters":1200,"station_id":"ce4bhbh2rcd13ifvqeqg","pricing_plan_id":"free"},{"bike_id":"79f36a7a-c67e-49d9-8621-9a5e25641ac8","system_id":"levelo_inurba_marseille","lat":43.292311,"lon":5.360731,"is_reserved":false,"is_disabled":false,"rental_uris":{"android":"levelo://app?vid=79f36a7a-c67e-49d9-8621-9a5e25641ac8","ios":"levelo://app?vid=79f36a7a-c67e-49d9-8621-9a5e25641ac8"},"vehicle_type_id":"4","last_reported":1702328808,"current_range_meters":15600,"station_id":"ce4bhbh2rcd13ifvqeqg","pricing_plan_id":"free"},{"bike_id":"c659b711-0195-45e5-9727-f36c772c4318","system_id":"levelo_inurba_marseille","lat":43.2987,"lon":5.38903,"is_reserved":false,"is_disabled":false,"rental_uris":{"android":"levelo://app?vid=c659b711-0195-45e5-9727-f36c772c4318","ios":"levelo://app?vid=c659b711-0195-45e5-9727-f36c772c4318"},"vehicle_type_id":"4","last_reported":1702328808,"current_range_meters":18000,"station_id":"","pricing_plan_id":"free"},{"bike_id":"e0faa393-c92d-4b64-8e12-1c27f1b99ac3","system_id":"levelo_inurba_marseille","lat":43.29871,"lon":5.38912,"is_reserved":false,"is_disabled":false,"rental_uris":{"android":"levelo://app?vid=e0faa393-c92d-4b64-8e12-1c27f1b99ac3","ios":"levelo://app?vid=e0faa393-c92d-4b64-8e12-1c27f1b99ac3"},"vehicle_type_id":"4","last_reported":1702328808,"current_range_meters":29200,"station_id":"","pricing_plan_id":"free"},{"bike_id":"c58fb81b-b58a-4c1c-8905-ff0b5c194be1","system_id":"levelo_inurba_marseille","lat":43.309038,"lon":5.396546,"is_reserved":false,"is_disabled":false,"rental_uris":{"android":"levelo://app?vid=c58fb81b-b58a-4c1c-8905-ff0b5c194be1","ios":"levelo://app?vid=c58fb81b-b58a-4c1c-8905-ff0b5c194be1"},"vehicle_type_id":"4","last_reported":1702328808,"current_range_meters":13600,"station_id":"ce4bh012rcd13ifvqcv0","pricing_plan_id":"free"},{"bike_id":"f3975721-0e9e-4040-85c4-e9fc444094bb","system_id":"levelo_inurba_marseille","lat":43.313258,"lon":5.396864,"is_reserved":false,"is_disabled":false,"rental_uris":{"android":"levelo://app?vid=f3975721-0e9e-4040-85c4-e9fc444094bb","ios":"levelo://app?vid=f3975721-0e9e-4040-85c4-e9fc444094bb"},"vehicle_type_id":"4","last_reported":1702328808,"current_range_meters":16800,"station_id":"","pricing_plan_id":"free"},{"bike_id":"aaa0e085-86be-4e5d-bc46-3265a9a48be6","system_id":"levelo_inurba_marseille","lat":43.313291,"lon":5.396838,"is_reserved":false,"is_disabled":false,"rental_uris":{"android":"levelo://app?vid=aaa0e085-86be-4e5d-bc46-3265a9a48be6","ios":"levelo://app?vid=aaa0e085-86be-4e5d-bc46-3265a9a48be6"},"vehicle_type_id":"4","last_reported":1702328808,"current_range_meters":14800,"station_id":"ce4bgvp2rcd13ifvqcu0","pricing_plan_id":"free"},{"bike_id":"0fd54c58-1996-442c-8269-f1d63bbdaacc","system_id":"levelo_inurba_marseille","lat":43.309038,"lon":5.396546,"is_reserved":false,"is_disabled":false,"rental_uris":{"android":"levelo://app?vid=0fd54c58-1996-442c-8269-f1d63bbdaacc","ios":"levelo://app?vid=0fd54c58-1996-442c-8269-f1d63bbdaacc"},"vehicle_type_id":"4","last_reported":1702328808,"current_range_meters":23200,"station_id":"ce4bh012rcd13ifvqcv0","pricing_plan_id":"free"},{"bike_id":"236e90fe-0390-4322-aa62-124d371d9448","system_id":"levelo_inurba_marseille","lat":43.313291,"lon":5.396838,"is_reserved":false,"is_disabled":false,"rental_uris":{"android":"levelo://app?vid=236e90fe-0390-4322-aa62-124d371d9448","ios":"levelo://app?vid=236e90fe-0390-4322-aa62-124d371d9448"},"vehicle_type_id":"4","last_reported":1702328808,"current_range_meters":19600,"station_id":"ce4bgvp2rcd13ifvqcu0","pricing_plan_id":"free"},{"bike_id":"f71c9aef-bc48-4fa3-aabe-f8ce93331081","system_id":"levelo_inurba_marseille","lat":43.309047,"lon":5.396551,"is_reserved":false,"is_disabled":false,"rental_uris":{"android":"levelo://app?vid=f71c9aef-bc48-4fa3-aabe-f8ce93331081","ios":"levelo://app?vid=f71c9aef-bc48-4fa3-aabe-f8ce93331081"},"vehicle_type_id":"4","last_reported":1702328808,"current_range_meters":27600,"station_id":"ce4bh012rcd13ifvqcv0","pricing_plan_id":"free"},{"bike_id":"7376bcfa-d6df-4e7d-8423-ebd01befe9b3","system_id":"levelo_inurba_marseille","lat":43.309038,"lon":5.396546,"is_reserved":false,"is_disabled":false,"rental_uris":{"android":"levelo://app?vid=7376bcfa-d6df-4e7d-8423-ebd01befe9b3","ios":"levelo://app?vid=7376bcfa-d6df-4e7d-8423-ebd01befe9b3"},"vehicle_type_id":"4","last_reported":1702328808,"current_range_meters":8400,"station_id":"ce4bh012rcd13ifvqcv0","pricing_plan_id":"free"},{"bike_id":"cd5ff254-98d2-420a-9146-d9c8bea47c61","system_id":"levelo_inurba_marseille","lat":43.29529,"lon":5.385581,"is_reserved":false,"is_disabled":false,"rental_uris":{"android":"levelo://app?vid=cd5ff254-98d2-420a-9146-d9c8bea47c61","ios":"levelo://app?vid=cd5ff254-98d2-420a-9146-d9c8bea47c61"},"vehicle_type_id":"4","last_reported":1702328808,"current_range_meters":10800,"station_id":"ce4bgih2rcd13ifvqba0","pricing_plan_id":"free"},{"bike_id":"cced7313-7677-4487-bbf4-cde5e079e57d","system_id":"levelo_inurba_marseille","lat":43.290631,"lon":5.359244,"is_reserved":false,"is_disabled":false,"rental_uris":{"android":"levelo://app?vid=cced7313-7677-4487-bbf4-cde5e079e57d","ios":"levelo://app?vid=cced7313-7677-4487-bbf4-cde5e079e57d"},"vehicle_type_id":"4","last_reported":1702328808,"current_range_meters":25600,"station_id":"ce4bha92rcd13ifvqeg0","pricing_plan_id":"free"},{"bike_id":"944348fd-bc6d-429c-b66d-3749dc3a4009","system_id":"levelo_inurba_marseille","lat":43.290631,"lon":5.359244,"is_reserved":false,"is_disabled":false,"rental_uris":{"android":"levelo://app?vid=944348fd-bc6d-429c-b66d-3749dc3a4009","ios":"levelo://app?vid=944348fd-bc6d-429c-b66d-3749dc3a4009"},"vehicle_type_id":"4","last_reported":1702328808,"current_range_meters":10400,"station_id":"ce4bha92rcd13ifvqeg0","pricing_plan_id":"free"},{"bike_id":"22f17df4-e645-43ab-a653-7991fd470b67","system_id":"levelo_inurba_marseille","lat":43.29044,"lon":5.37588,"is_reserved":false,"is_disabled":false,"rental_uris":{"android":"levelo://app?vid=22f17df4-e645-43ab-a653-7991fd470b67","ios":"levelo://app?vid=22f17df4-e645-43ab-a653-7991fd470b67"},"vehicle_type_id":"4","last_reported":1702328808,"current_range_meters":28800,"station_id":"","pricing_plan_id":"free"},{"bike_id":"6f97e3fd-f065-4fed-9d9c-bc3a3785f327","system_id":"levelo_inurba_marseille","lat":43.289468,"lon":5.363719,"is_reserved":false,"is_disabled":false,"rental_uris":{"android":"levelo://app?vid=6f97e3fd-f065-4fed-9d9c-bc3a3785f327","ios":"levelo://app?vid=6f97e3fd-f065-4fed-9d9c-bc3a3785f327"},"vehicle_type_id":"4","last_reported":1702328808,"current_range_meters":23200,"station_id":"ce4bhc92rcd13ifvqetg","pricing_plan_id":"free"},{"bike_id":"ff4c0626-d765-44ca-a5f0-3c9388ab8cca","system_id":"levelo_inurba_marseille","lat":43.292642,"lon":5.384254,"is_reserved":false,"is_disabled":false,"rental_uris":{"android":"levelo://app?vid=ff4c0626-d765-44ca-a5f0-3c9388ab8cca","ios":"levelo://app?vid=ff4c0626-d765-44ca-a5f0-3c9388ab8cca"},"vehicle_type_id":"4","last_reported":1702328808,"current_range_meters":13600,"station_id":"ce4bh692rcd13ifvqea0","pricing_plan_id":"free"},{"bike_id":"1a661d73-88ae-4138-aaea-c7718f1f0f3f","system_id":"levelo_inurba_marseille","lat":43.330442,"lon":5.389148,"is_reserved":false,"is_disabled":false,"rental_uris":{"android":"levelo://app?vid=1a661d73-88ae-4138-aaea-c7718f1f0f3f","ios":"levelo://app?vid=1a661d73-88ae-4138-aaea-c7718f1f0f3f"},"vehicle_type_id":"4","last_reported":1702328808,"current_range_meters":22000,"station_id":"ce4bhr92rcd13ifvqhrg","pricing_plan_id":"free"},{"bike_id":"9d8e17a7-c4c7-4287-a923-25a1cf206b9b","system_id":"levelo_inurba_marseille","lat":43.33045,"lon":5.38917,"is_reserved":false,"is_disabled":false,"rental_uris":{"android":"levelo://app?vid=9d8e17a7-c4c7-4287-a923-25a1cf206b9b","ios":"levelo://app?vid=9d8e17a7-c4c7-4287-a923-25a1cf206b9b"},"vehicle_type_id":"4","last_reported":1702328808,"current_range_meters":10400,"station_id":"ce4bhr92rcd13ifvqhrg","pricing_plan_id":"free"},{"bike_id":"f1896741-896e-40c9-aa4d-96fe134ed880","system_id":"levelo_inurba_marseille","lat":43.33046,"lon":5.38919,"is_reserved":false,"is_disabled":false,"rental_uris":{"android":"levelo://app?vid=f1896741-896e-40c9-aa4d-96fe134ed880","ios":"levelo://app?vid=f1896741-896e-40c9-aa4d-96fe134ed880"},"vehicle_type_id":"4","last_reported":1702328808,"current_range_meters":4400,"station_id":"ce4bhr92rcd13ifvqhrg","pricing_plan_id":"free"},{"bike_id":"4601da1a-2bc2-4be5-8fac-e44f32e20802","system_id":"levelo_inurba_marseille","lat":43.33043,"lon":5.38924,"is_reserved":false,"is_disabled":false,"rental_uris":{"android":"levelo://app?vid=4601da1a-2bc2-4be5-8fac-e44f32e20802","ios":"levelo://app?vid=4601da1a-2bc2-4be5-8fac-e44f32e20802"},"vehicle_type_id":"4","last_reported":1702328808,"current_range_meters":26800,"station_id":"ce4bhr92rcd13ifvqhrg","pricing_plan_id":"free"},{"bike_id":"02248679-509f-4b57-97bb-e9d71f1470fa","system_id":"levelo_inurba_marseille","lat":43.29,"lon":5.35617,"is_reserved":false,"is_disabled":false,"rental_uris":{"android":"levelo://app?vid=02248679-509f-4b57-97bb-e9d71f1470fa","ios":"levelo://app?vid=02248679-509f-4b57-97bb-e9d71f1470fa"},"vehicle_type_id":"4","last_reported":1702328808,"current_range_meters":30400,"station_id":"ce4bhb92rcd13ifvqen0","pricing_plan_id":"free"},{"bike_id":"11b93fd0-8080-4d07-92de-04f615ba25e8","system_id":"levelo_inurba_marseille","lat":43.290995,"lon":5.381361,"is_reserved":false,"is_disabled":false,"rental_uris":{"android":"levelo://app?vid=11b93fd0-8080-4d07-92de-04f615ba25e8","ios":"levelo://app?vid=11b93fd0-8080-4d07-92de-04f615ba25e8"},"vehicle_type_id":"4","last_reported":1702328808,"current_range_meters":16800,"station_id":"ce4bh512rcd13ifvqe2g","pricing_plan_id":"free"},{"bike_id":"bb0061ff-628d-4bb7-8ce0-726450104e00","system_id":"levelo_inurba_marseille","lat":43.29785,"lon":5.39343,"is_reserved":false,"is_disabled":false,"rental_uris":{"android":"levelo://app?vid=bb0061ff-628d-4bb7-8ce0-726450104e00","ios":"levelo://app?vid=bb0061ff-628d-4bb7-8ce0-726450104e00"},"vehicle_type_id":"4","last_reported":1702328808,"current_range_meters":23600,"station_id":"chh1huq6cuj3fo74tm60","pricing_plan_id":"free"},{"bike_id":"fb222a20-4023-4df4-9e50-ced6c429b48a","system_id":"levelo_inurba_marseille","lat":43.297815,"lon":5.393548,"is_reserved":false,"is_disabled":false,"rental_uris":{"android":"levelo://app?vid=fb222a20-4023-4df4-9e50-ced6c429b48a","ios":"levelo://app?vid=fb222a20-4023-4df4-9e50-ced6c429b48a"},"vehicle_type_id":"4","last_reported":1702328808,"current_range_meters":18400,"station_id":"chh1huq6cuj3fo74tm60","pricing_plan_id":"free"},{"bike_id":"c4fb82be-4426-45fa-a3ab-77587e6cb898","system_id":"levelo_inurba_marseille","lat":43.295169,"lon":5.390426,"is_reserved":false,"is_disabled":false,"rental_uris":{"android":"levelo://app?vid=c4fb82be-4426-45fa-a3ab-77587e6cb898","ios":"levelo://app?vid=c4fb82be-4426-45fa-a3ab-77587e6cb898"},"vehicle_type_id":"4","last_reported":1702328808,"current_range_meters":18400,"station_id":"ce4bh3p2rcd13ifvqdp0","pricing_plan_id":"free"},{"bike_id":"d4c3fad8-9b10-4a94-a35f-0b7018350a07","system_id":"levelo_inurba_marseille","lat":43.295169,"lon":5.390426,"is_reserved":false,"is_disabled":false,"rental_uris":{"android":"levelo://app?vid=d4c3fad8-9b10-4a94-a35f-0b7018350a07","ios":"levelo://app?vid=d4c3fad8-9b10-4a94-a35f-0b7018350a07"},"vehicle_type_id":"4","last_reported":1702328808,"current_range_meters":25200,"station_id":"ce4bh3p2rcd13ifvqdp0","pricing_plan_id":"free"},{"bike_id":"e8281f2d-e537-4365-987c-d1f71041980f","system_id":"levelo_inurba_marseille","lat":43.28857,"lon":5.35869,"is_reserved":false,"is_disabled":false,"rental_uris":{"android":"levelo://app?vid=e8281f2d-e537-4365-987c-d1f71041980f","ios":"levelo://app?vid=e8281f2d-e537-4365-987c-d1f71041980f"},"vehicle_type_id":"4","last_reported":1702328808,"current_range_meters":16800,"station_id":"ce4bhb12rcd13ifvqem0","pricing_plan_id":"free"},{"bike_id":"e06d71db-da75-4c62-8bb7-7bf857ef82d5","system_id":"levelo_inurba_marseille","lat":43.288516,"lon":5.358561,"is_reserved":false,"is_disabled":false,"rental_uris":{"android":"levelo://app?vid=e06d71db-da75-4c62-8bb7-7bf857ef82d5","ios":"levelo://app?vid=e06d71db-da75-4c62-8bb7-7bf857ef82d5"},"vehicle_type_id":"4","last_reported":1702328808,"current_range_meters":18400,"station_id":"ce4bhb12rcd13ifvqem0","pricing_plan_id":"free"},{"bike_id":"351310e1-9732-4a9f-ae64-3f1caaaa9e09","system_id":"levelo_inurba_marseille","lat":43.288502,"lon":5.358418,"is_reserved":false,"is_disabled":false,"rental_uris":{"android":"levelo://app?vid=351310e1-9732-4a9f-ae64-3f1caaaa9e09","ios":"levelo://app?vid=351310e1-9732-4a9f-ae64-3f1caaaa9e09"},"vehicle_type_id":"4","last_reported":1702328808,"current_range_meters":6000,"station_id":"ce4bhb12rcd13ifvqem0","pricing_plan_id":"free"},{"bike_id":"1ffa6cab-2192-4490-9617-61044011c6b1","system_id":"levelo_inurba_marseille","lat":43.337397,"lon":5.37457,"is_reserved":false,"is_disabled":false,"rental_uris":{"android":"levelo://app?vid=1ffa6cab-2192-4490-9617-61044011c6b1","ios":"levelo://app?vid=1ffa6cab-2192-4490-9617-61044011c6b1"},"vehicle_type_id":"4","last_reported":1702328808,"current_range_meters":19200,"station_id":"","pricing_plan_id":"free"},{"bike_id":"960ef42e-2036-4546-8942-f6abc8b51506","system_id":"levelo_inurba_marseille","lat":43.309223,"lon":5.40142,"is_reserved":false,"is_disabled":false,"rental_uris":{"android":"levelo://app?vid=960ef42e-2036-4546-8942-f6abc8b51506","ios":"levelo://app?vid=960ef42e-2036-4546-8942-f6abc8b51506"},"vehicle_type_id":"4","last_reported":1702328808,"current_range_meters":15600,"station_id":"ce4bgvp2rcd13ifvqct0","pricing_plan_id":"free"},{"bike_id":"e1115d16-a177-4b09-99f4-d84a7f0a9df4","system_id":"levelo_inurba_marseille","lat":43.33747,"lon":5.374695,"is_reserved":false,"is_disabled":false,"rental_uris":{"android":"levelo://app?vid=e1115d16-a177-4b09-99f4-d84a7f0a9df4","ios":"levelo://app?vid=e1115d16-a177-4b09-99f4-d84a7f0a9df4"},"vehicle_type_id":"4","last_reported":1702328808,"current_range_meters":28800,"station_id":"","pricing_plan_id":"free"},{"bike_id":"1a9123ca-1ac0-4cbb-b622-534f88bcae20","system_id":"levelo_inurba_marseille","lat":43.337513,"lon":5.374637,"is_reserved":false,"is_disabled":false,"rental_uris":{"android":"levelo://app?vid=1a9123ca-1ac0-4cbb-b622-534f88bcae20","ios":"levelo://app?vid=1a9123ca-1ac0-4cbb-b622-534f88bcae20"},"vehicle_type_id":"4","last_reported":1702328808,"current_range_meters":29200,"station_id":"","pricing_plan_id":"free"},{"bike_id":"7cddd4cc-2c7d-4381-9bfa-f684cdc32fa0","system_id":"levelo_inurba_marseille","lat":43.33757,"lon":5.37439,"is_reserved":false,"is_disabled":false,"rental_uris":{"android":"levelo://app?vid=7cddd4cc-2c7d-4381-9bfa-f684cdc32fa0","ios":"levelo://app?vid=7cddd4cc-2c7d-4381-9bfa-f684cdc32fa0"},"vehicle_type_id":"4","last_reported":1702328808,"current_range_meters":24400,"station_id":"","pricing_plan_id":"free"},{"bike_id":"60f84eb0-2206-4e1b-94df-fd8c129930f0","system_id":"levelo_inurba_marseille","lat":43.337668,"lon":5.374343,"is_reserved":false,"is_disabled":false,"rental_uris":{"android":"levelo://app?vid=60f84eb0-2206-4e1b-94df-fd8c129930f0","ios":"levelo://app?vid=60f84eb0-2206-4e1b-94df-fd8c129930f0"},"vehicle_type_id":"4","last_reported":1702328808,"current_range_meters":14400,"station_id":"","pricing_plan_id":"free"},{"bike_id":"9f812f77-2fb3-4e31-b498-deae707eef56","system_id":"levelo_inurba_marseille","lat":43.30642,"lon":5.401031,"is_reserved":false,"is_disabled":false,"rental_uris":{"android":"levelo://app?vid=9f812f77-2fb3-4e31-b498-deae707eef56","ios":"levelo://app?vid=9f812f77-2fb3-4e31-b498-deae707eef56"},"vehicle_type_id":"4","last_reported":1702328808,"current_range_meters":21200,"station_id":"ce4bh112rcd13ifvqda0","pricing_plan_id":"free"},{"bike_id":"34dc0dc5-c3fc-43b0-a388-71797eb78856","system_id":"levelo_inurba_marseille","lat":43.33775,"lon":5.37432,"is_reserved":false,"is_disabled":false,"rental_uris":{"android":"levelo://app?vid=34dc0dc5-c3fc-43b0-a388-71797eb78856","ios":"levelo://app?vid=34dc0dc5-c3fc-43b0-a388-71797eb78856"},"vehicle_type_id":"4","last_reported":1702328808,"current_range_meters":31200,"station_id":"","pricing_plan_id":"free"},{"bike_id":"5bb3fa4c-67a6-4653-b971-6d2299642c9b","system_id":"levelo_inurba_marseille","lat":43.301117,"lon":5.398795,"is_reserved":false,"is_disabled":false,"rental_uris":{"android":"levelo://app?vid=5bb3fa4c-67a6-4653-b971-6d2299642c9b","ios":"levelo://app?vid=5bb3fa4c-67a6-4653-b971-6d2299642c9b"},"vehicle_type_id":"4","last_reported":1702328808,"current_range_meters":16400,"station_id":"ce4bh0h2rcd13ifvqd40","pricing_plan_id":"free"},{"bike_id":"c7e30da2-6cfb-41b4-91b4-52b6d91c4b27","system_id":"levelo_inurba_marseille","lat":43.301117,"lon":5.398795,"is_reserved":false,"is_disabled":false,"rental_uris":{"android":"levelo://app?vid=c7e30da2-6cfb-41b4-91b4-52b6d91c4b27","ios":"levelo://app?vid=c7e30da2-6cfb-41b4-91b4-52b6d91c4b27"},"vehicle_type_id":"4","last_reported":1702328808,"current_range_meters":0,"station_id":"ce4bh0h2rcd13ifvqd40","pricing_plan_id":"free"},{"bike_id":"3718be7f-bfd9-4d4a-a2de-c4fd70ef54d6","system_id":"levelo_inurba_marseille","lat":43.28727,"lon":5.36078,"is_reserved":false,"is_disabled":false,"rental_uris":{"android":"levelo://app?vid=3718be7f-bfd9-4d4a-a2de-c4fd70ef54d6","ios":"levelo://app?vid=3718be7f-bfd9-4d4a-a2de-c4fd70ef54d6"},"vehicle_type_id":"4","last_reported":1702328808,"current_range_meters":12400,"station_id":"cki0cbj6b192h4jlfktg","pricing_plan_id":"free"},{"bike_id":"0b1bd042-7cf7-4527-aa17-3a1421b9a37a","system_id":"levelo_inurba_marseille","lat":43.28727,"lon":5.36078,"is_reserved":false,"is_disabled":false,"rental_uris":{"android":"levelo://app?vid=0b1bd042-7cf7-4527-aa17-3a1421b9a37a","ios":"levelo://app?vid=0b1bd042-7cf7-4527-aa17-3a1421b9a37a"},"vehicle_type_id":"4","last_reported":1702328808,"current_range_meters":24000,"station_id":"cki0cbj6b192h4jlfktg","pricing_plan_id":"free"},{"bike_id":"c8626e9f-a9f8-4944-ae0f-84eb0dfb09b4","system_id":"levelo_inurba_marseille","lat":43.28719,"lon":5.36085,"is_reserved":false,"is_disabled":false,"rental_uris":{"android":"levelo://app?vid=c8626e9f-a9f8-4944-ae0f-84eb0dfb09b4","ios":"levelo://app?vid=c8626e9f-a9f8-4944-ae0f-84eb0dfb09b4"},"vehicle_type_id":"4","last_reported":1702328808,"current_range_meters":7200,"station_id":"cki0cbj6b192h4jlfktg","pricing_plan_id":"free"},{"bike_id":"52ddb10d-48f5-454f-bec9-ba548d60b53f","system_id":"levelo_inurba_marseille","lat":43.286961,"lon":5.373785,"is_reserved":false,"is_disabled":false,"rental_uris":{"android":"levelo://app?vid=52ddb10d-48f5-454f-bec9-ba548d60b53f","ios":"levelo://app?vid=52ddb10d-48f5-454f-bec9-ba548d60b53f"},"vehicle_type_id":"4","last_reported":1702328808,"current_range_meters":16000,"station_id":"ce4bh3p2rcd13ifvqdq0","pricing_plan_id":"free"},{"bike_id":"405bc0e5-9d7f-45c3-ac9e-89d5a9e66a72","system_id":"levelo_inurba_marseille","lat":43.286961,"lon":5.373785,"is_reserved":false,"is_disabled":false,"rental_uris":{"android":"levelo://app?vid=405bc0e5-9d7f-45c3-ac9e-89d5a9e66a72","ios":"levelo://app?vid=405bc0e5-9d7f-45c3-ac9e-89d5a9e66a72"},"vehicle_type_id":"4","last_reported":1702328808,"current_range_meters":31200,"station_id":"ce4bh3p2rcd13ifvqdq0","pricing_plan_id":"free"},{"bike_id":"ca05b80a-3f26-444d-8185-6d909ec80dc4","system_id":"levelo_inurba_marseille","lat":43.295194,"lon":5.39397,"is_reserved":false,"is_disabled":false,"rental_uris":{"android":"levelo://app?vid=ca05b80a-3f26-444d-8185-6d909ec80dc4","ios":"levelo://app?vid=ca05b80a-3f26-444d-8185-6d909ec80dc4"},"vehicle_type_id":"4","last_reported":1702328808,"current_range_meters":7200,"station_id":"ce4bh292rcd13ifvqdf0","pricing_plan_id":"free"},{"bike_id":"22f680d7-de61-4ef2-898b-53eaaf4dfc4b","system_id":"levelo_inurba_marseille","lat":43.295194,"lon":5.39397,"is_reserved":false,"is_disabled":false,"rental_uris":{"android":"levelo://app?vid=22f680d7-de61-4ef2-898b-53eaaf4dfc4b","ios":"levelo://app?vid=22f680d7-de61-4ef2-898b-53eaaf4dfc4b"},"vehicle_type_id":"4","last_reported":1702328808,"current_range_meters":0,"station_id":"ce4bh292rcd13ifvqdf0","pricing_plan_id":"free"},{"bike_id":"c805bc75-93f9-4e22-bcb5-869276d399d3","system_id":"levelo_inurba_marseille","lat":43.295194,"lon":5.39397,"is_reserved":false,"is_disabled":false,"rental_uris":{"android":"levelo://app?vid=c805bc75-93f9-4e22-bcb5-869276d399d3","ios":"levelo://app?vid=c805bc75-93f9-4e22-bcb5-869276d399d3"},"vehicle_type_id":"4","last_reported":1702328808,"current_range_meters":24000,"station_id":"ce4bh292rcd13ifvqdf0","pricing_plan_id":"free"},{"bike_id":"1b06f2a8-a9b0-4d0d-b961-51bd9afb96f0","system_id":"levelo_inurba_marseille","lat":43.295196,"lon":5.39397,"is_reserved":false,"is_disabled":false,"rental_uris":{"android":"levelo://app?vid=1b06f2a8-a9b0-4d0d-b961-51bd9afb96f0","ios":"levelo://app?vid=1b06f2a8-a9b0-4d0d-b961-51bd9afb96f0"},"vehicle_type_id":"4","last_reported":1702328808,"current_range_meters":6800,"station_id":"ce4bh292rcd13ifvqdf0","pricing_plan_id":"free"},{"bike_id":"f7e7bb27-5799-433f-9016-aea753897636","system_id":"levelo_inurba_marseille","lat":43.29515,"lon":5.39402,"is_reserved":false,"is_disabled":false,"rental_uris":{"android":"levelo://app?vid=f7e7bb27-5799-433f-9016-aea753897636","ios":"levelo://app?vid=f7e7bb27-5799-433f-9016-aea753897636"},"vehicle_type_id":"4","last_reported":1702328808,"current_range_meters":0,"station_id":"ce4bh292rcd13ifvqdf0","pricing_plan_id":"free"},{"bike_id":"575fb5d1-2510-4aaa-9f2e-4b70a8a37572","system_id":"levelo_inurba_marseille","lat":43.290345,"lon":5.38646,"is_reserved":false,"is_disabled":false,"rental_uris":{"android":"levelo://app?vid=575fb5d1-2510-4aaa-9f2e-4b70a8a37572","ios":"levelo://app?vid=575fb5d1-2510-4aaa-9f2e-4b70a8a37572"},"vehicle_type_id":"4","last_reported":1702328808,"current_range_meters":20000,"station_id":"ce4bh4p2rcd13ifvqe0g","pricing_plan_id":"free"},{"bike_id":"39e7ecc9-8abf-47eb-8ad0-61f72a12e157","system_id":"levelo_inurba_marseille","lat":43.302759,"lon":5.400793,"is_reserved":false,"is_disabled":false,"rental_uris":{"android":"levelo://app?vid=39e7ecc9-8abf-47eb-8ad0-61f72a12e157","ios":"levelo://app?vid=39e7ecc9-8abf-47eb-8ad0-61f72a12e157"},"vehicle_type_id":"4","last_reported":1702328808,"current_range_meters":12800,"station_id":"ce4bgvh2rcd13ifvqcs0","pricing_plan_id":"free"},{"bike_id":"14a3dc26-68b0-446b-b47b-b2af88301a0e","system_id":"levelo_inurba_marseille","lat":43.291994,"lon":5.392907,"is_reserved":false,"is_disabled":false,"rental_uris":{"android":"levelo://app?vid=14a3dc26-68b0-446b-b47b-b2af88301a0e","ios":"levelo://app?vid=14a3dc26-68b0-446b-b47b-b2af88301a0e"},"vehicle_type_id":"4","last_reported":1702328808,"current_range_meters":13600,"station_id":"ce4bh192rcd13ifvqdd0","pricing_plan_id":"free"},{"bike_id":"70f060fd-26c5-4c2e-a72b-704622ab5006","system_id":"levelo_inurba_marseille","lat":43.291994,"lon":5.392907,"is_reserved":false,"is_disabled":false,"rental_uris":{"android":"levelo://app?vid=70f060fd-26c5-4c2e-a72b-704622ab5006","ios":"levelo://app?vid=70f060fd-26c5-4c2e-a72b-704622ab5006"},"vehicle_type_id":"4","last_reported":1702328808,"current_range_meters":14000,"station_id":"ce4bh192rcd13ifvqdd0","pricing_plan_id":"free"},{"bike_id":"4ad710f1-bb15-4faa-a3cf-10e9391e9e63","system_id":"levelo_inurba_marseille","lat":43.284538,"lon":5.358657,"is_reserved":false,"is_disabled":false,"rental_uris":{"android":"levelo://app?vid=4ad710f1-bb15-4faa-a3cf-10e9391e9e63","ios":"levelo://app?vid=4ad710f1-bb15-4faa-a3cf-10e9391e9e63"},"vehicle_type_id":"4","last_reported":1702328808,"current_range_meters":19600,"station_id":"ce4bhah2rcd13ifvqei0","pricing_plan_id":"free"},{"bike_id":"84f594c0-837d-4c3e-b8c1-19a843f36106","system_id":"levelo_inurba_marseille","lat":43.284538,"lon":5.358657,"is_reserved":false,"is_disabled":false,"rental_uris":{"android":"levelo://app?vid=84f594c0-837d-4c3e-b8c1-19a843f36106","ios":"levelo://app?vid=84f594c0-837d-4c3e-b8c1-19a843f36106"},"vehicle_type_id":"4","last_reported":1702328808,"current_range_meters":27200,"station_id":"ce4bhah2rcd13ifvqei0","pricing_plan_id":"free"},{"bike_id":"15d55d0f-f08c-49b5-bbc4-736950b1131e","system_id":"levelo_inurba_marseille","lat":43.284538,"lon":5.358657,"is_reserved":false,"is_disabled":false,"rental_uris":{"android":"levelo://app?vid=15d55d0f-f08c-49b5-bbc4-736950b1131e","ios":"levelo://app?vid=15d55d0f-f08c-49b5-bbc4-736950b1131e"},"vehicle_type_id":"4","last_reported":1702328808,"current_range_meters":12000,"station_id":"ce4bhah2rcd13ifvqei0","pricing_plan_id":"free"},{"bike_id":"ff87e69a-80ac-4c6c-9a15-ae17ff91f198","system_id":"levelo_inurba_marseille","lat":43.28616,"lon":5.35106,"is_reserved":false,"is_disabled":false,"rental_uris":{"android":"levelo://app?vid=ff87e69a-80ac-4c6c-9a15-ae17ff91f198","ios":"levelo://app?vid=ff87e69a-80ac-4c6c-9a15-ae17ff91f198"},"vehicle_type_id":"4","last_reported":1702328808,"current_range_meters":0,"station_id":"ce4bhch2rcd13ifvqeug","pricing_plan_id":"free"},{"bike_id":"6d1885bf-915b-4323-8d7f-0a1ba1e4c02e","system_id":"levelo_inurba_marseille","lat":43.28614,"lon":5.35102,"is_reserved":false,"is_disabled":false,"rental_uris":{"android":"levelo://app?vid=6d1885bf-915b-4323-8d7f-0a1ba1e4c02e","ios":"levelo://app?vid=6d1885bf-915b-4323-8d7f-0a1ba1e4c02e"},"vehicle_type_id":"4","last_reported":1702328808,"current_range_meters":7200,"station_id":"ce4bhch2rcd13ifvqeug","pricing_plan_id":"free"},{"bike_id":"97d8fcc7-4aef-45da-b019-c3d5381f038e","system_id":"levelo_inurba_marseille","lat":43.28611,"lon":5.35106,"is_reserved":false,"is_disabled":false,"rental_uris":{"android":"levelo://app?vid=97d8fcc7-4aef-45da-b019-c3d5381f038e","ios":"levelo://app?vid=97d8fcc7-4aef-45da-b019-c3d5381f038e"},"vehicle_type_id":"4","last_reported":1702328808,"current_range_meters":29600,"station_id":"ce4bhch2rcd13ifvqeug","pricing_plan_id":"free"},{"bike_id":"b3f2245b-60f9-4989-88ad-117587185b15","system_id":"levelo_inurba_marseille","lat":43.302759,"lon":5.400793,"is_reserved":false,"is_disabled":false,"rental_uris":{"android":"levelo://app?vid=b3f2245b-60f9-4989-88ad-117587185b15","ios":"levelo://app?vid=b3f2245b-60f9-4989-88ad-117587185b15"},"vehicle_type_id":"4","last_reported":1702328808,"current_range_meters":13200,"station_id":"ce4bgvh2rcd13ifvqcs0","pricing_plan_id":"free"},{"bike_id":"66cba741-1221-4d29-a72f-f4e0b2ba6a22","system_id":"levelo_inurba_marseille","lat":43.337168,"lon":5.391825,"is_reserved":false,"is_disabled":false,"rental_uris":{"android":"levelo://app?vid=66cba741-1221-4d29-a72f-f4e0b2ba6a22","ios":"levelo://app?vid=66cba741-1221-4d29-a72f-f4e0b2ba6a22"},"vehicle_type_id":"4","last_reported":1702328808,"current_range_meters":30000,"station_id":"ce4bhr92rcd13ifvqhsg","pricing_plan_id":"free"},{"bike_id":"5c30bccf-fab1-4d10-8078-a0d5bba8e5b9","system_id":"levelo_inurba_marseille","lat":43.283494,"lon":5.380945,"is_reserved":false,"is_disabled":false,"rental_uris":{"android":"levelo://app?vid=5c30bccf-fab1-4d10-8078-a0d5bba8e5b9","ios":"levelo://app?vid=5c30bccf-fab1-4d10-8078-a0d5bba8e5b9"},"vehicle_type_id":"4","last_reported":1702328808,"current_range_meters":25200,"station_id":"ce4bh412rcd13ifvqdr0","pricing_plan_id":"free"},{"bike_id":"ae580ee0-516c-41dd-85d9-7b4cf4de99e6","system_id":"levelo_inurba_marseille","lat":43.284214,"lon":5.349706,"is_reserved":false,"is_disabled":false,"rental_uris":{"android":"levelo://app?vid=ae580ee0-516c-41dd-85d9-7b4cf4de99e6","ios":"levelo://app?vid=ae580ee0-516c-41dd-85d9-7b4cf4de99e6"},"vehicle_type_id":"4","last_reported":1702328808,"current_range_meters":26800,"station_id":"ce4bhbh2rcd13ifvqepg","pricing_plan_id":"free"},{"bike_id":"ad82beb8-76f3-4ca0-a8c2-f27f0951a459","system_id":"levelo_inurba_marseille","lat":43.292724,"lon":5.401131,"is_reserved":false,"is_disabled":false,"rental_uris":{"android":"levelo://app?vid=ad82beb8-76f3-4ca0-a8c2-f27f0951a459","ios":"levelo://app?vid=ad82beb8-76f3-4ca0-a8c2-f27f0951a459"},"vehicle_type_id":"4","last_reported":1702328808,"current_range_meters":18800,"station_id":"ce4bh312rcd13ifvqdk0","pricing_plan_id":"free"},{"bike_id":"b46f3e8a-6f5b-4fba-8063-223732279eb0","system_id":"levelo_inurba_marseille","lat":43.292724,"lon":5.401131,"is_reserved":false,"is_disabled":false,"rental_uris":{"android":"levelo://app?vid=b46f3e8a-6f5b-4fba-8063-223732279eb0","ios":"levelo://app?vid=b46f3e8a-6f5b-4fba-8063-223732279eb0"},"vehicle_type_id":"4","last_reported":1702328808,"current_range_meters":7600,"station_id":"ce4bh312rcd13ifvqdk0","pricing_plan_id":"free"},{"bike_id":"6b65af97-9518-4e96-90c9-ec5081d7f048","system_id":"levelo_inurba_marseille","lat":43.292724,"lon":5.401131,"is_reserved":false,"is_disabled":false,"rental_uris":{"android":"levelo://app?vid=6b65af97-9518-4e96-90c9-ec5081d7f048","ios":"levelo://app?vid=6b65af97-9518-4e96-90c9-ec5081d7f048"},"vehicle_type_id":"4","last_reported":1702328808,"current_range_meters":7600,"station_id":"ce4bh312rcd13ifvqdk0","pricing_plan_id":"free"},{"bike_id":"a6293421-2f53-4d22-b3a9-1a774e17b5cb","system_id":"levelo_inurba_marseille","lat":43.282754,"lon":5.350519,"is_reserved":false,"is_disabled":false,"rental_uris":{"android":"levelo://app?vid=a6293421-2f53-4d22-b3a9-1a774e17b5cb","ios":"levelo://app?vid=a6293421-2f53-4d22-b3a9-1a774e17b5cb"},"vehicle_type_id":"4","last_reported":1702328808,"current_range_meters":30400,"station_id":"ce4bhbp2rcd13ifvqerg","pricing_plan_id":"free"},{"bike_id":"3761c4b2-9870-4544-aced-d720a2c79b1c","system_id":"levelo_inurba_marseille","lat":43.282744,"lon":5.350533,"is_reserved":false,"is_disabled":false,"rental_uris":{"android":"levelo://app?vid=3761c4b2-9870-4544-aced-d720a2c79b1c","ios":"levelo://app?vid=3761c4b2-9870-4544-aced-d720a2c79b1c"},"vehicle_type_id":"4","last_reported":1702328808,"current_range_meters":22400,"station_id":"ce4bhbp2rcd13ifvqerg","pricing_plan_id":"free"},{"bike_id":"1a755c5d-9b3c-4f8b-a5a3-2cb0e2abc85a","system_id":"levelo_inurba_marseille","lat":43.282754,"lon":5.350519,"is_reserved":false,"is_disabled":false,"rental_uris":{"android":"levelo://app?vid=1a755c5d-9b3c-4f8b-a5a3-2cb0e2abc85a","ios":"levelo://app?vid=1a755c5d-9b3c-4f8b-a5a3-2cb0e2abc85a"},"vehicle_type_id":"4","last_reported":1702328808,"current_range_meters":30800,"station_id":"ce4bhbp2rcd13ifvqerg","pricing_plan_id":"free"},{"bike_id":"e5b512cb-e27d-4458-a743-793d6f8f663b","system_id":"levelo_inurba_marseille","lat":43.2827,"lon":5.35066,"is_reserved":false,"is_disabled":false,"rental_uris":{"android":"levelo://app?vid=e5b512cb-e27d-4458-a743-793d6f8f663b","ios":"levelo://app?vid=e5b512cb-e27d-4458-a743-793d6f8f663b"},"vehicle_type_id":"4","last_reported":1702328808,"current_range_meters":2400,"station_id":"ce4bhbp2rcd13ifvqerg","pricing_plan_id":"free"},{"bike_id":"1b4f1150-045d-4d97-b30a-8a15d9a6a242","system_id":"levelo_inurba_marseille","lat":43.282744,"lon":5.350533,"is_reserved":false,"is_disabled":false,"rental_uris":{"android":"levelo://app?vid=1b4f1150-045d-4d97-b30a-8a15d9a6a242","ios":"levelo://app?vid=1b4f1150-045d-4d97-b30a-8a15d9a6a242"},"vehicle_type_id":"4","last_reported":1702328808,"current_range_meters":31200,"station_id":"ce4bhbp2rcd13ifvqerg","pricing_plan_id":"free"},{"bike_id":"a9087632-d97b-4295-ac27-f172913e6205","system_id":"levelo_inurba_marseille","lat":43.280382,"lon":5.369291,"is_reserved":false,"is_disabled":false,"rental_uris":{"android":"levelo://app?vid=a9087632-d97b-4295-ac27-f172913e6205","ios":"levelo://app?vid=a9087632-d97b-4295-ac27-f172913e6205"},"vehicle_type_id":"4","last_reported":1702328808,"current_range_meters":28800,"station_id":"ce4bha12rcd13ifvqef0","pricing_plan_id":"free"},{"bike_id":"dbb32c68-89ea-42d5-9bbd-5de5751b5866","system_id":"levelo_inurba_marseille","lat":43.280382,"lon":5.369291,"is_reserved":false,"is_disabled":false,"rental_uris":{"android":"levelo://app?vid=dbb32c68-89ea-42d5-9bbd-5de5751b5866","ios":"levelo://app?vid=dbb32c68-89ea-42d5-9bbd-5de5751b5866"},"vehicle_type_id":"4","last_reported":1702328808,"current_range_meters":31600,"station_id":"ce4bha12rcd13ifvqef0","pricing_plan_id":"free"},{"bike_id":"da9954b6-ebfe-41c4-815d-57825521b2bc","system_id":"levelo_inurba_marseille","lat":43.280367,"lon":5.36943,"is_reserved":false,"is_disabled":false,"rental_uris":{"android":"levelo://app?vid=da9954b6-ebfe-41c4-815d-57825521b2bc","ios":"levelo://app?vid=da9954b6-ebfe-41c4-815d-57825521b2bc"},"vehicle_type_id":"4","last_reported":1702328808,"current_range_meters":4000,"station_id":"ce4bha12rcd13ifvqef0","pricing_plan_id":"free"},{"bike_id":"4573ed2e-c755-4cfb-958a-78dda47a3e37","system_id":"levelo_inurba_marseille","lat":43.280382,"lon":5.369291,"is_reserved":false,"is_disabled":false,"rental_uris":{"android":"levelo://app?vid=4573ed2e-c755-4cfb-958a-78dda47a3e37","ios":"levelo://app?vid=4573ed2e-c755-4cfb-958a-78dda47a3e37"},"vehicle_type_id":"4","last_reported":1702328808,"current_range_meters":22400,"station_id":"ce4bha12rcd13ifvqef0","pricing_plan_id":"free"},{"bike_id":"4ee53fc3-95fe-4ec3-ae50-b9a8cd12442e","system_id":"levelo_inurba_marseille","lat":43.280382,"lon":5.369291,"is_reserved":false,"is_disabled":false,"rental_uris":{"android":"levelo://app?vid=4ee53fc3-95fe-4ec3-ae50-b9a8cd12442e","ios":"levelo://app?vid=4ee53fc3-95fe-4ec3-ae50-b9a8cd12442e"},"vehicle_type_id":"4","last_reported":1702328808,"current_range_meters":9200,"station_id":"ce4bha12rcd13ifvqef0","pricing_plan_id":"free"},{"bike_id":"2a4eaad2-9e40-497d-bacc-35b57af0f0de","system_id":"levelo_inurba_marseille","lat":43.28103,"lon":5.37835,"is_reserved":false,"is_disabled":false,"rental_uris":{"android":"levelo://app?vid=2a4eaad2-9e40-497d-bacc-35b57af0f0de","ios":"levelo://app?vid=2a4eaad2-9e40-497d-bacc-35b57af0f0de"},"vehicle_type_id":"4","last_reported":1702328808,"current_range_meters":15600,"station_id":"ce4bha12rcd13ifvqee0","pricing_plan_id":"free"},{"bike_id":"797fb2a9-c5f1-4a4e-a4f7-191eaacb882b","system_id":"levelo_inurba_marseille","lat":43.281044,"lon":5.378308,"is_reserved":false,"is_disabled":false,"rental_uris":{"android":"levelo://app?vid=797fb2a9-c5f1-4a4e-a4f7-191eaacb882b","ios":"levelo://app?vid=797fb2a9-c5f1-4a4e-a4f7-191eaacb882b"},"vehicle_type_id":"4","last_reported":1702328808,"current_range_meters":19600,"station_id":"ce4bha12rcd13ifvqee0","pricing_plan_id":"free"},{"bike_id":"48a99b63-f7d5-4782-a8c6-fa4d78f26f3c","system_id":"levelo_inurba_marseille","lat":43.281044,"lon":5.378308,"is_reserved":false,"is_disabled":false,"rental_uris":{"android":"levelo://app?vid=48a99b63-f7d5-4782-a8c6-fa4d78f26f3c","ios":"levelo://app?vid=48a99b63-f7d5-4782-a8c6-fa4d78f26f3c"},"vehicle_type_id":"4","last_reported":1702328808,"current_range_meters":18000,"station_id":"ce4bha12rcd13ifvqee0","pricing_plan_id":"free"},{"bike_id":"37203d1b-b531-40a6-988c-1da8e49b9372","system_id":"levelo_inurba_marseille","lat":43.296263,"lon":5.40601,"is_reserved":false,"is_disabled":false,"rental_uris":{"android":"levelo://app?vid=37203d1b-b531-40a6-988c-1da8e49b9372","ios":"levelo://app?vid=37203d1b-b531-40a6-988c-1da8e49b9372"},"vehicle_type_id":"4","last_reported":1702328808,"current_range_meters":22800,"station_id":"ce4bh0h2rcd13ifvqd60","pricing_plan_id":"free"},{"bike_id":"aa4ac0c8-3251-4954-b70d-99187e5600ce","system_id":"levelo_inurba_marseille","lat":43.280943,"lon":5.37841,"is_reserved":false,"is_disabled":false,"rental_uris":{"android":"levelo://app?vid=aa4ac0c8-3251-4954-b70d-99187e5600ce","ios":"levelo://app?vid=aa4ac0c8-3251-4954-b70d-99187e5600ce"},"vehicle_type_id":"4","last_reported":1702328808,"current_range_meters":19600,"station_id":"ce4bha12rcd13ifvqee0","pricing_plan_id":"free"},{"bike_id":"160bd7e5-05f6-43a1-9bc7-4629c7a42466","system_id":"levelo_inurba_marseille","lat":43.31328,"lon":5.41291,"is_reserved":false,"is_disabled":false,"rental_uris":{"android":"levelo://app?vid=160bd7e5-05f6-43a1-9bc7-4629c7a42466","ios":"levelo://app?vid=160bd7e5-05f6-43a1-9bc7-4629c7a42466"},"vehicle_type_id":"4","last_reported":1702328808,"current_range_meters":0,"station_id":"","pricing_plan_id":"free"},{"bike_id":"4767a7fd-d9a1-4cc7-8361-94becf3da635","system_id":"levelo_inurba_marseille","lat":43.284462,"lon":5.392121,"is_reserved":false,"is_disabled":false,"rental_uris":{"android":"levelo://app?vid=4767a7fd-d9a1-4cc7-8361-94becf3da635","ios":"levelo://app?vid=4767a7fd-d9a1-4cc7-8361-94becf3da635"},"vehicle_type_id":"4","last_reported":1702328808,"current_range_meters":29200,"station_id":"ce4bhoh2rcd13ifvqh5g","pricing_plan_id":"free"},{"bike_id":"ef618817-2607-4882-98fb-629e60b6a2ab","system_id":"levelo_inurba_marseille","lat":43.284462,"lon":5.392121,"is_reserved":false,"is_disabled":false,"rental_uris":{"android":"levelo://app?vid=ef618817-2607-4882-98fb-629e60b6a2ab","ios":"levelo://app?vid=ef618817-2607-4882-98fb-629e60b6a2ab"},"vehicle_type_id":"4","last_reported":1702328808,"current_range_meters":24000,"station_id":"ce4bhoh2rcd13ifvqh5g","pricing_plan_id":"free"},{"bike_id":"4c79ceb1-5a93-40b1-a107-234476f70110","system_id":"levelo_inurba_marseille","lat":43.28573,"lon":5.394992,"is_reserved":false,"is_disabled":false,"rental_uris":{"android":"levelo://app?vid=4c79ceb1-5a93-40b1-a107-234476f70110","ios":"levelo://app?vid=4c79ceb1-5a93-40b1-a107-234476f70110"},"vehicle_type_id":"4","last_reported":1702328808,"current_range_meters":18400,"station_id":"ce4bh292rcd13ifvqdg0","pricing_plan_id":"free"},{"bike_id":"9686bc48-5ae4-41c8-8710-ec44aae07d7e","system_id":"levelo_inurba_marseille","lat":43.285742,"lon":5.395004,"is_reserved":false,"is_disabled":false,"rental_uris":{"android":"levelo://app?vid=9686bc48-5ae4-41c8-8710-ec44aae07d7e","ios":"levelo://app?vid=9686bc48-5ae4-41c8-8710-ec44aae07d7e"},"vehicle_type_id":"4","last_reported":1702328808,"current_range_meters":15600,"station_id":"ce4bh292rcd13ifvqdg0","pricing_plan_id":"free"},{"bike_id":"08a22758-971d-43d7-b06f-e03f69b8c19b","system_id":"levelo_inurba_marseille","lat":43.326605,"lon":5.409903,"is_reserved":false,"is_disabled":false,"rental_uris":{"android":"levelo://app?vid=08a22758-971d-43d7-b06f-e03f69b8c19b","ios":"levelo://app?vid=08a22758-971d-43d7-b06f-e03f69b8c19b"},"vehicle_type_id":"4","last_reported":1702328808,"current_range_meters":20800,"station_id":"ce4bhpp2rcd13ifvqhgg","pricing_plan_id":"free"},{"bike_id":"a934d76b-8ba7-4197-bbf0-5f1568c9e6b9","system_id":"levelo_inurba_marseille","lat":43.304188,"lon":5.412904,"is_reserved":false,"is_disabled":false,"rental_uris":{"android":"levelo://app?vid=a934d76b-8ba7-4197-bbf0-5f1568c9e6b9","ios":"levelo://app?vid=a934d76b-8ba7-4197-bbf0-5f1568c9e6b9"},"vehicle_type_id":"4","last_reported":1702328808,"current_range_meters":28800,"station_id":"ce4bhop2rcd13ifvqh8g","pricing_plan_id":"free"},{"bike_id":"05b7994a-2ac0-4d51-9178-7ed777dfcd52","system_id":"levelo_inurba_marseille","lat":43.279087,"lon":5.380114,"is_reserved":false,"is_disabled":false,"rental_uris":{"android":"levelo://app?vid=05b7994a-2ac0-4d51-9178-7ed777dfcd52","ios":"levelo://app?vid=05b7994a-2ac0-4d51-9178-7ed777dfcd52"},"vehicle_type_id":"4","last_reported":1702328808,"current_range_meters":20000,"station_id":"ce4bhf92rcd13ifvqf50","pricing_plan_id":"free"},{"bike_id":"ef1028cd-ebbe-49ad-9388-3915a9fa2e4e","system_id":"levelo_inurba_marseille","lat":43.287154,"lon":5.399979,"is_reserved":false,"is_disabled":false,"rental_uris":{"android":"levelo://app?vid=ef1028cd-ebbe-49ad-9388-3915a9fa2e4e","ios":"levelo://app?vid=ef1028cd-ebbe-49ad-9388-3915a9fa2e4e"},"vehicle_type_id":"4","last_reported":1702328808,"current_range_meters":26800,"station_id":"ce4bho92rcd13ifvqh3g","pricing_plan_id":"free"},{"bike_id":"fa4bb5fb-ad72-4f07-be70-d85fcf016197","system_id":"levelo_inurba_marseille","lat":43.287154,"lon":5.399979,"is_reserved":false,"is_disabled":false,"rental_uris":{"android":"levelo://app?vid=fa4bb5fb-ad72-4f07-be70-d85fcf016197","ios":"levelo://app?vid=fa4bb5fb-ad72-4f07-be70-d85fcf016197"},"vehicle_type_id":"4","last_reported":1702328808,"current_range_meters":30400,"station_id":"ce4bho92rcd13ifvqh3g","pricing_plan_id":"free"},{"bike_id":"c921afde-888b-4477-a352-f539eefaf0c7","system_id":"levelo_inurba_marseille","lat":43.279742,"lon":5.38744,"is_reserved":false,"is_disabled":false,"rental_uris":{"android":"levelo://app?vid=c921afde-888b-4477-a352-f539eefaf0c7","ios":"levelo://app?vid=c921afde-888b-4477-a352-f539eefaf0c7"},"vehicle_type_id":"4","last_reported":1702328808,"current_range_meters":0,"station_id":"ce4bhg12rcd13ifvqf80","pricing_plan_id":"free"},{"bike_id":"2311aaf9-3908-4009-b838-0e5f77c6048a","system_id":"levelo_inurba_marseille","lat":43.2762,"lon":5.36108,"is_reserved":false,"is_disabled":false,"rental_uris":{"android":"levelo://app?vid=2311aaf9-3908-4009-b838-0e5f77c6048a","ios":"levelo://app?vid=2311aaf9-3908-4009-b838-0e5f77c6048a"},"vehicle_type_id":"4","last_reported":1702328808,"current_range_meters":11200,"station_id":"ce4bgj92rcd13ifvqbe0","pricing_plan_id":"free"},{"bike_id":"0affd34a-26a3-4b23-9979-f74eada3d752","system_id":"levelo_inurba_marseille","lat":43.27618,"lon":5.361009,"is_reserved":false,"is_disabled":false,"rental_uris":{"android":"levelo://app?vid=0affd34a-26a3-4b23-9979-f74eada3d752","ios":"levelo://app?vid=0affd34a-26a3-4b23-9979-f74eada3d752"},"vehicle_type_id":"4","last_reported":1702328808,"current_range_meters":15600,"station_id":"ce4bgj92rcd13ifvqbe0","pricing_plan_id":"free"},{"bike_id":"d2d1a980-81d0-4b43-a286-ebecc7be733a","system_id":"levelo_inurba_marseille","lat":43.27617,"lon":5.36105,"is_reserved":false,"is_disabled":false,"rental_uris":{"android":"levelo://app?vid=d2d1a980-81d0-4b43-a286-ebecc7be733a","ios":"levelo://app?vid=d2d1a980-81d0-4b43-a286-ebecc7be733a"},"vehicle_type_id":"4","last_reported":1702328808,"current_range_meters":24400,"station_id":"ce4bgj92rcd13ifvqbe0","pricing_plan_id":"free"},{"bike_id":"6fb7d017-b245-43a0-8373-a842d3457d15","system_id":"levelo_inurba_marseille","lat":43.28688,"lon":5.406008,"is_reserved":false,"is_disabled":false,"rental_uris":{"android":"levelo://app?vid=6fb7d017-b245-43a0-8373-a842d3457d15","ios":"levelo://app?vid=6fb7d017-b245-43a0-8373-a842d3457d15"},"vehicle_type_id":"4","last_reported":1702328808,"current_range_meters":6400,"station_id":"","pricing_plan_id":"free"},{"bike_id":"5ec0f610-67d6-4362-9fee-eee9426eb4cf","system_id":"levelo_inurba_marseille","lat":43.303837,"lon":5.418724,"is_reserved":false,"is_disabled":false,"rental_uris":{"android":"levelo://app?vid=5ec0f610-67d6-4362-9fee-eee9426eb4cf","ios":"levelo://app?vid=5ec0f610-67d6-4362-9fee-eee9426eb4cf"},"vehicle_type_id":"4","last_reported":1702328808,"current_range_meters":12400,"station_id":"ce4bhop2rcd13ifvqh7g","pricing_plan_id":"free"},{"bike_id":"9ea10af0-3940-4224-a189-633a8d8b6409","system_id":"levelo_inurba_marseille","lat":43.27375,"lon":5.3625,"is_reserved":false,"is_disabled":false,"rental_uris":{"android":"levelo://app?vid=9ea10af0-3940-4224-a189-633a8d8b6409","ios":"levelo://app?vid=9ea10af0-3940-4224-a189-633a8d8b6409"},"vehicle_type_id":"4","last_reported":1702328808,"current_range_meters":12000,"station_id":"ce4bhbh2rcd13ifvqeo0","pricing_plan_id":"free"},{"bike_id":"f763e54d-5215-4eb1-9294-2cf58722503f","system_id":"levelo_inurba_marseille","lat":43.273609,"lon":5.362708,"is_reserved":false,"is_disabled":false,"rental_uris":{"android":"levelo://app?vid=f763e54d-5215-4eb1-9294-2cf58722503f","ios":"levelo://app?vid=f763e54d-5215-4eb1-9294-2cf58722503f"},"vehicle_type_id":"4","last_reported":1702328808,"current_range_meters":18800,"station_id":"ce4bhbh2rcd13ifvqeo0","pricing_plan_id":"free"},{"bike_id":"1b2a1c4d-b89b-4b63-adda-6e0455bb8429","system_id":"levelo_inurba_marseille","lat":43.275625,"lon":5.384392,"is_reserved":false,"is_disabled":false,"rental_uris":{"android":"levelo://app?vid=1b2a1c4d-b89b-4b63-adda-6e0455bb8429","ios":"levelo://app?vid=1b2a1c4d-b89b-4b63-adda-6e0455bb8429"},"vehicle_type_id":"4","last_reported":1702328808,"current_range_meters":21600,"station_id":"ce4bhh92rcd13ifvqfi0","pricing_plan_id":"free"},{"bike_id":"ca7111fb-a3c3-40d7-92fe-2cf4b75945f4","system_id":"levelo_inurba_marseille","lat":43.33604,"lon":5.4103,"is_reserved":false,"is_disabled":false,"rental_uris":{"android":"levelo://app?vid=ca7111fb-a3c3-40d7-92fe-2cf4b75945f4","ios":"levelo://app?vid=ca7111fb-a3c3-40d7-92fe-2cf4b75945f4"},"vehicle_type_id":"4","last_reported":1702328808,"current_range_meters":21200,"station_id":"ce4bhqh2rcd13ifvqhmg","pricing_plan_id":"free"},{"bike_id":"b1c028eb-0fe1-4afa-b35c-b9783a0e9537","system_id":"levelo_inurba_marseille","lat":43.31723,"lon":5.42405,"is_reserved":false,"is_disabled":false,"rental_uris":{"android":"levelo://app?vid=b1c028eb-0fe1-4afa-b35c-b9783a0e9537","ios":"levelo://app?vid=b1c028eb-0fe1-4afa-b35c-b9783a0e9537"},"vehicle_type_id":"4","last_reported":1702328808,"current_range_meters":8400,"station_id":"ce4bhp92rcd13ifvqhbg","pricing_plan_id":"free"},{"bike_id":"60028bd0-d6d1-4701-b5c6-9f4db0fb3489","system_id":"levelo_inurba_marseille","lat":43.340804,"lon":5.410219,"is_reserved":false,"is_disabled":false,"rental_uris":{"android":"levelo://app?vid=60028bd0-d6d1-4701-b5c6-9f4db0fb3489","ios":"levelo://app?vid=60028bd0-d6d1-4701-b5c6-9f4db0fb3489"},"vehicle_type_id":"4","last_reported":1702328808,"current_range_meters":30800,"station_id":"ce4bhqh2rcd13ifvqhlg","pricing_plan_id":"free"},{"bike_id":"1f0b3618-5ff8-4a2b-ae6a-f72e37062b6b","system_id":"levelo_inurba_marseille","lat":43.272118,"lon":5.391758,"is_reserved":false,"is_disabled":false,"rental_uris":{"android":"levelo://app?vid=1f0b3618-5ff8-4a2b-ae6a-f72e37062b6b","ios":"levelo://app?vid=1f0b3618-5ff8-4a2b-ae6a-f72e37062b6b"},"vehicle_type_id":"4","last_reported":1702328808,"current_range_meters":28800,"station_id":"ce4bhhp2rcd13ifvqfm0","pricing_plan_id":"free"},{"bike_id":"114ed9a0-f405-4e5a-8abc-a36515ad57b3","system_id":"levelo_inurba_marseille","lat":43.27214,"lon":5.392333,"is_reserved":false,"is_disabled":false,"rental_uris":{"android":"levelo://app?vid=114ed9a0-f405-4e5a-8abc-a36515ad57b3","ios":"levelo://app?vid=114ed9a0-f405-4e5a-8abc-a36515ad57b3"},"vehicle_type_id":"4","last_reported":1702328808,"current_range_meters":22400,"station_id":"ce4bhhp2rcd13ifvqfm0","pricing_plan_id":"free"},{"bike_id":"182f3f4a-f110-4521-b014-2fdf07d66152","system_id":"levelo_inurba_marseille","lat":43.27007,"lon":5.38781,"is_reserved":false,"is_disabled":false,"rental_uris":{"android":"levelo://app?vid=182f3f4a-f110-4521-b014-2fdf07d66152","ios":"levelo://app?vid=182f3f4a-f110-4521-b014-2fdf07d66152"},"vehicle_type_id":"4","last_reported":1702328808,"current_range_meters":0,"station_id":"","pricing_plan_id":"free"},{"bike_id":"629197af-30a4-4732-afe0-3c712ab8a4ce","system_id":"levelo_inurba_marseille","lat":43.279465,"lon":5.410561,"is_reserved":false,"is_disabled":false,"rental_uris":{"android":"levelo://app?vid=629197af-30a4-4732-afe0-3c712ab8a4ce","ios":"levelo://app?vid=629197af-30a4-4732-afe0-3c712ab8a4ce"},"vehicle_type_id":"4","last_reported":1702328808,"current_range_meters":28000,"station_id":"ce4bhnp2rcd13ifvqh0g","pricing_plan_id":"free"},{"bike_id":"048a7c17-97c6-4e8b-b365-1d7721c101c5","system_id":"levelo_inurba_marseille","lat":43.27942,"lon":5.41042,"is_reserved":false,"is_disabled":false,"rental_uris":{"android":"levelo://app?vid=048a7c17-97c6-4e8b-b365-1d7721c101c5","ios":"levelo://app?vid=048a7c17-97c6-4e8b-b365-1d7721c101c5"},"vehicle_type_id":"4","last_reported":1702328808,"current_range_meters":8000,"station_id":"ce4bhnp2rcd13ifvqh0g","pricing_plan_id":"free"},{"bike_id":"e355444f-467d-4d19-965f-416ab15b4237","system_id":"levelo_inurba_marseille","lat":43.279465,"lon":5.410561,"is_reserved":false,"is_disabled":false,"rental_uris":{"android":"levelo://app?vid=e355444f-467d-4d19-965f-416ab15b4237","ios":"levelo://app?vid=e355444f-467d-4d19-965f-416ab15b4237"},"vehicle_type_id":"4","last_reported":1702328808,"current_range_meters":21200,"station_id":"ce4bhnp2rcd13ifvqh0g","pricing_plan_id":"free"},{"bike_id":"64c254e3-1eb7-45bb-ab29-bffd8d469e6f","system_id":"levelo_inurba_marseille","lat":43.26788,"lon":5.3838,"is_reserved":false,"is_disabled":false,"rental_uris":{"android":"levelo://app?vid=64c254e3-1eb7-45bb-ab29-bffd8d469e6f","ios":"levelo://app?vid=64c254e3-1eb7-45bb-ab29-bffd8d469e6f"},"vehicle_type_id":"4","last_reported":1702328808,"current_range_meters":0,"station_id":"ce4bgj92rcd13ifvqbe0","pricing_plan_id":"free"},{"bike_id":"afbe6453-4082-4cc7-a9ed-7f96e9609a56","system_id":"levelo_inurba_marseille","lat":43.26682,"lon":5.38264,"is_reserved":false,"is_disabled":false,"rental_uris":{"android":"levelo://app?vid=afbe6453-4082-4cc7-a9ed-7f96e9609a56","ios":"levelo://app?vid=afbe6453-4082-4cc7-a9ed-7f96e9609a56"},"vehicle_type_id":"4","last_reported":1702328808,"current_range_meters":29600,"station_id":"ce4bhg92rcd13ifvqf90","pricing_plan_id":"free"},{"bike_id":"9bfd9e54-bdc8-431d-bab4-0552138121eb","system_id":"levelo_inurba_marseille","lat":43.26681,"lon":5.382694,"is_reserved":false,"is_disabled":false,"rental_uris":{"android":"levelo://app?vid=9bfd9e54-bdc8-431d-bab4-0552138121eb","ios":"levelo://app?vid=9bfd9e54-bdc8-431d-bab4-0552138121eb"},"vehicle_type_id":"4","last_reported":1702328808,"current_range_meters":30000,"station_id":"ce4bhg92rcd13ifvqf90","pricing_plan_id":"free"},{"bike_id":"fa2c8774-c50e-4ee1-b2f0-6158142ea9f6","system_id":"levelo_inurba_marseille","lat":43.2668,"lon":5.38262,"is_reserved":false,"is_disabled":false,"rental_uris":{"android":"levelo://app?vid=fa2c8774-c50e-4ee1-b2f0-6158142ea9f6","ios":"levelo://app?vid=fa2c8774-c50e-4ee1-b2f0-6158142ea9f6"},"vehicle_type_id":"4","last_reported":1702328808,"current_range_meters":26800,"station_id":"ce4bhg92rcd13ifvqf90","pricing_plan_id":"free"},{"bike_id":"3fb17cfe-e4df-4372-b00d-57dd717cf360","system_id":"levelo_inurba_marseille","lat":43.26681,"lon":5.382694,"is_reserved":false,"is_disabled":false,"rental_uris":{"android":"levelo://app?vid=3fb17cfe-e4df-4372-b00d-57dd717cf360","ios":"levelo://app?vid=3fb17cfe-e4df-4372-b00d-57dd717cf360"},"vehicle_type_id":"4","last_reported":1702328808,"current_range_meters":21200,"station_id":"ce4bhg92rcd13ifvqf90","pricing_plan_id":"free"},{"bike_id":"423e3098-a5a2-498b-9c3c-4341c381f5e8","system_id":"levelo_inurba_marseille","lat":43.26681,"lon":5.382694,"is_reserved":false,"is_disabled":false,"rental_uris":{"android":"levelo://app?vid=423e3098-a5a2-498b-9c3c-4341c381f5e8","ios":"levelo://app?vid=423e3098-a5a2-498b-9c3c-4341c381f5e8"},"vehicle_type_id":"4","last_reported":1702328808,"current_range_meters":26800,"station_id":"ce4bhg92rcd13ifvqf90","pricing_plan_id":"free"},{"bike_id":"95e85086-94f3-4d5d-828b-e5f9ce0e68b6","system_id":"levelo_inurba_marseille","lat":43.26681,"lon":5.382694,"is_reserved":false,"is_disabled":false,"rental_uris":{"android":"levelo://app?vid=95e85086-94f3-4d5d-828b-e5f9ce0e68b6","ios":"levelo://app?vid=95e85086-94f3-4d5d-828b-e5f9ce0e68b6"},"vehicle_type_id":"4","last_reported":1702328808,"current_range_meters":28400,"station_id":"ce4bhg92rcd13ifvqf90","pricing_plan_id":"free"},{"bike_id":"618ab94a-31d3-49d5-8238-c36f733e2f97","system_id":"levelo_inurba_marseille","lat":43.26677,"lon":5.38264,"is_reserved":false,"is_disabled":false,"rental_uris":{"android":"levelo://app?vid=618ab94a-31d3-49d5-8238-c36f733e2f97","ios":"levelo://app?vid=618ab94a-31d3-49d5-8238-c36f733e2f97"},"vehicle_type_id":"4","last_reported":1702328808,"current_range_meters":26000,"station_id":"ce4bhg92rcd13ifvqf90","pricing_plan_id":"free"},{"bike_id":"414d7b4a-a3e9-448e-903a-d08acf242b2b","system_id":"levelo_inurba_marseille","lat":43.26681,"lon":5.382694,"is_reserved":false,"is_disabled":false,"rental_uris":{"android":"levelo://app?vid=414d7b4a-a3e9-448e-903a-d08acf242b2b","ios":"levelo://app?vid=414d7b4a-a3e9-448e-903a-d08acf242b2b"},"vehicle_type_id":"4","last_reported":1702328808,"current_range_meters":29600,"station_id":"ce4bhg92rcd13ifvqf90","pricing_plan_id":"free"},{"bike_id":"ec5ef604-2048-4751-b1a1-3a6f0586d1d7","system_id":"levelo_inurba_marseille","lat":43.27996,"lon":5.416624,"is_reserved":false,"is_disabled":false,"rental_uris":{"android":"levelo://app?vid=ec5ef604-2048-4751-b1a1-3a6f0586d1d7","ios":"levelo://app?vid=ec5ef604-2048-4751-b1a1-3a6f0586d1d7"},"vehicle_type_id":"4","last_reported":1702328808,"current_range_meters":20800,"station_id":"ce4bho12rcd13ifvqh1g","pricing_plan_id":"free"},{"bike_id":"774d8826-9b6b-4e36-beab-8a13dfa9a69a","system_id":"levelo_inurba_marseille","lat":43.27996,"lon":5.416624,"is_reserved":false,"is_disabled":false,"rental_uris":{"android":"levelo://app?vid=774d8826-9b6b-4e36-beab-8a13dfa9a69a","ios":"levelo://app?vid=774d8826-9b6b-4e36-beab-8a13dfa9a69a"},"vehicle_type_id":"4","last_reported":1702328808,"current_range_meters":22800,"station_id":"ce4bho12rcd13ifvqh1g","pricing_plan_id":"free"},{"bike_id":"840aec13-8498-4f2b-8523-8aeb9c546d40","system_id":"levelo_inurba_marseille","lat":43.265764,"lon":5.390303,"is_reserved":false,"is_disabled":false,"rental_uris":{"android":"levelo://app?vid=840aec13-8498-4f2b-8523-8aeb9c546d40","ios":"levelo://app?vid=840aec13-8498-4f2b-8523-8aeb9c546d40"},"vehicle_type_id":"4","last_reported":1702328808,"current_range_meters":27200,"station_id":"ce4bhe12rcd13ifvqf30","pricing_plan_id":"free"},{"bike_id":"a4c2e866-1ad6-4353-a4f2-cb755e151f55","system_id":"levelo_inurba_marseille","lat":43.26324,"lon":5.37682,"is_reserved":false,"is_disabled":false,"rental_uris":{"android":"levelo://app?vid=a4c2e866-1ad6-4353-a4f2-cb755e151f55","ios":"levelo://app?vid=a4c2e866-1ad6-4353-a4f2-cb755e151f55"},"vehicle_type_id":"4","last_reported":1702328808,"current_range_meters":13200,"station_id":"","pricing_plan_id":"free"},{"bike_id":"daa35769-32ed-4c6f-8d37-d59a59c98d0b","system_id":"levelo_inurba_marseille","lat":43.258224,"lon":5.394369,"is_reserved":false,"is_disabled":false,"rental_uris":{"android":"levelo://app?vid=daa35769-32ed-4c6f-8d37-d59a59c98d0b","ios":"levelo://app?vid=daa35769-32ed-4c6f-8d37-d59a59c98d0b"},"vehicle_type_id":"4","last_reported":1702328808,"current_range_meters":18400,"station_id":"ce4bhip2rcd13ifvqft0","pricing_plan_id":"free"},{"bike_id":"764dc7e7-ba42-4269-8e92-f6f717a49cea","system_id":"levelo_inurba_marseille","lat":43.26562,"lon":5.3903,"is_reserved":false,"is_disabled":false,"rental_uris":{"android":"levelo://app?vid=764dc7e7-ba42-4269-8e92-f6f717a49cea","ios":"levelo://app?vid=764dc7e7-ba42-4269-8e92-f6f717a49cea"},"vehicle_type_id":"4","last_reported":1702328808,"current_range_meters":25200,"station_id":"ce4bhe12rcd13ifvqf30","pricing_plan_id":"free"},{"bike_id":"125bbb66-0893-4755-a855-7f9b0549781d","system_id":"levelo_inurba_marseille","lat":43.26949,"lon":5.40262,"is_reserved":false,"is_disabled":false,"rental_uris":{"android":"levelo://app?vid=125bbb66-0893-4755-a855-7f9b0549781d","ios":"levelo://app?vid=125bbb66-0893-4755-a855-7f9b0549781d"},"vehicle_type_id":"4","last_reported":1702328808,"current_range_meters":0,"station_id":"cjm6bp8fraef2m0cb0m0","pricing_plan_id":"free"},{"bike_id":"64217bd9-d7bb-46ce-b5a2-983e361e1b85","system_id":"levelo_inurba_marseille","lat":43.26949,"lon":5.40262,"is_reserved":false,"is_disabled":false,"rental_uris":{"android":"levelo://app?vid=64217bd9-d7bb-46ce-b5a2-983e361e1b85","ios":"levelo://app?vid=64217bd9-d7bb-46ce-b5a2-983e361e1b85"},"vehicle_type_id":"4","last_reported":1702328808,"current_range_meters":0,"station_id":"cjm6bp8fraef2m0cb0m0","pricing_plan_id":"free"},{"bike_id":"cdd036f6-7ea5-4424-b6f3-3af93ebb2fa0","system_id":"levelo_inurba_marseille","lat":43.317104,"lon":5.436818,"is_reserved":false,"is_disabled":false,"rental_uris":{"android":"levelo://app?vid=cdd036f6-7ea5-4424-b6f3-3af93ebb2fa0","ios":"levelo://app?vid=cdd036f6-7ea5-4424-b6f3-3af93ebb2fa0"},"vehicle_type_id":"4","last_reported":1702328808,"current_range_meters":31600,"station_id":"ce4bhp92rcd13ifvqhcg","pricing_plan_id":"free"},{"bike_id":"4ee2ebe4-ccab-47af-b669-1b687cc9fb82","system_id":"levelo_inurba_marseille","lat":43.317104,"lon":5.436818,"is_reserved":false,"is_disabled":false,"rental_uris":{"android":"levelo://app?vid=4ee2ebe4-ccab-47af-b669-1b687cc9fb82","ios":"levelo://app?vid=4ee2ebe4-ccab-47af-b669-1b687cc9fb82"},"vehicle_type_id":"4","last_reported":1702328808,"current_range_meters":28000,"station_id":"ce4bhp92rcd13ifvqhcg","pricing_plan_id":"free"},{"bike_id":"26028b8b-2fb7-4fce-9011-67b90fcace31","system_id":"levelo_inurba_marseille","lat":43.317104,"lon":5.436818,"is_reserved":false,"is_disabled":false,"rental_uris":{"android":"levelo://app?vid=26028b8b-2fb7-4fce-9011-67b90fcace31","ios":"levelo://app?vid=26028b8b-2fb7-4fce-9011-67b90fcace31"},"vehicle_type_id":"4","last_reported":1702328808,"current_range_meters":25600,"station_id":"ce4bhp92rcd13ifvqhcg","pricing_plan_id":"free"},{"bike_id":"37645cb8-5c24-41ba-b0d3-f9e32e3bff51","system_id":"levelo_inurba_marseille","lat":43.317104,"lon":5.436818,"is_reserved":false,"is_disabled":false,"rental_uris":{"android":"levelo://app?vid=37645cb8-5c24-41ba-b0d3-f9e32e3bff51","ios":"levelo://app?vid=37645cb8-5c24-41ba-b0d3-f9e32e3bff51"},"vehicle_type_id":"4","last_reported":1702328808,"current_range_meters":31600,"station_id":"ce4bhp92rcd13ifvqhcg","pricing_plan_id":"free"},{"bike_id":"1acf6805-7adc-4d3c-b52b-7b0895430b1f","system_id":"levelo_inurba_marseille","lat":43.26202,"lon":5.379299,"is_reserved":false,"is_disabled":false,"rental_uris":{"android":"levelo://app?vid=1acf6805-7adc-4d3c-b52b-7b0895430b1f","ios":"levelo://app?vid=1acf6805-7adc-4d3c-b52b-7b0895430b1f"},"vehicle_type_id":"4","last_reported":1702328808,"current_range_meters":19200,"station_id":"ce4bhjp2rcd13ifvqg90","pricing_plan_id":"free"},{"bike_id":"7ef0e874-4d14-4db6-97d3-23537a85b219","system_id":"levelo_inurba_marseille","lat":43.298768,"lon":5.43643,"is_reserved":false,"is_disabled":false,"rental_uris":{"android":"levelo://app?vid=7ef0e874-4d14-4db6-97d3-23537a85b219","ios":"levelo://app?vid=7ef0e874-4d14-4db6-97d3-23537a85b219"},"vehicle_type_id":"4","last_reported":1702328808,"current_range_meters":27600,"station_id":"ce4bhpp2rcd13ifvqhfg","pricing_plan_id":"free"},{"bike_id":"76f5d4f7-566f-4804-8d22-4bd4e19e3b11","system_id":"levelo_inurba_marseille","lat":43.281548,"lon":5.42643,"is_reserved":false,"is_disabled":false,"rental_uris":{"android":"levelo://app?vid=76f5d4f7-566f-4804-8d22-4bd4e19e3b11","ios":"levelo://app?vid=76f5d4f7-566f-4804-8d22-4bd4e19e3b11"},"vehicle_type_id":"4","last_reported":1702328808,"current_range_meters":14800,"station_id":"ce4bhnh2rcd13ifvqgug","pricing_plan_id":"free"},{"bike_id":"180bf347-93f7-4d14-a727-4021a2dbeb7d","system_id":"levelo_inurba_marseille","lat":43.281405,"lon":5.429968,"is_reserved":false,"is_disabled":false,"rental_uris":{"android":"levelo://app?vid=180bf347-93f7-4d14-a727-4021a2dbeb7d","ios":"levelo://app?vid=180bf347-93f7-4d14-a727-4021a2dbeb7d"},"vehicle_type_id":"4","last_reported":1702328808,"current_range_meters":13600,"station_id":"","pricing_plan_id":"free"},{"bike_id":"c69e248f-55ea-43b6-83c0-a315646c9e8d","system_id":"levelo_inurba_marseille","lat":43.275028,"lon":5.424534,"is_reserved":false,"is_disabled":false,"rental_uris":{"android":"levelo://app?vid=c69e248f-55ea-43b6-83c0-a315646c9e8d","ios":"levelo://app?vid=c69e248f-55ea-43b6-83c0-a315646c9e8d"},"vehicle_type_id":"4","last_reported":1702328808,"current_range_meters":24000,"station_id":"ce4bhn92rcd13ifvqgrg","pricing_plan_id":"free"},{"bike_id":"2904fadb-7bd9-4958-ab41-36e416d618b9","system_id":"levelo_inurba_marseille","lat":43.275028,"lon":5.424534,"is_reserved":false,"is_disabled":false,"rental_uris":{"android":"levelo://app?vid=2904fadb-7bd9-4958-ab41-36e416d618b9","ios":"levelo://app?vid=2904fadb-7bd9-4958-ab41-36e416d618b9"},"vehicle_type_id":"4","last_reported":1702328808,"current_range_meters":28400,"station_id":"ce4bhn92rcd13ifvqgrg","pricing_plan_id":"free"},{"bike_id":"1712de95-15ed-4ac9-ba08-c9df74e3447a","system_id":"levelo_inurba_marseille","lat":43.270721,"lon":5.422764,"is_reserved":false,"is_disabled":false,"rental_uris":{"android":"levelo://app?vid=1712de95-15ed-4ac9-ba08-c9df74e3447a","ios":"levelo://app?vid=1712de95-15ed-4ac9-ba08-c9df74e3447a"},"vehicle_type_id":"4","last_reported":1702328808,"current_range_meters":18800,"station_id":"ce4bhk92rcd13ifvqgb0","pricing_plan_id":"free"},{"bike_id":"cd1904e5-3f41-4572-8872-cc23fca0c4f1","system_id":"levelo_inurba_marseille","lat":43.270721,"lon":5.422764,"is_reserved":false,"is_disabled":false,"rental_uris":{"android":"levelo://app?vid=cd1904e5-3f41-4572-8872-cc23fca0c4f1","ios":"levelo://app?vid=cd1904e5-3f41-4572-8872-cc23fca0c4f1"},"vehicle_type_id":"4","last_reported":1702328808,"current_range_meters":6800,"station_id":"ce4bhk92rcd13ifvqgb0","pricing_plan_id":"free"},{"bike_id":"463668ea-b294-4421-824a-c4df85b1e87b","system_id":"levelo_inurba_marseille","lat":43.27069,"lon":5.42275,"is_reserved":false,"is_disabled":false,"rental_uris":{"android":"levelo://app?vid=463668ea-b294-4421-824a-c4df85b1e87b","ios":"levelo://app?vid=463668ea-b294-4421-824a-c4df85b1e87b"},"vehicle_type_id":"4","last_reported":1702328808,"current_range_meters":16400,"station_id":"ce4bhk92rcd13ifvqgb0","pricing_plan_id":"free"},{"bike_id":"dbe15c5d-b24c-4e34-b226-7e36e4a48210","system_id":"levelo_inurba_marseille","lat":43.270721,"lon":5.422764,"is_reserved":false,"is_disabled":false,"rental_uris":{"android":"levelo://app?vid=dbe15c5d-b24c-4e34-b226-7e36e4a48210","ios":"levelo://app?vid=dbe15c5d-b24c-4e34-b226-7e36e4a48210"},"vehicle_type_id":"4","last_reported":1702328808,"current_range_meters":13600,"station_id":"ce4bhk92rcd13ifvqgb0","pricing_plan_id":"free"},{"bike_id":"9b2baf69-de06-4dfb-87a5-841684583b4f","system_id":"levelo_inurba_marseille","lat":43.258658,"lon":5.398935,"is_reserved":false,"is_disabled":false,"rental_uris":{"android":"levelo://app?vid=9b2baf69-de06-4dfb-87a5-841684583b4f","ios":"levelo://app?vid=9b2baf69-de06-4dfb-87a5-841684583b4f"},"vehicle_type_id":"4","last_reported":1702328808,"current_range_meters":31200,"station_id":"ce4bhl92rcd13ifvqghg","pricing_plan_id":"free"},{"bike_id":"b602f322-0334-4764-bdd2-bcf5cb60c686","system_id":"levelo_inurba_marseille","lat":43.258658,"lon":5.398935,"is_reserved":false,"is_disabled":false,"rental_uris":{"android":"levelo://app?vid=b602f322-0334-4764-bdd2-bcf5cb60c686","ios":"levelo://app?vid=b602f322-0334-4764-bdd2-bcf5cb60c686"},"vehicle_type_id":"4","last_reported":1702328808,"current_range_meters":21200,"station_id":"ce4bhl92rcd13ifvqghg","pricing_plan_id":"free"},{"bike_id":"8bfba5f0-6d02-4058-854b-b88f3097ad8f","system_id":"levelo_inurba_marseille","lat":43.25709,"lon":5.41124,"is_reserved":false,"is_disabled":false,"rental_uris":{"android":"levelo://app?vid=8bfba5f0-6d02-4058-854b-b88f3097ad8f","ios":"levelo://app?vid=8bfba5f0-6d02-4058-854b-b88f3097ad8f"},"vehicle_type_id":"4","last_reported":1702328808,"current_range_meters":8400,"station_id":"ce4bhkp2rcd13ifvqgd0","pricing_plan_id":"free"},{"bike_id":"2814f471-c9c3-4376-bd65-113afd3172d1","system_id":"levelo_inurba_marseille","lat":43.250009,"lon":5.389195,"is_reserved":false,"is_disabled":false,"rental_uris":{"android":"levelo://app?vid=2814f471-c9c3-4376-bd65-113afd3172d1","ios":"levelo://app?vid=2814f471-c9c3-4376-bd65-113afd3172d1"},"vehicle_type_id":"4","last_reported":1702328808,"current_range_meters":22000,"station_id":"ce4bhgp2rcd13ifvqfd0","pricing_plan_id":"free"},{"bike_id":"60519587-26ad-4271-80bc-227873020e2a","system_id":"levelo_inurba_marseille","lat":43.250023,"lon":5.38919,"is_reserved":false,"is_disabled":false,"rental_uris":{"android":"levelo://app?vid=60519587-26ad-4271-80bc-227873020e2a","ios":"levelo://app?vid=60519587-26ad-4271-80bc-227873020e2a"},"vehicle_type_id":"4","last_reported":1702328808,"current_range_meters":1200,"station_id":"ce4bhgp2rcd13ifvqfd0","pricing_plan_id":"free"},{"bike_id":"c2de21a3-e1d4-4403-aaa9-34ec43030e67","system_id":"levelo_inurba_marseille","lat":43.250023,"lon":5.38919,"is_reserved":false,"is_disabled":false,"rental_uris":{"android":"levelo://app?vid=c2de21a3-e1d4-4403-aaa9-34ec43030e67","ios":"levelo://app?vid=c2de21a3-e1d4-4403-aaa9-34ec43030e67"},"vehicle_type_id":"4","last_reported":1702328808,"current_range_meters":8000,"station_id":"ce4bhgp2rcd13ifvqfd0","pricing_plan_id":"free"},{"bike_id":"37e51589-67ce-4b1d-8716-4e1b2110a4be","system_id":"levelo_inurba_marseille","lat":43.2479,"lon":5.374457,"is_reserved":false,"is_disabled":false,"rental_uris":{"android":"levelo://app?vid=37e51589-67ce-4b1d-8716-4e1b2110a4be","ios":"levelo://app?vid=37e51589-67ce-4b1d-8716-4e1b2110a4be"},"vehicle_type_id":"4","last_reported":1702328808,"current_range_meters":19600,"station_id":"ce4bhgh2rcd13ifvqfb0","pricing_plan_id":"free"},{"bike_id":"35c3f807-24e7-4171-8112-6d272f635dd8","system_id":"levelo_inurba_marseille","lat":43.250966,"lon":5.395186,"is_reserved":false,"is_disabled":false,"rental_uris":{"android":"levelo://app?vid=35c3f807-24e7-4171-8112-6d272f635dd8","ios":"levelo://app?vid=35c3f807-24e7-4171-8112-6d272f635dd8"},"vehicle_type_id":"4","last_reported":1702328808,"current_range_meters":18000,"station_id":"ce4bhm12rcd13ifvqgkg","pricing_plan_id":"free"},{"bike_id":"69fc94e6-d1dc-4eac-bba9-0be2d0c272a6","system_id":"levelo_inurba_marseille","lat":43.24693,"lon":5.382096,"is_reserved":false,"is_disabled":false,"rental_uris":{"android":"levelo://app?vid=69fc94e6-d1dc-4eac-bba9-0be2d0c272a6","ios":"levelo://app?vid=69fc94e6-d1dc-4eac-bba9-0be2d0c272a6"},"vehicle_type_id":"4","last_reported":1702328808,"current_range_meters":31600,"station_id":"ce4bhih2rcd13ifvqfr0","pricing_plan_id":"free"},{"bike_id":"0f7fd2ef-e6a4-4938-875f-ee0fc362106e","system_id":"levelo_inurba_marseille","lat":43.24693,"lon":5.382096,"is_reserved":false,"is_disabled":false,"rental_uris":{"android":"levelo://app?vid=0f7fd2ef-e6a4-4938-875f-ee0fc362106e","ios":"levelo://app?vid=0f7fd2ef-e6a4-4938-875f-ee0fc362106e"},"vehicle_type_id":"4","last_reported":1702328808,"current_range_meters":26000,"station_id":"ce4bhih2rcd13ifvqfr0","pricing_plan_id":"free"},{"bike_id":"fb6f1718-29f6-420f-b0f1-d655cd3993dd","system_id":"levelo_inurba_marseille","lat":43.25102,"lon":5.403214,"is_reserved":false,"is_disabled":false,"rental_uris":{"android":"levelo://app?vid=fb6f1718-29f6-420f-b0f1-d655cd3993dd","ios":"levelo://app?vid=fb6f1718-29f6-420f-b0f1-d655cd3993dd"},"vehicle_type_id":"4","last_reported":1702328808,"current_range_meters":4400,"station_id":"ce4bhlh2rcd13ifvqgig","pricing_plan_id":"free"},{"bike_id":"846961d7-979a-4ad3-956d-a81bed603614","system_id":"levelo_inurba_marseille","lat":43.246406,"lon":5.396581,"is_reserved":false,"is_disabled":false,"rental_uris":{"android":"levelo://app?vid=846961d7-979a-4ad3-956d-a81bed603614","ios":"levelo://app?vid=846961d7-979a-4ad3-956d-a81bed603614"},"vehicle_type_id":"4","last_reported":1702328808,"current_range_meters":800,"station_id":"","pricing_plan_id":"free"},{"bike_id":"d4d19d3c-b26b-4e6d-a71b-570ff31270a7","system_id":"levelo_inurba_marseille","lat":43.245581,"lon":5.395069,"is_reserved":false,"is_disabled":false,"rental_uris":{"android":"levelo://app?vid=d4d19d3c-b26b-4e6d-a71b-570ff31270a7","ios":"levelo://app?vid=d4d19d3c-b26b-4e6d-a71b-570ff31270a7"},"vehicle_type_id":"4","last_reported":1702328808,"current_range_meters":31200,"station_id":"ce4bhlp2rcd13ifvqgjg","pricing_plan_id":"free"},{"bike_id":"8adc57dc-5f99-4b7f-82a8-97089dc07b4b","system_id":"levelo_inurba_marseille","lat":43.240623,"lon":5.377642,"is_reserved":false,"is_disabled":false,"rental_uris":{"android":"levelo://app?vid=8adc57dc-5f99-4b7f-82a8-97089dc07b4b","ios":"levelo://app?vid=8adc57dc-5f99-4b7f-82a8-97089dc07b4b"},"vehicle_type_id":"4","last_reported":1702328808,"current_range_meters":10000,"station_id":"ce4bhnp2rcd13ifvqgvg","pricing_plan_id":"free"},{"bike_id":"984e492e-ea29-44d0-ac4a-68b29c99801f","system_id":"levelo_inurba_marseille","lat":43.239588,"lon":5.366238,"is_reserved":false,"is_disabled":false,"rental_uris":{"android":"levelo://app?vid=984e492e-ea29-44d0-ac4a-68b29c99801f","ios":"levelo://app?vid=984e492e-ea29-44d0-ac4a-68b29c99801f"},"vehicle_type_id":"4","last_reported":1702328808,"current_range_meters":23600,"station_id":"ce4bhi12rcd13ifvqfp0","pricing_plan_id":"free"},{"bike_id":"65a732be-a23e-4899-8cd3-be07a2e68d78","system_id":"levelo_inurba_marseille","lat":43.231793,"lon":5.400044,"is_reserved":false,"is_disabled":false,"rental_uris":{"android":"levelo://app?vid=65a732be-a23e-4899-8cd3-be07a2e68d78","ios":"levelo://app?vid=65a732be-a23e-4899-8cd3-be07a2e68d78"},"vehicle_type_id":"4","last_reported":1702328808,"current_range_meters":28400,"station_id":"ce4bhn12rcd13ifvqgqg","pricing_plan_id":"free"},{"bike_id":"d4216b28-6573-4e3c-9c6e-b1f827f4d9da","system_id":"levelo_inurba_marseille","lat":43.231794,"lon":5.400052,"is_reserved":false,"is_disabled":false,"rental_uris":{"android":"levelo://app?vid=d4216b28-6573-4e3c-9c6e-b1f827f4d9da","ios":"levelo://app?vid=d4216b28-6573-4e3c-9c6e-b1f827f4d9da"},"vehicle_type_id":"4","last_reported":1702328808,"current_range_meters":29600,"station_id":"ce4bhn12rcd13ifvqgqg","pricing_plan_id":"free"},{"bike_id":"baec5ab2-8c78-4d0a-9686-1f92b4ce0853","system_id":"levelo_inurba_marseille","lat":43.231794,"lon":5.400052,"is_reserved":false,"is_disabled":false,"rental_uris":{"android":"levelo://app?vid=baec5ab2-8c78-4d0a-9686-1f92b4ce0853","ios":"levelo://app?vid=baec5ab2-8c78-4d0a-9686-1f92b4ce0853"},"vehicle_type_id":"4","last_reported":1702328808,"current_range_meters":9200,"station_id":"ce4bhn12rcd13ifvqgqg","pricing_plan_id":"free"},{"bike_id":"e1137782-3e3d-499c-a61d-e2c68dc9df2e","system_id":"levelo_inurba_marseille","lat":43.231794,"lon":5.400052,"is_reserved":false,"is_disabled":false,"rental_uris":{"android":"levelo://app?vid=e1137782-3e3d-499c-a61d-e2c68dc9df2e","ios":"levelo://app?vid=e1137782-3e3d-499c-a61d-e2c68dc9df2e"},"vehicle_type_id":"4","last_reported":1702328808,"current_range_meters":24800,"station_id":"ce4bhn12rcd13ifvqgqg","pricing_plan_id":"free"},{"bike_id":"fe1c62d5-b8f6-41e6-a698-0df3bdc6e8ea","system_id":"levelo_inurba_marseille","lat":43.231562,"lon":5.436933,"is_reserved":false,"is_disabled":false,"rental_uris":{"android":"levelo://app?vid=fe1c62d5-b8f6-41e6-a698-0df3bdc6e8ea","ios":"levelo://app?vid=fe1c62d5-b8f6-41e6-a698-0df3bdc6e8ea"},"vehicle_type_id":"4","last_reported":1702328808,"current_range_meters":17600,"station_id":"ce4bhmp2rcd13ifvqgog","pricing_plan_id":"free"}]}}