{"last_updated":1708216578,"ttl":30,"version":"2.2","data":{"bikes":[{"bike_id":"cbd26391-6702-413c-9e7c-5ce654c8545d","system_id":"levelo_inurba_marseille","lat":43.31341,"lon":5.367098,"is_reserved":false,"is_disabled":false,"rental_uris":{"android":"levelo://app?vid=cbd26391-6702-413c-9e7c-5ce654c8545d","ios":"levelo://app?vid=cbd26391-6702-413c-9e7c-5ce654c8545d"},"vehicle_type_id":"4","last_reported":1708216578,"current_range_meters":29200,"station_id":"ce4bgr92rcd13ifvqc6g","pricing_plan_id":"cebpf4jnsgd1na2vs0mg"},{"bike_id":"2fc242d5-7adc-4d67-b8b5-979ee24d78bc","system_id":"levelo_inurba_marseille","lat":43.31341,"lon":5.367098,"is_reserved":false,"is_disabled":false,"rental_uris":{"android":"levelo://app?vid=2fc242d5-7adc-4d67-b8b5-979ee24d78bc","ios":"levelo://app?vid=2fc242d5-7adc-4d67-b8b5-979ee24d78bc"},"vehicle_type_id":"4","last_reported":1708216578,"current_range_meters":21200,"station_id":"ce4bgr92rcd13ifvqc6g","pricing_plan_id":"cebpf4jnsgd1na2vs0mg"},{"bike_id":"fb3a2a72-b189-48ec-a4ee-c5c2c8c842c5","system_id":"levelo_inurba_marseille","lat":43.31341,"lon":5.367098,"is_reserved":false,"is_disabled":false,"rental_uris":{"android":"levelo://app?vid=fb3a2a72-b189-48ec-a4ee-c5c2c8c842c5","ios":"levelo://app?vid=fb3a2a72-b189-48ec-a4ee-c5c2c8c842c5"},"vehicle_type_id":"4","last_reported":1708216578,"current_range_meters":30400,"station_id":"ce4bgr92rcd13ifvqc6g","pricing_plan_id":"cebpf4jnsgd1na2vs0mg"},{"bike_id":"4ab58574-8632-4e3f-9bf3-c712b162b900","system_id":"levelo_inurba_marseille","lat":43.312239,"lon":5.368562,"is_reserved":false,"is_disabled":false,"rental_uris":{"android":"levelo://app?vid=4ab58574-8632-4e3f-9bf3-c712b162b900","ios":"levelo://app?vid=4ab58574-8632-4e3f-9bf3-c712b162b900"},"vehicle_type_id":"4","last_reported":1708216578,"current_range_meters":30800,"station_id":"ce4bgl92rcd13ifvqbq0","pricing_plan_id":"cebpf4jnsgd1na2vs0mg"},{"bike_id":"28de15b5-0c21-4143-9e26-a517694ae01f","system_id":"levelo_inurba_marseille","lat":43.30916,"lon":5.36856,"is_reserved":false,"is_disabled":false,"rental_uris":{"android":"levelo://app?vid=28de15b5-0c21-4143-9e26-a517694ae01f","ios":"levelo://app?vid=28de15b5-0c21-4143-9e26-a517694ae01f"},"vehicle_type_id":"4","last_reported":1708216578,"current_range_meters":8800,"station_id":"ce4bgn92rcd13ifvqbvg","pricing_plan_id":"cebpf4jnsgd1na2vs0mg"},{"bike_id":"7b4b2a42-0421-49af-b5b0-6d9380b66497","system_id":"levelo_inurba_marseille","lat":43.314811,"lon":5.373103,"is_reserved":false,"is_disabled":false,"rental_uris":{"android":"levelo://app?vid=7b4b2a42-0421-49af-b5b0-6d9380b66497","ios":"levelo://app?vid=7b4b2a42-0421-49af-b5b0-6d9380b66497"},"vehicle_type_id":"4","last_reported":1708216578,"current_range_meters":12400,"station_id":"ce4bgt12rcd13ifvqcd0","pricing_plan_id":"cebpf4jnsgd1na2vs0mg"},{"bike_id":"39f3aeff-4a4d-44f9-a4bb-1cbcb2634c1b","system_id":"levelo_inurba_marseille","lat":43.314811,"lon":5.373103,"is_reserved":false,"is_disabled":false,"rental_uris":{"android":"levelo://app?vid=39f3aeff-4a4d-44f9-a4bb-1cbcb2634c1b","ios":"levelo://app?vid=39f3aeff-4a4d-44f9-a4bb-1cbcb2634c1b"},"vehicle_type_id":"4","last_reported":1708216578,"current_range_meters":29200,"station_id":"ce4bgt12rcd13ifvqcd0","pricing_plan_id":"cebpf4jnsgd1na2vs0mg"},{"bike_id":"ff59d9af-d22e-44fc-abd7-8d69dca55ac2","system_id":"levelo_inurba_marseille","lat":43.314811,"lon":5.373103,"is_reserved":false,"is_disabled":false,"rental_uris":{"android":"levelo://app?vid=ff59d9af-d22e-44fc-abd7-8d69dca55ac2","ios":"levelo://app?vid=ff59d9af-d22e-44fc-abd7-8d69dca55ac2"},"vehicle_type_id":"4","last_reported":1708216578,"current_range_meters":800,"station_id":"ce4bgt12rcd13ifvqcd0","pricing_plan_id":"cebpf4jnsgd1na2vs0mg"},{"bike_id":"dfff29cf-c672-41f6-8058-b9b6db29cc9c","system_id":"levelo_inurba_marseille","lat":43.314811,"lon":5.373103,"is_reserved":false,"is_disabled":false,"rental_uris":{"android":"levelo://app?vid=dfff29cf-c672-41f6-8058-b9b6db29cc9c","ios":"levelo://app?vid=dfff29cf-c672-41f6-8058-b9b6db29cc9c"},"vehicle_type_id":"4","last_reported":1708216578,"current_range_meters":14000,"station_id":"ce4bgt12rcd13ifvqcd0","pricing_plan_id":"cebpf4jnsgd1na2vs0mg"},{"bike_id":"9d89642d-87cc-467c-8987-97e2fb96367c","system_id":"levelo_inurba_marseille","lat":43.314811,"lon":5.373103,"is_reserved":false,"is_disabled":false,"rental_uris":{"android":"levelo://app?vid=9d89642d-87cc-467c-8987-97e2fb96367c","ios":"levelo://app?vid=9d89642d-87cc-467c-8987-97e2fb96367c"},"vehicle_type_id":"4","last_reported":1708216578,"current_range_meters":24400,"station_id":"ce4bgt12rcd13ifvqcd0","pricing_plan_id":"cebpf4jnsgd1na2vs0mg"},{"bike_id":"98a39b91-2071-4721-a638-8099ddd8e4b1","system_id":"levelo_inurba_marseille","lat":43.314811,"lon":5.373104,"is_reserved":false,"is_disabled":false,"rental_uris":{"android":"levelo://app?vid=98a39b91-2071-4721-a638-8099ddd8e4b1","ios":"levelo://app?vid=98a39b91-2071-4721-a638-8099ddd8e4b1"},"vehicle_type_id":"4","last_reported":1708216578,"current_range_meters":25600,"station_id":"ce4bgt12rcd13ifvqcd0","pricing_plan_id":"cebpf4jnsgd1na2vs0mg"},{"bike_id":"8015cc05-d254-40c9-b7df-695bad8fa8a7","system_id":"levelo_inurba_marseille","lat":43.314811,"lon":5.373103,"is_reserved":false,"is_disabled":false,"rental_uris":{"android":"levelo://app?vid=8015cc05-d254-40c9-b7df-695bad8fa8a7","ios":"levelo://app?vid=8015cc05-d254-40c9-b7df-695bad8fa8a7"},"vehicle_type_id":"4","last_reported":1708216578,"current_range_meters":12400,"station_id":"ce4bgt12rcd13ifvqcd0","pricing_plan_id":"cebpf4jnsgd1na2vs0mg"},{"bike_id":"563c6aab-d09d-4f75-b34f-615737cb5f48","system_id":"levelo_inurba_marseille","lat":43.309039,"lon":5.371797,"is_reserved":false,"is_disabled":false,"rental_uris":{"android":"levelo://app?vid=563c6aab-d09d-4f75-b34f-615737cb5f48","ios":"levelo://app?vid=563c6aab-d09d-4f75-b34f-615737cb5f48"},"vehicle_type_id":"4","last_reported":1708216578,"current_range_meters":11200,"station_id":"ce4bguh2rcd13ifvqckg","pricing_plan_id":"cebpf4jnsgd1na2vs0mg"},{"bike_id":"5d065d07-fa8f-477e-845b-3090890a331f","system_id":"levelo_inurba_marseille","lat":43.309039,"lon":5.371797,"is_reserved":false,"is_disabled":false,"rental_uris":{"android":"levelo://app?vid=5d065d07-fa8f-477e-845b-3090890a331f","ios":"levelo://app?vid=5d065d07-fa8f-477e-845b-3090890a331f"},"vehicle_type_id":"4","last_reported":1708216578,"current_range_meters":25600,"station_id":"ce4bguh2rcd13ifvqckg","pricing_plan_id":"cebpf4jnsgd1na2vs0mg"},{"bike_id":"cb7a5218-10af-4b73-a0f1-31ac009d8731","system_id":"levelo_inurba_marseille","lat":43.309039,"lon":5.371797,"is_reserved":false,"is_disabled":false,"rental_uris":{"android":"levelo://app?vid=cb7a5218-10af-4b73-a0f1-31ac009d8731","ios":"levelo://app?vid=cb7a5218-10af-4b73-a0f1-31ac009d8731"},"vehicle_type_id":"4","last_reported":1708216578,"current_range_meters":29200,"station_id":"ce4bguh2rcd13ifvqckg","pricing_plan_id":"cebpf4jnsgd1na2vs0mg"},{"bike_id":"644443a7-3ef0-454f-b4ab-3b1b2e725411","system_id":"levelo_inurba_marseille","lat":43.309034,"lon":5.371783,"is_reserved":false,"is_disabled":false,"rental_uris":{"android":"levelo://app?vid=644443a7-3ef0-454f-b4ab-3b1b2e725411","ios":"levelo://app?vid=644443a7-3ef0-454f-b4ab-3b1b2e725411"},"vehicle_type_id":"4","last_reported":1708216578,"current_range_meters":25600,"station_id":"ce4bguh2rcd13ifvqckg","pricing_plan_id":"cebpf4jnsgd1na2vs0mg"},{"bike_id":"c425fa1e-129d-4105-bd25-c1f81ae66dae","system_id":"levelo_inurba_marseille","lat":43.309039,"lon":5.371797,"is_reserved":false,"is_disabled":false,"rental_uris":{"android":"levelo://app?vid=c425fa1e-129d-4105-bd25-c1f81ae66dae","ios":"levelo://app?vid=c425fa1e-129d-4105-bd25-c1f81ae66dae"},"vehicle_type_id":"4","last_reported":1708216578,"current_range_meters":12800,"station_id":"ce4bguh2rcd13ifvqckg","pricing_plan_id":"cebpf4jnsgd1na2vs0mg"},{"bike_id":"2dc2d591-7abf-4522-85df-20f335ed7c9b","system_id":"levelo_inurba_marseille","lat":43.311125,"lon":5.377624,"is_reserved":false,"is_disabled":false,"rental_uris":{"android":"levelo://app?vid=2dc2d591-7abf-4522-85df-20f335ed7c9b","ios":"levelo://app?vid=2dc2d591-7abf-4522-85df-20f335ed7c9b"},"vehicle_type_id":"4","last_reported":1708216578,"current_range_meters":27600,"station_id":"ce4bgt92rcd13ifvqcg0","pricing_plan_id":"cebpf4jnsgd1na2vs0mg"},{"bike_id":"a430919c-6b1e-4237-82ca-81ed56dc6de3","system_id":"levelo_inurba_marseille","lat":43.311131,"lon":5.377651,"is_reserved":false,"is_disabled":false,"rental_uris":{"android":"levelo://app?vid=a430919c-6b1e-4237-82ca-81ed56dc6de3","ios":"levelo://app?vid=a430919c-6b1e-4237-82ca-81ed56dc6de3"},"vehicle_type_id":"4","last_reported":1708216578,"current_range_meters":400,"station_id":"ce4bgt92rcd13ifvqcg0","pricing_plan_id":"cebpf4jnsgd1na2vs0mg"},{"bike_id":"954f3f29-d6b5-49ba-bba3-acab1ac5cba9","system_id":"levelo_inurba_marseille","lat":43.311125,"lon":5.377624,"is_reserved":false,"is_disabled":false,"rental_uris":{"android":"levelo://app?vid=954f3f29-d6b5-49ba-bba3-acab1ac5cba9","ios":"levelo://app?vid=954f3f29-d6b5-49ba-bba3-acab1ac5cba9"},"vehicle_type_id":"4","last_reported":1708216578,"current_range_meters":25600,"station_id":"ce4bgt92rcd13ifvqcg0","pricing_plan_id":"cebpf4jnsgd1na2vs0mg"},{"bike_id":"01c41fde-d3fd-44f6-9d5d-98c7b7834aa2","system_id":"levelo_inurba_marseille","lat":43.307945,"lon":5.376487,"is_reserved":false,"is_disabled":false,"rental_uris":{"android":"levelo://app?vid=01c41fde-d3fd-44f6-9d5d-98c7b7834aa2","ios":"levelo://app?vid=01c41fde-d3fd-44f6-9d5d-98c7b7834aa2"},"vehicle_type_id":"4","last_reported":1708216578,"current_range_meters":30000,"station_id":"ce4bgv92rcd13ifvqcq0","pricing_plan_id":"cebpf4jnsgd1na2vs0mg"},{"bike_id":"b6738d1d-afe0-4db7-9d07-f2e3edd9498f","system_id":"levelo_inurba_marseille","lat":43.307945,"lon":5.376487,"is_reserved":false,"is_disabled":false,"rental_uris":{"android":"levelo://app?vid=b6738d1d-afe0-4db7-9d07-f2e3edd9498f","ios":"levelo://app?vid=b6738d1d-afe0-4db7-9d07-f2e3edd9498f"},"vehicle_type_id":"4","last_reported":1708216578,"current_range_meters":5600,"station_id":"ce4bgv92rcd13ifvqcq0","pricing_plan_id":"cebpf4jnsgd1na2vs0mg"},{"bike_id":"b35e82cc-1d9e-49ce-b32b-a301c56f912d","system_id":"levelo_inurba_marseille","lat":43.307945,"lon":5.376487,"is_reserved":false,"is_disabled":false,"rental_uris":{"android":"levelo://app?vid=b35e82cc-1d9e-49ce-b32b-a301c56f912d","ios":"levelo://app?vid=b35e82cc-1d9e-49ce-b32b-a301c56f912d"},"vehicle_type_id":"4","last_reported":1708216578,"current_range_meters":19600,"station_id":"ce4bgv92rcd13ifvqcq0","pricing_plan_id":"cebpf4jnsgd1na2vs0mg"},{"bike_id":"df227984-0952-4c6a-bc20-4385c2304342","system_id":"levelo_inurba_marseille","lat":43.30781,"lon":5.37654,"is_reserved":false,"is_disabled":false,"rental_uris":{"android":"levelo://app?vid=df227984-0952-4c6a-bc20-4385c2304342","ios":"levelo://app?vid=df227984-0952-4c6a-bc20-4385c2304342"},"vehicle_type_id":"4","last_reported":1708216578,"current_range_meters":27600,"station_id":"ce4bgv92rcd13ifvqcq0","pricing_plan_id":"cebpf4jnsgd1na2vs0mg"},{"bike_id":"b6579e27-9948-4641-a834-a849228b24af","system_id":"levelo_inurba_marseille","lat":43.317075,"lon":5.377367,"is_reserved":false,"is_disabled":false,"rental_uris":{"android":"levelo://app?vid=b6579e27-9948-4641-a834-a849228b24af","ios":"levelo://app?vid=b6579e27-9948-4641-a834-a849228b24af"},"vehicle_type_id":"4","last_reported":1708216578,"current_range_meters":30000,"station_id":"ce4bgth2rcd13ifvqch0","pricing_plan_id":"cebpf4jnsgd1na2vs0mg"},{"bike_id":"2baf9833-466d-461e-aa23-00f53b896b86","system_id":"levelo_inurba_marseille","lat":43.317075,"lon":5.377367,"is_reserved":false,"is_disabled":false,"rental_uris":{"android":"levelo://app?vid=2baf9833-466d-461e-aa23-00f53b896b86","ios":"levelo://app?vid=2baf9833-466d-461e-aa23-00f53b896b86"},"vehicle_type_id":"4","last_reported":1708216578,"current_range_meters":8400,"station_id":"ce4bgth2rcd13ifvqch0","pricing_plan_id":"cebpf4jnsgd1na2vs0mg"},{"bike_id":"9b49c6fe-9a70-421f-a95e-2225829fdb6d","system_id":"levelo_inurba_marseille","lat":43.30304,"lon":5.368987,"is_reserved":false,"is_disabled":false,"rental_uris":{"android":"levelo://app?vid=9b49c6fe-9a70-421f-a95e-2225829fdb6d","ios":"levelo://app?vid=9b49c6fe-9a70-421f-a95e-2225829fdb6d"},"vehicle_type_id":"4","last_reported":1708216578,"current_range_meters":20000,"station_id":"ce4bgqh2rcd13ifvqc5g","pricing_plan_id":"cebpf4jnsgd1na2vs0mg"},{"bike_id":"22678661-f9fb-4079-8ae3-968e2f8d1175","system_id":"levelo_inurba_marseille","lat":43.303046,"lon":5.368981,"is_reserved":false,"is_disabled":false,"rental_uris":{"android":"levelo://app?vid=22678661-f9fb-4079-8ae3-968e2f8d1175","ios":"levelo://app?vid=22678661-f9fb-4079-8ae3-968e2f8d1175"},"vehicle_type_id":"4","last_reported":1708216578,"current_range_meters":13200,"station_id":"ce4bgqh2rcd13ifvqc5g","pricing_plan_id":"cebpf4jnsgd1na2vs0mg"},{"bike_id":"bdd8ca95-cfb8-4541-9867-c17848173b3b","system_id":"levelo_inurba_marseille","lat":43.315293,"lon":5.380349,"is_reserved":false,"is_disabled":false,"rental_uris":{"android":"levelo://app?vid=bdd8ca95-cfb8-4541-9867-c17848173b3b","ios":"levelo://app?vid=bdd8ca95-cfb8-4541-9867-c17848173b3b"},"vehicle_type_id":"4","last_reported":1708216578,"current_range_meters":18400,"station_id":"ce4bhsp2rcd13ifvqi50","pricing_plan_id":"cebpf4jnsgd1na2vs0mg"},{"bike_id":"e9be2605-fcb5-44db-bd43-584adaeae401","system_id":"levelo_inurba_marseille","lat":43.315369,"lon":5.38041,"is_reserved":false,"is_disabled":false,"rental_uris":{"android":"levelo://app?vid=e9be2605-fcb5-44db-bd43-584adaeae401","ios":"levelo://app?vid=e9be2605-fcb5-44db-bd43-584adaeae401"},"vehicle_type_id":"4","last_reported":1708216578,"current_range_meters":18000,"station_id":"ce4bhsp2rcd13ifvqi50","pricing_plan_id":"cebpf4jnsgd1na2vs0mg"},{"bike_id":"d93125b0-9238-4604-81f2-a783b54ed7e7","system_id":"levelo_inurba_marseille","lat":43.30143,"lon":5.37413,"is_reserved":false,"is_disabled":false,"rental_uris":{"android":"levelo://app?vid=d93125b0-9238-4604-81f2-a783b54ed7e7","ios":"levelo://app?vid=d93125b0-9238-4604-81f2-a783b54ed7e7"},"vehicle_type_id":"4","last_reported":1708216578,"current_range_meters":12000,"station_id":"ce4bgs92rcd13ifvqcc0","pricing_plan_id":"cebpf4jnsgd1na2vs0mg"},{"bike_id":"9a380776-76d9-4752-b8c1-c51336c636d7","system_id":"levelo_inurba_marseille","lat":43.301939,"lon":5.366286,"is_reserved":false,"is_disabled":false,"rental_uris":{"android":"levelo://app?vid=9a380776-76d9-4752-b8c1-c51336c636d7","ios":"levelo://app?vid=9a380776-76d9-4752-b8c1-c51336c636d7"},"vehicle_type_id":"4","last_reported":1708216578,"current_range_meters":24800,"station_id":"ce4bgrh2rcd13ifvqc8g","pricing_plan_id":"cebpf4jnsgd1na2vs0mg"},{"bike_id":"bfbbe0b2-5a3b-4cd6-b4d1-f62782096701","system_id":"levelo_inurba_marseille","lat":43.301939,"lon":5.366286,"is_reserved":false,"is_disabled":false,"rental_uris":{"android":"levelo://app?vid=bfbbe0b2-5a3b-4cd6-b4d1-f62782096701","ios":"levelo://app?vid=bfbbe0b2-5a3b-4cd6-b4d1-f62782096701"},"vehicle_type_id":"4","last_reported":1708216578,"current_range_meters":20400,"station_id":"ce4bgrh2rcd13ifvqc8g","pricing_plan_id":"cebpf4jnsgd1na2vs0mg"},{"bike_id":"44430285-7202-4853-8337-b3493d213cb3","system_id":"levelo_inurba_marseille","lat":43.301939,"lon":5.366286,"is_reserved":false,"is_disabled":false,"rental_uris":{"android":"levelo://app?vid=44430285-7202-4853-8337-b3493d213cb3","ios":"levelo://app?vid=44430285-7202-4853-8337-b3493d213cb3"},"vehicle_type_id":"4","last_reported":1708216578,"current_range_meters":21200,"station_id":"ce4bgrh2rcd13ifvqc8g","pricing_plan_id":"cebpf4jnsgd1na2vs0mg"},{"bike_id":"1489aa30-1e59-4aaf-a217-39f8a2668719","system_id":"levelo_inurba_marseille","lat":43.301939,"lon":5.366286,"is_reserved":false,"is_disabled":false,"rental_uris":{"android":"levelo://app?vid=1489aa30-1e59-4aaf-a217-39f8a2668719","ios":"levelo://app?vid=1489aa30-1e59-4aaf-a217-39f8a2668719"},"vehicle_type_id":"4","last_reported":1708216578,"current_range_meters":23600,"station_id":"ce4bgrh2rcd13ifvqc8g","pricing_plan_id":"cebpf4jnsgd1na2vs0mg"},{"bike_id":"f57b5d3d-a939-4692-a398-ddde8852f959","system_id":"levelo_inurba_marseille","lat":43.301939,"lon":5.366286,"is_reserved":false,"is_disabled":false,"rental_uris":{"android":"levelo://app?vid=f57b5d3d-a939-4692-a398-ddde8852f959","ios":"levelo://app?vid=f57b5d3d-a939-4692-a398-ddde8852f959"},"vehicle_type_id":"4","last_reported":1708216578,"current_range_meters":10800,"station_id":"ce4bgrh2rcd13ifvqc8g","pricing_plan_id":"cebpf4jnsgd1na2vs0mg"},{"bike_id":"cb3b22ad-f3b6-4dbb-9e0b-9052d2fbd044","system_id":"levelo_inurba_marseille","lat":43.301939,"lon":5.366286,"is_reserved":false,"is_disabled":false,"rental_uris":{"android":"levelo://app?vid=cb3b22ad-f3b6-4dbb-9e0b-9052d2fbd044","ios":"levelo://app?vid=cb3b22ad-f3b6-4dbb-9e0b-9052d2fbd044"},"vehicle_type_id":"4","last_reported":1708216578,"current_range_meters":6800,"station_id":"ce4bgrh2rcd13ifvqc8g","pricing_plan_id":"cebpf4jnsgd1na2vs0mg"},{"bike_id":"b62a94e2-62fb-4c42-9a6b-144a9d6a7325","system_id":"levelo_inurba_marseille","lat":43.301939,"lon":5.366286,"is_reserved":false,"is_disabled":false,"rental_uris":{"android":"levelo://app?vid=b62a94e2-62fb-4c42-9a6b-144a9d6a7325","ios":"levelo://app?vid=b62a94e2-62fb-4c42-9a6b-144a9d6a7325"},"vehicle_type_id":"4","last_reported":1708216578,"current_range_meters":16800,"station_id":"ce4bgrh2rcd13ifvqc8g","pricing_plan_id":"cebpf4jnsgd1na2vs0mg"},{"bike_id":"3062498a-93ea-49d6-84bb-5c2dec53f342","system_id":"levelo_inurba_marseille","lat":43.301939,"lon":5.366286,"is_reserved":false,"is_disabled":false,"rental_uris":{"android":"levelo://app?vid=3062498a-93ea-49d6-84bb-5c2dec53f342","ios":"levelo://app?vid=3062498a-93ea-49d6-84bb-5c2dec53f342"},"vehicle_type_id":"4","last_reported":1708216578,"current_range_meters":0,"station_id":"ce4bgrh2rcd13ifvqc8g","pricing_plan_id":"cebpf4jnsgd1na2vs0mg"},{"bike_id":"edc0c845-897f-4124-b60c-f2677ca823c0","system_id":"levelo_inurba_marseille","lat":43.308012,"lon":5.381511,"is_reserved":false,"is_disabled":false,"rental_uris":{"android":"levelo://app?vid=edc0c845-897f-4124-b60c-f2677ca823c0","ios":"levelo://app?vid=edc0c845-897f-4124-b60c-f2677ca823c0"},"vehicle_type_id":"4","last_reported":1708216578,"current_range_meters":20800,"station_id":"ce4bgt12rcd13ifvqce0","pricing_plan_id":"cebpf4jnsgd1na2vs0mg"},{"bike_id":"a86724b1-c718-46a8-a001-1a81b756ef08","system_id":"levelo_inurba_marseille","lat":43.308012,"lon":5.381511,"is_reserved":false,"is_disabled":false,"rental_uris":{"android":"levelo://app?vid=a86724b1-c718-46a8-a001-1a81b756ef08","ios":"levelo://app?vid=a86724b1-c718-46a8-a001-1a81b756ef08"},"vehicle_type_id":"4","last_reported":1708216578,"current_range_meters":11200,"station_id":"ce4bgt12rcd13ifvqce0","pricing_plan_id":"cebpf4jnsgd1na2vs0mg"},{"bike_id":"4b6c7705-73c2-483c-af4a-1f611da121b0","system_id":"levelo_inurba_marseille","lat":43.308012,"lon":5.381511,"is_reserved":false,"is_disabled":false,"rental_uris":{"android":"levelo://app?vid=4b6c7705-73c2-483c-af4a-1f611da121b0","ios":"levelo://app?vid=4b6c7705-73c2-483c-af4a-1f611da121b0"},"vehicle_type_id":"4","last_reported":1708216578,"current_range_meters":22400,"station_id":"ce4bgt12rcd13ifvqce0","pricing_plan_id":"cebpf4jnsgd1na2vs0mg"},{"bike_id":"3c839e63-d797-4b60-a4f4-7de9f5b42f60","system_id":"levelo_inurba_marseille","lat":43.308012,"lon":5.381511,"is_reserved":false,"is_disabled":false,"rental_uris":{"android":"levelo://app?vid=3c839e63-d797-4b60-a4f4-7de9f5b42f60","ios":"levelo://app?vid=3c839e63-d797-4b60-a4f4-7de9f5b42f60"},"vehicle_type_id":"4","last_reported":1708216578,"current_range_meters":6400,"station_id":"ce4bgt12rcd13ifvqce0","pricing_plan_id":"cebpf4jnsgd1na2vs0mg"},{"bike_id":"0706b49d-9b48-4de6-a6b3-a043e1af07ed","system_id":"levelo_inurba_marseille","lat":43.308012,"lon":5.381511,"is_reserved":false,"is_disabled":false,"rental_uris":{"android":"levelo://app?vid=0706b49d-9b48-4de6-a6b3-a043e1af07ed","ios":"levelo://app?vid=0706b49d-9b48-4de6-a6b3-a043e1af07ed"},"vehicle_type_id":"4","last_reported":1708216578,"current_range_meters":30400,"station_id":"ce4bgt12rcd13ifvqce0","pricing_plan_id":"cebpf4jnsgd1na2vs0mg"},{"bike_id":"e25db567-f27d-4d35-9a3e-174987305fdd","system_id":"levelo_inurba_marseille","lat":43.308012,"lon":5.381511,"is_reserved":false,"is_disabled":false,"rental_uris":{"android":"levelo://app?vid=e25db567-f27d-4d35-9a3e-174987305fdd","ios":"levelo://app?vid=e25db567-f27d-4d35-9a3e-174987305fdd"},"vehicle_type_id":"4","last_reported":1708216578,"current_range_meters":24800,"station_id":"ce4bgt12rcd13ifvqce0","pricing_plan_id":"cebpf4jnsgd1na2vs0mg"},{"bike_id":"31d216bd-088a-47c3-92a1-87bae9f36dfc","system_id":"levelo_inurba_marseille","lat":43.30801,"lon":5.38159,"is_reserved":false,"is_disabled":false,"rental_uris":{"android":"levelo://app?vid=31d216bd-088a-47c3-92a1-87bae9f36dfc","ios":"levelo://app?vid=31d216bd-088a-47c3-92a1-87bae9f36dfc"},"vehicle_type_id":"4","last_reported":1708216578,"current_range_meters":26800,"station_id":"ce4bgt12rcd13ifvqce0","pricing_plan_id":"cebpf4jnsgd1na2vs0mg"},{"bike_id":"58d7e76c-06d6-4045-80fe-6c3bdb46e77b","system_id":"levelo_inurba_marseille","lat":43.308012,"lon":5.381511,"is_reserved":false,"is_disabled":false,"rental_uris":{"android":"levelo://app?vid=58d7e76c-06d6-4045-80fe-6c3bdb46e77b","ios":"levelo://app?vid=58d7e76c-06d6-4045-80fe-6c3bdb46e77b"},"vehicle_type_id":"4","last_reported":1708216578,"current_range_meters":26800,"station_id":"ce4bgt12rcd13ifvqce0","pricing_plan_id":"cebpf4jnsgd1na2vs0mg"},{"bike_id":"5da8f759-b3a9-42bb-ab21-f1d0d605ffad","system_id":"levelo_inurba_marseille","lat":43.308012,"lon":5.381511,"is_reserved":false,"is_disabled":false,"rental_uris":{"android":"levelo://app?vid=5da8f759-b3a9-42bb-ab21-f1d0d605ffad","ios":"levelo://app?vid=5da8f759-b3a9-42bb-ab21-f1d0d605ffad"},"vehicle_type_id":"4","last_reported":1708216578,"current_range_meters":15600,"station_id":"ce4bgt12rcd13ifvqce0","pricing_plan_id":"cebpf4jnsgd1na2vs0mg"},{"bike_id":"2089bc2e-e564-4bb2-bb3a-cb79d88708e3","system_id":"levelo_inurba_marseille","lat":43.30804,"lon":5.38165,"is_reserved":false,"is_disabled":false,"rental_uris":{"android":"levelo://app?vid=2089bc2e-e564-4bb2-bb3a-cb79d88708e3","ios":"levelo://app?vid=2089bc2e-e564-4bb2-bb3a-cb79d88708e3"},"vehicle_type_id":"4","last_reported":1708216578,"current_range_meters":2000,"station_id":"ce4bgt12rcd13ifvqce0","pricing_plan_id":"cebpf4jnsgd1na2vs0mg"},{"bike_id":"d9ef213c-3921-415b-8449-99377d178695","system_id":"levelo_inurba_marseille","lat":43.308012,"lon":5.381511,"is_reserved":false,"is_disabled":false,"rental_uris":{"android":"levelo://app?vid=d9ef213c-3921-415b-8449-99377d178695","ios":"levelo://app?vid=d9ef213c-3921-415b-8449-99377d178695"},"vehicle_type_id":"4","last_reported":1708216578,"current_range_meters":31200,"station_id":"ce4bgt12rcd13ifvqce0","pricing_plan_id":"cebpf4jnsgd1na2vs0mg"},{"bike_id":"f48a4cf9-dbf1-4f37-8a86-f07e70fd62d4","system_id":"levelo_inurba_marseille","lat":43.308012,"lon":5.381511,"is_reserved":false,"is_disabled":false,"rental_uris":{"android":"levelo://app?vid=f48a4cf9-dbf1-4f37-8a86-f07e70fd62d4","ios":"levelo://app?vid=f48a4cf9-dbf1-4f37-8a86-f07e70fd62d4"},"vehicle_type_id":"4","last_reported":1708216578,"current_range_meters":11600,"station_id":"ce4bgt12rcd13ifvqce0","pricing_plan_id":"cebpf4jnsgd1na2vs0mg"},{"bike_id":"26f8191c-c177-4885-9bd1-347152477f85","system_id":"levelo_inurba_marseille","lat":43.308012,"lon":5.381511,"is_reserved":false,"is_disabled":false,"rental_uris":{"android":"levelo://app?vid=26f8191c-c177-4885-9bd1-347152477f85","ios":"levelo://app?vid=26f8191c-c177-4885-9bd1-347152477f85"},"vehicle_type_id":"4","last_reported":1708216578,"current_range_meters":0,"station_id":"ce4bgt12rcd13ifvqce0","pricing_plan_id":"cebpf4jnsgd1na2vs0mg"},{"bike_id":"ef890fcc-8cdf-4034-b781-203153ab8d9f","system_id":"levelo_inurba_marseille","lat":43.304606,"lon":5.379026,"is_reserved":false,"is_disabled":false,"rental_uris":{"android":"levelo://app?vid=ef890fcc-8cdf-4034-b781-203153ab8d9f","ios":"levelo://app?vid=ef890fcc-8cdf-4034-b781-203153ab8d9f"},"vehicle_type_id":"4","last_reported":1708216578,"current_range_meters":0,"station_id":"ce4bgup2rcd13ifvqcn0","pricing_plan_id":"cebpf4jnsgd1na2vs0mg"},{"bike_id":"e35c90dd-bf2c-41e8-9b17-33f38c54dba9","system_id":"levelo_inurba_marseille","lat":43.304606,"lon":5.379026,"is_reserved":false,"is_disabled":false,"rental_uris":{"android":"levelo://app?vid=e35c90dd-bf2c-41e8-9b17-33f38c54dba9","ios":"levelo://app?vid=e35c90dd-bf2c-41e8-9b17-33f38c54dba9"},"vehicle_type_id":"4","last_reported":1708216578,"current_range_meters":23200,"station_id":"ce4bgup2rcd13ifvqcn0","pricing_plan_id":"cebpf4jnsgd1na2vs0mg"},{"bike_id":"66c512bf-acab-4702-ba43-f4af8a53fc57","system_id":"levelo_inurba_marseille","lat":43.324771,"lon":5.36557,"is_reserved":false,"is_disabled":false,"rental_uris":{"android":"levelo://app?vid=66c512bf-acab-4702-ba43-f4af8a53fc57","ios":"levelo://app?vid=66c512bf-acab-4702-ba43-f4af8a53fc57"},"vehicle_type_id":"4","last_reported":1708216578,"current_range_meters":1200,"station_id":"ce4bhs12rcd13ifvqhvg","pricing_plan_id":"cebpf4jnsgd1na2vs0mg"},{"bike_id":"52c7d0c2-438e-4f7d-9db4-ea70d4682f97","system_id":"levelo_inurba_marseille","lat":43.324771,"lon":5.36557,"is_reserved":false,"is_disabled":false,"rental_uris":{"android":"levelo://app?vid=52c7d0c2-438e-4f7d-9db4-ea70d4682f97","ios":"levelo://app?vid=52c7d0c2-438e-4f7d-9db4-ea70d4682f97"},"vehicle_type_id":"4","last_reported":1708216578,"current_range_meters":10400,"station_id":"ce4bhs12rcd13ifvqhvg","pricing_plan_id":"cebpf4jnsgd1na2vs0mg"},{"bike_id":"b3ba3ea3-e995-4a98-8754-3947773fc1ca","system_id":"levelo_inurba_marseille","lat":43.310804,"lon":5.38359,"is_reserved":false,"is_disabled":false,"rental_uris":{"android":"levelo://app?vid=b3ba3ea3-e995-4a98-8754-3947773fc1ca","ios":"levelo://app?vid=b3ba3ea3-e995-4a98-8754-3947773fc1ca"},"vehicle_type_id":"4","last_reported":1708216578,"current_range_meters":17600,"station_id":"ce4bgv92rcd13ifvqcr0","pricing_plan_id":"cebpf4jnsgd1na2vs0mg"},{"bike_id":"138afc56-0818-4fe3-b774-75066fa1c3a6","system_id":"levelo_inurba_marseille","lat":43.302784,"lon":5.377158,"is_reserved":false,"is_disabled":false,"rental_uris":{"android":"levelo://app?vid=138afc56-0818-4fe3-b774-75066fa1c3a6","ios":"levelo://app?vid=138afc56-0818-4fe3-b774-75066fa1c3a6"},"vehicle_type_id":"4","last_reported":1708216578,"current_range_meters":26400,"station_id":"ce4bguh2rcd13ifvqcj0","pricing_plan_id":"cebpf4jnsgd1na2vs0mg"},{"bike_id":"42982146-7f01-4220-a620-ddcc20e59fdf","system_id":"levelo_inurba_marseille","lat":43.310804,"lon":5.38359,"is_reserved":false,"is_disabled":false,"rental_uris":{"android":"levelo://app?vid=42982146-7f01-4220-a620-ddcc20e59fdf","ios":"levelo://app?vid=42982146-7f01-4220-a620-ddcc20e59fdf"},"vehicle_type_id":"4","last_reported":1708216578,"current_range_meters":12400,"station_id":"ce4bgv92rcd13ifvqcr0","pricing_plan_id":"cebpf4jnsgd1na2vs0mg"},{"bike_id":"ae6d477f-cfc3-48d6-a4b4-33959153e5fc","system_id":"levelo_inurba_marseille","lat":43.310804,"lon":5.38359,"is_reserved":false,"is_disabled":false,"rental_uris":{"android":"levelo://app?vid=ae6d477f-cfc3-48d6-a4b4-33959153e5fc","ios":"levelo://app?vid=ae6d477f-cfc3-48d6-a4b4-33959153e5fc"},"vehicle_type_id":"4","last_reported":1708216578,"current_range_meters":1600,"station_id":"ce4bgv92rcd13ifvqcr0","pricing_plan_id":"cebpf4jnsgd1na2vs0mg"},{"bike_id":"994f42f8-d23e-4ac3-a7a5-bb4c4801e60f","system_id":"levelo_inurba_marseille","lat":43.31076,"lon":5.38365,"is_reserved":false,"is_disabled":false,"rental_uris":{"android":"levelo://app?vid=994f42f8-d23e-4ac3-a7a5-bb4c4801e60f","ios":"levelo://app?vid=994f42f8-d23e-4ac3-a7a5-bb4c4801e60f"},"vehicle_type_id":"4","last_reported":1708216578,"current_range_meters":23200,"station_id":"","pricing_plan_id":"cebpf4jnsgd1na2vs0mg"},{"bike_id":"5bc3aefd-5a2f-45d6-b5ad-311561c420d1","system_id":"levelo_inurba_marseille","lat":43.301429,"lon":5.37413,"is_reserved":false,"is_disabled":false,"rental_uris":{"android":"levelo://app?vid=5bc3aefd-5a2f-45d6-b5ad-311561c420d1","ios":"levelo://app?vid=5bc3aefd-5a2f-45d6-b5ad-311561c420d1"},"vehicle_type_id":"4","last_reported":1708216578,"current_range_meters":20000,"station_id":"ce4bgs92rcd13ifvqcc0","pricing_plan_id":"cebpf4jnsgd1na2vs0mg"},{"bike_id":"53e9dce0-56a0-47f5-8d9b-4ea34e0572a6","system_id":"levelo_inurba_marseille","lat":43.319826,"lon":5.381109,"is_reserved":false,"is_disabled":false,"rental_uris":{"android":"levelo://app?vid=53e9dce0-56a0-47f5-8d9b-4ea34e0572a6","ios":"levelo://app?vid=53e9dce0-56a0-47f5-8d9b-4ea34e0572a6"},"vehicle_type_id":"4","last_reported":1708216578,"current_range_meters":4000,"station_id":"","pricing_plan_id":"cebpf4jnsgd1na2vs0mg"},{"bike_id":"b966d316-a40f-4dd3-8e43-9f85576511d6","system_id":"levelo_inurba_marseille","lat":43.319935,"lon":5.381699,"is_reserved":false,"is_disabled":false,"rental_uris":{"android":"levelo://app?vid=b966d316-a40f-4dd3-8e43-9f85576511d6","ios":"levelo://app?vid=b966d316-a40f-4dd3-8e43-9f85576511d6"},"vehicle_type_id":"4","last_reported":1708216578,"current_range_meters":4400,"station_id":"ce4bhr12rcd13ifvqhpg","pricing_plan_id":"cebpf4jnsgd1na2vs0mg"},{"bike_id":"67217016-2ee0-42a5-87fc-663af82f2ce9","system_id":"levelo_inurba_marseille","lat":43.319981,"lon":5.381579,"is_reserved":false,"is_disabled":false,"rental_uris":{"android":"levelo://app?vid=67217016-2ee0-42a5-87fc-663af82f2ce9","ios":"levelo://app?vid=67217016-2ee0-42a5-87fc-663af82f2ce9"},"vehicle_type_id":"4","last_reported":1708216578,"current_range_meters":16800,"station_id":"ce4bhr12rcd13ifvqhpg","pricing_plan_id":"cebpf4jnsgd1na2vs0mg"},{"bike_id":"633a76ae-0dde-4074-920b-6f5e10985d6c","system_id":"levelo_inurba_marseille","lat":43.3136,"lon":5.384807,"is_reserved":false,"is_disabled":false,"rental_uris":{"android":"levelo://app?vid=633a76ae-0dde-4074-920b-6f5e10985d6c","ios":"levelo://app?vid=633a76ae-0dde-4074-920b-6f5e10985d6c"},"vehicle_type_id":"4","last_reported":1708216578,"current_range_meters":5200,"station_id":"ce4bgt92rcd13ifvqcf0","pricing_plan_id":"cebpf4jnsgd1na2vs0mg"},{"bike_id":"136216fc-e2d5-4024-85dd-335789013a58","system_id":"levelo_inurba_marseille","lat":43.31363,"lon":5.38486,"is_reserved":false,"is_disabled":false,"rental_uris":{"android":"levelo://app?vid=136216fc-e2d5-4024-85dd-335789013a58","ios":"levelo://app?vid=136216fc-e2d5-4024-85dd-335789013a58"},"vehicle_type_id":"4","last_reported":1708216578,"current_range_meters":18000,"station_id":"ce4bgt92rcd13ifvqcf0","pricing_plan_id":"cebpf4jnsgd1na2vs0mg"},{"bike_id":"3e6e4e23-a66d-4204-92f5-6042ab670674","system_id":"levelo_inurba_marseille","lat":43.31362,"lon":5.38488,"is_reserved":false,"is_disabled":false,"rental_uris":{"android":"levelo://app?vid=3e6e4e23-a66d-4204-92f5-6042ab670674","ios":"levelo://app?vid=3e6e4e23-a66d-4204-92f5-6042ab670674"},"vehicle_type_id":"4","last_reported":1708216578,"current_range_meters":7200,"station_id":"ce4bgt92rcd13ifvqcf0","pricing_plan_id":"cebpf4jnsgd1na2vs0mg"},{"bike_id":"76ec8215-83ae-43bf-8016-bef183d4fe88","system_id":"levelo_inurba_marseille","lat":43.31357,"lon":5.38489,"is_reserved":false,"is_disabled":false,"rental_uris":{"android":"levelo://app?vid=76ec8215-83ae-43bf-8016-bef183d4fe88","ios":"levelo://app?vid=76ec8215-83ae-43bf-8016-bef183d4fe88"},"vehicle_type_id":"4","last_reported":1708216578,"current_range_meters":0,"station_id":"ce4bgt92rcd13ifvqcf0","pricing_plan_id":"cebpf4jnsgd1na2vs0mg"},{"bike_id":"470c7419-98e3-4059-adc8-fb445c6e4847","system_id":"levelo_inurba_marseille","lat":43.313639,"lon":5.384898,"is_reserved":false,"is_disabled":false,"rental_uris":{"android":"levelo://app?vid=470c7419-98e3-4059-adc8-fb445c6e4847","ios":"levelo://app?vid=470c7419-98e3-4059-adc8-fb445c6e4847"},"vehicle_type_id":"4","last_reported":1708216578,"current_range_meters":0,"station_id":"ce4bgt92rcd13ifvqcf0","pricing_plan_id":"cebpf4jnsgd1na2vs0mg"},{"bike_id":"6bb1de84-2971-4821-8e9e-28421dc6003a","system_id":"levelo_inurba_marseille","lat":43.313657,"lon":5.384897,"is_reserved":false,"is_disabled":false,"rental_uris":{"android":"levelo://app?vid=6bb1de84-2971-4821-8e9e-28421dc6003a","ios":"levelo://app?vid=6bb1de84-2971-4821-8e9e-28421dc6003a"},"vehicle_type_id":"4","last_reported":1708216578,"current_range_meters":23200,"station_id":"ce4bgt92rcd13ifvqcf0","pricing_plan_id":"cebpf4jnsgd1na2vs0mg"},{"bike_id":"d5115ac4-0a0a-4afc-bd16-8d54191daf91","system_id":"levelo_inurba_marseille","lat":43.313686,"lon":5.384894,"is_reserved":false,"is_disabled":false,"rental_uris":{"android":"levelo://app?vid=d5115ac4-0a0a-4afc-bd16-8d54191daf91","ios":"levelo://app?vid=d5115ac4-0a0a-4afc-bd16-8d54191daf91"},"vehicle_type_id":"4","last_reported":1708216578,"current_range_meters":8400,"station_id":"ce4bgt92rcd13ifvqcf0","pricing_plan_id":"cebpf4jnsgd1na2vs0mg"},{"bike_id":"4b2ca686-bb3c-4bcd-aecc-1d011af46d95","system_id":"levelo_inurba_marseille","lat":43.31358,"lon":5.38493,"is_reserved":false,"is_disabled":false,"rental_uris":{"android":"levelo://app?vid=4b2ca686-bb3c-4bcd-aecc-1d011af46d95","ios":"levelo://app?vid=4b2ca686-bb3c-4bcd-aecc-1d011af46d95"},"vehicle_type_id":"4","last_reported":1708216578,"current_range_meters":10000,"station_id":"ce4bgt92rcd13ifvqcf0","pricing_plan_id":"cebpf4jnsgd1na2vs0mg"},{"bike_id":"3a35b3a8-6917-4767-b8b0-bb882bdf0f3f","system_id":"levelo_inurba_marseille","lat":43.3136,"lon":5.38493,"is_reserved":false,"is_disabled":false,"rental_uris":{"android":"levelo://app?vid=3a35b3a8-6917-4767-b8b0-bb882bdf0f3f","ios":"levelo://app?vid=3a35b3a8-6917-4767-b8b0-bb882bdf0f3f"},"vehicle_type_id":"4","last_reported":1708216578,"current_range_meters":5200,"station_id":"ce4bgt92rcd13ifvqcf0","pricing_plan_id":"cebpf4jnsgd1na2vs0mg"},{"bike_id":"c5aa4f4e-06db-4b29-a79b-bafe789492a8","system_id":"levelo_inurba_marseille","lat":43.31363,"lon":5.38494,"is_reserved":false,"is_disabled":false,"rental_uris":{"android":"levelo://app?vid=c5aa4f4e-06db-4b29-a79b-bafe789492a8","ios":"levelo://app?vid=c5aa4f4e-06db-4b29-a79b-bafe789492a8"},"vehicle_type_id":"4","last_reported":1708216578,"current_range_meters":20800,"station_id":"ce4bgt92rcd13ifvqcf0","pricing_plan_id":"cebpf4jnsgd1na2vs0mg"},{"bike_id":"a426b384-83b2-42bd-bbe1-3b7eac641907","system_id":"levelo_inurba_marseille","lat":43.31363,"lon":5.38495,"is_reserved":false,"is_disabled":false,"rental_uris":{"android":"levelo://app?vid=a426b384-83b2-42bd-bbe1-3b7eac641907","ios":"levelo://app?vid=a426b384-83b2-42bd-bbe1-3b7eac641907"},"vehicle_type_id":"4","last_reported":1708216578,"current_range_meters":5200,"station_id":"ce4bgt92rcd13ifvqcf0","pricing_plan_id":"cebpf4jnsgd1na2vs0mg"},{"bike_id":"64fc23d3-6a45-49c2-9df3-18833fa1a6d0","system_id":"levelo_inurba_marseille","lat":43.31366,"lon":5.38495,"is_reserved":false,"is_disabled":false,"rental_uris":{"android":"levelo://app?vid=64fc23d3-6a45-49c2-9df3-18833fa1a6d0","ios":"levelo://app?vid=64fc23d3-6a45-49c2-9df3-18833fa1a6d0"},"vehicle_type_id":"4","last_reported":1708216578,"current_range_meters":27600,"station_id":"ce4bgt92rcd13ifvqcf0","pricing_plan_id":"cebpf4jnsgd1na2vs0mg"},{"bike_id":"4c79e6a4-62d2-4048-a119-80a0f62e21ce","system_id":"levelo_inurba_marseille","lat":43.31355,"lon":5.38496,"is_reserved":false,"is_disabled":false,"rental_uris":{"android":"levelo://app?vid=4c79e6a4-62d2-4048-a119-80a0f62e21ce","ios":"levelo://app?vid=4c79e6a4-62d2-4048-a119-80a0f62e21ce"},"vehicle_type_id":"4","last_reported":1708216578,"current_range_meters":13200,"station_id":"ce4bgt92rcd13ifvqcf0","pricing_plan_id":"cebpf4jnsgd1na2vs0mg"},{"bike_id":"ec082b37-6f47-4908-8315-09845b611753","system_id":"levelo_inurba_marseille","lat":43.3136,"lon":5.38496,"is_reserved":false,"is_disabled":false,"rental_uris":{"android":"levelo://app?vid=ec082b37-6f47-4908-8315-09845b611753","ios":"levelo://app?vid=ec082b37-6f47-4908-8315-09845b611753"},"vehicle_type_id":"4","last_reported":1708216578,"current_range_meters":18400,"station_id":"ce4bgt92rcd13ifvqcf0","pricing_plan_id":"cebpf4jnsgd1na2vs0mg"},{"bike_id":"1dac90cc-342b-4092-8352-c42a71902b45","system_id":"levelo_inurba_marseille","lat":43.31365,"lon":5.38496,"is_reserved":false,"is_disabled":false,"rental_uris":{"android":"levelo://app?vid=1dac90cc-342b-4092-8352-c42a71902b45","ios":"levelo://app?vid=1dac90cc-342b-4092-8352-c42a71902b45"},"vehicle_type_id":"4","last_reported":1708216578,"current_range_meters":16800,"station_id":"ce4bgt92rcd13ifvqcf0","pricing_plan_id":"cebpf4jnsgd1na2vs0mg"},{"bike_id":"3679ef58-718d-4222-aa07-13135c5ce48c","system_id":"levelo_inurba_marseille","lat":43.313617,"lon":5.384967,"is_reserved":false,"is_disabled":false,"rental_uris":{"android":"levelo://app?vid=3679ef58-718d-4222-aa07-13135c5ce48c","ios":"levelo://app?vid=3679ef58-718d-4222-aa07-13135c5ce48c"},"vehicle_type_id":"4","last_reported":1708216578,"current_range_meters":10000,"station_id":"ce4bgt92rcd13ifvqcf0","pricing_plan_id":"cebpf4jnsgd1na2vs0mg"},{"bike_id":"fc86edd2-8eab-41a1-b422-809362309ca7","system_id":"levelo_inurba_marseille","lat":43.31371,"lon":5.38496,"is_reserved":false,"is_disabled":false,"rental_uris":{"android":"levelo://app?vid=fc86edd2-8eab-41a1-b422-809362309ca7","ios":"levelo://app?vid=fc86edd2-8eab-41a1-b422-809362309ca7"},"vehicle_type_id":"4","last_reported":1708216578,"current_range_meters":4000,"station_id":"ce4bgt92rcd13ifvqcf0","pricing_plan_id":"cebpf4jnsgd1na2vs0mg"},{"bike_id":"4ed3ee94-603a-4e91-a259-a764bdcb2b5c","system_id":"levelo_inurba_marseille","lat":43.31362,"lon":5.38497,"is_reserved":false,"is_disabled":false,"rental_uris":{"android":"levelo://app?vid=4ed3ee94-603a-4e91-a259-a764bdcb2b5c","ios":"levelo://app?vid=4ed3ee94-603a-4e91-a259-a764bdcb2b5c"},"vehicle_type_id":"4","last_reported":1708216578,"current_range_meters":6000,"station_id":"ce4bgt92rcd13ifvqcf0","pricing_plan_id":"cebpf4jnsgd1na2vs0mg"},{"bike_id":"98c657e2-09d2-498b-a290-46fa6bddd57b","system_id":"levelo_inurba_marseille","lat":43.313571,"lon":5.384829,"is_reserved":false,"is_disabled":false,"rental_uris":{"android":"levelo://app?vid=98c657e2-09d2-498b-a290-46fa6bddd57b","ios":"levelo://app?vid=98c657e2-09d2-498b-a290-46fa6bddd57b"},"vehicle_type_id":"4","last_reported":1708216578,"current_range_meters":29200,"station_id":"ce4bgt92rcd13ifvqcf0","pricing_plan_id":"cebpf4jnsgd1na2vs0mg"},{"bike_id":"1017d765-133b-4c32-8165-3b6555bbd090","system_id":"levelo_inurba_marseille","lat":43.31349,"lon":5.385,"is_reserved":false,"is_disabled":false,"rental_uris":{"android":"levelo://app?vid=1017d765-133b-4c32-8165-3b6555bbd090","ios":"levelo://app?vid=1017d765-133b-4c32-8165-3b6555bbd090"},"vehicle_type_id":"4","last_reported":1708216578,"current_range_meters":22800,"station_id":"ce4bgt92rcd13ifvqcf0","pricing_plan_id":"cebpf4jnsgd1na2vs0mg"},{"bike_id":"4b181fd5-2921-42d2-a32c-164bb72144d0","system_id":"levelo_inurba_marseille","lat":43.31368,"lon":5.38499,"is_reserved":false,"is_disabled":false,"rental_uris":{"android":"levelo://app?vid=4b181fd5-2921-42d2-a32c-164bb72144d0","ios":"levelo://app?vid=4b181fd5-2921-42d2-a32c-164bb72144d0"},"vehicle_type_id":"4","last_reported":1708216578,"current_range_meters":14800,"station_id":"ce4bgt92rcd13ifvqcf0","pricing_plan_id":"cebpf4jnsgd1na2vs0mg"},{"bike_id":"90ba8549-86dc-405e-b06a-0705e1f706cb","system_id":"levelo_inurba_marseille","lat":43.313619,"lon":5.38501,"is_reserved":false,"is_disabled":false,"rental_uris":{"android":"levelo://app?vid=90ba8549-86dc-405e-b06a-0705e1f706cb","ios":"levelo://app?vid=90ba8549-86dc-405e-b06a-0705e1f706cb"},"vehicle_type_id":"4","last_reported":1708216578,"current_range_meters":400,"station_id":"ce4bgt92rcd13ifvqcf0","pricing_plan_id":"cebpf4jnsgd1na2vs0mg"},{"bike_id":"e5f7ac77-2d6c-44cc-9b72-543be3f11dbf","system_id":"levelo_inurba_marseille","lat":43.313575,"lon":5.38503,"is_reserved":false,"is_disabled":false,"rental_uris":{"android":"levelo://app?vid=e5f7ac77-2d6c-44cc-9b72-543be3f11dbf","ios":"levelo://app?vid=e5f7ac77-2d6c-44cc-9b72-543be3f11dbf"},"vehicle_type_id":"4","last_reported":1708216578,"current_range_meters":28800,"station_id":"ce4bgt92rcd13ifvqcf0","pricing_plan_id":"cebpf4jnsgd1na2vs0mg"},{"bike_id":"6c2d0d8b-1cca-457a-841b-889c7e788711","system_id":"levelo_inurba_marseille","lat":43.313713,"lon":5.38502,"is_reserved":false,"is_disabled":false,"rental_uris":{"android":"levelo://app?vid=6c2d0d8b-1cca-457a-841b-889c7e788711","ios":"levelo://app?vid=6c2d0d8b-1cca-457a-841b-889c7e788711"},"vehicle_type_id":"4","last_reported":1708216578,"current_range_meters":6800,"station_id":"ce4bgt92rcd13ifvqcf0","pricing_plan_id":"cebpf4jnsgd1na2vs0mg"},{"bike_id":"5979d0f2-db57-426e-855b-ff443046b354","system_id":"levelo_inurba_marseille","lat":43.31369,"lon":5.38505,"is_reserved":false,"is_disabled":false,"rental_uris":{"android":"levelo://app?vid=5979d0f2-db57-426e-855b-ff443046b354","ios":"levelo://app?vid=5979d0f2-db57-426e-855b-ff443046b354"},"vehicle_type_id":"4","last_reported":1708216578,"current_range_meters":0,"station_id":"ce4bgt92rcd13ifvqcf0","pricing_plan_id":"cebpf4jnsgd1na2vs0mg"},{"bike_id":"d7122a35-34e0-4200-8fdb-176c8fed4439","system_id":"levelo_inurba_marseille","lat":43.31374,"lon":5.38505,"is_reserved":false,"is_disabled":false,"rental_uris":{"android":"levelo://app?vid=d7122a35-34e0-4200-8fdb-176c8fed4439","ios":"levelo://app?vid=d7122a35-34e0-4200-8fdb-176c8fed4439"},"vehicle_type_id":"4","last_reported":1708216578,"current_range_meters":29600,"station_id":"ce4bgt92rcd13ifvqcf0","pricing_plan_id":"cebpf4jnsgd1na2vs0mg"},{"bike_id":"81eb74bb-6d9a-4e0d-ae47-8153e3217f86","system_id":"levelo_inurba_marseille","lat":43.313673,"lon":5.385087,"is_reserved":false,"is_disabled":false,"rental_uris":{"android":"levelo://app?vid=81eb74bb-6d9a-4e0d-ae47-8153e3217f86","ios":"levelo://app?vid=81eb74bb-6d9a-4e0d-ae47-8153e3217f86"},"vehicle_type_id":"4","last_reported":1708216578,"current_range_meters":5600,"station_id":"ce4bgt92rcd13ifvqcf0","pricing_plan_id":"cebpf4jnsgd1na2vs0mg"},{"bike_id":"7d4726a4-0c30-4224-b029-1de6e0c1b99c","system_id":"levelo_inurba_marseille","lat":43.31368,"lon":5.3851,"is_reserved":false,"is_disabled":false,"rental_uris":{"android":"levelo://app?vid=7d4726a4-0c30-4224-b029-1de6e0c1b99c","ios":"levelo://app?vid=7d4726a4-0c30-4224-b029-1de6e0c1b99c"},"vehicle_type_id":"4","last_reported":1708216578,"current_range_meters":3600,"station_id":"ce4bgt92rcd13ifvqcf0","pricing_plan_id":"cebpf4jnsgd1na2vs0mg"},{"bike_id":"f05672e3-1957-475e-a23b-dd2a39d196e7","system_id":"levelo_inurba_marseille","lat":43.299222,"lon":5.365554,"is_reserved":false,"is_disabled":false,"rental_uris":{"android":"levelo://app?vid=f05672e3-1957-475e-a23b-dd2a39d196e7","ios":"levelo://app?vid=f05672e3-1957-475e-a23b-dd2a39d196e7"},"vehicle_type_id":"4","last_reported":1708216578,"current_range_meters":8000,"station_id":"ce4bgm92rcd13ifvqbr0","pricing_plan_id":"cebpf4jnsgd1na2vs0mg"},{"bike_id":"a16d2286-bc8e-42e6-8df9-92df60386e50","system_id":"levelo_inurba_marseille","lat":43.299222,"lon":5.365554,"is_reserved":false,"is_disabled":false,"rental_uris":{"android":"levelo://app?vid=a16d2286-bc8e-42e6-8df9-92df60386e50","ios":"levelo://app?vid=a16d2286-bc8e-42e6-8df9-92df60386e50"},"vehicle_type_id":"4","last_reported":1708216578,"current_range_meters":25200,"station_id":"ce4bgm92rcd13ifvqbr0","pricing_plan_id":"cebpf4jnsgd1na2vs0mg"},{"bike_id":"2cf911d4-e03a-480f-b5fc-465fc5aabd2e","system_id":"levelo_inurba_marseille","lat":43.299222,"lon":5.365554,"is_reserved":false,"is_disabled":false,"rental_uris":{"android":"levelo://app?vid=2cf911d4-e03a-480f-b5fc-465fc5aabd2e","ios":"levelo://app?vid=2cf911d4-e03a-480f-b5fc-465fc5aabd2e"},"vehicle_type_id":"4","last_reported":1708216578,"current_range_meters":400,"station_id":"ce4bgm92rcd13ifvqbr0","pricing_plan_id":"cebpf4jnsgd1na2vs0mg"},{"bike_id":"551bf7cb-f37d-4b0d-a4b1-2f23752d9b65","system_id":"levelo_inurba_marseille","lat":43.29974,"lon":5.37188,"is_reserved":false,"is_disabled":false,"rental_uris":{"android":"levelo://app?vid=551bf7cb-f37d-4b0d-a4b1-2f23752d9b65","ios":"levelo://app?vid=551bf7cb-f37d-4b0d-a4b1-2f23752d9b65"},"vehicle_type_id":"4","last_reported":1708216578,"current_range_meters":400,"station_id":"ce4bgr92rcd13ifvqc7g","pricing_plan_id":"cebpf4jnsgd1na2vs0mg"},{"bike_id":"072a46e1-b337-4dee-9906-218c7e3ca1ff","system_id":"levelo_inurba_marseille","lat":43.299724,"lon":5.371829,"is_reserved":false,"is_disabled":false,"rental_uris":{"android":"levelo://app?vid=072a46e1-b337-4dee-9906-218c7e3ca1ff","ios":"levelo://app?vid=072a46e1-b337-4dee-9906-218c7e3ca1ff"},"vehicle_type_id":"4","last_reported":1708216578,"current_range_meters":22400,"station_id":"ce4bgr92rcd13ifvqc7g","pricing_plan_id":"cebpf4jnsgd1na2vs0mg"},{"bike_id":"f3a9eab8-2807-4bbc-84bc-104c1aef7795","system_id":"levelo_inurba_marseille","lat":43.299243,"lon":5.37481,"is_reserved":false,"is_disabled":false,"rental_uris":{"android":"levelo://app?vid=f3a9eab8-2807-4bbc-84bc-104c1aef7795","ios":"levelo://app?vid=f3a9eab8-2807-4bbc-84bc-104c1aef7795"},"vehicle_type_id":"4","last_reported":1708216578,"current_range_meters":27200,"station_id":"ce4bgjh2rcd13ifvqbg0","pricing_plan_id":"cebpf4jnsgd1na2vs0mg"},{"bike_id":"29a5e929-1a69-46b0-aaac-56b62b0ab09d","system_id":"levelo_inurba_marseille","lat":43.305364,"lon":5.384119,"is_reserved":false,"is_disabled":false,"rental_uris":{"android":"levelo://app?vid=29a5e929-1a69-46b0-aaac-56b62b0ab09d","ios":"levelo://app?vid=29a5e929-1a69-46b0-aaac-56b62b0ab09d"},"vehicle_type_id":"4","last_reported":1708216578,"current_range_meters":29600,"station_id":"ce4bgg92rcd13ifvqb30","pricing_plan_id":"cebpf4jnsgd1na2vs0mg"},{"bike_id":"6c258785-c9bf-44ba-9c7a-100a70258bb2","system_id":"levelo_inurba_marseille","lat":43.305364,"lon":5.384119,"is_reserved":false,"is_disabled":false,"rental_uris":{"android":"levelo://app?vid=6c258785-c9bf-44ba-9c7a-100a70258bb2","ios":"levelo://app?vid=6c258785-c9bf-44ba-9c7a-100a70258bb2"},"vehicle_type_id":"4","last_reported":1708216578,"current_range_meters":30000,"station_id":"ce4bgg92rcd13ifvqb30","pricing_plan_id":"cebpf4jnsgd1na2vs0mg"},{"bike_id":"88c61596-6870-4232-955a-fa9f22fbc3fe","system_id":"levelo_inurba_marseille","lat":43.305392,"lon":5.384261,"is_reserved":false,"is_disabled":false,"rental_uris":{"android":"levelo://app?vid=88c61596-6870-4232-955a-fa9f22fbc3fe","ios":"levelo://app?vid=88c61596-6870-4232-955a-fa9f22fbc3fe"},"vehicle_type_id":"4","last_reported":1708216578,"current_range_meters":8400,"station_id":"ce4bgg92rcd13ifvqb30","pricing_plan_id":"cebpf4jnsgd1na2vs0mg"},{"bike_id":"c023a0da-c392-4150-9c85-60dc700f415e","system_id":"levelo_inurba_marseille","lat":43.305364,"lon":5.384119,"is_reserved":false,"is_disabled":false,"rental_uris":{"android":"levelo://app?vid=c023a0da-c392-4150-9c85-60dc700f415e","ios":"levelo://app?vid=c023a0da-c392-4150-9c85-60dc700f415e"},"vehicle_type_id":"4","last_reported":1708216578,"current_range_meters":3600,"station_id":"ce4bgg92rcd13ifvqb30","pricing_plan_id":"cebpf4jnsgd1na2vs0mg"},{"bike_id":"0eb25b59-d7db-461b-8747-a236b6258555","system_id":"levelo_inurba_marseille","lat":43.299243,"lon":5.37481,"is_reserved":false,"is_disabled":false,"rental_uris":{"android":"levelo://app?vid=0eb25b59-d7db-461b-8747-a236b6258555","ios":"levelo://app?vid=0eb25b59-d7db-461b-8747-a236b6258555"},"vehicle_type_id":"4","last_reported":1708216578,"current_range_meters":24400,"station_id":"ce4bgjh2rcd13ifvqbg0","pricing_plan_id":"cebpf4jnsgd1na2vs0mg"},{"bike_id":"2430d049-eb5c-4ee0-bcb6-feaece75a604","system_id":"levelo_inurba_marseille","lat":43.305364,"lon":5.384119,"is_reserved":false,"is_disabled":false,"rental_uris":{"android":"levelo://app?vid=2430d049-eb5c-4ee0-bcb6-feaece75a604","ios":"levelo://app?vid=2430d049-eb5c-4ee0-bcb6-feaece75a604"},"vehicle_type_id":"4","last_reported":1708216578,"current_range_meters":17200,"station_id":"ce4bgg92rcd13ifvqb30","pricing_plan_id":"cebpf4jnsgd1na2vs0mg"},{"bike_id":"fe69fb1b-96ab-4ee8-af38-796df9fc8373","system_id":"levelo_inurba_marseille","lat":43.305374,"lon":5.384286,"is_reserved":false,"is_disabled":false,"rental_uris":{"android":"levelo://app?vid=fe69fb1b-96ab-4ee8-af38-796df9fc8373","ios":"levelo://app?vid=fe69fb1b-96ab-4ee8-af38-796df9fc8373"},"vehicle_type_id":"4","last_reported":1708216578,"current_range_meters":2800,"station_id":"ce4bgg92rcd13ifvqb30","pricing_plan_id":"cebpf4jnsgd1na2vs0mg"},{"bike_id":"9082927e-3d29-4513-b5f3-fb1d9107775f","system_id":"levelo_inurba_marseille","lat":43.305364,"lon":5.384119,"is_reserved":false,"is_disabled":false,"rental_uris":{"android":"levelo://app?vid=9082927e-3d29-4513-b5f3-fb1d9107775f","ios":"levelo://app?vid=9082927e-3d29-4513-b5f3-fb1d9107775f"},"vehicle_type_id":"4","last_reported":1708216578,"current_range_meters":29200,"station_id":"ce4bgg92rcd13ifvqb30","pricing_plan_id":"cebpf4jnsgd1na2vs0mg"},{"bike_id":"d4a6525b-b977-478a-ab78-9ee192089699","system_id":"levelo_inurba_marseille","lat":43.305364,"lon":5.384119,"is_reserved":false,"is_disabled":false,"rental_uris":{"android":"levelo://app?vid=d4a6525b-b977-478a-ab78-9ee192089699","ios":"levelo://app?vid=d4a6525b-b977-478a-ab78-9ee192089699"},"vehicle_type_id":"4","last_reported":1708216578,"current_range_meters":28000,"station_id":"ce4bgg92rcd13ifvqb30","pricing_plan_id":"cebpf4jnsgd1na2vs0mg"},{"bike_id":"6785a7ed-2daa-4c29-ad0b-428274b50413","system_id":"levelo_inurba_marseille","lat":43.311722,"lon":5.387247,"is_reserved":false,"is_disabled":false,"rental_uris":{"android":"levelo://app?vid=6785a7ed-2daa-4c29-ad0b-428274b50413","ios":"levelo://app?vid=6785a7ed-2daa-4c29-ad0b-428274b50413"},"vehicle_type_id":"4","last_reported":1708216578,"current_range_meters":2400,"station_id":"ce4bgv12rcd13ifvqcp0","pricing_plan_id":"cebpf4jnsgd1na2vs0mg"},{"bike_id":"b8c59155-881b-41ee-86d3-979f504f5661","system_id":"levelo_inurba_marseille","lat":43.299243,"lon":5.374807,"is_reserved":false,"is_disabled":false,"rental_uris":{"android":"levelo://app?vid=b8c59155-881b-41ee-86d3-979f504f5661","ios":"levelo://app?vid=b8c59155-881b-41ee-86d3-979f504f5661"},"vehicle_type_id":"4","last_reported":1708216578,"current_range_meters":13600,"station_id":"ce4bgjh2rcd13ifvqbg0","pricing_plan_id":"cebpf4jnsgd1na2vs0mg"},{"bike_id":"17ce2666-3eac-48e3-8131-fde2652f6159","system_id":"levelo_inurba_marseille","lat":43.299243,"lon":5.37481,"is_reserved":false,"is_disabled":false,"rental_uris":{"android":"levelo://app?vid=17ce2666-3eac-48e3-8131-fde2652f6159","ios":"levelo://app?vid=17ce2666-3eac-48e3-8131-fde2652f6159"},"vehicle_type_id":"4","last_reported":1708216578,"current_range_meters":8800,"station_id":"ce4bgjh2rcd13ifvqbg0","pricing_plan_id":"cebpf4jnsgd1na2vs0mg"},{"bike_id":"972f8f75-3d76-46ba-aa8b-a0876f3f937e","system_id":"levelo_inurba_marseille","lat":43.311722,"lon":5.387247,"is_reserved":false,"is_disabled":false,"rental_uris":{"android":"levelo://app?vid=972f8f75-3d76-46ba-aa8b-a0876f3f937e","ios":"levelo://app?vid=972f8f75-3d76-46ba-aa8b-a0876f3f937e"},"vehicle_type_id":"4","last_reported":1708216578,"current_range_meters":27600,"station_id":"ce4bgv12rcd13ifvqcp0","pricing_plan_id":"cebpf4jnsgd1na2vs0mg"},{"bike_id":"623965c0-11af-4b7f-b981-b8135709f5a4","system_id":"levelo_inurba_marseille","lat":43.311722,"lon":5.387247,"is_reserved":false,"is_disabled":false,"rental_uris":{"android":"levelo://app?vid=623965c0-11af-4b7f-b981-b8135709f5a4","ios":"levelo://app?vid=623965c0-11af-4b7f-b981-b8135709f5a4"},"vehicle_type_id":"4","last_reported":1708216578,"current_range_meters":16400,"station_id":"ce4bgv12rcd13ifvqcp0","pricing_plan_id":"cebpf4jnsgd1na2vs0mg"},{"bike_id":"7cee93e9-08a9-47b4-9a1c-f0ff2b1b0671","system_id":"levelo_inurba_marseille","lat":43.311722,"lon":5.387247,"is_reserved":false,"is_disabled":false,"rental_uris":{"android":"levelo://app?vid=7cee93e9-08a9-47b4-9a1c-f0ff2b1b0671","ios":"levelo://app?vid=7cee93e9-08a9-47b4-9a1c-f0ff2b1b0671"},"vehicle_type_id":"4","last_reported":1708216578,"current_range_meters":9600,"station_id":"ce4bgv12rcd13ifvqcp0","pricing_plan_id":"cebpf4jnsgd1na2vs0mg"},{"bike_id":"70fe7047-25f5-4921-82cd-938fed021886","system_id":"levelo_inurba_marseille","lat":43.322872,"lon":5.382756,"is_reserved":false,"is_disabled":false,"rental_uris":{"android":"levelo://app?vid=70fe7047-25f5-4921-82cd-938fed021886","ios":"levelo://app?vid=70fe7047-25f5-4921-82cd-938fed021886"},"vehicle_type_id":"4","last_reported":1708216578,"current_range_meters":20400,"station_id":"ce4bhr12rcd13ifvqhqg","pricing_plan_id":"cebpf4jnsgd1na2vs0mg"},{"bike_id":"9af28949-3abe-4ee4-a57a-c236655c3362","system_id":"levelo_inurba_marseille","lat":43.322872,"lon":5.382756,"is_reserved":false,"is_disabled":false,"rental_uris":{"android":"levelo://app?vid=9af28949-3abe-4ee4-a57a-c236655c3362","ios":"levelo://app?vid=9af28949-3abe-4ee4-a57a-c236655c3362"},"vehicle_type_id":"4","last_reported":1708216578,"current_range_meters":31600,"station_id":"ce4bhr12rcd13ifvqhqg","pricing_plan_id":"cebpf4jnsgd1na2vs0mg"},{"bike_id":"410a532b-f4d9-44b0-bece-5fd8115e2fc4","system_id":"levelo_inurba_marseille","lat":43.322872,"lon":5.382756,"is_reserved":false,"is_disabled":false,"rental_uris":{"android":"levelo://app?vid=410a532b-f4d9-44b0-bece-5fd8115e2fc4","ios":"levelo://app?vid=410a532b-f4d9-44b0-bece-5fd8115e2fc4"},"vehicle_type_id":"4","last_reported":1708216578,"current_range_meters":22400,"station_id":"ce4bhr12rcd13ifvqhqg","pricing_plan_id":"cebpf4jnsgd1na2vs0mg"},{"bike_id":"b58f42dd-c2a4-4306-bd98-b5fd3a8544a8","system_id":"levelo_inurba_marseille","lat":43.297729,"lon":5.371378,"is_reserved":false,"is_disabled":false,"rental_uris":{"android":"levelo://app?vid=b58f42dd-c2a4-4306-bd98-b5fd3a8544a8","ios":"levelo://app?vid=b58f42dd-c2a4-4306-bd98-b5fd3a8544a8"},"vehicle_type_id":"4","last_reported":1708216578,"current_range_meters":20800,"station_id":"ce4bgop2rcd13ifvqc1g","pricing_plan_id":"cebpf4jnsgd1na2vs0mg"},{"bike_id":"d125619a-6ae6-4def-8c67-f1352fae5a27","system_id":"levelo_inurba_marseille","lat":43.32824,"lon":5.36681,"is_reserved":false,"is_disabled":false,"rental_uris":{"android":"levelo://app?vid=d125619a-6ae6-4def-8c67-f1352fae5a27","ios":"levelo://app?vid=d125619a-6ae6-4def-8c67-f1352fae5a27"},"vehicle_type_id":"4","last_reported":1708216578,"current_range_meters":17200,"station_id":"ce4bhs92rcd13ifvqi0g","pricing_plan_id":"cebpf4jnsgd1na2vs0mg"},{"bike_id":"ec21c626-faeb-41e5-9192-4d2bef3ee4d3","system_id":"levelo_inurba_marseille","lat":43.32825,"lon":5.366752,"is_reserved":false,"is_disabled":false,"rental_uris":{"android":"levelo://app?vid=ec21c626-faeb-41e5-9192-4d2bef3ee4d3","ios":"levelo://app?vid=ec21c626-faeb-41e5-9192-4d2bef3ee4d3"},"vehicle_type_id":"4","last_reported":1708216578,"current_range_meters":28800,"station_id":"ce4bhs92rcd13ifvqi0g","pricing_plan_id":"cebpf4jnsgd1na2vs0mg"},{"bike_id":"d166fc8e-23ac-47e2-a19c-22e9c9381843","system_id":"levelo_inurba_marseille","lat":43.328259,"lon":5.366787,"is_reserved":false,"is_disabled":false,"rental_uris":{"android":"levelo://app?vid=d166fc8e-23ac-47e2-a19c-22e9c9381843","ios":"levelo://app?vid=d166fc8e-23ac-47e2-a19c-22e9c9381843"},"vehicle_type_id":"4","last_reported":1708216578,"current_range_meters":30800,"station_id":"ce4bhs92rcd13ifvqi0g","pricing_plan_id":"cebpf4jnsgd1na2vs0mg"},{"bike_id":"b354d40e-f748-45df-b8a4-085ee0f39b31","system_id":"levelo_inurba_marseille","lat":43.32826,"lon":5.36679,"is_reserved":false,"is_disabled":false,"rental_uris":{"android":"levelo://app?vid=b354d40e-f748-45df-b8a4-085ee0f39b31","ios":"levelo://app?vid=b354d40e-f748-45df-b8a4-085ee0f39b31"},"vehicle_type_id":"4","last_reported":1708216578,"current_range_meters":10000,"station_id":"ce4bhs92rcd13ifvqi0g","pricing_plan_id":"cebpf4jnsgd1na2vs0mg"},{"bike_id":"cc924a54-60e4-4421-b12c-5aa0bb659927","system_id":"levelo_inurba_marseille","lat":43.32827,"lon":5.36675,"is_reserved":false,"is_disabled":false,"rental_uris":{"android":"levelo://app?vid=cc924a54-60e4-4421-b12c-5aa0bb659927","ios":"levelo://app?vid=cc924a54-60e4-4421-b12c-5aa0bb659927"},"vehicle_type_id":"4","last_reported":1708216578,"current_range_meters":800,"station_id":"ce4bhs92rcd13ifvqi0g","pricing_plan_id":"cebpf4jnsgd1na2vs0mg"},{"bike_id":"c63f5776-29a6-4124-856b-96d9c7ed370b","system_id":"levelo_inurba_marseille","lat":43.32829,"lon":5.36679,"is_reserved":false,"is_disabled":false,"rental_uris":{"android":"levelo://app?vid=c63f5776-29a6-4124-856b-96d9c7ed370b","ios":"levelo://app?vid=c63f5776-29a6-4124-856b-96d9c7ed370b"},"vehicle_type_id":"4","last_reported":1708216578,"current_range_meters":24000,"station_id":"ce4bhs92rcd13ifvqi0g","pricing_plan_id":"cebpf4jnsgd1na2vs0mg"},{"bike_id":"c9ca704a-95d9-467c-ad5a-5403d53c76ed","system_id":"levelo_inurba_marseille","lat":43.328302,"lon":5.366785,"is_reserved":false,"is_disabled":false,"rental_uris":{"android":"levelo://app?vid=c9ca704a-95d9-467c-ad5a-5403d53c76ed","ios":"levelo://app?vid=c9ca704a-95d9-467c-ad5a-5403d53c76ed"},"vehicle_type_id":"4","last_reported":1708216578,"current_range_meters":6000,"station_id":"ce4bhs92rcd13ifvqi0g","pricing_plan_id":"cebpf4jnsgd1na2vs0mg"},{"bike_id":"45fe6c6c-2569-4aee-9c18-3f3586004f23","system_id":"levelo_inurba_marseille","lat":43.328308,"lon":5.366769,"is_reserved":false,"is_disabled":false,"rental_uris":{"android":"levelo://app?vid=45fe6c6c-2569-4aee-9c18-3f3586004f23","ios":"levelo://app?vid=45fe6c6c-2569-4aee-9c18-3f3586004f23"},"vehicle_type_id":"4","last_reported":1708216578,"current_range_meters":21200,"station_id":"ce4bhs92rcd13ifvqi0g","pricing_plan_id":"cebpf4jnsgd1na2vs0mg"},{"bike_id":"2d896d1d-d2a6-4c07-9563-73bb1db984ce","system_id":"levelo_inurba_marseille","lat":43.32831,"lon":5.36696,"is_reserved":false,"is_disabled":false,"rental_uris":{"android":"levelo://app?vid=2d896d1d-d2a6-4c07-9563-73bb1db984ce","ios":"levelo://app?vid=2d896d1d-d2a6-4c07-9563-73bb1db984ce"},"vehicle_type_id":"4","last_reported":1708216578,"current_range_meters":31200,"station_id":"ce4bhs92rcd13ifvqi0g","pricing_plan_id":"cebpf4jnsgd1na2vs0mg"},{"bike_id":"6a4afac0-6bf5-49e1-bc28-a2022e672910","system_id":"levelo_inurba_marseille","lat":43.32831,"lon":5.36685,"is_reserved":false,"is_disabled":false,"rental_uris":{"android":"levelo://app?vid=6a4afac0-6bf5-49e1-bc28-a2022e672910","ios":"levelo://app?vid=6a4afac0-6bf5-49e1-bc28-a2022e672910"},"vehicle_type_id":"4","last_reported":1708216578,"current_range_meters":24400,"station_id":"ce4bhs92rcd13ifvqi0g","pricing_plan_id":"cebpf4jnsgd1na2vs0mg"},{"bike_id":"55f2d4b0-8802-4bd2-8697-0f012dcc25c1","system_id":"levelo_inurba_marseille","lat":43.32831,"lon":5.36679,"is_reserved":false,"is_disabled":false,"rental_uris":{"android":"levelo://app?vid=55f2d4b0-8802-4bd2-8697-0f012dcc25c1","ios":"levelo://app?vid=55f2d4b0-8802-4bd2-8697-0f012dcc25c1"},"vehicle_type_id":"4","last_reported":1708216578,"current_range_meters":31200,"station_id":"ce4bhs92rcd13ifvqi0g","pricing_plan_id":"cebpf4jnsgd1na2vs0mg"},{"bike_id":"45a7a14e-9b1e-4a1b-ad54-93a32f013a67","system_id":"levelo_inurba_marseille","lat":43.32831,"lon":5.36676,"is_reserved":false,"is_disabled":false,"rental_uris":{"android":"levelo://app?vid=45a7a14e-9b1e-4a1b-ad54-93a32f013a67","ios":"levelo://app?vid=45a7a14e-9b1e-4a1b-ad54-93a32f013a67"},"vehicle_type_id":"4","last_reported":1708216578,"current_range_meters":10400,"station_id":"ce4bhs92rcd13ifvqi0g","pricing_plan_id":"cebpf4jnsgd1na2vs0mg"},{"bike_id":"798e1c77-cdb6-49fb-b2e4-2a646e449b0a","system_id":"levelo_inurba_marseille","lat":43.328371,"lon":5.366909,"is_reserved":false,"is_disabled":false,"rental_uris":{"android":"levelo://app?vid=798e1c77-cdb6-49fb-b2e4-2a646e449b0a","ios":"levelo://app?vid=798e1c77-cdb6-49fb-b2e4-2a646e449b0a"},"vehicle_type_id":"4","last_reported":1708216578,"current_range_meters":4400,"station_id":"ce4bhs92rcd13ifvqi0g","pricing_plan_id":"cebpf4jnsgd1na2vs0mg"},{"bike_id":"b1a6d03f-e2ff-45bb-b890-788276a09a82","system_id":"levelo_inurba_marseille","lat":43.328314,"lon":5.36684,"is_reserved":false,"is_disabled":false,"rental_uris":{"android":"levelo://app?vid=b1a6d03f-e2ff-45bb-b890-788276a09a82","ios":"levelo://app?vid=b1a6d03f-e2ff-45bb-b890-788276a09a82"},"vehicle_type_id":"4","last_reported":1708216578,"current_range_meters":27600,"station_id":"ce4bhs92rcd13ifvqi0g","pricing_plan_id":"cebpf4jnsgd1na2vs0mg"},{"bike_id":"d059372d-713e-4306-a0dc-ef5b2b5ad059","system_id":"levelo_inurba_marseille","lat":43.32832,"lon":5.36677,"is_reserved":false,"is_disabled":false,"rental_uris":{"android":"levelo://app?vid=d059372d-713e-4306-a0dc-ef5b2b5ad059","ios":"levelo://app?vid=d059372d-713e-4306-a0dc-ef5b2b5ad059"},"vehicle_type_id":"4","last_reported":1708216578,"current_range_meters":20800,"station_id":"ce4bhs92rcd13ifvqi0g","pricing_plan_id":"cebpf4jnsgd1na2vs0mg"},{"bike_id":"2459963a-9a41-477a-9f46-310730d184fe","system_id":"levelo_inurba_marseille","lat":43.32832,"lon":5.36673,"is_reserved":false,"is_disabled":false,"rental_uris":{"android":"levelo://app?vid=2459963a-9a41-477a-9f46-310730d184fe","ios":"levelo://app?vid=2459963a-9a41-477a-9f46-310730d184fe"},"vehicle_type_id":"4","last_reported":1708216578,"current_range_meters":16400,"station_id":"ce4bhs92rcd13ifvqi0g","pricing_plan_id":"cebpf4jnsgd1na2vs0mg"},{"bike_id":"b031e2a8-f95e-416d-921a-a5e3c4c2d8cb","system_id":"levelo_inurba_marseille","lat":43.297163,"lon":5.365866,"is_reserved":false,"is_disabled":false,"rental_uris":{"android":"levelo://app?vid=b031e2a8-f95e-416d-921a-a5e3c4c2d8cb","ios":"levelo://app?vid=b031e2a8-f95e-416d-921a-a5e3c4c2d8cb"},"vehicle_type_id":"4","last_reported":1708216578,"current_range_meters":27200,"station_id":"ce4bgn12rcd13ifvqbt0","pricing_plan_id":"cebpf4jnsgd1na2vs0mg"},{"bike_id":"3ce3bf05-0e26-4ba4-9a11-4781ff3d0eb6","system_id":"levelo_inurba_marseille","lat":43.328329,"lon":5.366734,"is_reserved":false,"is_disabled":false,"rental_uris":{"android":"levelo://app?vid=3ce3bf05-0e26-4ba4-9a11-4781ff3d0eb6","ios":"levelo://app?vid=3ce3bf05-0e26-4ba4-9a11-4781ff3d0eb6"},"vehicle_type_id":"4","last_reported":1708216578,"current_range_meters":2000,"station_id":"ce4bhs92rcd13ifvqi0g","pricing_plan_id":"cebpf4jnsgd1na2vs0mg"},{"bike_id":"5195dc94-0b55-41c8-9198-580992dd67c5","system_id":"levelo_inurba_marseille","lat":43.32833,"lon":5.36669,"is_reserved":false,"is_disabled":false,"rental_uris":{"android":"levelo://app?vid=5195dc94-0b55-41c8-9198-580992dd67c5","ios":"levelo://app?vid=5195dc94-0b55-41c8-9198-580992dd67c5"},"vehicle_type_id":"4","last_reported":1708216578,"current_range_meters":19200,"station_id":"ce4bhs92rcd13ifvqi0g","pricing_plan_id":"cebpf4jnsgd1na2vs0mg"},{"bike_id":"fcbb72e3-aeee-4031-b1db-dc05c41736e9","system_id":"levelo_inurba_marseille","lat":43.328347,"lon":5.36689,"is_reserved":false,"is_disabled":false,"rental_uris":{"android":"levelo://app?vid=fcbb72e3-aeee-4031-b1db-dc05c41736e9","ios":"levelo://app?vid=fcbb72e3-aeee-4031-b1db-dc05c41736e9"},"vehicle_type_id":"4","last_reported":1708216578,"current_range_meters":12400,"station_id":"ce4bhs92rcd13ifvqi0g","pricing_plan_id":"cebpf4jnsgd1na2vs0mg"},{"bike_id":"4858fa03-d21d-48b2-a63e-a5500b96c079","system_id":"levelo_inurba_marseille","lat":43.328355,"lon":5.366723,"is_reserved":false,"is_disabled":false,"rental_uris":{"android":"levelo://app?vid=4858fa03-d21d-48b2-a63e-a5500b96c079","ios":"levelo://app?vid=4858fa03-d21d-48b2-a63e-a5500b96c079"},"vehicle_type_id":"4","last_reported":1708216578,"current_range_meters":400,"station_id":"ce4bhs92rcd13ifvqi0g","pricing_plan_id":"cebpf4jnsgd1na2vs0mg"},{"bike_id":"0c35a0a7-ef87-411a-89ed-fbe37a1a4729","system_id":"levelo_inurba_marseille","lat":43.328366,"lon":5.366916,"is_reserved":false,"is_disabled":false,"rental_uris":{"android":"levelo://app?vid=0c35a0a7-ef87-411a-89ed-fbe37a1a4729","ios":"levelo://app?vid=0c35a0a7-ef87-411a-89ed-fbe37a1a4729"},"vehicle_type_id":"4","last_reported":1708216578,"current_range_meters":25600,"station_id":"ce4bhs92rcd13ifvqi0g","pricing_plan_id":"cebpf4jnsgd1na2vs0mg"},{"bike_id":"3833ec15-b081-4b20-84c5-72daf8aa7006","system_id":"levelo_inurba_marseille","lat":43.32838,"lon":5.36678,"is_reserved":false,"is_disabled":false,"rental_uris":{"android":"levelo://app?vid=3833ec15-b081-4b20-84c5-72daf8aa7006","ios":"levelo://app?vid=3833ec15-b081-4b20-84c5-72daf8aa7006"},"vehicle_type_id":"4","last_reported":1708216578,"current_range_meters":20400,"station_id":"ce4bhs92rcd13ifvqi0g","pricing_plan_id":"cebpf4jnsgd1na2vs0mg"},{"bike_id":"0185cc8c-68d9-461a-8dce-0e1684ce5407","system_id":"levelo_inurba_marseille","lat":43.297163,"lon":5.365866,"is_reserved":false,"is_disabled":false,"rental_uris":{"android":"levelo://app?vid=0185cc8c-68d9-461a-8dce-0e1684ce5407","ios":"levelo://app?vid=0185cc8c-68d9-461a-8dce-0e1684ce5407"},"vehicle_type_id":"4","last_reported":1708216578,"current_range_meters":24400,"station_id":"ce4bgn12rcd13ifvqbt0","pricing_plan_id":"cebpf4jnsgd1na2vs0mg"},{"bike_id":"7966e856-de25-4da6-9ba5-6386a3eacc09","system_id":"levelo_inurba_marseille","lat":43.297163,"lon":5.365866,"is_reserved":false,"is_disabled":false,"rental_uris":{"android":"levelo://app?vid=7966e856-de25-4da6-9ba5-6386a3eacc09","ios":"levelo://app?vid=7966e856-de25-4da6-9ba5-6386a3eacc09"},"vehicle_type_id":"4","last_reported":1708216578,"current_range_meters":15600,"station_id":"ce4bgn12rcd13ifvqbt0","pricing_plan_id":"cebpf4jnsgd1na2vs0mg"},{"bike_id":"12a16138-b2b0-4ba2-8f20-75048b431114","system_id":"levelo_inurba_marseille","lat":43.2968,"lon":5.37291,"is_reserved":false,"is_disabled":false,"rental_uris":{"android":"levelo://app?vid=12a16138-b2b0-4ba2-8f20-75048b431114","ios":"levelo://app?vid=12a16138-b2b0-4ba2-8f20-75048b431114"},"vehicle_type_id":"4","last_reported":1708216578,"current_range_meters":16800,"station_id":"ce4bgk12rcd13ifvqbj0","pricing_plan_id":"cebpf4jnsgd1na2vs0mg"},{"bike_id":"27760147-9042-4545-b3df-ebb52af19729","system_id":"levelo_inurba_marseille","lat":43.295913,"lon":5.367983,"is_reserved":false,"is_disabled":false,"rental_uris":{"android":"levelo://app?vid=27760147-9042-4545-b3df-ebb52af19729","ios":"levelo://app?vid=27760147-9042-4545-b3df-ebb52af19729"},"vehicle_type_id":"4","last_reported":1708216578,"current_range_meters":4800,"station_id":"ce4bgph2rcd13ifvqc2g","pricing_plan_id":"cebpf4jnsgd1na2vs0mg"},{"bike_id":"0f87a32e-2149-4990-8e81-3c71a17fa4ec","system_id":"levelo_inurba_marseille","lat":43.29573,"lon":5.367355,"is_reserved":false,"is_disabled":false,"rental_uris":{"android":"levelo://app?vid=0f87a32e-2149-4990-8e81-3c71a17fa4ec","ios":"levelo://app?vid=0f87a32e-2149-4990-8e81-3c71a17fa4ec"},"vehicle_type_id":"4","last_reported":1708216578,"current_range_meters":15200,"station_id":"ce4bgph2rcd13ifvqc2g","pricing_plan_id":"cebpf4jnsgd1na2vs0mg"},{"bike_id":"3c4beade-3015-43c2-b5b3-b7dd0643dc5c","system_id":"levelo_inurba_marseille","lat":43.297337,"lon":5.376897,"is_reserved":false,"is_disabled":false,"rental_uris":{"android":"levelo://app?vid=3c4beade-3015-43c2-b5b3-b7dd0643dc5c","ios":"levelo://app?vid=3c4beade-3015-43c2-b5b3-b7dd0643dc5c"},"vehicle_type_id":"4","last_reported":1708216578,"current_range_meters":10800,"station_id":"ce4bgkh2rcd13ifvqbl0","pricing_plan_id":"cebpf4jnsgd1na2vs0mg"},{"bike_id":"f77b416d-4c99-4e00-b9d7-afe6d62a0cca","system_id":"levelo_inurba_marseille","lat":43.299028,"lon":5.381509,"is_reserved":false,"is_disabled":false,"rental_uris":{"android":"levelo://app?vid=f77b416d-4c99-4e00-b9d7-afe6d62a0cca","ios":"levelo://app?vid=f77b416d-4c99-4e00-b9d7-afe6d62a0cca"},"vehicle_type_id":"4","last_reported":1708216578,"current_range_meters":26400,"station_id":"ce4bgj12rcd13ifvqbc0","pricing_plan_id":"cebpf4jnsgd1na2vs0mg"},{"bike_id":"b490a38b-3fd6-428f-9183-5a4b8b6061c1","system_id":"levelo_inurba_marseille","lat":43.299028,"lon":5.381509,"is_reserved":false,"is_disabled":false,"rental_uris":{"android":"levelo://app?vid=b490a38b-3fd6-428f-9183-5a4b8b6061c1","ios":"levelo://app?vid=b490a38b-3fd6-428f-9183-5a4b8b6061c1"},"vehicle_type_id":"4","last_reported":1708216578,"current_range_meters":9600,"station_id":"ce4bgj12rcd13ifvqbc0","pricing_plan_id":"cebpf4jnsgd1na2vs0mg"},{"bike_id":"07469906-f7b4-409f-939d-b1f450216119","system_id":"levelo_inurba_marseille","lat":43.309589,"lon":5.390258,"is_reserved":false,"is_disabled":false,"rental_uris":{"android":"levelo://app?vid=07469906-f7b4-409f-939d-b1f450216119","ios":"levelo://app?vid=07469906-f7b4-409f-939d-b1f450216119"},"vehicle_type_id":"4","last_reported":1708216578,"current_range_meters":2000,"station_id":"ce4bgup2rcd13ifvqco0","pricing_plan_id":"cebpf4jnsgd1na2vs0mg"},{"bike_id":"9bab5943-be9b-4115-904f-df1f6bf9c5ff","system_id":"levelo_inurba_marseille","lat":43.309589,"lon":5.390258,"is_reserved":false,"is_disabled":false,"rental_uris":{"android":"levelo://app?vid=9bab5943-be9b-4115-904f-df1f6bf9c5ff","ios":"levelo://app?vid=9bab5943-be9b-4115-904f-df1f6bf9c5ff"},"vehicle_type_id":"4","last_reported":1708216578,"current_range_meters":24000,"station_id":"ce4bgup2rcd13ifvqco0","pricing_plan_id":"cebpf4jnsgd1na2vs0mg"},{"bike_id":"cfbc9077-eaa0-4462-bc4f-da925a742e4b","system_id":"levelo_inurba_marseille","lat":43.30945,"lon":5.39032,"is_reserved":false,"is_disabled":false,"rental_uris":{"android":"levelo://app?vid=cfbc9077-eaa0-4462-bc4f-da925a742e4b","ios":"levelo://app?vid=cfbc9077-eaa0-4462-bc4f-da925a742e4b"},"vehicle_type_id":"4","last_reported":1708216578,"current_range_meters":0,"station_id":"ce4bgup2rcd13ifvqco0","pricing_plan_id":"cebpf4jnsgd1na2vs0mg"},{"bike_id":"046d9db7-0c15-45d1-ae17-0b79ffd530a6","system_id":"levelo_inurba_marseille","lat":43.309552,"lon":5.39043,"is_reserved":false,"is_disabled":false,"rental_uris":{"android":"levelo://app?vid=046d9db7-0c15-45d1-ae17-0b79ffd530a6","ios":"levelo://app?vid=046d9db7-0c15-45d1-ae17-0b79ffd530a6"},"vehicle_type_id":"4","last_reported":1708216578,"current_range_meters":7600,"station_id":"ce4bgup2rcd13ifvqco0","pricing_plan_id":"cebpf4jnsgd1na2vs0mg"},{"bike_id":"d2cd8de2-5f29-417f-8ce6-9cda75b73476","system_id":"levelo_inurba_marseille","lat":43.309589,"lon":5.390258,"is_reserved":false,"is_disabled":false,"rental_uris":{"android":"levelo://app?vid=d2cd8de2-5f29-417f-8ce6-9cda75b73476","ios":"levelo://app?vid=d2cd8de2-5f29-417f-8ce6-9cda75b73476"},"vehicle_type_id":"4","last_reported":1708216578,"current_range_meters":24000,"station_id":"ce4bgup2rcd13ifvqco0","pricing_plan_id":"cebpf4jnsgd1na2vs0mg"},{"bike_id":"ed87d69f-71e3-4a80-a6a0-6a1355afd957","system_id":"levelo_inurba_marseille","lat":43.31759,"lon":5.39014,"is_reserved":false,"is_disabled":false,"rental_uris":{"android":"levelo://app?vid=ed87d69f-71e3-4a80-a6a0-6a1355afd957","ios":"levelo://app?vid=ed87d69f-71e3-4a80-a6a0-6a1355afd957"},"vehicle_type_id":"4","last_reported":1708216578,"current_range_meters":8800,"station_id":"ce4bhqp2rcd13ifvqhng","pricing_plan_id":"cebpf4jnsgd1na2vs0mg"},{"bike_id":"285e59d9-f908-4685-8bd6-fcd9b313a0db","system_id":"levelo_inurba_marseille","lat":43.317557,"lon":5.390173,"is_reserved":false,"is_disabled":false,"rental_uris":{"android":"levelo://app?vid=285e59d9-f908-4685-8bd6-fcd9b313a0db","ios":"levelo://app?vid=285e59d9-f908-4685-8bd6-fcd9b313a0db"},"vehicle_type_id":"4","last_reported":1708216578,"current_range_meters":19600,"station_id":"ce4bhqp2rcd13ifvqhng","pricing_plan_id":"cebpf4jnsgd1na2vs0mg"},{"bike_id":"b3dcb9ba-bf07-48c1-aada-2fbdb761a352","system_id":"levelo_inurba_marseille","lat":43.317557,"lon":5.390173,"is_reserved":false,"is_disabled":false,"rental_uris":{"android":"levelo://app?vid=b3dcb9ba-bf07-48c1-aada-2fbdb761a352","ios":"levelo://app?vid=b3dcb9ba-bf07-48c1-aada-2fbdb761a352"},"vehicle_type_id":"4","last_reported":1708216578,"current_range_meters":31600,"station_id":"ce4bhqp2rcd13ifvqhng","pricing_plan_id":"cebpf4jnsgd1na2vs0mg"},{"bike_id":"e71aad95-e785-4fac-9d74-e2b56468f77a","system_id":"levelo_inurba_marseille","lat":43.317557,"lon":5.390173,"is_reserved":false,"is_disabled":false,"rental_uris":{"android":"levelo://app?vid=e71aad95-e785-4fac-9d74-e2b56468f77a","ios":"levelo://app?vid=e71aad95-e785-4fac-9d74-e2b56468f77a"},"vehicle_type_id":"4","last_reported":1708216578,"current_range_meters":30400,"station_id":"ce4bhqp2rcd13ifvqhng","pricing_plan_id":"cebpf4jnsgd1na2vs0mg"},{"bike_id":"71c417ba-5d01-44d6-b2b1-27e959f8f6fb","system_id":"levelo_inurba_marseille","lat":43.317557,"lon":5.390173,"is_reserved":false,"is_disabled":false,"rental_uris":{"android":"levelo://app?vid=71c417ba-5d01-44d6-b2b1-27e959f8f6fb","ios":"levelo://app?vid=71c417ba-5d01-44d6-b2b1-27e959f8f6fb"},"vehicle_type_id":"4","last_reported":1708216578,"current_range_meters":27600,"station_id":"ce4bhqp2rcd13ifvqhng","pricing_plan_id":"cebpf4jnsgd1na2vs0mg"},{"bike_id":"44cbb8e0-0bfc-4f58-8786-f1c9e977d900","system_id":"levelo_inurba_marseille","lat":43.317557,"lon":5.390173,"is_reserved":false,"is_disabled":false,"rental_uris":{"android":"levelo://app?vid=44cbb8e0-0bfc-4f58-8786-f1c9e977d900","ios":"levelo://app?vid=44cbb8e0-0bfc-4f58-8786-f1c9e977d900"},"vehicle_type_id":"4","last_reported":1708216578,"current_range_meters":16000,"station_id":"ce4bhqp2rcd13ifvqhng","pricing_plan_id":"cebpf4jnsgd1na2vs0mg"},{"bike_id":"5293f137-5da7-42b8-87bc-573db223f35d","system_id":"levelo_inurba_marseille","lat":43.29582,"lon":5.37518,"is_reserved":false,"is_disabled":false,"rental_uris":{"android":"levelo://app?vid=5293f137-5da7-42b8-87bc-573db223f35d","ios":"levelo://app?vid=5293f137-5da7-42b8-87bc-573db223f35d"},"vehicle_type_id":"4","last_reported":1708216578,"current_range_meters":19600,"station_id":"ce4bgh92rcd13ifvqb50","pricing_plan_id":"cebpf4jnsgd1na2vs0mg"},{"bike_id":"c54dbb7b-5153-4a69-9f1c-205b1a4bccaf","system_id":"levelo_inurba_marseille","lat":43.304278,"lon":5.388868,"is_reserved":false,"is_disabled":false,"rental_uris":{"android":"levelo://app?vid=c54dbb7b-5153-4a69-9f1c-205b1a4bccaf","ios":"levelo://app?vid=c54dbb7b-5153-4a69-9f1c-205b1a4bccaf"},"vehicle_type_id":"4","last_reported":1708216578,"current_range_meters":5200,"station_id":"ce4bgk12rcd13ifvqbi0","pricing_plan_id":"cebpf4jnsgd1na2vs0mg"},{"bike_id":"fc9c8770-e05a-4506-83da-3b108b883a84","system_id":"levelo_inurba_marseille","lat":43.304264,"lon":5.388786,"is_reserved":false,"is_disabled":false,"rental_uris":{"android":"levelo://app?vid=fc9c8770-e05a-4506-83da-3b108b883a84","ios":"levelo://app?vid=fc9c8770-e05a-4506-83da-3b108b883a84"},"vehicle_type_id":"4","last_reported":1708216578,"current_range_meters":6800,"station_id":"ce4bgk12rcd13ifvqbi0","pricing_plan_id":"cebpf4jnsgd1na2vs0mg"},{"bike_id":"be4beab3-606e-4d86-8de8-b14f9a6a5c3e","system_id":"levelo_inurba_marseille","lat":43.30442,"lon":5.38891,"is_reserved":false,"is_disabled":false,"rental_uris":{"android":"levelo://app?vid=be4beab3-606e-4d86-8de8-b14f9a6a5c3e","ios":"levelo://app?vid=be4beab3-606e-4d86-8de8-b14f9a6a5c3e"},"vehicle_type_id":"4","last_reported":1708216578,"current_range_meters":4400,"station_id":"ce4bgk12rcd13ifvqbi0","pricing_plan_id":"cebpf4jnsgd1na2vs0mg"},{"bike_id":"70364fd0-4f5e-43ff-8333-13ae716fdd53","system_id":"levelo_inurba_marseille","lat":43.30436,"lon":5.38889,"is_reserved":false,"is_disabled":false,"rental_uris":{"android":"levelo://app?vid=70364fd0-4f5e-43ff-8333-13ae716fdd53","ios":"levelo://app?vid=70364fd0-4f5e-43ff-8333-13ae716fdd53"},"vehicle_type_id":"4","last_reported":1708216578,"current_range_meters":7600,"station_id":"","pricing_plan_id":"cebpf4jnsgd1na2vs0mg"},{"bike_id":"a0dc42bc-a7af-4bc4-aa74-f240367d81c3","system_id":"levelo_inurba_marseille","lat":43.30427,"lon":5.38883,"is_reserved":false,"is_disabled":false,"rental_uris":{"android":"levelo://app?vid=a0dc42bc-a7af-4bc4-aa74-f240367d81c3","ios":"levelo://app?vid=a0dc42bc-a7af-4bc4-aa74-f240367d81c3"},"vehicle_type_id":"4","last_reported":1708216578,"current_range_meters":800,"station_id":"ce4bgk12rcd13ifvqbi0","pricing_plan_id":"cebpf4jnsgd1na2vs0mg"},{"bike_id":"ba218857-884c-417c-a22f-649dd993d974","system_id":"levelo_inurba_marseille","lat":43.30436,"lon":5.3889,"is_reserved":false,"is_disabled":false,"rental_uris":{"android":"levelo://app?vid=ba218857-884c-417c-a22f-649dd993d974","ios":"levelo://app?vid=ba218857-884c-417c-a22f-649dd993d974"},"vehicle_type_id":"4","last_reported":1708216578,"current_range_meters":16400,"station_id":"ce4bgk12rcd13ifvqbi0","pricing_plan_id":"cebpf4jnsgd1na2vs0mg"},{"bike_id":"a3f96979-1269-404e-914b-dcb7fa3dbc91","system_id":"levelo_inurba_marseille","lat":43.30426,"lon":5.38884,"is_reserved":false,"is_disabled":false,"rental_uris":{"android":"levelo://app?vid=a3f96979-1269-404e-914b-dcb7fa3dbc91","ios":"levelo://app?vid=a3f96979-1269-404e-914b-dcb7fa3dbc91"},"vehicle_type_id":"4","last_reported":1708216578,"current_range_meters":21600,"station_id":"ce4bgk12rcd13ifvqbi0","pricing_plan_id":"cebpf4jnsgd1na2vs0mg"},{"bike_id":"21693d8d-a7bf-4146-a354-fdba6944cf9b","system_id":"levelo_inurba_marseille","lat":43.30426,"lon":5.38884,"is_reserved":false,"is_disabled":false,"rental_uris":{"android":"levelo://app?vid=21693d8d-a7bf-4146-a354-fdba6944cf9b","ios":"levelo://app?vid=21693d8d-a7bf-4146-a354-fdba6944cf9b"},"vehicle_type_id":"4","last_reported":1708216578,"current_range_meters":26400,"station_id":"ce4bgk12rcd13ifvqbi0","pricing_plan_id":"cebpf4jnsgd1na2vs0mg"},{"bike_id":"73e8c5ae-7bb5-4386-b654-e5edef8b5cca","system_id":"levelo_inurba_marseille","lat":43.30431,"lon":5.38888,"is_reserved":false,"is_disabled":false,"rental_uris":{"android":"levelo://app?vid=73e8c5ae-7bb5-4386-b654-e5edef8b5cca","ios":"levelo://app?vid=73e8c5ae-7bb5-4386-b654-e5edef8b5cca"},"vehicle_type_id":"4","last_reported":1708216578,"current_range_meters":14000,"station_id":"ce4bgk12rcd13ifvqbi0","pricing_plan_id":"cebpf4jnsgd1na2vs0mg"},{"bike_id":"5dd237aa-b5e1-4bcf-a904-09adbeaaaccb","system_id":"levelo_inurba_marseille","lat":43.304278,"lon":5.388868,"is_reserved":false,"is_disabled":false,"rental_uris":{"android":"levelo://app?vid=5dd237aa-b5e1-4bcf-a904-09adbeaaaccb","ios":"levelo://app?vid=5dd237aa-b5e1-4bcf-a904-09adbeaaaccb"},"vehicle_type_id":"4","last_reported":1708216578,"current_range_meters":23600,"station_id":"ce4bgk12rcd13ifvqbi0","pricing_plan_id":"cebpf4jnsgd1na2vs0mg"},{"bike_id":"a7738896-ddec-491d-8072-e701901114ec","system_id":"levelo_inurba_marseille","lat":43.30436,"lon":5.38892,"is_reserved":false,"is_disabled":false,"rental_uris":{"android":"levelo://app?vid=a7738896-ddec-491d-8072-e701901114ec","ios":"levelo://app?vid=a7738896-ddec-491d-8072-e701901114ec"},"vehicle_type_id":"4","last_reported":1708216578,"current_range_meters":17600,"station_id":"ce4bgk12rcd13ifvqbi0","pricing_plan_id":"cebpf4jnsgd1na2vs0mg"},{"bike_id":"dcabaf81-04a2-42c0-bc5c-999817b5fb53","system_id":"levelo_inurba_marseille","lat":43.30428,"lon":5.38887,"is_reserved":false,"is_disabled":false,"rental_uris":{"android":"levelo://app?vid=dcabaf81-04a2-42c0-bc5c-999817b5fb53","ios":"levelo://app?vid=dcabaf81-04a2-42c0-bc5c-999817b5fb53"},"vehicle_type_id":"4","last_reported":1708216578,"current_range_meters":4800,"station_id":"ce4bgk12rcd13ifvqbi0","pricing_plan_id":"cebpf4jnsgd1na2vs0mg"},{"bike_id":"30feaa37-fe7a-45ff-af3e-89f688174a28","system_id":"levelo_inurba_marseille","lat":43.304274,"lon":5.388873,"is_reserved":false,"is_disabled":false,"rental_uris":{"android":"levelo://app?vid=30feaa37-fe7a-45ff-af3e-89f688174a28","ios":"levelo://app?vid=30feaa37-fe7a-45ff-af3e-89f688174a28"},"vehicle_type_id":"4","last_reported":1708216578,"current_range_meters":23200,"station_id":"ce4bgk12rcd13ifvqbi0","pricing_plan_id":"cebpf4jnsgd1na2vs0mg"},{"bike_id":"68319549-4edd-4cab-a0fe-5314868a0616","system_id":"levelo_inurba_marseille","lat":43.304218,"lon":5.388886,"is_reserved":false,"is_disabled":false,"rental_uris":{"android":"levelo://app?vid=68319549-4edd-4cab-a0fe-5314868a0616","ios":"levelo://app?vid=68319549-4edd-4cab-a0fe-5314868a0616"},"vehicle_type_id":"4","last_reported":1708216578,"current_range_meters":9200,"station_id":"ce4bgk12rcd13ifvqbi0","pricing_plan_id":"cebpf4jnsgd1na2vs0mg"},{"bike_id":"ec919abf-c9c8-48fa-887b-0a6d4c2c0e27","system_id":"levelo_inurba_marseille","lat":43.30424,"lon":5.38891,"is_reserved":false,"is_disabled":false,"rental_uris":{"android":"levelo://app?vid=ec919abf-c9c8-48fa-887b-0a6d4c2c0e27","ios":"levelo://app?vid=ec919abf-c9c8-48fa-887b-0a6d4c2c0e27"},"vehicle_type_id":"4","last_reported":1708216578,"current_range_meters":16000,"station_id":"ce4bgk12rcd13ifvqbi0","pricing_plan_id":"cebpf4jnsgd1na2vs0mg"},{"bike_id":"8e6d867b-126a-496b-9a3f-8822a5be4b3e","system_id":"levelo_inurba_marseille","lat":43.2953,"lon":5.37505,"is_reserved":false,"is_disabled":false,"rental_uris":{"android":"levelo://app?vid=8e6d867b-126a-496b-9a3f-8822a5be4b3e","ios":"levelo://app?vid=8e6d867b-126a-496b-9a3f-8822a5be4b3e"},"vehicle_type_id":"4","last_reported":1708216578,"current_range_meters":15200,"station_id":"ce4bgkp2rcd13ifvqbmg","pricing_plan_id":"cebpf4jnsgd1na2vs0mg"},{"bike_id":"9dedf0c3-8410-4b6b-ad6b-6226f2e382b4","system_id":"levelo_inurba_marseille","lat":43.299717,"lon":5.384845,"is_reserved":false,"is_disabled":false,"rental_uris":{"android":"levelo://app?vid=9dedf0c3-8410-4b6b-ad6b-6226f2e382b4","ios":"levelo://app?vid=9dedf0c3-8410-4b6b-ad6b-6226f2e382b4"},"vehicle_type_id":"4","last_reported":1708216578,"current_range_meters":24400,"station_id":"ce4bgj92rcd13ifvqbd0","pricing_plan_id":"cebpf4jnsgd1na2vs0mg"},{"bike_id":"7cc81553-d252-4e9d-9630-de74eb0c5197","system_id":"levelo_inurba_marseille","lat":43.299724,"lon":5.384848,"is_reserved":false,"is_disabled":false,"rental_uris":{"android":"levelo://app?vid=7cc81553-d252-4e9d-9630-de74eb0c5197","ios":"levelo://app?vid=7cc81553-d252-4e9d-9630-de74eb0c5197"},"vehicle_type_id":"4","last_reported":1708216578,"current_range_meters":0,"station_id":"ce4bgj92rcd13ifvqbd0","pricing_plan_id":"cebpf4jnsgd1na2vs0mg"},{"bike_id":"9de8d1d5-2098-46a1-b33c-336a4d62ca33","system_id":"levelo_inurba_marseille","lat":43.30135,"lon":5.387707,"is_reserved":false,"is_disabled":false,"rental_uris":{"android":"levelo://app?vid=9de8d1d5-2098-46a1-b33c-336a4d62ca33","ios":"levelo://app?vid=9de8d1d5-2098-46a1-b33c-336a4d62ca33"},"vehicle_type_id":"4","last_reported":1708216578,"current_range_meters":12400,"station_id":"ce4bh9p2rcd13ifvqec0","pricing_plan_id":"cebpf4jnsgd1na2vs0mg"},{"bike_id":"13401729-ae07-4edb-ac21-d9d61a6255c0","system_id":"levelo_inurba_marseille","lat":43.323604,"lon":5.388853,"is_reserved":false,"is_disabled":false,"rental_uris":{"android":"levelo://app?vid=13401729-ae07-4edb-ac21-d9d61a6255c0","ios":"levelo://app?vid=13401729-ae07-4edb-ac21-d9d61a6255c0"},"vehicle_type_id":"4","last_reported":1708216578,"current_range_meters":28400,"station_id":"ce4bhqp2rcd13ifvqhog","pricing_plan_id":"cebpf4jnsgd1na2vs0mg"},{"bike_id":"9d993f1a-927d-4286-879b-ac09dc01bad2","system_id":"levelo_inurba_marseille","lat":43.32367,"lon":5.388836,"is_reserved":false,"is_disabled":false,"rental_uris":{"android":"levelo://app?vid=9d993f1a-927d-4286-879b-ac09dc01bad2","ios":"levelo://app?vid=9d993f1a-927d-4286-879b-ac09dc01bad2"},"vehicle_type_id":"4","last_reported":1708216578,"current_range_meters":2800,"station_id":"ce4bhqp2rcd13ifvqhog","pricing_plan_id":"cebpf4jnsgd1na2vs0mg"},{"bike_id":"85b7d3f5-0fa2-43f3-a410-8e41ce1cabfc","system_id":"levelo_inurba_marseille","lat":43.3237,"lon":5.38884,"is_reserved":false,"is_disabled":false,"rental_uris":{"android":"levelo://app?vid=85b7d3f5-0fa2-43f3-a410-8e41ce1cabfc","ios":"levelo://app?vid=85b7d3f5-0fa2-43f3-a410-8e41ce1cabfc"},"vehicle_type_id":"4","last_reported":1708216578,"current_range_meters":6000,"station_id":"ce4bhqp2rcd13ifvqhog","pricing_plan_id":"cebpf4jnsgd1na2vs0mg"},{"bike_id":"0098d705-b974-41dc-a726-5e5b8f8af6cf","system_id":"levelo_inurba_marseille","lat":43.32367,"lon":5.388836,"is_reserved":false,"is_disabled":false,"rental_uris":{"android":"levelo://app?vid=0098d705-b974-41dc-a726-5e5b8f8af6cf","ios":"levelo://app?vid=0098d705-b974-41dc-a726-5e5b8f8af6cf"},"vehicle_type_id":"4","last_reported":1708216578,"current_range_meters":15200,"station_id":"ce4bhqp2rcd13ifvqhog","pricing_plan_id":"cebpf4jnsgd1na2vs0mg"},{"bike_id":"097fbc68-0e12-4cda-a32c-f9f7e74ee0ed","system_id":"levelo_inurba_marseille","lat":43.323699,"lon":5.388859,"is_reserved":false,"is_disabled":false,"rental_uris":{"android":"levelo://app?vid=097fbc68-0e12-4cda-a32c-f9f7e74ee0ed","ios":"levelo://app?vid=097fbc68-0e12-4cda-a32c-f9f7e74ee0ed"},"vehicle_type_id":"4","last_reported":1708216578,"current_range_meters":4400,"station_id":"ce4bhqp2rcd13ifvqhog","pricing_plan_id":"cebpf4jnsgd1na2vs0mg"},{"bike_id":"54047e98-901f-4500-adfe-e783d9ac5520","system_id":"levelo_inurba_marseille","lat":43.32368,"lon":5.38889,"is_reserved":false,"is_disabled":false,"rental_uris":{"android":"levelo://app?vid=54047e98-901f-4500-adfe-e783d9ac5520","ios":"levelo://app?vid=54047e98-901f-4500-adfe-e783d9ac5520"},"vehicle_type_id":"4","last_reported":1708216578,"current_range_meters":31200,"station_id":"ce4bhqp2rcd13ifvqhog","pricing_plan_id":"cebpf4jnsgd1na2vs0mg"},{"bike_id":"9d871f50-0327-4348-a9da-d10b72178825","system_id":"levelo_inurba_marseille","lat":43.32368,"lon":5.38889,"is_reserved":false,"is_disabled":false,"rental_uris":{"android":"levelo://app?vid=9d871f50-0327-4348-a9da-d10b72178825","ios":"levelo://app?vid=9d871f50-0327-4348-a9da-d10b72178825"},"vehicle_type_id":"4","last_reported":1708216578,"current_range_meters":22000,"station_id":"ce4bhqp2rcd13ifvqhog","pricing_plan_id":"cebpf4jnsgd1na2vs0mg"},{"bike_id":"e9fb838e-b288-41f7-8b95-04552e228ee4","system_id":"levelo_inurba_marseille","lat":43.32368,"lon":5.38889,"is_reserved":false,"is_disabled":false,"rental_uris":{"android":"levelo://app?vid=e9fb838e-b288-41f7-8b95-04552e228ee4","ios":"levelo://app?vid=e9fb838e-b288-41f7-8b95-04552e228ee4"},"vehicle_type_id":"4","last_reported":1708216578,"current_range_meters":22800,"station_id":"ce4bhqp2rcd13ifvqhog","pricing_plan_id":"cebpf4jnsgd1na2vs0mg"},{"bike_id":"04bef4fc-f501-41bd-9104-a149c6db62aa","system_id":"levelo_inurba_marseille","lat":43.32366,"lon":5.38891,"is_reserved":false,"is_disabled":false,"rental_uris":{"android":"levelo://app?vid=04bef4fc-f501-41bd-9104-a149c6db62aa","ios":"levelo://app?vid=04bef4fc-f501-41bd-9104-a149c6db62aa"},"vehicle_type_id":"4","last_reported":1708216578,"current_range_meters":9200,"station_id":"ce4bhqp2rcd13ifvqhog","pricing_plan_id":"cebpf4jnsgd1na2vs0mg"},{"bike_id":"cf13079a-fab6-41b5-bea9-346ba446f154","system_id":"levelo_inurba_marseille","lat":43.32367,"lon":5.388836,"is_reserved":false,"is_disabled":false,"rental_uris":{"android":"levelo://app?vid=cf13079a-fab6-41b5-bea9-346ba446f154","ios":"levelo://app?vid=cf13079a-fab6-41b5-bea9-346ba446f154"},"vehicle_type_id":"4","last_reported":1708216578,"current_range_meters":28800,"station_id":"ce4bhqp2rcd13ifvqhog","pricing_plan_id":"cebpf4jnsgd1na2vs0mg"},{"bike_id":"6af73b7c-3333-47f9-9c52-fb4e2c063bc2","system_id":"levelo_inurba_marseille","lat":43.32367,"lon":5.388836,"is_reserved":false,"is_disabled":false,"rental_uris":{"android":"levelo://app?vid=6af73b7c-3333-47f9-9c52-fb4e2c063bc2","ios":"levelo://app?vid=6af73b7c-3333-47f9-9c52-fb4e2c063bc2"},"vehicle_type_id":"4","last_reported":1708216578,"current_range_meters":9200,"station_id":"ce4bhqp2rcd13ifvqhog","pricing_plan_id":"cebpf4jnsgd1na2vs0mg"},{"bike_id":"73812b29-d260-48aa-afde-5f5ce2b81b46","system_id":"levelo_inurba_marseille","lat":43.32367,"lon":5.38899,"is_reserved":false,"is_disabled":false,"rental_uris":{"android":"levelo://app?vid=73812b29-d260-48aa-afde-5f5ce2b81b46","ios":"levelo://app?vid=73812b29-d260-48aa-afde-5f5ce2b81b46"},"vehicle_type_id":"4","last_reported":1708216578,"current_range_meters":30400,"station_id":"ce4bhqp2rcd13ifvqhog","pricing_plan_id":"cebpf4jnsgd1na2vs0mg"},{"bike_id":"63f541dc-0e30-4ef8-8766-b00c563079e8","system_id":"levelo_inurba_marseille","lat":43.2932,"lon":5.37185,"is_reserved":false,"is_disabled":false,"rental_uris":{"android":"levelo://app?vid=63f541dc-0e30-4ef8-8766-b00c563079e8","ios":"levelo://app?vid=63f541dc-0e30-4ef8-8766-b00c563079e8"},"vehicle_type_id":"4","last_reported":1708216578,"current_range_meters":0,"station_id":"ce4bgh92rcd13ifvqb40","pricing_plan_id":"cebpf4jnsgd1na2vs0mg"},{"bike_id":"4a3caf82-6e08-4abe-9c3f-67abe0986492","system_id":"levelo_inurba_marseille","lat":43.29311,"lon":5.37184,"is_reserved":false,"is_disabled":false,"rental_uris":{"android":"levelo://app?vid=4a3caf82-6e08-4abe-9c3f-67abe0986492","ios":"levelo://app?vid=4a3caf82-6e08-4abe-9c3f-67abe0986492"},"vehicle_type_id":"4","last_reported":1708216578,"current_range_meters":0,"station_id":"ce4bgh92rcd13ifvqb40","pricing_plan_id":"cebpf4jnsgd1na2vs0mg"},{"bike_id":"b4c5170d-8669-4d3f-8d30-a6adffd99001","system_id":"levelo_inurba_marseille","lat":43.293249,"lon":5.371578,"is_reserved":false,"is_disabled":false,"rental_uris":{"android":"levelo://app?vid=b4c5170d-8669-4d3f-8d30-a6adffd99001","ios":"levelo://app?vid=b4c5170d-8669-4d3f-8d30-a6adffd99001"},"vehicle_type_id":"4","last_reported":1708216578,"current_range_meters":0,"station_id":"ce4bgh92rcd13ifvqb40","pricing_plan_id":"cebpf4jnsgd1na2vs0mg"},{"bike_id":"123226e1-9ab7-47ff-aa48-097c15fd2444","system_id":"levelo_inurba_marseille","lat":43.29278,"lon":5.36845,"is_reserved":false,"is_disabled":false,"rental_uris":{"android":"levelo://app?vid=123226e1-9ab7-47ff-aa48-097c15fd2444","ios":"levelo://app?vid=123226e1-9ab7-47ff-aa48-097c15fd2444"},"vehicle_type_id":"4","last_reported":1708216578,"current_range_meters":0,"station_id":"ce4bhbp2rcd13ifvqesg","pricing_plan_id":"cebpf4jnsgd1na2vs0mg"},{"bike_id":"d6e8420a-0d53-4ea9-9625-5a6888c06fd8","system_id":"levelo_inurba_marseille","lat":43.29278,"lon":5.36854,"is_reserved":false,"is_disabled":false,"rental_uris":{"android":"levelo://app?vid=d6e8420a-0d53-4ea9-9625-5a6888c06fd8","ios":"levelo://app?vid=d6e8420a-0d53-4ea9-9625-5a6888c06fd8"},"vehicle_type_id":"4","last_reported":1708216578,"current_range_meters":30400,"station_id":"ce4bhbp2rcd13ifvqesg","pricing_plan_id":"cebpf4jnsgd1na2vs0mg"},{"bike_id":"d11663ce-c288-49d2-8404-ea63fa98e8f5","system_id":"levelo_inurba_marseille","lat":43.292755,"lon":5.36849,"is_reserved":false,"is_disabled":false,"rental_uris":{"android":"levelo://app?vid=d11663ce-c288-49d2-8404-ea63fa98e8f5","ios":"levelo://app?vid=d11663ce-c288-49d2-8404-ea63fa98e8f5"},"vehicle_type_id":"4","last_reported":1708216578,"current_range_meters":400,"station_id":"ce4bhbp2rcd13ifvqesg","pricing_plan_id":"cebpf4jnsgd1na2vs0mg"},{"bike_id":"ec1683b1-2001-4251-8b6d-ba38801a68d2","system_id":"levelo_inurba_marseille","lat":43.29274,"lon":5.368422,"is_reserved":false,"is_disabled":false,"rental_uris":{"android":"levelo://app?vid=ec1683b1-2001-4251-8b6d-ba38801a68d2","ios":"levelo://app?vid=ec1683b1-2001-4251-8b6d-ba38801a68d2"},"vehicle_type_id":"4","last_reported":1708216578,"current_range_meters":5600,"station_id":"ce4bhbp2rcd13ifvqesg","pricing_plan_id":"cebpf4jnsgd1na2vs0mg"},{"bike_id":"53c7c26c-a337-4f7b-9a7b-a4bff762fe8f","system_id":"levelo_inurba_marseille","lat":43.29274,"lon":5.36851,"is_reserved":false,"is_disabled":false,"rental_uris":{"android":"levelo://app?vid=53c7c26c-a337-4f7b-9a7b-a4bff762fe8f","ios":"levelo://app?vid=53c7c26c-a337-4f7b-9a7b-a4bff762fe8f"},"vehicle_type_id":"4","last_reported":1708216578,"current_range_meters":5200,"station_id":"ce4bhbp2rcd13ifvqesg","pricing_plan_id":"cebpf4jnsgd1na2vs0mg"},{"bike_id":"b3cb6d2c-8feb-4c79-ba00-5bb30e56dc27","system_id":"levelo_inurba_marseille","lat":43.292729,"lon":5.36838,"is_reserved":false,"is_disabled":false,"rental_uris":{"android":"levelo://app?vid=b3cb6d2c-8feb-4c79-ba00-5bb30e56dc27","ios":"levelo://app?vid=b3cb6d2c-8feb-4c79-ba00-5bb30e56dc27"},"vehicle_type_id":"4","last_reported":1708216578,"current_range_meters":30800,"station_id":"ce4bhbp2rcd13ifvqesg","pricing_plan_id":"cebpf4jnsgd1na2vs0mg"},{"bike_id":"faa981c6-4ca2-457c-babd-2880310db4ae","system_id":"levelo_inurba_marseille","lat":43.2927,"lon":5.36836,"is_reserved":false,"is_disabled":false,"rental_uris":{"android":"levelo://app?vid=faa981c6-4ca2-457c-babd-2880310db4ae","ios":"levelo://app?vid=faa981c6-4ca2-457c-babd-2880310db4ae"},"vehicle_type_id":"4","last_reported":1708216578,"current_range_meters":22800,"station_id":"ce4bhbp2rcd13ifvqesg","pricing_plan_id":"cebpf4jnsgd1na2vs0mg"},{"bike_id":"f04629ab-a1b2-4441-a505-5f1a524dea98","system_id":"levelo_inurba_marseille","lat":43.29267,"lon":5.36841,"is_reserved":false,"is_disabled":false,"rental_uris":{"android":"levelo://app?vid=f04629ab-a1b2-4441-a505-5f1a524dea98","ios":"levelo://app?vid=f04629ab-a1b2-4441-a505-5f1a524dea98"},"vehicle_type_id":"4","last_reported":1708216578,"current_range_meters":26400,"station_id":"ce4bhbp2rcd13ifvqesg","pricing_plan_id":"cebpf4jnsgd1na2vs0mg"},{"bike_id":"dae9a895-e1c7-42de-809e-aa7941a40398","system_id":"levelo_inurba_marseille","lat":43.2926,"lon":5.36677,"is_reserved":false,"is_disabled":false,"rental_uris":{"android":"levelo://app?vid=dae9a895-e1c7-42de-809e-aa7941a40398","ios":"levelo://app?vid=dae9a895-e1c7-42de-809e-aa7941a40398"},"vehicle_type_id":"4","last_reported":1708216578,"current_range_meters":0,"station_id":"","pricing_plan_id":"cebpf4jnsgd1na2vs0mg"},{"bike_id":"b0c75dab-5ac4-4602-8b27-04699099292b","system_id":"levelo_inurba_marseille","lat":43.293008,"lon":5.37465,"is_reserved":false,"is_disabled":false,"rental_uris":{"android":"levelo://app?vid=b0c75dab-5ac4-4602-8b27-04699099292b","ios":"levelo://app?vid=b0c75dab-5ac4-4602-8b27-04699099292b"},"vehicle_type_id":"4","last_reported":1708216578,"current_range_meters":0,"station_id":"ce4bgi12rcd13ifvqb70","pricing_plan_id":"cebpf4jnsgd1na2vs0mg"},{"bike_id":"1ed6ddec-7f39-49e6-9f80-aa42a7d56d23","system_id":"levelo_inurba_marseille","lat":43.305994,"lon":5.393687,"is_reserved":false,"is_disabled":false,"rental_uris":{"android":"levelo://app?vid=1ed6ddec-7f39-49e6-9f80-aa42a7d56d23","ios":"levelo://app?vid=1ed6ddec-7f39-49e6-9f80-aa42a7d56d23"},"vehicle_type_id":"4","last_reported":1708216578,"current_range_meters":20000,"station_id":"ce4bh0p2rcd13ifvqd80","pricing_plan_id":"cebpf4jnsgd1na2vs0mg"},{"bike_id":"25caaea6-0552-49b8-8846-e7aa60fa230e","system_id":"levelo_inurba_marseille","lat":43.293009,"lon":5.374584,"is_reserved":false,"is_disabled":false,"rental_uris":{"android":"levelo://app?vid=25caaea6-0552-49b8-8846-e7aa60fa230e","ios":"levelo://app?vid=25caaea6-0552-49b8-8846-e7aa60fa230e"},"vehicle_type_id":"4","last_reported":1708216578,"current_range_meters":22800,"station_id":"ce4bgi12rcd13ifvqb70","pricing_plan_id":"cebpf4jnsgd1na2vs0mg"},{"bike_id":"557aba1f-3775-40c5-bc99-2cd78577d6e7","system_id":"levelo_inurba_marseille","lat":43.293009,"lon":5.374584,"is_reserved":false,"is_disabled":false,"rental_uris":{"android":"levelo://app?vid=557aba1f-3775-40c5-bc99-2cd78577d6e7","ios":"levelo://app?vid=557aba1f-3775-40c5-bc99-2cd78577d6e7"},"vehicle_type_id":"4","last_reported":1708216578,"current_range_meters":4800,"station_id":"ce4bgi12rcd13ifvqb70","pricing_plan_id":"cebpf4jnsgd1na2vs0mg"},{"bike_id":"8782a72f-accc-4aa6-91d4-eeee61174951","system_id":"levelo_inurba_marseille","lat":43.302992,"lon":5.392136,"is_reserved":false,"is_disabled":false,"rental_uris":{"android":"levelo://app?vid=8782a72f-accc-4aa6-91d4-eeee61174951","ios":"levelo://app?vid=8782a72f-accc-4aa6-91d4-eeee61174951"},"vehicle_type_id":"4","last_reported":1708216578,"current_range_meters":25600,"station_id":"ce4bgkh2rcd13ifvqbk0","pricing_plan_id":"cebpf4jnsgd1na2vs0mg"},{"bike_id":"4a7f1762-fe48-4bb3-af8d-6e8dcb79e055","system_id":"levelo_inurba_marseille","lat":43.30303,"lon":5.39213,"is_reserved":false,"is_disabled":false,"rental_uris":{"android":"levelo://app?vid=4a7f1762-fe48-4bb3-af8d-6e8dcb79e055","ios":"levelo://app?vid=4a7f1762-fe48-4bb3-af8d-6e8dcb79e055"},"vehicle_type_id":"4","last_reported":1708216578,"current_range_meters":6800,"station_id":"ce4bgkh2rcd13ifvqbk0","pricing_plan_id":"cebpf4jnsgd1na2vs0mg"},{"bike_id":"22dbdec6-f1b0-4878-a93e-ce9775b2979e","system_id":"levelo_inurba_marseille","lat":43.30302,"lon":5.39217,"is_reserved":false,"is_disabled":false,"rental_uris":{"android":"levelo://app?vid=22dbdec6-f1b0-4878-a93e-ce9775b2979e","ios":"levelo://app?vid=22dbdec6-f1b0-4878-a93e-ce9775b2979e"},"vehicle_type_id":"4","last_reported":1708216578,"current_range_meters":26800,"station_id":"ce4bgkh2rcd13ifvqbk0","pricing_plan_id":"cebpf4jnsgd1na2vs0mg"},{"bike_id":"8bdaef5f-de76-47d9-a971-d09e81c05d92","system_id":"levelo_inurba_marseille","lat":43.302992,"lon":5.392136,"is_reserved":false,"is_disabled":false,"rental_uris":{"android":"levelo://app?vid=8bdaef5f-de76-47d9-a971-d09e81c05d92","ios":"levelo://app?vid=8bdaef5f-de76-47d9-a971-d09e81c05d92"},"vehicle_type_id":"4","last_reported":1708216578,"current_range_meters":6000,"station_id":"ce4bgkh2rcd13ifvqbk0","pricing_plan_id":"cebpf4jnsgd1na2vs0mg"},{"bike_id":"90cf974d-4396-4f3c-abdf-fc999c27a087","system_id":"levelo_inurba_marseille","lat":43.30302,"lon":5.39219,"is_reserved":false,"is_disabled":false,"rental_uris":{"android":"levelo://app?vid=90cf974d-4396-4f3c-abdf-fc999c27a087","ios":"levelo://app?vid=90cf974d-4396-4f3c-abdf-fc999c27a087"},"vehicle_type_id":"4","last_reported":1708216578,"current_range_meters":8800,"station_id":"ce4bgkh2rcd13ifvqbk0","pricing_plan_id":"cebpf4jnsgd1na2vs0mg"},{"bike_id":"c01bfbbe-d87d-48b9-9fcb-aa99c4818c4d","system_id":"levelo_inurba_marseille","lat":43.302992,"lon":5.392136,"is_reserved":false,"is_disabled":false,"rental_uris":{"android":"levelo://app?vid=c01bfbbe-d87d-48b9-9fcb-aa99c4818c4d","ios":"levelo://app?vid=c01bfbbe-d87d-48b9-9fcb-aa99c4818c4d"},"vehicle_type_id":"4","last_reported":1708216578,"current_range_meters":4400,"station_id":"ce4bgkh2rcd13ifvqbk0","pricing_plan_id":"cebpf4jnsgd1na2vs0mg"},{"bike_id":"9cb02b8b-c157-4012-89f1-2785237c4be1","system_id":"levelo_inurba_marseille","lat":43.30094,"lon":5.39069,"is_reserved":false,"is_disabled":false,"rental_uris":{"android":"levelo://app?vid=9cb02b8b-c157-4012-89f1-2785237c4be1","ios":"levelo://app?vid=9cb02b8b-c157-4012-89f1-2785237c4be1"},"vehicle_type_id":"4","last_reported":1708216578,"current_range_meters":27600,"station_id":"ce4bh192rcd13ifvqdb0","pricing_plan_id":"cebpf4jnsgd1na2vs0mg"},{"bike_id":"0243bc8c-799a-4c96-a74f-ecbd298ea2c1","system_id":"levelo_inurba_marseille","lat":43.30096,"lon":5.390717,"is_reserved":false,"is_disabled":false,"rental_uris":{"android":"levelo://app?vid=0243bc8c-799a-4c96-a74f-ecbd298ea2c1","ios":"levelo://app?vid=0243bc8c-799a-4c96-a74f-ecbd298ea2c1"},"vehicle_type_id":"4","last_reported":1708216578,"current_range_meters":30000,"station_id":"ce4bh192rcd13ifvqdb0","pricing_plan_id":"cebpf4jnsgd1na2vs0mg"},{"bike_id":"b0d81c87-ade4-4315-bf14-3985b0de8c02","system_id":"levelo_inurba_marseille","lat":43.29226,"lon":5.36082,"is_reserved":false,"is_disabled":false,"rental_uris":{"android":"levelo://app?vid=b0d81c87-ade4-4315-bf14-3985b0de8c02","ios":"levelo://app?vid=b0d81c87-ade4-4315-bf14-3985b0de8c02"},"vehicle_type_id":"4","last_reported":1708216578,"current_range_meters":19600,"station_id":"","pricing_plan_id":"cebpf4jnsgd1na2vs0mg"},{"bike_id":"df971d0c-afc9-405b-8678-866365656548","system_id":"levelo_inurba_marseille","lat":43.292173,"lon":5.360467,"is_reserved":false,"is_disabled":false,"rental_uris":{"android":"levelo://app?vid=df971d0c-afc9-405b-8678-866365656548","ios":"levelo://app?vid=df971d0c-afc9-405b-8678-866365656548"},"vehicle_type_id":"4","last_reported":1708216578,"current_range_meters":21200,"station_id":"ce4bhbh2rcd13ifvqeqg","pricing_plan_id":"cebpf4jnsgd1na2vs0mg"},