{"last_updated":1758622267,"ttl":60,"version":"2.2","data":{"bikes":[{"bike_id":"9eda223c-aef7-43be-8f8e-4fd6e9e47dcf","system_id":"levelo_inurba_marseille","lat":43.2656,"lon":5.39015,"is_reserved":false,"is_disabled":false,"rental_uris":{"android":"levelo://app?vid=9eda223c-aef7-43be-8f8e-4fd6e9e47dcf","ios":"levelo://app?vid=9eda223c-aef7-43be-8f8e-4fd6e9e47dcf"},"vehicle_type_id":"4","last_reported":1758622267,"current_range_meters":2800,"station_id":"ce4bhe12rcd13ifvqf30","pricing_plan_id":"cebpf4jnsgd1na2vs0mg"},{"bike_id":"a78c31fa-c3c2-4cb9-ad9d-275f5519711e","system_id":"levelo_inurba_marseille","lat":43.30138,"lon":5.3985,"is_reserved":false,"is_disabled":false,"rental_uris":{"android":"levelo://app?vid=a78c31fa-c3c2-4cb9-ad9d-275f5519711e","ios":"levelo://app?vid=a78c31fa-c3c2-4cb9-ad9d-275f5519711e"},"vehicle_type_id":"4","last_reported":1758622267,"current_range_meters":2800,"station_id":"ce4bh0h2rcd13ifvqd40","pricing_plan_id":"cebpf4jnsgd1na2vs0mg"},{"bike_id":"7ef37b82-d59c-4996-a645-0dd0d97df12a","system_id":"levelo_inurba_marseille","lat":43.288452,"lon":5.393199,"is_reserved":false,"is_disabled":false,"rental_uris":{"android":"levelo://app?vid=7ef37b82-d59c-4996-a645-0dd0d97df12a","ios":"levelo://app?vid=7ef37b82-d59c-4996-a645-0dd0d97df12a"},"vehicle_type_id":"4","last_reported":1758622267,"current_range_meters":1600,"station_id":"ce4bh2p2rcd13ifvqdi0","pricing_plan_id":"cebpf4jnsgd1na2vs0mg"},{"bike_id":"e4405f42-3608-4636-b419-04b11e4bed5a","system_id":"levelo_inurba_marseille","lat":43.29586,"lon":5.36743,"is_reserved":false,"is_disabled":false,"rental_uris":{"android":"levelo://app?vid=e4405f42-3608-4636-b419-04b11e4bed5a","ios":"levelo://app?vid=e4405f42-3608-4636-b419-04b11e4bed5a"},"vehicle_type_id":"4","last_reported":1758622267,"current_range_meters":3200,"station_id":"ce4bgph2rcd13ifvqc2g","pricing_plan_id":"cebpf4jnsgd1na2vs0mg"},{"bike_id":"55d1bc08-fd54-4a82-afc7-2adcaa7b1c4e","system_id":"levelo_inurba_marseille","lat":43.30032,"lon":5.37682,"is_reserved":false,"is_disabled":false,"rental_uris":{"android":"levelo://app?vid=55d1bc08-fd54-4a82-afc7-2adcaa7b1c4e","ios":"levelo://app?vid=55d1bc08-fd54-4a82-afc7-2adcaa7b1c4e"},"vehicle_type_id":"4","last_reported":1758622267,"current_range_meters":3200,"station_id":"","pricing_plan_id":"cebpf4jnsgd1na2vs0mg"},{"bike_id":"4a499835-c8ba-406c-be1a-836036aa3de5","system_id":"levelo_inurba_marseille","lat":43.29187,"lon":5.35794,"is_reserved":false,"is_disabled":true,"rental_uris":{"android":"levelo://app?vid=4a499835-c8ba-406c-be1a-836036aa3de5","ios":"levelo://app?vid=4a499835-c8ba-406c-be1a-836036aa3de5"},"vehicle_type_id":"4","last_reported":1758622267,"current_range_meters":3200,"station_id":"ce4bhb12rcd13ifvqel0","pricing_plan_id":"cebpf4jnsgd1na2vs0mg"},{"bike_id":"e38759e0-a9f4-4e70-a203-19faa7bd76e5","system_id":"levelo_inurba_marseille","lat":43.3168,"lon":5.40486,"is_reserved":false,"is_disabled":false,"rental_uris":{"android":"levelo://app?vid=e38759e0-a9f4-4e70-a203-19faa7bd76e5","ios":"levelo://app?vid=e38759e0-a9f4-4e70-a203-19faa7bd76e5"},"vehicle_type_id":"4","last_reported":1758622267,"current_range_meters":3200,"station_id":"ce4bh012rcd13ifvqd00","pricing_plan_id":"cebpf4jnsgd1na2vs0mg"},{"bike_id":"d7b4341e-62fc-41e8-a32f-4e0a46024018","system_id":"levelo_inurba_marseille","lat":43.28662,"lon":5.38666,"is_reserved":false,"is_disabled":false,"rental_uris":{"android":"levelo://app?vid=d7b4341e-62fc-41e8-a32f-4e0a46024018","ios":"levelo://app?vid=d7b4341e-62fc-41e8-a32f-4e0a46024018"},"vehicle_type_id":"4","last_reported":1758622267,"current_range_meters":3200,"station_id":"ce4bh492rcd13ifvqdug","pricing_plan_id":"cebpf4jnsgd1na2vs0mg"},{"bike_id":"fb8de976-40a7-451a-964d-07ee60f0b3e5","system_id":"levelo_inurba_marseille","lat":43.26559,"lon":5.37284,"is_reserved":false,"is_disabled":false,"rental_uris":{"android":"levelo://app?vid=fb8de976-40a7-451a-964d-07ee60f0b3e5","ios":"levelo://app?vid=fb8de976-40a7-451a-964d-07ee60f0b3e5"},"vehicle_type_id":"4","last_reported":1758622267,"current_range_meters":3600,"station_id":"ce4bhg12rcd13ifvqf70","pricing_plan_id":"cebpf4jnsgd1na2vs0mg"},{"bike_id":"68adab37-f5ad-4072-b58a-fe6c68285ca6","system_id":"levelo_inurba_marseille","lat":43.306147,"lon":5.376572,"is_reserved":false,"is_disabled":false,"rental_uris":{"android":"levelo://app?vid=68adab37-f5ad-4072-b58a-fe6c68285ca6","ios":"levelo://app?vid=68adab37-f5ad-4072-b58a-fe6c68285ca6"},"vehicle_type_id":"4","last_reported":1758622267,"current_range_meters":3600,"station_id":"","pricing_plan_id":"cebpf4jnsgd1na2vs0mg"},{"bike_id":"a2b4ed77-d5d7-4552-8a9d-22909c8412f0","system_id":"levelo_inurba_marseille","lat":43.31259,"lon":5.40168,"is_reserved":false,"is_disabled":false,"rental_uris":{"android":"levelo://app?vid=a2b4ed77-d5d7-4552-8a9d-22909c8412f0","ios":"levelo://app?vid=a2b4ed77-d5d7-4552-8a9d-22909c8412f0"},"vehicle_type_id":"4","last_reported":1758622267,"current_range_meters":3600,"station_id":"ce4bh092rcd13ifvqd30","pricing_plan_id":"cebpf4jnsgd1na2vs0mg"},{"bike_id":"93721e99-a22b-4a7b-a13e-017d0b728d5b","system_id":"levelo_inurba_marseille","lat":43.30089,"lon":5.39094,"is_reserved":false,"is_disabled":true,"rental_uris":{"android":"levelo://app?vid=93721e99-a22b-4a7b-a13e-017d0b728d5b","ios":"levelo://app?vid=93721e99-a22b-4a7b-a13e-017d0b728d5b"},"vehicle_type_id":"4","last_reported":1758622267,"current_range_meters":4000,"station_id":"ce4bh192rcd13ifvqdb0","pricing_plan_id":"cebpf4jnsgd1na2vs0mg"},{"bike_id":"68c19e15-389b-485c-bfed-38727f3ac247","system_id":"levelo_inurba_marseille","lat":43.298,"lon":5.38106,"is_reserved":false,"is_disabled":false,"rental_uris":{"android":"levelo://app?vid=68c19e15-389b-485c-bfed-38727f3ac247","ios":"levelo://app?vid=68c19e15-389b-485c-bfed-38727f3ac247"},"vehicle_type_id":"4","last_reported":1758622267,"current_range_meters":4000,"station_id":"ce4bgip2rcd13ifvqbb0","pricing_plan_id":"cebpf4jnsgd1na2vs0mg"},{"bike_id":"922e7484-6e53-4b8d-8a95-cf9f5390d601","system_id":"levelo_inurba_marseille","lat":43.21185,"lon":5.35079,"is_reserved":false,"is_disabled":false,"rental_uris":{"android":"levelo://app?vid=922e7484-6e53-4b8d-8a95-cf9f5390d601","ios":"levelo://app?vid=922e7484-6e53-4b8d-8a95-cf9f5390d601"},"vehicle_type_id":"4","last_reported":1758622267,"current_range_meters":4000,"station_id":"st_cvj6sg6p6f1abm77japg","pricing_plan_id":"cebpf4jnsgd1na2vs0mg"},{"bike_id":"32dd8980-6e03-43c1-85c1-9b06b83f8471","system_id":"levelo_inurba_marseille","lat":43.27917,"lon":5.39576,"is_reserved":false,"is_disabled":false,"rental_uris":{"android":"levelo://app?vid=32dd8980-6e03-43c1-85c1-9b06b83f8471","ios":"levelo://app?vid=32dd8980-6e03-43c1-85c1-9b06b83f8471"},"vehicle_type_id":"4","last_reported":1758622267,"current_range_meters":4000,"station_id":"ce4bhf92rcd13ifvqf40","pricing_plan_id":"cebpf4jnsgd1na2vs0mg"},{"bike_id":"f3449d16-904c-4fd3-8bf1-c83b914ee8cd","system_id":"levelo_inurba_marseille","lat":43.28333,"lon":5.38095,"is_reserved":false,"is_disabled":false,"rental_uris":{"android":"levelo://app?vid=f3449d16-904c-4fd3-8bf1-c83b914ee8cd","ios":"levelo://app?vid=f3449d16-904c-4fd3-8bf1-c83b914ee8cd"},"vehicle_type_id":"4","last_reported":1758622267,"current_range_meters":4400,"station_id":"ce4bh412rcd13ifvqdr0","pricing_plan_id":"cebpf4jnsgd1na2vs0mg"},{"bike_id":"1b790372-5d34-489f-a29a-5f2319ad70e0","system_id":"levelo_inurba_marseille","lat":43.28261,"lon":5.35048,"is_reserved":false,"is_disabled":true,"rental_uris":{"android":"levelo://app?vid=1b790372-5d34-489f-a29a-5f2319ad70e0","ios":"levelo://app?vid=1b790372-5d34-489f-a29a-5f2319ad70e0"},"vehicle_type_id":"4","last_reported":1758622267,"current_range_meters":4400,"station_id":"ce4bhbp2rcd13ifvqerg","pricing_plan_id":"cebpf4jnsgd1na2vs0mg"},{"bike_id":"72df89cb-7746-46e6-b269-fbddd2d473fe","system_id":"levelo_inurba_marseille","lat":43.32109,"lon":5.36774,"is_reserved":false,"is_disabled":false,"rental_uris":{"android":"levelo://app?vid=72df89cb-7746-46e6-b269-fbddd2d473fe","ios":"levelo://app?vid=72df89cb-7746-46e6-b269-fbddd2d473fe"},"vehicle_type_id":"4","last_reported":1758622267,"current_range_meters":4400,"station_id":"ce4bhrh2rcd13ifvqhug","pricing_plan_id":"cebpf4jnsgd1na2vs0mg"},{"bike_id":"2106f76a-a8e5-462e-bb4a-50d64895f35e","system_id":"levelo_inurba_marseille","lat":43.28678,"lon":5.38676,"is_reserved":false,"is_disabled":false,"rental_uris":{"android":"levelo://app?vid=2106f76a-a8e5-462e-bb4a-50d64895f35e","ios":"levelo://app?vid=2106f76a-a8e5-462e-bb4a-50d64895f35e"},"vehicle_type_id":"4","last_reported":1758622267,"current_range_meters":4800,"station_id":"ce4bh492rcd13ifvqdug","pricing_plan_id":"cebpf4jnsgd1na2vs0mg"},{"bike_id":"115312ae-a27c-480c-a681-7dc447082124","system_id":"levelo_inurba_marseille","lat":43.28143,"lon":5.42645,"is_reserved":false,"is_disabled":false,"rental_uris":{"android":"levelo://app?vid=115312ae-a27c-480c-a681-7dc447082124","ios":"levelo://app?vid=115312ae-a27c-480c-a681-7dc447082124"},"vehicle_type_id":"4","last_reported":1758622267,"current_range_meters":4800,"station_id":"ce4bhnh2rcd13ifvqgug","pricing_plan_id":"cebpf4jnsgd1na2vs0mg"},{"bike_id":"54502de0-09ba-43cd-a1f2-9f84e6e6c1cb","system_id":"levelo_inurba_marseille","lat":43.290149,"lon":5.381283,"is_reserved":false,"is_disabled":false,"rental_uris":{"android":"levelo://app?vid=54502de0-09ba-43cd-a1f2-9f84e6e6c1cb","ios":"levelo://app?vid=54502de0-09ba-43cd-a1f2-9f84e6e6c1cb"},"vehicle_type_id":"4","last_reported":1758622267,"current_range_meters":4800,"station_id":"","pricing_plan_id":"cebpf4jnsgd1na2vs0mg"},{"bike_id":"af29bd4a-51c0-47f1-bce0-b9ca138339ea","system_id":"levelo_inurba_marseille","lat":43.31709,"lon":5.43714,"is_reserved":false,"is_disabled":false,"rental_uris":{"android":"levelo://app?vid=af29bd4a-51c0-47f1-bce0-b9ca138339ea","ios":"levelo://app?vid=af29bd4a-51c0-47f1-bce0-b9ca138339ea"},"vehicle_type_id":"4","last_reported":1758622267,"current_range_meters":5600,"station_id":"ce4bhp92rcd13ifvqhcg","pricing_plan_id":"cebpf4jnsgd1na2vs0mg"},{"bike_id":"822a41c4-eb3c-491f-a392-2ad22e81489c","system_id":"levelo_inurba_marseille","lat":43.28451,"lon":5.39194,"is_reserved":false,"is_disabled":false,"rental_uris":{"android":"levelo://app?vid=822a41c4-eb3c-491f-a392-2ad22e81489c","ios":"levelo://app?vid=822a41c4-eb3c-491f-a392-2ad22e81489c"},"vehicle_type_id":"4","last_reported":1758622267,"current_range_meters":6000,"station_id":"","pricing_plan_id":"cebpf4jnsgd1na2vs0mg"},{"bike_id":"e7041b66-8283-4593-8eca-922b8ec67fbb","system_id":"levelo_inurba_marseille","lat":43.25118,"lon":5.4032,"is_reserved":false,"is_disabled":false,"rental_uris":{"android":"levelo://app?vid=e7041b66-8283-4593-8eca-922b8ec67fbb","ios":"levelo://app?vid=e7041b66-8283-4593-8eca-922b8ec67fbb"},"vehicle_type_id":"4","last_reported":1758622267,"current_range_meters":6000,"station_id":"ce4bhlh2rcd13ifvqgig","pricing_plan_id":"cebpf4jnsgd1na2vs0mg"},{"bike_id":"9176512c-2cc1-4df2-a8e0-6be514fbcdbf","system_id":"levelo_inurba_marseille","lat":43.33748,"lon":5.37465,"is_reserved":false,"is_disabled":false,"rental_uris":{"android":"levelo://app?vid=9176512c-2cc1-4df2-a8e0-6be514fbcdbf","ios":"levelo://app?vid=9176512c-2cc1-4df2-a8e0-6be514fbcdbf"},"vehicle_type_id":"4","last_reported":1758622267,"current_range_meters":6000,"station_id":"","pricing_plan_id":"cebpf4jnsgd1na2vs0mg"},{"bike_id":"438ead59-de14-4fa0-a61d-03a70a4122ae","system_id":"levelo_inurba_marseille","lat":43.97285,"lon":4.89134,"is_reserved":false,"is_disabled":true,"rental_uris":{"android":"levelo://app?vid=438ead59-de14-4fa0-a61d-03a70a4122ae","ios":"levelo://app?vid=438ead59-de14-4fa0-a61d-03a70a4122ae"},"vehicle_type_id":"4","last_reported":1758622267,"current_range_meters":6000,"station_id":"","pricing_plan_id":"cebpf4jnsgd1na2vs0mg"},{"bike_id":"cf15f0ab-4027-43c7-82dc-a40724160eb1","system_id":"levelo_inurba_marseille","lat":43.21757,"lon":5.34598,"is_reserved":false,"is_disabled":false,"rental_uris":{"android":"levelo://app?vid=cf15f0ab-4027-43c7-82dc-a40724160eb1","ios":"levelo://app?vid=cf15f0ab-4027-43c7-82dc-a40724160eb1"},"vehicle_type_id":"4","last_reported":1758622267,"current_range_meters":6400,"station_id":"st_cvj6r9ubvosntc0bgbag","pricing_plan_id":"cebpf4jnsgd1na2vs0mg"},{"bike_id":"5fafbbc6-b8c6-42a0-91c5-a2230a090df9","system_id":"levelo_inurba_marseille","lat":43.33612,"lon":5.41035,"is_reserved":false,"is_disabled":false,"rental_uris":{"android":"levelo://app?vid=5fafbbc6-b8c6-42a0-91c5-a2230a090df9","ios":"levelo://app?vid=5fafbbc6-b8c6-42a0-91c5-a2230a090df9"},"vehicle_type_id":"4","last_reported":1758622267,"current_range_meters":6400,"station_id":"ce4bhqh2rcd13ifvqhmg","pricing_plan_id":"cebpf4jnsgd1na2vs0mg"},{"bike_id":"1a41dea3-26a8-49a5-9811-6a123dab1bbf","system_id":"levelo_inurba_marseille","lat":43.28715,"lon":5.36088,"is_reserved":false,"is_disabled":false,"rental_uris":{"android":"levelo://app?vid=1a41dea3-26a8-49a5-9811-6a123dab1bbf","ios":"levelo://app?vid=1a41dea3-26a8-49a5-9811-6a123dab1bbf"},"vehicle_type_id":"4","last_reported":1758622267,"current_range_meters":6400,"station_id":"cki0cbj6b192h4jlfktg","pricing_plan_id":"cebpf4jnsgd1na2vs0mg"},{"bike_id":"ae217d05-286a-4ac5-8a54-897e10ccd6b4","system_id":"levelo_inurba_marseille","lat":43.27058,"lon":5.40261,"is_reserved":false,"is_disabled":false,"rental_uris":{"android":"levelo://app?vid=ae217d05-286a-4ac5-8a54-897e10ccd6b4","ios":"levelo://app?vid=ae217d05-286a-4ac5-8a54-897e10ccd6b4"},"vehicle_type_id":"4","last_reported":1758622267,"current_range_meters":6800,"station_id":"ce4bhk92rcd13ifvqgc0","pricing_plan_id":"cebpf4jnsgd1na2vs0mg"},{"bike_id":"698a1659-1be4-4464-8e40-0054e6845364","system_id":"levelo_inurba_marseille","lat":43.29403,"lon":5.40384,"is_reserved":false,"is_disabled":false,"rental_uris":{"android":"levelo://app?vid=698a1659-1be4-4464-8e40-0054e6845364","ios":"levelo://app?vid=698a1659-1be4-4464-8e40-0054e6845364"},"vehicle_type_id":"4","last_reported":1758622267,"current_range_meters":6800,"station_id":"","pricing_plan_id":"cebpf4jnsgd1na2vs0mg"},{"bike_id":"59362b21-e7ae-4d89-a581-7623f0cabe74","system_id":"levelo_inurba_marseille","lat":43.29007,"lon":5.35602,"is_reserved":false,"is_disabled":false,"rental_uris":{"android":"levelo://app?vid=59362b21-e7ae-4d89-a581-7623f0cabe74","ios":"levelo://app?vid=59362b21-e7ae-4d89-a581-7623f0cabe74"},"vehicle_type_id":"4","last_reported":1758622267,"current_range_meters":6800,"station_id":"ce4bhb92rcd13ifvqen0","pricing_plan_id":"cebpf4jnsgd1na2vs0mg"},{"bike_id":"c1ac00fd-33c9-49e1-80b4-caa5cb5b7596","system_id":"levelo_inurba_marseille","lat":43.2835,"lon":5.38107,"is_reserved":false,"is_disabled":false,"rental_uris":{"android":"levelo://app?vid=c1ac00fd-33c9-49e1-80b4-caa5cb5b7596","ios":"levelo://app?vid=c1ac00fd-33c9-49e1-80b4-caa5cb5b7596"},"vehicle_type_id":"4","last_reported":1758622267,"current_range_meters":6800,"station_id":"ce4bh412rcd13ifvqdr0","pricing_plan_id":"cebpf4jnsgd1na2vs0mg"},{"bike_id":"2289a0ff-9c3e-4f79-ad38-4b41158d6057","system_id":"levelo_inurba_marseille","lat":43.29882,"lon":5.37911,"is_reserved":false,"is_disabled":false,"rental_uris":{"android":"levelo://app?vid=2289a0ff-9c3e-4f79-ad38-4b41158d6057","ios":"levelo://app?vid=2289a0ff-9c3e-4f79-ad38-4b41158d6057"},"vehicle_type_id":"4","last_reported":1758622267,"current_range_meters":6800,"station_id":"","pricing_plan_id":"cebpf4jnsgd1na2vs0mg"},{"bike_id":"9fd77543-f18d-4c23-af18-b4fabf18caa2","system_id":"levelo_inurba_marseille","lat":43.28146,"lon":5.42632,"is_reserved":false,"is_disabled":false,"rental_uris":{"android":"levelo://app?vid=9fd77543-f18d-4c23-af18-b4fabf18caa2","ios":"levelo://app?vid=9fd77543-f18d-4c23-af18-b4fabf18caa2"},"vehicle_type_id":"4","last_reported":1758622267,"current_range_meters":6800,"station_id":"ce4bhnh2rcd13ifvqgug","pricing_plan_id":"cebpf4jnsgd1na2vs0mg"},{"bike_id":"b968685a-9fb9-42dd-8cd7-e7fb7ba27bb6","system_id":"levelo_inurba_marseille","lat":43.31111,"lon":5.37777,"is_reserved":false,"is_disabled":false,"rental_uris":{"android":"levelo://app?vid=b968685a-9fb9-42dd-8cd7-e7fb7ba27bb6","ios":"levelo://app?vid=b968685a-9fb9-42dd-8cd7-e7fb7ba27bb6"},"vehicle_type_id":"4","last_reported":1758622267,"current_range_meters":7200,"station_id":"ce4bgt92rcd13ifvqcg0","pricing_plan_id":"cebpf4jnsgd1na2vs0mg"},{"bike_id":"41e03531-d926-4714-9cb0-33d759375f30","system_id":"levelo_inurba_marseille","lat":43.31215,"lon":5.36879,"is_reserved":false,"is_disabled":false,"rental_uris":{"android":"levelo://app?vid=41e03531-d926-4714-9cb0-33d759375f30","ios":"levelo://app?vid=41e03531-d926-4714-9cb0-33d759375f30"},"vehicle_type_id":"4","last_reported":1758622267,"current_range_meters":7200,"station_id":"ce4bgl92rcd13ifvqbq0","pricing_plan_id":"cebpf4jnsgd1na2vs0mg"},{"bike_id":"ca000825-5d13-495e-af19-915ae846db43","system_id":"levelo_inurba_marseille","lat":43.33028,"lon":5.39052,"is_reserved":false,"is_disabled":false,"rental_uris":{"android":"levelo://app?vid=ca000825-5d13-495e-af19-915ae846db43","ios":"levelo://app?vid=ca000825-5d13-495e-af19-915ae846db43"},"vehicle_type_id":"4","last_reported":1758622267,"current_range_meters":8000,"station_id":"ce4bhr92rcd13ifvqhrg","pricing_plan_id":"cebpf4jnsgd1na2vs0mg"},{"bike_id":"97666c3f-197b-404d-a08c-c3bebac70d22","system_id":"levelo_inurba_marseille","lat":43.3361,"lon":5.41027,"is_reserved":false,"is_disabled":false,"rental_uris":{"android":"levelo://app?vid=97666c3f-197b-404d-a08c-c3bebac70d22","ios":"levelo://app?vid=97666c3f-197b-404d-a08c-c3bebac70d22"},"vehicle_type_id":"4","last_reported":1758622267,"current_range_meters":8000,"station_id":"ce4bhqh2rcd13ifvqhmg","pricing_plan_id":"cebpf4jnsgd1na2vs0mg"},{"bike_id":"d6bcd73e-5f97-4ec9-8ff1-41584841bc20","system_id":"levelo_inurba_marseille","lat":43.25493,"lon":5.37651,"is_reserved":false,"is_disabled":false,"rental_uris":{"android":"levelo://app?vid=d6bcd73e-5f97-4ec9-8ff1-41584841bc20","ios":"levelo://app?vid=d6bcd73e-5f97-4ec9-8ff1-41584841bc20"},"vehicle_type_id":"4","last_reported":1758622267,"current_range_meters":8000,"station_id":"ce4bhh12rcd13ifvqff0","pricing_plan_id":"cebpf4jnsgd1na2vs0mg"},{"bike_id":"6fdec039-cefc-4454-9d2b-e739f8be9182","system_id":"levelo_inurba_marseille","lat":43.28409,"lon":5.34984,"is_reserved":false,"is_disabled":false,"rental_uris":{"android":"levelo://app?vid=6fdec039-cefc-4454-9d2b-e739f8be9182","ios":"levelo://app?vid=6fdec039-cefc-4454-9d2b-e739f8be9182"},"vehicle_type_id":"4","last_reported":1758622267,"current_range_meters":8000,"station_id":"ce4bhbh2rcd13ifvqepg","pricing_plan_id":"cebpf4jnsgd1na2vs0mg"},{"bike_id":"612f5b6d-7a42-49d4-a4a9-cd0d60040cb3","system_id":"levelo_inurba_marseille","lat":43.31677,"lon":5.39016,"is_reserved":false,"is_disabled":false,"rental_uris":{"android":"levelo://app?vid=612f5b6d-7a42-49d4-a4a9-cd0d60040cb3","ios":"levelo://app?vid=612f5b6d-7a42-49d4-a4a9-cd0d60040cb3"},"vehicle_type_id":"4","last_reported":1758622267,"current_range_meters":8000,"station_id":"","pricing_plan_id":"cebpf4jnsgd1na2vs0mg"},{"bike_id":"87828865-c641-4a92-96cc-2a9d2b51cfba","system_id":"levelo_inurba_marseille","lat":43.21748,"lon":5.34608,"is_reserved":false,"is_disabled":false,"rental_uris":{"android":"levelo://app?vid=87828865-c641-4a92-96cc-2a9d2b51cfba","ios":"levelo://app?vid=87828865-c641-4a92-96cc-2a9d2b51cfba"},"vehicle_type_id":"4","last_reported":1758622267,"current_range_meters":8400,"station_id":"st_cvj6r9ubvosntc0bgbag","pricing_plan_id":"cebpf4jnsgd1na2vs0mg"},{"bike_id":"d20fed51-8110-4224-8d70-0ca80c718659","system_id":"levelo_inurba_marseille","lat":43.2808,"lon":5.39652,"is_reserved":false,"is_disabled":false,"rental_uris":{"android":"levelo://app?vid=d20fed51-8110-4224-8d70-0ca80c718659","ios":"levelo://app?vid=d20fed51-8110-4224-8d70-0ca80c718659"},"vehicle_type_id":"4","last_reported":1758622267,"current_range_meters":8400,"station_id":"ce4bho12rcd13ifvqh2g","pricing_plan_id":"cebpf4jnsgd1na2vs0mg"},{"bike_id":"fb3d2b68-0f61-476b-b51f-a105340fd44c","system_id":"levelo_inurba_marseille","lat":43.279146,"lon":5.395736,"is_reserved":false,"is_disabled":false,"rental_uris":{"android":"levelo://app?vid=fb3d2b68-0f61-476b-b51f-a105340fd44c","ios":"levelo://app?vid=fb3d2b68-0f61-476b-b51f-a105340fd44c"},"vehicle_type_id":"4","last_reported":1758622267,"current_range_meters":8400,"station_id":"ce4bh492rcd13ifvqdvg","pricing_plan_id":"cebpf4jnsgd1na2vs0mg"},{"bike_id":"1ae3762f-b7a4-42ab-b2bc-2a142823fb2b","system_id":"levelo_inurba_marseille","lat":43.31687,"lon":5.40471,"is_reserved":false,"is_disabled":false,"rental_uris":{"android":"levelo://app?vid=1ae3762f-b7a4-42ab-b2bc-2a142823fb2b","ios":"levelo://app?vid=1ae3762f-b7a4-42ab-b2bc-2a142823fb2b"},"vehicle_type_id":"4","last_reported":1758622267,"current_range_meters":8400,"station_id":"ce4bh012rcd13ifvqd00","pricing_plan_id":"cebpf4jnsgd1na2vs0mg"},{"bike_id":"d601c5ac-9f40-4413-b704-6528d37b20d6","system_id":"levelo_inurba_marseille","lat":43.29558,"lon":5.38174,"is_reserved":false,"is_disabled":true,"rental_uris":{"android":"levelo://app?vid=d601c5ac-9f40-4413-b704-6528d37b20d6","ios":"levelo://app?vid=d601c5ac-9f40-4413-b704-6528d37b20d6"},"vehicle_type_id":"4","last_reported":1758622267,"current_range_meters":8400,"station_id":"","pricing_plan_id":"cebpf4jnsgd1na2vs0mg"},{"bike_id":"e111295c-a37a-4430-9923-ce146479ffdd","system_id":"levelo_inurba_marseille","lat":43.27314,"lon":5.39093,"is_reserved":false,"is_disabled":false,"rental_uris":{"android":"levelo://app?vid=e111295c-a37a-4430-9923-ce146479ffdd","ios":"levelo://app?vid=e111295c-a37a-4430-9923-ce146479ffdd"},"vehicle_type_id":"4","last_reported":1758622267,"current_range_meters":8400,"station_id":"ce4bhgp2rcd13ifvqfe0","pricing_plan_id":"cebpf4jnsgd1na2vs0mg"},{"bike_id":"a15e48c8-16c3-437e-a237-62b9e19d84cb","system_id":"levelo_inurba_marseille","lat":43.21744,"lon":5.34614,"is_reserved":false,"is_disabled":false,"rental_uris":{"android":"levelo://app?vid=a15e48c8-16c3-437e-a237-62b9e19d84cb","ios":"levelo://app?vid=a15e48c8-16c3-437e-a237-62b9e19d84cb"},"vehicle_type_id":"4","last_reported":1758622267,"current_range_meters":8800,"station_id":"st_cvj6r9ubvosntc0bgbag","pricing_plan_id":"cebpf4jnsgd1na2vs0mg"},{"bike_id":"968f6de8-def4-4bd0-8d64-9bd0a722a433","system_id":"levelo_inurba_marseille","lat":43.27998,"lon":5.40019,"is_reserved":false,"is_disabled":false,"rental_uris":{"android":"levelo://app?vid=968f6de8-def4-4bd0-8d64-9bd0a722a433","ios":"levelo://app?vid=968f6de8-def4-4bd0-8d64-9bd0a722a433"},"vehicle_type_id":"4","last_reported":1758622267,"current_range_meters":8400,"station_id":"ce4bho92rcd13ifvqh4g","pricing_plan_id":"cebpf4jnsgd1na2vs0mg"},{"bike_id":"e6557a5f-38db-4689-8a0a-cf06ea5b55d8","system_id":"levelo_inurba_marseille","lat":43.29707,"lon":5.36603,"is_reserved":false,"is_disabled":false,"rental_uris":{"android":"levelo://app?vid=e6557a5f-38db-4689-8a0a-cf06ea5b55d8","ios":"levelo://app?vid=e6557a5f-38db-4689-8a0a-cf06ea5b55d8"},"vehicle_type_id":"4","last_reported":1758622267,"current_range_meters":8800,"station_id":"ce4bgn12rcd13ifvqbt0","pricing_plan_id":"cebpf4jnsgd1na2vs0mg"},{"bike_id":"1aa1b3a6-4b1c-4ed3-9f98-cabc709ee411","system_id":"levelo_inurba_marseille","lat":43.29598,"lon":5.381,"is_reserved":false,"is_disabled":false,"rental_uris":{"android":"levelo://app?vid=1aa1b3a6-4b1c-4ed3-9f98-cabc709ee411","ios":"levelo://app?vid=1aa1b3a6-4b1c-4ed3-9f98-cabc709ee411"},"vehicle_type_id":"4","last_reported":1758622267,"current_range_meters":8800,"station_id":"ce4bgl12rcd13ifvqbo0","pricing_plan_id":"cebpf4jnsgd1na2vs0mg"},{"bike_id":"b9153b93-88df-4926-8407-e48e3973c476","system_id":"levelo_inurba_marseille","lat":43.26227,"lon":5.40448,"is_reserved":false,"is_disabled":false,"rental_uris":{"android":"levelo://app?vid=b9153b93-88df-4926-8407-e48e3973c476","ios":"levelo://app?vid=b9153b93-88df-4926-8407-e48e3973c476"},"vehicle_type_id":"4","last_reported":1758622267,"current_range_meters":9200,"station_id":"ce4bhmh2rcd13ifvqgmg","pricing_plan_id":"cebpf4jnsgd1na2vs0mg"},{"bike_id":"d46536c1-b7ad-4df6-a9a1-6c4b8943878b","system_id":"levelo_inurba_marseille","lat":43.32365,"lon":5.38888,"is_reserved":false,"is_disabled":false,"rental_uris":{"android":"levelo://app?vid=d46536c1-b7ad-4df6-a9a1-6c4b8943878b","ios":"levelo://app?vid=d46536c1-b7ad-4df6-a9a1-6c4b8943878b"},"vehicle_type_id":"4","last_reported":1758622267,"current_range_meters":9200,"station_id":"ce4bhqp2rcd13ifvqhog","pricing_plan_id":"cebpf4jnsgd1na2vs0mg"},{"bike_id":"77dd96f9-9395-42c8-89c0-dbb2d14c4053","system_id":"levelo_inurba_marseille","lat":43.25581,"lon":5.3823,"is_reserved":false,"is_disabled":false,"rental_uris":{"android":"levelo://app?vid=77dd96f9-9395-42c8-89c0-dbb2d14c4053","ios":"levelo://app?vid=77dd96f9-9395-42c8-89c0-dbb2d14c4053"},"vehicle_type_id":"4","last_reported":1758622267,"current_range_meters":9200,"station_id":"ce4bhih2rcd13ifvqfs0","pricing_plan_id":"cebpf4jnsgd1na2vs0mg"},{"bike_id":"759e47b9-2553-49c5-b2a0-35471b025155","system_id":"levelo_inurba_marseille","lat":43.30581,"lon":5.39291,"is_reserved":false,"is_disabled":false,"rental_uris":{"android":"levelo://app?vid=759e47b9-2553-49c5-b2a0-35471b025155","ios":"levelo://app?vid=759e47b9-2553-49c5-b2a0-35471b025155"},"vehicle_type_id":"4","last_reported":1758622267,"current_range_meters":9600,"station_id":"","pricing_plan_id":"cebpf4jnsgd1na2vs0mg"},{"bike_id":"0b2230e3-adb9-421c-91b1-c113eb397705","system_id":"levelo_inurba_marseille","lat":43.28892,"lon":5.37663,"is_reserved":false,"is_disabled":false,"rental_uris":{"android":"levelo://app?vid=0b2230e3-adb9-421c-91b1-c113eb397705","ios":"levelo://app?vid=0b2230e3-adb9-421c-91b1-c113eb397705"},"vehicle_type_id":"4","last_reported":1758622267,"current_range_meters":9600,"station_id":"","pricing_plan_id":"cebpf4jnsgd1na2vs0mg"},{"bike_id":"1a814993-855b-48ed-b31a-9f558045a6ca","system_id":"levelo_inurba_marseille","lat":43.24077,"lon":5.37756,"is_reserved":false,"is_disabled":false,"rental_uris":{"android":"levelo://app?vid=1a814993-855b-48ed-b31a-9f558045a6ca","ios":"levelo://app?vid=1a814993-855b-48ed-b31a-9f558045a6ca"},"vehicle_type_id":"4","last_reported":1758622267,"current_range_meters":9600,"station_id":"ce4bhnp2rcd13ifvqgvg","pricing_plan_id":"cebpf4jnsgd1na2vs0mg"},{"bike_id":"1c5abead-f2d0-43bc-883b-3412dc32dbdf","system_id":"levelo_inurba_marseille","lat":43.29032,"lon":5.38651,"is_reserved":false,"is_disabled":false,"rental_uris":{"android":"levelo://app?vid=1c5abead-f2d0-43bc-883b-3412dc32dbdf","ios":"levelo://app?vid=1c5abead-f2d0-43bc-883b-3412dc32dbdf"},"vehicle_type_id":"4","last_reported":1758622267,"current_range_meters":9600,"station_id":"ce4bh4p2rcd13ifvqe0g","pricing_plan_id":"cebpf4jnsgd1na2vs0mg"},{"bike_id":"99742242-65b4-4e57-be4f-fce52b84fb5d","system_id":"levelo_inurba_marseille","lat":43.27216,"lon":5.392,"is_reserved":false,"is_disabled":false,"rental_uris":{"android":"levelo://app?vid=99742242-65b4-4e57-be4f-fce52b84fb5d","ios":"levelo://app?vid=99742242-65b4-4e57-be4f-fce52b84fb5d"},"vehicle_type_id":"4","last_reported":1758622267,"current_range_meters":10000,"station_id":"ce4bhhp2rcd13ifvqfm0","pricing_plan_id":"cebpf4jnsgd1na2vs0mg"},{"bike_id":"98c5a7aa-e317-4438-b0b1-07bfcab22829","system_id":"levelo_inurba_marseille","lat":43.28482,"lon":5.38421,"is_reserved":false,"is_disabled":false,"rental_uris":{"android":"levelo://app?vid=98c5a7aa-e317-4438-b0b1-07bfcab22829","ios":"levelo://app?vid=98c5a7aa-e317-4438-b0b1-07bfcab22829"},"vehicle_type_id":"4","last_reported":1758622267,"current_range_meters":10000,"station_id":"ce4bh512rcd13ifvqe3g","pricing_plan_id":"cebpf4jnsgd1na2vs0mg"},{"bike_id":"ad9f1ff7-708f-4e6a-a4cb-1b85afcbfa78","system_id":"levelo_inurba_marseille","lat":43.3118,"lon":5.38692,"is_reserved":false,"is_disabled":true,"rental_uris":{"android":"levelo://app?vid=ad9f1ff7-708f-4e6a-a4cb-1b85afcbfa78","ios":"levelo://app?vid=ad9f1ff7-708f-4e6a-a4cb-1b85afcbfa78"},"vehicle_type_id":"4","last_reported":1758622267,"current_range_meters":10000,"station_id":"ce4bgv12rcd13ifvqcp0","pricing_plan_id":"cebpf4jnsgd1na2vs0mg"},{"bike_id":"e2c18b5a-e6e2-434b-83b4-c1fc1c0b6ed7","system_id":"levelo_inurba_marseille","lat":43.3042,"lon":5.39748,"is_reserved":false,"is_disabled":false,"rental_uris":{"android":"levelo://app?vid=e2c18b5a-e6e2-434b-83b4-c1fc1c0b6ed7","ios":"levelo://app?vid=e2c18b5a-e6e2-434b-83b4-c1fc1c0b6ed7"},"vehicle_type_id":"4","last_reported":1758622267,"current_range_meters":9600,"station_id":"ce4bh092rcd13ifvqd20","pricing_plan_id":"cebpf4jnsgd1na2vs0mg"},{"bike_id":"d6892ced-68b2-4c0a-8b78-e0080257d6fa","system_id":"levelo_inurba_marseille","lat":43.31252,"lon":5.36847,"is_reserved":false,"is_disabled":true,"rental_uris":{"android":"levelo://app?vid=d6892ced-68b2-4c0a-8b78-e0080257d6fa","ios":"levelo://app?vid=d6892ced-68b2-4c0a-8b78-e0080257d6fa"},"vehicle_type_id":"4","last_reported":1758622267,"current_range_meters":10800,"station_id":"ce4bgl92rcd13ifvqbq0","pricing_plan_id":"cebpf4jnsgd1na2vs0mg"},{"bike_id":"1efddf8d-578f-4e4c-8c3f-e3a8bd592ba4","system_id":"levelo_inurba_marseille","lat":43.29574,"lon":5.37409,"is_reserved":false,"is_disabled":false,"rental_uris":{"android":"levelo://app?vid=1efddf8d-578f-4e4c-8c3f-e3a8bd592ba4","ios":"levelo://app?vid=1efddf8d-578f-4e4c-8c3f-e3a8bd592ba4"},"vehicle_type_id":"4","last_reported":1758622267,"current_range_meters":10800,"station_id":"","pricing_plan_id":"cebpf4jnsgd1na2vs0mg"},{"bike_id":"94d430e6-52b3-4d21-80c9-c6dd4519a8fb","system_id":"levelo_inurba_marseille","lat":43.31768,"lon":5.38279,"is_reserved":false,"is_disabled":false,"rental_uris":{"android":"levelo://app?vid=94d430e6-52b3-4d21-80c9-c6dd4519a8fb","ios":"levelo://app?vid=94d430e6-52b3-4d21-80c9-c6dd4519a8fb"},"vehicle_type_id":"4","last_reported":1758622267,"current_range_meters":10800,"station_id":"","pricing_plan_id":"cebpf4jnsgd1na2vs0mg"},{"bike_id":"156ba3ee-2d05-4060-9b3c-44e608592be0","system_id":"levelo_inurba_marseille","lat":43.27984,"lon":5.41644,"is_reserved":false,"is_disabled":true,"rental_uris":{"android":"levelo://app?vid=156ba3ee-2d05-4060-9b3c-44e608592be0","ios":"levelo://app?vid=156ba3ee-2d05-4060-9b3c-44e608592be0"},"vehicle_type_id":"4","last_reported":1758622267,"current_range_meters":10800,"station_id":"ce4bho12rcd13ifvqh1g","pricing_plan_id":"cebpf4jnsgd1na2vs0mg"},{"bike_id":"c020b0e8-2fe0-481e-be9a-0acd2f2089db","system_id":"levelo_inurba_marseille","lat":43.31713,"lon":5.43706,"is_reserved":false,"is_disabled":false,"rental_uris":{"android":"levelo://app?vid=c020b0e8-2fe0-481e-be9a-0acd2f2089db","ios":"levelo://app?vid=c020b0e8-2fe0-481e-be9a-0acd2f2089db"},"vehicle_type_id":"4","last_reported":1758622267,"current_range_meters":10000,"station_id":"ce4bhp92rcd13ifvqhcg","pricing_plan_id":"cebpf4jnsgd1na2vs0mg"},{"bike_id":"84e29fe6-c32e-46c4-80af-e4083b6c83cb","system_id":"levelo_inurba_marseille","lat":43.29028,"lon":5.3865,"is_reserved":false,"is_disabled":false,"rental_uris":{"android":"levelo://app?vid=84e29fe6-c32e-46c4-80af-e4083b6c83cb","ios":"levelo://app?vid=84e29fe6-c32e-46c4-80af-e4083b6c83cb"},"vehicle_type_id":"4","last_reported":1758622267,"current_range_meters":11200,"station_id":"ce4bh4p2rcd13ifvqe0g","pricing_plan_id":"cebpf4jnsgd1na2vs0mg"},{"bike_id":"ef75d15d-c28a-4fe7-853a-ed887e41d629","system_id":"levelo_inurba_marseille","lat":43.21761,"lon":5.34607,"is_reserved":false,"is_disabled":false,"rental_uris":{"android":"levelo://app?vid=ef75d15d-c28a-4fe7-853a-ed887e41d629","ios":"levelo://app?vid=ef75d15d-c28a-4fe7-853a-ed887e41d629"},"vehicle_type_id":"4","last_reported":1758622267,"current_range_meters":11200,"station_id":"st_cvj6r9ubvosntc0bgbag","pricing_plan_id":"cebpf4jnsgd1na2vs0mg"},{"bike_id":"0789f4d9-e8e9-4f30-93df-aa2653fc31f5","system_id":"levelo_inurba_marseille","lat":43.26926,"lon":5.38921,"is_reserved":false,"is_disabled":false,"rental_uris":{"android":"levelo://app?vid=0789f4d9-e8e9-4f30-93df-aa2653fc31f5","ios":"levelo://app?vid=0789f4d9-e8e9-4f30-93df-aa2653fc31f5"},"vehicle_type_id":"4","last_reported":1758622267,"current_range_meters":11200,"station_id":"ce4bhhh2rcd13ifvqfl0","pricing_plan_id":"cebpf4jnsgd1na2vs0mg"},{"bike_id":"05ffe9a6-4a01-4566-a6c5-04b47ca5b439","system_id":"levelo_inurba_marseille","lat":43.24084,"lon":5.3775,"is_reserved":false,"is_disabled":true,"rental_uris":{"android":"levelo://app?vid=05ffe9a6-4a01-4566-a6c5-04b47ca5b439","ios":"levelo://app?vid=05ffe9a6-4a01-4566-a6c5-04b47ca5b439"},"vehicle_type_id":"4","last_reported":1758622267,"current_range_meters":11200,"station_id":"ce4bhnp2rcd13ifvqgvg","pricing_plan_id":"cebpf4jnsgd1na2vs0mg"},{"bike_id":"b0cf2af9-c8f7-4165-98a7-6358a8f914d1","system_id":"levelo_inurba_marseille","lat":43.27079,"lon":5.42293,"is_reserved":false,"is_disabled":false,"rental_uris":{"android":"levelo://app?vid=b0cf2af9-c8f7-4165-98a7-6358a8f914d1","ios":"levelo://app?vid=b0cf2af9-c8f7-4165-98a7-6358a8f914d1"},"vehicle_type_id":"4","last_reported":1758622267,"current_range_meters":11600,"station_id":"ce4bhk92rcd13ifvqgb0","pricing_plan_id":"cebpf4jnsgd1na2vs0mg"},{"bike_id":"2b24d335-4231-4cbe-af41-5d2535c522be","system_id":"levelo_inurba_marseille","lat":43.24179,"lon":5.3973,"is_reserved":false,"is_disabled":false,"rental_uris":{"android":"levelo://app?vid=2b24d335-4231-4cbe-af41-5d2535c522be","ios":"levelo://app?vid=2b24d335-4231-4cbe-af41-5d2535c522be"},"vehicle_type_id":"4","last_reported":1758622267,"current_range_meters":11600,"station_id":"ce4bhn12rcd13ifvqgpg","pricing_plan_id":"cebpf4jnsgd1na2vs0mg"},{"bike_id":"fb2309f8-d66b-4b1c-9fb4-fe6a116146ab","system_id":"levelo_inurba_marseille","lat":43.26491,"lon":5.39551,"is_reserved":false,"is_disabled":false,"rental_uris":{"android":"levelo://app?vid=fb2309f8-d66b-4b1c-9fb4-fe6a116146ab","ios":"levelo://app?vid=fb2309f8-d66b-4b1c-9fb4-fe6a116146ab"},"vehicle_type_id":"4","last_reported":1758622267,"current_range_meters":11600,"station_id":"ce4bhi12rcd13ifvqfq0","pricing_plan_id":"cebpf4jnsgd1na2vs0mg"},{"bike_id":"8d243e83-cc74-44d3-bf18-f20421549672","system_id":"levelo_inurba_marseille","lat":43.28939,"lon":5.35927,"is_reserved":false,"is_disabled":false,"rental_uris":{"android":"levelo://app?vid=8d243e83-cc74-44d3-bf18-f20421549672","ios":"levelo://app?vid=8d243e83-cc74-44d3-bf18-f20421549672"},"vehicle_type_id":"4","last_reported":1758622267,"current_range_meters":11600,"station_id":"","pricing_plan_id":"cebpf4jnsgd1na2vs0mg"},{"bike_id":"2ccf71b7-f55a-4b8d-89a9-413be1e86c02","system_id":"levelo_inurba_marseille","lat":43.255725,"lon":5.382439,"is_reserved":false,"is_disabled":false,"rental_uris":{"android":"levelo://app?vid=2ccf71b7-f55a-4b8d-89a9-413be1e86c02","ios":"levelo://app?vid=2ccf71b7-f55a-4b8d-89a9-413be1e86c02"},"vehicle_type_id":"4","last_reported":1758622267,"current_range_meters":12000,"station_id":"ce4bhih2rcd13ifvqfs0","pricing_plan_id":"cebpf4jnsgd1na2vs0mg"},{"bike_id":"1538f8ba-a2fa-4a4b-90a7-2e51e2c240c7","system_id":"levelo_inurba_marseille","lat":43.29776,"lon":5.39331,"is_reserved":false,"is_disabled":false,"rental_uris":{"android":"levelo://app?vid=1538f8ba-a2fa-4a4b-90a7-2e51e2c240c7","ios":"levelo://app?vid=1538f8ba-a2fa-4a4b-90a7-2e51e2c240c7"},"vehicle_type_id":"4","last_reported":1758622267,"current_range_meters":12400,"station_id":"chh1huq6cuj3fo74tm60","pricing_plan_id":"cebpf4jnsgd1na2vs0mg"},{"bike_id":"d521a05d-9ef5-40ce-af28-3aec6d8f5083","system_id":"levelo_inurba_marseille","lat":43.2991,"lon":5.37471,"is_reserved":false,"is_disabled":false,"rental_uris":{"android":"levelo://app?vid=d521a05d-9ef5-40ce-af28-3aec6d8f5083","ios":"levelo://app?vid=d521a05d-9ef5-40ce-af28-3aec6d8f5083"},"vehicle_type_id":"4","last_reported":1758622267,"current_range_meters":12800,"station_id":"ce4bgjh2rcd13ifvqbg0","pricing_plan_id":"cebpf4jnsgd1na2vs0mg"},{"bike_id":"a23c1a85-07ab-4f18-9701-3141e7707585","system_id":"levelo_inurba_marseille","lat":43.30147,"lon":5.38081,"is_reserved":false,"is_disabled":false,"rental_uris":{"android":"levelo://app?vid=a23c1a85-07ab-4f18-9701-3141e7707585","ios":"levelo://app?vid=a23c1a85-07ab-4f18-9701-3141e7707585"},"vehicle_type_id":"4","last_reported":1758622267,"current_range_meters":12800,"station_id":"ce4bgjp2rcd13ifvqbh0","pricing_plan_id":"cebpf4jnsgd1na2vs0mg"},{"bike_id":"eba01587-aeed-4123-b2ce-9abc98879f91","system_id":"levelo_inurba_marseille","lat":43.27085,"lon":5.42296,"is_reserved":false,"is_disabled":false,"rental_uris":{"android":"levelo://app?vid=eba01587-aeed-4123-b2ce-9abc98879f91","ios":"levelo://app?vid=eba01587-aeed-4123-b2ce-9abc98879f91"},"vehicle_type_id":"4","last_reported":1758622267,"current_range_meters":13600,"station_id":"ce4bhk92rcd13ifvqgb0","pricing_plan_id":"cebpf4jnsgd1na2vs0mg"},{"bike_id":"9c7a180f-bee6-48c2-9ad2-181dea55ce36","system_id":"levelo_inurba_marseille","lat":43.3169,"lon":5.43727,"is_reserved":false,"is_disabled":false,"rental_uris":{"android":"levelo://app?vid=9c7a180f-bee6-48c2-9ad2-181dea55ce36","ios":"levelo://app?vid=9c7a180f-bee6-48c2-9ad2-181dea55ce36"},"vehicle_type_id":"4","last_reported":1758622267,"current_range_meters":13600,"station_id":"ce4bhp92rcd13ifvqhcg","pricing_plan_id":"cebpf4jnsgd1na2vs0mg"},{"bike_id":"36f59c8d-fcf6-4ab2-8f57-cf61bb820dbb","system_id":"levelo_inurba_marseille","lat":43.25905,"lon":5.40876,"is_reserved":false,"is_disabled":false,"rental_uris":{"android":"levelo://app?vid=36f59c8d-fcf6-4ab2-8f57-cf61bb820dbb","ios":"levelo://app?vid=36f59c8d-fcf6-4ab2-8f57-cf61bb820dbb"},"vehicle_type_id":"4","last_reported":1758622267,"current_range_meters":13600,"station_id":"ce4bhm92rcd13ifvqglg","pricing_plan_id":"cebpf4jnsgd1na2vs0mg"},{"bike_id":"2cd76271-f0eb-42e8-946a-114a20bd95f9","system_id":"levelo_inurba_marseille","lat":43.259426,"lon":5.40906,"is_reserved":false,"is_disabled":false,"rental_uris":{"android":"levelo://app?vid=2cd76271-f0eb-42e8-946a-114a20bd95f9","ios":"levelo://app?vid=2cd76271-f0eb-42e8-946a-114a20bd95f9"},"vehicle_type_id":"4","last_reported":1758622267,"current_range_meters":13600,"station_id":"ce4bhm92rcd13ifvqglg","pricing_plan_id":"cebpf4jnsgd1na2vs0mg"},{"bike_id":"2a2f1ce0-5eb2-4ab6-a692-64d9649dcb94","system_id":"levelo_inurba_marseille","lat":43.22578,"lon":5.41625,"is_reserved":false,"is_disabled":false,"rental_uris":{"android":"levelo://app?vid=2a2f1ce0-5eb2-4ab6-a692-64d9649dcb94","ios":"levelo://app?vid=2a2f1ce0-5eb2-4ab6-a692-64d9649dcb94"},"vehicle_type_id":"4","last_reported":1758622267,"current_range_meters":13600,"station_id":"st_d2o4gvlbi1j2169b742g","pricing_plan_id":"cebpf4jnsgd1na2vs0mg"},{"bike_id":"0d93d80f-23fc-4b4f-918d-28fde704208b","system_id":"levelo_inurba_marseille","lat":43.24165,"lon":5.36409,"is_reserved":false,"is_disabled":false,"rental_uris":{"android":"levelo://app?vid=0d93d80f-23fc-4b4f-918d-28fde704208b","ios":"levelo://app?vid=0d93d80f-23fc-4b4f-918d-28fde704208b"},"vehicle_type_id":"4","last_reported":1758622267,"current_range_meters":14000,"station_id":"cpo36qri1sfpv3e86is0","pricing_plan_id":"cebpf4jnsgd1na2vs0mg"},{"bike_id":"65807e95-9edf-43d6-9580-03406018b35c","system_id":"levelo_inurba_marseille","lat":43.3065,"lon":5.40095,"is_reserved":false,"is_disabled":false,"rental_uris":{"android":"levelo://app?vid=65807e95-9edf-43d6-9580-03406018b35c","ios":"levelo://app?vid=65807e95-9edf-43d6-9580-03406018b35c"},"vehicle_type_id":"4","last_reported":1758622267,"current_range_meters":14000,"station_id":"ce4bh112rcd13ifvqda0","pricing_plan_id":"cebpf4jnsgd1na2vs0mg"},{"bike_id":"30847d51-5c77-4d99-b389-4f43137f509e","system_id":"levelo_inurba_marseille","lat":43.29226,"lon":5.36069,"is_reserved":false,"is_disabled":false,"rental_uris":{"android":"levelo://app?vid=30847d51-5c77-4d99-b389-4f43137f509e","ios":"levelo://app?vid=30847d51-5c77-4d99-b389-4f43137f509e"},"vehicle_type_id":"4","last_reported":1758622267,"current_range_meters":14000,"station_id":"ce4bhbh2rcd13ifvqeqg","pricing_plan_id":"cebpf4jnsgd1na2vs0mg"},{"bike_id":"6ac17a81-0487-4557-9f83-8f554f6e083e","system_id":"levelo_inurba_marseille","lat":43.32015,"lon":5.37141,"is_reserved":false,"is_disabled":false,"rental_uris":{"android":"levelo://app?vid=6ac17a81-0487-4557-9f83-8f554f6e083e","ios":"levelo://app?vid=6ac17a81-0487-4557-9f83-8f554f6e083e"},"vehicle_type_id":"4","last_reported":1758622267,"current_range_meters":14400,"station_id":"","pricing_plan_id":"cebpf4jnsgd1na2vs0mg"},{"bike_id":"2db17ebf-30c0-4484-b4df-5e514cd2afe3","system_id":"levelo_inurba_marseille","lat":43.23966,"lon":5.36616,"is_reserved":false,"is_disabled":false,"rental_uris":{"android":"levelo://app?vid=2db17ebf-30c0-4484-b4df-5e514cd2afe3","ios":"levelo://app?vid=2db17ebf-30c0-4484-b4df-5e514cd2afe3"},"vehicle_type_id":"4","last_reported":1758622267,"current_range_meters":14400,"station_id":"ce4bhi12rcd13ifvqfp0","pricing_plan_id":"cebpf4jnsgd1na2vs0mg"},{"bike_id":"30bb83fe-1759-4439-94c7-873da2c2a5e5","system_id":"levelo_inurba_marseille","lat":43.23145,"lon":5.4372,"is_reserved":false,"is_disabled":false,"rental_uris":{"android":"levelo://app?vid=30bb83fe-1759-4439-94c7-873da2c2a5e5","ios":"levelo://app?vid=30bb83fe-1759-4439-94c7-873da2c2a5e5"},"vehicle_type_id":"4","last_reported":1758622267,"current_range_meters":14400,"station_id":"ce4bhmp2rcd13ifvqgog","pricing_plan_id":"cebpf4jnsgd1na2vs0mg"},{"bike_id":"4e31913d-de98-42fe-a3c8-1e057f869a16","system_id":"levelo_inurba_marseille","lat":43.2979,"lon":5.39341,"is_reserved":false,"is_disabled":false,"rental_uris":{"android":"levelo://app?vid=4e31913d-de98-42fe-a3c8-1e057f869a16","ios":"levelo://app?vid=4e31913d-de98-42fe-a3c8-1e057f869a16"},"vehicle_type_id":"4","last_reported":1758622267,"current_range_meters":14400,"station_id":"chh1huq6cuj3fo74tm60","pricing_plan_id":"cebpf4jnsgd1na2vs0mg"},{"bike_id":"b763021b-1995-47c4-a2e7-d6e86c82dd02","system_id":"levelo_inurba_marseille","lat":43.28484,"lon":5.38549,"is_reserved":false,"is_disabled":false,"rental_uris":{"android":"levelo://app?vid=b763021b-1995-47c4-a2e7-d6e86c82dd02","ios":"levelo://app?vid=b763021b-1995-47c4-a2e7-d6e86c82dd02"},"vehicle_type_id":"4","last_reported":1758622267,"current_range_meters":14800,"station_id":"ce4bh8p2rcd13ifvqeb0","pricing_plan_id":"cebpf4jnsgd1na2vs0mg"},{"bike_id":"7c0482c3-9253-4d1b-b4f3-be55cdb7721d","system_id":"levelo_inurba_marseille","lat":43.33757,"lon":5.37466,"is_reserved":false,"is_disabled":false,"rental_uris":{"android":"levelo://app?vid=7c0482c3-9253-4d1b-b4f3-be55cdb7721d","ios":"levelo://app?vid=7c0482c3-9253-4d1b-b4f3-be55cdb7721d"},"vehicle_type_id":"4","last_reported":1758622267,"current_range_meters":14800,"station_id":"","pricing_plan_id":"cebpf4jnsgd1na2vs0mg"},{"bike_id":"f80f318c-9dd2-4c2c-b730-86c451cb981c","system_id":"levelo_inurba_marseille","lat":43.3016,"lon":5.37407,"is_reserved":false,"is_disabled":false,"rental_uris":{"android":"levelo://app?vid=f80f318c-9dd2-4c2c-b730-86c451cb981c","ios":"levelo://app?vid=f80f318c-9dd2-4c2c-b730-86c451cb981c"},"vehicle_type_id":"4","last_reported":1758622267,"current_range_meters":14800,"station_id":"ce4bgs92rcd13ifvqcc0","pricing_plan_id":"cebpf4jnsgd1na2vs0mg"},{"bike_id":"5b1a36c8-304b-48bf-aa9d-28113bdf9ed6","system_id":"levelo_inurba_marseille","lat":43.30372,"lon":5.42491,"is_reserved":false,"is_disabled":false,"rental_uris":{"android":"levelo://app?vid=5b1a36c8-304b-48bf-aa9d-28113bdf9ed6","ios":"levelo://app?vid=5b1a36c8-304b-48bf-aa9d-28113bdf9ed6"},"vehicle_type_id":"4","last_reported":1758622267,"current_range_meters":14800,"station_id":"ce4bhoh2rcd13ifvqh6g","pricing_plan_id":"cebpf4jnsgd1na2vs0mg"},{"bike_id":"43d57fd4-047e-4ac8-97e5-ec9b96239472","system_id":"levelo_inurba_marseille","lat":43.33231,"lon":5.39821,"is_reserved":false,"is_disabled":false,"rental_uris":{"android":"levelo://app?vid=43d57fd4-047e-4ac8-97e5-ec9b96239472","ios":"levelo://app?vid=43d57fd4-047e-4ac8-97e5-ec9b96239472"},"vehicle_type_id":"4","last_reported":1758622267,"current_range_meters":14800,"station_id":"","pricing_plan_id":"cebpf4jnsgd1na2vs0mg"},{"bike_id":"4ab38cc0-0684-4e43-87c2-992fcfdb0c6a","system_id":"levelo_inurba_marseille","lat":43.280788,"lon":5.396646,"is_reserved":false,"is_disabled":false,"rental_uris":{"android":"levelo://app?vid=4ab38cc0-0684-4e43-87c2-992fcfdb0c6a","ios":"levelo://app?vid=4ab38cc0-0684-4e43-87c2-992fcfdb0c6a"},"vehicle_type_id":"4","last_reported":1758622267,"current_range_meters":14800,"station_id":"","pricing_plan_id":"cebpf4jnsgd1na2vs0mg"},{"bike_id":"ed883389-1672-49b0-a5c4-8def0ee0fc42","system_id":"levelo_inurba_marseille","lat":43.28546,"lon":5.42434,"is_reserved":false,"is_disabled":false,"rental_uris":{"android":"levelo://app?vid=ed883389-1672-49b0-a5c4-8def0ee0fc42","ios":"levelo://app?vid=ed883389-1672-49b0-a5c4-8def0ee0fc42"},"vehicle_type_id":"4","last_reported":1758622267,"current_range_meters":15200,"station_id":"","pricing_plan_id":"cebpf4jnsgd1na2vs0mg"},{"bike_id":"84ed6c5f-ee83-4d29-9c03-bc2c90d6c59c","system_id":"levelo_inurba_marseille","lat":43.3053,"lon":5.36713,"is_reserved":false,"is_disabled":false,"rental_uris":{"android":"levelo://app?vid=84ed6c5f-ee83-4d29-9c03-bc2c90d6c59c","ios":"levelo://app?vid=84ed6c5f-ee83-4d29-9c03-bc2c90d6c59c"},"vehicle_type_id":"4","last_reported":1758622267,"current_range_meters":15200,"station_id":"ce4bgrp2rcd13ifvqc9g","pricing_plan_id":"cebpf4jnsgd1na2vs0mg"},{"bike_id":"525835fd-d9ee-49a9-8fe3-1cd4f3d5dd55","system_id":"levelo_inurba_marseille","lat":43.286613,"lon":5.38667,"is_reserved":false,"is_disabled":false,"rental_uris":{"android":"levelo://app?vid=525835fd-d9ee-49a9-8fe3-1cd4f3d5dd55","ios":"levelo://app?vid=525835fd-d9ee-49a9-8fe3-1cd4f3d5dd55"},"vehicle_type_id":"4","last_reported":1758622267,"current_range_meters":15200,"station_id":"ce4bh492rcd13ifvqdug","pricing_plan_id":"cebpf4jnsgd1na2vs0mg"},{"bike_id":"89ad2f17-f34f-4dcf-9140-10d2e33d17d9","system_id":"levelo_inurba_marseille","lat":43.29008,"lon":5.35612,"is_reserved":false,"is_disabled":false,"rental_uris":{"android":"levelo://app?vid=89ad2f17-f34f-4dcf-9140-10d2e33d17d9","ios":"levelo://app?vid=89ad2f17-f34f-4dcf-9140-10d2e33d17d9"},"vehicle_type_id":"4","last_reported":1758622267,"current_range_meters":15200,"station_id":"ce4bhb92rcd13ifvqen0","pricing_plan_id":"cebpf4jnsgd1na2vs0mg"},{"bike_id":"8f63bb28-daf3-434a-b520-4ffc9e66dc1c","system_id":"levelo_inurba_marseille","lat":43.2562,"lon":5.4121,"is_reserved":false,"is_disabled":false,"rental_uris":{"android":"levelo://app?vid=8f63bb28-daf3-434a-b520-4ffc9e66dc1c","ios":"levelo://app?vid=8f63bb28-daf3-434a-b520-4ffc9e66dc1c"},"vehicle_type_id":"4","last_reported":1758622267,"current_range_meters":16000,"station_id":"","pricing_plan_id":"cebpf4jnsgd1na2vs0mg"},{"bike_id":"1cd32492-01d3-4698-85a3-f552c709f67e","system_id":"levelo_inurba_marseille","lat":43.286985,"lon":5.399842,"is_reserved":false,"is_disabled":false,"rental_uris":{"android":"levelo://app?vid=1cd32492-01d3-4698-85a3-f552c709f67e","ios":"levelo://app?vid=1cd32492-01d3-4698-85a3-f552c709f67e"},"vehicle_type_id":"4","last_reported":1758622267,"current_range_meters":15200,"station_id":"","pricing_plan_id":"cebpf4jnsgd1na2vs0mg"},{"bike_id":"9e79e6dd-e022-48ab-8dcd-89e3f0c5d53e","system_id":"levelo_inurba_marseille","lat":43.29964,"lon":5.38499,"is_reserved":false,"is_disabled":false,"rental_uris":{"android":"levelo://app?vid=9e79e6dd-e022-48ab-8dcd-89e3f0c5d53e","ios":"levelo://app?vid=9e79e6dd-e022-48ab-8dcd-89e3f0c5d53e"},"vehicle_type_id":"4","last_reported":1758622267,"current_range_meters":16000,"station_id":"ce4bgj92rcd13ifvqbd0","pricing_plan_id":"cebpf4jnsgd1na2vs0mg"},{"bike_id":"ec998397-70b6-4c87-8660-ea0f660bcbd7","system_id":"levelo_inurba_marseille","lat":43.28085,"lon":5.39629,"is_reserved":false,"is_disabled":false,"rental_uris":{"android":"levelo://app?vid=ec998397-70b6-4c87-8660-ea0f660bcbd7","ios":"levelo://app?vid=ec998397-70b6-4c87-8660-ea0f660bcbd7"},"vehicle_type_id":"4","last_reported":1758622267,"current_range_meters":16000,"station_id":"ce4bho12rcd13ifvqh2g","pricing_plan_id":"cebpf4jnsgd1na2vs0mg"},{"bike_id":"06a24bce-028d-4b4a-b4a3-d45296145db5","system_id":"levelo_inurba_marseille","lat":43.28425,"lon":5.34991,"is_reserved":false,"is_disabled":true,"rental_uris":{"android":"levelo://app?vid=06a24bce-028d-4b4a-b4a3-d45296145db5","ios":"levelo://app?vid=06a24bce-028d-4b4a-b4a3-d45296145db5"},"vehicle_type_id":"4","last_reported":1758622267,"current_range_meters":16000,"station_id":"ce4bhch2rcd13ifvqeug","pricing_plan_id":"cebpf4jnsgd1na2vs0mg"},{"bike_id":"c3eb0715-276b-48a3-bcf1-95995df3f596","system_id":"levelo_inurba_marseille","lat":43.24652,"lon":5.38904,"is_reserved":false,"is_disabled":false,"rental_uris":{"android":"levelo://app?vid=c3eb0715-276b-48a3-bcf1-95995df3f596","ios":"levelo://app?vid=c3eb0715-276b-48a3-bcf1-95995df3f596"},"vehicle_type_id":"4","last_reported":1758622267,"current_range_meters":16000,"station_id":"ce4bhg12rcd13ifvqf60","pricing_plan_id":"cebpf4jnsgd1na2vs0mg"},{"bike_id":"807ea47c-ef29-450d-9566-a3d97fdd8478","system_id":"levelo_inurba_marseille","lat":43.27903,"lon":5.39571,"is_reserved":false,"is_disabled":false,"rental_uris":{"android":"levelo://app?vid=807ea47c-ef29-450d-9566-a3d97fdd8478","ios":"levelo://app?vid=807ea47c-ef29-450d-9566-a3d97fdd8478"},"vehicle_type_id":"4","last_reported":1758622267,"current_range_meters":16000,"station_id":"ce4bhf92rcd13ifvqf40","pricing_plan_id":"cebpf4jnsgd1na2vs0mg"},{"bike_id":"c62ad3d9-b61d-4b5c-a465-c32d91b88324","system_id":"levelo_inurba_marseille","lat":43.32365,"lon":5.38883,"is_reserved":false,"is_disabled":false,"rental_uris":{"android":"levelo://app?vid=c62ad3d9-b61d-4b5c-a465-c32d91b88324","ios":"levelo://app?vid=c62ad3d9-b61d-4b5c-a465-c32d91b88324"},"vehicle_type_id":"4","last_reported":1758622267,"current_range_meters":16000,"station_id":"ce4bhqp2rcd13ifvqhog","pricing_plan_id":"cebpf4jnsgd1na2vs0mg"},{"bike_id":"2e86854b-25f6-4d9b-a3a1-fb7c707a145b","system_id":"levelo_inurba_marseille","lat":43.24172,"lon":5.39732,"is_reserved":false,"is_disabled":false,"rental_uris":{"android":"levelo://app?vid=2e86854b-25f6-4d9b-a3a1-fb7c707a145b","ios":"levelo://app?vid=2e86854b-25f6-4d9b-a3a1-fb7c707a145b"},"vehicle_type_id":"4","last_reported":1758622267,"current_range_meters":16400,"station_id":"ce4bhn12rcd13ifvqgpg","pricing_plan_id":"cebpf4jnsgd1na2vs0mg"},{"bike_id":"adc9b767-fa5a-487c-b17d-fb3c376c3f08","system_id":"levelo_inurba_marseille","lat":43.313462,"lon":5.38508,"is_reserved":false,"is_disabled":false,"rental_uris":{"android":"levelo://app?vid=adc9b767-fa5a-487c-b17d-fb3c376c3f08","ios":"levelo://app?vid=adc9b767-fa5a-487c-b17d-fb3c376c3f08"},"vehicle_type_id":"4","last_reported":1758622267,"current_range_meters":16400,"station_id":"","pricing_plan_id":"cebpf4jnsgd1na2vs0mg"},{"bike_id":"7ed3e504-3bf5-49f4-9c8d-1bd65653f9f8","system_id":"levelo_inurba_marseille","lat":43.30431,"lon":5.38896,"is_reserved":false,"is_disabled":false,"rental_uris":{"android":"levelo://app?vid=7ed3e504-3bf5-49f4-9c8d-1bd65653f9f8","ios":"levelo://app?vid=7ed3e504-3bf5-49f4-9c8d-1bd65653f9f8"},"vehicle_type_id":"4","last_reported":1758622267,"current_range_meters":16400,"station_id":"ce4bgk12rcd13ifvqbi0","pricing_plan_id":"cebpf4jnsgd1na2vs0mg"},{"bike_id":"d348838d-dddb-4920-a15f-0af06cb1a6f2","system_id":"levelo_inurba_marseille","lat":43.29531,"lon":5.38546,"is_reserved":false,"is_disabled":false,"rental_uris":{"android":"levelo://app?vid=d348838d-dddb-4920-a15f-0af06cb1a6f2","ios":"levelo://app?vid=d348838d-dddb-4920-a15f-0af06cb1a6f2"},"vehicle_type_id":"4","last_reported":1758622267,"current_range_meters":16400,"station_id":"","pricing_plan_id":"cebpf4jnsgd1na2vs0mg"},{"bike_id":"15f0126c-7e31-410d-8d88-412d27fe5839","system_id":"levelo_inurba_marseille","lat":43.28268,"lon":5.3507,"is_reserved":false,"is_disabled":false,"rental_uris":{"android":"levelo://app?vid=15f0126c-7e31-410d-8d88-412d27fe5839","ios":"levelo://app?vid=15f0126c-7e31-410d-8d88-412d27fe5839"},"vehicle_type_id":"4","last_reported":1758622267,"current_range_meters":16400,"station_id":"ce4bhbp2rcd13ifvqerg","pricing_plan_id":"cebpf4jnsgd1na2vs0mg"},{"bike_id":"2a52b0bb-783a-489f-a7b9-793ba892f121","system_id":"levelo_inurba_marseille","lat":43.25334,"lon":5.42173,"is_reserved":false,"is_disabled":false,"rental_uris":{"android":"levelo://app?vid=2a52b0bb-783a-489f-a7b9-793ba892f121","ios":"levelo://app?vid=2a52b0bb-783a-489f-a7b9-793ba892f121"},"vehicle_type_id":"4","last_reported":1758622267,"current_range_meters":16400,"station_id":"st_d2m65c5bi1j21697t3ng","pricing_plan_id":"cebpf4jnsgd1na2vs0mg"},{"bike_id":"8552fe36-10d8-46fd-997b-c97d2970480a","system_id":"levelo_inurba_marseille","lat":43.323597,"lon":5.36743,"is_reserved":false,"is_disabled":false,"rental_uris":{"android":"levelo://app?vid=8552fe36-10d8-46fd-997b-c97d2970480a","ios":"levelo://app?vid=8552fe36-10d8-46fd-997b-c97d2970480a"},"vehicle_type_id":"4","last_reported":1758622267,"current_range_meters":16400,"station_id":"ce4bhsh2rcd13ifvqi2g","pricing_plan_id":"cebpf4jnsgd1na2vs0mg"},{"bike_id":"5b56ae56-3f83-4f3a-bf98-57685dc316b9","system_id":"levelo_inurba_marseille","lat":43.32455,"lon":5.36566,"is_reserved":false,"is_disabled":false,"rental_uris":{"android":"levelo://app?vid=5b56ae56-3f83-4f3a-bf98-57685dc316b9","ios":"levelo://app?vid=5b56ae56-3f83-4f3a-bf98-57685dc316b9"},"vehicle_type_id":"4","last_reported":1758622267,"current_range_meters":16800,"station_id":"ce4bhs12rcd13ifvqhvg","pricing_plan_id":"cebpf4jnsgd1na2vs0mg"},{"bike_id":"49d9eb13-9c16-42a5-8b0a-553a0ab4ac5f","system_id":"levelo_inurba_marseille","lat":43.33625,"lon":5.40983,"is_reserved":false,"is_disabled":false,"rental_uris":{"android":"levelo://app?vid=49d9eb13-9c16-42a5-8b0a-553a0ab4ac5f","ios":"levelo://app?vid=49d9eb13-9c16-42a5-8b0a-553a0ab4ac5f"},"vehicle_type_id":"4","last_reported":1758622267,"current_range_meters":16800,"station_id":"ce4bhqh2rcd13ifvqhmg","pricing_plan_id":"cebpf4jnsgd1na2vs0mg"},{"bike_id":"4c0b651b-953c-4759-a0f7-0074f59a45eb","system_id":"levelo_inurba_marseille","lat":43.25801,"lon":5.39269,"is_reserved":false,"is_disabled":false,"rental_uris":{"android":"levelo://app?vid=4c0b651b-953c-4759-a0f7-0074f59a45eb","ios":"levelo://app?vid=4c0b651b-953c-4759-a0f7-0074f59a45eb"},"vehicle_type_id":"4","last_reported":1758622267,"current_range_meters":16800,"station_id":"","pricing_plan_id":"cebpf4jnsgd1na2vs0mg"},{"bike_id":"3c0fa725-f739-4599-965d-e73d3e7b2c8f","system_id":"levelo_inurba_marseille","lat":43.32373,"lon":5.36734,"is_reserved":false,"is_disabled":false,"rental_uris":{"android":"levelo://app?vid=3c0fa725-f739-4599-965d-e73d3e7b2c8f","ios":"levelo://app?vid=3c0fa725-f739-4599-965d-e73d3e7b2c8f"},"vehicle_type_id":"4","last_reported":1758622267,"current_range_meters":16800,"station_id":"ce4bhsh2rcd13ifvqi2g","pricing_plan_id":"cebpf4jnsgd1na2vs0mg"},{"bike_id":"002f9227-4304-45fb-9001-8e868cef61ac","system_id":"levelo_inurba_marseille","lat":43.30417,"lon":5.39754,"is_reserved":false,"is_disabled":false,"rental_uris":{"android":"levelo://app?vid=002f9227-4304-45fb-9001-8e868cef61ac","ios":"levelo://app?vid=002f9227-4304-45fb-9001-8e868cef61ac"},"vehicle_type_id":"4","last_reported":1758622267,"current_range_meters":16800,"station_id":"ce4bh092rcd13ifvqd20","pricing_plan_id":"cebpf4jnsgd1na2vs0mg"},{"bike_id":"d90bb5dc-4343-4450-a4f7-858369670441","system_id":"levelo_inurba_marseille","lat":43.28347,"lon":5.38103,"is_reserved":false,"is_disabled":false,"rental_uris":{"android":"levelo://app?vid=d90bb5dc-4343-4450-a4f7-858369670441","ios":"levelo://app?vid=d90bb5dc-4343-4450-a4f7-858369670441"},"vehicle_type_id":"4","last_reported":1758622267,"current_range_meters":16800,"station_id":"ce4bh412rcd13ifvqdr0","pricing_plan_id":"cebpf4jnsgd1na2vs0mg"},{"bike_id":"dddca5ef-4a33-499b-936a-6d8e6136a417","system_id":"levelo_inurba_marseille","lat":43.229346,"lon":5.353831,"is_reserved":false,"is_disabled":false,"rental_uris":{"android":"levelo://app?vid=dddca5ef-4a33-499b-936a-6d8e6136a417","ios":"levelo://app?vid=dddca5ef-4a33-499b-936a-6d8e6136a417"},"vehicle_type_id":"4","last_reported":1758622267,"current_range_meters":16800,"station_id":"cpo3532slgdg3j2ikp40","pricing_plan_id":"cebpf4jnsgd1na2vs0mg"},{"bike_id":"308e6be5-1487-426b-b66b-36a47215230a","system_id":"levelo_inurba_marseille","lat":43.27914,"lon":5.3957,"is_reserved":false,"is_disabled":false,"rental_uris":{"android":"levelo://app?vid=308e6be5-1487-426b-b66b-36a47215230a","ios":"levelo://app?vid=308e6be5-1487-426b-b66b-36a47215230a"},"vehicle_type_id":"4","last_reported":1758622267,"current_range_meters":17200,"station_id":"ce4bhf92rcd13ifvqf40","pricing_plan_id":"cebpf4jnsgd1na2vs0mg"},{"bike_id":"d0b1cbbb-2369-4620-8f50-a6b19f665868","system_id":"levelo_inurba_marseille","lat":43.24071,"lon":5.37763,"is_reserved":false,"is_disabled":false,"rental_uris":{"android":"levelo://app?vid=d0b1cbbb-2369-4620-8f50-a6b19f665868","ios":"levelo://app?vid=d0b1cbbb-2369-4620-8f50-a6b19f665868"},"vehicle_type_id":"4","last_reported":1758622267,"current_range_meters":17200,"station_id":"ce4bhnp2rcd13ifvqgvg","pricing_plan_id":"cebpf4jnsgd1na2vs0mg"},{"bike_id":"a8c1e87b-1c36-47cc-9eaf-4cfaeeabbd3a","system_id":"levelo_inurba_marseille","lat":43.25338,"lon":5.42169,"is_reserved":false,"is_disabled":false,"rental_uris":{"android":"levelo://app?vid=a8c1e87b-1c36-47cc-9eaf-4cfaeeabbd3a","ios":"levelo://app?vid=a8c1e87b-1c36-47cc-9eaf-4cfaeeabbd3a"},"vehicle_type_id":"4","last_reported":1758622267,"current_range_meters":17200,"station_id":"st_d2m65c5bi1j21697t3ng","pricing_plan_id":"cebpf4jnsgd1na2vs0mg"},{"bike_id":"1cd420c9-83fb-4bc1-b7d7-4ff4e3fc796c","system_id":"levelo_inurba_marseille","lat":43.321071,"lon":5.367746,"is_reserved":false,"is_disabled":false,"rental_uris":{"android":"levelo://app?vid=1cd420c9-83fb-4bc1-b7d7-4ff4e3fc796c","ios":"levelo://app?vid=1cd420c9-83fb-4bc1-b7d7-4ff4e3fc796c"},"vehicle_type_id":"4","last_reported":1758622267,"current_range_meters":17200,"station_id":"ce4bhrh2rcd13ifvqhug","pricing_plan_id":"cebpf4jnsgd1na2vs0mg"},{"bike_id":"69d81297-ccd3-400b-af23-dac99a439288","system_id":"levelo_inurba_marseille","lat":43.26945,"lon":5.3892,"is_reserved":false,"is_disabled":false,"rental_uris":{"android":"levelo://app?vid=69d81297-ccd3-400b-af23-dac99a439288","ios":"levelo://app?vid=69d81297-ccd3-400b-af23-dac99a439288"},"vehicle_type_id":"4","last_reported":1758622267,"current_range_meters":17200,"station_id":"ce4bhhh2rcd13ifvqfl0","pricing_plan_id":"cebpf4jnsgd1na2vs0mg"},{"bike_id":"9524be74-c097-42b1-a700-a43986d10e9c","system_id":"levelo_inurba_marseille","lat":43.26223,"lon":5.40476,"is_reserved":false,"is_disabled":false,"rental_uris":{"android":"levelo://app?vid=9524be74-c097-42b1-a700-a43986d10e9c","ios":"levelo://app?vid=9524be74-c097-42b1-a700-a43986d10e9c"},"vehicle_type_id":"4","last_reported":1758622267,"current_range_meters":17200,"station_id":"ce4bhmh2rcd13ifvqgmg","pricing_plan_id":"cebpf4jnsgd1na2vs0mg"},{"bike_id":"c8f3c8da-edc9-4118-a2a2-80f74b9d6e48","system_id":"levelo_inurba_marseille","lat":43.25093,"lon":5.39515,"is_reserved":false,"is_disabled":false,"rental_uris":{"android":"levelo://app?vid=c8f3c8da-edc9-4118-a2a2-80f74b9d6e48","ios":"levelo://app?vid=c8f3c8da-edc9-4118-a2a2-80f74b9d6e48"},"vehicle_type_id":"4","last_reported":1758622267,"current_range_meters":17200,"station_id":"ce4bhm12rcd13ifvqgkg","pricing_plan_id":"cebpf4jnsgd1na2vs0mg"},{"bike_id":"48aa74d7-4d44-41fb-87de-62544294d64a","system_id":"levelo_inurba_marseille","lat":43.2466,"lon":5.38903,"is_reserved":false,"is_disabled":false,"rental_uris":{"android":"levelo://app?vid=48aa74d7-4d44-41fb-87de-62544294d64a","ios":"levelo://app?vid=48aa74d7-4d44-41fb-87de-62544294d64a"},"vehicle_type_id":"4","last_reported":1758622267,"current_range_meters":17200,"station_id":"ce4bhg12rcd13ifvqf60","pricing_plan_id":"cebpf4jnsgd1na2vs0mg"},{"bike_id":"7a9d054a-33d2-4ab9-8282-d7fe3644a2a9","system_id":"levelo_inurba_marseille","lat":43.33613,"lon":5.41027,"is_reserved":false,"is_disabled":false,"rental_uris":{"android":"levelo://app?vid=7a9d054a-33d2-4ab9-8282-d7fe3644a2a9","ios":"levelo://app?vid=7a9d054a-33d2-4ab9-8282-d7fe3644a2a9"},"vehicle_type_id":"4","last_reported":1758622267,"current_range_meters":16800,"station_id":"ce4bhqh2rcd13ifvqhmg","pricing_plan_id":"cebpf4jnsgd1na2vs0mg"},{"bike_id":"9feb0e0f-24fa-4463-b0f3-30472830c043","system_id":"levelo_inurba_marseille","lat":43.31757,"lon":5.39002,"is_reserved":false,"is_disabled":false,"rental_uris":{"android":"levelo://app?vid=9feb0e0f-24fa-4463-b0f3-30472830c043","ios":"levelo://app?vid=9feb0e0f-24fa-4463-b0f3-30472830c043"},"vehicle_type_id":"4","last_reported":1758622267,"current_range_meters":17600,"station_id":"ce4bhqp2rcd13ifvqhng","pricing_plan_id":"cebpf4jnsgd1na2vs0mg"},{"bike_id":"a60abba9-f9b8-477b-8786-175fc2b6218b","system_id":"levelo_inurba_marseille","lat":43.30869,"lon":5.37187,"is_reserved":false,"is_disabled":false,"rental_uris":{"android":"levelo://app?vid=a60abba9-f9b8-477b-8786-175fc2b6218b","ios":"levelo://app?vid=a60abba9-f9b8-477b-8786-175fc2b6218b"},"vehicle_type_id":"4","last_reported":1758622267,"current_range_meters":17600,"station_id":"ce4bguh2rcd13ifvqckg","pricing_plan_id":"cebpf4jnsgd1na2vs0mg"},{"bike_id":"95092148-5f75-4663-be7d-7c8aa2863391","system_id":"levelo_inurba_marseille","lat":43.24162,"lon":5.36413,"is_reserved":false,"is_disabled":false,"rental_uris":{"android":"levelo://app?vid=95092148-5f75-4663-be7d-7c8aa2863391","ios":"levelo://app?vid=95092148-5f75-4663-be7d-7c8aa2863391"},"vehicle_type_id":"4","last_reported":1758622267,"current_range_meters":17600,"station_id":"cpo36qri1sfpv3e86is0","pricing_plan_id":"cebpf4jnsgd1na2vs0mg"},{"bike_id":"ad5983fa-c5d9-478a-a7d8-71759631fb1a","system_id":"levelo_inurba_marseille","lat":43.32658,"lon":5.40992,"is_reserved":false,"is_disabled":false,"rental_uris":{"android":"levelo://app?vid=ad5983fa-c5d9-478a-a7d8-71759631fb1a","ios":"levelo://app?vid=ad5983fa-c5d9-478a-a7d8-71759631fb1a"},"vehicle_type_id":"4","last_reported":1758622267,"current_range_meters":17600,"station_id":"ce4bhpp2rcd13ifvqhgg","pricing_plan_id":"cebpf4jnsgd1na2vs0mg"},{"bike_id":"fa07710e-e106-4fc5-95aa-5d52cb098276","system_id":"levelo_inurba_marseille","lat":43.292564,"lon":5.408929,"is_reserved":false,"is_disabled":false,"rental_uris":{"android":"levelo://app?vid=fa07710e-e106-4fc5-95aa-5d52cb098276","ios":"levelo://app?vid=fa07710e-e106-4fc5-95aa-5d52cb098276"},"vehicle_type_id":"4","last_reported":1758622267,"current_range_meters":18000,"station_id":"ce4bh192rcd13ifvqdc0","pricing_plan_id":"cebpf4jnsgd1na2vs0mg"},{"bike_id":"1f3279b2-02d2-4948-ad01-b1cda410e6d1","system_id":"levelo_inurba_marseille","lat":43.31369,"lon":5.38503,"is_reserved":false,"is_disabled":false,"rental_uris":{"android":"levelo://app?vid=1f3279b2-02d2-4948-ad01-b1cda410e6d1","ios":"levelo://app?vid=1f3279b2-02d2-4948-ad01-b1cda410e6d1"},"vehicle_type_id":"4","last_reported":1758622267,"current_range_meters":17600,"station_id":"ce4bgt92rcd13ifvqcf0","pricing_plan_id":"cebpf4jnsgd1na2vs0mg"},{"bike_id":"0630ebcb-db7e-45a4-aac2-f3c7fcdc2a95","system_id":"levelo_inurba_marseille","lat":43.30149,"lon":5.38083,"is_reserved":false,"is_disabled":false,"rental_uris":{"android":"levelo://app?vid=0630ebcb-db7e-45a4-aac2-f3c7fcdc2a95","ios":"levelo://app?vid=0630ebcb-db7e-45a4-aac2-f3c7fcdc2a95"},"vehicle_type_id":"4","last_reported":1758622267,"current_range_meters":18000,"station_id":"ce4bgjp2rcd13ifvqbh0","pricing_plan_id":"cebpf4jnsgd1na2vs0mg"},{"bike_id":"b5097eea-9912-4be2-9cf9-14c224c5fab6","system_id":"levelo_inurba_marseille","lat":43.232,"lon":5.35555,"is_reserved":false,"is_disabled":false,"rental_uris":{"android":"levelo://app?vid=b5097eea-9912-4be2-9cf9-14c224c5fab6","ios":"levelo://app?vid=b5097eea-9912-4be2-9cf9-14c224c5fab6"},"vehicle_type_id":"4","last_reported":1758622267,"current_range_meters":18000,"station_id":"ce4bhu92rcd13ifvqi70","pricing_plan_id":"cebpf4jnsgd1na2vs0mg"},{"bike_id":"e34a534e-40a2-424f-9a9f-8dd078555d70","system_id":"levelo_inurba_marseille","lat":43.31359,"lon":5.36725,"is_reserved":false,"is_disabled":false,"rental_uris":{"android":"levelo://app?vid=e34a534e-40a2-424f-9a9f-8dd078555d70","ios":"levelo://app?vid=e34a534e-40a2-424f-9a9f-8dd078555d70"},"vehicle_type_id":"4","last_reported":1758622267,"current_range_meters":18000,"station_id":"ce4bgr92rcd13ifvqc6g","pricing_plan_id":"cebpf4jnsgd1na2vs0mg"},{"bike_id":"487ff905-c3d9-46a9-b748-757208ea915d","system_id":"levelo_inurba_marseille","lat":43.28412,"lon":5.34975,"is_reserved":false,"is_disabled":false,"rental_uris":{"android":"levelo://app?vid=487ff905-c3d9-46a9-b748-757208ea915d","ios":"levelo://app?vid=487ff905-c3d9-46a9-b748-757208ea915d"},"vehicle_type_id":"4","last_reported":1758622267,"current_range_meters":17600,"station_id":"ce4bhbh2rcd13ifvqepg","pricing_plan_id":"cebpf4jnsgd1na2vs0mg"},{"bike_id":"72ca9785-3eaa-429a-adce-ef30ae6246ca","system_id":"levelo_inurba_marseille","lat":43.28415,"lon":5.34984,"is_reserved":false,"is_disabled":false,"rental_uris":{"android":"levelo://app?vid=72ca9785-3eaa-429a-adce-ef30ae6246ca","ios":"levelo://app?vid=72ca9785-3eaa-429a-adce-ef30ae6246ca"},"vehicle_type_id":"4","last_reported":1758622267,"current_range_meters":18000,"station_id":"ce4bhbh2rcd13ifvqepg","pricing_plan_id":"cebpf4jnsgd1na2vs0mg"},{"bike_id":"acd73526-8b4b-4674-b73a-92ebac5d8098","system_id":"levelo_inurba_marseille","lat":43.32066,"lon":5.41544,"is_reserved":false,"is_disabled":false,"rental_uris":{"android":"levelo://app?vid=acd73526-8b4b-4674-b73a-92ebac5d8098","ios":"levelo://app?vid=acd73526-8b4b-4674-b73a-92ebac5d8098"},"vehicle_type_id":"4","last_reported":1758622267,"current_range_meters":18000,"station_id":"ce4bhq92rcd13ifvqhkg","pricing_plan_id":"cebpf4jnsgd1na2vs0mg"},{"bike_id":"36da4b30-3f72-4504-984f-f6bb0d1038a1","system_id":"levelo_inurba_marseille","lat":43.29033,"lon":5.35932,"is_reserved":false,"is_disabled":false,"rental_uris":{"android":"levelo://app?vid=36da4b30-3f72-4504-984f-f6bb0d1038a1","ios":"levelo://app?vid=36da4b30-3f72-4504-984f-f6bb0d1038a1"},"vehicle_type_id":"4","last_reported":1758622267,"current_range_meters":18000,"station_id":"ce4bha92rcd13ifvqeg0","pricing_plan_id":"cebpf4jnsgd1na2vs0mg"},{"bike_id":"b816d576-d71a-41a1-96e0-049d5941d5d6","system_id":"levelo_inurba_marseille","lat":43.26691,"lon":5.38271,"is_reserved":false,"is_disabled":false,"rental_uris":{"android":"levelo://app?vid=b816d576-d71a-41a1-96e0-049d5941d5d6","ios":"levelo://app?vid=b816d576-d71a-41a1-96e0-049d5941d5d6"},"vehicle_type_id":"4","last_reported":1758622267,"current_range_meters":18800,"station_id":"ce4bhg92rcd13ifvqf90","pricing_plan_id":"cebpf4jnsgd1na2vs0mg"},{"bike_id":"c0e68bf7-21fd-4165-bde1-3bbbb2dc294b","system_id":"levelo_inurba_marseille","lat":43.29539,"lon":5.37518,"is_reserved":false,"is_disabled":true,"rental_uris":{"android":"levelo://app?vid=c0e68bf7-21fd-4165-bde1-3bbbb2dc294b","ios":"levelo://app?vid=c0e68bf7-21fd-4165-bde1-3bbbb2dc294b"},"vehicle_type_id":"4","last_reported":1758622267,"current_range_meters":18800,"station_id":"ce4bgkp2rcd13ifvqbmg","pricing_plan_id":"cebpf4jnsgd1na2vs0mg"},{"bike_id":"7d0caa8a-aeb2-418d-ae62-a6b7b9bc68f2","system_id":"levelo_inurba_marseille","lat":43.29901,"lon":5.38145,"is_reserved":false,"is_disabled":false,"rental_uris":{"android":"levelo://app?vid=7d0caa8a-aeb2-418d-ae62-a6b7b9bc68f2","ios":"levelo://app?vid=7d0caa8a-aeb2-418d-ae62-a6b7b9bc68f2"},"vehicle_type_id":"4","last_reported":1758622267,"current_range_meters":18800,"station_id":"ce4bgj12rcd13ifvqbc0","pricing_plan_id":"cebpf4jnsgd1na2vs0mg"},{"bike_id":"33c3bc37-b0fb-4bbc-94c6-23e7c0c2d46f","system_id":"levelo_inurba_marseille","lat":43.3134,"lon":5.367184,"is_reserved":false,"is_disabled":false,"rental_uris":{"android":"levelo://app?vid=33c3bc37-b0fb-4bbc-94c6-23e7c0c2d46f","ios":"levelo://app?vid=33c3bc37-b0fb-4bbc-94c6-23e7c0c2d46f"},"vehicle_type_id":"4","last_reported":1758622267,"current_range_meters":18800,"station_id":"ce4bgr92rcd13ifvqc6g","pricing_plan_id":"cebpf4jnsgd1na2vs0mg"},{"bike_id":"bed7111f-2aa6-4c82-bb10-9ab8f57ca0ba","system_id":"levelo_inurba_marseille","lat":43.301261,"lon":5.381004,"is_reserved":false,"is_disabled":false,"rental_uris":{"android":"levelo://app?vid=bed7111f-2aa6-4c82-bb10-9ab8f57ca0ba","ios":"levelo://app?vid=bed7111f-2aa6-4c82-bb10-9ab8f57ca0ba"},"vehicle_type_id":"4","last_reported":1758622267,"current_range_meters":18800,"station_id":"ce4bgjp2rcd13ifvqbh0","pricing_plan_id":"cebpf4jnsgd1na2vs0mg"},{"bike_id":"9ea05566-3b94-432b-b3e5-db100f99f124","system_id":"levelo_inurba_marseille","lat":43.25707,"lon":5.41135,"is_reserved":false,"is_disabled":false,"rental_uris":{"android":"levelo://app?vid=9ea05566-3b94-432b-b3e5-db100f99f124","ios":"levelo://app?vid=9ea05566-3b94-432b-b3e5-db100f99f124"},"vehicle_type_id":"4","last_reported":1758622267,"current_range_meters":18800,"station_id":"ce4bhkp2rcd13ifvqgd0","pricing_plan_id":"cebpf4jnsgd1na2vs0mg"},{"bike_id":"ea3cca86-986c-483a-aa9e-65c2bebb5bcf","system_id":"levelo_inurba_marseille","lat":43.31222,"lon":5.36865,"is_reserved":false,"is_disabled":false,"rental_uris":{"android":"levelo://app?vid=ea3cca86-986c-483a-aa9e-65c2bebb5bcf","ios":"levelo://app?vid=ea3cca86-986c-483a-aa9e-65c2bebb5bcf"},"vehicle_type_id":"4","last_reported":1758622267,"current_range_meters":18800,"station_id":"ce4bgl92rcd13ifvqbq0","pricing_plan_id":"cebpf4jnsgd1na2vs0mg"},{"bike_id":"96658de4-a612-4069-818f-a3dccd916662","system_id":"levelo_inurba_marseille","lat":43.30434,"lon":5.38892,"is_reserved":false,"is_disabled":false,"rental_uris":{"android":"levelo://app?vid=96658de4-a612-4069-818f-a3dccd916662","ios":"levelo://app?vid=96658de4-a612-4069-818f-a3dccd916662"},"vehicle_type_id":"4","last_reported":1758622267,"current_range_meters":18800,"station_id":"ce4bgk12rcd13ifvqbi0","pricing_plan_id":"cebpf4jnsgd1na2vs0mg"},{"bike_id":"d68b9cdd-055c-48e6-b5c7-c6c683b923e5","system_id":"levelo_inurba_marseille","lat":43.28635,"lon":5.35069,"is_reserved":false,"is_disabled":true,"rental_uris":{"android":"levelo://app?vid=d68b9cdd-055c-48e6-b5c7-c6c683b923e5","ios":"levelo://app?vid=d68b9cdd-055c-48e6-b5c7-c6c683b923e5"},"vehicle_type_id":"4","last_reported":1758622267,"current_range_meters":18800,"station_id":"ce4bhch2rcd13ifvqeug","pricing_plan_id":"cebpf4jnsgd1na2vs0mg"},{"bike_id":"7a43feb7-b735-4230-ab84-021dbb575111","system_id":"levelo_inurba_marseille","lat":43.28698,"lon":5.39992,"is_reserved":false,"is_disabled":false,"rental_uris":{"android":"levelo://app?vid=7a43feb7-b735-4230-ab84-021dbb575111","ios":"levelo://app?vid=7a43feb7-b735-4230-ab84-021dbb575111"},"vehicle_type_id":"4","last_reported":1758622267,"current_range_meters":18800,"station_id":"ce4bho92rcd13ifvqh3g","pricing_plan_id":"cebpf4jnsgd1na2vs0mg"},{"bike_id":"89097036-6e2d-4c2d-9bb8-85d80b5e10e7","system_id":"levelo_inurba_marseille","lat":43.304181,"lon":5.408845,"is_reserved":false,"is_disabled":false,"rental_uris":{"android":"levelo://app?vid=89097036-6e2d-4c2d-9bb8-85d80b5e10e7","ios":"levelo://app?vid=89097036-6e2d-4c2d-9bb8-85d80b5e10e7"},"vehicle_type_id":"4","last_reported":1758622267,"current_range_meters":18800,"station_id":"ce4bhop2rcd13ifvqh8g","pricing_plan_id":"cebpf4jnsgd1na2vs0mg"},{"bike_id":"008e2676-a6ea-4b23-b045-23b39cd0ed50","system_id":"levelo_inurba_marseille","lat":43.27616,"lon":5.36118,"is_reserved":false,"is_disabled":false,"rental_uris":{"android":"levelo://app?vid=008e2676-a6ea-4b23-b045-23b39cd0ed50","ios":"levelo://app?vid=008e2676-a6ea-4b23-b045-23b39cd0ed50"},"vehicle_type_id":"4","last_reported":1758622267,"current_range_meters":18800,"station_id":"ce4bgj92rcd13ifvqbe0","pricing_plan_id":"cebpf4jnsgd1na2vs0mg"},{"bike_id":"fb9472cd-19fa-40f2-bed4-53a5198a7a5a","system_id":"levelo_inurba_marseille","lat":43.23149,"lon":5.43712,"is_reserved":false,"is_disabled":false,"rental_uris":{"android":"levelo://app?vid=fb9472cd-19fa-40f2-bed4-53a5198a7a5a","ios":"levelo://app?vid=fb9472cd-19fa-40f2-bed4-53a5198a7a5a"},"vehicle_type_id":"4","last_reported":1758622267,"current_range_meters":18800,"station_id":"ce4bhmp2rcd13ifvqgog","pricing_plan_id":"cebpf4jnsgd1na2vs0mg"},{"bike_id":"4135d418-c1f4-41c1-ab53-ec7351b3c4e3","system_id":"levelo_inurba_marseille","lat":43.29805,"lon":5.38118,"is_reserved":false,"is_disabled":false,"rental_uris":{"android":"levelo://app?vid=4135d418-c1f4-41c1-ab53-ec7351b3c4e3","ios":"levelo://app?vid=4135d418-c1f4-41c1-ab53-ec7351b3c4e3"},"vehicle_type_id":"4","last_reported":1758622267,"current_range_meters":19200,"station_id":"ce4bgip2rcd13ifvqbb0","pricing_plan_id":"cebpf4jnsgd1na2vs0mg"},{"bike_id":"63a1289d-817b-43a6-a373-fc3356ba6b0b","system_id":"levelo_inurba_marseille","lat":43.2856,"lon":5.39502,"is_reserved":false,"is_disabled":false,"rental_uris":{"android":"levelo://app?vid=63a1289d-817b-43a6-a373-fc3356ba6b0b","ios":"levelo://app?vid=63a1289d-817b-43a6-a373-fc3356ba6b0b"},"vehicle_type_id":"4","last_reported":1758622267,"current_range_meters":18800,"station_id":"ce4bh292rcd13ifvqdg0","pricing_plan_id":"cebpf4jnsgd1na2vs0mg"},{"bike_id":"0306c5d5-8061-4818-a9c1-9604d16570d9","system_id":"levelo_inurba_marseille","lat":43.24179,"lon":5.36397,"is_reserved":false,"is_disabled":false,"rental_uris":{"android":"levelo://app?vid=0306c5d5-8061-4818-a9c1-9604d16570d9","ios":"levelo://app?vid=0306c5d5-8061-4818-a9c1-9604d16570d9"},"vehicle_type_id":"4","last_reported":1758622267,"current_range_meters":19200,"station_id":"cpo36qri1sfpv3e86is0","pricing_plan_id":"cebpf4jnsgd1na2vs0mg"},{"bike_id":"6db010fe-a53c-401b-b729-cc67e48aff93","system_id":"levelo_inurba_marseille","lat":43.30188,"lon":5.39249,"is_reserved":false,"is_disabled":false,"rental_uris":{"android":"levelo://app?vid=6db010fe-a53c-401b-b729-cc67e48aff93","ios":"levelo://app?vid=6db010fe-a53c-401b-b729-cc67e48aff93"},"vehicle_type_id":"4","last_reported":1758622267,"current_range_meters":19200,"station_id":"","pricing_plan_id":"cebpf4jnsgd1na2vs0mg"},{"bike_id":"c4b31d7d-778c-44b2-88ee-d60c602e08a2","system_id":"levelo_inurba_marseille","lat":43.27569,"lon":5.38411,"is_reserved":false,"is_disabled":false,"rental_uris":{"android":"levelo://app?vid=c4b31d7d-778c-44b2-88ee-d60c602e08a2","ios":"levelo://app?vid=c4b31d7d-778c-44b2-88ee-d60c602e08a2"},"vehicle_type_id":"4","last_reported":1758622267,"current_range_meters":19200,"station_id":"ce4bhh92rcd13ifvqfi0","pricing_plan_id":"cebpf4jnsgd1na2vs0mg"},{"bike_id":"ce503b47-64ba-420a-bc2e-5b9d3694509f","system_id":"levelo_inurba_marseille","lat":43.306,"lon":5.37222,"is_reserved":false,"is_disabled":false,"rental_uris":{"android":"levelo://app?vid=ce503b47-64ba-420a-bc2e-5b9d3694509f","ios":"levelo://app?vid=ce503b47-64ba-420a-bc2e-5b9d3694509f"},"vehicle_type_id":"4","last_reported":1758622267,"current_range_meters":19200,"station_id":"ce4bgqh2rcd13ifvqc4g","pricing_plan_id":"cebpf4jnsgd1na2vs0mg"},{"bike_id":"ccdc98b1-daeb-48da-8027-ffa9919763db","system_id":"levelo_inurba_marseille","lat":43.34131,"lon":5.40916,"is_reserved":false,"is_disabled":false,"rental_uris":{"android":"levelo://app?vid=ccdc98b1-daeb-48da-8027-ffa9919763db","ios":"levelo://app?vid=ccdc98b1-daeb-48da-8027-ffa9919763db"},"vehicle_type_id":"4","last_reported":1758622267,"current_range_meters":19200,"station_id":"ce4bhqh2rcd13ifvqhlg","pricing_plan_id":"cebpf4jnsgd1na2vs0mg"},{"bike_id":"eb3f0bc2-178d-43d9-bfbb-3d3bbceb177a","system_id":"levelo_inurba_marseille","lat":43.28445,"lon":5.39192,"is_reserved":false,"is_disabled":false,"rental_uris":{"android":"levelo://app?vid=eb3f0bc2-178d-43d9-bfbb-3d3bbceb177a","ios":"levelo://app?vid=eb3f0bc2-178d-43d9-bfbb-3d3bbceb177a"},"vehicle_type_id":"4","last_reported":1758622267,"current_range_meters":19200,"station_id":"","pricing_plan_id":"cebpf4jnsgd1na2vs0mg"},{"bike_id":"e2017298-7010-4fcc-9644-9ccfb0f46125","system_id":"levelo_inurba_marseille","lat":43.30109,"lon":5.4152,"is_reserved":false,"is_disabled":false,"rental_uris":{"android":"levelo://app?vid=e2017298-7010-4fcc-9644-9ccfb0f46125","ios":"levelo://app?vid=e2017298-7010-4fcc-9644-9ccfb0f46125"},"vehicle_type_id":"4","last_reported":1758622267,"current_range_meters":19200,"station_id":"","pricing_plan_id":"cebpf4jnsgd1na2vs0mg"},{"bike_id":"85bfda5d-ad6f-4235-95f3-5d60e2109c8e","system_id":"levelo_inurba_marseille","lat":43.26209,"lon":5.37441,"is_reserved":false,"is_disabled":false,"rental_uris":{"android":"levelo://app?vid=85bfda5d-ad6f-4235-95f3-5d60e2109c8e","ios":"levelo://app?vid=85bfda5d-ad6f-4235-95f3-5d60e2109c8e"},"vehicle_type_id":"4","last_reported":1758622267,"current_range_meters":19600,"station_id":"ce4bhgp2rcd13ifvqfc0","pricing_plan_id":"cebpf4jnsgd1na2vs0mg"},{"bike_id":"4a9a978a-712d-4a16-907b-c03240f6abbd","system_id":"levelo_inurba_marseille","lat":43.230631,"lon":5.354906,"is_reserved":false,"is_disabled":false,"rental_uris":{"android":"levelo://app?vid=4a9a978a-712d-4a16-907b-c03240f6abbd","ios":"levelo://app?vid=4a9a978a-712d-4a16-907b-c03240f6abbd"},"vehicle_type_id":"4","last_reported":1758622267,"current_range_meters":19600,"station_id":"cpo3342slgdg3j2ifvpg","pricing_plan_id":"cebpf4jnsgd1na2vs0mg"},{"bike_id":"8ef3db65-05aa-440e-83e1-c5ee675df7b4","system_id":"levelo_inurba_marseille","lat":43.29915,"lon":5.37472,"is_reserved":false,"is_disabled":false,"rental_uris":{"android":"levelo://app?vid=8ef3db65-05aa-440e-83e1-c5ee675df7b4","ios":"levelo://app?vid=8ef3db65-05aa-440e-83e1-c5ee675df7b4"},"vehicle_type_id":"4","last_reported":1758622267,"current_range_meters":19600,"station_id":"ce4bgjh2rcd13ifvqbg0","pricing_plan_id":"cebpf4jnsgd1na2vs0mg"},{"bike_id":"e9835ecd-9503-4633-8257-f774dc2ffc2a","system_id":"levelo_inurba_marseille","lat":43.337444,"lon":5.374475,"is_reserved":false,"is_disabled":false,"rental_uris":{"android":"levelo://app?vid=e9835ecd-9503-4633-8257-f774dc2ffc2a","ios":"levelo://app?vid=e9835ecd-9503-4633-8257-f774dc2ffc2a"},"vehicle_type_id":"4","last_reported":1758622267,"current_range_meters":20000,"station_id":"","pricing_plan_id":"cebpf4jnsgd1na2vs0mg"},{"bike_id":"1e2b0923-7c0f-4134-bff6-a7f0c0a8fdc5","system_id":"levelo_inurba_marseille","lat":43.32476,"lon":5.36596,"is_reserved":false,"is_disabled":false,"rental_uris":{"android":"levelo://app?vid=1e2b0923-7c0f-4134-bff6-a7f0c0a8fdc5","ios":"levelo://app?vid=1e2b0923-7c0f-4134-bff6-a7f0c0a8fdc5"},"vehicle_type_id":"4","last_reported":1758622267,"current_range_meters":20000,"station_id":"ce4bhs12rcd13ifvqhvg","pricing_plan_id":"cebpf4jnsgd1na2vs0mg"},{"bike_id":"1b8e4c2d-e7e7-47de-bd66-d5d0e6c8f37e","system_id":"levelo_inurba_marseille","lat":43.26577,"lon":5.40316,"is_reserved":false,"is_disabled":false,"rental_uris":{"android":"levelo://app?vid=1b8e4c2d-e7e7-47de-bd66-d5d0e6c8f37e","ios":"levelo://app?vid=1b8e4c2d-e7e7-47de-bd66-d5d0e6c8f37e"},"vehicle_type_id":"4","last_reported":1758622267,"current_range_meters":20000,"station_id":"ce4bhmp2rcd13ifvqgng","pricing_plan_id":"cebpf4jnsgd1na2vs0mg"},{"bike_id":"6fc90bd1-7f14-43cf-9cb5-c5d761c8ec85","system_id":"levelo_inurba_marseille","lat":43.32365,"lon":5.36747,"is_reserved":false,"is_disabled":false,"rental_uris":{"android":"levelo://app?vid=6fc90bd1-7f14-43cf-9cb5-c5d761c8ec85","ios":"levelo://app?vid=6fc90bd1-7f14-43cf-9cb5-c5d761c8ec85"},"vehicle_type_id":"4","last_reported":1758622267,"current_range_meters":20000,"station_id":"ce4bhsh2rcd13ifvqi2g","pricing_plan_id":"cebpf4jnsgd1na2vs0mg"},{"bike_id":"754974bb-5c6e-4a33-9f19-b53a83c64784","system_id":"levelo_inurba_marseille","lat":43.276632,"lon":5.389122,"is_reserved":false,"is_disabled":false,"rental_uris":{"android":"levelo://app?vid=754974bb-5c6e-4a33-9f19-b53a83c64784","ios":"levelo://app?vid=754974bb-5c6e-4a33-9f19-b53a83c64784"},"vehicle_type_id":"4","last_reported":1758622267,"current_range_meters":20000,"station_id":"ce4bhi12rcd13ifvqfo0","pricing_plan_id":"cebpf4jnsgd1na2vs0mg"},{"bike_id":"36e14a01-13aa-45ae-8743-fe096043a807","system_id":"levelo_inurba_marseille","lat":43.32474,"lon":5.36564,"is_reserved":false,"is_disabled":false,"rental_uris":{"android":"levelo://app?vid=36e14a01-13aa-45ae-8743-fe096043a807","ios":"levelo://app?vid=36e14a01-13aa-45ae-8743-fe096043a807"},"vehicle_type_id":"4","last_reported":1758622267,"current_range_meters":20000,"station_id":"ce4bhs12rcd13ifvqhvg","pricing_plan_id":"cebpf4jnsgd1na2vs0mg"},{"bike_id":"05898643-5caf-4058-8b8a-1a1a6e1b823b","system_id":"levelo_inurba_marseille","lat":43.29935,"lon":5.36548,"is_reserved":false,"is_disabled":false,"rental_uris":{"android":"levelo://app?vid=05898643-5caf-4058-8b8a-1a1a6e1b823b","ios":"levelo://app?vid=05898643-5caf-4058-8b8a-1a1a6e1b823b"},"vehicle_type_id":"4","last_reported":1758622267,"current_range_meters":20000,"station_id":"ce4bgm92rcd13ifvqbr0","pricing_plan_id":"cebpf4jnsgd1na2vs0mg"},{"bike_id":"dccc93d8-df35-432e-9d05-62b2bc30253a","system_id":"levelo_inurba_marseille","lat":43.29679,"lon":5.37294,"is_reserved":false,"is_disabled":false,"rental_uris":{"android":"levelo://app?vid=dccc93d8-df35-432e-9d05-62b2bc30253a","ios":"levelo://app?vid=dccc93d8-df35-432e-9d05-62b2bc30253a"},"vehicle_type_id":"4","last_reported":1758622267,"current_range_meters":20000,"station_id":"ce4bgk12rcd13ifvqbj0","pricing_plan_id":"cebpf4jnsgd1na2vs0mg"},{"bike_id":"fa636f52-0c5f-4bb0-b531-e3d3da9d3e10","system_id":"levelo_inurba_marseille","lat":43.266792,"lon":5.382655,"is_reserved":false,"is_disabled":false,"rental_uris":{"android":"levelo://app?vid=fa636f52-0c5f-4bb0-b531-e3d3da9d3e10","ios":"levelo://app?vid=fa636f52-0c5f-4bb0-b531-e3d3da9d3e10"},"vehicle_type_id":"4","last_reported":1758622267,"current_range_meters":20000,"station_id":"ce4bhg92rcd13ifvqf90","pricing_plan_id":"cebpf4jnsgd1na2vs0mg"},{"bike_id":"7ca6619c-e6ad-4730-802f-f97b0fc8d6b5","system_id":"levelo_inurba_marseille","lat":43.29584,"lon":5.3674,"is_reserved":false,"is_disabled":false,"rental_uris":{"android":"levelo://app?vid=7ca6619c-e6ad-4730-802f-f97b0fc8d6b5","ios":"levelo://app?vid=7ca6619c-e6ad-4730-802f-f97b0fc8d6b5"},"vehicle_type_id":"4","last_reported":1758622267,"current_range_meters":20000,"station_id":"ce4bgph2rcd13ifvqc2g","pricing_plan_id":"cebpf4jnsgd1na2vs0mg"},{"bike_id":"2115cb7b-4c18-45fb-ab6b-f1b015f3098c","system_id":"levelo_inurba_marseille","lat":43.30433,"lon":5.38901,"is_reserved":false,"is_disabled":false,"rental_uris":{"android":"levelo://app?vid=2115cb7b-4c18-45fb-ab6b-f1b015f3098c","ios":"levelo://app?vid=2115cb7b-4c18-45fb-ab6b-f1b015f3098c"},"vehicle_type_id":"4","last_reported":1758622267,"current_range_meters":20000,"station_id":"ce4bgk12rcd13ifvqbi0","pricing_plan_id":"cebpf4jnsgd1na2vs0mg"},{"bike_id":"8c0227e3-55e8-4994-aa0c-9b6ee99b7e26","system_id":"levelo_inurba_marseille","lat":43.23056,"lon":5.35494,"is_reserved":false,"is_disabled":false,"rental_uris":{"android":"levelo://app?vid=8c0227e3-55e8-4994-aa0c-9b6ee99b7e26","ios":"levelo://app?vid=8c0227e3-55e8-4994-aa0c-9b6ee99b7e26"},"vehicle_type_id":"4","last_reported":1758622267,"current_range_meters":20400,"station_id":"cpo3342slgdg3j2ifvpg","pricing_plan_id":"cebpf4jnsgd1na2vs0mg"},{"bike_id":"7a2f45ea-c72a-49db-bb83-827cc2b929e4","system_id":"levelo_inurba_marseille","lat":43.27937,"lon":5.41049,"is_reserved":false,"is_disabled":false,"rental_uris":{"android":"levelo://app?vid=7a2f45ea-c72a-49db-bb83-827cc2b929e4","ios":"levelo://app?vid=7a2f45ea-c72a-49db-bb83-827cc2b929e4"},"vehicle_type_id":"4","last_reported":1758622267,"current_range_meters":20400,"station_id":"ce4bhnp2rcd13ifvqh0g","pricing_plan_id":"cebpf4jnsgd1na2vs0mg"},{"bike_id":"008184fa-4a40-4dfb-9f08-d2d29bcb9910","system_id":"levelo_inurba_marseille","lat":43.30172,"lon":5.37412,"is_reserved":false,"is_disabled":false,"rental_uris":{"android":"levelo://app?vid=008184fa-4a40-4dfb-9f08-d2d29bcb9910","ios":"levelo://app?vid=008184fa-4a40-4dfb-9f08-d2d29bcb9910"},"vehicle_type_id":"4","last_reported":1758622267,"current_range_meters":20400,"station_id":"ce4bgs92rcd13ifvqcc0","pricing_plan_id":"cebpf4jnsgd1na2vs0mg"},{"bike_id":"ba380dc0-5aaf-42da-bea7-8cd6a75f291b","system_id":"levelo_inurba_marseille","lat":43.241574,"lon":5.364116,"is_reserved":false,"is_disabled":false,"rental_uris":{"android":"levelo://app?vid=ba380dc0-5aaf-42da-bea7-8cd6a75f291b","ios":"levelo://app?vid=ba380dc0-5aaf-42da-bea7-8cd6a75f291b"},"vehicle_type_id":"4","last_reported":1758622267,"current_range_meters":20400,"station_id":"cpo36qri1sfpv3e86is0","pricing_plan_id":"cebpf4jnsgd1na2vs0mg"},{"bike_id":"92085d91-3c17-49c3-8fcd-43f1ab4d0615","system_id":"levelo_inurba_marseille","lat":43.22933,"lon":5.35395,"is_reserved":false,"is_disabled":false,"rental_uris":{"android":"levelo://app?vid=92085d91-3c17-49c3-8fcd-43f1ab4d0615","ios":"levelo://app?vid=92085d91-3c17-49c3-8fcd-43f1ab4d0615"},"vehicle_type_id":"4","last_reported":1758622267,"current_range_meters":20400,"station_id":"cpo3532slgdg3j2ikp40","pricing_plan_id":"cebpf4jnsgd1na2vs0mg"},{"bike_id":"cba1f775-b431-4f7f-b248-19e04c3a2aa2","system_id":"levelo_inurba_marseille","lat":43.33608,"lon":5.41007,"is_reserved":false,"is_disabled":false,"rental_uris":{"android":"levelo://app?vid=cba1f775-b431-4f7f-b248-19e04c3a2aa2","ios":"levelo://app?vid=cba1f775-b431-4f7f-b248-19e04c3a2aa2"},"vehicle_type_id":"4","last_reported":1758622267,"current_range_meters":20400,"station_id":"ce4bhqh2rcd13ifvqhmg","pricing_plan_id":"cebpf4jnsgd1na2vs0mg"},{"bike_id":"349ea676-679b-4f5a-ace7-669626901327","system_id":"levelo_inurba_marseille","lat":43.28414,"lon":5.34979,"is_reserved":false,"is_disabled":false,"rental_uris":{"android":"levelo://app?vid=349ea676-679b-4f5a-ace7-669626901327","ios":"levelo://app?vid=349ea676-679b-4f5a-ace7-669626901327"},"vehicle_type_id":"4","last_reported":1758622267,"current_range_meters":20400,"station_id":"ce4bhbh2rcd13ifvqepg","pricing_plan_id":"cebpf4jnsgd1na2vs0mg"},{"bike_id":"d0f7480c-e5ca-49b8-910b-2a2a89a51c6d","system_id":"levelo_inurba_marseille","lat":43.23123,"lon":5.43761,"is_reserved":false,"is_disabled":false,"rental_uris":{"android":"levelo://app?vid=d0f7480c-e5ca-49b8-910b-2a2a89a51c6d","ios":"levelo://app?vid=d0f7480c-e5ca-49b8-910b-2a2a89a51c6d"},"vehicle_type_id":"4","last_reported":1758622267,"current_range_meters":20400,"station_id":"ce4bhmp2rcd13ifvqgog","pricing_plan_id":"cebpf4jnsgd1na2vs0mg"},{"bike_id":"e19472f1-87e0-4943-97f3-e785d2a10054","system_id":"levelo_inurba_marseille","lat":43.288664,"lon":5.42508,"is_reserved":false,"is_disabled":false,"rental_uris":{"android":"levelo://app?vid=e19472f1-87e0-4943-97f3-e785d2a10054","ios":"levelo://app?vid=e19472f1-87e0-4943-97f3-e785d2a10054"},"vehicle_type_id":"4","last_reported":1758622267,"current_range_meters":20400,"station_id":"","pricing_plan_id":"cebpf4jnsgd1na2vs0mg"},{"bike_id":"cf6b2ce0-fc7a-4c03-87a0-fb3afb625c41","system_id":"levelo_inurba_marseille","lat":43.31384,"lon":5.36718,"is_reserved":false,"is_disabled":false,"rental_uris":{"android":"levelo://app?vid=cf6b2ce0-fc7a-4c03-87a0-fb3afb625c41","ios":"levelo://app?vid=cf6b2ce0-fc7a-4c03-87a0-fb3afb625c41"},"vehicle_type_id":"4","last_reported":1758622267,"current_range_meters":20400,"station_id":"","pricing_plan_id":"cebpf4jnsgd1na2vs0mg"},{"bike_id":"0eb778b9-c1c5-470e-9c3a-be80287de1cf","system_id":"levelo_inurba_marseille","lat":43.27372,"lon":5.36261,"is_reserved":false,"is_disabled":false,"rental_uris":{"android":"levelo://app?vid=0eb778b9-c1c5-470e-9c3a-be80287de1cf","ios":"levelo://app?vid=0eb778b9-c1c5-470e-9c3a-be80287de1cf"},"vehicle_type_id":"4","last_reported":1758622267,"current_range_meters":20400,"station_id":"ce4bhbh2rcd13ifvqeo0","pricing_plan_id":"cebpf4jnsgd1na2vs0mg"},{"bike_id":"cc0102fe-cf45-4e64-b043-f652b68bab80","system_id":"levelo_inurba_marseille","lat":43.295766,"lon":5.375233,"is_reserved":false,"is_disabled":false,"rental_uris":{"android":"levelo://app?vid=cc0102fe-cf45-4e64-b043-f652b68bab80","ios":"levelo://app?vid=cc0102fe-cf45-4e64-b043-f652b68bab80"},"vehicle_type_id":"4","last_reported":1758622267,"current_range_meters":20800,"station_id":"ce4bgh92rcd13ifvqb50","pricing_plan_id":"cebpf4jnsgd1na2vs0mg"},{"bike_id":"532e41ea-b2ae-4eb7-93e8-0fa1b16a6269","system_id":"levelo_inurba_marseille","lat":43.30152,"lon":5.37423,"is_reserved":false,"is_disabled":false,"rental_uris":{"android":"levelo://app?vid=532e41ea-b2ae-4eb7-93e8-0fa1b16a6269","ios":"levelo://app?vid=532e41ea-b2ae-4eb7-93e8-0fa1b16a6269"},"vehicle_type_id":"4","last_reported":1758622267,"current_range_meters":20800,"station_id":"ce4bgs92rcd13ifvqcc0","pricing_plan_id":"cebpf4jnsgd1na2vs0mg"},{"bike_id":"554a83e0-0a31-4020-99cc-a5a346f3043d","system_id":"levelo_inurba_marseille","lat":43.2901,"lon":5.35614,"is_reserved":false,"is_disabled":false,"rental_uris":{"android":"levelo://app?vid=554a83e0-0a31-4020-99cc-a5a346f3043d","ios":"levelo://app?vid=554a83e0-0a31-4020-99cc-a5a346f3043d"},"vehicle_type_id":"4","last_reported":1758622267,"current_range_meters":20800,"station_id":"ce4bhb92rcd13ifvqen0","pricing_plan_id":"cebpf4jnsgd1na2vs0mg"},{"bike_id":"178af37d-dd54-4cf7-b80a-b996e0f2a163","system_id":"levelo_inurba_marseille","lat":43.21216,"lon":5.35078,"is_reserved":false,"is_disabled":false,"rental_uris":{"android":"levelo://app?vid=178af37d-dd54-4cf7-b80a-b996e0f2a163","ios":"levelo://app?vid=178af37d-dd54-4cf7-b80a-b996e0f2a163"},"vehicle_type_id":"4","last_reported":1758622267,"current_range_meters":20800,"station_id":"st_cvj6sg6p6f1abm77japg","pricing_plan_id":"cebpf4jnsgd1na2vs0mg"},{"bike_id":"3a6a593a-7bb4-4c2c-97e5-48b011d1dd00","system_id":"levelo_inurba_marseille","lat":43.27813,"lon":5.40709,"is_reserved":false,"is_disabled":false,"rental_uris":{"android":"levelo://app?vid=3a6a593a-7bb4-4c2c-97e5-48b011d1dd00","ios":"levelo://app?vid=3a6a593a-7bb4-4c2c-97e5-48b011d1dd00"},"vehicle_type_id":"4","last_reported":1758622267,"current_range_meters":20400,"station_id":"ce4bhnh2rcd13ifvqgtg","pricing_plan_id":"cebpf4jnsgd1na2vs0mg"},{"bike_id":"97d53dd6-16c8-4f7e-97c0-8e4fcb006a81","system_id":"levelo_inurba_marseille","lat":43.29166,"lon":5.37157,"is_reserved":false,"is_disabled":false,"rental_uris":{"android":"levelo://app?vid=97d53dd6-16c8-4f7e-97c0-8e4fcb006a81","ios":"levelo://app?vid=97d53dd6-16c8-4f7e-97c0-8e4fcb006a81"},"vehicle_type_id":"4","last_reported":1758622267,"current_range_meters":20800,"station_id":"ce4bha92rcd13ifvqeh0","pricing_plan_id":"cebpf4jnsgd1na2vs0mg"},{"bike_id":"4d21f471-4ff3-4730-aa81-95b281d5d8d8","system_id":"levelo_inurba_marseille","lat":43.29903,"lon":5.38153,"is_reserved":false,"is_disabled":false,"rental_uris":{"android":"levelo://app?vid=4d21f471-4ff3-4730-aa81-95b281d5d8d8","ios":"levelo://app?vid=4d21f471-4ff3-4730-aa81-95b281d5d8d8"},"vehicle_type_id":"4","last_reported":1758622267,"current_range_meters":20800,"station_id":"","pricing_plan_id":"cebpf4jnsgd1na2vs0mg"},{"bike_id":"3b48f049-5920-48d8-8599-0cb3cca90986","system_id":"levelo_inurba_marseille","lat":43.29011,"lon":5.38121,"is_reserved":false,"is_disabled":false,"rental_uris":{"android":"levelo://app?vid=3b48f049-5920-48d8-8599-0cb3cca90986","ios":"levelo://app?vid=3b48f049-5920-48d8-8599-0cb3cca90986"},"vehicle_type_id":"4","last_reported":1758622267,"current_range_meters":20800,"station_id":"ce4bh4p2rcd13ifvqe1g","pricing_plan_id":"cebpf4jnsgd1na2vs0mg"},{"bike_id":"67c66de9-84f1-4854-b6cd-fb82e86582e6","system_id":"levelo_inurba_marseille","lat":43.30427,"lon":5.39748,"is_reserved":false,"is_disabled":false,"rental_uris":{"android":"levelo://app?vid=67c66de9-84f1-4854-b6cd-fb82e86582e6","ios":"levelo://app?vid=67c66de9-84f1-4854-b6cd-fb82e86582e6"},"vehicle_type_id":"4","last_reported":1758622267,"current_range_meters":20800,"station_id":"ce4bh092rcd13ifvqd20","pricing_plan_id":"cebpf4jnsgd1na2vs0mg"},{"bike_id":"fa9db9d8-47f4-447f-a71a-a4d32c763467","system_id":"levelo_inurba_marseille","lat":43.24096,"lon":5.37743,"is_reserved":false,"is_disabled":false,"rental_uris":{"android":"levelo://app?vid=fa9db9d8-47f4-447f-a71a-a4d32c763467","ios":"levelo://app?vid=fa9db9d8-47f4-447f-a71a-a4d32c763467"},"vehicle_type_id":"4","last_reported":1758622267,"current_range_meters":20800,"station_id":"ce4bhnp2rcd13ifvqgvg","pricing_plan_id":"cebpf4jnsgd1na2vs0mg"},{"bike_id":"b356a066-2ceb-46b4-8be7-3f499899d2b1","system_id":"levelo_inurba_marseille","lat":43.2593,"lon":5.40904,"is_reserved":false,"is_disabled":false,"rental_uris":{"android":"levelo://app?vid=b356a066-2ceb-46b4-8be7-3f499899d2b1","ios":"levelo://app?vid=b356a066-2ceb-46b4-8be7-3f499899d2b1"},"vehicle_type_id":"4","last_reported":1758622267,"current_range_meters":21600,"station_id":"ce4bhm92rcd13ifvqglg","pricing_plan_id":"cebpf4jnsgd1na2vs0mg"},{"bike_id":"e75c1918-85d6-4068-96bb-18e633d75400","system_id":"levelo_inurba_marseille","lat":43.32656,"lon":5.40994,"is_reserved":false,"is_disabled":false,"rental_uris":{"android":"levelo://app?vid=e75c1918-85d6-4068-96bb-18e633d75400","ios":"levelo://app?vid=e75c1918-85d6-4068-96bb-18e633d75400"},"vehicle_type_id":"4","last_reported":1758622267,"current_range_meters":21600,"station_id":"ce4bhpp2rcd13ifvqhgg","pricing_plan_id":"cebpf4jnsgd1na2vs0mg"},{"bike_id":"34320d59-e35e-40ac-8a68-3e2224d63c1a","system_id":"levelo_inurba_marseille","lat":43.29246,"lon":5.37277,"is_reserved":false,"is_disabled":false,"rental_uris":{"android":"levelo://app?vid=34320d59-e35e-40ac-8a68-3e2224d63c1a","ios":"levelo://app?vid=34320d59-e35e-40ac-8a68-3e2224d63c1a"},"vehicle_type_id":"4","last_reported":1758622267,"current_range_meters":21600,"station_id":"","pricing_plan_id":"cebpf4jnsgd1na2vs0mg"},{"bike_id":"d448b74b-b8f7-4053-955b-1df9c58f6926","system_id":"levelo_inurba_marseille","lat":43.2785,"lon":5.38535,"is_reserved":false,"is_disabled":false,"rental_uris":{"android":"levelo://app?vid=d448b74b-b8f7-4053-955b-1df9c58f6926","ios":"levelo://app?vid=d448b74b-b8f7-4053-955b-1df9c58f6926"},"vehicle_type_id":"4","last_reported":1758622267,"current_range_meters":21600,"station_id":"","pricing_plan_id":"cebpf4jnsgd1na2vs0mg"},{"bike_id":"d006181b-b46b-4fea-8675-345ce0f130d6","system_id":"levelo_inurba_marseille","lat":43.30774,"lon":5.36815,"is_reserved":false,"is_disabled":false,"rental_uris":{"android":"levelo://app?vid=d006181b-b46b-4fea-8675-345ce0f130d6","ios":"levelo://app?vid=d006181b-b46b-4fea-8675-345ce0f130d6"},"vehicle_type_id":"4","last_reported":1758622267,"current_range_meters":21600,"station_id":"","pricing_plan_id":"cebpf4jnsgd1na2vs0mg"},{"bike_id":"90923562-e2c5-4f97-8fcf-511beb886d7c","system_id":"levelo_inurba_marseille","lat":43.29223,"lon":5.36069,"is_reserved":false,"is_disabled":false,"rental_uris":{"android":"levelo://app?vid=90923562-e2c5-4f97-8fcf-511beb886d7c","ios":"levelo://app?vid=90923562-e2c5-4f97-8fcf-511beb886d7c"},"vehicle_type_id":"4","last_reported":1758622267,"current_range_meters":21600,"station_id":"ce4bhbh2rcd13ifvqeqg","pricing_plan_id":"cebpf4jnsgd1na2vs0mg"},{"bike_id":"fdcfdb23-d105-4a73-827c-ff3f5c653e89","system_id":"levelo_inurba_marseille","lat":43.2845,"lon":5.39191,"is_reserved":false,"is_disabled":false,"rental_uris":{"android":"levelo://app?vid=fdcfdb23-d105-4a73-827c-ff3f5c653e89","ios":"levelo://app?vid=fdcfdb23-d105-4a73-827c-ff3f5c653e89"},"vehicle_type_id":"4","last_reported":1758622267,"current_range_meters":21600,"station_id":"","pricing_plan_id":"cebpf4jnsgd1na2vs0mg"},{"bike_id":"400dd7d3-1e40-4d1f-b6d4-dadeeedefd08","system_id":"levelo_inurba_marseille","lat":43.23956,"lon":5.36645,"is_reserved":false,"is_disabled":false,"rental_uris":{"android":"levelo://app?vid=400dd7d3-1e40-4d1f-b6d4-dadeeedefd08","ios":"levelo://app?vid=400dd7d3-1e40-4d1f-b6d4-dadeeedefd08"},"vehicle_type_id":"4","last_reported":1758622267,"current_range_meters":21600,"station_id":"ce4bhi12rcd13ifvqfp0","pricing_plan_id":"cebpf4jnsgd1na2vs0mg"},{"bike_id":"c0f6d275-da29-455d-984d-6990076f133f","system_id":"levelo_inurba_marseille","lat":43.23151,"lon":5.43713,"is_reserved":false,"is_disabled":false,"rental_uris":{"android":"levelo://app?vid=c0f6d275-da29-455d-984d-6990076f133f","ios":"levelo://app?vid=c0f6d275-da29-455d-984d-6990076f133f"},"vehicle_type_id":"4","last_reported":1758622267,"current_range_meters":21600,"station_id":"ce4bhmp2rcd13ifvqgog","pricing_plan_id":"cebpf4jnsgd1na2vs0mg"},{"bike_id":"32712446-5604-4c79-af63-d15d344000d8","system_id":"levelo_inurba_marseille","lat":43.22932,"lon":5.35366,"is_reserved":false,"is_disabled":false,"rental_uris":{"android":"levelo://app?vid=32712446-5604-4c79-af63-d15d344000d8","ios":"levelo://app?vid=32712446-5604-4c79-af63-d15d344000d8"},"vehicle_type_id":"4","last_reported":1758622267,"current_range_meters":21600,"station_id":"cpo3532slgdg3j2ikp40","pricing_plan_id":"cebpf4jnsgd1na2vs0mg"},{"bike_id":"2236477b-05bd-4924-9ebe-f6ee7f735bb2","system_id":"levelo_inurba_marseille","lat":43.32657,"lon":5.4099,"is_reserved":false,"is_disabled":false,"rental_uris":{"android":"levelo://app?vid=2236477b-05bd-4924-9ebe-f6ee7f735bb2","ios":"levelo://app?vid=2236477b-05bd-4924-9ebe-f6ee7f735bb2"},"vehicle_type_id":"4","last_reported":1758622267,"current_range_meters":21600,"station_id":"ce4bhpp2rcd13ifvqhgg","pricing_plan_id":"cebpf4jnsgd1na2vs0mg"},{"bike_id":"dcb1de34-6490-4cb6-b008-8bfc71893af3","system_id":"levelo_inurba_marseille","lat":43.29966,"lon":5.38489,"is_reserved":false,"is_disabled":false,"rental_uris":{"android":"levelo://app?vid=dcb1de34-6490-4cb6-b008-8bfc71893af3","ios":"levelo://app?vid=dcb1de34-6490-4cb6-b008-8bfc71893af3"},"vehicle_type_id":"4","last_reported":1758622267,"current_range_meters":21600,"station_id":"ce4bgj92rcd13ifvqbd0","pricing_plan_id":"cebpf4jnsgd1na2vs0mg"},{"bike_id":"220dfbe7-ef3a-428e-9b80-243881e37763","system_id":"levelo_inurba_marseille","lat":43.28413,"lon":5.34975,"is_reserved":false,"is_disabled":false,"rental_uris":{"android":"levelo://app?vid=220dfbe7-ef3a-428e-9b80-243881e37763","ios":"levelo://app?vid=220dfbe7-ef3a-428e-9b80-243881e37763"},"vehicle_type_id":"4","last_reported":1758622267,"current_range_meters":21600,"station_id":"ce4bhbh2rcd13ifvqepg","pricing_plan_id":"cebpf4jnsgd1na2vs0mg"},{"bike_id":"b2dadb57-9f99-4d06-bcdd-22efed8cfa71","system_id":"levelo_inurba_marseille","lat":43.27053,"lon":5.40259,"is_reserved":false,"is_disabled":false,"rental_uris":{"android":"levelo://app?vid=b2dadb57-9f99-4d06-bcdd-22efed8cfa71","ios":"levelo://app?vid=b2dadb57-9f99-4d06-bcdd-22efed8cfa71"},"vehicle_type_id":"4","last_reported":1758622267,"current_range_meters":21600,"station_id":"ce4bhk92rcd13ifvqgc0","pricing_plan_id":"cebpf4jnsgd1na2vs0mg"},{"bike_id":"7fabaf5c-9e11-46f1-9e19-2732571845d8","system_id":"levelo_inurba_marseille","lat":43.29619,"lon":5.37719,"is_reserved":false,"is_disabled":false,"rental_uris":{"android":"levelo://app?vid=7fabaf5c-9e11-46f1-9e19-2732571845d8","ios":"levelo://app?vid=7fabaf5c-9e11-46f1-9e19-2732571845d8"},"vehicle_type_id":"4","last_reported":1758622267,"current_range_meters":21600,"station_id":"ce4bgi92rcd13ifvqb90","pricing_plan_id":"cebpf4jnsgd1na2vs0mg"},{"bike_id":"5c5cf3c6-56ac-46ac-86d5-3c810a932b3e","system_id":"levelo_inurba_marseille","lat":43.29616,"lon":5.37724,"is_reserved":false,"is_disabled":false,"rental_uris":{"android":"levelo://app?vid=5c5cf3c6-56ac-46ac-86d5-3c810a932b3e","ios":"levelo://app?vid=5c5cf3c6-56ac-46ac-86d5-3c810a932b3e"},"vehicle_type_id":"4","last_reported":1758622267,"current_range_meters":22000,"station_id":"ce4bgi92rcd13ifvqb90","pricing_plan_id":"cebpf4jnsgd1na2vs0mg"},{"bike_id":"2694540e-496f-4315-a7ee-43b134cf46b0","system_id":"levelo_inurba_marseille","lat":43.30636,"lon":5.40101,"is_reserved":false,"is_disabled":false,"rental_uris":{"android":"levelo://app?vid=2694540e-496f-4315-a7ee-43b134cf46b0","ios":"levelo://app?vid=2694540e-496f-4315-a7ee-43b134cf46b0"},"vehicle_type_id":"4","last_reported":1758622267,"current_range_meters":22000,"station_id":"ce4bh112rcd13ifvqda0","pricing_plan_id":"cebpf4jnsgd1na2vs0mg"},