{"last_updated":1767816813,"ttl":60,"version":"2.2","data":{"bikes":[{"bike_id":"a60e859d-20a7-4efc-ab94-0c4ccc8ad025","system_id":"levelo_inurba_marseille","lat":43.30645,"lon":5.36613,"is_reserved":false,"is_disabled":false,"rental_uris":{"android":"levelo://app?vid=a60e859d-20a7-4efc-ab94-0c4ccc8ad025","ios":"levelo://app?vid=a60e859d-20a7-4efc-ab94-0c4ccc8ad025"},"vehicle_type_id":"4","last_reported":1767816813,"current_range_meters":2800,"station_id":"","pricing_plan_id":"cebpf4jnsgd1na2vs0mg"},{"bike_id":"851c2f14-acb8-4f46-a753-dd2e71671798","system_id":"levelo_inurba_marseille","lat":43.279629,"lon":5.387516,"is_reserved":false,"is_disabled":false,"rental_uris":{"android":"levelo://app?vid=851c2f14-acb8-4f46-a753-dd2e71671798","ios":"levelo://app?vid=851c2f14-acb8-4f46-a753-dd2e71671798"},"vehicle_type_id":"4","last_reported":1767816813,"current_range_meters":2800,"station_id":"ce4bhg12rcd13ifvqf80","pricing_plan_id":"cebpf4jnsgd1na2vs0mg"},{"bike_id":"afb24403-93cb-4ff6-b45a-9b8f1b8dcb7a","system_id":"levelo_inurba_marseille","lat":43.29616,"lon":5.38098,"is_reserved":false,"is_disabled":false,"rental_uris":{"android":"levelo://app?vid=afb24403-93cb-4ff6-b45a-9b8f1b8dcb7a","ios":"levelo://app?vid=afb24403-93cb-4ff6-b45a-9b8f1b8dcb7a"},"vehicle_type_id":"4","last_reported":1767816813,"current_range_meters":2800,"station_id":"ce4bgl12rcd13ifvqbo0","pricing_plan_id":"cebpf4jnsgd1na2vs0mg"},{"bike_id":"2af0ce7c-ca3c-4dfe-9ab3-190f23e26597","system_id":"levelo_inurba_marseille","lat":43.238731,"lon":5.365227,"is_reserved":false,"is_disabled":false,"rental_uris":{"android":"levelo://app?vid=2af0ce7c-ca3c-4dfe-9ab3-190f23e26597","ios":"levelo://app?vid=2af0ce7c-ca3c-4dfe-9ab3-190f23e26597"},"vehicle_type_id":"4","last_reported":1767816813,"current_range_meters":2800,"station_id":"","pricing_plan_id":"cebpf4jnsgd1na2vs0mg"},{"bike_id":"d240e4a0-a234-4f85-8a5d-d820c7dc08e3","system_id":"levelo_inurba_marseille","lat":43.26571,"lon":5.39027,"is_reserved":false,"is_disabled":false,"rental_uris":{"android":"levelo://app?vid=d240e4a0-a234-4f85-8a5d-d820c7dc08e3","ios":"levelo://app?vid=d240e4a0-a234-4f85-8a5d-d820c7dc08e3"},"vehicle_type_id":"4","last_reported":1767816813,"current_range_meters":2800,"station_id":"ce4bhe12rcd13ifvqf30","pricing_plan_id":"cebpf4jnsgd1na2vs0mg"},{"bike_id":"8065b50f-896f-4c30-b799-892ef2bc4e1d","system_id":"levelo_inurba_marseille","lat":43.2989,"lon":5.38897,"is_reserved":false,"is_disabled":false,"rental_uris":{"android":"levelo://app?vid=8065b50f-896f-4c30-b799-892ef2bc4e1d","ios":"levelo://app?vid=8065b50f-896f-4c30-b799-892ef2bc4e1d"},"vehicle_type_id":"4","last_reported":1767816813,"current_range_meters":2800,"station_id":"ce4bh392rcd13ifvqdl0","pricing_plan_id":"cebpf4jnsgd1na2vs0mg"},{"bike_id":"258ba1da-4787-4b91-9f84-2841bf028abf","system_id":"levelo_inurba_marseille","lat":43.28608,"lon":5.37071,"is_reserved":false,"is_disabled":false,"rental_uris":{"android":"levelo://app?vid=258ba1da-4787-4b91-9f84-2841bf028abf","ios":"levelo://app?vid=258ba1da-4787-4b91-9f84-2841bf028abf"},"vehicle_type_id":"4","last_reported":1767816813,"current_range_meters":2800,"station_id":"ce4bht12rcd13ifvqi60","pricing_plan_id":"cebpf4jnsgd1na2vs0mg"},{"bike_id":"6eb221bd-dee6-40a4-b98b-ed096afa0d58","system_id":"levelo_inurba_marseille","lat":43.30188,"lon":5.36604,"is_reserved":false,"is_disabled":false,"rental_uris":{"android":"levelo://app?vid=6eb221bd-dee6-40a4-b98b-ed096afa0d58","ios":"levelo://app?vid=6eb221bd-dee6-40a4-b98b-ed096afa0d58"},"vehicle_type_id":"4","last_reported":1767816813,"current_range_meters":3200,"station_id":"ce4bgrh2rcd13ifvqc8g","pricing_plan_id":"cebpf4jnsgd1na2vs0mg"},{"bike_id":"45bedc9f-72aa-4ff2-8079-a05357a97f80","system_id":"levelo_inurba_marseille","lat":43.30247,"lon":5.4007,"is_reserved":false,"is_disabled":false,"rental_uris":{"android":"levelo://app?vid=45bedc9f-72aa-4ff2-8079-a05357a97f80","ios":"levelo://app?vid=45bedc9f-72aa-4ff2-8079-a05357a97f80"},"vehicle_type_id":"4","last_reported":1767816813,"current_range_meters":3200,"station_id":"ce4bgvh2rcd13ifvqcs0","pricing_plan_id":"cebpf4jnsgd1na2vs0mg"},{"bike_id":"4b4a53ce-6685-4c48-92e4-9aa87114a53f","system_id":"levelo_inurba_marseille","lat":43.28085,"lon":5.40742,"is_reserved":false,"is_disabled":false,"rental_uris":{"android":"levelo://app?vid=4b4a53ce-6685-4c48-92e4-9aa87114a53f","ios":"levelo://app?vid=4b4a53ce-6685-4c48-92e4-9aa87114a53f"},"vehicle_type_id":"4","last_reported":1767816813,"current_range_meters":3200,"station_id":"","pricing_plan_id":"cebpf4jnsgd1na2vs0mg"},{"bike_id":"15bf6c3d-bc89-4e44-bfe7-ef27538e093c","system_id":"levelo_inurba_marseille","lat":43.24618,"lon":5.43133,"is_reserved":false,"is_disabled":false,"rental_uris":{"android":"levelo://app?vid=15bf6c3d-bc89-4e44-bfe7-ef27538e093c","ios":"levelo://app?vid=15bf6c3d-bc89-4e44-bfe7-ef27538e093c"},"vehicle_type_id":"4","last_reported":1767816813,"current_range_meters":3200,"station_id":"st_d2m6c4gdas8pm72e190g","pricing_plan_id":"cebpf4jnsgd1na2vs0mg"},{"bike_id":"6a37a502-8a4f-4bc7-83bd-16348e8cf97e","system_id":"levelo_inurba_marseille","lat":43.32086,"lon":5.36763,"is_reserved":false,"is_disabled":false,"rental_uris":{"android":"levelo://app?vid=6a37a502-8a4f-4bc7-83bd-16348e8cf97e","ios":"levelo://app?vid=6a37a502-8a4f-4bc7-83bd-16348e8cf97e"},"vehicle_type_id":"4","last_reported":1767816813,"current_range_meters":3200,"station_id":"ce4bhrh2rcd13ifvqhug","pricing_plan_id":"cebpf4jnsgd1na2vs0mg"},{"bike_id":"72ba40ff-3811-448f-9824-0a29539e09d4","system_id":"levelo_inurba_marseille","lat":43.22567,"lon":5.41636,"is_reserved":false,"is_disabled":false,"rental_uris":{"android":"levelo://app?vid=72ba40ff-3811-448f-9824-0a29539e09d4","ios":"levelo://app?vid=72ba40ff-3811-448f-9824-0a29539e09d4"},"vehicle_type_id":"4","last_reported":1767816813,"current_range_meters":3200,"station_id":"st_d2o4gvlbi1j2169b742g","pricing_plan_id":"cebpf4jnsgd1na2vs0mg"},{"bike_id":"b873d448-1951-4df5-bd2c-5e9d96c8aae5","system_id":"levelo_inurba_marseille","lat":43.23785,"lon":5.3663,"is_reserved":false,"is_disabled":false,"rental_uris":{"android":"levelo://app?vid=b873d448-1951-4df5-bd2c-5e9d96c8aae5","ios":"levelo://app?vid=b873d448-1951-4df5-bd2c-5e9d96c8aae5"},"vehicle_type_id":"4","last_reported":1767816813,"current_range_meters":3200,"station_id":"st_d3nk18o9ro0c73en2l3g","pricing_plan_id":"cebpf4jnsgd1na2vs0mg"},{"bike_id":"3851ee70-ae03-49d9-b91f-68948d918377","system_id":"levelo_inurba_marseille","lat":43.311687,"lon":5.387185,"is_reserved":false,"is_disabled":false,"rental_uris":{"android":"levelo://app?vid=3851ee70-ae03-49d9-b91f-68948d918377","ios":"levelo://app?vid=3851ee70-ae03-49d9-b91f-68948d918377"},"vehicle_type_id":"4","last_reported":1767816813,"current_range_meters":3200,"station_id":"ce4bgv12rcd13ifvqcp0","pricing_plan_id":"cebpf4jnsgd1na2vs0mg"},{"bike_id":"49f824e0-be70-460a-abe1-e537bc899112","system_id":"levelo_inurba_marseille","lat":43.26062,"lon":5.393896,"is_reserved":false,"is_disabled":false,"rental_uris":{"android":"levelo://app?vid=49f824e0-be70-460a-abe1-e537bc899112","ios":"levelo://app?vid=49f824e0-be70-460a-abe1-e537bc899112"},"vehicle_type_id":"4","last_reported":1767816813,"current_range_meters":3200,"station_id":"ce4bhh92rcd13ifvqfj0","pricing_plan_id":"cebpf4jnsgd1na2vs0mg"},{"bike_id":"b8408ccb-17d0-4ba3-b31e-918a33cf6e7d","system_id":"levelo_inurba_marseille","lat":43.24686,"lon":5.38154,"is_reserved":false,"is_disabled":true,"rental_uris":{"android":"levelo://app?vid=b8408ccb-17d0-4ba3-b31e-918a33cf6e7d","ios":"levelo://app?vid=b8408ccb-17d0-4ba3-b31e-918a33cf6e7d"},"vehicle_type_id":"4","last_reported":1767816813,"current_range_meters":3200,"station_id":"ce4bhih2rcd13ifvqfr0","pricing_plan_id":"cebpf4jnsgd1na2vs0mg"},{"bike_id":"3d576555-f651-4064-a84e-d3a86d6942ca","system_id":"levelo_inurba_marseille","lat":43.29709,"lon":5.3661,"is_reserved":false,"is_disabled":false,"rental_uris":{"android":"levelo://app?vid=3d576555-f651-4064-a84e-d3a86d6942ca","ios":"levelo://app?vid=3d576555-f651-4064-a84e-d3a86d6942ca"},"vehicle_type_id":"4","last_reported":1767816813,"current_range_meters":3200,"station_id":"ce4bgn12rcd13ifvqbt0","pricing_plan_id":"cebpf4jnsgd1na2vs0mg"},{"bike_id":"9b21424a-1587-45e4-bf2a-4284accabf77","system_id":"levelo_inurba_marseille","lat":43.28498,"lon":5.48421,"is_reserved":false,"is_disabled":false,"rental_uris":{"android":"levelo://app?vid=9b21424a-1587-45e4-bf2a-4284accabf77","ios":"levelo://app?vid=9b21424a-1587-45e4-bf2a-4284accabf77"},"vehicle_type_id":"4","last_reported":1767816813,"current_range_meters":3200,"station_id":"","pricing_plan_id":"cebpf4jnsgd1na2vs0mg"},{"bike_id":"078b98cb-75a8-4488-b35e-f85a0e763146","system_id":"levelo_inurba_marseille","lat":43.27375,"lon":5.36255,"is_reserved":false,"is_disabled":false,"rental_uris":{"android":"levelo://app?vid=078b98cb-75a8-4488-b35e-f85a0e763146","ios":"levelo://app?vid=078b98cb-75a8-4488-b35e-f85a0e763146"},"vehicle_type_id":"4","last_reported":1767816813,"current_range_meters":3200,"station_id":"ce4bhbh2rcd13ifvqeo0","pricing_plan_id":"cebpf4jnsgd1na2vs0mg"},{"bike_id":"3ecc9c84-68bc-4e9f-a65b-2ba74f374e5b","system_id":"levelo_inurba_marseille","lat":43.29435,"lon":5.39754,"is_reserved":false,"is_disabled":false,"rental_uris":{"android":"levelo://app?vid=3ecc9c84-68bc-4e9f-a65b-2ba74f374e5b","ios":"levelo://app?vid=3ecc9c84-68bc-4e9f-a65b-2ba74f374e5b"},"vehicle_type_id":"4","last_reported":1767816813,"current_range_meters":3600,"station_id":"ce4bh3h2rcd13ifvqdo0","pricing_plan_id":"cebpf4jnsgd1na2vs0mg"},{"bike_id":"1530fc03-af2b-4e1e-a5d6-078980bcf5dd","system_id":"levelo_inurba_marseille","lat":43.292633,"lon":5.40914,"is_reserved":false,"is_disabled":false,"rental_uris":{"android":"levelo://app?vid=1530fc03-af2b-4e1e-a5d6-078980bcf5dd","ios":"levelo://app?vid=1530fc03-af2b-4e1e-a5d6-078980bcf5dd"},"vehicle_type_id":"4","last_reported":1767816813,"current_range_meters":3600,"station_id":"ce4bh192rcd13ifvqdc0","pricing_plan_id":"cebpf4jnsgd1na2vs0mg"},{"bike_id":"4cd0ab39-3179-4327-8b72-4b30f74816dc","system_id":"levelo_inurba_marseille","lat":43.28531,"lon":5.44085,"is_reserved":false,"is_disabled":false,"rental_uris":{"android":"levelo://app?vid=4cd0ab39-3179-4327-8b72-4b30f74816dc","ios":"levelo://app?vid=4cd0ab39-3179-4327-8b72-4b30f74816dc"},"vehicle_type_id":"4","last_reported":1767816813,"current_range_meters":3600,"station_id":"st_d3j3df2ikq2c7380ej80","pricing_plan_id":"cebpf4jnsgd1na2vs0mg"},{"bike_id":"73b7ffc9-4bed-4e99-bfa7-6d859db78ae7","system_id":"levelo_inurba_marseille","lat":43.26543,"lon":5.40322,"is_reserved":false,"is_disabled":false,"rental_uris":{"android":"levelo://app?vid=73b7ffc9-4bed-4e99-bfa7-6d859db78ae7","ios":"levelo://app?vid=73b7ffc9-4bed-4e99-bfa7-6d859db78ae7"},"vehicle_type_id":"4","last_reported":1767816813,"current_range_meters":3600,"station_id":"ce4bhmp2rcd13ifvqgng","pricing_plan_id":"cebpf4jnsgd1na2vs0mg"},{"bike_id":"55a802b4-e353-46ec-8234-30b8b13627a1","system_id":"levelo_inurba_marseille","lat":43.311857,"lon":5.387218,"is_reserved":false,"is_disabled":false,"rental_uris":{"android":"levelo://app?vid=55a802b4-e353-46ec-8234-30b8b13627a1","ios":"levelo://app?vid=55a802b4-e353-46ec-8234-30b8b13627a1"},"vehicle_type_id":"4","last_reported":1767816813,"current_range_meters":3600,"station_id":"ce4bgv12rcd13ifvqcp0","pricing_plan_id":"cebpf4jnsgd1na2vs0mg"},{"bike_id":"658729ee-59bb-4369-8fb5-fa973c2baec9","system_id":"levelo_inurba_marseille","lat":43.27989,"lon":5.40029,"is_reserved":false,"is_disabled":false,"rental_uris":{"android":"levelo://app?vid=658729ee-59bb-4369-8fb5-fa973c2baec9","ios":"levelo://app?vid=658729ee-59bb-4369-8fb5-fa973c2baec9"},"vehicle_type_id":"4","last_reported":1767816813,"current_range_meters":3600,"station_id":"ce4bho92rcd13ifvqh4g","pricing_plan_id":"cebpf4jnsgd1na2vs0mg"},{"bike_id":"1b6ce610-fe82-4198-9707-7963b90d1de8","system_id":"levelo_inurba_marseille","lat":43.24057,"lon":5.3775,"is_reserved":false,"is_disabled":false,"rental_uris":{"android":"levelo://app?vid=1b6ce610-fe82-4198-9707-7963b90d1de8","ios":"levelo://app?vid=1b6ce610-fe82-4198-9707-7963b90d1de8"},"vehicle_type_id":"4","last_reported":1767816813,"current_range_meters":3600,"station_id":"ce4bhnp2rcd13ifvqgvg","pricing_plan_id":"cebpf4jnsgd1na2vs0mg"},{"bike_id":"3ee3e6f3-f5f3-4813-a788-c7dc51725d3b","system_id":"levelo_inurba_marseille","lat":43.33351,"lon":5.41119,"is_reserved":false,"is_disabled":false,"rental_uris":{"android":"levelo://app?vid=3ee3e6f3-f5f3-4813-a788-c7dc51725d3b","ios":"levelo://app?vid=3ee3e6f3-f5f3-4813-a788-c7dc51725d3b"},"vehicle_type_id":"4","last_reported":1767816813,"current_range_meters":3600,"station_id":"","pricing_plan_id":"cebpf4jnsgd1na2vs0mg"},{"bike_id":"4b02a8d2-87b0-4ad1-9463-8088094b1434","system_id":"levelo_inurba_marseille","lat":43.29289,"lon":5.37777,"is_reserved":false,"is_disabled":false,"rental_uris":{"android":"levelo://app?vid=4b02a8d2-87b0-4ad1-9463-8088094b1434","ios":"levelo://app?vid=4b02a8d2-87b0-4ad1-9463-8088094b1434"},"vehicle_type_id":"4","last_reported":1767816813,"current_range_meters":3600,"station_id":"","pricing_plan_id":"cebpf4jnsgd1na2vs0mg"},{"bike_id":"62cb22d9-379f-4a14-9307-a2357290642a","system_id":"levelo_inurba_marseille","lat":43.30012,"lon":5.3788,"is_reserved":false,"is_disabled":false,"rental_uris":{"android":"levelo://app?vid=62cb22d9-379f-4a14-9307-a2357290642a","ios":"levelo://app?vid=62cb22d9-379f-4a14-9307-a2357290642a"},"vehicle_type_id":"4","last_reported":1767816813,"current_range_meters":3600,"station_id":"","pricing_plan_id":"cebpf4jnsgd1na2vs0mg"},{"bike_id":"a2db453e-fbf6-47c8-8a63-5c92ad735c7f","system_id":"levelo_inurba_marseille","lat":43.29575,"lon":5.37517,"is_reserved":false,"is_disabled":false,"rental_uris":{"android":"levelo://app?vid=a2db453e-fbf6-47c8-8a63-5c92ad735c7f","ios":"levelo://app?vid=a2db453e-fbf6-47c8-8a63-5c92ad735c7f"},"vehicle_type_id":"4","last_reported":1767816813,"current_range_meters":3600,"station_id":"ce4bgh92rcd13ifvqb50","pricing_plan_id":"cebpf4jnsgd1na2vs0mg"},{"bike_id":"e66e094c-2b07-411b-b873-7d98f298b7f4","system_id":"levelo_inurba_marseille","lat":43.29005,"lon":5.3561,"is_reserved":false,"is_disabled":false,"rental_uris":{"android":"levelo://app?vid=e66e094c-2b07-411b-b873-7d98f298b7f4","ios":"levelo://app?vid=e66e094c-2b07-411b-b873-7d98f298b7f4"},"vehicle_type_id":"4","last_reported":1767816813,"current_range_meters":4000,"station_id":"ce4bhb92rcd13ifvqen0","pricing_plan_id":"cebpf4jnsgd1na2vs0mg"},{"bike_id":"6508c30a-7370-4fd0-a17b-7a6fca2c6540","system_id":"levelo_inurba_marseille","lat":43.32284,"lon":5.4129,"is_reserved":false,"is_disabled":false,"rental_uris":{"android":"levelo://app?vid=6508c30a-7370-4fd0-a17b-7a6fca2c6540","ios":"levelo://app?vid=6508c30a-7370-4fd0-a17b-7a6fca2c6540"},"vehicle_type_id":"4","last_reported":1767816813,"current_range_meters":4000,"station_id":"","pricing_plan_id":"cebpf4jnsgd1na2vs0mg"},{"bike_id":"74a16388-f64e-4280-97e2-75e4c4ddd811","system_id":"levelo_inurba_marseille","lat":43.28938,"lon":5.36636,"is_reserved":false,"is_disabled":false,"rental_uris":{"android":"levelo://app?vid=74a16388-f64e-4280-97e2-75e4c4ddd811","ios":"levelo://app?vid=74a16388-f64e-4280-97e2-75e4c4ddd811"},"vehicle_type_id":"4","last_reported":1767816813,"current_range_meters":4000,"station_id":"ce4bhap2rcd13ifvqek0","pricing_plan_id":"cebpf4jnsgd1na2vs0mg"},{"bike_id":"24273750-fbb8-405a-a600-7b8d138393f8","system_id":"levelo_inurba_marseille","lat":43.29606,"lon":5.37727,"is_reserved":false,"is_disabled":false,"rental_uris":{"android":"levelo://app?vid=24273750-fbb8-405a-a600-7b8d138393f8","ios":"levelo://app?vid=24273750-fbb8-405a-a600-7b8d138393f8"},"vehicle_type_id":"4","last_reported":1767816813,"current_range_meters":4000,"station_id":"ce4bgi92rcd13ifvqb90","pricing_plan_id":"cebpf4jnsgd1na2vs0mg"},{"bike_id":"fe5508dc-ffc3-4341-a43a-4b8463f003a9","system_id":"levelo_inurba_marseille","lat":43.26524,"lon":5.3905,"is_reserved":false,"is_disabled":false,"rental_uris":{"android":"levelo://app?vid=fe5508dc-ffc3-4341-a43a-4b8463f003a9","ios":"levelo://app?vid=fe5508dc-ffc3-4341-a43a-4b8463f003a9"},"vehicle_type_id":"4","last_reported":1767816813,"current_range_meters":4000,"station_id":"","pricing_plan_id":"cebpf4jnsgd1na2vs0mg"},{"bike_id":"3275b859-c08d-4706-afc8-86a6bdcab3a2","system_id":"levelo_inurba_marseille","lat":43.24384,"lon":5.37067,"is_reserved":false,"is_disabled":false,"rental_uris":{"android":"levelo://app?vid=3275b859-c08d-4706-afc8-86a6bdcab3a2","ios":"levelo://app?vid=3275b859-c08d-4706-afc8-86a6bdcab3a2"},"vehicle_type_id":"4","last_reported":1767816813,"current_range_meters":4000,"station_id":"ce4bhhh2rcd13ifvqfk0","pricing_plan_id":"cebpf4jnsgd1na2vs0mg"},{"bike_id":"ab6fe2ee-200d-418c-a693-20bf0b5f3548","system_id":"levelo_inurba_marseille","lat":43.260668,"lon":5.393931,"is_reserved":false,"is_disabled":false,"rental_uris":{"android":"levelo://app?vid=ab6fe2ee-200d-418c-a693-20bf0b5f3548","ios":"levelo://app?vid=ab6fe2ee-200d-418c-a693-20bf0b5f3548"},"vehicle_type_id":"4","last_reported":1767816813,"current_range_meters":4000,"station_id":"","pricing_plan_id":"cebpf4jnsgd1na2vs0mg"},{"bike_id":"4b095016-db2a-4566-99ac-7ac9d70ba99d","system_id":"levelo_inurba_marseille","lat":43.29627,"lon":5.37706,"is_reserved":false,"is_disabled":false,"rental_uris":{"android":"levelo://app?vid=4b095016-db2a-4566-99ac-7ac9d70ba99d","ios":"levelo://app?vid=4b095016-db2a-4566-99ac-7ac9d70ba99d"},"vehicle_type_id":"4","last_reported":1767816813,"current_range_meters":4000,"station_id":"ce4bgi92rcd13ifvqb90","pricing_plan_id":"cebpf4jnsgd1na2vs0mg"},{"bike_id":"93f34c1a-b5b1-4819-a9de-d350753e347a","system_id":"levelo_inurba_marseille","lat":43.29309,"lon":5.37169,"is_reserved":false,"is_disabled":false,"rental_uris":{"android":"levelo://app?vid=93f34c1a-b5b1-4819-a9de-d350753e347a","ios":"levelo://app?vid=93f34c1a-b5b1-4819-a9de-d350753e347a"},"vehicle_type_id":"4","last_reported":1767816813,"current_range_meters":4000,"station_id":"ce4bgh92rcd13ifvqb40","pricing_plan_id":"cebpf4jnsgd1na2vs0mg"},{"bike_id":"e9e6f93f-566e-422e-9b71-a79556ab8c5d","system_id":"levelo_inurba_marseille","lat":43.30286,"lon":5.45653,"is_reserved":false,"is_disabled":false,"rental_uris":{"android":"levelo://app?vid=e9e6f93f-566e-422e-9b71-a79556ab8c5d","ios":"levelo://app?vid=e9e6f93f-566e-422e-9b71-a79556ab8c5d"},"vehicle_type_id":"4","last_reported":1767816813,"current_range_meters":4000,"station_id":"","pricing_plan_id":"cebpf4jnsgd1na2vs0mg"},{"bike_id":"3f2f1631-23db-4e01-a38b-0daabcdf369a","system_id":"levelo_inurba_marseille","lat":43.29927,"lon":5.40281,"is_reserved":false,"is_disabled":false,"rental_uris":{"android":"levelo://app?vid=3f2f1631-23db-4e01-a38b-0daabcdf369a","ios":"levelo://app?vid=3f2f1631-23db-4e01-a38b-0daabcdf369a"},"vehicle_type_id":"4","last_reported":1767816813,"current_range_meters":4000,"station_id":"","pricing_plan_id":"cebpf4jnsgd1na2vs0mg"},{"bike_id":"78692314-9a9b-4a45-aebe-f14da9e71a3c","system_id":"levelo_inurba_marseille","lat":43.225333,"lon":5.3483,"is_reserved":false,"is_disabled":false,"rental_uris":{"android":"levelo://app?vid=78692314-9a9b-4a45-aebe-f14da9e71a3c","ios":"levelo://app?vid=78692314-9a9b-4a45-aebe-f14da9e71a3c"},"vehicle_type_id":"4","last_reported":1767816813,"current_range_meters":4000,"station_id":"st_cvj5dfep6f1abm77gieg","pricing_plan_id":"cebpf4jnsgd1na2vs0mg"},{"bike_id":"ce2778e9-1ed0-410d-bcf8-f64daad6e379","system_id":"levelo_inurba_marseille","lat":43.255924,"lon":5.382186,"is_reserved":false,"is_disabled":false,"rental_uris":{"android":"levelo://app?vid=ce2778e9-1ed0-410d-bcf8-f64daad6e379","ios":"levelo://app?vid=ce2778e9-1ed0-410d-bcf8-f64daad6e379"},"vehicle_type_id":"4","last_reported":1767816813,"current_range_meters":4400,"station_id":"ce4bhih2rcd13ifvqfs0","pricing_plan_id":"cebpf4jnsgd1na2vs0mg"},{"bike_id":"7b966d07-44ed-49d3-91c0-b3c3eeb24791","system_id":"levelo_inurba_marseille","lat":43.30183,"lon":5.39094,"is_reserved":false,"is_disabled":false,"rental_uris":{"android":"levelo://app?vid=7b966d07-44ed-49d3-91c0-b3c3eeb24791","ios":"levelo://app?vid=7b966d07-44ed-49d3-91c0-b3c3eeb24791"},"vehicle_type_id":"4","last_reported":1767816813,"current_range_meters":4400,"station_id":"","pricing_plan_id":"cebpf4jnsgd1na2vs0mg"},{"bike_id":"acbd5e4f-e25a-4f78-98f2-8ce2be51a356","system_id":"levelo_inurba_marseille","lat":43.29813,"lon":5.36375,"is_reserved":false,"is_disabled":false,"rental_uris":{"android":"levelo://app?vid=acbd5e4f-e25a-4f78-98f2-8ce2be51a356","ios":"levelo://app?vid=acbd5e4f-e25a-4f78-98f2-8ce2be51a356"},"vehicle_type_id":"4","last_reported":1767816813,"current_range_meters":4400,"station_id":"","pricing_plan_id":"cebpf4jnsgd1na2vs0mg"},{"bike_id":"aa323760-6cdd-4364-b0a8-848f910cc737","system_id":"levelo_inurba_marseille","lat":43.30174,"lon":5.36631,"is_reserved":false,"is_disabled":false,"rental_uris":{"android":"levelo://app?vid=aa323760-6cdd-4364-b0a8-848f910cc737","ios":"levelo://app?vid=aa323760-6cdd-4364-b0a8-848f910cc737"},"vehicle_type_id":"4","last_reported":1767816813,"current_range_meters":4400,"station_id":"ce4bgrh2rcd13ifvqc8g","pricing_plan_id":"cebpf4jnsgd1na2vs0mg"},{"bike_id":"b6bfa005-c263-4c69-bc8f-77e7f7957528","system_id":"levelo_inurba_marseille","lat":43.30867,"lon":5.39636,"is_reserved":false,"is_disabled":false,"rental_uris":{"android":"levelo://app?vid=b6bfa005-c263-4c69-bc8f-77e7f7957528","ios":"levelo://app?vid=b6bfa005-c263-4c69-bc8f-77e7f7957528"},"vehicle_type_id":"4","last_reported":1767816813,"current_range_meters":4400,"station_id":"ce4bh012rcd13ifvqcv0","pricing_plan_id":"cebpf4jnsgd1na2vs0mg"},{"bike_id":"19621a97-e6ca-4ece-af61-6ae1d6eb62bb","system_id":"levelo_inurba_marseille","lat":43.30128,"lon":5.43117,"is_reserved":false,"is_disabled":false,"rental_uris":{"android":"levelo://app?vid=19621a97-e6ca-4ece-af61-6ae1d6eb62bb","ios":"levelo://app?vid=19621a97-e6ca-4ece-af61-6ae1d6eb62bb"},"vehicle_type_id":"4","last_reported":1767816813,"current_range_meters":4400,"station_id":"st_d3js3co5814s73ftftug","pricing_plan_id":"cebpf4jnsgd1na2vs0mg"},{"bike_id":"d3c07e90-a6bf-4dc5-a33c-036bde84929b","system_id":"levelo_inurba_marseille","lat":43.25334,"lon":5.42182,"is_reserved":false,"is_disabled":true,"rental_uris":{"android":"levelo://app?vid=d3c07e90-a6bf-4dc5-a33c-036bde84929b","ios":"levelo://app?vid=d3c07e90-a6bf-4dc5-a33c-036bde84929b"},"vehicle_type_id":"4","last_reported":1767816813,"current_range_meters":4400,"station_id":"st_d2m65c5bi1j21697t3ng","pricing_plan_id":"cebpf4jnsgd1na2vs0mg"},{"bike_id":"05913a82-5d97-49fd-869e-011fe384b874","system_id":"levelo_inurba_marseille","lat":43.29843,"lon":5.378312,"is_reserved":false,"is_disabled":false,"rental_uris":{"android":"levelo://app?vid=05913a82-5d97-49fd-869e-011fe384b874","ios":"levelo://app?vid=05913a82-5d97-49fd-869e-011fe384b874"},"vehicle_type_id":"4","last_reported":1767816813,"current_range_meters":4400,"station_id":"","pricing_plan_id":"cebpf4jnsgd1na2vs0mg"},{"bike_id":"dab9c7e3-b0f1-4f81-b8e1-b15dca343639","system_id":"levelo_inurba_marseille","lat":43.29517,"lon":5.39037,"is_reserved":false,"is_disabled":false,"rental_uris":{"android":"levelo://app?vid=dab9c7e3-b0f1-4f81-b8e1-b15dca343639","ios":"levelo://app?vid=dab9c7e3-b0f1-4f81-b8e1-b15dca343639"},"vehicle_type_id":"4","last_reported":1767816813,"current_range_meters":4400,"station_id":"ce4bh3p2rcd13ifvqdp0","pricing_plan_id":"cebpf4jnsgd1na2vs0mg"},{"bike_id":"74adf7f1-0d93-4c77-be9b-a248eee0a16f","system_id":"levelo_inurba_marseille","lat":43.27419,"lon":5.39413,"is_reserved":false,"is_disabled":false,"rental_uris":{"android":"levelo://app?vid=74adf7f1-0d93-4c77-be9b-a248eee0a16f","ios":"levelo://app?vid=74adf7f1-0d93-4c77-be9b-a248eee0a16f"},"vehicle_type_id":"4","last_reported":1767816813,"current_range_meters":4400,"station_id":"ce4bhdp2rcd13ifvqf20","pricing_plan_id":"cebpf4jnsgd1na2vs0mg"},{"bike_id":"50f4b3bd-6360-4d14-b317-8ae7b873727e","system_id":"levelo_inurba_marseille","lat":43.25578,"lon":5.38249,"is_reserved":false,"is_disabled":false,"rental_uris":{"android":"levelo://app?vid=50f4b3bd-6360-4d14-b317-8ae7b873727e","ios":"levelo://app?vid=50f4b3bd-6360-4d14-b317-8ae7b873727e"},"vehicle_type_id":"4","last_reported":1767816813,"current_range_meters":4400,"station_id":"ce4bhih2rcd13ifvqfs0","pricing_plan_id":"cebpf4jnsgd1na2vs0mg"},{"bike_id":"61e57150-bb7f-4bb5-82de-46a20047a425","system_id":"levelo_inurba_marseille","lat":43.26586,"lon":5.39021,"is_reserved":false,"is_disabled":false,"rental_uris":{"android":"levelo://app?vid=61e57150-bb7f-4bb5-82de-46a20047a425","ios":"levelo://app?vid=61e57150-bb7f-4bb5-82de-46a20047a425"},"vehicle_type_id":"4","last_reported":1767816813,"current_range_meters":4400,"station_id":"ce4bhe12rcd13ifvqf30","pricing_plan_id":"cebpf4jnsgd1na2vs0mg"},{"bike_id":"52a60ed1-1069-4427-a4b6-8b307a25e139","system_id":"levelo_inurba_marseille","lat":43.26067,"lon":5.39393,"is_reserved":false,"is_disabled":false,"rental_uris":{"android":"levelo://app?vid=52a60ed1-1069-4427-a4b6-8b307a25e139","ios":"levelo://app?vid=52a60ed1-1069-4427-a4b6-8b307a25e139"},"vehicle_type_id":"4","last_reported":1767816813,"current_range_meters":4400,"station_id":"ce4bhh92rcd13ifvqfj0","pricing_plan_id":"cebpf4jnsgd1na2vs0mg"},{"bike_id":"3e3e0047-b0cb-4bda-9ddb-fb1e80df6397","system_id":"levelo_inurba_marseille","lat":43.23157,"lon":5.43701,"is_reserved":false,"is_disabled":false,"rental_uris":{"android":"levelo://app?vid=3e3e0047-b0cb-4bda-9ddb-fb1e80df6397","ios":"levelo://app?vid=3e3e0047-b0cb-4bda-9ddb-fb1e80df6397"},"vehicle_type_id":"4","last_reported":1767816813,"current_range_meters":4800,"station_id":"ce4bhmp2rcd13ifvqgog","pricing_plan_id":"cebpf4jnsgd1na2vs0mg"},{"bike_id":"fe43f56a-2d7f-414c-8ff0-f446b4cb2271","system_id":"levelo_inurba_marseille","lat":43.27213,"lon":5.40984,"is_reserved":false,"is_disabled":false,"rental_uris":{"android":"levelo://app?vid=fe43f56a-2d7f-414c-8ff0-f446b4cb2271","ios":"levelo://app?vid=fe43f56a-2d7f-414c-8ff0-f446b4cb2271"},"vehicle_type_id":"4","last_reported":1767816813,"current_range_meters":4800,"station_id":"ce4bhl12rcd13ifvqgf0","pricing_plan_id":"cebpf4jnsgd1na2vs0mg"},{"bike_id":"4e9944d7-ff17-431f-9506-b409b96c8161","system_id":"levelo_inurba_marseille","lat":43.25575,"lon":5.38225,"is_reserved":false,"is_disabled":false,"rental_uris":{"android":"levelo://app?vid=4e9944d7-ff17-431f-9506-b409b96c8161","ios":"levelo://app?vid=4e9944d7-ff17-431f-9506-b409b96c8161"},"vehicle_type_id":"4","last_reported":1767816813,"current_range_meters":4800,"station_id":"ce4bhih2rcd13ifvqfs0","pricing_plan_id":"cebpf4jnsgd1na2vs0mg"},{"bike_id":"d94a94f4-003c-473b-87bc-9cd8d9c889e2","system_id":"levelo_inurba_marseille","lat":43.32374,"lon":5.3676,"is_reserved":false,"is_disabled":false,"rental_uris":{"android":"levelo://app?vid=d94a94f4-003c-473b-87bc-9cd8d9c889e2","ios":"levelo://app?vid=d94a94f4-003c-473b-87bc-9cd8d9c889e2"},"vehicle_type_id":"4","last_reported":1767816813,"current_range_meters":4800,"station_id":"ce4bhsh2rcd13ifvqi2g","pricing_plan_id":"cebpf4jnsgd1na2vs0mg"},{"bike_id":"9eb913cd-2db4-48fc-a9eb-2256ba745c47","system_id":"levelo_inurba_marseille","lat":43.31704,"lon":5.437,"is_reserved":false,"is_disabled":false,"rental_uris":{"android":"levelo://app?vid=9eb913cd-2db4-48fc-a9eb-2256ba745c47","ios":"levelo://app?vid=9eb913cd-2db4-48fc-a9eb-2256ba745c47"},"vehicle_type_id":"4","last_reported":1767816813,"current_range_meters":4800,"station_id":"ce4bhp92rcd13ifvqhcg","pricing_plan_id":"cebpf4jnsgd1na2vs0mg"},{"bike_id":"26471476-0788-4cdb-9b4d-9f0b3e686ab5","system_id":"levelo_inurba_marseille","lat":43.31311,"lon":5.3868,"is_reserved":false,"is_disabled":false,"rental_uris":{"android":"levelo://app?vid=26471476-0788-4cdb-9b4d-9f0b3e686ab5","ios":"levelo://app?vid=26471476-0788-4cdb-9b4d-9f0b3e686ab5"},"vehicle_type_id":"4","last_reported":1767816813,"current_range_meters":4800,"station_id":"","pricing_plan_id":"cebpf4jnsgd1na2vs0mg"},{"bike_id":"2ab667bd-0a0f-4cc8-9064-3a9b070f7d3d","system_id":"levelo_inurba_marseille","lat":43.27227,"lon":5.39196,"is_reserved":false,"is_disabled":false,"rental_uris":{"android":"levelo://app?vid=2ab667bd-0a0f-4cc8-9064-3a9b070f7d3d","ios":"levelo://app?vid=2ab667bd-0a0f-4cc8-9064-3a9b070f7d3d"},"vehicle_type_id":"4","last_reported":1767816813,"current_range_meters":4800,"station_id":"ce4bhhp2rcd13ifvqfm0","pricing_plan_id":"cebpf4jnsgd1na2vs0mg"},{"bike_id":"def75f23-c768-4f08-b2c2-610194367dcf","system_id":"levelo_inurba_marseille","lat":43.30734,"lon":5.40992,"is_reserved":false,"is_disabled":false,"rental_uris":{"android":"levelo://app?vid=def75f23-c768-4f08-b2c2-610194367dcf","ios":"levelo://app?vid=def75f23-c768-4f08-b2c2-610194367dcf"},"vehicle_type_id":"4","last_reported":1767816813,"current_range_meters":4800,"station_id":"","pricing_plan_id":"cebpf4jnsgd1na2vs0mg"},{"bike_id":"63931dd9-5e9c-4cb5-b5fe-d5d26fe59f6e","system_id":"levelo_inurba_marseille","lat":43.273751,"lon":5.362586,"is_reserved":false,"is_disabled":false,"rental_uris":{"android":"levelo://app?vid=63931dd9-5e9c-4cb5-b5fe-d5d26fe59f6e","ios":"levelo://app?vid=63931dd9-5e9c-4cb5-b5fe-d5d26fe59f6e"},"vehicle_type_id":"4","last_reported":1767816813,"current_range_meters":4800,"station_id":"ce4bhbh2rcd13ifvqeo0","pricing_plan_id":"cebpf4jnsgd1na2vs0mg"},{"bike_id":"28119d97-7102-4d29-b6d8-83d7d4b56a13","system_id":"levelo_inurba_marseille","lat":43.323531,"lon":5.367498,"is_reserved":false,"is_disabled":false,"rental_uris":{"android":"levelo://app?vid=28119d97-7102-4d29-b6d8-83d7d4b56a13","ios":"levelo://app?vid=28119d97-7102-4d29-b6d8-83d7d4b56a13"},"vehicle_type_id":"4","last_reported":1767816813,"current_range_meters":4800,"station_id":"ce4bhsh2rcd13ifvqi2g","pricing_plan_id":"cebpf4jnsgd1na2vs0mg"},{"bike_id":"3a1a012f-e2cb-489c-8aaa-49659e7dafd1","system_id":"levelo_inurba_marseille","lat":43.29217,"lon":5.36069,"is_reserved":false,"is_disabled":false,"rental_uris":{"android":"levelo://app?vid=3a1a012f-e2cb-489c-8aaa-49659e7dafd1","ios":"levelo://app?vid=3a1a012f-e2cb-489c-8aaa-49659e7dafd1"},"vehicle_type_id":"4","last_reported":1767816813,"current_range_meters":4800,"station_id":"ce4bhbh2rcd13ifvqeqg","pricing_plan_id":"cebpf4jnsgd1na2vs0mg"},{"bike_id":"1ac84a2f-834c-4512-8844-a6504078a505","system_id":"levelo_inurba_marseille","lat":43.29228,"lon":5.360652,"is_reserved":false,"is_disabled":false,"rental_uris":{"android":"levelo://app?vid=1ac84a2f-834c-4512-8844-a6504078a505","ios":"levelo://app?vid=1ac84a2f-834c-4512-8844-a6504078a505"},"vehicle_type_id":"4","last_reported":1767816813,"current_range_meters":5600,"station_id":"ce4bhbh2rcd13ifvqeqg","pricing_plan_id":"cebpf4jnsgd1na2vs0mg"},{"bike_id":"1511a012-c085-4f38-8ab1-d9eee4c01f86","system_id":"levelo_inurba_marseille","lat":43.2418,"lon":5.36385,"is_reserved":false,"is_disabled":false,"rental_uris":{"android":"levelo://app?vid=1511a012-c085-4f38-8ab1-d9eee4c01f86","ios":"levelo://app?vid=1511a012-c085-4f38-8ab1-d9eee4c01f86"},"vehicle_type_id":"4","last_reported":1767816813,"current_range_meters":5600,"station_id":"","pricing_plan_id":"cebpf4jnsgd1na2vs0mg"},{"bike_id":"32cbb5dc-7f44-46b7-b0cb-ce64452f8970","system_id":"levelo_inurba_marseille","lat":43.29922,"lon":5.3635,"is_reserved":false,"is_disabled":false,"rental_uris":{"android":"levelo://app?vid=32cbb5dc-7f44-46b7-b0cb-ce64452f8970","ios":"levelo://app?vid=32cbb5dc-7f44-46b7-b0cb-ce64452f8970"},"vehicle_type_id":"4","last_reported":1767816813,"current_range_meters":5600,"station_id":"","pricing_plan_id":"cebpf4jnsgd1na2vs0mg"},{"bike_id":"5b1e28d0-cfd4-4f63-bcd7-e389c7a33f6a","system_id":"levelo_inurba_marseille","lat":43.24634,"lon":5.4314,"is_reserved":false,"is_disabled":false,"rental_uris":{"android":"levelo://app?vid=5b1e28d0-cfd4-4f63-bcd7-e389c7a33f6a","ios":"levelo://app?vid=5b1e28d0-cfd4-4f63-bcd7-e389c7a33f6a"},"vehicle_type_id":"4","last_reported":1767816813,"current_range_meters":5600,"station_id":"st_d2m6c4gdas8pm72e190g","pricing_plan_id":"cebpf4jnsgd1na2vs0mg"},{"bike_id":"184adeb8-9203-4f19-b080-ca451c49fd36","system_id":"levelo_inurba_marseille","lat":43.29159,"lon":5.37164,"is_reserved":false,"is_disabled":false,"rental_uris":{"android":"levelo://app?vid=184adeb8-9203-4f19-b080-ca451c49fd36","ios":"levelo://app?vid=184adeb8-9203-4f19-b080-ca451c49fd36"},"vehicle_type_id":"4","last_reported":1767816813,"current_range_meters":5600,"station_id":"ce4bha92rcd13ifvqeh0","pricing_plan_id":"cebpf4jnsgd1na2vs0mg"},{"bike_id":"8f0d1315-0bea-48f3-947d-e402f4e774a7","system_id":"levelo_inurba_marseille","lat":43.29716,"lon":5.3768,"is_reserved":false,"is_disabled":false,"rental_uris":{"android":"levelo://app?vid=8f0d1315-0bea-48f3-947d-e402f4e774a7","ios":"levelo://app?vid=8f0d1315-0bea-48f3-947d-e402f4e774a7"},"vehicle_type_id":"4","last_reported":1767816813,"current_range_meters":5600,"station_id":"ce4bgkh2rcd13ifvqbl0","pricing_plan_id":"cebpf4jnsgd1na2vs0mg"},{"bike_id":"99d2c240-fb57-4bcc-834e-50095cd537f1","system_id":"levelo_inurba_marseille","lat":43.29203,"lon":5.35785,"is_reserved":false,"is_disabled":false,"rental_uris":{"android":"levelo://app?vid=99d2c240-fb57-4bcc-834e-50095cd537f1","ios":"levelo://app?vid=99d2c240-fb57-4bcc-834e-50095cd537f1"},"vehicle_type_id":"4","last_reported":1767816813,"current_range_meters":5600,"station_id":"ce4bhb12rcd13ifvqel0","pricing_plan_id":"cebpf4jnsgd1na2vs0mg"},{"bike_id":"d4cb7d87-6e05-4a12-a6a8-801515607d75","system_id":"levelo_inurba_marseille","lat":43.32096,"lon":5.3677,"is_reserved":false,"is_disabled":false,"rental_uris":{"android":"levelo://app?vid=d4cb7d87-6e05-4a12-a6a8-801515607d75","ios":"levelo://app?vid=d4cb7d87-6e05-4a12-a6a8-801515607d75"},"vehicle_type_id":"4","last_reported":1767816813,"current_range_meters":5600,"station_id":"ce4bhrh2rcd13ifvqhug","pricing_plan_id":"cebpf4jnsgd1na2vs0mg"},{"bike_id":"6174981e-bed3-4bbe-a3fa-13b0fcc75de4","system_id":"levelo_inurba_marseille","lat":43.23143,"lon":5.43712,"is_reserved":false,"is_disabled":true,"rental_uris":{"android":"levelo://app?vid=6174981e-bed3-4bbe-a3fa-13b0fcc75de4","ios":"levelo://app?vid=6174981e-bed3-4bbe-a3fa-13b0fcc75de4"},"vehicle_type_id":"4","last_reported":1767816813,"current_range_meters":5600,"station_id":"","pricing_plan_id":"cebpf4jnsgd1na2vs0mg"},{"bike_id":"9c2b50d7-d1c4-4604-94b6-fb27903a754e","system_id":"levelo_inurba_marseille","lat":43.30207,"lon":5.39459,"is_reserved":false,"is_disabled":false,"rental_uris":{"android":"levelo://app?vid=9c2b50d7-d1c4-4604-94b6-fb27903a754e","ios":"levelo://app?vid=9c2b50d7-d1c4-4604-94b6-fb27903a754e"},"vehicle_type_id":"4","last_reported":1767816813,"current_range_meters":5600,"station_id":"ce4bh0p2rcd13ifvqd70","pricing_plan_id":"cebpf4jnsgd1na2vs0mg"},{"bike_id":"25bcfc78-3f0b-4981-8911-91eda9adaaf9","system_id":"levelo_inurba_marseille","lat":43.28385,"lon":5.41639,"is_reserved":false,"is_disabled":false,"rental_uris":{"android":"levelo://app?vid=25bcfc78-3f0b-4981-8911-91eda9adaaf9","ios":"levelo://app?vid=25bcfc78-3f0b-4981-8911-91eda9adaaf9"},"vehicle_type_id":"4","last_reported":1767816813,"current_range_meters":5600,"station_id":"","pricing_plan_id":"cebpf4jnsgd1na2vs0mg"},{"bike_id":"48771c48-ffc3-4134-8d30-7910d4446c8d","system_id":"levelo_inurba_marseille","lat":43.27635,"lon":5.38405,"is_reserved":false,"is_disabled":false,"rental_uris":{"android":"levelo://app?vid=48771c48-ffc3-4134-8d30-7910d4446c8d","ios":"levelo://app?vid=48771c48-ffc3-4134-8d30-7910d4446c8d"},"vehicle_type_id":"4","last_reported":1767816813,"current_range_meters":5600,"station_id":"","pricing_plan_id":"cebpf4jnsgd1na2vs0mg"},{"bike_id":"35c3cbbb-0469-478d-b4da-bfb159e2f13b","system_id":"levelo_inurba_marseille","lat":43.259344,"lon":5.40915,"is_reserved":false,"is_disabled":true,"rental_uris":{"android":"levelo://app?vid=35c3cbbb-0469-478d-b4da-bfb159e2f13b","ios":"levelo://app?vid=35c3cbbb-0469-478d-b4da-bfb159e2f13b"},"vehicle_type_id":"4","last_reported":1767816813,"current_range_meters":5600,"station_id":"ce4bhm92rcd13ifvqglg","pricing_plan_id":"cebpf4jnsgd1na2vs0mg"},{"bike_id":"449f19ee-aa53-4b1f-8d91-b41560c91561","system_id":"levelo_inurba_marseille","lat":43.29168,"lon":5.37154,"is_reserved":false,"is_disabled":false,"rental_uris":{"android":"levelo://app?vid=449f19ee-aa53-4b1f-8d91-b41560c91561","ios":"levelo://app?vid=449f19ee-aa53-4b1f-8d91-b41560c91561"},"vehicle_type_id":"4","last_reported":1767816813,"current_range_meters":5600,"station_id":"ce4bha92rcd13ifvqeh0","pricing_plan_id":"cebpf4jnsgd1na2vs0mg"},{"bike_id":"533ded1c-f64a-40a7-987e-c996af8b74ed","system_id":"levelo_inurba_marseille","lat":43.23789,"lon":5.36638,"is_reserved":false,"is_disabled":false,"rental_uris":{"android":"levelo://app?vid=533ded1c-f64a-40a7-987e-c996af8b74ed","ios":"levelo://app?vid=533ded1c-f64a-40a7-987e-c996af8b74ed"},"vehicle_type_id":"4","last_reported":1767816813,"current_range_meters":5600,"station_id":"st_d3nk18o9ro0c73en2l3g","pricing_plan_id":"cebpf4jnsgd1na2vs0mg"},{"bike_id":"dac72b8a-fcff-44f7-9920-6d39a27b0772","system_id":"levelo_inurba_marseille","lat":43.230723,"lon":5.364202,"is_reserved":false,"is_disabled":false,"rental_uris":{"android":"levelo://app?vid=dac72b8a-fcff-44f7-9920-6d39a27b0772","ios":"levelo://app?vid=dac72b8a-fcff-44f7-9920-6d39a27b0772"},"vehicle_type_id":"4","last_reported":1767816813,"current_range_meters":5600,"station_id":"st_d3nk18o9ro0c73en2l3g","pricing_plan_id":"cebpf4jnsgd1na2vs0mg"},{"bike_id":"b42c0356-6aee-42cf-8693-3d61ba8ffb0a","system_id":"levelo_inurba_marseille","lat":43.27924,"lon":5.39571,"is_reserved":false,"is_disabled":false,"rental_uris":{"android":"levelo://app?vid=b42c0356-6aee-42cf-8693-3d61ba8ffb0a","ios":"levelo://app?vid=b42c0356-6aee-42cf-8693-3d61ba8ffb0a"},"vehicle_type_id":"4","last_reported":1767816813,"current_range_meters":5600,"station_id":"ce4bhf92rcd13ifvqf40","pricing_plan_id":"cebpf4jnsgd1na2vs0mg"},{"bike_id":"a0baeed8-1c2d-4b3d-a98c-a841d5f11ee9","system_id":"levelo_inurba_marseille","lat":43.23135,"lon":5.43702,"is_reserved":false,"is_disabled":false,"rental_uris":{"android":"levelo://app?vid=a0baeed8-1c2d-4b3d-a98c-a841d5f11ee9","ios":"levelo://app?vid=a0baeed8-1c2d-4b3d-a98c-a841d5f11ee9"},"vehicle_type_id":"4","last_reported":1767816813,"current_range_meters":6000,"station_id":"ce4bhmp2rcd13ifvqgog","pricing_plan_id":"cebpf4jnsgd1na2vs0mg"},{"bike_id":"d4aa93f0-043b-4bba-9e4c-d0386c2a86d0","system_id":"levelo_inurba_marseille","lat":43.23749,"lon":5.36629,"is_reserved":false,"is_disabled":false,"rental_uris":{"android":"levelo://app?vid=d4aa93f0-043b-4bba-9e4c-d0386c2a86d0","ios":"levelo://app?vid=d4aa93f0-043b-4bba-9e4c-d0386c2a86d0"},"vehicle_type_id":"4","last_reported":1767816813,"current_range_meters":6000,"station_id":"st_d3nk18o9ro0c73en2l3g","pricing_plan_id":"cebpf4jnsgd1na2vs0mg"},{"bike_id":"f0ee26aa-1f32-4b29-8886-d649c0662431","system_id":"levelo_inurba_marseille","lat":43.29517,"lon":5.39398,"is_reserved":false,"is_disabled":false,"rental_uris":{"android":"levelo://app?vid=f0ee26aa-1f32-4b29-8886-d649c0662431","ios":"levelo://app?vid=f0ee26aa-1f32-4b29-8886-d649c0662431"},"vehicle_type_id":"4","last_reported":1767816813,"current_range_meters":6000,"station_id":"ce4bh292rcd13ifvqdf0","pricing_plan_id":"cebpf4jnsgd1na2vs0mg"},{"bike_id":"093e559f-24f8-4d23-87bd-d3574438f2f7","system_id":"levelo_inurba_marseille","lat":43.29989,"lon":5.38533,"is_reserved":false,"is_disabled":false,"rental_uris":{"android":"levelo://app?vid=093e559f-24f8-4d23-87bd-d3574438f2f7","ios":"levelo://app?vid=093e559f-24f8-4d23-87bd-d3574438f2f7"},"vehicle_type_id":"4","last_reported":1767816813,"current_range_meters":6000,"station_id":"ce4bgj92rcd13ifvqbd0","pricing_plan_id":"cebpf4jnsgd1na2vs0mg"},{"bike_id":"1eb5035e-3c17-48ce-8d17-8fe22f2ed1ba","system_id":"levelo_inurba_marseille","lat":43.28459,"lon":5.35891,"is_reserved":false,"is_disabled":false,"rental_uris":{"android":"levelo://app?vid=1eb5035e-3c17-48ce-8d17-8fe22f2ed1ba","ios":"levelo://app?vid=1eb5035e-3c17-48ce-8d17-8fe22f2ed1ba"},"vehicle_type_id":"4","last_reported":1767816813,"current_range_meters":6000,"station_id":"ce4bhah2rcd13ifvqei0","pricing_plan_id":"cebpf4jnsgd1na2vs0mg"},{"bike_id":"754e4108-4c57-4763-b08c-1bdebeea8ce2","system_id":"levelo_inurba_marseille","lat":43.28655,"lon":5.38633,"is_reserved":false,"is_disabled":false,"rental_uris":{"android":"levelo://app?vid=754e4108-4c57-4763-b08c-1bdebeea8ce2","ios":"levelo://app?vid=754e4108-4c57-4763-b08c-1bdebeea8ce2"},"vehicle_type_id":"4","last_reported":1767816813,"current_range_meters":6000,"station_id":"ce4bh492rcd13ifvqdug","pricing_plan_id":"cebpf4jnsgd1na2vs0mg"},{"bike_id":"03bb26cc-5abe-463b-b42d-df12dfc80fb1","system_id":"levelo_inurba_marseille","lat":43.28006,"lon":5.39984,"is_reserved":false,"is_disabled":false,"rental_uris":{"android":"levelo://app?vid=03bb26cc-5abe-463b-b42d-df12dfc80fb1","ios":"levelo://app?vid=03bb26cc-5abe-463b-b42d-df12dfc80fb1"},"vehicle_type_id":"4","last_reported":1767816813,"current_range_meters":6000,"station_id":"ce4bho92rcd13ifvqh4g","pricing_plan_id":"cebpf4jnsgd1na2vs0mg"},{"bike_id":"648080a5-2fc4-4912-8414-9c01e52433df","system_id":"levelo_inurba_marseille","lat":43.29938,"lon":5.36532,"is_reserved":false,"is_disabled":false,"rental_uris":{"android":"levelo://app?vid=648080a5-2fc4-4912-8414-9c01e52433df","ios":"levelo://app?vid=648080a5-2fc4-4912-8414-9c01e52433df"},"vehicle_type_id":"4","last_reported":1767816813,"current_range_meters":6000,"station_id":"ce4bgm92rcd13ifvqbr0","pricing_plan_id":"cebpf4jnsgd1na2vs0mg"},{"bike_id":"8652dec3-eb54-4fc9-83f2-a72b3a09186e","system_id":"levelo_inurba_marseille","lat":43.3088,"lon":5.396401,"is_reserved":false,"is_disabled":false,"rental_uris":{"android":"levelo://app?vid=8652dec3-eb54-4fc9-83f2-a72b3a09186e","ios":"levelo://app?vid=8652dec3-eb54-4fc9-83f2-a72b3a09186e"},"vehicle_type_id":"4","last_reported":1767816813,"current_range_meters":6000,"station_id":"ce4bh012rcd13ifvqcv0","pricing_plan_id":"cebpf4jnsgd1na2vs0mg"},{"bike_id":"a31ba797-d219-4a65-a019-17190c6343b6","system_id":"levelo_inurba_marseille","lat":43.31945,"lon":5.37606,"is_reserved":false,"is_disabled":false,"rental_uris":{"android":"levelo://app?vid=a31ba797-d219-4a65-a019-17190c6343b6","ios":"levelo://app?vid=a31ba797-d219-4a65-a019-17190c6343b6"},"vehicle_type_id":"4","last_reported":1767816813,"current_range_meters":6000,"station_id":"","pricing_plan_id":"cebpf4jnsgd1na2vs0mg"},{"bike_id":"adc6d3e5-a0bd-4fb1-8c8c-aa2813db45ad","system_id":"levelo_inurba_marseille","lat":43.315276,"lon":5.380248,"is_reserved":false,"is_disabled":false,"rental_uris":{"android":"levelo://app?vid=adc6d3e5-a0bd-4fb1-8c8c-aa2813db45ad","ios":"levelo://app?vid=adc6d3e5-a0bd-4fb1-8c8c-aa2813db45ad"},"vehicle_type_id":"4","last_reported":1767816813,"current_range_meters":6000,"station_id":"ce4bhsp2rcd13ifvqi50","pricing_plan_id":"cebpf4jnsgd1na2vs0mg"},{"bike_id":"16266bb2-0eec-46c2-9380-02fb412cecd7","system_id":"levelo_inurba_marseille","lat":43.28476,"lon":5.38551,"is_reserved":false,"is_disabled":false,"rental_uris":{"android":"levelo://app?vid=16266bb2-0eec-46c2-9380-02fb412cecd7","ios":"levelo://app?vid=16266bb2-0eec-46c2-9380-02fb412cecd7"},"vehicle_type_id":"4","last_reported":1767816813,"current_range_meters":6000,"station_id":"ce4bh8p2rcd13ifvqeb0","pricing_plan_id":"cebpf4jnsgd1na2vs0mg"},{"bike_id":"d5b0c4ed-7646-45b9-b9d3-d49c57b897b7","system_id":"levelo_inurba_marseille","lat":43.297648,"lon":5.427771,"is_reserved":false,"is_disabled":false,"rental_uris":{"android":"levelo://app?vid=d5b0c4ed-7646-45b9-b9d3-d49c57b897b7","ios":"levelo://app?vid=d5b0c4ed-7646-45b9-b9d3-d49c57b897b7"},"vehicle_type_id":"4","last_reported":1767816813,"current_range_meters":6000,"station_id":"st_d3md5207bmas73dh9klg","pricing_plan_id":"cebpf4jnsgd1na2vs0mg"},{"bike_id":"b0bbbe5f-508e-4637-80f8-61d23ef566f3","system_id":"levelo_inurba_marseille","lat":43.29276,"lon":5.40123,"is_reserved":false,"is_disabled":false,"rental_uris":{"android":"levelo://app?vid=b0bbbe5f-508e-4637-80f8-61d23ef566f3","ios":"levelo://app?vid=b0bbbe5f-508e-4637-80f8-61d23ef566f3"},"vehicle_type_id":"4","last_reported":1767816813,"current_range_meters":6000,"station_id":"ce4bh312rcd13ifvqdk0","pricing_plan_id":"cebpf4jnsgd1na2vs0mg"},{"bike_id":"75b51085-5312-446c-aaa5-d88df9edca06","system_id":"levelo_inurba_marseille","lat":43.225322,"lon":5.34826,"is_reserved":false,"is_disabled":false,"rental_uris":{"android":"levelo://app?vid=75b51085-5312-446c-aaa5-d88df9edca06","ios":"levelo://app?vid=75b51085-5312-446c-aaa5-d88df9edca06"},"vehicle_type_id":"4","last_reported":1767816813,"current_range_meters":6000,"station_id":"st_cvj5dfep6f1abm77gieg","pricing_plan_id":"cebpf4jnsgd1na2vs0mg"},{"bike_id":"95829d7f-c87b-420d-8adf-19dc54871611","system_id":"levelo_inurba_marseille","lat":43.26676,"lon":5.38269,"is_reserved":false,"is_disabled":false,"rental_uris":{"android":"levelo://app?vid=95829d7f-c87b-420d-8adf-19dc54871611","ios":"levelo://app?vid=95829d7f-c87b-420d-8adf-19dc54871611"},"vehicle_type_id":"4","last_reported":1767816813,"current_range_meters":6000,"station_id":"ce4bhg92rcd13ifvqf90","pricing_plan_id":"cebpf4jnsgd1na2vs0mg"},{"bike_id":"4d45123f-5f25-447e-acec-cf857a9e81ba","system_id":"levelo_inurba_marseille","lat":43.29974,"lon":5.38491,"is_reserved":false,"is_disabled":false,"rental_uris":{"android":"levelo://app?vid=4d45123f-5f25-447e-acec-cf857a9e81ba","ios":"levelo://app?vid=4d45123f-5f25-447e-acec-cf857a9e81ba"},"vehicle_type_id":"4","last_reported":1767816813,"current_range_meters":6400,"station_id":"ce4bgj92rcd13ifvqbd0","pricing_plan_id":"cebpf4jnsgd1na2vs0mg"},{"bike_id":"9bd5975a-c837-41db-9824-13acf7f1109a","system_id":"levelo_inurba_marseille","lat":43.29259,"lon":5.38438,"is_reserved":false,"is_disabled":false,"rental_uris":{"android":"levelo://app?vid=9bd5975a-c837-41db-9824-13acf7f1109a","ios":"levelo://app?vid=9bd5975a-c837-41db-9824-13acf7f1109a"},"vehicle_type_id":"4","last_reported":1767816813,"current_range_meters":6400,"station_id":"ce4bh692rcd13ifvqea0","pricing_plan_id":"cebpf4jnsgd1na2vs0mg"},{"bike_id":"ee33983f-10d1-4d63-8bde-105556f6242d","system_id":"levelo_inurba_marseille","lat":43.26202,"lon":5.37937,"is_reserved":false,"is_disabled":false,"rental_uris":{"android":"levelo://app?vid=ee33983f-10d1-4d63-8bde-105556f6242d","ios":"levelo://app?vid=ee33983f-10d1-4d63-8bde-105556f6242d"},"vehicle_type_id":"4","last_reported":1767816813,"current_range_meters":6400,"station_id":"ce4bhjp2rcd13ifvqg90","pricing_plan_id":"cebpf4jnsgd1na2vs0mg"},{"bike_id":"392514f8-9a36-43a5-9b89-e2ab1d47c731","system_id":"levelo_inurba_marseille","lat":43.26892,"lon":5.40387,"is_reserved":false,"is_disabled":false,"rental_uris":{"android":"levelo://app?vid=392514f8-9a36-43a5-9b89-e2ab1d47c731","ios":"levelo://app?vid=392514f8-9a36-43a5-9b89-e2ab1d47c731"},"vehicle_type_id":"4","last_reported":1767816813,"current_range_meters":6400,"station_id":"","pricing_plan_id":"cebpf4jnsgd1na2vs0mg"},{"bike_id":"2afed3db-e2da-422b-9792-6d03f768ecc2","system_id":"levelo_inurba_marseille","lat":43.31518,"lon":5.3729,"is_reserved":false,"is_disabled":false,"rental_uris":{"android":"levelo://app?vid=2afed3db-e2da-422b-9792-6d03f768ecc2","ios":"levelo://app?vid=2afed3db-e2da-422b-9792-6d03f768ecc2"},"vehicle_type_id":"4","last_reported":1767816813,"current_range_meters":6400,"station_id":"ce4bgt12rcd13ifvqcd0","pricing_plan_id":"cebpf4jnsgd1na2vs0mg"},{"bike_id":"a61849ca-e43f-4a97-9e2c-2b423c13f0c1","system_id":"levelo_inurba_marseille","lat":43.2922,"lon":5.36084,"is_reserved":false,"is_disabled":false,"rental_uris":{"android":"levelo://app?vid=a61849ca-e43f-4a97-9e2c-2b423c13f0c1","ios":"levelo://app?vid=a61849ca-e43f-4a97-9e2c-2b423c13f0c1"},"vehicle_type_id":"4","last_reported":1767816813,"current_range_meters":6400,"station_id":"ce4bhbh2rcd13ifvqeqg","pricing_plan_id":"cebpf4jnsgd1na2vs0mg"},{"bike_id":"7fc53fa6-f85c-423c-86d5-704a6cda6137","system_id":"levelo_inurba_marseille","lat":43.31296,"lon":5.36857,"is_reserved":false,"is_disabled":false,"rental_uris":{"android":"levelo://app?vid=7fc53fa6-f85c-423c-86d5-704a6cda6137","ios":"levelo://app?vid=7fc53fa6-f85c-423c-86d5-704a6cda6137"},"vehicle_type_id":"4","last_reported":1767816813,"current_range_meters":6400,"station_id":"","pricing_plan_id":"cebpf4jnsgd1na2vs0mg"},{"bike_id":"067ca337-309a-4444-a755-1124e864d8c9","system_id":"levelo_inurba_marseille","lat":43.29535,"lon":5.39403,"is_reserved":false,"is_disabled":true,"rental_uris":{"android":"levelo://app?vid=067ca337-309a-4444-a755-1124e864d8c9","ios":"levelo://app?vid=067ca337-309a-4444-a755-1124e864d8c9"},"vehicle_type_id":"4","last_reported":1767816813,"current_range_meters":6400,"station_id":"ce4bh292rcd13ifvqdf0","pricing_plan_id":"cebpf4jnsgd1na2vs0mg"},{"bike_id":"c0c8695a-5dc1-437f-a20b-09acef88b652","system_id":"levelo_inurba_marseille","lat":43.28338,"lon":5.3507,"is_reserved":false,"is_disabled":false,"rental_uris":{"android":"levelo://app?vid=c0c8695a-5dc1-437f-a20b-09acef88b652","ios":"levelo://app?vid=c0c8695a-5dc1-437f-a20b-09acef88b652"},"vehicle_type_id":"4","last_reported":1767816813,"current_range_meters":6400,"station_id":"","pricing_plan_id":"cebpf4jnsgd1na2vs0mg"},{"bike_id":"d95819d9-1d4e-4a81-9573-ae0f5fff0802","system_id":"levelo_inurba_marseille","lat":43.2952,"lon":5.39045,"is_reserved":false,"is_disabled":false,"rental_uris":{"android":"levelo://app?vid=d95819d9-1d4e-4a81-9573-ae0f5fff0802","ios":"levelo://app?vid=d95819d9-1d4e-4a81-9573-ae0f5fff0802"},"vehicle_type_id":"4","last_reported":1767816813,"current_range_meters":6400,"station_id":"ce4bh3p2rcd13ifvqdp0","pricing_plan_id":"cebpf4jnsgd1na2vs0mg"},{"bike_id":"01e217d4-4a78-411d-b261-0450ec086ca2","system_id":"levelo_inurba_marseille","lat":43.29002,"lon":5.38628,"is_reserved":false,"is_disabled":false,"rental_uris":{"android":"levelo://app?vid=01e217d4-4a78-411d-b261-0450ec086ca2","ios":"levelo://app?vid=01e217d4-4a78-411d-b261-0450ec086ca2"},"vehicle_type_id":"4","last_reported":1767816813,"current_range_meters":6400,"station_id":"ce4bh4p2rcd13ifvqe0g","pricing_plan_id":"cebpf4jnsgd1na2vs0mg"},{"bike_id":"44fa942a-7f3c-4db8-b498-e46e05b08cc0","system_id":"levelo_inurba_marseille","lat":43.26447,"lon":5.39551,"is_reserved":false,"is_disabled":false,"rental_uris":{"android":"levelo://app?vid=44fa942a-7f3c-4db8-b498-e46e05b08cc0","ios":"levelo://app?vid=44fa942a-7f3c-4db8-b498-e46e05b08cc0"},"vehicle_type_id":"4","last_reported":1767816813,"current_range_meters":6400,"station_id":"","pricing_plan_id":"cebpf4jnsgd1na2vs0mg"},{"bike_id":"273d98d8-16ff-4b69-861b-0aa1773f3e40","system_id":"levelo_inurba_marseille","lat":43.31718,"lon":5.40463,"is_reserved":false,"is_disabled":true,"rental_uris":{"android":"levelo://app?vid=273d98d8-16ff-4b69-861b-0aa1773f3e40","ios":"levelo://app?vid=273d98d8-16ff-4b69-861b-0aa1773f3e40"},"vehicle_type_id":"4","last_reported":1767816813,"current_range_meters":6400,"station_id":"ce4bh012rcd13ifvqd00","pricing_plan_id":"cebpf4jnsgd1na2vs0mg"},{"bike_id":"e2de6e33-136a-4b50-9bee-761873cb6ead","system_id":"levelo_inurba_marseille","lat":43.26077,"lon":5.39378,"is_reserved":false,"is_disabled":false,"rental_uris":{"android":"levelo://app?vid=e2de6e33-136a-4b50-9bee-761873cb6ead","ios":"levelo://app?vid=e2de6e33-136a-4b50-9bee-761873cb6ead"},"vehicle_type_id":"4","last_reported":1767816813,"current_range_meters":6400,"station_id":"ce4bhh92rcd13ifvqfj0","pricing_plan_id":"cebpf4jnsgd1na2vs0mg"},{"bike_id":"040cd3ab-76c3-4c54-9dbc-7cc55dc94be2","system_id":"levelo_inurba_marseille","lat":43.27375,"lon":5.36257,"is_reserved":false,"is_disabled":false,"rental_uris":{"android":"levelo://app?vid=040cd3ab-76c3-4c54-9dbc-7cc55dc94be2","ios":"levelo://app?vid=040cd3ab-76c3-4c54-9dbc-7cc55dc94be2"},"vehicle_type_id":"4","last_reported":1767816813,"current_range_meters":6400,"station_id":"ce4bhbh2rcd13ifvqeo0","pricing_plan_id":"cebpf4jnsgd1na2vs0mg"},{"bike_id":"335b914c-84ab-4a8b-bfbe-30c076718aeb","system_id":"levelo_inurba_marseille","lat":43.29535,"lon":5.38535,"is_reserved":false,"is_disabled":false,"rental_uris":{"android":"levelo://app?vid=335b914c-84ab-4a8b-bfbe-30c076718aeb","ios":"levelo://app?vid=335b914c-84ab-4a8b-bfbe-30c076718aeb"},"vehicle_type_id":"4","last_reported":1767816813,"current_range_meters":6400,"station_id":"ce4bgih2rcd13ifvqba0","pricing_plan_id":"cebpf4jnsgd1na2vs0mg"},{"bike_id":"44833d54-0e08-4546-b788-0c7150b05378","system_id":"levelo_inurba_marseille","lat":43.28484,"lon":5.48394,"is_reserved":false,"is_disabled":false,"rental_uris":{"android":"levelo://app?vid=44833d54-0e08-4546-b788-0c7150b05378","ios":"levelo://app?vid=44833d54-0e08-4546-b788-0c7150b05378"},"vehicle_type_id":"4","last_reported":1767816813,"current_range_meters":6400,"station_id":"st_d3svhcjqgbts73a3dn0g","pricing_plan_id":"cebpf4jnsgd1na2vs0mg"},{"bike_id":"951ee782-c7ed-4f20-95b8-950bda637ad0","system_id":"levelo_inurba_marseille","lat":43.306416,"lon":5.401037,"is_reserved":false,"is_disabled":false,"rental_uris":{"android":"levelo://app?vid=951ee782-c7ed-4f20-95b8-950bda637ad0","ios":"levelo://app?vid=951ee782-c7ed-4f20-95b8-950bda637ad0"},"vehicle_type_id":"4","last_reported":1767816813,"current_range_meters":6400,"station_id":"ce4bh112rcd13ifvqda0","pricing_plan_id":"cebpf4jnsgd1na2vs0mg"},{"bike_id":"96684b44-3ce9-48d2-9b6b-46a49229c28a","system_id":"levelo_inurba_marseille","lat":43.29447,"lon":5.39734,"is_reserved":false,"is_disabled":false,"rental_uris":{"android":"levelo://app?vid=96684b44-3ce9-48d2-9b6b-46a49229c28a","ios":"levelo://app?vid=96684b44-3ce9-48d2-9b6b-46a49229c28a"},"vehicle_type_id":"4","last_reported":1767816813,"current_range_meters":6400,"station_id":"ce4bh3h2rcd13ifvqdo0","pricing_plan_id":"cebpf4jnsgd1na2vs0mg"},{"bike_id":"7e682e36-b1ae-4a20-ac09-db20276ca875","system_id":"levelo_inurba_marseille","lat":43.28401,"lon":5.37508,"is_reserved":false,"is_disabled":false,"rental_uris":{"android":"levelo://app?vid=7e682e36-b1ae-4a20-ac09-db20276ca875","ios":"levelo://app?vid=7e682e36-b1ae-4a20-ac09-db20276ca875"},"vehicle_type_id":"4","last_reported":1767816813,"current_range_meters":6400,"station_id":"ce4bh412rcd13ifvqds0","pricing_plan_id":"cebpf4jnsgd1na2vs0mg"},{"bike_id":"8f9c263f-7889-4a85-9933-e07749969bb3","system_id":"levelo_inurba_marseille","lat":43.25552,"lon":5.38249,"is_reserved":false,"is_disabled":false,"rental_uris":{"android":"levelo://app?vid=8f9c263f-7889-4a85-9933-e07749969bb3","ios":"levelo://app?vid=8f9c263f-7889-4a85-9933-e07749969bb3"},"vehicle_type_id":"4","last_reported":1767816813,"current_range_meters":6400,"station_id":"ce4bhih2rcd13ifvqfs0","pricing_plan_id":"cebpf4jnsgd1na2vs0mg"},{"bike_id":"222badfd-5695-4c5f-8b12-a4274837eb6d","system_id":"levelo_inurba_marseille","lat":43.26226,"lon":5.40446,"is_reserved":false,"is_disabled":false,"rental_uris":{"android":"levelo://app?vid=222badfd-5695-4c5f-8b12-a4274837eb6d","ios":"levelo://app?vid=222badfd-5695-4c5f-8b12-a4274837eb6d"},"vehicle_type_id":"4","last_reported":1767816813,"current_range_meters":6400,"station_id":"ce4bhmh2rcd13ifvqgmg","pricing_plan_id":"cebpf4jnsgd1na2vs0mg"},{"bike_id":"73dda2c2-11be-4c65-80ea-b3fc180016d0","system_id":"levelo_inurba_marseille","lat":43.29522,"lon":5.39034,"is_reserved":false,"is_disabled":false,"rental_uris":{"android":"levelo://app?vid=73dda2c2-11be-4c65-80ea-b3fc180016d0","ios":"levelo://app?vid=73dda2c2-11be-4c65-80ea-b3fc180016d0"},"vehicle_type_id":"4","last_reported":1767816813,"current_range_meters":6400,"station_id":"ce4bh3p2rcd13ifvqdp0","pricing_plan_id":"cebpf4jnsgd1na2vs0mg"},{"bike_id":"98249e23-d727-42e2-bc64-1013f35aedc9","system_id":"levelo_inurba_marseille","lat":43.23074,"lon":5.35481,"is_reserved":false,"is_disabled":false,"rental_uris":{"android":"levelo://app?vid=98249e23-d727-42e2-bc64-1013f35aedc9","ios":"levelo://app?vid=98249e23-d727-42e2-bc64-1013f35aedc9"},"vehicle_type_id":"4","last_reported":1767816813,"current_range_meters":6800,"station_id":"cpo3342slgdg3j2ifvpg","pricing_plan_id":"cebpf4jnsgd1na2vs0mg"},{"bike_id":"3f01a066-4e5f-48ef-86cf-799ad22b3248","system_id":"levelo_inurba_marseille","lat":43.29292,"lon":5.37159,"is_reserved":false,"is_disabled":false,"rental_uris":{"android":"levelo://app?vid=3f01a066-4e5f-48ef-86cf-799ad22b3248","ios":"levelo://app?vid=3f01a066-4e5f-48ef-86cf-799ad22b3248"},"vehicle_type_id":"4","last_reported":1767816813,"current_range_meters":6800,"station_id":"ce4bgh92rcd13ifvqb40","pricing_plan_id":"cebpf4jnsgd1na2vs0mg"},{"bike_id":"d293f938-06f4-47c6-ae6d-906beae764af","system_id":"levelo_inurba_marseille","lat":43.27973,"lon":5.40037,"is_reserved":false,"is_disabled":false,"rental_uris":{"android":"levelo://app?vid=d293f938-06f4-47c6-ae6d-906beae764af","ios":"levelo://app?vid=d293f938-06f4-47c6-ae6d-906beae764af"},"vehicle_type_id":"4","last_reported":1767816813,"current_range_meters":6800,"station_id":"ce4bho92rcd13ifvqh4g","pricing_plan_id":"cebpf4jnsgd1na2vs0mg"},{"bike_id":"0622f7c5-ee76-4fc8-a5df-57e2aa3c0085","system_id":"levelo_inurba_marseille","lat":43.29937,"lon":5.38064,"is_reserved":false,"is_disabled":false,"rental_uris":{"android":"levelo://app?vid=0622f7c5-ee76-4fc8-a5df-57e2aa3c0085","ios":"levelo://app?vid=0622f7c5-ee76-4fc8-a5df-57e2aa3c0085"},"vehicle_type_id":"4","last_reported":1767816813,"current_range_meters":6800,"station_id":"","pricing_plan_id":"cebpf4jnsgd1na2vs0mg"},{"bike_id":"49df9f58-4c6c-4a14-9c6c-a28e71f289d1","system_id":"levelo_inurba_marseille","lat":43.302165,"lon":5.39475,"is_reserved":false,"is_disabled":false,"rental_uris":{"android":"levelo://app?vid=49df9f58-4c6c-4a14-9c6c-a28e71f289d1","ios":"levelo://app?vid=49df9f58-4c6c-4a14-9c6c-a28e71f289d1"},"vehicle_type_id":"4","last_reported":1767816813,"current_range_meters":6800,"station_id":"ce4bh0p2rcd13ifvqd70","pricing_plan_id":"cebpf4jnsgd1na2vs0mg"},{"bike_id":"cac01b30-713d-4bdb-8209-ca4dc73c77ea","system_id":"levelo_inurba_marseille","lat":43.28726,"lon":5.36089,"is_reserved":false,"is_disabled":false,"rental_uris":{"android":"levelo://app?vid=cac01b30-713d-4bdb-8209-ca4dc73c77ea","ios":"levelo://app?vid=cac01b30-713d-4bdb-8209-ca4dc73c77ea"},"vehicle_type_id":"4","last_reported":1767816813,"current_range_meters":6800,"station_id":"cki0cbj6b192h4jlfktg","pricing_plan_id":"cebpf4jnsgd1na2vs0mg"},{"bike_id":"3cab5084-314a-4ac7-8e10-1255d6e07f7a","system_id":"levelo_inurba_marseille","lat":43.29777,"lon":5.37112,"is_reserved":false,"is_disabled":true,"rental_uris":{"android":"levelo://app?vid=3cab5084-314a-4ac7-8e10-1255d6e07f7a","ios":"levelo://app?vid=3cab5084-314a-4ac7-8e10-1255d6e07f7a"},"vehicle_type_id":"4","last_reported":1767816813,"current_range_meters":6800,"station_id":"ce4bgop2rcd13ifvqc1g","pricing_plan_id":"cebpf4jnsgd1na2vs0mg"},{"bike_id":"7868515c-ba83-4b34-b309-0bc716b745b7","system_id":"levelo_inurba_marseille","lat":43.28433,"lon":5.39194,"is_reserved":false,"is_disabled":false,"rental_uris":{"android":"levelo://app?vid=7868515c-ba83-4b34-b309-0bc716b745b7","ios":"levelo://app?vid=7868515c-ba83-4b34-b309-0bc716b745b7"},"vehicle_type_id":"4","last_reported":1767816813,"current_range_meters":6800,"station_id":"ce4bhoh2rcd13ifvqh5g","pricing_plan_id":"cebpf4jnsgd1na2vs0mg"},{"bike_id":"772bf3b5-2fb2-4abd-a529-fdf3012df8cc","system_id":"levelo_inurba_marseille","lat":43.25191,"lon":5.40595,"is_reserved":false,"is_disabled":false,"rental_uris":{"android":"levelo://app?vid=772bf3b5-2fb2-4abd-a529-fdf3012df8cc","ios":"levelo://app?vid=772bf3b5-2fb2-4abd-a529-fdf3012df8cc"},"vehicle_type_id":"4","last_reported":1767816813,"current_range_meters":6800,"station_id":"","pricing_plan_id":"cebpf4jnsgd1na2vs0mg"},{"bike_id":"f323eec5-f654-4bdf-8118-8c8db52565b4","system_id":"levelo_inurba_marseille","lat":43.28494,"lon":5.38635,"is_reserved":false,"is_disabled":false,"rental_uris":{"android":"levelo://app?vid=f323eec5-f654-4bdf-8118-8c8db52565b4","ios":"levelo://app?vid=f323eec5-f654-4bdf-8118-8c8db52565b4"},"vehicle_type_id":"4","last_reported":1767816813,"current_range_meters":6800,"station_id":"","pricing_plan_id":"cebpf4jnsgd1na2vs0mg"},{"bike_id":"01d8e2c9-d4ce-48e6-afef-8bf3104cf069","system_id":"levelo_inurba_marseille","lat":43.27191,"lon":5.40986,"is_reserved":false,"is_disabled":false,"rental_uris":{"android":"levelo://app?vid=01d8e2c9-d4ce-48e6-afef-8bf3104cf069","ios":"levelo://app?vid=01d8e2c9-d4ce-48e6-afef-8bf3104cf069"},"vehicle_type_id":"4","last_reported":1767816813,"current_range_meters":6800,"station_id":"ce4bhl12rcd13ifvqgf0","pricing_plan_id":"cebpf4jnsgd1na2vs0mg"},{"bike_id":"4db89cd4-c5c0-4b0d-9bc8-e5c1ff64bca0","system_id":"levelo_inurba_marseille","lat":43.29638,"lon":5.38115,"is_reserved":false,"is_disabled":false,"rental_uris":{"android":"levelo://app?vid=4db89cd4-c5c0-4b0d-9bc8-e5c1ff64bca0","ios":"levelo://app?vid=4db89cd4-c5c0-4b0d-9bc8-e5c1ff64bca0"},"vehicle_type_id":"4","last_reported":1767816813,"current_range_meters":6800,"station_id":"ce4bgl12rcd13ifvqbo0","pricing_plan_id":"cebpf4jnsgd1na2vs0mg"},{"bike_id":"8e9cd320-222e-4849-8f3f-db8fcd5c5954","system_id":"levelo_inurba_marseille","lat":43.31815,"lon":5.36865,"is_reserved":false,"is_disabled":false,"rental_uris":{"android":"levelo://app?vid=8e9cd320-222e-4849-8f3f-db8fcd5c5954","ios":"levelo://app?vid=8e9cd320-222e-4849-8f3f-db8fcd5c5954"},"vehicle_type_id":"4","last_reported":1767816813,"current_range_meters":6800,"station_id":"","pricing_plan_id":"cebpf4jnsgd1na2vs0mg"},{"bike_id":"644d5159-4131-4f14-9933-af5212ad9b6c","system_id":"levelo_inurba_marseille","lat":43.29199,"lon":5.39321,"is_reserved":false,"is_disabled":false,"rental_uris":{"android":"levelo://app?vid=644d5159-4131-4f14-9933-af5212ad9b6c","ios":"levelo://app?vid=644d5159-4131-4f14-9933-af5212ad9b6c"},"vehicle_type_id":"4","last_reported":1767816813,"current_range_meters":6800,"station_id":"ce4bh192rcd13ifvqdd0","pricing_plan_id":"cebpf4jnsgd1na2vs0mg"},{"bike_id":"c6201bd7-9117-4de4-ae73-43de7c8199c0","system_id":"levelo_inurba_marseille","lat":43.27913,"lon":5.39575,"is_reserved":false,"is_disabled":false,"rental_uris":{"android":"levelo://app?vid=c6201bd7-9117-4de4-ae73-43de7c8199c0","ios":"levelo://app?vid=c6201bd7-9117-4de4-ae73-43de7c8199c0"},"vehicle_type_id":"4","last_reported":1767816813,"current_range_meters":6800,"station_id":"ce4bhf92rcd13ifvqf40","pricing_plan_id":"cebpf4jnsgd1na2vs0mg"},{"bike_id":"a7e8b4f8-15c7-4593-b8a1-1dc1d30ad189","system_id":"levelo_inurba_marseille","lat":43.32053,"lon":5.38408,"is_reserved":false,"is_disabled":false,"rental_uris":{"android":"levelo://app?vid=a7e8b4f8-15c7-4593-b8a1-1dc1d30ad189","ios":"levelo://app?vid=a7e8b4f8-15c7-4593-b8a1-1dc1d30ad189"},"vehicle_type_id":"4","last_reported":1767816813,"current_range_meters":6800,"station_id":"","pricing_plan_id":"cebpf4jnsgd1na2vs0mg"},{"bike_id":"ce52b8f8-9066-45a8-8b05-34bc7d40a28f","system_id":"levelo_inurba_marseille","lat":43.28407,"lon":5.34994,"is_reserved":false,"is_disabled":false,"rental_uris":{"android":"levelo://app?vid=ce52b8f8-9066-45a8-8b05-34bc7d40a28f","ios":"levelo://app?vid=ce52b8f8-9066-45a8-8b05-34bc7d40a28f"},"vehicle_type_id":"4","last_reported":1767816813,"current_range_meters":6800,"station_id":"ce4bhbh2rcd13ifvqepg","pricing_plan_id":"cebpf4jnsgd1na2vs0mg"},{"bike_id":"116d5bcc-aa6a-45f6-8be4-b586d88a5403","system_id":"levelo_inurba_marseille","lat":43.29541,"lon":5.40116,"is_reserved":false,"is_disabled":false,"rental_uris":{"android":"levelo://app?vid=116d5bcc-aa6a-45f6-8be4-b586d88a5403","ios":"levelo://app?vid=116d5bcc-aa6a-45f6-8be4-b586d88a5403"},"vehicle_type_id":"4","last_reported":1767816813,"current_range_meters":6800,"station_id":"ce4bh312rcd13ifvqdj0","pricing_plan_id":"cebpf4jnsgd1na2vs0mg"},{"bike_id":"de71c003-cb0a-458b-a1e3-3a8adfbdf971","system_id":"levelo_inurba_marseille","lat":43.30877,"lon":5.39648,"is_reserved":false,"is_disabled":false,"rental_uris":{"android":"levelo://app?vid=de71c003-cb0a-458b-a1e3-3a8adfbdf971","ios":"levelo://app?vid=de71c003-cb0a-458b-a1e3-3a8adfbdf971"},"vehicle_type_id":"4","last_reported":1767816813,"current_range_meters":6800,"station_id":"ce4bh012rcd13ifvqcv0","pricing_plan_id":"cebpf4jnsgd1na2vs0mg"},{"bike_id":"80218f40-fe36-41e7-a9ea-0e24ebe75ec7","system_id":"levelo_inurba_marseille","lat":43.32047,"lon":5.41536,"is_reserved":false,"is_disabled":false,"rental_uris":{"android":"levelo://app?vid=80218f40-fe36-41e7-a9ea-0e24ebe75ec7","ios":"levelo://app?vid=80218f40-fe36-41e7-a9ea-0e24ebe75ec7"},"vehicle_type_id":"4","last_reported":1767816813,"current_range_meters":6800,"station_id":"ce4bhq92rcd13ifvqhkg","pricing_plan_id":"cebpf4jnsgd1na2vs0mg"},{"bike_id":"6b554f2a-7261-48c6-bc8a-c28d020383d3","system_id":"levelo_inurba_marseille","lat":43.28034,"lon":5.36959,"is_reserved":false,"is_disabled":false,"rental_uris":{"android":"levelo://app?vid=6b554f2a-7261-48c6-bc8a-c28d020383d3","ios":"levelo://app?vid=6b554f2a-7261-48c6-bc8a-c28d020383d3"},"vehicle_type_id":"4","last_reported":1767816813,"current_range_meters":6800,"station_id":"ce4bha12rcd13ifvqef0","pricing_plan_id":"cebpf4jnsgd1na2vs0mg"},{"bike_id":"34d538fd-0ff5-4f1e-848b-d4d494737a31","system_id":"levelo_inurba_marseille","lat":43.30782,"lon":5.37646,"is_reserved":false,"is_disabled":false,"rental_uris":{"android":"levelo://app?vid=34d538fd-0ff5-4f1e-848b-d4d494737a31","ios":"levelo://app?vid=34d538fd-0ff5-4f1e-848b-d4d494737a31"},"vehicle_type_id":"4","last_reported":1767816813,"current_range_meters":6800,"station_id":"ce4bgv92rcd13ifvqcq0","pricing_plan_id":"cebpf4jnsgd1na2vs0mg"},{"bike_id":"77d67727-9246-4472-ac19-fd0f571f469b","system_id":"levelo_inurba_marseille","lat":43.30605,"lon":5.37231,"is_reserved":false,"is_disabled":false,"rental_uris":{"android":"levelo://app?vid=77d67727-9246-4472-ac19-fd0f571f469b","ios":"levelo://app?vid=77d67727-9246-4472-ac19-fd0f571f469b"},"vehicle_type_id":"4","last_reported":1767816813,"current_range_meters":6800,"station_id":"ce4bgqh2rcd13ifvqc4g","pricing_plan_id":"cebpf4jnsgd1na2vs0mg"},{"bike_id":"67d11be0-e6fc-45cf-9510-ea8c0226d011","system_id":"levelo_inurba_marseille","lat":43.29803,"lon":5.44055,"is_reserved":false,"is_disabled":true,"rental_uris":{"android":"levelo://app?vid=67d11be0-e6fc-45cf-9510-ea8c0226d011","ios":"levelo://app?vid=67d11be0-e6fc-45cf-9510-ea8c0226d011"},"vehicle_type_id":"4","last_reported":1767816813,"current_range_meters":6800,"station_id":"st_d3jp68qikq2c7381ktn0","pricing_plan_id":"cebpf4jnsgd1na2vs0mg"},{"bike_id":"b00383ad-d71a-4afc-ba0a-4fa1192442ed","system_id":"levelo_inurba_marseille","lat":43.302524,"lon":5.395827,"is_reserved":false,"is_disabled":false,"rental_uris":{"android":"levelo://app?vid=b00383ad-d71a-4afc-ba0a-4fa1192442ed","ios":"levelo://app?vid=b00383ad-d71a-4afc-ba0a-4fa1192442ed"},"vehicle_type_id":"4","last_reported":1767816813,"current_range_meters":7200,"station_id":"ce4bgup2rcd13ifvqco0","pricing_plan_id":"cebpf4jnsgd1na2vs0mg"},{"bike_id":"f9694d4b-6e2f-4fc5-ae06-59dad6b1ea4d","system_id":"levelo_inurba_marseille","lat":43.25029,"lon":5.37549,"is_reserved":false,"is_disabled":false,"rental_uris":{"android":"levelo://app?vid=f9694d4b-6e2f-4fc5-ae06-59dad6b1ea4d","ios":"levelo://app?vid=f9694d4b-6e2f-4fc5-ae06-59dad6b1ea4d"},"vehicle_type_id":"4","last_reported":1767816813,"current_range_meters":7200,"station_id":"","pricing_plan_id":"cebpf4jnsgd1na2vs0mg"},{"bike_id":"e7a82f92-7dc3-4f3b-8551-7ca3bceb4742","system_id":"levelo_inurba_marseille","lat":43.27924,"lon":5.39591,"is_reserved":false,"is_disabled":false,"rental_uris":{"android":"levelo://app?vid=e7a82f92-7dc3-4f3b-8551-7ca3bceb4742","ios":"levelo://app?vid=e7a82f92-7dc3-4f3b-8551-7ca3bceb4742"},"vehicle_type_id":"4","last_reported":1767816813,"current_range_meters":7200,"station_id":"ce4bhf92rcd13ifvqf40","pricing_plan_id":"cebpf4jnsgd1na2vs0mg"},{"bike_id":"e90f7184-cd39-4bc0-805c-9ce2c7183400","system_id":"levelo_inurba_marseille","lat":43.26212,"lon":5.37927,"is_reserved":false,"is_disabled":false,"rental_uris":{"android":"levelo://app?vid=e90f7184-cd39-4bc0-805c-9ce2c7183400","ios":"levelo://app?vid=e90f7184-cd39-4bc0-805c-9ce2c7183400"},"vehicle_type_id":"4","last_reported":1767816813,"current_range_meters":7200,"station_id":"ce4bhjp2rcd13ifvqg90","pricing_plan_id":"cebpf4jnsgd1na2vs0mg"},{"bike_id":"6780348f-fb93-4884-95fc-676ab6258ce9","system_id":"levelo_inurba_marseille","lat":43.2708,"lon":5.3829,"is_reserved":false,"is_disabled":true,"rental_uris":{"android":"levelo://app?vid=6780348f-fb93-4884-95fc-676ab6258ce9","ios":"levelo://app?vid=6780348f-fb93-4884-95fc-676ab6258ce9"},"vehicle_type_id":"4","last_reported":1767816813,"current_range_meters":7200,"station_id":"st_d3n2fo6cfp8s73cte1j0","pricing_plan_id":"cebpf4jnsgd1na2vs0mg"},{"bike_id":"efe00a8e-bf76-4e31-9b54-84df247df8c3","system_id":"levelo_inurba_marseille","lat":43.29516,"lon":5.39394,"is_reserved":false,"is_disabled":false,"rental_uris":{"android":"levelo://app?vid=efe00a8e-bf76-4e31-9b54-84df247df8c3","ios":"levelo://app?vid=efe00a8e-bf76-4e31-9b54-84df247df8c3"},"vehicle_type_id":"4","last_reported":1767816813,"current_range_meters":7200,"station_id":"ce4bh292rcd13ifvqdf0","pricing_plan_id":"cebpf4jnsgd1na2vs0mg"},{"bike_id":"6a1a4864-d604-465c-a7f6-05f1bb288403","system_id":"levelo_inurba_marseille","lat":43.3074,"lon":5.42432,"is_reserved":false,"is_disabled":false,"rental_uris":{"android":"levelo://app?vid=6a1a4864-d604-465c-a7f6-05f1bb288403","ios":"levelo://app?vid=6a1a4864-d604-465c-a7f6-05f1bb288403"},"vehicle_type_id":"4","last_reported":1767816813,"current_range_meters":7200,"station_id":"st_cvj6ca6bvosntc0bfgr0","pricing_plan_id":"cebpf4jnsgd1na2vs0mg"},{"bike_id":"185254ea-1253-498c-8aeb-b5b6446d9836","system_id":"levelo_inurba_marseille","lat":43.26557,"lon":5.39005,"is_reserved":false,"is_disabled":false,"rental_uris":{"android":"levelo://app?vid=185254ea-1253-498c-8aeb-b5b6446d9836","ios":"levelo://app?vid=185254ea-1253-498c-8aeb-b5b6446d9836"},"vehicle_type_id":"4","last_reported":1767816813,"current_range_meters":7200,"station_id":"ce4bhe12rcd13ifvqf30","pricing_plan_id":"cebpf4jnsgd1na2vs0mg"},{"bike_id":"796165dd-6233-4b3e-bc69-5c2707fdcdd0","system_id":"levelo_inurba_marseille","lat":43.25513,"lon":5.37658,"is_reserved":false,"is_disabled":false,"rental_uris":{"android":"levelo://app?vid=796165dd-6233-4b3e-bc69-5c2707fdcdd0","ios":"levelo://app?vid=796165dd-6233-4b3e-bc69-5c2707fdcdd0"},"vehicle_type_id":"4","last_reported":1767816813,"current_range_meters":7200,"station_id":"ce4bhh12rcd13ifvqff0","pricing_plan_id":"cebpf4jnsgd1na2vs0mg"},{"bike_id":"7b5412a2-2186-4207-b205-a81266644728","system_id":"levelo_inurba_marseille","lat":43.291931,"lon":5.393197,"is_reserved":false,"is_disabled":false,"rental_uris":{"android":"levelo://app?vid=7b5412a2-2186-4207-b205-a81266644728","ios":"levelo://app?vid=7b5412a2-2186-4207-b205-a81266644728"},"vehicle_type_id":"4","last_reported":1767816813,"current_range_meters":7200,"station_id":"ce4bh192rcd13ifvqdd0","pricing_plan_id":"cebpf4jnsgd1na2vs0mg"},{"bike_id":"31366011-4d9e-4c82-80ab-47291dcd4297","system_id":"levelo_inurba_marseille","lat":43.29002,"lon":5.35614,"is_reserved":false,"is_disabled":false,"rental_uris":{"android":"levelo://app?vid=31366011-4d9e-4c82-80ab-47291dcd4297","ios":"levelo://app?vid=31366011-4d9e-4c82-80ab-47291dcd4297"},"vehicle_type_id":"4","last_reported":1767816813,"current_range_meters":7200,"station_id":"ce4bhb92rcd13ifvqen0","pricing_plan_id":"cebpf4jnsgd1na2vs0mg"},{"bike_id":"cba16d29-c712-4a5c-bd28-a57ba5f396fd","system_id":"levelo_inurba_marseille","lat":43.29529,"lon":5.3903,"is_reserved":false,"is_disabled":false,"rental_uris":{"android":"levelo://app?vid=cba16d29-c712-4a5c-bd28-a57ba5f396fd","ios":"levelo://app?vid=cba16d29-c712-4a5c-bd28-a57ba5f396fd"},"vehicle_type_id":"4","last_reported":1767816813,"current_range_meters":7200,"station_id":"ce4bh3p2rcd13ifvqdp0","pricing_plan_id":"cebpf4jnsgd1na2vs0mg"},{"bike_id":"1ec94ba1-41d1-4288-80e5-6a131d1cb21d","system_id":"levelo_inurba_marseille","lat":43.25529,"lon":5.42001,"is_reserved":false,"is_disabled":false,"rental_uris":{"android":"levelo://app?vid=1ec94ba1-41d1-4288-80e5-6a131d1cb21d","ios":"levelo://app?vid=1ec94ba1-41d1-4288-80e5-6a131d1cb21d"},"vehicle_type_id":"4","last_reported":1767816813,"current_range_meters":7200,"station_id":"","pricing_plan_id":"cebpf4jnsgd1na2vs0mg"},{"bike_id":"eae761f2-f1a7-4631-8e16-2a20f2149437","system_id":"levelo_inurba_marseille","lat":43.26562,"lon":5.39004,"is_reserved":false,"is_disabled":true,"rental_uris":{"android":"levelo://app?vid=eae761f2-f1a7-4631-8e16-2a20f2149437","ios":"levelo://app?vid=eae761f2-f1a7-4631-8e16-2a20f2149437"},"vehicle_type_id":"4","last_reported":1767816813,"current_range_meters":7200,"station_id":"ce4bhe12rcd13ifvqf30","pricing_plan_id":"cebpf4jnsgd1na2vs0mg"},{"bike_id":"d75a90cd-5dce-4bdd-84ef-6b9526859b57","system_id":"levelo_inurba_marseille","lat":43.32484,"lon":5.38291,"is_reserved":false,"is_disabled":false,"rental_uris":{"android":"levelo://app?vid=d75a90cd-5dce-4bdd-84ef-6b9526859b57","ios":"levelo://app?vid=d75a90cd-5dce-4bdd-84ef-6b9526859b57"},"vehicle_type_id":"4","last_reported":1767816813,"current_range_meters":7200,"station_id":"st_d4asgbiv49dc73anf9m0","pricing_plan_id":"cebpf4jnsgd1na2vs0mg"},{"bike_id":"625134bb-b07c-49f2-ac92-9cc97b1d472d","system_id":"levelo_inurba_marseille","lat":43.31181,"lon":5.38722,"is_reserved":false,"is_disabled":false,"rental_uris":{"android":"levelo://app?vid=625134bb-b07c-49f2-ac92-9cc97b1d472d","ios":"levelo://app?vid=625134bb-b07c-49f2-ac92-9cc97b1d472d"},"vehicle_type_id":"4","last_reported":1767816813,"current_range_meters":7200,"station_id":"ce4bgv12rcd13ifvqcp0","pricing_plan_id":"cebpf4jnsgd1na2vs0mg"},{"bike_id":"f059b61f-2955-4212-a201-090e4778e418","system_id":"levelo_inurba_marseille","lat":43.27074,"lon":5.38601,"is_reserved":false,"is_disabled":false,"rental_uris":{"android":"levelo://app?vid=f059b61f-2955-4212-a201-090e4778e418","ios":"levelo://app?vid=f059b61f-2955-4212-a201-090e4778e418"},"vehicle_type_id":"4","last_reported":1767816813,"current_range_meters":7200,"station_id":"","pricing_plan_id":"cebpf4jnsgd1na2vs0mg"},{"bike_id":"c7f7dfd0-5672-413e-8412-d67f609fd8d7","system_id":"levelo_inurba_marseille","lat":43.29031,"lon":5.39951,"is_reserved":false,"is_disabled":false,"rental_uris":{"android":"levelo://app?vid=c7f7dfd0-5672-413e-8412-d67f609fd8d7","ios":"levelo://app?vid=c7f7dfd0-5672-413e-8412-d67f609fd8d7"},"vehicle_type_id":"4","last_reported":1767816813,"current_range_meters":7200,"station_id":"ce4bh392rcd13ifvqdm0","pricing_plan_id":"cebpf4jnsgd1na2vs0mg"},{"bike_id":"d0d67774-3af3-4c86-b7b6-8109c321647b","system_id":"levelo_inurba_marseille","lat":43.22949,"lon":5.35375,"is_reserved":false,"is_disabled":false,"rental_uris":{"android":"levelo://app?vid=d0d67774-3af3-4c86-b7b6-8109c321647b","ios":"levelo://app?vid=d0d67774-3af3-4c86-b7b6-8109c321647b"},"vehicle_type_id":"4","last_reported":1767816813,"current_range_meters":7200,"station_id":"cpo3532slgdg3j2ikp40","pricing_plan_id":"cebpf4jnsgd1na2vs0mg"},{"bike_id":"fad1735a-a900-4dbc-a04c-0533706c1e2f","system_id":"levelo_inurba_marseille","lat":43.28701,"lon":5.37389,"is_reserved":false,"is_disabled":false,"rental_uris":{"android":"levelo://app?vid=fad1735a-a900-4dbc-a04c-0533706c1e2f","ios":"levelo://app?vid=fad1735a-a900-4dbc-a04c-0533706c1e2f"},"vehicle_type_id":"4","last_reported":1767816813,"current_range_meters":7200,"station_id":"ce4bh3p2rcd13ifvqdq0","pricing_plan_id":"cebpf4jnsgd1na2vs0mg"},{"bike_id":"0c5ab6cc-e181-4dc4-811b-aff9e600ef1c","system_id":"levelo_inurba_marseille","lat":43.25716,"lon":5.4112,"is_reserved":false,"is_disabled":false,"rental_uris":{"android":"levelo://app?vid=0c5ab6cc-e181-4dc4-811b-aff9e600ef1c","ios":"levelo://app?vid=0c5ab6cc-e181-4dc4-811b-aff9e600ef1c"},"vehicle_type_id":"4","last_reported":1767816813,"current_range_meters":7200,"station_id":"ce4bhkp2rcd13ifvqgd0","pricing_plan_id":"cebpf4jnsgd1na2vs0mg"},{"bike_id":"8f1b1b83-76d6-4056-ae8c-9fbdd87499a4","system_id":"levelo_inurba_marseille","lat":43.30729,"lon":5.42443,"is_reserved":false,"is_disabled":false,"rental_uris":{"android":"levelo://app?vid=8f1b1b83-76d6-4056-ae8c-9fbdd87499a4","ios":"levelo://app?vid=8f1b1b83-76d6-4056-ae8c-9fbdd87499a4"},"vehicle_type_id":"4","last_reported":1767816813,"current_range_meters":7200,"station_id":"st_cvj6ca6bvosntc0bfgr0","pricing_plan_id":"cebpf4jnsgd1na2vs0mg"},{"bike_id":"7bed6c7f-598e-48e9-bae3-214e5eee84f3","system_id":"levelo_inurba_marseille","lat":43.24482,"lon":5.42546,"is_reserved":false,"is_disabled":false,"rental_uris":{"android":"levelo://app?vid=7bed6c7f-598e-48e9-bae3-214e5eee84f3","ios":"levelo://app?vid=7bed6c7f-598e-48e9-bae3-214e5eee84f3"},"vehicle_type_id":"4","last_reported":1767816813,"current_range_meters":8000,"station_id":"st_d4a3vfp97mjs738cd8kg","pricing_plan_id":"cebpf4jnsgd1na2vs0mg"},{"bike_id":"716f70c6-c645-4189-bca5-9c06dfbd6c99","system_id":"levelo_inurba_marseille","lat":43.29794,"lon":5.38079,"is_reserved":false,"is_disabled":false,"rental_uris":{"android":"levelo://app?vid=716f70c6-c645-4189-bca5-9c06dfbd6c99","ios":"levelo://app?vid=716f70c6-c645-4189-bca5-9c06dfbd6c99"},"vehicle_type_id":"4","last_reported":1767816813,"current_range_meters":8000,"station_id":"ce4bgip2rcd13ifvqbb0","pricing_plan_id":"cebpf4jnsgd1na2vs0mg"},{"bike_id":"80c53f0b-8cee-4eb0-b3ba-2d7c186356ee","system_id":"levelo_inurba_marseille","lat":43.265784,"lon":5.39008,"is_reserved":false,"is_disabled":false,"rental_uris":{"android":"levelo://app?vid=80c53f0b-8cee-4eb0-b3ba-2d7c186356ee","ios":"levelo://app?vid=80c53f0b-8cee-4eb0-b3ba-2d7c186356ee"},"vehicle_type_id":"4","last_reported":1767816813,"current_range_meters":8000,"station_id":"ce4bhe12rcd13ifvqf30","pricing_plan_id":"cebpf4jnsgd1na2vs0mg"},{"bike_id":"f6d4fb6a-ad8a-4d17-bcc6-cc71abc72c67","system_id":"levelo_inurba_marseille","lat":43.29278,"lon":5.38451,"is_reserved":false,"is_disabled":false,"rental_uris":{"android":"levelo://app?vid=f6d4fb6a-ad8a-4d17-bcc6-cc71abc72c67","ios":"levelo://app?vid=f6d4fb6a-ad8a-4d17-bcc6-cc71abc72c67"},"vehicle_type_id":"4","last_reported":1767816813,"current_range_meters":8000,"station_id":"ce4bh692rcd13ifvqea0","pricing_plan_id":"cebpf4jnsgd1na2vs0mg"},{"bike_id":"948bd2ed-8fdc-4ef6-9827-a943cc835e12","system_id":"levelo_inurba_marseille","lat":43.301255,"lon":5.431119,"is_reserved":false,"is_disabled":false,"rental_uris":{"android":"levelo://app?vid=948bd2ed-8fdc-4ef6-9827-a943cc835e12","ios":"levelo://app?vid=948bd2ed-8fdc-4ef6-9827-a943cc835e12"},"vehicle_type_id":"4","last_reported":1767816813,"current_range_meters":8000,"station_id":"st_d3js3co5814s73ftftug","pricing_plan_id":"cebpf4jnsgd1na2vs0mg"},{"bike_id":"7e56ead6-0dcc-483d-86d1-d4af73c68e4a","system_id":"levelo_inurba_marseille","lat":43.29378,"lon":5.38613,"is_reserved":false,"is_disabled":true,"rental_uris":{"android":"levelo://app?vid=7e56ead6-0dcc-483d-86d1-d4af73c68e4a","ios":"levelo://app?vid=7e56ead6-0dcc-483d-86d1-d4af73c68e4a"},"vehicle_type_id":"4","last_reported":1767816813,"current_range_meters":8000,"station_id":"","pricing_plan_id":"cebpf4jnsgd1na2vs0mg"},{"bike_id":"44c38d79-7c20-4e2b-bd52-9b8829a73a76","system_id":"levelo_inurba_marseille","lat":43.31172,"lon":5.38694,"is_reserved":false,"is_disabled":false,"rental_uris":{"android":"levelo://app?vid=44c38d79-7c20-4e2b-bd52-9b8829a73a76","ios":"levelo://app?vid=44c38d79-7c20-4e2b-bd52-9b8829a73a76"},"vehicle_type_id":"4","last_reported":1767816813,"current_range_meters":8000,"station_id":"ce4bgv12rcd13ifvqcp0","pricing_plan_id":"cebpf4jnsgd1na2vs0mg"},{"bike_id":"64e41f0b-72ab-45c6-9bed-ed9fcbc13325","system_id":"levelo_inurba_marseille","lat":43.28251,"lon":5.3506,"is_reserved":false,"is_disabled":false,"rental_uris":{"android":"levelo://app?vid=64e41f0b-72ab-45c6-9bed-ed9fcbc13325","ios":"levelo://app?vid=64e41f0b-72ab-45c6-9bed-ed9fcbc13325"},"vehicle_type_id":"4","last_reported":1767816813,"current_range_meters":8000,"station_id":"ce4bhbp2rcd13ifvqerg","pricing_plan_id":"cebpf4jnsgd1na2vs0mg"},{"bike_id":"b1a7225d-cf2c-4314-bf77-f264e40c3d2e","system_id":"levelo_inurba_marseille","lat":43.297556,"lon":5.42772,"is_reserved":false,"is_disabled":false,"rental_uris":{"android":"levelo://app?vid=b1a7225d-cf2c-4314-bf77-f264e40c3d2e","ios":"levelo://app?vid=b1a7225d-cf2c-4314-bf77-f264e40c3d2e"},"vehicle_type_id":"4","last_reported":1767816813,"current_range_meters":8000,"station_id":"st_d3md5207bmas73dh9klg","pricing_plan_id":"cebpf4jnsgd1na2vs0mg"},{"bike_id":"318ab7ee-cd4e-4fbb-a198-dc67360e53a7","system_id":"levelo_inurba_marseille","lat":43.22923,"lon":5.35382,"is_reserved":false,"is_disabled":false,"rental_uris":{"android":"levelo://app?vid=318ab7ee-cd4e-4fbb-a198-dc67360e53a7","ios":"levelo://app?vid=318ab7ee-cd4e-4fbb-a198-dc67360e53a7"},"vehicle_type_id":"4","last_reported":1767816813,"current_range_meters":8000,"station_id":"cpo3532slgdg3j2ikp40","pricing_plan_id":"cebpf4jnsgd1na2vs0mg"},{"bike_id":"7ae2676e-e662-4a9a-a79a-d5011de94824","system_id":"levelo_inurba_marseille","lat":43.24166,"lon":5.36395,"is_reserved":false,"is_disabled":false,"rental_uris":{"android":"levelo://app?vid=7ae2676e-e662-4a9a-a79a-d5011de94824","ios":"levelo://app?vid=7ae2676e-e662-4a9a-a79a-d5011de94824"},"vehicle_type_id":"4","last_reported":1767816813,"current_range_meters":8000,"station_id":"cpo36qri1sfpv3e86is0","pricing_plan_id":"cebpf4jnsgd1na2vs0mg"},{"bike_id":"c4cba06a-864a-42b1-807e-8aa65f9face9","system_id":"levelo_inurba_marseille","lat":43.29194,"lon":5.35791,"is_reserved":false,"is_disabled":false,"rental_uris":{"android":"levelo://app?vid=c4cba06a-864a-42b1-807e-8aa65f9face9","ios":"levelo://app?vid=c4cba06a-864a-42b1-807e-8aa65f9face9"},"vehicle_type_id":"4","last_reported":1767816813,"current_range_meters":8000,"station_id":"ce4bhb12rcd13ifvqel0","pricing_plan_id":"cebpf4jnsgd1na2vs0mg"},{"bike_id":"e3ffb854-e428-4a18-904d-ea5ddd084e10","system_id":"levelo_inurba_marseille","lat":43.3231,"lon":5.36721,"is_reserved":false,"is_disabled":false,"rental_uris":{"android":"levelo://app?vid=e3ffb854-e428-4a18-904d-ea5ddd084e10","ios":"levelo://app?vid=e3ffb854-e428-4a18-904d-ea5ddd084e10"},"vehicle_type_id":"4","last_reported":1767816813,"current_range_meters":8000,"station_id":"ce4bhsh2rcd13ifvqi2g","pricing_plan_id":"cebpf4jnsgd1na2vs0mg"},{"bike_id":"7263f487-87cc-48fb-a605-66fd2a27085e","system_id":"levelo_inurba_marseille","lat":43.25904,"lon":5.39824,"is_reserved":false,"is_disabled":false,"rental_uris":{"android":"levelo://app?vid=7263f487-87cc-48fb-a605-66fd2a27085e","ios":"levelo://app?vid=7263f487-87cc-48fb-a605-66fd2a27085e"},"vehicle_type_id":"4","last_reported":1767816813,"current_range_meters":8000,"station_id":"","pricing_plan_id":"cebpf4jnsgd1na2vs0mg"},{"bike_id":"a68dc79f-a4ff-4b06-902c-9bc4de195214","system_id":"levelo_inurba_marseille","lat":43.29187,"lon":5.35782,"is_reserved":false,"is_disabled":false,"rental_uris":{"android":"levelo://app?vid=a68dc79f-a4ff-4b06-902c-9bc4de195214","ios":"levelo://app?vid=a68dc79f-a4ff-4b06-902c-9bc4de195214"},"vehicle_type_id":"4","last_reported":1767816813,"current_range_meters":8000,"station_id":"ce4bhb12rcd13ifvqel0","pricing_plan_id":"cebpf4jnsgd1na2vs0mg"},{"bike_id":"ca27890e-612e-41f2-b590-56bc13733871","system_id":"levelo_inurba_marseille","lat":43.31065,"lon":5.38354,"is_reserved":false,"is_disabled":false,"rental_uris":{"android":"levelo://app?vid=ca27890e-612e-41f2-b590-56bc13733871","ios":"levelo://app?vid=ca27890e-612e-41f2-b590-56bc13733871"},"vehicle_type_id":"4","last_reported":1767816813,"current_range_meters":8000,"station_id":"ce4bgv92rcd13ifvqcr0","pricing_plan_id":"cebpf4jnsgd1na2vs0mg"},{"bike_id":"0b08096c-4995-449d-9715-13377335d815","system_id":"levelo_inurba_marseille","lat":43.22574,"lon":5.41623,"is_reserved":false,"is_disabled":false,"rental_uris":{"android":"levelo://app?vid=0b08096c-4995-449d-9715-13377335d815","ios":"levelo://app?vid=0b08096c-4995-449d-9715-13377335d815"},"vehicle_type_id":"4","last_reported":1767816813,"current_range_meters":8000,"station_id":"st_d2o4gvlbi1j2169b742g","pricing_plan_id":"cebpf4jnsgd1na2vs0mg"},{"bike_id":"76236588-c482-4b6a-b812-2ea8d6e9d28c","system_id":"levelo_inurba_marseille","lat":43.28395,"lon":5.37523,"is_reserved":false,"is_disabled":false,"rental_uris":{"android":"levelo://app?vid=76236588-c482-4b6a-b812-2ea8d6e9d28c","ios":"levelo://app?vid=76236588-c482-4b6a-b812-2ea8d6e9d28c"},"vehicle_type_id":"4","last_reported":1767816813,"current_range_meters":8000,"station_id":"ce4bh412rcd13ifvqds0","pricing_plan_id":"cebpf4jnsgd1na2vs0mg"},{"bike_id":"9b9e7c0d-8b05-4d0a-9b2e-71cd579eefc9","system_id":"levelo_inurba_marseille","lat":43.32361,"lon":5.36763,"is_reserved":false,"is_disabled":false,"rental_uris":{"android":"levelo://app?vid=9b9e7c0d-8b05-4d0a-9b2e-71cd579eefc9","ios":"levelo://app?vid=9b9e7c0d-8b05-4d0a-9b2e-71cd579eefc9"},"vehicle_type_id":"4","last_reported":1767816813,"current_range_meters":8000,"station_id":"ce4bhsh2rcd13ifvqi2g","pricing_plan_id":"cebpf4jnsgd1na2vs0mg"},{"bike_id":"12d41d42-0df1-44df-b48f-62c73404ec27","system_id":"levelo_inurba_marseille","lat":43.27067,"lon":5.38312,"is_reserved":false,"is_disabled":false,"rental_uris":{"android":"levelo://app?vid=12d41d42-0df1-44df-b48f-62c73404ec27","ios":"levelo://app?vid=12d41d42-0df1-44df-b48f-62c73404ec27"},"vehicle_type_id":"4","last_reported":1767816813,"current_range_meters":8000,"station_id":"st_d3n2fo6cfp8s73cte1j0","pricing_plan_id":"cebpf4jnsgd1na2vs0mg"},{"bike_id":"e333ef92-9481-476e-a416-b4070e2823b7","system_id":"levelo_inurba_marseille","lat":43.2549,"lon":5.37652,"is_reserved":false,"is_disabled":false,"rental_uris":{"android":"levelo://app?vid=e333ef92-9481-476e-a416-b4070e2823b7","ios":"levelo://app?vid=e333ef92-9481-476e-a416-b4070e2823b7"},"vehicle_type_id":"4","last_reported":1767816813,"current_range_meters":8000,"station_id":"ce4bhh12rcd13ifvqff0","pricing_plan_id":"cebpf4jnsgd1na2vs0mg"},{"bike_id":"fdd3e3b5-c4e8-4364-913d-425fcb875e4e","system_id":"levelo_inurba_marseille","lat":43.28924,"lon":5.38395,"is_reserved":false,"is_disabled":false,"rental_uris":{"android":"levelo://app?vid=fdd3e3b5-c4e8-4364-913d-425fcb875e4e","ios":"levelo://app?vid=fdd3e3b5-c4e8-4364-913d-425fcb875e4e"},"vehicle_type_id":"4","last_reported":1767816813,"current_range_meters":8000,"station_id":"ce4bh612rcd13ifvqe6g","pricing_plan_id":"cebpf4jnsgd1na2vs0mg"},{"bike_id":"47d0a8b3-c4fc-4d20-befe-0d9c69ad92a9","system_id":"levelo_inurba_marseille","lat":43.238017,"lon":5.36647,"is_reserved":false,"is_disabled":false,"rental_uris":{"android":"levelo://app?vid=47d0a8b3-c4fc-4d20-befe-0d9c69ad92a9","ios":"levelo://app?vid=47d0a8b3-c4fc-4d20-befe-0d9c69ad92a9"},"vehicle_type_id":"4","last_reported":1767816813,"current_range_meters":8000,"station_id":"st_d3nk18o9ro0c73en2l3g","pricing_plan_id":"cebpf4jnsgd1na2vs0mg"},{"bike_id":"5a68ff48-3ca4-4b8d-81f5-0545c9e06ce5","system_id":"levelo_inurba_marseille","lat":43.28852,"lon":5.42533,"is_reserved":false,"is_disabled":false,"rental_uris":{"android":"levelo://app?vid=5a68ff48-3ca4-4b8d-81f5-0545c9e06ce5","ios":"levelo://app?vid=5a68ff48-3ca4-4b8d-81f5-0545c9e06ce5"},"vehicle_type_id":"4","last_reported":1767816813,"current_range_meters":8400,"station_id":"st_d3b462108ojc7389ooeg","pricing_plan_id":"cebpf4jnsgd1na2vs0mg"},{"bike_id":"f6c1d545-d8df-48a4-b906-098a561f57c6","system_id":"levelo_inurba_marseille","lat":43.29482,"lon":5.43306,"is_reserved":false,"is_disabled":false,"rental_uris":{"android":"levelo://app?vid=f6c1d545-d8df-48a4-b906-098a561f57c6","ios":"levelo://app?vid=f6c1d545-d8df-48a4-b906-098a561f57c6"},"vehicle_type_id":"4","last_reported":1767816813,"current_range_meters":8400,"station_id":"st_d3j5ugp08ojc73fj9d10","pricing_plan_id":"cebpf4jnsgd1na2vs0mg"},{"bike_id":"6f736490-22b7-49cc-876e-28f8d1695e39","system_id":"levelo_inurba_marseille","lat":43.24386,"lon":5.3706,"is_reserved":false,"is_disabled":false,"rental_uris":{"android":"levelo://app?vid=6f736490-22b7-49cc-876e-28f8d1695e39","ios":"levelo://app?vid=6f736490-22b7-49cc-876e-28f8d1695e39"},"vehicle_type_id":"4","last_reported":1767816813,"current_range_meters":8400,"station_id":"ce4bhhh2rcd13ifvqfk0","pricing_plan_id":"cebpf4jnsgd1na2vs0mg"},{"bike_id":"19e15d06-cf4c-459d-8887-b3feaa0bcacf","system_id":"levelo_inurba_marseille","lat":43.32841,"lon":5.40486,"is_reserved":false,"is_disabled":false,"rental_uris":{"android":"levelo://app?vid=19e15d06-cf4c-459d-8887-b3feaa0bcacf","ios":"levelo://app?vid=19e15d06-cf4c-459d-8887-b3feaa0bcacf"},"vehicle_type_id":"4","last_reported":1767816813,"current_range_meters":8400,"station_id":"ce4bhq92rcd13ifvqhkg","pricing_plan_id":"cebpf4jnsgd1na2vs0mg"},{"bike_id":"ad23fdf7-5de1-46d8-84e7-377cd8e27914","system_id":"levelo_inurba_marseille","lat":43.30928,"lon":5.41521,"is_reserved":false,"is_disabled":false,"rental_uris":{"android":"levelo://app?vid=ad23fdf7-5de1-46d8-84e7-377cd8e27914","ios":"levelo://app?vid=ad23fdf7-5de1-46d8-84e7-377cd8e27914"},"vehicle_type_id":"4","last_reported":1767816813,"current_range_meters":8400,"station_id":"","pricing_plan_id":"cebpf4jnsgd1na2vs0mg"},{"bike_id":"3784ad41-419f-4dab-adbb-bb1233374cf8","system_id":"levelo_inurba_marseille","lat":43.29295,"lon":5.37159,"is_reserved":false,"is_disabled":false,"rental_uris":{"android":"levelo://app?vid=3784ad41-419f-4dab-adbb-bb1233374cf8","ios":"levelo://app?vid=3784ad41-419f-4dab-adbb-bb1233374cf8"},"vehicle_type_id":"4","last_reported":1767816813,"current_range_meters":8400,"station_id":"ce4bgh92rcd13ifvqb40","pricing_plan_id":"cebpf4jnsgd1na2vs0mg"},{"bike_id":"a57986d0-0f04-42c0-89d1-f819678b70e6","system_id":"levelo_inurba_marseille","lat":43.24663,"lon":5.38158,"is_reserved":false,"is_disabled":false,"rental_uris":{"android":"levelo://app?vid=a57986d0-0f04-42c0-89d1-f819678b70e6","ios":"levelo://app?vid=a57986d0-0f04-42c0-89d1-f819678b70e6"},"vehicle_type_id":"4","last_reported":1767816813,"current_range_meters":8400,"station_id":"ce4bhih2rcd13ifvqfr0","pricing_plan_id":"cebpf4jnsgd1na2vs0mg"},{"bike_id":"d71e68de-cd14-4ba9-a968-9ec46d820fce","system_id":"levelo_inurba_marseille","lat":43.29262,"lon":5.40897,"is_reserved":false,"is_disabled":false,"rental_uris":{"android":"levelo://app?vid=d71e68de-cd14-4ba9-a968-9ec46d820fce","ios":"levelo://app?vid=d71e68de-cd14-4ba9-a968-9ec46d820fce"},"vehicle_type_id":"4","last_reported":1767816813,"current_range_meters":8400,"station_id":"ce4bh192rcd13ifvqdc0","pricing_plan_id":"cebpf4jnsgd1na2vs0mg"},{"bike_id":"c10c03af-eba1-4f9f-a373-ad08e2aac44e","system_id":"levelo_inurba_marseille","lat":43.25919,"lon":5.40889,"is_reserved":false,"is_disabled":false,"rental_uris":{"android":"levelo://app?vid=c10c03af-eba1-4f9f-a373-ad08e2aac44e","ios":"levelo://app?vid=c10c03af-eba1-4f9f-a373-ad08e2aac44e"},"vehicle_type_id":"4","last_reported":1767816813,"current_range_meters":8400,"station_id":"ce4bhm92rcd13ifvqglg","pricing_plan_id":"cebpf4jnsgd1na2vs0mg"},{"bike_id":"f2f0b6ad-ec3b-4c22-8163-e14a3abefa1d","system_id":"levelo_inurba_marseille","lat":43.28079,"lon":5.39647,"is_reserved":false,"is_disabled":false,"rental_uris":{"android":"levelo://app?vid=f2f0b6ad-ec3b-4c22-8163-e14a3abefa1d","ios":"levelo://app?vid=f2f0b6ad-ec3b-4c22-8163-e14a3abefa1d"},"vehicle_type_id":"4","last_reported":1767816813,"current_range_meters":8400,"station_id":"ce4bho12rcd13ifvqh2g","pricing_plan_id":"cebpf4jnsgd1na2vs0mg"},{"bike_id":"fe99a84f-5ce7-4cef-a997-e79fffe9bddd","system_id":"levelo_inurba_marseille","lat":43.32097,"lon":5.36759,"is_reserved":false,"is_disabled":false,"rental_uris":{"android":"levelo://app?vid=fe99a84f-5ce7-4cef-a997-e79fffe9bddd","ios":"levelo://app?vid=fe99a84f-5ce7-4cef-a997-e79fffe9bddd"},"vehicle_type_id":"4","last_reported":1767816813,"current_range_meters":8400,"station_id":"ce4bhrh2rcd13ifvqhug","pricing_plan_id":"cebpf4jnsgd1na2vs0mg"},{"bike_id":"17ffc005-fa72-4d1f-9413-b31aab6a3fd6","system_id":"levelo_inurba_marseille","lat":43.32362,"lon":5.36762,"is_reserved":false,"is_disabled":false,"rental_uris":{"android":"levelo://app?vid=17ffc005-fa72-4d1f-9413-b31aab6a3fd6","ios":"levelo://app?vid=17ffc005-fa72-4d1f-9413-b31aab6a3fd6"},"vehicle_type_id":"4","last_reported":1767816813,"current_range_meters":8400,"station_id":"ce4bhsh2rcd13ifvqi2g","pricing_plan_id":"cebpf4jnsgd1na2vs0mg"},{"bike_id":"c733299c-cde7-442f-86b2-31e37d8f758a","system_id":"levelo_inurba_marseille","lat":43.28366,"lon":5.38631,"is_reserved":false,"is_disabled":false,"rental_uris":{"android":"levelo://app?vid=c733299c-cde7-442f-86b2-31e37d8f758a","ios":"levelo://app?vid=c733299c-cde7-442f-86b2-31e37d8f758a"},"vehicle_type_id":"4","last_reported":1767816813,"current_range_meters":8400,"station_id":"ce4bh492rcd13ifvqdvg","pricing_plan_id":"cebpf4jnsgd1na2vs0mg"},{"bike_id":"0076bf2a-ba6e-491e-990e-dad36b9a258b","system_id":"levelo_inurba_marseille","lat":43.30476,"lon":5.38893,"is_reserved":false,"is_disabled":true,"rental_uris":{"android":"levelo://app?vid=0076bf2a-ba6e-491e-990e-dad36b9a258b","ios":"levelo://app?vid=0076bf2a-ba6e-491e-990e-dad36b9a258b"},"vehicle_type_id":"4","last_reported":1767816813,"current_range_meters":8400,"station_id":"ce4bgk12rcd13ifvqbi0","pricing_plan_id":"cebpf4jnsgd1na2vs0mg"},{"bike_id":"627ad4fb-d3f7-406d-9fa6-760355e4142d","system_id":"levelo_inurba_marseille","lat":43.23189,"lon":5.35558,"is_reserved":false,"is_disabled":false,"rental_uris":{"android":"levelo://app?vid=627ad4fb-d3f7-406d-9fa6-760355e4142d","ios":"levelo://app?vid=627ad4fb-d3f7-406d-9fa6-760355e4142d"},"vehicle_type_id":"4","last_reported":1767816813,"current_range_meters":8400,"station_id":"ce4bhu92rcd13ifvqi70","pricing_plan_id":"cebpf4jnsgd1na2vs0mg"},{"bike_id":"bea31828-bce0-4919-97d3-9cbd79f1e13b","system_id":"levelo_inurba_marseille","lat":43.29597,"lon":5.38093,"is_reserved":false,"is_disabled":false,"rental_uris":{"android":"levelo://app?vid=bea31828-bce0-4919-97d3-9cbd79f1e13b","ios":"levelo://app?vid=bea31828-bce0-4919-97d3-9cbd79f1e13b"},"vehicle_type_id":"4","last_reported":1767816813,"current_range_meters":8400,"station_id":"ce4bgl12rcd13ifvqbo0","pricing_plan_id":"cebpf4jnsgd1na2vs0mg"},{"bike_id":"193cd76b-9bcc-4fab-ad90-2f66f28ef687","system_id":"levelo_inurba_marseille","lat":43.24065,"lon":5.3776,"is_reserved":false,"is_disabled":false,"rental_uris":{"android":"levelo://app?vid=193cd76b-9bcc-4fab-ad90-2f66f28ef687","ios":"levelo://app?vid=193cd76b-9bcc-4fab-ad90-2f66f28ef687"},"vehicle_type_id":"4","last_reported":1767816813,"current_range_meters":8400,"station_id":"ce4bhnp2rcd13ifvqgvg","pricing_plan_id":"cebpf4jnsgd1na2vs0mg"},{"bike_id":"f5bf2e43-bac9-4463-976c-36c06c878c39","system_id":"levelo_inurba_marseille","lat":43.286,"lon":5.39905,"is_reserved":false,"is_disabled":false,"rental_uris":{"android":"levelo://app?vid=f5bf2e43-bac9-4463-976c-36c06c878c39","ios":"levelo://app?vid=f5bf2e43-bac9-4463-976c-36c06c878c39"},"vehicle_type_id":"4","last_reported":1767816813,"current_range_meters":8400,"station_id":"st_d4a7ka997mjs738ck50g","pricing_plan_id":"cebpf4jnsgd1na2vs0mg"},{"bike_id":"7ed4b8c4-a25a-4260-9454-7f21a8997405","system_id":"levelo_inurba_marseille","lat":43.26492,"lon":5.39544,"is_reserved":false,"is_disabled":false,"rental_uris":{"android":"levelo://app?vid=7ed4b8c4-a25a-4260-9454-7f21a8997405","ios":"levelo://app?vid=7ed4b8c4-a25a-4260-9454-7f21a8997405"},"vehicle_type_id":"4","last_reported":1767816813,"current_range_meters":8400,"station_id":"ce4bhi12rcd13ifvqfq0","pricing_plan_id":"cebpf4jnsgd1na2vs0mg"},{"bike_id":"9d7e072c-beee-44e7-86c1-edb7828eb984","system_id":"levelo_inurba_marseille","lat":43.29021,"lon":5.38635,"is_reserved":false,"is_disabled":false,"rental_uris":{"android":"levelo://app?vid=9d7e072c-beee-44e7-86c1-edb7828eb984","ios":"levelo://app?vid=9d7e072c-beee-44e7-86c1-edb7828eb984"},"vehicle_type_id":"4","last_reported":1767816813,"current_range_meters":8400,"station_id":"ce4bh4p2rcd13ifvqe0g","pricing_plan_id":"cebpf4jnsgd1na2vs0mg"},{"bike_id":"eb96fcb8-d818-4ca1-9366-e4f25e54028c","system_id":"levelo_inurba_marseille","lat":43.29533,"lon":5.39409,"is_reserved":false,"is_disabled":false,"rental_uris":{"android":"levelo://app?vid=eb96fcb8-d818-4ca1-9366-e4f25e54028c","ios":"levelo://app?vid=eb96fcb8-d818-4ca1-9366-e4f25e54028c"},"vehicle_type_id":"4","last_reported":1767816813,"current_range_meters":8400,"station_id":"ce4bh292rcd13ifvqdf0","pricing_plan_id":"cebpf4jnsgd1na2vs0mg"},{"bike_id":"82d3f080-d410-43c7-9571-426fa09c8a1c","system_id":"levelo_inurba_marseille","lat":43.31741,"lon":5.39022,"is_reserved":false,"is_disabled":false,"rental_uris":{"android":"levelo://app?vid=82d3f080-d410-43c7-9571-426fa09c8a1c","ios":"levelo://app?vid=82d3f080-d410-43c7-9571-426fa09c8a1c"},"vehicle_type_id":"4","last_reported":1767816813,"current_range_meters":8400,"station_id":"ce4bhqp2rcd13ifvqhng","pricing_plan_id":"cebpf4jnsgd1na2vs0mg"},{"bike_id":"32cd8bdd-5f00-4222-be95-54500c9310ff","system_id":"levelo_inurba_marseille","lat":43.28419,"lon":5.35003,"is_reserved":false,"is_disabled":false,"rental_uris":{"android":"levelo://app?vid=32cd8bdd-5f00-4222-be95-54500c9310ff","ios":"levelo://app?vid=32cd8bdd-5f00-4222-be95-54500c9310ff"},"vehicle_type_id":"4","last_reported":1767816813,"current_range_meters":8400,"station_id":"ce4bhbh2rcd13ifvqepg","pricing_plan_id":"cebpf4jnsgd1na2vs0mg"},{"bike_id":"5ddc36fe-25ae-4411-85cc-e5b7ed02f34a","system_id":"levelo_inurba_marseille","lat":43.28609,"lon":5.37064,"is_reserved":false,"is_disabled":false,"rental_uris":{"android":"levelo://app?vid=5ddc36fe-25ae-4411-85cc-e5b7ed02f34a","ios":"levelo://app?vid=5ddc36fe-25ae-4411-85cc-e5b7ed02f34a"},"vehicle_type_id":"4","last_reported":1767816813,"current_range_meters":8400,"station_id":"ce4bht12rcd13ifvqi60","pricing_plan_id":"cebpf4jnsgd1na2vs0mg"},{"bike_id":"5b32c741-241a-4172-a20d-42141d0eac6f","system_id":"levelo_inurba_marseille","lat":43.29502,"lon":5.39029,"is_reserved":false,"is_disabled":false,"rental_uris":{"android":"levelo://app?vid=5b32c741-241a-4172-a20d-42141d0eac6f","ios":"levelo://app?vid=5b32c741-241a-4172-a20d-42141d0eac6f"},"vehicle_type_id":"4","last_reported":1767816813,"current_range_meters":8400,"station_id":"ce4bh3p2rcd13ifvqdp0","pricing_plan_id":"cebpf4jnsgd1na2vs0mg"},{"bike_id":"028756d9-bfe4-42e7-8035-4b002ff65672","system_id":"levelo_inurba_marseille","lat":43.22929,"lon":5.35373,"is_reserved":false,"is_disabled":false,"rental_uris":{"android":"levelo://app?vid=028756d9-bfe4-42e7-8035-4b002ff65672","ios":"levelo://app?vid=028756d9-bfe4-42e7-8035-4b002ff65672"},"vehicle_type_id":"4","last_reported":1767816813,"current_range_meters":8400,"station_id":"cpo3532slgdg3j2ikp40","pricing_plan_id":"cebpf4jnsgd1na2vs0mg"},{"bike_id":"31ef6104-524a-4758-8a5c-811acc4ab6a4","system_id":"levelo_inurba_marseille","lat":43.28507,"lon":5.4839,"is_reserved":false,"is_disabled":false,"rental_uris":{"android":"levelo://app?vid=31ef6104-524a-4758-8a5c-811acc4ab6a4","ios":"levelo://app?vid=31ef6104-524a-4758-8a5c-811acc4ab6a4"},"vehicle_type_id":"4","last_reported":1767816813,"current_range_meters":8400,"station_id":"st_d3svhcjqgbts73a3dn0g","pricing_plan_id":"cebpf4jnsgd1na2vs0mg"},{"bike_id":"7ff8e3d5-6dc2-47db-9cfb-441bf914e270","system_id":"levelo_inurba_marseille","lat":43.28614,"lon":5.35106,"is_reserved":false,"is_disabled":false,"rental_uris":{"android":"levelo://app?vid=7ff8e3d5-6dc2-47db-9cfb-441bf914e270","ios":"levelo://app?vid=7ff8e3d5-6dc2-47db-9cfb-441bf914e270"},"vehicle_type_id":"4","last_reported":1767816813,"current_range_meters":8400,"station_id":"ce4bhch2rcd13ifvqeug","pricing_plan_id":"cebpf4jnsgd1na2vs0mg"},