{"last_updated":1730736680,"ttl":60,"version":"2.2","data":{"bikes":[{"bike_id":"5bab2979-2ba3-42a8-a857-9e6923aa2f2d","system_id":"levelo_inurba_marseille","lat":43.29008,"lon":5.35611,"is_reserved":false,"is_disabled":false,"rental_uris":{"android":"levelo://app?vid=5bab2979-2ba3-42a8-a857-9e6923aa2f2d","ios":"levelo://app?vid=5bab2979-2ba3-42a8-a857-9e6923aa2f2d"},"vehicle_type_id":"4","last_reported":1730736680,"current_range_meters":28400,"station_id":"ce4bhb92rcd13ifvqen0","pricing_plan_id":"cebpf4jnsgd1na2vs0mg"},{"bike_id":"b5eae48d-812d-4961-a3f8-ee79d62e04b1","system_id":"levelo_inurba_marseille","lat":43.30251,"lon":5.40063,"is_reserved":false,"is_disabled":false,"rental_uris":{"android":"levelo://app?vid=b5eae48d-812d-4961-a3f8-ee79d62e04b1","ios":"levelo://app?vid=b5eae48d-812d-4961-a3f8-ee79d62e04b1"},"vehicle_type_id":"4","last_reported":1730736680,"current_range_meters":39200,"station_id":"ce4bgvh2rcd13ifvqcs0","pricing_plan_id":"cebpf4jnsgd1na2vs0mg"},{"bike_id":"2b6c8443-1848-4bd1-a5f7-cb79fbd151e5","system_id":"levelo_inurba_marseille","lat":43.28453,"lon":5.35897,"is_reserved":false,"is_disabled":false,"rental_uris":{"android":"levelo://app?vid=2b6c8443-1848-4bd1-a5f7-cb79fbd151e5","ios":"levelo://app?vid=2b6c8443-1848-4bd1-a5f7-cb79fbd151e5"},"vehicle_type_id":"4","last_reported":1730736680,"current_range_meters":35200,"station_id":"ce4bhah2rcd13ifvqei0","pricing_plan_id":"cebpf4jnsgd1na2vs0mg"},{"bike_id":"0d9cfdb8-a001-4095-afd4-84c0a17ec347","system_id":"levelo_inurba_marseille","lat":43.27211,"lon":5.39186,"is_reserved":false,"is_disabled":false,"rental_uris":{"android":"levelo://app?vid=0d9cfdb8-a001-4095-afd4-84c0a17ec347","ios":"levelo://app?vid=0d9cfdb8-a001-4095-afd4-84c0a17ec347"},"vehicle_type_id":"4","last_reported":1730736680,"current_range_meters":14800,"station_id":"ce4bhhp2rcd13ifvqfm0","pricing_plan_id":"cebpf4jnsgd1na2vs0mg"},{"bike_id":"6b50b699-42bc-438e-ad22-dc1eec7ee64e","system_id":"levelo_inurba_marseille","lat":43.30086,"lon":5.39076,"is_reserved":false,"is_disabled":false,"rental_uris":{"android":"levelo://app?vid=6b50b699-42bc-438e-ad22-dc1eec7ee64e","ios":"levelo://app?vid=6b50b699-42bc-438e-ad22-dc1eec7ee64e"},"vehicle_type_id":"4","last_reported":1730736680,"current_range_meters":38800,"station_id":"ce4bh192rcd13ifvqdb0","pricing_plan_id":"cebpf4jnsgd1na2vs0mg"},{"bike_id":"b45d93e2-137e-40d9-b8b9-f9ceab009d23","system_id":"levelo_inurba_marseille","lat":43.24179,"lon":5.39736,"is_reserved":false,"is_disabled":false,"rental_uris":{"android":"levelo://app?vid=b45d93e2-137e-40d9-b8b9-f9ceab009d23","ios":"levelo://app?vid=b45d93e2-137e-40d9-b8b9-f9ceab009d23"},"vehicle_type_id":"4","last_reported":1730736680,"current_range_meters":38800,"station_id":"ce4bhn12rcd13ifvqgpg","pricing_plan_id":"cebpf4jnsgd1na2vs0mg"},{"bike_id":"7d640c47-a4ae-4641-8ed6-4165bb1caeb6","system_id":"levelo_inurba_marseille","lat":43.26486,"lon":5.39547,"is_reserved":false,"is_disabled":false,"rental_uris":{"android":"levelo://app?vid=7d640c47-a4ae-4641-8ed6-4165bb1caeb6","ios":"levelo://app?vid=7d640c47-a4ae-4641-8ed6-4165bb1caeb6"},"vehicle_type_id":"4","last_reported":1730736680,"current_range_meters":38800,"station_id":"ce4bhi12rcd13ifvqfq0","pricing_plan_id":"cebpf4jnsgd1na2vs0mg"},{"bike_id":"bd9ddc62-e5c0-4dbb-8ddb-15cb0932a727","system_id":"levelo_inurba_marseille","lat":43.30884,"lon":5.37195,"is_reserved":false,"is_disabled":false,"rental_uris":{"android":"levelo://app?vid=bd9ddc62-e5c0-4dbb-8ddb-15cb0932a727","ios":"levelo://app?vid=bd9ddc62-e5c0-4dbb-8ddb-15cb0932a727"},"vehicle_type_id":"4","last_reported":1730736680,"current_range_meters":2800,"station_id":"ce4bguh2rcd13ifvqckg","pricing_plan_id":"cebpf4jnsgd1na2vs0mg"},{"bike_id":"16a185bd-093d-4ccc-8b99-19dc657f89c3","system_id":"levelo_inurba_marseille","lat":43.32366,"lon":5.38886,"is_reserved":false,"is_disabled":false,"rental_uris":{"android":"levelo://app?vid=16a185bd-093d-4ccc-8b99-19dc657f89c3","ios":"levelo://app?vid=16a185bd-093d-4ccc-8b99-19dc657f89c3"},"vehicle_type_id":"4","last_reported":1730736680,"current_range_meters":23200,"station_id":"ce4bhqp2rcd13ifvqhog","pricing_plan_id":"cebpf4jnsgd1na2vs0mg"},{"bike_id":"de44ff27-f890-45f3-91bc-1b5d7f3fea2d","system_id":"levelo_inurba_marseille","lat":43.32663,"lon":5.40993,"is_reserved":false,"is_disabled":false,"rental_uris":{"android":"levelo://app?vid=de44ff27-f890-45f3-91bc-1b5d7f3fea2d","ios":"levelo://app?vid=de44ff27-f890-45f3-91bc-1b5d7f3fea2d"},"vehicle_type_id":"4","last_reported":1730736680,"current_range_meters":27600,"station_id":"ce4bhpp2rcd13ifvqhgg","pricing_plan_id":"cebpf4jnsgd1na2vs0mg"},{"bike_id":"242453d6-4264-414c-8841-dfe925c5d225","system_id":"levelo_inurba_marseille","lat":43.28454,"lon":5.35881,"is_reserved":false,"is_disabled":false,"rental_uris":{"android":"levelo://app?vid=242453d6-4264-414c-8841-dfe925c5d225","ios":"levelo://app?vid=242453d6-4264-414c-8841-dfe925c5d225"},"vehicle_type_id":"4","last_reported":1730736680,"current_range_meters":30400,"station_id":"ce4bhah2rcd13ifvqei0","pricing_plan_id":"cebpf4jnsgd1na2vs0mg"},{"bike_id":"4147bbfb-4b14-4aca-b782-8ec6c0473609","system_id":"levelo_inurba_marseille","lat":43.23602,"lon":5.40349,"is_reserved":false,"is_disabled":false,"rental_uris":{"android":"levelo://app?vid=4147bbfb-4b14-4aca-b782-8ec6c0473609","ios":"levelo://app?vid=4147bbfb-4b14-4aca-b782-8ec6c0473609"},"vehicle_type_id":"4","last_reported":1730736680,"current_range_meters":13600,"station_id":"","pricing_plan_id":"cebpf4jnsgd1na2vs0mg"},{"bike_id":"862c176c-dd7b-45ba-a8b8-3dc61591d878","system_id":"levelo_inurba_marseille","lat":43.3056,"lon":5.36545,"is_reserved":false,"is_disabled":false,"rental_uris":{"android":"levelo://app?vid=862c176c-dd7b-45ba-a8b8-3dc61591d878","ios":"levelo://app?vid=862c176c-dd7b-45ba-a8b8-3dc61591d878"},"vehicle_type_id":"4","last_reported":1730736680,"current_range_meters":35600,"station_id":"ce4bgs12rcd13ifvqcag","pricing_plan_id":"cebpf4jnsgd1na2vs0mg"},{"bike_id":"bbf3073e-7fb9-4aac-aaf7-58c4f22a612f","system_id":"levelo_inurba_marseille","lat":43.28,"lon":5.40025,"is_reserved":false,"is_disabled":false,"rental_uris":{"android":"levelo://app?vid=bbf3073e-7fb9-4aac-aaf7-58c4f22a612f","ios":"levelo://app?vid=bbf3073e-7fb9-4aac-aaf7-58c4f22a612f"},"vehicle_type_id":"4","last_reported":1730736680,"current_range_meters":2000,"station_id":"ce4bho92rcd13ifvqh4g","pricing_plan_id":"cebpf4jnsgd1na2vs0mg"},{"bike_id":"054f52ec-59c1-4313-ae6c-01ba1e9d0203","system_id":"levelo_inurba_marseille","lat":43.26808,"lon":5.40271,"is_reserved":false,"is_disabled":false,"rental_uris":{"android":"levelo://app?vid=054f52ec-59c1-4313-ae6c-01ba1e9d0203","ios":"levelo://app?vid=054f52ec-59c1-4313-ae6c-01ba1e9d0203"},"vehicle_type_id":"4","last_reported":1730736680,"current_range_meters":30000,"station_id":"ce501612rcd8frsf0b60","pricing_plan_id":"cebpf4jnsgd1na2vs0mg"},{"bike_id":"f004bb40-0c97-4961-ae2c-b0211cfc0184","system_id":"levelo_inurba_marseille","lat":43.31222,"lon":5.36856,"is_reserved":false,"is_disabled":false,"rental_uris":{"android":"levelo://app?vid=f004bb40-0c97-4961-ae2c-b0211cfc0184","ios":"levelo://app?vid=f004bb40-0c97-4961-ae2c-b0211cfc0184"},"vehicle_type_id":"4","last_reported":1730736680,"current_range_meters":39200,"station_id":"ce4bgl92rcd13ifvqbq0","pricing_plan_id":"cebpf4jnsgd1na2vs0mg"},{"bike_id":"a805ec4f-6d11-4069-a9d1-e1dfb861469e","system_id":"levelo_inurba_marseille","lat":43.25113,"lon":5.40318,"is_reserved":false,"is_disabled":false,"rental_uris":{"android":"levelo://app?vid=a805ec4f-6d11-4069-a9d1-e1dfb861469e","ios":"levelo://app?vid=a805ec4f-6d11-4069-a9d1-e1dfb861469e"},"vehicle_type_id":"4","last_reported":1730736680,"current_range_meters":18800,"station_id":"ce4bhlh2rcd13ifvqgig","pricing_plan_id":"cebpf4jnsgd1na2vs0mg"},{"bike_id":"47662166-db17-4d16-a97b-519c42566d41","system_id":"levelo_inurba_marseille","lat":43.27812,"lon":5.40717,"is_reserved":false,"is_disabled":false,"rental_uris":{"android":"levelo://app?vid=47662166-db17-4d16-a97b-519c42566d41","ios":"levelo://app?vid=47662166-db17-4d16-a97b-519c42566d41"},"vehicle_type_id":"4","last_reported":1730736680,"current_range_meters":12000,"station_id":"ce4bhnh2rcd13ifvqgtg","pricing_plan_id":"cebpf4jnsgd1na2vs0mg"},{"bike_id":"ac2fd82f-8715-4e01-91b0-baa4521e6c97","system_id":"levelo_inurba_marseille","lat":43.30806,"lon":5.38152,"is_reserved":false,"is_disabled":false,"rental_uris":{"android":"levelo://app?vid=ac2fd82f-8715-4e01-91b0-baa4521e6c97","ios":"levelo://app?vid=ac2fd82f-8715-4e01-91b0-baa4521e6c97"},"vehicle_type_id":"4","last_reported":1730736680,"current_range_meters":25200,"station_id":"ce4bgt12rcd13ifvqce0","pricing_plan_id":"cebpf4jnsgd1na2vs0mg"},{"bike_id":"76b8d797-d314-4451-a891-341320b006ff","system_id":"levelo_inurba_marseille","lat":43.29936,"lon":5.36551,"is_reserved":false,"is_disabled":false,"rental_uris":{"android":"levelo://app?vid=76b8d797-d314-4451-a891-341320b006ff","ios":"levelo://app?vid=76b8d797-d314-4451-a891-341320b006ff"},"vehicle_type_id":"4","last_reported":1730736680,"current_range_meters":22800,"station_id":"ce4bgm92rcd13ifvqbr0","pricing_plan_id":"cebpf4jnsgd1na2vs0mg"},{"bike_id":"4457c172-acf7-466f-bf1d-ad3069f6ef15","system_id":"levelo_inurba_marseille","lat":43.2994,"lon":5.36554,"is_reserved":false,"is_disabled":false,"rental_uris":{"android":"levelo://app?vid=4457c172-acf7-466f-bf1d-ad3069f6ef15","ios":"levelo://app?vid=4457c172-acf7-466f-bf1d-ad3069f6ef15"},"vehicle_type_id":"4","last_reported":1730736680,"current_range_meters":11200,"station_id":"ce4bgm92rcd13ifvqbr0","pricing_plan_id":"cebpf4jnsgd1na2vs0mg"},{"bike_id":"2378f453-72a7-4eb2-ab3b-946285d406fd","system_id":"levelo_inurba_marseille","lat":43.29208,"lon":5.37723,"is_reserved":false,"is_disabled":false,"rental_uris":{"android":"levelo://app?vid=2378f453-72a7-4eb2-ab3b-946285d406fd","ios":"levelo://app?vid=2378f453-72a7-4eb2-ab3b-946285d406fd"},"vehicle_type_id":"4","last_reported":1730736680,"current_range_meters":8000,"station_id":"","pricing_plan_id":"cebpf4jnsgd1na2vs0mg"},{"bike_id":"418d7049-07ce-454d-94e8-22c6bf418d69","system_id":"levelo_inurba_marseille","lat":43.28972,"lon":5.37846,"is_reserved":false,"is_disabled":false,"rental_uris":{"android":"levelo://app?vid=418d7049-07ce-454d-94e8-22c6bf418d69","ios":"levelo://app?vid=418d7049-07ce-454d-94e8-22c6bf418d69"},"vehicle_type_id":"4","last_reported":1730736680,"current_range_meters":4000,"station_id":"ce4bh9p2rcd13ifvqed0","pricing_plan_id":"cebpf4jnsgd1na2vs0mg"},{"bike_id":"73ee0fa0-5c50-45fc-96d9-d8242c78e08b","system_id":"levelo_inurba_marseille","lat":43.29203,"lon":5.39328,"is_reserved":false,"is_disabled":false,"rental_uris":{"android":"levelo://app?vid=73ee0fa0-5c50-45fc-96d9-d8242c78e08b","ios":"levelo://app?vid=73ee0fa0-5c50-45fc-96d9-d8242c78e08b"},"vehicle_type_id":"4","last_reported":1730736680,"current_range_meters":14800,"station_id":"ce4bh192rcd13ifvqdd0","pricing_plan_id":"cebpf4jnsgd1na2vs0mg"},{"bike_id":"ba681174-dc24-4996-8b0b-0eece6b037dc","system_id":"levelo_inurba_marseille","lat":43.27839,"lon":5.39208,"is_reserved":false,"is_disabled":false,"rental_uris":{"android":"levelo://app?vid=ba681174-dc24-4996-8b0b-0eece6b037dc","ios":"levelo://app?vid=ba681174-dc24-4996-8b0b-0eece6b037dc"},"vehicle_type_id":"4","last_reported":1730736680,"current_range_meters":16400,"station_id":"ce4bhjp2rcd13ifvqga0","pricing_plan_id":"cebpf4jnsgd1na2vs0mg"},{"bike_id":"61dbaa79-fb29-4ce6-ad78-01486dfbbfff","system_id":"levelo_inurba_marseille","lat":43.23966,"lon":5.3664,"is_reserved":false,"is_disabled":false,"rental_uris":{"android":"levelo://app?vid=61dbaa79-fb29-4ce6-ad78-01486dfbbfff","ios":"levelo://app?vid=61dbaa79-fb29-4ce6-ad78-01486dfbbfff"},"vehicle_type_id":"4","last_reported":1730736680,"current_range_meters":39200,"station_id":"ce4bhi12rcd13ifvqfp0","pricing_plan_id":"cebpf4jnsgd1na2vs0mg"},{"bike_id":"b8b49059-d707-4141-a67a-2ec2038cdc2c","system_id":"levelo_inurba_marseille","lat":43.28985,"lon":5.37833,"is_reserved":false,"is_disabled":false,"rental_uris":{"android":"levelo://app?vid=b8b49059-d707-4141-a67a-2ec2038cdc2c","ios":"levelo://app?vid=b8b49059-d707-4141-a67a-2ec2038cdc2c"},"vehicle_type_id":"4","last_reported":1730736680,"current_range_meters":30400,"station_id":"ce4bh9p2rcd13ifvqed0","pricing_plan_id":"cebpf4jnsgd1na2vs0mg"},{"bike_id":"f7328e64-9c01-4c37-921c-66a2817f91ee","system_id":"levelo_inurba_marseille","lat":43.2919,"lon":5.37141,"is_reserved":false,"is_disabled":false,"rental_uris":{"android":"levelo://app?vid=f7328e64-9c01-4c37-921c-66a2817f91ee","ios":"levelo://app?vid=f7328e64-9c01-4c37-921c-66a2817f91ee"},"vehicle_type_id":"4","last_reported":1730736680,"current_range_meters":9600,"station_id":"ce4bha92rcd13ifvqeh0","pricing_plan_id":"cebpf4jnsgd1na2vs0mg"},{"bike_id":"970b87e3-a483-44b6-a8ad-0ecd59bb4cf3","system_id":"levelo_inurba_marseille","lat":43.29266,"lon":5.36848,"is_reserved":false,"is_disabled":false,"rental_uris":{"android":"levelo://app?vid=970b87e3-a483-44b6-a8ad-0ecd59bb4cf3","ios":"levelo://app?vid=970b87e3-a483-44b6-a8ad-0ecd59bb4cf3"},"vehicle_type_id":"4","last_reported":1730736680,"current_range_meters":16800,"station_id":"ce4bhbp2rcd13ifvqesg","pricing_plan_id":"cebpf4jnsgd1na2vs0mg"},{"bike_id":"97b2308a-8548-475f-9626-d340283d6c59","system_id":"levelo_inurba_marseille","lat":43.26209,"lon":5.37446,"is_reserved":false,"is_disabled":false,"rental_uris":{"android":"levelo://app?vid=97b2308a-8548-475f-9626-d340283d6c59","ios":"levelo://app?vid=97b2308a-8548-475f-9626-d340283d6c59"},"vehicle_type_id":"4","last_reported":1730736680,"current_range_meters":20000,"station_id":"ce4bhgp2rcd13ifvqfc0","pricing_plan_id":"cebpf4jnsgd1na2vs0mg"},{"bike_id":"5f182c0f-58e8-4d44-8169-760b9016320b","system_id":"levelo_inurba_marseille","lat":43.28153,"lon":5.42643,"is_reserved":false,"is_disabled":false,"rental_uris":{"android":"levelo://app?vid=5f182c0f-58e8-4d44-8169-760b9016320b","ios":"levelo://app?vid=5f182c0f-58e8-4d44-8169-760b9016320b"},"vehicle_type_id":"4","last_reported":1730736680,"current_range_meters":28800,"station_id":"ce4bhnh2rcd13ifvqgug","pricing_plan_id":"cebpf4jnsgd1na2vs0mg"},{"bike_id":"31534473-df4e-4d67-b291-ba9afb836af9","system_id":"levelo_inurba_marseille","lat":43.29301,"lon":5.37459,"is_reserved":false,"is_disabled":false,"rental_uris":{"android":"levelo://app?vid=31534473-df4e-4d67-b291-ba9afb836af9","ios":"levelo://app?vid=31534473-df4e-4d67-b291-ba9afb836af9"},"vehicle_type_id":"4","last_reported":1730736680,"current_range_meters":39200,"station_id":"ce4bgi12rcd13ifvqb70","pricing_plan_id":"cebpf4jnsgd1na2vs0mg"},{"bike_id":"c5f8c5e3-de80-41eb-8a1b-32becacf2d96","system_id":"levelo_inurba_marseille","lat":43.30553,"lon":5.36538,"is_reserved":false,"is_disabled":false,"rental_uris":{"android":"levelo://app?vid=c5f8c5e3-de80-41eb-8a1b-32becacf2d96","ios":"levelo://app?vid=c5f8c5e3-de80-41eb-8a1b-32becacf2d96"},"vehicle_type_id":"4","last_reported":1730736680,"current_range_meters":39200,"station_id":"ce4bgs12rcd13ifvqcag","pricing_plan_id":"cebpf4jnsgd1na2vs0mg"},{"bike_id":"bebbdaa7-61c0-4199-a44d-19c7a2da7f1f","system_id":"levelo_inurba_marseille","lat":43.29634,"lon":5.40594,"is_reserved":false,"is_disabled":false,"rental_uris":{"android":"levelo://app?vid=bebbdaa7-61c0-4199-a44d-19c7a2da7f1f","ios":"levelo://app?vid=bebbdaa7-61c0-4199-a44d-19c7a2da7f1f"},"vehicle_type_id":"4","last_reported":1730736680,"current_range_meters":10000,"station_id":"ce4bh0h2rcd13ifvqd60","pricing_plan_id":"cebpf4jnsgd1na2vs0mg"},{"bike_id":"ff04c4f0-d503-4807-9cb5-abc54912560f","system_id":"levelo_inurba_marseille","lat":43.29877,"lon":5.39745,"is_reserved":false,"is_disabled":false,"rental_uris":{"android":"levelo://app?vid=ff04c4f0-d503-4807-9cb5-abc54912560f","ios":"levelo://app?vid=ff04c4f0-d503-4807-9cb5-abc54912560f"},"vehicle_type_id":"4","last_reported":1730736680,"current_range_meters":37600,"station_id":"ce4bh0h2rcd13ifvqd50","pricing_plan_id":"cebpf4jnsgd1na2vs0mg"},{"bike_id":"c8188680-dfed-486d-af07-6cd0603f3523","system_id":"levelo_inurba_marseille","lat":43.293213,"lon":5.3825,"is_reserved":false,"is_disabled":false,"rental_uris":{"android":"levelo://app?vid=c8188680-dfed-486d-af07-6cd0603f3523","ios":"levelo://app?vid=c8188680-dfed-486d-af07-6cd0603f3523"},"vehicle_type_id":"4","last_reported":1730736680,"current_range_meters":29600,"station_id":"ce4bhdp2rcd13ifvqf20","pricing_plan_id":"cebpf4jnsgd1na2vs0mg"},{"bike_id":"835999ed-1924-42a6-9f25-5a8b76ae7f58","system_id":"levelo_inurba_marseille","lat":43.29671,"lon":5.3937,"is_reserved":false,"is_disabled":false,"rental_uris":{"android":"levelo://app?vid=835999ed-1924-42a6-9f25-5a8b76ae7f58","ios":"levelo://app?vid=835999ed-1924-42a6-9f25-5a8b76ae7f58"},"vehicle_type_id":"4","last_reported":1730736680,"current_range_meters":17600,"station_id":"chh1huq6cuj3fo74tm60","pricing_plan_id":"cebpf4jnsgd1na2vs0mg"},{"bike_id":"19505a76-095a-4d4b-aea1-1efd3b3c4792","system_id":"levelo_inurba_marseille","lat":43.25865,"lon":5.39908,"is_reserved":false,"is_disabled":false,"rental_uris":{"android":"levelo://app?vid=19505a76-095a-4d4b-aea1-1efd3b3c4792","ios":"levelo://app?vid=19505a76-095a-4d4b-aea1-1efd3b3c4792"},"vehicle_type_id":"4","last_reported":1730736680,"current_range_meters":27600,"station_id":"ce4bhl92rcd13ifvqghg","pricing_plan_id":"cebpf4jnsgd1na2vs0mg"},{"bike_id":"b32b7556-10cc-4d3a-8c12-df987a6243de","system_id":"levelo_inurba_marseille","lat":43.28422,"lon":5.34996,"is_reserved":false,"is_disabled":false,"rental_uris":{"android":"levelo://app?vid=b32b7556-10cc-4d3a-8c12-df987a6243de","ios":"levelo://app?vid=b32b7556-10cc-4d3a-8c12-df987a6243de"},"vehicle_type_id":"4","last_reported":1730736680,"current_range_meters":38800,"station_id":"ce4bhbh2rcd13ifvqepg","pricing_plan_id":"cebpf4jnsgd1na2vs0mg"},{"bike_id":"bfb4e9f1-502b-4eee-ad84-0c905afe5629","system_id":"levelo_inurba_marseille","lat":43.32482,"lon":5.36574,"is_reserved":false,"is_disabled":false,"rental_uris":{"android":"levelo://app?vid=bfb4e9f1-502b-4eee-ad84-0c905afe5629","ios":"levelo://app?vid=bfb4e9f1-502b-4eee-ad84-0c905afe5629"},"vehicle_type_id":"4","last_reported":1730736680,"current_range_meters":28400,"station_id":"ce4bhs12rcd13ifvqhvg","pricing_plan_id":"cebpf4jnsgd1na2vs0mg"},{"bike_id":"d335de22-f2d8-46b9-a786-ff06d42f6a63","system_id":"levelo_inurba_marseille","lat":43.30132,"lon":5.36698,"is_reserved":false,"is_disabled":false,"rental_uris":{"android":"levelo://app?vid=d335de22-f2d8-46b9-a786-ff06d42f6a63","ios":"levelo://app?vid=d335de22-f2d8-46b9-a786-ff06d42f6a63"},"vehicle_type_id":"4","last_reported":1730736680,"current_range_meters":26000,"station_id":"ce4bgrh2rcd13ifvqc8g","pricing_plan_id":"cebpf4jnsgd1na2vs0mg"},{"bike_id":"883b27ef-bd85-4c22-85ee-34cfeee039f8","system_id":"levelo_inurba_marseille","lat":43.32481,"lon":5.36565,"is_reserved":false,"is_disabled":false,"rental_uris":{"android":"levelo://app?vid=883b27ef-bd85-4c22-85ee-34cfeee039f8","ios":"levelo://app?vid=883b27ef-bd85-4c22-85ee-34cfeee039f8"},"vehicle_type_id":"4","last_reported":1730736680,"current_range_meters":28400,"station_id":"ce4bhs12rcd13ifvqhvg","pricing_plan_id":"cebpf4jnsgd1na2vs0mg"},{"bike_id":"88f0b30b-f035-44a5-9c9d-21b590e41b4c","system_id":"levelo_inurba_marseille","lat":43.26214,"lon":5.37444,"is_reserved":false,"is_disabled":false,"rental_uris":{"android":"levelo://app?vid=88f0b30b-f035-44a5-9c9d-21b590e41b4c","ios":"levelo://app?vid=88f0b30b-f035-44a5-9c9d-21b590e41b4c"},"vehicle_type_id":"4","last_reported":1730736680,"current_range_meters":32000,"station_id":"ce4bhgp2rcd13ifvqfc0","pricing_plan_id":"cebpf4jnsgd1na2vs0mg"},{"bike_id":"0688e1f9-1bf1-4863-9a6f-f01b30b1aed3","system_id":"levelo_inurba_marseille","lat":43.28453,"lon":5.35902,"is_reserved":false,"is_disabled":false,"rental_uris":{"android":"levelo://app?vid=0688e1f9-1bf1-4863-9a6f-f01b30b1aed3","ios":"levelo://app?vid=0688e1f9-1bf1-4863-9a6f-f01b30b1aed3"},"vehicle_type_id":"4","last_reported":1730736680,"current_range_meters":14400,"station_id":"ce4bhah2rcd13ifvqei0","pricing_plan_id":"cebpf4jnsgd1na2vs0mg"},{"bike_id":"649a33b6-61e9-46c5-9348-72ec547830cb","system_id":"levelo_inurba_marseille","lat":43.27187,"lon":5.40997,"is_reserved":false,"is_disabled":false,"rental_uris":{"android":"levelo://app?vid=649a33b6-61e9-46c5-9348-72ec547830cb","ios":"levelo://app?vid=649a33b6-61e9-46c5-9348-72ec547830cb"},"vehicle_type_id":"4","last_reported":1730736680,"current_range_meters":33200,"station_id":"ce4bhl12rcd13ifvqgf0","pricing_plan_id":"cebpf4jnsgd1na2vs0mg"},{"bike_id":"5b9370e3-f9ae-41ce-ad8a-25212224dc17","system_id":"levelo_inurba_marseille","lat":43.28609,"lon":5.37058,"is_reserved":false,"is_disabled":false,"rental_uris":{"android":"levelo://app?vid=5b9370e3-f9ae-41ce-ad8a-25212224dc17","ios":"levelo://app?vid=5b9370e3-f9ae-41ce-ad8a-25212224dc17"},"vehicle_type_id":"4","last_reported":1730736680,"current_range_meters":28000,"station_id":"ce4bht12rcd13ifvqi60","pricing_plan_id":"cebpf4jnsgd1na2vs0mg"},{"bike_id":"589bd2b8-9799-4d5d-a4f3-b0f27fef0139","system_id":"levelo_inurba_marseille","lat":43.30882,"lon":5.39642,"is_reserved":false,"is_disabled":false,"rental_uris":{"android":"levelo://app?vid=589bd2b8-9799-4d5d-a4f3-b0f27fef0139","ios":"levelo://app?vid=589bd2b8-9799-4d5d-a4f3-b0f27fef0139"},"vehicle_type_id":"4","last_reported":1730736680,"current_range_meters":38000,"station_id":"ce4bh012rcd13ifvqcv0","pricing_plan_id":"cebpf4jnsgd1na2vs0mg"},{"bike_id":"f87d0a78-7a59-4349-a12e-8e4f96e25815","system_id":"levelo_inurba_marseille","lat":43.323408,"lon":5.406218,"is_reserved":false,"is_disabled":false,"rental_uris":{"android":"levelo://app?vid=f87d0a78-7a59-4349-a12e-8e4f96e25815","ios":"levelo://app?vid=f87d0a78-7a59-4349-a12e-8e4f96e25815"},"vehicle_type_id":"4","last_reported":1730736680,"current_range_meters":33600,"station_id":"ce4bhq92rcd13ifvqhjg","pricing_plan_id":"cebpf4jnsgd1na2vs0mg"},{"bike_id":"2ea6dde1-3457-4bba-a9bf-3118e9af0808","system_id":"levelo_inurba_marseille","lat":43.27324,"lon":5.39076,"is_reserved":false,"is_disabled":false,"rental_uris":{"android":"levelo://app?vid=2ea6dde1-3457-4bba-a9bf-3118e9af0808","ios":"levelo://app?vid=2ea6dde1-3457-4bba-a9bf-3118e9af0808"},"vehicle_type_id":"4","last_reported":1730736680,"current_range_meters":18000,"station_id":"ce4bhgp2rcd13ifvqfe0","pricing_plan_id":"cebpf4jnsgd1na2vs0mg"},{"bike_id":"496d1592-f444-4219-9dc2-55373938e639","system_id":"levelo_inurba_marseille","lat":43.28155,"lon":5.42637,"is_reserved":false,"is_disabled":false,"rental_uris":{"android":"levelo://app?vid=496d1592-f444-4219-9dc2-55373938e639","ios":"levelo://app?vid=496d1592-f444-4219-9dc2-55373938e639"},"vehicle_type_id":"4","last_reported":1730736680,"current_range_meters":34000,"station_id":"ce4bhnh2rcd13ifvqgug","pricing_plan_id":"cebpf4jnsgd1na2vs0mg"},{"bike_id":"8d9d2da1-fc44-43e5-8507-bca2227ba5c6","system_id":"levelo_inurba_marseille","lat":43.29508,"lon":5.37521,"is_reserved":false,"is_disabled":false,"rental_uris":{"android":"levelo://app?vid=8d9d2da1-fc44-43e5-8507-bca2227ba5c6","ios":"levelo://app?vid=8d9d2da1-fc44-43e5-8507-bca2227ba5c6"},"vehicle_type_id":"4","last_reported":1730736680,"current_range_meters":23200,"station_id":"ce4bgkp2rcd13ifvqbmg","pricing_plan_id":"cebpf4jnsgd1na2vs0mg"},{"bike_id":"b7e1a995-4c01-439b-badb-926b707d1a7f","system_id":"levelo_inurba_marseille","lat":43.29521,"lon":5.3941,"is_reserved":false,"is_disabled":false,"rental_uris":{"android":"levelo://app?vid=b7e1a995-4c01-439b-badb-926b707d1a7f","ios":"levelo://app?vid=b7e1a995-4c01-439b-badb-926b707d1a7f"},"vehicle_type_id":"4","last_reported":1730736680,"current_range_meters":38000,"station_id":"ce4bh292rcd13ifvqdf0","pricing_plan_id":"cebpf4jnsgd1na2vs0mg"},{"bike_id":"9dc3374b-0b85-4a8b-88a8-db8ad8f687c8","system_id":"levelo_inurba_marseille","lat":43.25454,"lon":5.3807,"is_reserved":false,"is_disabled":false,"rental_uris":{"android":"levelo://app?vid=9dc3374b-0b85-4a8b-88a8-db8ad8f687c8","ios":"levelo://app?vid=9dc3374b-0b85-4a8b-88a8-db8ad8f687c8"},"vehicle_type_id":"4","last_reported":1730736680,"current_range_meters":3200,"station_id":"","pricing_plan_id":"cebpf4jnsgd1na2vs0mg"},{"bike_id":"187d8d29-0237-49b1-9deb-0afd9af9af9a","system_id":"levelo_inurba_marseille","lat":43.29034,"lon":5.39977,"is_reserved":false,"is_disabled":false,"rental_uris":{"android":"levelo://app?vid=187d8d29-0237-49b1-9deb-0afd9af9af9a","ios":"levelo://app?vid=187d8d29-0237-49b1-9deb-0afd9af9af9a"},"vehicle_type_id":"4","last_reported":1730736680,"current_range_meters":19200,"station_id":"ce4bh392rcd13ifvqdm0","pricing_plan_id":"cebpf4jnsgd1na2vs0mg"},{"bike_id":"65ccebdf-d260-402f-a838-15a27d702244","system_id":"levelo_inurba_marseille","lat":43.29991,"lon":5.37184,"is_reserved":false,"is_disabled":false,"rental_uris":{"android":"levelo://app?vid=65ccebdf-d260-402f-a838-15a27d702244","ios":"levelo://app?vid=65ccebdf-d260-402f-a838-15a27d702244"},"vehicle_type_id":"4","last_reported":1730736680,"current_range_meters":8000,"station_id":"ce4bgr92rcd13ifvqc7g","pricing_plan_id":"cebpf4jnsgd1na2vs0mg"},{"bike_id":"670845c8-eae3-420a-b9db-a30541b49770","system_id":"levelo_inurba_marseille","lat":43.26927,"lon":5.38925,"is_reserved":false,"is_disabled":false,"rental_uris":{"android":"levelo://app?vid=670845c8-eae3-420a-b9db-a30541b49770","ios":"levelo://app?vid=670845c8-eae3-420a-b9db-a30541b49770"},"vehicle_type_id":"4","last_reported":1730736680,"current_range_meters":12000,"station_id":"ce4bhhh2rcd13ifvqfl0","pricing_plan_id":"cebpf4jnsgd1na2vs0mg"},{"bike_id":"ae1d3dee-6f8b-491f-9ccd-fa32ad3b9f31","system_id":"levelo_inurba_marseille","lat":43.27374,"lon":5.36263,"is_reserved":false,"is_disabled":false,"rental_uris":{"android":"levelo://app?vid=ae1d3dee-6f8b-491f-9ccd-fa32ad3b9f31","ios":"levelo://app?vid=ae1d3dee-6f8b-491f-9ccd-fa32ad3b9f31"},"vehicle_type_id":"4","last_reported":1730736680,"current_range_meters":38800,"station_id":"ce4bhbh2rcd13ifvqeo0","pricing_plan_id":"cebpf4jnsgd1na2vs0mg"},{"bike_id":"778e839f-a43f-40d4-be5c-9f8db47e5925","system_id":"levelo_inurba_marseille","lat":43.2756,"lon":5.38428,"is_reserved":false,"is_disabled":false,"rental_uris":{"android":"levelo://app?vid=778e839f-a43f-40d4-be5c-9f8db47e5925","ios":"levelo://app?vid=778e839f-a43f-40d4-be5c-9f8db47e5925"},"vehicle_type_id":"4","last_reported":1730736680,"current_range_meters":18000,"station_id":"ce4bhh92rcd13ifvqfi0","pricing_plan_id":"cebpf4jnsgd1na2vs0mg"},{"bike_id":"28c4470e-7c65-48b5-a4f3-82bb5ef8f8cd","system_id":"levelo_inurba_marseille","lat":43.32338,"lon":5.40624,"is_reserved":false,"is_disabled":false,"rental_uris":{"android":"levelo://app?vid=28c4470e-7c65-48b5-a4f3-82bb5ef8f8cd","ios":"levelo://app?vid=28c4470e-7c65-48b5-a4f3-82bb5ef8f8cd"},"vehicle_type_id":"4","last_reported":1730736680,"current_range_meters":38800,"station_id":"ce4bhq92rcd13ifvqhjg","pricing_plan_id":"cebpf4jnsgd1na2vs0mg"},{"bike_id":"045dd2db-04d8-40d7-9d21-a4791821e053","system_id":"levelo_inurba_marseille","lat":43.29515,"lon":5.39403,"is_reserved":false,"is_disabled":false,"rental_uris":{"android":"levelo://app?vid=045dd2db-04d8-40d7-9d21-a4791821e053","ios":"levelo://app?vid=045dd2db-04d8-40d7-9d21-a4791821e053"},"vehicle_type_id":"4","last_reported":1730736680,"current_range_meters":13600,"station_id":"ce4bh292rcd13ifvqdf0","pricing_plan_id":"cebpf4jnsgd1na2vs0mg"},{"bike_id":"c60670a7-dfe0-4520-9a35-552c19e78a50","system_id":"levelo_inurba_marseille","lat":43.2558,"lon":5.38238,"is_reserved":false,"is_disabled":false,"rental_uris":{"android":"levelo://app?vid=c60670a7-dfe0-4520-9a35-552c19e78a50","ios":"levelo://app?vid=c60670a7-dfe0-4520-9a35-552c19e78a50"},"vehicle_type_id":"4","last_reported":1730736680,"current_range_meters":19600,"station_id":"ce4bhih2rcd13ifvqfs0","pricing_plan_id":"cebpf4jnsgd1na2vs0mg"},{"bike_id":"c3225c6a-2017-4455-8043-b1acfa16019c","system_id":"levelo_inurba_marseille","lat":43.25498,"lon":5.3765,"is_reserved":false,"is_disabled":false,"rental_uris":{"android":"levelo://app?vid=c3225c6a-2017-4455-8043-b1acfa16019c","ios":"levelo://app?vid=c3225c6a-2017-4455-8043-b1acfa16019c"},"vehicle_type_id":"4","last_reported":1730736680,"current_range_meters":25200,"station_id":"ce4bhh12rcd13ifvqff0","pricing_plan_id":"cebpf4jnsgd1na2vs0mg"},{"bike_id":"d4472d20-9c4b-4c70-ad00-3a005519a429","system_id":"levelo_inurba_marseille","lat":43.35368,"lon":5.35732,"is_reserved":false,"is_disabled":false,"rental_uris":{"android":"levelo://app?vid=d4472d20-9c4b-4c70-ad00-3a005519a429","ios":"levelo://app?vid=d4472d20-9c4b-4c70-ad00-3a005519a429"},"vehicle_type_id":"4","last_reported":1730736680,"current_range_meters":8800,"station_id":"","pricing_plan_id":"cebpf4jnsgd1na2vs0mg"},{"bike_id":"950661e8-0595-470a-9ddd-41f041c4f5e5","system_id":"levelo_inurba_marseille","lat":43.32291,"lon":5.38264,"is_reserved":false,"is_disabled":false,"rental_uris":{"android":"levelo://app?vid=950661e8-0595-470a-9ddd-41f041c4f5e5","ios":"levelo://app?vid=950661e8-0595-470a-9ddd-41f041c4f5e5"},"vehicle_type_id":"4","last_reported":1730736680,"current_range_meters":17600,"station_id":"ce4bhr12rcd13ifvqhqg","pricing_plan_id":"cebpf4jnsgd1na2vs0mg"},{"bike_id":"205775bb-f905-4a64-8cc7-2ffe3910a027","system_id":"levelo_inurba_marseille","lat":43.31495,"lon":5.37311,"is_reserved":false,"is_disabled":false,"rental_uris":{"android":"levelo://app?vid=205775bb-f905-4a64-8cc7-2ffe3910a027","ios":"levelo://app?vid=205775bb-f905-4a64-8cc7-2ffe3910a027"},"vehicle_type_id":"4","last_reported":1730736680,"current_range_meters":24800,"station_id":"ce4bgt12rcd13ifvqcd0","pricing_plan_id":"cebpf4jnsgd1na2vs0mg"},{"bike_id":"ba208615-8a92-428e-a07e-e022e89e27fb","system_id":"levelo_inurba_marseille","lat":43.290953,"lon":5.381342,"is_reserved":false,"is_disabled":false,"rental_uris":{"android":"levelo://app?vid=ba208615-8a92-428e-a07e-e022e89e27fb","ios":"levelo://app?vid=ba208615-8a92-428e-a07e-e022e89e27fb"},"vehicle_type_id":"4","last_reported":1730736680,"current_range_meters":8400,"station_id":"ce4bh512rcd13ifvqe2g","pricing_plan_id":"cebpf4jnsgd1na2vs0mg"},{"bike_id":"b14cb5d2-a3a0-4560-ac96-25061beacbf8","system_id":"levelo_inurba_marseille","lat":43.26032,"lon":5.37545,"is_reserved":false,"is_disabled":false,"rental_uris":{"android":"levelo://app?vid=b14cb5d2-a3a0-4560-ac96-25061beacbf8","ios":"levelo://app?vid=b14cb5d2-a3a0-4560-ac96-25061beacbf8"},"vehicle_type_id":"4","last_reported":1730736680,"current_range_meters":20800,"station_id":"ce4bhgh2rcd13ifvqfa0","pricing_plan_id":"cebpf4jnsgd1na2vs0mg"},{"bike_id":"2dd40e8a-347a-4069-9f04-901c41b0a3c7","system_id":"levelo_inurba_marseille","lat":43.321,"lon":5.36776,"is_reserved":false,"is_disabled":false,"rental_uris":{"android":"levelo://app?vid=2dd40e8a-347a-4069-9f04-901c41b0a3c7","ios":"levelo://app?vid=2dd40e8a-347a-4069-9f04-901c41b0a3c7"},"vehicle_type_id":"4","last_reported":1730736680,"current_range_meters":38800,"station_id":"ce4bhrh2rcd13ifvqhug","pricing_plan_id":"cebpf4jnsgd1na2vs0mg"},{"bike_id":"fd40ee40-a546-4b1c-b857-74001e6c36b7","system_id":"levelo_inurba_marseille","lat":43.28668,"lon":5.36355,"is_reserved":false,"is_disabled":false,"rental_uris":{"android":"levelo://app?vid=fd40ee40-a546-4b1c-b857-74001e6c36b7","ios":"levelo://app?vid=fd40ee40-a546-4b1c-b857-74001e6c36b7"},"vehicle_type_id":"4","last_reported":1730736680,"current_range_meters":19600,"station_id":"ce4bhah2rcd13ifvqej0","pricing_plan_id":"cebpf4jnsgd1na2vs0mg"},{"bike_id":"6dd37a7e-6f07-414c-b3ad-14f7d363be84","system_id":"levelo_inurba_marseille","lat":43.29274,"lon":5.40113,"is_reserved":false,"is_disabled":false,"rental_uris":{"android":"levelo://app?vid=6dd37a7e-6f07-414c-b3ad-14f7d363be84","ios":"levelo://app?vid=6dd37a7e-6f07-414c-b3ad-14f7d363be84"},"vehicle_type_id":"4","last_reported":1730736680,"current_range_meters":39200,"station_id":"ce4bh312rcd13ifvqdk0","pricing_plan_id":"cebpf4jnsgd1na2vs0mg"},{"bike_id":"214f4ec8-89d7-4a19-b390-e76e6068ba53","system_id":"levelo_inurba_marseille","lat":43.29581,"lon":5.375147,"is_reserved":false,"is_disabled":false,"rental_uris":{"android":"levelo://app?vid=214f4ec8-89d7-4a19-b390-e76e6068ba53","ios":"levelo://app?vid=214f4ec8-89d7-4a19-b390-e76e6068ba53"},"vehicle_type_id":"4","last_reported":1730736680,"current_range_meters":6000,"station_id":"ce4bgvp2rcd13ifvqct0","pricing_plan_id":"cebpf4jnsgd1na2vs0mg"},{"bike_id":"cfceb85a-8c7b-4241-b2ee-fb768a9758e3","system_id":"levelo_inurba_marseille","lat":43.27997,"lon":5.41674,"is_reserved":false,"is_disabled":false,"rental_uris":{"android":"levelo://app?vid=cfceb85a-8c7b-4241-b2ee-fb768a9758e3","ios":"levelo://app?vid=cfceb85a-8c7b-4241-b2ee-fb768a9758e3"},"vehicle_type_id":"4","last_reported":1730736680,"current_range_meters":36400,"station_id":"ce4bho12rcd13ifvqh1g","pricing_plan_id":"cebpf4jnsgd1na2vs0mg"},{"bike_id":"e59f55dd-4d14-4c89-8782-74e128fc5ac9","system_id":"levelo_inurba_marseille","lat":43.28663,"lon":5.36359,"is_reserved":false,"is_disabled":false,"rental_uris":{"android":"levelo://app?vid=e59f55dd-4d14-4c89-8782-74e128fc5ac9","ios":"levelo://app?vid=e59f55dd-4d14-4c89-8782-74e128fc5ac9"},"vehicle_type_id":"4","last_reported":1730736680,"current_range_meters":18000,"station_id":"ce4bhah2rcd13ifvqej0","pricing_plan_id":"cebpf4jnsgd1na2vs0mg"},{"bike_id":"9f531053-f680-4046-ad9e-f50999bb27e6","system_id":"levelo_inurba_marseille","lat":43.303293,"lon":5.392362,"is_reserved":false,"is_disabled":false,"rental_uris":{"android":"levelo://app?vid=9f531053-f680-4046-ad9e-f50999bb27e6","ios":"levelo://app?vid=9f531053-f680-4046-ad9e-f50999bb27e6"},"vehicle_type_id":"4","last_reported":1730736680,"current_range_meters":24400,"station_id":"ce4bgkh2rcd13ifvqbk0","pricing_plan_id":"cebpf4jnsgd1na2vs0mg"},{"bike_id":"1b52eafc-c80b-4dc1-b2ba-f3dd1130b336","system_id":"levelo_inurba_marseille","lat":43.28685,"lon":5.399861,"is_reserved":false,"is_disabled":false,"rental_uris":{"android":"levelo://app?vid=1b52eafc-c80b-4dc1-b2ba-f3dd1130b336","ios":"levelo://app?vid=1b52eafc-c80b-4dc1-b2ba-f3dd1130b336"},"vehicle_type_id":"4","last_reported":1730736680,"current_range_meters":3200,"station_id":"ce4bh392rcd13ifvqdm0","pricing_plan_id":"cebpf4jnsgd1na2vs0mg"},{"bike_id":"60c79190-0b44-4dcf-8079-558cec12cdab","system_id":"levelo_inurba_marseille","lat":43.24666,"lon":5.38168,"is_reserved":false,"is_disabled":false,"rental_uris":{"android":"levelo://app?vid=60c79190-0b44-4dcf-8079-558cec12cdab","ios":"levelo://app?vid=60c79190-0b44-4dcf-8079-558cec12cdab"},"vehicle_type_id":"4","last_reported":1730736680,"current_range_meters":26800,"station_id":"ce4bhih2rcd13ifvqfr0","pricing_plan_id":"cebpf4jnsgd1na2vs0mg"},{"bike_id":"1b88e0cd-84aa-4e4d-91db-a263ce2c8f68","system_id":"levelo_inurba_marseille","lat":43.29536,"lon":5.38536,"is_reserved":false,"is_disabled":false,"rental_uris":{"android":"levelo://app?vid=1b88e0cd-84aa-4e4d-91db-a263ce2c8f68","ios":"levelo://app?vid=1b88e0cd-84aa-4e4d-91db-a263ce2c8f68"},"vehicle_type_id":"4","last_reported":1730736680,"current_range_meters":16000,"station_id":"ce4bgih2rcd13ifvqba0","pricing_plan_id":"cebpf4jnsgd1na2vs0mg"},{"bike_id":"ee3dccf9-22bf-4760-8927-68d482635c84","system_id":"levelo_inurba_marseille","lat":43.30548,"lon":5.36544,"is_reserved":false,"is_disabled":false,"rental_uris":{"android":"levelo://app?vid=ee3dccf9-22bf-4760-8927-68d482635c84","ios":"levelo://app?vid=ee3dccf9-22bf-4760-8927-68d482635c84"},"vehicle_type_id":"4","last_reported":1730736680,"current_range_meters":38800,"station_id":"ce4bgs12rcd13ifvqcag","pricing_plan_id":"cebpf4jnsgd1na2vs0mg"},{"bike_id":"ba8f5d9a-4861-4465-b828-23e2245ef053","system_id":"levelo_inurba_marseille","lat":43.23173,"lon":5.39989,"is_reserved":false,"is_disabled":false,"rental_uris":{"android":"levelo://app?vid=ba8f5d9a-4861-4465-b828-23e2245ef053","ios":"levelo://app?vid=ba8f5d9a-4861-4465-b828-23e2245ef053"},"vehicle_type_id":"4","last_reported":1730736680,"current_range_meters":33200,"station_id":"ce4bhn12rcd13ifvqgqg","pricing_plan_id":"cebpf4jnsgd1na2vs0mg"},{"bike_id":"93129c9d-046f-4034-8b52-f0c5ac3954fc","system_id":"levelo_inurba_marseille","lat":43.32364,"lon":5.38885,"is_reserved":false,"is_disabled":false,"rental_uris":{"android":"levelo://app?vid=93129c9d-046f-4034-8b52-f0c5ac3954fc","ios":"levelo://app?vid=93129c9d-046f-4034-8b52-f0c5ac3954fc"},"vehicle_type_id":"4","last_reported":1730736680,"current_range_meters":38800,"station_id":"ce4bhqp2rcd13ifvqhog","pricing_plan_id":"cebpf4jnsgd1na2vs0mg"},{"bike_id":"6c78a033-e104-48bc-bb54-3615bf76d1ad","system_id":"levelo_inurba_marseille","lat":43.25865,"lon":5.39904,"is_reserved":false,"is_disabled":false,"rental_uris":{"android":"levelo://app?vid=6c78a033-e104-48bc-bb54-3615bf76d1ad","ios":"levelo://app?vid=6c78a033-e104-48bc-bb54-3615bf76d1ad"},"vehicle_type_id":"4","last_reported":1730736680,"current_range_meters":6000,"station_id":"ce4bhl92rcd13ifvqghg","pricing_plan_id":"cebpf4jnsgd1na2vs0mg"},{"bike_id":"b22fc8a8-32a4-43b7-b65e-504387286a24","system_id":"levelo_inurba_marseille","lat":43.27806,"lon":5.40713,"is_reserved":false,"is_disabled":false,"rental_uris":{"android":"levelo://app?vid=b22fc8a8-32a4-43b7-b65e-504387286a24","ios":"levelo://app?vid=b22fc8a8-32a4-43b7-b65e-504387286a24"},"vehicle_type_id":"4","last_reported":1730736680,"current_range_meters":40000,"station_id":"ce4bhnh2rcd13ifvqgtg","pricing_plan_id":"cebpf4jnsgd1na2vs0mg"},{"bike_id":"b6e46383-b60e-454e-8cf3-ada952bced88","system_id":"levelo_inurba_marseille","lat":43.32659,"lon":5.40996,"is_reserved":false,"is_disabled":false,"rental_uris":{"android":"levelo://app?vid=b6e46383-b60e-454e-8cf3-ada952bced88","ios":"levelo://app?vid=b6e46383-b60e-454e-8cf3-ada952bced88"},"vehicle_type_id":"4","last_reported":1730736680,"current_range_meters":38800,"station_id":"ce4bhpp2rcd13ifvqhgg","pricing_plan_id":"cebpf4jnsgd1na2vs0mg"},{"bike_id":"beeef4e4-0d45-4dfa-9ccc-aedb2ce31115","system_id":"levelo_inurba_marseille","lat":43.32109,"lon":5.36779,"is_reserved":false,"is_disabled":false,"rental_uris":{"android":"levelo://app?vid=beeef4e4-0d45-4dfa-9ccc-aedb2ce31115","ios":"levelo://app?vid=beeef4e4-0d45-4dfa-9ccc-aedb2ce31115"},"vehicle_type_id":"4","last_reported":1730736680,"current_range_meters":30000,"station_id":"ce4bhrh2rcd13ifvqhug","pricing_plan_id":"cebpf4jnsgd1na2vs0mg"},{"bike_id":"30b91e22-e780-483b-b680-a233fa892c28","system_id":"levelo_inurba_marseille","lat":43.2511,"lon":5.40323,"is_reserved":false,"is_disabled":false,"rental_uris":{"android":"levelo://app?vid=30b91e22-e780-483b-b680-a233fa892c28","ios":"levelo://app?vid=30b91e22-e780-483b-b680-a233fa892c28"},"vehicle_type_id":"4","last_reported":1730736680,"current_range_meters":12400,"station_id":"ce4bhlh2rcd13ifvqgig","pricing_plan_id":"cebpf4jnsgd1na2vs0mg"},{"bike_id":"0ff4e5a8-7ba1-451b-b78a-10410b33b36c","system_id":"levelo_inurba_marseille","lat":43.28079,"lon":5.39663,"is_reserved":false,"is_disabled":false,"rental_uris":{"android":"levelo://app?vid=0ff4e5a8-7ba1-451b-b78a-10410b33b36c","ios":"levelo://app?vid=0ff4e5a8-7ba1-451b-b78a-10410b33b36c"},"vehicle_type_id":"4","last_reported":1730736680,"current_range_meters":14800,"station_id":"ce4bho12rcd13ifvqh2g","pricing_plan_id":"cebpf4jnsgd1na2vs0mg"},{"bike_id":"7622e7dd-8692-41f0-ac73-9d2d2c2fc77b","system_id":"levelo_inurba_marseille","lat":43.27819,"lon":5.40716,"is_reserved":false,"is_disabled":false,"rental_uris":{"android":"levelo://app?vid=7622e7dd-8692-41f0-ac73-9d2d2c2fc77b","ios":"levelo://app?vid=7622e7dd-8692-41f0-ac73-9d2d2c2fc77b"},"vehicle_type_id":"4","last_reported":1730736680,"current_range_meters":9200,"station_id":"ce4bhnh2rcd13ifvqgtg","pricing_plan_id":"cebpf4jnsgd1na2vs0mg"},{"bike_id":"2e1d0cd1-8441-4ba8-b68e-cd7faa70a2e3","system_id":"levelo_inurba_marseille","lat":43.30552,"lon":5.36556,"is_reserved":false,"is_disabled":false,"rental_uris":{"android":"levelo://app?vid=2e1d0cd1-8441-4ba8-b68e-cd7faa70a2e3","ios":"levelo://app?vid=2e1d0cd1-8441-4ba8-b68e-cd7faa70a2e3"},"vehicle_type_id":"4","last_reported":1730736680,"current_range_meters":33600,"station_id":"ce4bgs12rcd13ifvqcag","pricing_plan_id":"cebpf4jnsgd1na2vs0mg"},{"bike_id":"71721fe2-35d7-41f2-9225-983e1943836f","system_id":"levelo_inurba_marseille","lat":43.33755,"lon":5.37472,"is_reserved":false,"is_disabled":false,"rental_uris":{"android":"levelo://app?vid=71721fe2-35d7-41f2-9225-983e1943836f","ios":"levelo://app?vid=71721fe2-35d7-41f2-9225-983e1943836f"},"vehicle_type_id":"4","last_reported":1730736680,"current_range_meters":38000,"station_id":"","pricing_plan_id":"cebpf4jnsgd1na2vs0mg"},{"bike_id":"a9fdf937-bbef-435c-8bdb-89632c70ac0b","system_id":"levelo_inurba_marseille","lat":43.29974,"lon":5.38491,"is_reserved":false,"is_disabled":false,"rental_uris":{"android":"levelo://app?vid=a9fdf937-bbef-435c-8bdb-89632c70ac0b","ios":"levelo://app?vid=a9fdf937-bbef-435c-8bdb-89632c70ac0b"},"vehicle_type_id":"4","last_reported":1730736680,"current_range_meters":33200,"station_id":"ce4bgj92rcd13ifvqbd0","pricing_plan_id":"cebpf4jnsgd1na2vs0mg"},{"bike_id":"697dd118-268c-406e-bad8-371dfe74ed47","system_id":"levelo_inurba_marseille","lat":43.31755,"lon":5.39015,"is_reserved":false,"is_disabled":false,"rental_uris":{"android":"levelo://app?vid=697dd118-268c-406e-bad8-371dfe74ed47","ios":"levelo://app?vid=697dd118-268c-406e-bad8-371dfe74ed47"},"vehicle_type_id":"4","last_reported":1730736680,"current_range_meters":37600,"station_id":"ce4bhqp2rcd13ifvqhng","pricing_plan_id":"cebpf4jnsgd1na2vs0mg"},{"bike_id":"ba21ef20-5e7b-41b5-b91d-bece39556bba","system_id":"levelo_inurba_marseille","lat":43.23193,"lon":5.35556,"is_reserved":false,"is_disabled":false,"rental_uris":{"android":"levelo://app?vid=ba21ef20-5e7b-41b5-b91d-bece39556bba","ios":"levelo://app?vid=ba21ef20-5e7b-41b5-b91d-bece39556bba"},"vehicle_type_id":"4","last_reported":1730736680,"current_range_meters":8400,"station_id":"ce4bhu92rcd13ifvqi70","pricing_plan_id":"cebpf4jnsgd1na2vs0mg"},{"bike_id":"ce35ce3c-636d-4c7a-927b-ee42ec6c7ac2","system_id":"levelo_inurba_marseille","lat":43.29246,"lon":5.40905,"is_reserved":false,"is_disabled":false,"rental_uris":{"android":"levelo://app?vid=ce35ce3c-636d-4c7a-927b-ee42ec6c7ac2","ios":"levelo://app?vid=ce35ce3c-636d-4c7a-927b-ee42ec6c7ac2"},"vehicle_type_id":"4","last_reported":1730736680,"current_range_meters":23200,"station_id":"ce4bh192rcd13ifvqdc0","pricing_plan_id":"cebpf4jnsgd1na2vs0mg"},{"bike_id":"7580d83e-3d7c-46be-82b1-25f013a114af","system_id":"levelo_inurba_marseille","lat":43.31075,"lon":5.40106,"is_reserved":false,"is_disabled":false,"rental_uris":{"android":"levelo://app?vid=7580d83e-3d7c-46be-82b1-25f013a114af","ios":"levelo://app?vid=7580d83e-3d7c-46be-82b1-25f013a114af"},"vehicle_type_id":"4","last_reported":1730736680,"current_range_meters":21600,"station_id":"","pricing_plan_id":"cebpf4jnsgd1na2vs0mg"},{"bike_id":"0beee424-e81f-4821-93f8-913a6e29e82e","system_id":"levelo_inurba_marseille","lat":43.2306,"lon":5.35489,"is_reserved":false,"is_disabled":false,"rental_uris":{"android":"levelo://app?vid=0beee424-e81f-4821-93f8-913a6e29e82e","ios":"levelo://app?vid=0beee424-e81f-4821-93f8-913a6e29e82e"},"vehicle_type_id":"4","last_reported":1730736680,"current_range_meters":14800,"station_id":"cpo3342slgdg3j2ifvpg","pricing_plan_id":"cebpf4jnsgd1na2vs0mg"},{"bike_id":"c0c025c0-e1f6-425e-890b-b8c2a430620a","system_id":"levelo_inurba_marseille","lat":43.28942,"lon":5.36638,"is_reserved":false,"is_disabled":false,"rental_uris":{"android":"levelo://app?vid=c0c025c0-e1f6-425e-890b-b8c2a430620a","ios":"levelo://app?vid=c0c025c0-e1f6-425e-890b-b8c2a430620a"},"vehicle_type_id":"4","last_reported":1730736680,"current_range_meters":22000,"station_id":"ce4bhap2rcd13ifvqek0","pricing_plan_id":"cebpf4jnsgd1na2vs0mg"},{"bike_id":"ba04515b-2530-4f99-bfe4-78243134c10b","system_id":"levelo_inurba_marseille","lat":43.280579,"lon":5.409851,"is_reserved":false,"is_disabled":false,"rental_uris":{"android":"levelo://app?vid=ba04515b-2530-4f99-bfe4-78243134c10b","ios":"levelo://app?vid=ba04515b-2530-4f99-bfe4-78243134c10b"},"vehicle_type_id":"4","last_reported":1730736680,"current_range_meters":36000,"station_id":"","pricing_plan_id":"cebpf4jnsgd1na2vs0mg"},{"bike_id":"7f312fe9-e563-4e85-aa6f-66f4e6febfe0","system_id":"levelo_inurba_marseille","lat":43.31167,"lon":5.38723,"is_reserved":false,"is_disabled":false,"rental_uris":{"android":"levelo://app?vid=7f312fe9-e563-4e85-aa6f-66f4e6febfe0","ios":"levelo://app?vid=7f312fe9-e563-4e85-aa6f-66f4e6febfe0"},"vehicle_type_id":"4","last_reported":1730736680,"current_range_meters":38800,"station_id":"ce4bgv12rcd13ifvqcp0","pricing_plan_id":"cebpf4jnsgd1na2vs0mg"},{"bike_id":"9fbeb6ea-991d-40c5-a6ef-f8e60ecee52f","system_id":"levelo_inurba_marseille","lat":43.30207,"lon":5.39476,"is_reserved":false,"is_disabled":false,"rental_uris":{"android":"levelo://app?vid=9fbeb6ea-991d-40c5-a6ef-f8e60ecee52f","ios":"levelo://app?vid=9fbeb6ea-991d-40c5-a6ef-f8e60ecee52f"},"vehicle_type_id":"4","last_reported":1730736680,"current_range_meters":33600,"station_id":"ce4bh0p2rcd13ifvqd70","pricing_plan_id":"cebpf4jnsgd1na2vs0mg"},{"bike_id":"9b7f08ae-726f-4c56-9a10-b583e8ee29d6","system_id":"levelo_inurba_marseille","lat":43.29976,"lon":5.37176,"is_reserved":false,"is_disabled":false,"rental_uris":{"android":"levelo://app?vid=9b7f08ae-726f-4c56-9a10-b583e8ee29d6","ios":"levelo://app?vid=9b7f08ae-726f-4c56-9a10-b583e8ee29d6"},"vehicle_type_id":"4","last_reported":1730736680,"current_range_meters":34000,"station_id":"ce4bgr92rcd13ifvqc7g","pricing_plan_id":"cebpf4jnsgd1na2vs0mg"},{"bike_id":"819340a6-562b-46a4-9301-df7b52968f6c","system_id":"levelo_inurba_marseille","lat":43.25112,"lon":5.40319,"is_reserved":false,"is_disabled":false,"rental_uris":{"android":"levelo://app?vid=819340a6-562b-46a4-9301-df7b52968f6c","ios":"levelo://app?vid=819340a6-562b-46a4-9301-df7b52968f6c"},"vehicle_type_id":"4","last_reported":1730736680,"current_range_meters":10000,"station_id":"ce4bhlh2rcd13ifvqgig","pricing_plan_id":"cebpf4jnsgd1na2vs0mg"},{"bike_id":"84826187-31ec-4949-bd9b-654531a44675","system_id":"levelo_inurba_marseille","lat":43.23155,"lon":5.43699,"is_reserved":false,"is_disabled":false,"rental_uris":{"android":"levelo://app?vid=84826187-31ec-4949-bd9b-654531a44675","ios":"levelo://app?vid=84826187-31ec-4949-bd9b-654531a44675"},"vehicle_type_id":"4","last_reported":1730736680,"current_range_meters":23200,"station_id":"ce4bhmp2rcd13ifvqgog","pricing_plan_id":"cebpf4jnsgd1na2vs0mg"},{"bike_id":"8e868ed0-1cfc-4dd9-83f8-18660b8fe0f2","system_id":"levelo_inurba_marseille","lat":43.27178,"lon":5.40992,"is_reserved":false,"is_disabled":false,"rental_uris":{"android":"levelo://app?vid=8e868ed0-1cfc-4dd9-83f8-18660b8fe0f2","ios":"levelo://app?vid=8e868ed0-1cfc-4dd9-83f8-18660b8fe0f2"},"vehicle_type_id":"4","last_reported":1730736680,"current_range_meters":6800,"station_id":"ce4bhl12rcd13ifvqgf0","pricing_plan_id":"cebpf4jnsgd1na2vs0mg"},{"bike_id":"32226b21-dbcc-474c-9004-398b3fdc8208","system_id":"levelo_inurba_marseille","lat":43.2845,"lon":5.35895,"is_reserved":false,"is_disabled":false,"rental_uris":{"android":"levelo://app?vid=32226b21-dbcc-474c-9004-398b3fdc8208","ios":"levelo://app?vid=32226b21-dbcc-474c-9004-398b3fdc8208"},"vehicle_type_id":"4","last_reported":1730736680,"current_range_meters":11600,"station_id":"ce4bhah2rcd13ifvqei0","pricing_plan_id":"cebpf4jnsgd1na2vs0mg"},{"bike_id":"909fd824-d8fe-4d38-b958-5046d8c9169b","system_id":"levelo_inurba_marseille","lat":43.32485,"lon":5.36561,"is_reserved":false,"is_disabled":false,"rental_uris":{"android":"levelo://app?vid=909fd824-d8fe-4d38-b958-5046d8c9169b","ios":"levelo://app?vid=909fd824-d8fe-4d38-b958-5046d8c9169b"},"vehicle_type_id":"4","last_reported":1730736680,"current_range_meters":38800,"station_id":"ce4bhs12rcd13ifvqhvg","pricing_plan_id":"cebpf4jnsgd1na2vs0mg"},{"bike_id":"a1af2309-07e7-4c53-ac6e-dbaf53e4b5c9","system_id":"levelo_inurba_marseille","lat":43.28913,"lon":5.36399,"is_reserved":false,"is_disabled":false,"rental_uris":{"android":"levelo://app?vid=a1af2309-07e7-4c53-ac6e-dbaf53e4b5c9","ios":"levelo://app?vid=a1af2309-07e7-4c53-ac6e-dbaf53e4b5c9"},"vehicle_type_id":"4","last_reported":1730736680,"current_range_meters":10800,"station_id":"ce4bhc92rcd13ifvqetg","pricing_plan_id":"cebpf4jnsgd1na2vs0mg"},{"bike_id":"68dde844-8c82-4e0a-b4a6-77aa4f107c54","system_id":"levelo_inurba_marseille","lat":43.23192,"lon":5.35553,"is_reserved":false,"is_disabled":false,"rental_uris":{"android":"levelo://app?vid=68dde844-8c82-4e0a-b4a6-77aa4f107c54","ios":"levelo://app?vid=68dde844-8c82-4e0a-b4a6-77aa4f107c54"},"vehicle_type_id":"4","last_reported":1730736680,"current_range_meters":38000,"station_id":"ce4bhu92rcd13ifvqi70","pricing_plan_id":"cebpf4jnsgd1na2vs0mg"},{"bike_id":"8cffde54-1769-43e9-9179-97ad75d4680f","system_id":"levelo_inurba_marseille","lat":43.31218,"lon":5.36854,"is_reserved":false,"is_disabled":false,"rental_uris":{"android":"levelo://app?vid=8cffde54-1769-43e9-9179-97ad75d4680f","ios":"levelo://app?vid=8cffde54-1769-43e9-9179-97ad75d4680f"},"vehicle_type_id":"4","last_reported":1730736680,"current_range_meters":38800,"station_id":"ce4bgl92rcd13ifvqbq0","pricing_plan_id":"cebpf4jnsgd1na2vs0mg"},{"bike_id":"06cdb889-2e53-4522-9cb4-d51192d7df18","system_id":"levelo_inurba_marseille","lat":43.27923,"lon":5.39583,"is_reserved":false,"is_disabled":false,"rental_uris":{"android":"levelo://app?vid=06cdb889-2e53-4522-9cb4-d51192d7df18","ios":"levelo://app?vid=06cdb889-2e53-4522-9cb4-d51192d7df18"},"vehicle_type_id":"4","last_reported":1730736680,"current_range_meters":14000,"station_id":"ce4bhf92rcd13ifvqf40","pricing_plan_id":"cebpf4jnsgd1na2vs0mg"},{"bike_id":"8f766b7d-f293-427d-bdf1-95c7aec8b478","system_id":"levelo_inurba_marseille","lat":43.2657,"lon":5.39016,"is_reserved":false,"is_disabled":false,"rental_uris":{"android":"levelo://app?vid=8f766b7d-f293-427d-bdf1-95c7aec8b478","ios":"levelo://app?vid=8f766b7d-f293-427d-bdf1-95c7aec8b478"},"vehicle_type_id":"4","last_reported":1730736680,"current_range_meters":17200,"station_id":"ce4bhe12rcd13ifvqf30","pricing_plan_id":"cebpf4jnsgd1na2vs0mg"},{"bike_id":"a66b88e5-74df-4181-aec9-0c3d8315a275","system_id":"levelo_inurba_marseille","lat":43.31356,"lon":5.36709,"is_reserved":false,"is_disabled":false,"rental_uris":{"android":"levelo://app?vid=a66b88e5-74df-4181-aec9-0c3d8315a275","ios":"levelo://app?vid=a66b88e5-74df-4181-aec9-0c3d8315a275"},"vehicle_type_id":"4","last_reported":1730736680,"current_range_meters":33200,"station_id":"ce4bgr92rcd13ifvqc6g","pricing_plan_id":"cebpf4jnsgd1na2vs0mg"},{"bike_id":"03c5893f-dd1f-4eb4-a22d-82bf6dfdec1f","system_id":"levelo_inurba_marseille","lat":43.29292,"lon":5.36865,"is_reserved":false,"is_disabled":false,"rental_uris":{"android":"levelo://app?vid=03c5893f-dd1f-4eb4-a22d-82bf6dfdec1f","ios":"levelo://app?vid=03c5893f-dd1f-4eb4-a22d-82bf6dfdec1f"},"vehicle_type_id":"4","last_reported":1730736680,"current_range_meters":27600,"station_id":"ce4bh2h2rcd13ifvqdh0","pricing_plan_id":"cebpf4jnsgd1na2vs0mg"},{"bike_id":"ddbe9ad4-f34e-4f30-8c09-c48c64b47111","system_id":"levelo_inurba_marseille","lat":43.29262,"lon":5.40906,"is_reserved":false,"is_disabled":false,"rental_uris":{"android":"levelo://app?vid=ddbe9ad4-f34e-4f30-8c09-c48c64b47111","ios":"levelo://app?vid=ddbe9ad4-f34e-4f30-8c09-c48c64b47111"},"vehicle_type_id":"4","last_reported":1730736680,"current_range_meters":36400,"station_id":"ce4bh192rcd13ifvqdc0","pricing_plan_id":"cebpf4jnsgd1na2vs0mg"},{"bike_id":"ed3cc475-9352-4500-9e2a-f8144dc4b6f1","system_id":"levelo_inurba_marseille","lat":43.3302,"lon":5.39043,"is_reserved":false,"is_disabled":false,"rental_uris":{"android":"levelo://app?vid=ed3cc475-9352-4500-9e2a-f8144dc4b6f1","ios":"levelo://app?vid=ed3cc475-9352-4500-9e2a-f8144dc4b6f1"},"vehicle_type_id":"4","last_reported":1730736680,"current_range_meters":40000,"station_id":"ce4bhr92rcd13ifvqhrg","pricing_plan_id":"cebpf4jnsgd1na2vs0mg"},{"bike_id":"5ca1ca2a-1399-483b-bb3e-2d0b2eb5cc11","system_id":"levelo_inurba_marseille","lat":43.2952,"lon":5.39056,"is_reserved":false,"is_disabled":false,"rental_uris":{"android":"levelo://app?vid=5ca1ca2a-1399-483b-bb3e-2d0b2eb5cc11","ios":"levelo://app?vid=5ca1ca2a-1399-483b-bb3e-2d0b2eb5cc11"},"vehicle_type_id":"4","last_reported":1730736680,"current_range_meters":35200,"station_id":"ce4bh3p2rcd13ifvqdp0","pricing_plan_id":"cebpf4jnsgd1na2vs0mg"},{"bike_id":"521e2ea7-1827-41ed-ae99-7d1155fccb57","system_id":"levelo_inurba_marseille","lat":43.24674,"lon":5.38167,"is_reserved":false,"is_disabled":false,"rental_uris":{"android":"levelo://app?vid=521e2ea7-1827-41ed-ae99-7d1155fccb57","ios":"levelo://app?vid=521e2ea7-1827-41ed-ae99-7d1155fccb57"},"vehicle_type_id":"4","last_reported":1730736680,"current_range_meters":10000,"station_id":"ce4bhih2rcd13ifvqfr0","pricing_plan_id":"cebpf4jnsgd1na2vs0mg"},{"bike_id":"3044ab8e-3335-40b2-9308-f3d6604164a9","system_id":"levelo_inurba_marseille","lat":43.30548,"lon":5.36542,"is_reserved":false,"is_disabled":false,"rental_uris":{"android":"levelo://app?vid=3044ab8e-3335-40b2-9308-f3d6604164a9","ios":"levelo://app?vid=3044ab8e-3335-40b2-9308-f3d6604164a9"},"vehicle_type_id":"4","last_reported":1730736680,"current_range_meters":38800,"station_id":"ce4bgs12rcd13ifvqcag","pricing_plan_id":"cebpf4jnsgd1na2vs0mg"},{"bike_id":"7a58136c-3165-4313-8fac-2c364b399752","system_id":"levelo_inurba_marseille","lat":43.33734,"lon":5.39186,"is_reserved":false,"is_disabled":false,"rental_uris":{"android":"levelo://app?vid=7a58136c-3165-4313-8fac-2c364b399752","ios":"levelo://app?vid=7a58136c-3165-4313-8fac-2c364b399752"},"vehicle_type_id":"4","last_reported":1730736680,"current_range_meters":27600,"station_id":"ce4bhr92rcd13ifvqhsg","pricing_plan_id":"cebpf4jnsgd1na2vs0mg"},{"bike_id":"cf31692d-1fdf-4a85-b4b7-9a031edac417","system_id":"levelo_inurba_marseille","lat":43.23961,"lon":5.36647,"is_reserved":false,"is_disabled":false,"rental_uris":{"android":"levelo://app?vid=cf31692d-1fdf-4a85-b4b7-9a031edac417","ios":"levelo://app?vid=cf31692d-1fdf-4a85-b4b7-9a031edac417"},"vehicle_type_id":"4","last_reported":1730736680,"current_range_meters":18000,"station_id":"ce4bhi12rcd13ifvqfp0","pricing_plan_id":"cebpf4jnsgd1na2vs0mg"},{"bike_id":"3f600127-fe19-4399-8fec-0191ef6e4894","system_id":"levelo_inurba_marseille","lat":43.31166,"lon":5.38729,"is_reserved":false,"is_disabled":false,"rental_uris":{"android":"levelo://app?vid=3f600127-fe19-4399-8fec-0191ef6e4894","ios":"levelo://app?vid=3f600127-fe19-4399-8fec-0191ef6e4894"},"vehicle_type_id":"4","last_reported":1730736680,"current_range_meters":15200,"station_id":"ce4bgv12rcd13ifvqcp0","pricing_plan_id":"cebpf4jnsgd1na2vs0mg"},{"bike_id":"a3ae4c1b-8ed3-43f0-95b2-9f60ca274476","system_id":"levelo_inurba_marseille","lat":43.32478,"lon":5.36576,"is_reserved":false,"is_disabled":false,"rental_uris":{"android":"levelo://app?vid=a3ae4c1b-8ed3-43f0-95b2-9f60ca274476","ios":"levelo://app?vid=a3ae4c1b-8ed3-43f0-95b2-9f60ca274476"},"vehicle_type_id":"4","last_reported":1730736680,"current_range_meters":39200,"station_id":"ce4bhs12rcd13ifvqhvg","pricing_plan_id":"cebpf4jnsgd1na2vs0mg"},{"bike_id":"5fc7697d-503e-4786-89d0-c5a0408a66b0","system_id":"levelo_inurba_marseille","lat":43.32107,"lon":5.36771,"is_reserved":false,"is_disabled":false,"rental_uris":{"android":"levelo://app?vid=5fc7697d-503e-4786-89d0-c5a0408a66b0","ios":"levelo://app?vid=5fc7697d-503e-4786-89d0-c5a0408a66b0"},"vehicle_type_id":"4","last_reported":1730736680,"current_range_meters":8400,"station_id":"ce4bhrh2rcd13ifvqhug","pricing_plan_id":"cebpf4jnsgd1na2vs0mg"},{"bike_id":"35c069d8-41c5-4653-b4bb-6569383034d0","system_id":"levelo_inurba_marseille","lat":43.23183,"lon":5.39988,"is_reserved":false,"is_disabled":false,"rental_uris":{"android":"levelo://app?vid=35c069d8-41c5-4653-b4bb-6569383034d0","ios":"levelo://app?vid=35c069d8-41c5-4653-b4bb-6569383034d0"},"vehicle_type_id":"4","last_reported":1730736680,"current_range_meters":26800,"station_id":"ce4bhn12rcd13ifvqgqg","pricing_plan_id":"cebpf4jnsgd1na2vs0mg"},{"bike_id":"11631e5a-25f5-4552-899d-dc0c452dab65","system_id":"levelo_inurba_marseille","lat":43.32366,"lon":5.38898,"is_reserved":false,"is_disabled":false,"rental_uris":{"android":"levelo://app?vid=11631e5a-25f5-4552-899d-dc0c452dab65","ios":"levelo://app?vid=11631e5a-25f5-4552-899d-dc0c452dab65"},"vehicle_type_id":"4","last_reported":1730736680,"current_range_meters":38800,"station_id":"ce4bhqp2rcd13ifvqhog","pricing_plan_id":"cebpf4jnsgd1na2vs0mg"},{"bike_id":"6b22af91-f7aa-4ef6-98e8-ff81a3411457","system_id":"levelo_inurba_marseille","lat":43.32109,"lon":5.36775,"is_reserved":false,"is_disabled":false,"rental_uris":{"android":"levelo://app?vid=6b22af91-f7aa-4ef6-98e8-ff81a3411457","ios":"levelo://app?vid=6b22af91-f7aa-4ef6-98e8-ff81a3411457"},"vehicle_type_id":"4","last_reported":1730736680,"current_range_meters":36400,"station_id":"ce4bhrh2rcd13ifvqhug","pricing_plan_id":"cebpf4jnsgd1na2vs0mg"},{"bike_id":"d9e44b36-1873-43d5-8e67-c2ca998db9e0","system_id":"levelo_inurba_marseille","lat":43.24808,"lon":5.3746,"is_reserved":false,"is_disabled":false,"rental_uris":{"android":"levelo://app?vid=d9e44b36-1873-43d5-8e67-c2ca998db9e0","ios":"levelo://app?vid=d9e44b36-1873-43d5-8e67-c2ca998db9e0"},"vehicle_type_id":"4","last_reported":1730736680,"current_range_meters":32000,"station_id":"ce4bhgh2rcd13ifvqfb0","pricing_plan_id":"cebpf4jnsgd1na2vs0mg"},{"bike_id":"204aeb60-e480-41f6-8136-fe3f35fcbbed","system_id":"levelo_inurba_marseille","lat":43.2762,"lon":5.36124,"is_reserved":false,"is_disabled":false,"rental_uris":{"android":"levelo://app?vid=204aeb60-e480-41f6-8136-fe3f35fcbbed","ios":"levelo://app?vid=204aeb60-e480-41f6-8136-fe3f35fcbbed"},"vehicle_type_id":"4","last_reported":1730736680,"current_range_meters":19200,"station_id":"ce4bgj92rcd13ifvqbe0","pricing_plan_id":"cebpf4jnsgd1na2vs0mg"},{"bike_id":"f7c2e14a-3320-4728-a907-0443598f40c0","system_id":"levelo_inurba_marseille","lat":43.290224,"lon":5.381307,"is_reserved":false,"is_disabled":false,"rental_uris":{"android":"levelo://app?vid=f7c2e14a-3320-4728-a907-0443598f40c0","ios":"levelo://app?vid=f7c2e14a-3320-4728-a907-0443598f40c0"},"vehicle_type_id":"4","last_reported":1730736680,"current_range_meters":28400,"station_id":"ce4bhoh2rcd13ifvqh5g","pricing_plan_id":"cebpf4jnsgd1na2vs0mg"},{"bike_id":"e7b151eb-3d2f-4273-8ba3-08e9eb4d1993","system_id":"levelo_inurba_marseille","lat":43.25,"lon":5.38936,"is_reserved":false,"is_disabled":false,"rental_uris":{"android":"levelo://app?vid=e7b151eb-3d2f-4273-8ba3-08e9eb4d1993","ios":"levelo://app?vid=e7b151eb-3d2f-4273-8ba3-08e9eb4d1993"},"vehicle_type_id":"4","last_reported":1730736680,"current_range_meters":32400,"station_id":"ce4bhgp2rcd13ifvqfd0","pricing_plan_id":"cebpf4jnsgd1na2vs0mg"},{"bike_id":"167aa4e0-4686-4579-a7d9-91a4a2231f7d","system_id":"levelo_inurba_marseille","lat":43.32483,"lon":5.3657,"is_reserved":false,"is_disabled":false,"rental_uris":{"android":"levelo://app?vid=167aa4e0-4686-4579-a7d9-91a4a2231f7d","ios":"levelo://app?vid=167aa4e0-4686-4579-a7d9-91a4a2231f7d"},"vehicle_type_id":"4","last_reported":1730736680,"current_range_meters":30400,"station_id":"ce4bhs12rcd13ifvqhvg","pricing_plan_id":"cebpf4jnsgd1na2vs0mg"},{"bike_id":"5a1f6623-1ee7-47ed-b333-eda22bb3b163","system_id":"levelo_inurba_marseille","lat":43.29936,"lon":5.3655,"is_reserved":false,"is_disabled":false,"rental_uris":{"android":"levelo://app?vid=5a1f6623-1ee7-47ed-b333-eda22bb3b163","ios":"levelo://app?vid=5a1f6623-1ee7-47ed-b333-eda22bb3b163"},"vehicle_type_id":"4","last_reported":1730736680,"current_range_meters":38000,"station_id":"ce4bgm92rcd13ifvqbr0","pricing_plan_id":"cebpf4jnsgd1na2vs0mg"},{"bike_id":"6db0df53-e51c-44c4-b87e-fc6acdf253e2","system_id":"levelo_inurba_marseille","lat":43.2681,"lon":5.40271,"is_reserved":false,"is_disabled":false,"rental_uris":{"android":"levelo://app?vid=6db0df53-e51c-44c4-b87e-fc6acdf253e2","ios":"levelo://app?vid=6db0df53-e51c-44c4-b87e-fc6acdf253e2"},"vehicle_type_id":"4","last_reported":1730736680,"current_range_meters":26800,"station_id":"ce501612rcd8frsf0b60","pricing_plan_id":"cebpf4jnsgd1na2vs0mg"},{"bike_id":"f18d76b3-aff3-44f0-97ce-80dd35e5f78d","system_id":"levelo_inurba_marseille","lat":43.31335,"lon":5.3671,"is_reserved":false,"is_disabled":false,"rental_uris":{"android":"levelo://app?vid=f18d76b3-aff3-44f0-97ce-80dd35e5f78d","ios":"levelo://app?vid=f18d76b3-aff3-44f0-97ce-80dd35e5f78d"},"vehicle_type_id":"4","last_reported":1730736680,"current_range_meters":28800,"station_id":"ce4bgr92rcd13ifvqc6g","pricing_plan_id":"cebpf4jnsgd1na2vs0mg"},{"bike_id":"2149b024-8ec1-48cb-beed-14b6bfd9bd75","system_id":"levelo_inurba_marseille","lat":43.28457,"lon":5.37462,"is_reserved":false,"is_disabled":false,"rental_uris":{"android":"levelo://app?vid=2149b024-8ec1-48cb-beed-14b6bfd9bd75","ios":"levelo://app?vid=2149b024-8ec1-48cb-beed-14b6bfd9bd75"},"vehicle_type_id":"4","last_reported":1730736680,"current_range_meters":16000,"station_id":"ce4bgj92rcd13ifvqbe0","pricing_plan_id":"cebpf4jnsgd1na2vs0mg"},{"bike_id":"7ff0acce-06b8-4c84-9632-ef83fcc6939b","system_id":"levelo_inurba_marseille","lat":43.2738,"lon":5.36263,"is_reserved":false,"is_disabled":false,"rental_uris":{"android":"levelo://app?vid=7ff0acce-06b8-4c84-9632-ef83fcc6939b","ios":"levelo://app?vid=7ff0acce-06b8-4c84-9632-ef83fcc6939b"},"vehicle_type_id":"4","last_reported":1730736680,"current_range_meters":28800,"station_id":"ce4bhbh2rcd13ifvqeo0","pricing_plan_id":"cebpf4jnsgd1na2vs0mg"},{"bike_id":"36c0dc9c-1e35-424b-a82e-818e8af9139a","system_id":"levelo_inurba_marseille","lat":43.32367,"lon":5.38887,"is_reserved":false,"is_disabled":false,"rental_uris":{"android":"levelo://app?vid=36c0dc9c-1e35-424b-a82e-818e8af9139a","ios":"levelo://app?vid=36c0dc9c-1e35-424b-a82e-818e8af9139a"},"vehicle_type_id":"4","last_reported":1730736680,"current_range_meters":36000,"station_id":"ce4bhqp2rcd13ifvqhog","pricing_plan_id":"cebpf4jnsgd1na2vs0mg"},{"bike_id":"baef9837-9362-4b9e-8378-e964f8208509","system_id":"levelo_inurba_marseille","lat":43.25498,"lon":5.3765,"is_reserved":false,"is_disabled":false,"rental_uris":{"android":"levelo://app?vid=baef9837-9362-4b9e-8378-e964f8208509","ios":"levelo://app?vid=baef9837-9362-4b9e-8378-e964f8208509"},"vehicle_type_id":"4","last_reported":1730736680,"current_range_meters":25200,"station_id":"ce4bhh12rcd13ifvqff0","pricing_plan_id":"cebpf4jnsgd1na2vs0mg"},{"bike_id":"4e72ee59-bdfc-4fc6-9bd8-4ee90be7da9c","system_id":"levelo_inurba_marseille","lat":43.25108,"lon":5.4033,"is_reserved":false,"is_disabled":false,"rental_uris":{"android":"levelo://app?vid=4e72ee59-bdfc-4fc6-9bd8-4ee90be7da9c","ios":"levelo://app?vid=4e72ee59-bdfc-4fc6-9bd8-4ee90be7da9c"},"vehicle_type_id":"4","last_reported":1730736680,"current_range_meters":22800,"station_id":"ce4bhlh2rcd13ifvqgig","pricing_plan_id":"cebpf4jnsgd1na2vs0mg"},{"bike_id":"cb81e8a1-f5c2-4c95-bfcd-076f7f535ffd","system_id":"levelo_inurba_marseille","lat":43.297309,"lon":5.371651,"is_reserved":false,"is_disabled":false,"rental_uris":{"android":"levelo://app?vid=cb81e8a1-f5c2-4c95-bfcd-076f7f535ffd","ios":"levelo://app?vid=cb81e8a1-f5c2-4c95-bfcd-076f7f535ffd"},"vehicle_type_id":"4","last_reported":1730736680,"current_range_meters":18000,"station_id":"","pricing_plan_id":"cebpf4jnsgd1na2vs0mg"},{"bike_id":"60d089be-7fea-4914-a9d4-5162ba4e547d","system_id":"levelo_inurba_marseille","lat":43.25867,"lon":5.39899,"is_reserved":false,"is_disabled":false,"rental_uris":{"android":"levelo://app?vid=60d089be-7fea-4914-a9d4-5162ba4e547d","ios":"levelo://app?vid=60d089be-7fea-4914-a9d4-5162ba4e547d"},"vehicle_type_id":"4","last_reported":1730736680,"current_range_meters":8400,"station_id":"ce4bhl92rcd13ifvqghg","pricing_plan_id":"cebpf4jnsgd1na2vs0mg"},{"bike_id":"62d57a4d-09b1-42f4-8fa5-bede23db884b","system_id":"levelo_inurba_marseille","lat":43.29578,"lon":5.37513,"is_reserved":false,"is_disabled":false,"rental_uris":{"android":"levelo://app?vid=62d57a4d-09b1-42f4-8fa5-bede23db884b","ios":"levelo://app?vid=62d57a4d-09b1-42f4-8fa5-bede23db884b"},"vehicle_type_id":"4","last_reported":1730736680,"current_range_meters":30000,"station_id":"ce4bgh92rcd13ifvqb50","pricing_plan_id":"cebpf4jnsgd1na2vs0mg"},{"bike_id":"998fee5f-b4c5-4a65-925f-67930234af91","system_id":"levelo_inurba_marseille","lat":43.30805,"lon":5.38156,"is_reserved":false,"is_disabled":false,"rental_uris":{"android":"levelo://app?vid=998fee5f-b4c5-4a65-925f-67930234af91","ios":"levelo://app?vid=998fee5f-b4c5-4a65-925f-67930234af91"},"vehicle_type_id":"4","last_reported":1730736680,"current_range_meters":26000,"station_id":"ce4bgt12rcd13ifvqce0","pricing_plan_id":"cebpf4jnsgd1na2vs0mg"},{"bike_id":"820d6615-b44d-4c18-9502-661d0aed8940","system_id":"levelo_inurba_marseille","lat":43.30185,"lon":5.3663,"is_reserved":false,"is_disabled":false,"rental_uris":{"android":"levelo://app?vid=820d6615-b44d-4c18-9502-661d0aed8940","ios":"levelo://app?vid=820d6615-b44d-4c18-9502-661d0aed8940"},"vehicle_type_id":"4","last_reported":1730736680,"current_range_meters":25200,"station_id":"ce4bgrh2rcd13ifvqc8g","pricing_plan_id":"cebpf4jnsgd1na2vs0mg"},{"bike_id":"6d3690c5-423a-4688-b8fe-45b77c849f47","system_id":"levelo_inurba_marseille","lat":43.264618,"lon":5.379373,"is_reserved":false,"is_disabled":false,"rental_uris":{"android":"levelo://app?vid=6d3690c5-423a-4688-b8fe-45b77c849f47","ios":"levelo://app?vid=6d3690c5-423a-4688-b8fe-45b77c849f47"},"vehicle_type_id":"4","last_reported":1730736680,"current_range_meters":30400,"station_id":"","pricing_plan_id":"cebpf4jnsgd1na2vs0mg"},{"bike_id":"b1078aa1-07c9-43e0-baad-b05bfd4fd1d1","system_id":"levelo_inurba_marseille","lat":43.30538,"lon":5.36543,"is_reserved":false,"is_disabled":false,"rental_uris":{"android":"levelo://app?vid=b1078aa1-07c9-43e0-baad-b05bfd4fd1d1","ios":"levelo://app?vid=b1078aa1-07c9-43e0-baad-b05bfd4fd1d1"},"vehicle_type_id":"4","last_reported":1730736680,"current_range_meters":17600,"station_id":"ce4bgs12rcd13ifvqcag","pricing_plan_id":"cebpf4jnsgd1na2vs0mg"},{"bike_id":"b7b698a0-cc48-408c-91f3-bb7048efa6a6","system_id":"levelo_inurba_marseille","lat":43.27808,"lon":5.40708,"is_reserved":false,"is_disabled":false,"rental_uris":{"android":"levelo://app?vid=b7b698a0-cc48-408c-91f3-bb7048efa6a6","ios":"levelo://app?vid=b7b698a0-cc48-408c-91f3-bb7048efa6a6"},"vehicle_type_id":"4","last_reported":1730736680,"current_range_meters":33600,"station_id":"ce4bhnh2rcd13ifvqgtg","pricing_plan_id":"cebpf4jnsgd1na2vs0mg"},{"bike_id":"dcb7a669-4a51-4af0-99fd-2bd6bd494665","system_id":"levelo_inurba_marseille","lat":43.3237,"lon":5.36775,"is_reserved":false,"is_disabled":false,"rental_uris":{"android":"levelo://app?vid=dcb7a669-4a51-4af0-99fd-2bd6bd494665","ios":"levelo://app?vid=dcb7a669-4a51-4af0-99fd-2bd6bd494665"},"vehicle_type_id":"4","last_reported":1730736680,"current_range_meters":6800,"station_id":"ce4bhsh2rcd13ifvqi2g","pricing_plan_id":"cebpf4jnsgd1na2vs0mg"},{"bike_id":"6c555deb-c9ee-44fb-81b2-8dd679bafcd6","system_id":"levelo_inurba_marseille","lat":43.28159,"lon":5.42652,"is_reserved":false,"is_disabled":false,"rental_uris":{"android":"levelo://app?vid=6c555deb-c9ee-44fb-81b2-8dd679bafcd6","ios":"levelo://app?vid=6c555deb-c9ee-44fb-81b2-8dd679bafcd6"},"vehicle_type_id":"4","last_reported":1730736680,"current_range_meters":27200,"station_id":"ce4bh3h2rcd13ifvqdo0","pricing_plan_id":"cebpf4jnsgd1na2vs0mg"},{"bike_id":"7b2daa43-2d7a-4e1a-b26e-724f64bf4f37","system_id":"levelo_inurba_marseille","lat":43.28409,"lon":5.35003,"is_reserved":false,"is_disabled":false,"rental_uris":{"android":"levelo://app?vid=7b2daa43-2d7a-4e1a-b26e-724f64bf4f37","ios":"levelo://app?vid=7b2daa43-2d7a-4e1a-b26e-724f64bf4f37"},"vehicle_type_id":"4","last_reported":1730736680,"current_range_meters":37600,"station_id":"ce4bhbh2rcd13ifvqepg","pricing_plan_id":"cebpf4jnsgd1na2vs0mg"},{"bike_id":"4e72a68c-e6d6-49e8-a685-84eaeb936c64","system_id":"levelo_inurba_marseille","lat":43.28858,"lon":5.35833,"is_reserved":false,"is_disabled":false,"rental_uris":{"android":"levelo://app?vid=4e72a68c-e6d6-49e8-a685-84eaeb936c64","ios":"levelo://app?vid=4e72a68c-e6d6-49e8-a685-84eaeb936c64"},"vehicle_type_id":"4","last_reported":1730736680,"current_range_meters":32800,"station_id":"ce4bhb12rcd13ifvqem0","pricing_plan_id":"cebpf4jnsgd1na2vs0mg"},{"bike_id":"2e9cc0b3-2cff-4dd3-8bf7-7a5f92c46898","system_id":"levelo_inurba_marseille","lat":43.32467,"lon":5.36567,"is_reserved":false,"is_disabled":false,"rental_uris":{"android":"levelo://app?vid=2e9cc0b3-2cff-4dd3-8bf7-7a5f92c46898","ios":"levelo://app?vid=2e9cc0b3-2cff-4dd3-8bf7-7a5f92c46898"},"vehicle_type_id":"4","last_reported":1730736680,"current_range_meters":32800,"station_id":"ce4bhs12rcd13ifvqhvg","pricing_plan_id":"cebpf4jnsgd1na2vs0mg"},{"bike_id":"cc164c79-47b7-41a2-8ddf-f6e1442291cb","system_id":"levelo_inurba_marseille","lat":43.27811,"lon":5.4072,"is_reserved":false,"is_disabled":false,"rental_uris":{"android":"levelo://app?vid=cc164c79-47b7-41a2-8ddf-f6e1442291cb","ios":"levelo://app?vid=cc164c79-47b7-41a2-8ddf-f6e1442291cb"},"vehicle_type_id":"4","last_reported":1730736680,"current_range_meters":26800,"station_id":"ce4bhnh2rcd13ifvqgtg","pricing_plan_id":"cebpf4jnsgd1na2vs0mg"},{"bike_id":"20b7314e-debb-4933-bfda-4d615c84f941","system_id":"levelo_inurba_marseille","lat":43.28658,"lon":5.36362,"is_reserved":false,"is_disabled":false,"rental_uris":{"android":"levelo://app?vid=20b7314e-debb-4933-bfda-4d615c84f941","ios":"levelo://app?vid=20b7314e-debb-4933-bfda-4d615c84f941"},"vehicle_type_id":"4","last_reported":1730736680,"current_range_meters":39200,"station_id":"ce4bhah2rcd13ifvqej0","pricing_plan_id":"cebpf4jnsgd1na2vs0mg"},{"bike_id":"5e11629d-e4bb-4f53-9c0b-55009b728912","system_id":"levelo_inurba_marseille","lat":43.31121,"lon":5.37775,"is_reserved":false,"is_disabled":false,"rental_uris":{"android":"levelo://app?vid=5e11629d-e4bb-4f53-9c0b-55009b728912","ios":"levelo://app?vid=5e11629d-e4bb-4f53-9c0b-55009b728912"},"vehicle_type_id":"4","last_reported":1730736680,"current_range_meters":38400,"station_id":"ce4bgt92rcd13ifvqcg0","pricing_plan_id":"cebpf4jnsgd1na2vs0mg"},{"bike_id":"a7adc7ea-055f-47bb-b719-ed2702addb6b","system_id":"levelo_inurba_marseille","lat":43.284536,"lon":5.358924,"is_reserved":false,"is_disabled":false,"rental_uris":{"android":"levelo://app?vid=a7adc7ea-055f-47bb-b719-ed2702addb6b","ios":"levelo://app?vid=a7adc7ea-055f-47bb-b719-ed2702addb6b"},"vehicle_type_id":"4","last_reported":1730736680,"current_range_meters":36800,"station_id":"ce4bhah2rcd13ifvqei0","pricing_plan_id":"cebpf4jnsgd1na2vs0mg"},{"bike_id":"363ca634-5c6f-4ae9-a9c7-628f3c4df6e1","system_id":"levelo_inurba_marseille","lat":43.23965,"lon":5.36637,"is_reserved":false,"is_disabled":false,"rental_uris":{"android":"levelo://app?vid=363ca634-5c6f-4ae9-a9c7-628f3c4df6e1","ios":"levelo://app?vid=363ca634-5c6f-4ae9-a9c7-628f3c4df6e1"},"vehicle_type_id":"4","last_reported":1730736680,"current_range_meters":36000,"station_id":"ce4bhi12rcd13ifvqfp0","pricing_plan_id":"cebpf4jnsgd1na2vs0mg"},{"bike_id":"e0da1455-c69c-4b35-bb2f-f97ca282332d","system_id":"levelo_inurba_marseille","lat":43.29308,"lon":5.37179,"is_reserved":false,"is_disabled":false,"rental_uris":{"android":"levelo://app?vid=e0da1455-c69c-4b35-bb2f-f97ca282332d","ios":"levelo://app?vid=e0da1455-c69c-4b35-bb2f-f97ca282332d"},"vehicle_type_id":"4","last_reported":1730736680,"current_range_meters":36800,"station_id":"ce4bgh92rcd13ifvqb40","pricing_plan_id":"cebpf4jnsgd1na2vs0mg"},{"bike_id":"ffae7a5c-51e7-46f5-bce7-80f7a54a4745","system_id":"levelo_inurba_marseille","lat":43.23193,"lon":5.35551,"is_reserved":false,"is_disabled":false,"rental_uris":{"android":"levelo://app?vid=ffae7a5c-51e7-46f5-bce7-80f7a54a4745","ios":"levelo://app?vid=ffae7a5c-51e7-46f5-bce7-80f7a54a4745"},"vehicle_type_id":"4","last_reported":1730736680,"current_range_meters":4400,"station_id":"ce4bhu92rcd13ifvqi70","pricing_plan_id":"cebpf4jnsgd1na2vs0mg"},{"bike_id":"4c8e72b5-aba7-4439-8dcc-1e2370b4bb8a","system_id":"levelo_inurba_marseille","lat":43.308,"lon":5.43524,"is_reserved":false,"is_disabled":false,"rental_uris":{"android":"levelo://app?vid=4c8e72b5-aba7-4439-8dcc-1e2370b4bb8a","ios":"levelo://app?vid=4c8e72b5-aba7-4439-8dcc-1e2370b4bb8a"},"vehicle_type_id":"4","last_reported":1730736680,"current_range_meters":38800,"station_id":"ce4bhph2rcd13ifvqheg","pricing_plan_id":"cebpf4jnsgd1na2vs0mg"},{"bike_id":"cc46b8f6-eec4-4966-9882-e190770b2842","system_id":"levelo_inurba_marseille","lat":43.286957,"lon":5.387769,"is_reserved":false,"is_disabled":false,"rental_uris":{"android":"levelo://app?vid=cc46b8f6-eec4-4966-9882-e190770b2842","ios":"levelo://app?vid=cc46b8f6-eec4-4966-9882-e190770b2842"},"vehicle_type_id":"4","last_reported":1730736680,"current_range_meters":20800,"station_id":"","pricing_plan_id":"cebpf4jnsgd1na2vs0mg"},{"bike_id":"a0e5dfa9-9c30-44ce-8d73-1315dd6b49a1","system_id":"levelo_inurba_marseille","lat":43.23958,"lon":5.36652,"is_reserved":false,"is_disabled":false,"rental_uris":{"android":"levelo://app?vid=a0e5dfa9-9c30-44ce-8d73-1315dd6b49a1","ios":"levelo://app?vid=a0e5dfa9-9c30-44ce-8d73-1315dd6b49a1"},"vehicle_type_id":"4","last_reported":1730736680,"current_range_meters":32400,"station_id":"ce4bhi12rcd13ifvqfp0","pricing_plan_id":"cebpf4jnsgd1na2vs0mg"},{"bike_id":"df2f8ca3-8c96-425e-8bc8-1b8cd5ecb042","system_id":"levelo_inurba_marseille","lat":43.29182,"lon":5.37164,"is_reserved":false,"is_disabled":false,"rental_uris":{"android":"levelo://app?vid=df2f8ca3-8c96-425e-8bc8-1b8cd5ecb042","ios":"levelo://app?vid=df2f8ca3-8c96-425e-8bc8-1b8cd5ecb042"},"vehicle_type_id":"4","last_reported":1730736680,"current_range_meters":12400,"station_id":"ce4bha92rcd13ifvqeh0","pricing_plan_id":"cebpf4jnsgd1na2vs0mg"},{"bike_id":"d40c82da-362e-4d1a-bb7d-2c9c0779af83","system_id":"levelo_inurba_marseille","lat":43.29442,"lon":5.39751,"is_reserved":false,"is_disabled":false,"rental_uris":{"android":"levelo://app?vid=d40c82da-362e-4d1a-bb7d-2c9c0779af83","ios":"levelo://app?vid=d40c82da-362e-4d1a-bb7d-2c9c0779af83"},"vehicle_type_id":"4","last_reported":1730736680,"current_range_meters":39200,"station_id":"ce4bh3h2rcd13ifvqdo0","pricing_plan_id":"cebpf4jnsgd1na2vs0mg"},{"bike_id":"4ad7c7c2-8ff3-4ca5-9524-58a7633dd278","system_id":"levelo_inurba_marseille","lat":43.32479,"lon":5.36571,"is_reserved":false,"is_disabled":false,"rental_uris":{"android":"levelo://app?vid=4ad7c7c2-8ff3-4ca5-9524-58a7633dd278","ios":"levelo://app?vid=4ad7c7c2-8ff3-4ca5-9524-58a7633dd278"},"vehicle_type_id":"4","last_reported":1730736680,"current_range_meters":38800,"station_id":"ce4bhs12rcd13ifvqhvg","pricing_plan_id":"cebpf4jnsgd1na2vs0mg"},{"bike_id":"413e5e1a-b3d7-4f76-bc5e-04e07a834afd","system_id":"levelo_inurba_marseille","lat":43.25581,"lon":5.38246,"is_reserved":false,"is_disabled":false,"rental_uris":{"android":"levelo://app?vid=413e5e1a-b3d7-4f76-bc5e-04e07a834afd","ios":"levelo://app?vid=413e5e1a-b3d7-4f76-bc5e-04e07a834afd"},"vehicle_type_id":"4","last_reported":1730736680,"current_range_meters":33600,"station_id":"ce4bhih2rcd13ifvqfs0","pricing_plan_id":"cebpf4jnsgd1na2vs0mg"},{"bike_id":"8a0c7c48-32b8-4262-87fc-fddb59c37ecb","system_id":"levelo_inurba_marseille","lat":43.25577,"lon":5.3824,"is_reserved":false,"is_disabled":false,"rental_uris":{"android":"levelo://app?vid=8a0c7c48-32b8-4262-87fc-fddb59c37ecb","ios":"levelo://app?vid=8a0c7c48-32b8-4262-87fc-fddb59c37ecb"},"vehicle_type_id":"4","last_reported":1730736680,"current_range_meters":31200,"station_id":"ce4bhih2rcd13ifvqfs0","pricing_plan_id":"cebpf4jnsgd1na2vs0mg"},{"bike_id":"263221fe-36d7-4c44-8e0a-cd02cb9fe651","system_id":"levelo_inurba_marseille","lat":43.31633,"lon":5.37335,"is_reserved":false,"is_disabled":false,"rental_uris":{"android":"levelo://app?vid=263221fe-36d7-4c44-8e0a-cd02cb9fe651","ios":"levelo://app?vid=263221fe-36d7-4c44-8e0a-cd02cb9fe651"},"vehicle_type_id":"4","last_reported":1730736680,"current_range_meters":32800,"station_id":"ce4bgt12rcd13ifvqcd0","pricing_plan_id":"cebpf4jnsgd1na2vs0mg"},{"bike_id":"7cdfbbb9-46de-4f0a-b260-57fa7733b204","system_id":"levelo_inurba_marseille","lat":43.31328,"lon":5.39707,"is_reserved":false,"is_disabled":false,"rental_uris":{"android":"levelo://app?vid=7cdfbbb9-46de-4f0a-b260-57fa7733b204","ios":"levelo://app?vid=7cdfbbb9-46de-4f0a-b260-57fa7733b204"},"vehicle_type_id":"4","last_reported":1730736680,"current_range_meters":32000,"station_id":"ce4bgvp2rcd13ifvqcu0","pricing_plan_id":"cebpf4jnsgd1na2vs0mg"},{"bike_id":"910d4607-c6c8-461d-931a-dc821bbb4280","system_id":"levelo_inurba_marseille","lat":43.24547,"lon":5.39526,"is_reserved":false,"is_disabled":false,"rental_uris":{"android":"levelo://app?vid=910d4607-c6c8-461d-931a-dc821bbb4280","ios":"levelo://app?vid=910d4607-c6c8-461d-931a-dc821bbb4280"},"vehicle_type_id":"4","last_reported":1730736680,"current_range_meters":30400,"station_id":"ce4bhlp2rcd13ifvqgjg","pricing_plan_id":"cebpf4jnsgd1na2vs0mg"},{"bike_id":"20a411bf-9423-41fb-974f-f73157d2a98a","system_id":"levelo_inurba_marseille","lat":43.30534,"lon":5.36554,"is_reserved":false,"is_disabled":false,"rental_uris":{"android":"levelo://app?vid=20a411bf-9423-41fb-974f-f73157d2a98a","ios":"levelo://app?vid=20a411bf-9423-41fb-974f-f73157d2a98a"},"vehicle_type_id":"4","last_reported":1730736680,"current_range_meters":39200,"station_id":"ce4bgs12rcd13ifvqcag","pricing_plan_id":"cebpf4jnsgd1na2vs0mg"},{"bike_id":"312997c3-889c-4c52-9bf2-e2e764308b2b","system_id":"levelo_inurba_marseille","lat":43.29662,"lon":5.37305,"is_reserved":false,"is_disabled":false,"rental_uris":{"android":"levelo://app?vid=312997c3-889c-4c52-9bf2-e2e764308b2b","ios":"levelo://app?vid=312997c3-889c-4c52-9bf2-e2e764308b2b"},"vehicle_type_id":"4","last_reported":1730736680,"current_range_meters":16000,"station_id":"ce4bgk12rcd13ifvqbj0","pricing_plan_id":"cebpf4jnsgd1na2vs0mg"},{"bike_id":"bc83dfa3-8c72-44f7-b79b-8f97bb7fd1f8","system_id":"levelo_inurba_marseille","lat":43.32001,"lon":5.38157,"is_reserved":false,"is_disabled":false,"rental_uris":{"android":"levelo://app?vid=bc83dfa3-8c72-44f7-b79b-8f97bb7fd1f8","ios":"levelo://app?vid=bc83dfa3-8c72-44f7-b79b-8f97bb7fd1f8"},"vehicle_type_id":"4","last_reported":1730736680,"current_range_meters":34000,"station_id":"ce4bhr12rcd13ifvqhpg","pricing_plan_id":"cebpf4jnsgd1na2vs0mg"},{"bike_id":"71bcb08e-e7af-4ed1-907c-5d1bb83b0408","system_id":"levelo_inurba_marseille","lat":43.3248,"lon":5.36558,"is_reserved":false,"is_disabled":false,"rental_uris":{"android":"levelo://app?vid=71bcb08e-e7af-4ed1-907c-5d1bb83b0408","ios":"levelo://app?vid=71bcb08e-e7af-4ed1-907c-5d1bb83b0408"},"vehicle_type_id":"4","last_reported":1730736680,"current_range_meters":38800,"station_id":"ce4bhs12rcd13ifvqhvg","pricing_plan_id":"cebpf4jnsgd1na2vs0mg"},{"bike_id":"bbefb788-6bf1-4b90-bb4b-ea34d0f15846","system_id":"levelo_inurba_marseille","lat":43.23184,"lon":5.39988,"is_reserved":false,"is_disabled":false,"rental_uris":{"android":"levelo://app?vid=bbefb788-6bf1-4b90-bb4b-ea34d0f15846","ios":"levelo://app?vid=bbefb788-6bf1-4b90-bb4b-ea34d0f15846"},"vehicle_type_id":"4","last_reported":1730736680,"current_range_meters":2800,"station_id":"ce4bhn12rcd13ifvqgqg","pricing_plan_id":"cebpf4jnsgd1na2vs0mg"},{"bike_id":"791781c6-e597-416c-a47f-0aeadb398fa1","system_id":"levelo_inurba_marseille","lat":43.29248,"lon":5.368906,"is_reserved":false,"is_disabled":false,"rental_uris":{"android":"levelo://app?vid=791781c6-e597-416c-a47f-0aeadb398fa1","ios":"levelo://app?vid=791781c6-e597-416c-a47f-0aeadb398fa1"},"vehicle_type_id":"4","last_reported":1730736680,"current_range_meters":29600,"station_id":"ce4bhbp2rcd13ifvqesg","pricing_plan_id":"cebpf4jnsgd1na2vs0mg"},{"bike_id":"5c2f3c4a-2b73-45da-9d81-ec69a9adceb4","system_id":"levelo_inurba_marseille","lat":43.258636,"lon":5.399044,"is_reserved":false,"is_disabled":false,"rental_uris":{"android":"levelo://app?vid=5c2f3c4a-2b73-45da-9d81-ec69a9adceb4","ios":"levelo://app?vid=5c2f3c4a-2b73-45da-9d81-ec69a9adceb4"},"vehicle_type_id":"4","last_reported":1730736680,"current_range_meters":2800,"station_id":"ce4bhl92rcd13ifvqghg","pricing_plan_id":"cebpf4jnsgd1na2vs0mg"},{"bike_id":"f1a9c225-d25c-406f-a877-fc38940cf856","system_id":"levelo_inurba_marseille","lat":43.30548,"lon":5.36545,"is_reserved":false,"is_disabled":false,"rental_uris":{"android":"levelo://app?vid=f1a9c225-d25c-406f-a877-fc38940cf856","ios":"levelo://app?vid=f1a9c225-d25c-406f-a877-fc38940cf856"},"vehicle_type_id":"4","last_reported":1730736680,"current_range_meters":25200,"station_id":"ce4bgs12rcd13ifvqcag","pricing_plan_id":"cebpf4jnsgd1na2vs0mg"},{"bike_id":"09c4e025-0035-4b02-9331-e4c6e4b55438","system_id":"levelo_inurba_marseille","lat":43.30361,"lon":5.39151,"is_reserved":false,"is_disabled":false,"rental_uris":{"android":"levelo://app?vid=09c4e025-0035-4b02-9331-e4c6e4b55438","ios":"levelo://app?vid=09c4e025-0035-4b02-9331-e4c6e4b55438"},"vehicle_type_id":"4","last_reported":1730736680,"current_range_meters":28000,"station_id":"","pricing_plan_id":"cebpf4jnsgd1na2vs0mg"},{"bike_id":"b6c579e6-f604-49f0-9b9d-b915e38657ec","system_id":"levelo_inurba_marseille","lat":43.25722,"lon":5.41113,"is_reserved":false,"is_disabled":false,"rental_uris":{"android":"levelo://app?vid=b6c579e6-f604-49f0-9b9d-b915e38657ec","ios":"levelo://app?vid=b6c579e6-f604-49f0-9b9d-b915e38657ec"},"vehicle_type_id":"4","last_reported":1730736680,"current_range_meters":22800,"station_id":"ce4bhkp2rcd13ifvqgd0","pricing_plan_id":"cebpf4jnsgd1na2vs0mg"},{"bike_id":"cc84e075-2032-4e2d-a127-d2ee4b22f3c6","system_id":"levelo_inurba_marseille","lat":43.28094,"lon":5.37861,"is_reserved":false,"is_disabled":false,"rental_uris":{"android":"levelo://app?vid=cc84e075-2032-4e2d-a127-d2ee4b22f3c6","ios":"levelo://app?vid=cc84e075-2032-4e2d-a127-d2ee4b22f3c6"},"vehicle_type_id":"4","last_reported":1730736680,"current_range_meters":39200,"station_id":"ce4bha12rcd13ifvqee0","pricing_plan_id":"cebpf4jnsgd1na2vs0mg"},{"bike_id":"c9ef7e76-74e4-4f08-9a0a-13c728728084","system_id":"levelo_inurba_marseille","lat":43.30551,"lon":5.36537,"is_reserved":false,"is_disabled":false,"rental_uris":{"android":"levelo://app?vid=c9ef7e76-74e4-4f08-9a0a-13c728728084","ios":"levelo://app?vid=c9ef7e76-74e4-4f08-9a0a-13c728728084"},"vehicle_type_id":"4","last_reported":1730736680,"current_range_meters":38000,"station_id":"ce4bgs12rcd13ifvqcag","pricing_plan_id":"cebpf4jnsgd1na2vs0mg"},{"bike_id":"dbbbf5ff-94b2-44f9-9d08-77b710c1b585","system_id":"levelo_inurba_marseille","lat":43.32658,"lon":5.40993,"is_reserved":false,"is_disabled":false,"rental_uris":{"android":"levelo://app?vid=dbbbf5ff-94b2-44f9-9d08-77b710c1b585","ios":"levelo://app?vid=dbbbf5ff-94b2-44f9-9d08-77b710c1b585"},"vehicle_type_id":"4","last_reported":1730736680,"current_range_meters":16800,"station_id":"ce4bhpp2rcd13ifvqhgg","pricing_plan_id":"cebpf4jnsgd1na2vs0mg"},{"bike_id":"0d7f5abc-e1bb-4529-9fdd-339728f27c86","system_id":"levelo_inurba_marseille","lat":43.24649,"lon":5.38905,"is_reserved":false,"is_disabled":false,"rental_uris":{"android":"levelo://app?vid=0d7f5abc-e1bb-4529-9fdd-339728f27c86","ios":"levelo://app?vid=0d7f5abc-e1bb-4529-9fdd-339728f27c86"},"vehicle_type_id":"4","last_reported":1730736680,"current_range_meters":28800,"station_id":"ce4bhg12rcd13ifvqf60","pricing_plan_id":"cebpf4jnsgd1na2vs0mg"},{"bike_id":"9f428f06-7509-42fa-95d5-d9f67a042bfe","system_id":"levelo_inurba_marseille","lat":43.26674,"lon":5.38269,"is_reserved":false,"is_disabled":false,"rental_uris":{"android":"levelo://app?vid=9f428f06-7509-42fa-95d5-d9f67a042bfe","ios":"levelo://app?vid=9f428f06-7509-42fa-95d5-d9f67a042bfe"},"vehicle_type_id":"4","last_reported":1730736680,"current_range_meters":32400,"station_id":"ce4bhg92rcd13ifvqf90","pricing_plan_id":"cebpf4jnsgd1na2vs0mg"},{"bike_id":"b1488e95-fb73-4b2f-9416-d699d5994628","system_id":"levelo_inurba_marseille","lat":43.24554,"lon":5.39522,"is_reserved":false,"is_disabled":false,"rental_uris":{"android":"levelo://app?vid=b1488e95-fb73-4b2f-9416-d699d5994628","ios":"levelo://app?vid=b1488e95-fb73-4b2f-9416-d699d5994628"},"vehicle_type_id":"4","last_reported":1730736680,"current_range_meters":34000,"station_id":"ce4bhlp2rcd13ifvqgjg","pricing_plan_id":"cebpf4jnsgd1na2vs0mg"},{"bike_id":"9a99b97f-418e-4da1-8b15-d8d075169904","system_id":"levelo_inurba_marseille","lat":43.29418,"lon":5.38624,"is_reserved":false,"is_disabled":false,"rental_uris":{"android":"levelo://app?vid=9a99b97f-418e-4da1-8b15-d8d075169904","ios":"levelo://app?vid=9a99b97f-418e-4da1-8b15-d8d075169904"},"vehicle_type_id":"4","last_reported":1730736680,"current_range_meters":24800,"station_id":"ce4bh2h2rcd13ifvqdh0","pricing_plan_id":"cebpf4jnsgd1na2vs0mg"},{"bike_id":"4ca6903e-8821-43f4-9e75-e344e5c3a724","system_id":"levelo_inurba_marseille","lat":43.29559,"lon":5.42294,"is_reserved":false,"is_disabled":false,"rental_uris":{"android":"levelo://app?vid=4ca6903e-8821-43f4-9e75-e344e5c3a724","ios":"levelo://app?vid=4ca6903e-8821-43f4-9e75-e344e5c3a724"},"vehicle_type_id":"4","last_reported":1730736680,"current_range_meters":26000,"station_id":"ce4bhph2rcd13ifvqhdg","pricing_plan_id":"cebpf4jnsgd1na2vs0mg"},{"bike_id":"6bdda5da-148e-4d45-8bbd-bee557066c11","system_id":"levelo_inurba_marseille","lat":43.28851,"lon":5.35852,"is_reserved":false,"is_disabled":false,"rental_uris":{"android":"levelo://app?vid=6bdda5da-148e-4d45-8bbd-bee557066c11","ios":"levelo://app?vid=6bdda5da-148e-4d45-8bbd-bee557066c11"},"vehicle_type_id":"4","last_reported":1730736680,"current_range_meters":24800,"station_id":"ce4bhb12rcd13ifvqem0","pricing_plan_id":"cebpf4jnsgd1na2vs0mg"},{"bike_id":"2274338d-825b-45f7-9d65-08dc30936a15","system_id":"levelo_inurba_marseille","lat":43.26215,"lon":5.37441,"is_reserved":false,"is_disabled":false,"rental_uris":{"android":"levelo://app?vid=2274338d-825b-45f7-9d65-08dc30936a15","ios":"levelo://app?vid=2274338d-825b-45f7-9d65-08dc30936a15"},"vehicle_type_id":"4","last_reported":1730736680,"current_range_meters":27600,"station_id":"ce4bhgp2rcd13ifvqfc0","pricing_plan_id":"cebpf4jnsgd1na2vs0mg"},{"bike_id":"41ee1c60-53c4-41ae-8a7b-0dbc30504bd3","system_id":"levelo_inurba_marseille","lat":43.32659,"lon":5.40988,"is_reserved":false,"is_disabled":false,"rental_uris":{"android":"levelo://app?vid=41ee1c60-53c4-41ae-8a7b-0dbc30504bd3","ios":"levelo://app?vid=41ee1c60-53c4-41ae-8a7b-0dbc30504bd3"},"vehicle_type_id":"4","last_reported":1730736680,"current_range_meters":38000,"station_id":"ce4bhpp2rcd13ifvqhgg","pricing_plan_id":"cebpf4jnsgd1na2vs0mg"},{"bike_id":"f221ba42-11d7-4fc9-b6d1-bfd6222105aa","system_id":"levelo_inurba_marseille","lat":43.26029,"lon":5.37554,"is_reserved":false,"is_disabled":false,"rental_uris":{"android":"levelo://app?vid=f221ba42-11d7-4fc9-b6d1-bfd6222105aa","ios":"levelo://app?vid=f221ba42-11d7-4fc9-b6d1-bfd6222105aa"},"vehicle_type_id":"4","last_reported":1730736680,"current_range_meters":32400,"station_id":"ce4bhgh2rcd13ifvqfa0","pricing_plan_id":"cebpf4jnsgd1na2vs0mg"},{"bike_id":"a53c99bc-70a0-405b-a34e-159227b8e9b5","system_id":"levelo_inurba_marseille","lat":43.25085,"lon":5.39524,"is_reserved":false,"is_disabled":false,"rental_uris":{"android":"levelo://app?vid=a53c99bc-70a0-405b-a34e-159227b8e9b5","ios":"levelo://app?vid=a53c99bc-70a0-405b-a34e-159227b8e9b5"},"vehicle_type_id":"4","last_reported":1730736680,"current_range_meters":22800,"station_id":"ce4bhm12rcd13ifvqgkg","pricing_plan_id":"cebpf4jnsgd1na2vs0mg"},{"bike_id":"ac901087-36ca-47ab-bdc9-899cbff48ef0","system_id":"levelo_inurba_marseille","lat":43.28481,"lon":5.38538,"is_reserved":false,"is_disabled":false,"rental_uris":{"android":"levelo://app?vid=ac901087-36ca-47ab-bdc9-899cbff48ef0","ios":"levelo://app?vid=ac901087-36ca-47ab-bdc9-899cbff48ef0"},"vehicle_type_id":"4","last_reported":1730736680,"current_range_meters":33600,"station_id":"ce4bh8p2rcd13ifvqeb0","pricing_plan_id":"cebpf4jnsgd1na2vs0mg"},{"bike_id":"9a44c08f-c808-47ff-8d0d-0bf8b328bc1d","system_id":"levelo_inurba_marseille","lat":43.30327,"lon":5.40445,"is_reserved":false,"is_disabled":false,"rental_uris":{"android":"levelo://app?vid=9a44c08f-c808-47ff-8d0d-0bf8b328bc1d","ios":"levelo://app?vid=9a44c08f-c808-47ff-8d0d-0bf8b328bc1d"},"vehicle_type_id":"4","last_reported":1730736680,"current_range_meters":28800,"station_id":"ce4bh012rcd13ifvqd10","pricing_plan_id":"cebpf4jnsgd1na2vs0mg"},{"bike_id":"db21e849-8d13-48e1-821a-115902ca9b3c","system_id":"levelo_inurba_marseille","lat":43.30894,"lon":5.36825,"is_reserved":false,"is_disabled":false,"rental_uris":{"android":"levelo://app?vid=db21e849-8d13-48e1-821a-115902ca9b3c","ios":"levelo://app?vid=db21e849-8d13-48e1-821a-115902ca9b3c"},"vehicle_type_id":"4","last_reported":1730736680,"current_range_meters":11200,"station_id":"ce4bgn92rcd13ifvqbvg","pricing_plan_id":"cebpf4jnsgd1na2vs0mg"},{"bike_id":"89860ea7-c0de-43dc-9049-302182c93865","system_id":"levelo_inurba_marseille","lat":43.27375,"lon":5.3626,"is_reserved":false,"is_disabled":false,"rental_uris":{"android":"levelo://app?vid=89860ea7-c0de-43dc-9049-302182c93865","ios":"levelo://app?vid=89860ea7-c0de-43dc-9049-302182c93865"},"vehicle_type_id":"4","last_reported":1730736680,"current_range_meters":30400,"station_id":"ce4bhbh2rcd13ifvqeo0","pricing_plan_id":"cebpf4jnsgd1na2vs0mg"},{"bike_id":"2489eaa0-a1d8-43aa-ac04-df79be5798e0","system_id":"levelo_inurba_marseille","lat":43.2718,"lon":5.40993,"is_reserved":false,"is_disabled":false,"rental_uris":{"android":"levelo://app?vid=2489eaa0-a1d8-43aa-ac04-df79be5798e0","ios":"levelo://app?vid=2489eaa0-a1d8-43aa-ac04-df79be5798e0"},"vehicle_type_id":"4","last_reported":1730736680,"current_range_meters":39200,"station_id":"ce4bhl12rcd13ifvqgf0","pricing_plan_id":"cebpf4jnsgd1na2vs0mg"},{"bike_id":"a8baf8ee-4e9e-4246-b925-e7008fa230b9","system_id":"levelo_inurba_marseille","lat":43.28045,"lon":5.36943,"is_reserved":false,"is_disabled":false,"rental_uris":{"android":"levelo://app?vid=a8baf8ee-4e9e-4246-b925-e7008fa230b9","ios":"levelo://app?vid=a8baf8ee-4e9e-4246-b925-e7008fa230b9"},"vehicle_type_id":"4","last_reported":1730736680,"current_range_meters":38800,"station_id":"ce4bha12rcd13ifvqef0","pricing_plan_id":"cebpf4jnsgd1na2vs0mg"},{"bike_id":"e06eb96b-54b6-488a-a573-64450e8e7bcd","system_id":"levelo_inurba_marseille","lat":43.29895,"lon":5.386406,"is_reserved":false,"is_disabled":false,"rental_uris":{"android":"levelo://app?vid=e06eb96b-54b6-488a-a573-64450e8e7bcd","ios":"levelo://app?vid=e06eb96b-54b6-488a-a573-64450e8e7bcd"},"vehicle_type_id":"4","last_reported":1730736680,"current_range_meters":35600,"station_id":"ce4bh392rcd13ifvqdl0","pricing_plan_id":"cebpf4jnsgd1na2vs0mg"},{"bike_id":"3a801cbb-1e2e-46c3-bc85-0c5198b9902c","system_id":"levelo_inurba_marseille","lat":43.26529,"lon":5.38845,"is_reserved":false,"is_disabled":false,"rental_uris":{"android":"levelo://app?vid=3a801cbb-1e2e-46c3-bc85-0c5198b9902c","ios":"levelo://app?vid=3a801cbb-1e2e-46c3-bc85-0c5198b9902c"},"vehicle_type_id":"4","last_reported":1730736680,"current_range_meters":26000,"station_id":"","pricing_plan_id":"cebpf4jnsgd1na2vs0mg"},{"bike_id":"0ad4d9f0-5cfb-456e-98d1-4eb95ab7d61c","system_id":"levelo_inurba_marseille","lat":43.3171,"lon":5.37748,"is_reserved":false,"is_disabled":false,"rental_uris":{"android":"levelo://app?vid=0ad4d9f0-5cfb-456e-98d1-4eb95ab7d61c","ios":"levelo://app?vid=0ad4d9f0-5cfb-456e-98d1-4eb95ab7d61c"},"vehicle_type_id":"4","last_reported":1730736680,"current_range_meters":21600,"station_id":"ce4bgth2rcd13ifvqch0","pricing_plan_id":"cebpf4jnsgd1na2vs0mg"},{"bike_id":"bda63e9e-7279-4bee-b4bf-44c4f6d17714","system_id":"levelo_inurba_marseille","lat":43.23956,"lon":5.36642,"is_reserved":false,"is_disabled":false,"rental_uris":{"android":"levelo://app?vid=bda63e9e-7279-4bee-b4bf-44c4f6d17714","ios":"levelo://app?vid=bda63e9e-7279-4bee-b4bf-44c4f6d17714"},"vehicle_type_id":"4","last_reported":1730736680,"current_range_meters":18000,"station_id":"ce4bhi12rcd13ifvqfp0","pricing_plan_id":"cebpf4jnsgd1na2vs0mg"},{"bike_id":"9da2fc11-d3d0-4266-97fd-e58782ae7c83","system_id":"levelo_inurba_marseille","lat":43.30183,"lon":5.36629,"is_reserved":false,"is_disabled":false,"rental_uris":{"android":"levelo://app?vid=9da2fc11-d3d0-4266-97fd-e58782ae7c83","ios":"levelo://app?vid=9da2fc11-d3d0-4266-97fd-e58782ae7c83"},"vehicle_type_id":"4","last_reported":1730736680,"current_range_meters":26800,"station_id":"ce4bgrh2rcd13ifvqc8g","pricing_plan_id":"cebpf4jnsgd1na2vs0mg"},{"bike_id":"931a2ab2-824f-49bd-af90-42a7fc3b36da","system_id":"levelo_inurba_marseille","lat":43.25493,"lon":5.37647,"is_reserved":false,"is_disabled":false,"rental_uris":{"android":"levelo://app?vid=931a2ab2-824f-49bd-af90-42a7fc3b36da","ios":"levelo://app?vid=931a2ab2-824f-49bd-af90-42a7fc3b36da"},"vehicle_type_id":"4","last_reported":1730736680,"current_range_meters":14800,"station_id":"ce4bhh12rcd13ifvqff0","pricing_plan_id":"cebpf4jnsgd1na2vs0mg"},{"bike_id":"17438aa3-9b53-4bf2-bd09-4449e2700a5a","system_id":"levelo_inurba_marseille","lat":43.27425,"lon":5.39411,"is_reserved":false,"is_disabled":false,"rental_uris":{"android":"levelo://app?vid=17438aa3-9b53-4bf2-bd09-4449e2700a5a","ios":"levelo://app?vid=17438aa3-9b53-4bf2-bd09-4449e2700a5a"},"vehicle_type_id":"4","last_reported":1730736680,"current_range_meters":20000,"station_id":"ce4bhdp2rcd13ifvqf20","pricing_plan_id":"cebpf4jnsgd1na2vs0mg"},{"bike_id":"ffaa6031-4bac-44d2-9a47-7e68e8c361c7","system_id":"levelo_inurba_marseille","lat":43.30416,"lon":5.41291,"is_reserved":false,"is_disabled":false,"rental_uris":{"android":"levelo://app?vid=ffaa6031-4bac-44d2-9a47-7e68e8c361c7","ios":"levelo://app?vid=ffaa6031-4bac-44d2-9a47-7e68e8c361c7"},"vehicle_type_id":"4","last_reported":1730736680,"current_range_meters":9200,"station_id":"ce4bhop2rcd13ifvqh8g","pricing_plan_id":"cebpf4jnsgd1na2vs0mg"},{"bike_id":"681be04e-ef65-460d-b1bb-5246ed302e13","system_id":"levelo_inurba_marseille","lat":43.271592,"lon":5.421788,"is_reserved":false,"is_disabled":false,"rental_uris":{"android":"levelo://app?vid=681be04e-ef65-460d-b1bb-5246ed302e13","ios":"levelo://app?vid=681be04e-ef65-460d-b1bb-5246ed302e13"},"vehicle_type_id":"4","last_reported":1730736680,"current_range_meters":32000,"station_id":"ce4bhk92rcd13ifvqgb0","pricing_plan_id":"cebpf4jnsgd1na2vs0mg"},{"bike_id":"7f107f4b-d72e-4335-8f04-51f99172e741","system_id":"levelo_inurba_marseille","lat":43.3055,"lon":5.36534,"is_reserved":false,"is_disabled":false,"rental_uris":{"android":"levelo://app?vid=7f107f4b-d72e-4335-8f04-51f99172e741","ios":"levelo://app?vid=7f107f4b-d72e-4335-8f04-51f99172e741"},"vehicle_type_id":"4","last_reported":1730736680,"current_range_meters":12000,"station_id":"ce4bgs12rcd13ifvqcag","pricing_plan_id":"cebpf4jnsgd1na2vs0mg"},{"bike_id":"d5e3df69-1f9c-4c8e-8e02-7cdf8d326a9c","system_id":"levelo_inurba_marseille","lat":43.23963,"lon":5.36636,"is_reserved":false,"is_disabled":false,"rental_uris":{"android":"levelo://app?vid=d5e3df69-1f9c-4c8e-8e02-7cdf8d326a9c","ios":"levelo://app?vid=d5e3df69-1f9c-4c8e-8e02-7cdf8d326a9c"},"vehicle_type_id":"4","last_reported":1730736680,"current_range_meters":17600,"station_id":"ce4bhi12rcd13ifvqfp0","pricing_plan_id":"cebpf4jnsgd1na2vs0mg"},{"bike_id":"d3558b98-d723-44fb-9053-768e4ed9bd86","system_id":"levelo_inurba_marseille","lat":43.27069,"lon":5.42278,"is_reserved":false,"is_disabled":false,"rental_uris":{"android":"levelo://app?vid=d3558b98-d723-44fb-9053-768e4ed9bd86","ios":"levelo://app?vid=d3558b98-d723-44fb-9053-768e4ed9bd86"},"vehicle_type_id":"4","last_reported":1730736680,"current_range_meters":29600,"station_id":"ce4bhk92rcd13ifvqgb0","pricing_plan_id":"cebpf4jnsgd1na2vs0mg"},{"bike_id":"86e2edf2-6c68-4fd0-a42d-112551ca1d63","system_id":"levelo_inurba_marseille","lat":43.303257,"lon":5.404407,"is_reserved":false,"is_disabled":false,"rental_uris":{"android":"levelo://app?vid=86e2edf2-6c68-4fd0-a42d-112551ca1d63","ios":"levelo://app?vid=86e2edf2-6c68-4fd0-a42d-112551ca1d63"},"vehicle_type_id":"4","last_reported":1730736680,"current_range_meters":22000,"station_id":"ce4bh012rcd13ifvqd10","pricing_plan_id":"cebpf4jnsgd1na2vs0mg"},{"bike_id":"6dab9f6a-7cbf-4ea8-8bdb-b980a991034a","system_id":"levelo_inurba_marseille","lat":43.27991,"lon":5.41666,"is_reserved":false,"is_disabled":false,"rental_uris":{"android":"levelo://app?vid=6dab9f6a-7cbf-4ea8-8bdb-b980a991034a","ios":"levelo://app?vid=6dab9f6a-7cbf-4ea8-8bdb-b980a991034a"},"vehicle_type_id":"4","last_reported":1730736680,"current_range_meters":28400,"station_id":"ce4bho12rcd13ifvqh1g","pricing_plan_id":"cebpf4jnsgd1na2vs0mg"},{"bike_id":"e17e8883-a89d-42b2-a2c9-e4aba26df99c","system_id":"levelo_inurba_marseille","lat":43.32474,"lon":5.36568,"is_reserved":false,"is_disabled":false,"rental_uris":{"android":"levelo://app?vid=e17e8883-a89d-42b2-a2c9-e4aba26df99c","ios":"levelo://app?vid=e17e8883-a89d-42b2-a2c9-e4aba26df99c"},"vehicle_type_id":"4","last_reported":1730736680,"current_range_meters":36000,"station_id":"ce4bhs12rcd13ifvqhvg","pricing_plan_id":"cebpf4jnsgd1na2vs0mg"},{"bike_id":"e245df8a-e13a-483b-a298-6adc370c9f71","system_id":"levelo_inurba_marseille","lat":43.26062,"lon":5.39398,"is_reserved":false,"is_disabled":false,"rental_uris":{"android":"levelo://app?vid=e245df8a-e13a-483b-a298-6adc370c9f71","ios":"levelo://app?vid=e245df8a-e13a-483b-a298-6adc370c9f71"},"vehicle_type_id":"4","last_reported":1730736680,"current_range_meters":10000,"station_id":"ce4bhh92rcd13ifvqfj0","pricing_plan_id":"cebpf4jnsgd1na2vs0mg"},{"bike_id":"5ba7945a-0e50-455f-9195-a3e9c9409405","system_id":"levelo_inurba_marseille","lat":43.28267,"lon":5.35064,"is_reserved":false,"is_disabled":false,"rental_uris":{"android":"levelo://app?vid=5ba7945a-0e50-455f-9195-a3e9c9409405","ios":"levelo://app?vid=5ba7945a-0e50-455f-9195-a3e9c9409405"},"vehicle_type_id":"4","last_reported":1730736680,"current_range_meters":8000,"station_id":"ce4bhbp2rcd13ifvqerg","pricing_plan_id":"cebpf4jnsgd1na2vs0mg"},{"bike_id":"e9436a4e-4fa9-472d-bf36-53c1a2c21c02","system_id":"levelo_inurba_marseille","lat":43.26556,"lon":5.37287,"is_reserved":false,"is_disabled":false,"rental_uris":{"android":"levelo://app?vid=e9436a4e-4fa9-472d-bf36-53c1a2c21c02","ios":"levelo://app?vid=e9436a4e-4fa9-472d-bf36-53c1a2c21c02"},"vehicle_type_id":"4","last_reported":1730736680,"current_range_meters":37600,"station_id":"ce4bhg12rcd13ifvqf70","pricing_plan_id":"cebpf4jnsgd1na2vs0mg"},{"bike_id":"73c7333d-3aaf-41ff-ac5e-f415aac965c1","system_id":"levelo_inurba_marseille","lat":43.27808,"lon":5.40717,"is_reserved":false,"is_disabled":false,"rental_uris":{"android":"levelo://app?vid=73c7333d-3aaf-41ff-ac5e-f415aac965c1","ios":"levelo://app?vid=73c7333d-3aaf-41ff-ac5e-f415aac965c1"},"vehicle_type_id":"4","last_reported":1730736680,"current_range_meters":6800,"station_id":"ce4bhnh2rcd13ifvqgtg","pricing_plan_id":"cebpf4jnsgd1na2vs0mg"},{"bike_id":"5cd57c73-9885-44fd-83e5-89661975ed87","system_id":"levelo_inurba_marseille","lat":43.26503,"lon":5.39535,"is_reserved":false,"is_disabled":false,"rental_uris":{"android":"levelo://app?vid=5cd57c73-9885-44fd-83e5-89661975ed87","ios":"levelo://app?vid=5cd57c73-9885-44fd-83e5-89661975ed87"},"vehicle_type_id":"4","last_reported":1730736680,"current_range_meters":19200,"station_id":"ce4bhi12rcd13ifvqfq0","pricing_plan_id":"cebpf4jnsgd1na2vs0mg"},{"bike_id":"9bd4dfd9-ff78-440d-8c4a-6e9cf799848a","system_id":"levelo_inurba_marseille","lat":43.27999,"lon":5.41665,"is_reserved":false,"is_disabled":false,"rental_uris":{"android":"levelo://app?vid=9bd4dfd9-ff78-440d-8c4a-6e9cf799848a","ios":"levelo://app?vid=9bd4dfd9-ff78-440d-8c4a-6e9cf799848a"},"vehicle_type_id":"4","last_reported":1730736680,"current_range_meters":12000,"station_id":"ce4bho12rcd13ifvqh1g","pricing_plan_id":"cebpf4jnsgd1na2vs0mg"},