{"last_updated":1747177809,"ttl":60,"version":"2.2","data":{"bikes":[{"bike_id":"c0b9fd4f-e181-46ce-b0bf-f5119973334f","system_id":"levelo_inurba_marseille","lat":43.33771,"lon":5.37424,"is_reserved":false,"is_disabled":false,"rental_uris":{"android":"levelo://app?vid=c0b9fd4f-e181-46ce-b0bf-f5119973334f","ios":"levelo://app?vid=c0b9fd4f-e181-46ce-b0bf-f5119973334f"},"vehicle_type_id":"4","last_reported":1747177809,"current_range_meters":21600,"station_id":"","pricing_plan_id":"cebpf4jnsgd1na2vs0mg"},{"bike_id":"fc2577e7-1497-425b-9d4f-ab8d7dc843c6","system_id":"levelo_inurba_marseille","lat":43.33771,"lon":5.37485,"is_reserved":false,"is_disabled":true,"rental_uris":{"android":"levelo://app?vid=fc2577e7-1497-425b-9d4f-ab8d7dc843c6","ios":"levelo://app?vid=fc2577e7-1497-425b-9d4f-ab8d7dc843c6"},"vehicle_type_id":"4","last_reported":1747177809,"current_range_meters":0,"station_id":"","pricing_plan_id":"cebpf4jnsgd1na2vs0mg"},{"bike_id":"32ab2f6f-d857-4fc8-88fb-7ebfc19c0608","system_id":"levelo_inurba_marseille","lat":43.26833,"lon":5.41264,"is_reserved":false,"is_disabled":true,"rental_uris":{"android":"levelo://app?vid=32ab2f6f-d857-4fc8-88fb-7ebfc19c0608","ios":"levelo://app?vid=32ab2f6f-d857-4fc8-88fb-7ebfc19c0608"},"vehicle_type_id":"4","last_reported":1747177809,"current_range_meters":0,"station_id":"","pricing_plan_id":"cebpf4jnsgd1na2vs0mg"},{"bike_id":"0fedde00-40eb-40d2-8fc2-e61ecce46b7b","system_id":"levelo_inurba_marseille","lat":43.28296,"lon":5.43219,"is_reserved":false,"is_disabled":true,"rental_uris":{"android":"levelo://app?vid=0fedde00-40eb-40d2-8fc2-e61ecce46b7b","ios":"levelo://app?vid=0fedde00-40eb-40d2-8fc2-e61ecce46b7b"},"vehicle_type_id":"4","last_reported":1747177809,"current_range_meters":0,"station_id":"","pricing_plan_id":"cebpf4jnsgd1na2vs0mg"},{"bike_id":"727c4684-f63f-4c08-83b6-b043d1b81a1c","system_id":"levelo_inurba_marseille","lat":43.300007,"lon":5.475772,"is_reserved":false,"is_disabled":true,"rental_uris":{"android":"levelo://app?vid=727c4684-f63f-4c08-83b6-b043d1b81a1c","ios":"levelo://app?vid=727c4684-f63f-4c08-83b6-b043d1b81a1c"},"vehicle_type_id":"4","last_reported":1747177809,"current_range_meters":0,"station_id":"","pricing_plan_id":"cebpf4jnsgd1na2vs0mg"},{"bike_id":"d19ebaab-ef98-4efa-b952-7192b9b2f014","system_id":"levelo_inurba_marseille","lat":43.261552,"lon":5.392169,"is_reserved":false,"is_disabled":true,"rental_uris":{"android":"levelo://app?vid=d19ebaab-ef98-4efa-b952-7192b9b2f014","ios":"levelo://app?vid=d19ebaab-ef98-4efa-b952-7192b9b2f014"},"vehicle_type_id":"4","last_reported":1747177809,"current_range_meters":0,"station_id":"","pricing_plan_id":"cebpf4jnsgd1na2vs0mg"},{"bike_id":"8ba8222b-0151-4df0-9ee0-aa112762a939","system_id":"levelo_inurba_marseille","lat":43.247673,"lon":5.406518,"is_reserved":false,"is_disabled":true,"rental_uris":{"android":"levelo://app?vid=8ba8222b-0151-4df0-9ee0-aa112762a939","ios":"levelo://app?vid=8ba8222b-0151-4df0-9ee0-aa112762a939"},"vehicle_type_id":"4","last_reported":1747177809,"current_range_meters":0,"station_id":"","pricing_plan_id":"cebpf4jnsgd1na2vs0mg"},{"bike_id":"792567c6-0442-4011-aff0-9c05e25deb48","system_id":"levelo_inurba_marseille","lat":43.28071,"lon":5.44168,"is_reserved":false,"is_disabled":true,"rental_uris":{"android":"levelo://app?vid=792567c6-0442-4011-aff0-9c05e25deb48","ios":"levelo://app?vid=792567c6-0442-4011-aff0-9c05e25deb48"},"vehicle_type_id":"4","last_reported":1747177809,"current_range_meters":0,"station_id":"","pricing_plan_id":"cebpf4jnsgd1na2vs0mg"},{"bike_id":"f758ec6f-7a3b-4f02-8e0f-a582863d47cf","system_id":"levelo_inurba_marseille","lat":43.31285,"lon":5.4017,"is_reserved":false,"is_disabled":true,"rental_uris":{"android":"levelo://app?vid=f758ec6f-7a3b-4f02-8e0f-a582863d47cf","ios":"levelo://app?vid=f758ec6f-7a3b-4f02-8e0f-a582863d47cf"},"vehicle_type_id":"4","last_reported":1747177809,"current_range_meters":0,"station_id":"ce4bh092rcd13ifvqd30","pricing_plan_id":"cebpf4jnsgd1na2vs0mg"},{"bike_id":"7d648bb7-ab7e-409a-add7-d4a17f03de12","system_id":"levelo_inurba_marseille","lat":43.23157,"lon":5.43679,"is_reserved":false,"is_disabled":true,"rental_uris":{"android":"levelo://app?vid=7d648bb7-ab7e-409a-add7-d4a17f03de12","ios":"levelo://app?vid=7d648bb7-ab7e-409a-add7-d4a17f03de12"},"vehicle_type_id":"4","last_reported":1747177809,"current_range_meters":0,"station_id":"ce4bhmp2rcd13ifvqgog","pricing_plan_id":"cebpf4jnsgd1na2vs0mg"},{"bike_id":"49c47ed7-52af-4f8e-abc1-3485cf2c06af","system_id":"levelo_inurba_marseille","lat":43.22496,"lon":5.3481,"is_reserved":false,"is_disabled":true,"rental_uris":{"android":"levelo://app?vid=49c47ed7-52af-4f8e-abc1-3485cf2c06af","ios":"levelo://app?vid=49c47ed7-52af-4f8e-abc1-3485cf2c06af"},"vehicle_type_id":"4","last_reported":1747177809,"current_range_meters":0,"station_id":"st_cvj5dfep6f1abm77gieg","pricing_plan_id":"cebpf4jnsgd1na2vs0mg"},{"bike_id":"986c18d8-74d7-4caf-9a65-ed5970f61353","system_id":"levelo_inurba_marseille","lat":43.21196,"lon":5.35086,"is_reserved":false,"is_disabled":true,"rental_uris":{"android":"levelo://app?vid=986c18d8-74d7-4caf-9a65-ed5970f61353","ios":"levelo://app?vid=986c18d8-74d7-4caf-9a65-ed5970f61353"},"vehicle_type_id":"4","last_reported":1747177809,"current_range_meters":0,"station_id":"st_cvj6sg6p6f1abm77japg","pricing_plan_id":"cebpf4jnsgd1na2vs0mg"},{"bike_id":"8aecad1a-6a65-4d9a-bc60-67a3daa52852","system_id":"levelo_inurba_marseille","lat":43.217476,"lon":5.346068,"is_reserved":false,"is_disabled":true,"rental_uris":{"android":"levelo://app?vid=8aecad1a-6a65-4d9a-bc60-67a3daa52852","ios":"levelo://app?vid=8aecad1a-6a65-4d9a-bc60-67a3daa52852"},"vehicle_type_id":"4","last_reported":1747177809,"current_range_meters":1200,"station_id":"st_cvj6r9ubvosntc0bgbag","pricing_plan_id":"cebpf4jnsgd1na2vs0mg"},{"bike_id":"388e8245-f37d-4035-8342-45f000e14ae4","system_id":"levelo_inurba_marseille","lat":43.237421,"lon":5.362932,"is_reserved":false,"is_disabled":true,"rental_uris":{"android":"levelo://app?vid=388e8245-f37d-4035-8342-45f000e14ae4","ios":"levelo://app?vid=388e8245-f37d-4035-8342-45f000e14ae4"},"vehicle_type_id":"4","last_reported":1747177809,"current_range_meters":2000,"station_id":"","pricing_plan_id":"cebpf4jnsgd1na2vs0mg"},{"bike_id":"50d66594-295f-44a3-a06b-4ffe3292b9b7","system_id":"levelo_inurba_marseille","lat":43.3127,"lon":5.40152,"is_reserved":false,"is_disabled":true,"rental_uris":{"android":"levelo://app?vid=50d66594-295f-44a3-a06b-4ffe3292b9b7","ios":"levelo://app?vid=50d66594-295f-44a3-a06b-4ffe3292b9b7"},"vehicle_type_id":"4","last_reported":1747177809,"current_range_meters":2000,"station_id":"ce4bh092rcd13ifvqd30","pricing_plan_id":"cebpf4jnsgd1na2vs0mg"},{"bike_id":"cc50d7ab-a738-419b-be06-ae40eb109022","system_id":"levelo_inurba_marseille","lat":43.26492,"lon":5.39538,"is_reserved":false,"is_disabled":true,"rental_uris":{"android":"levelo://app?vid=cc50d7ab-a738-419b-be06-ae40eb109022","ios":"levelo://app?vid=cc50d7ab-a738-419b-be06-ae40eb109022"},"vehicle_type_id":"4","last_reported":1747177809,"current_range_meters":2000,"station_id":"ce4bhi12rcd13ifvqfq0","pricing_plan_id":"cebpf4jnsgd1na2vs0mg"},{"bike_id":"97fbce1b-1020-44d8-950b-a0c99f0606ff","system_id":"levelo_inurba_marseille","lat":43.25191,"lon":5.37574,"is_reserved":false,"is_disabled":false,"rental_uris":{"android":"levelo://app?vid=97fbce1b-1020-44d8-950b-a0c99f0606ff","ios":"levelo://app?vid=97fbce1b-1020-44d8-950b-a0c99f0606ff"},"vehicle_type_id":"4","last_reported":1747177809,"current_range_meters":2800,"station_id":"","pricing_plan_id":"cebpf4jnsgd1na2vs0mg"},{"bike_id":"5a3d3ff7-f7a8-4f57-9099-da56b82a7684","system_id":"levelo_inurba_marseille","lat":43.29575,"lon":5.375045,"is_reserved":false,"is_disabled":false,"rental_uris":{"android":"levelo://app?vid=5a3d3ff7-f7a8-4f57-9099-da56b82a7684","ios":"levelo://app?vid=5a3d3ff7-f7a8-4f57-9099-da56b82a7684"},"vehicle_type_id":"4","last_reported":1747177809,"current_range_meters":2800,"station_id":"ce4bgh92rcd13ifvqb50","pricing_plan_id":"cebpf4jnsgd1na2vs0mg"},{"bike_id":"3a3c8ae0-e199-47b6-97f1-66755476390e","system_id":"levelo_inurba_marseille","lat":43.26569,"lon":5.38989,"is_reserved":false,"is_disabled":false,"rental_uris":{"android":"levelo://app?vid=3a3c8ae0-e199-47b6-97f1-66755476390e","ios":"levelo://app?vid=3a3c8ae0-e199-47b6-97f1-66755476390e"},"vehicle_type_id":"4","last_reported":1747177809,"current_range_meters":2800,"station_id":"ce4bhe12rcd13ifvqf30","pricing_plan_id":"cebpf4jnsgd1na2vs0mg"},{"bike_id":"e2d041cb-aea3-459c-9597-774dc8a981b5","system_id":"levelo_inurba_marseille","lat":43.265648,"lon":5.372866,"is_reserved":false,"is_disabled":false,"rental_uris":{"android":"levelo://app?vid=e2d041cb-aea3-459c-9597-774dc8a981b5","ios":"levelo://app?vid=e2d041cb-aea3-459c-9597-774dc8a981b5"},"vehicle_type_id":"4","last_reported":1747177809,"current_range_meters":3200,"station_id":"ce4bhg12rcd13ifvqf70","pricing_plan_id":"cebpf4jnsgd1na2vs0mg"},{"bike_id":"3071c56b-ce80-4fb6-b5b1-b157555fc3f4","system_id":"levelo_inurba_marseille","lat":43.24545,"lon":5.3952,"is_reserved":false,"is_disabled":false,"rental_uris":{"android":"levelo://app?vid=3071c56b-ce80-4fb6-b5b1-b157555fc3f4","ios":"levelo://app?vid=3071c56b-ce80-4fb6-b5b1-b157555fc3f4"},"vehicle_type_id":"4","last_reported":1747177809,"current_range_meters":4000,"station_id":"ce4bhlp2rcd13ifvqgjg","pricing_plan_id":"cebpf4jnsgd1na2vs0mg"},{"bike_id":"cee2cfa9-b474-4fc1-8ee4-6f392b59e6ce","system_id":"levelo_inurba_marseille","lat":43.28936,"lon":5.36619,"is_reserved":false,"is_disabled":false,"rental_uris":{"android":"levelo://app?vid=cee2cfa9-b474-4fc1-8ee4-6f392b59e6ce","ios":"levelo://app?vid=cee2cfa9-b474-4fc1-8ee4-6f392b59e6ce"},"vehicle_type_id":"4","last_reported":1747177809,"current_range_meters":4400,"station_id":"ce4bhap2rcd13ifvqek0","pricing_plan_id":"cebpf4jnsgd1na2vs0mg"},{"bike_id":"679a1652-9834-4e25-8720-e5f793f672e7","system_id":"levelo_inurba_marseille","lat":43.25066,"lon":5.39524,"is_reserved":false,"is_disabled":false,"rental_uris":{"android":"levelo://app?vid=679a1652-9834-4e25-8720-e5f793f672e7","ios":"levelo://app?vid=679a1652-9834-4e25-8720-e5f793f672e7"},"vehicle_type_id":"4","last_reported":1747177809,"current_range_meters":4400,"station_id":"ce4bhm12rcd13ifvqgkg","pricing_plan_id":"cebpf4jnsgd1na2vs0mg"},{"bike_id":"41c29821-14bf-4b01-b2eb-181b6a6c4a67","system_id":"levelo_inurba_marseille","lat":43.33717,"lon":5.39177,"is_reserved":false,"is_disabled":false,"rental_uris":{"android":"levelo://app?vid=41c29821-14bf-4b01-b2eb-181b6a6c4a67","ios":"levelo://app?vid=41c29821-14bf-4b01-b2eb-181b6a6c4a67"},"vehicle_type_id":"4","last_reported":1747177809,"current_range_meters":4400,"station_id":"ce4bhr92rcd13ifvqhsg","pricing_plan_id":"cebpf4jnsgd1na2vs0mg"},{"bike_id":"86a4c3b1-465f-4e5c-aad8-1d8e5f4f6994","system_id":"levelo_inurba_marseille","lat":43.2815,"lon":5.42647,"is_reserved":false,"is_disabled":false,"rental_uris":{"android":"levelo://app?vid=86a4c3b1-465f-4e5c-aad8-1d8e5f4f6994","ios":"levelo://app?vid=86a4c3b1-465f-4e5c-aad8-1d8e5f4f6994"},"vehicle_type_id":"4","last_reported":1747177809,"current_range_meters":4800,"station_id":"ce4bhnh2rcd13ifvqgug","pricing_plan_id":"cebpf4jnsgd1na2vs0mg"},{"bike_id":"764a7013-3fc3-4d32-b171-097f58534232","system_id":"levelo_inurba_marseille","lat":43.280731,"lon":5.396408,"is_reserved":false,"is_disabled":false,"rental_uris":{"android":"levelo://app?vid=764a7013-3fc3-4d32-b171-097f58534232","ios":"levelo://app?vid=764a7013-3fc3-4d32-b171-097f58534232"},"vehicle_type_id":"4","last_reported":1747177809,"current_range_meters":4800,"station_id":"ce4bho12rcd13ifvqh2g","pricing_plan_id":"cebpf4jnsgd1na2vs0mg"},{"bike_id":"abe19c7b-dd48-4f23-ad5b-10c07cbeffa6","system_id":"levelo_inurba_marseille","lat":43.295882,"lon":5.378562,"is_reserved":false,"is_disabled":false,"rental_uris":{"android":"levelo://app?vid=abe19c7b-dd48-4f23-ad5b-10c07cbeffa6","ios":"levelo://app?vid=abe19c7b-dd48-4f23-ad5b-10c07cbeffa6"},"vehicle_type_id":"4","last_reported":1747177809,"current_range_meters":6400,"station_id":"","pricing_plan_id":"cebpf4jnsgd1na2vs0mg"},{"bike_id":"1524620f-8d04-4b38-9702-1ccde8e4ec67","system_id":"levelo_inurba_marseille","lat":43.312587,"lon":5.40172,"is_reserved":false,"is_disabled":false,"rental_uris":{"android":"levelo://app?vid=1524620f-8d04-4b38-9702-1ccde8e4ec67","ios":"levelo://app?vid=1524620f-8d04-4b38-9702-1ccde8e4ec67"},"vehicle_type_id":"4","last_reported":1747177809,"current_range_meters":6400,"station_id":"ce4bh092rcd13ifvqd30","pricing_plan_id":"cebpf4jnsgd1na2vs0mg"},{"bike_id":"93c7bb99-8bbb-40c4-866a-86271a5252d8","system_id":"levelo_inurba_marseille","lat":43.2988,"lon":5.38902,"is_reserved":false,"is_disabled":false,"rental_uris":{"android":"levelo://app?vid=93c7bb99-8bbb-40c4-866a-86271a5252d8","ios":"levelo://app?vid=93c7bb99-8bbb-40c4-866a-86271a5252d8"},"vehicle_type_id":"4","last_reported":1747177809,"current_range_meters":6400,"station_id":"ce4bh392rcd13ifvqdl0","pricing_plan_id":"cebpf4jnsgd1na2vs0mg"},{"bike_id":"74ce7741-5813-4b25-8268-d773ddb37d17","system_id":"levelo_inurba_marseille","lat":43.302067,"lon":5.453977,"is_reserved":false,"is_disabled":false,"rental_uris":{"android":"levelo://app?vid=74ce7741-5813-4b25-8268-d773ddb37d17","ios":"levelo://app?vid=74ce7741-5813-4b25-8268-d773ddb37d17"},"vehicle_type_id":"4","last_reported":1747177809,"current_range_meters":6800,"station_id":"","pricing_plan_id":"cebpf4jnsgd1na2vs0mg"},{"bike_id":"0e2d3c69-6e54-4051-8fab-212f8fefbf43","system_id":"levelo_inurba_marseille","lat":43.30176,"lon":5.36616,"is_reserved":false,"is_disabled":false,"rental_uris":{"android":"levelo://app?vid=0e2d3c69-6e54-4051-8fab-212f8fefbf43","ios":"levelo://app?vid=0e2d3c69-6e54-4051-8fab-212f8fefbf43"},"vehicle_type_id":"4","last_reported":1747177809,"current_range_meters":6800,"station_id":"ce4bgrh2rcd13ifvqc8g","pricing_plan_id":"cebpf4jnsgd1na2vs0mg"},{"bike_id":"d991382c-9312-4a59-b021-052b5426210e","system_id":"levelo_inurba_marseille","lat":43.26044,"lon":5.39378,"is_reserved":false,"is_disabled":false,"rental_uris":{"android":"levelo://app?vid=d991382c-9312-4a59-b021-052b5426210e","ios":"levelo://app?vid=d991382c-9312-4a59-b021-052b5426210e"},"vehicle_type_id":"4","last_reported":1747177809,"current_range_meters":6800,"station_id":"ce4bhh92rcd13ifvqfj0","pricing_plan_id":"cebpf4jnsgd1na2vs0mg"},{"bike_id":"4a7a989c-172d-4f21-a17f-a1e0e81980c4","system_id":"levelo_inurba_marseille","lat":43.25858,"lon":5.39905,"is_reserved":false,"is_disabled":false,"rental_uris":{"android":"levelo://app?vid=4a7a989c-172d-4f21-a17f-a1e0e81980c4","ios":"levelo://app?vid=4a7a989c-172d-4f21-a17f-a1e0e81980c4"},"vehicle_type_id":"4","last_reported":1747177809,"current_range_meters":6800,"station_id":"ce4bhl92rcd13ifvqghg","pricing_plan_id":"cebpf4jnsgd1na2vs0mg"},{"bike_id":"e10c3264-5084-4afb-80c1-20ffabf9a98e","system_id":"levelo_inurba_marseille","lat":43.28693,"lon":5.38651,"is_reserved":false,"is_disabled":false,"rental_uris":{"android":"levelo://app?vid=e10c3264-5084-4afb-80c1-20ffabf9a98e","ios":"levelo://app?vid=e10c3264-5084-4afb-80c1-20ffabf9a98e"},"vehicle_type_id":"4","last_reported":1747177809,"current_range_meters":7200,"station_id":"ce4bh492rcd13ifvqdug","pricing_plan_id":"cebpf4jnsgd1na2vs0mg"},{"bike_id":"7100f54c-b0ff-47c7-bfce-e9e46a62d28d","system_id":"levelo_inurba_marseille","lat":43.30212,"lon":5.39483,"is_reserved":false,"is_disabled":false,"rental_uris":{"android":"levelo://app?vid=7100f54c-b0ff-47c7-bfce-e9e46a62d28d","ios":"levelo://app?vid=7100f54c-b0ff-47c7-bfce-e9e46a62d28d"},"vehicle_type_id":"4","last_reported":1747177809,"current_range_meters":8000,"station_id":"ce4bh0p2rcd13ifvqd70","pricing_plan_id":"cebpf4jnsgd1na2vs0mg"},{"bike_id":"597e7865-b942-4532-81ea-d2c26c4cbf33","system_id":"levelo_inurba_marseille","lat":43.240721,"lon":5.377578,"is_reserved":false,"is_disabled":false,"rental_uris":{"android":"levelo://app?vid=597e7865-b942-4532-81ea-d2c26c4cbf33","ios":"levelo://app?vid=597e7865-b942-4532-81ea-d2c26c4cbf33"},"vehicle_type_id":"4","last_reported":1747177809,"current_range_meters":8000,"station_id":"ce4bhnp2rcd13ifvqgvg","pricing_plan_id":"cebpf4jnsgd1na2vs0mg"},{"bike_id":"23bfae5d-adbc-487a-a024-c8962e33e86d","system_id":"levelo_inurba_marseille","lat":43.24647,"lon":5.38897,"is_reserved":false,"is_disabled":false,"rental_uris":{"android":"levelo://app?vid=23bfae5d-adbc-487a-a024-c8962e33e86d","ios":"levelo://app?vid=23bfae5d-adbc-487a-a024-c8962e33e86d"},"vehicle_type_id":"4","last_reported":1747177809,"current_range_meters":8400,"station_id":"ce4bhg12rcd13ifvqf60","pricing_plan_id":"cebpf4jnsgd1na2vs0mg"},{"bike_id":"f427f8a3-1313-4845-b17b-15fa8e49ec73","system_id":"levelo_inurba_marseille","lat":43.26196,"lon":5.3745,"is_reserved":false,"is_disabled":false,"rental_uris":{"android":"levelo://app?vid=f427f8a3-1313-4845-b17b-15fa8e49ec73","ios":"levelo://app?vid=f427f8a3-1313-4845-b17b-15fa8e49ec73"},"vehicle_type_id":"4","last_reported":1747177809,"current_range_meters":8400,"station_id":"ce4bhgp2rcd13ifvqfc0","pricing_plan_id":"cebpf4jnsgd1na2vs0mg"},{"bike_id":"3e298fff-a6c8-4c84-a257-9c58614d0496","system_id":"levelo_inurba_marseille","lat":43.32085,"lon":5.44082,"is_reserved":false,"is_disabled":false,"rental_uris":{"android":"levelo://app?vid=3e298fff-a6c8-4c84-a257-9c58614d0496","ios":"levelo://app?vid=3e298fff-a6c8-4c84-a257-9c58614d0496"},"vehicle_type_id":"4","last_reported":1747177809,"current_range_meters":8800,"station_id":"","pricing_plan_id":"cebpf4jnsgd1na2vs0mg"},{"bike_id":"c78709f5-2894-4d12-aff9-20e6f85f4ee8","system_id":"levelo_inurba_marseille","lat":43.30882,"lon":5.39645,"is_reserved":false,"is_disabled":false,"rental_uris":{"android":"levelo://app?vid=c78709f5-2894-4d12-aff9-20e6f85f4ee8","ios":"levelo://app?vid=c78709f5-2894-4d12-aff9-20e6f85f4ee8"},"vehicle_type_id":"4","last_reported":1747177809,"current_range_meters":8800,"station_id":"ce4bh012rcd13ifvqcv0","pricing_plan_id":"cebpf4jnsgd1na2vs0mg"},{"bike_id":"a252ee44-b8c3-4556-a12c-5f4f5dc85b27","system_id":"levelo_inurba_marseille","lat":43.30651,"lon":5.401,"is_reserved":false,"is_disabled":false,"rental_uris":{"android":"levelo://app?vid=a252ee44-b8c3-4556-a12c-5f4f5dc85b27","ios":"levelo://app?vid=a252ee44-b8c3-4556-a12c-5f4f5dc85b27"},"vehicle_type_id":"4","last_reported":1747177809,"current_range_meters":8800,"station_id":"ce4bh112rcd13ifvqda0","pricing_plan_id":"cebpf4jnsgd1na2vs0mg"},{"bike_id":"a2ae26c9-3a89-4142-a096-4b0533460118","system_id":"levelo_inurba_marseille","lat":43.27066,"lon":5.40256,"is_reserved":false,"is_disabled":false,"rental_uris":{"android":"levelo://app?vid=a2ae26c9-3a89-4142-a096-4b0533460118","ios":"levelo://app?vid=a2ae26c9-3a89-4142-a096-4b0533460118"},"vehicle_type_id":"4","last_reported":1747177809,"current_range_meters":8800,"station_id":"ce4bhk92rcd13ifvqgc0","pricing_plan_id":"cebpf4jnsgd1na2vs0mg"},{"bike_id":"1466ea0a-656f-485b-939a-7c9e9c76ce64","system_id":"levelo_inurba_marseille","lat":43.31889,"lon":5.40721,"is_reserved":false,"is_disabled":false,"rental_uris":{"android":"levelo://app?vid=1466ea0a-656f-485b-939a-7c9e9c76ce64","ios":"levelo://app?vid=1466ea0a-656f-485b-939a-7c9e9c76ce64"},"vehicle_type_id":"4","last_reported":1747177809,"current_range_meters":9200,"station_id":"ce4bhq12rcd13ifvqhig","pricing_plan_id":"cebpf4jnsgd1na2vs0mg"},{"bike_id":"eda320a9-c748-41fe-8957-3c5ad95195ad","system_id":"levelo_inurba_marseille","lat":43.310657,"lon":5.383528,"is_reserved":false,"is_disabled":false,"rental_uris":{"android":"levelo://app?vid=eda320a9-c748-41fe-8957-3c5ad95195ad","ios":"levelo://app?vid=eda320a9-c748-41fe-8957-3c5ad95195ad"},"vehicle_type_id":"4","last_reported":1747177809,"current_range_meters":9600,"station_id":"ce4bgv92rcd13ifvqcr0","pricing_plan_id":"cebpf4jnsgd1na2vs0mg"},{"bike_id":"eb050f5c-8fe4-4b4d-ba6e-ec9a1bb9c4cd","system_id":"levelo_inurba_marseille","lat":43.31694,"lon":5.40458,"is_reserved":false,"is_disabled":false,"rental_uris":{"android":"levelo://app?vid=eb050f5c-8fe4-4b4d-ba6e-ec9a1bb9c4cd","ios":"levelo://app?vid=eb050f5c-8fe4-4b4d-ba6e-ec9a1bb9c4cd"},"vehicle_type_id":"4","last_reported":1747177809,"current_range_meters":9600,"station_id":"ce4bh012rcd13ifvqd00","pricing_plan_id":"cebpf4jnsgd1na2vs0mg"},{"bike_id":"f4f44ecb-d1f2-458e-9c20-4902d78902fa","system_id":"levelo_inurba_marseille","lat":43.30601,"lon":5.39354,"is_reserved":false,"is_disabled":false,"rental_uris":{"android":"levelo://app?vid=f4f44ecb-d1f2-458e-9c20-4902d78902fa","ios":"levelo://app?vid=f4f44ecb-d1f2-458e-9c20-4902d78902fa"},"vehicle_type_id":"4","last_reported":1747177809,"current_range_meters":9600,"station_id":"ce4bh0p2rcd13ifvqd80","pricing_plan_id":"cebpf4jnsgd1na2vs0mg"},{"bike_id":"0f4abef2-b0df-4803-98c6-01c55c5d115b","system_id":"levelo_inurba_marseille","lat":43.28562,"lon":5.39493,"is_reserved":false,"is_disabled":false,"rental_uris":{"android":"levelo://app?vid=0f4abef2-b0df-4803-98c6-01c55c5d115b","ios":"levelo://app?vid=0f4abef2-b0df-4803-98c6-01c55c5d115b"},"vehicle_type_id":"4","last_reported":1747177809,"current_range_meters":9600,"station_id":"ce4bh292rcd13ifvqdg0","pricing_plan_id":"cebpf4jnsgd1na2vs0mg"},{"bike_id":"6e09efd0-ae69-455b-a95f-47dfe1e3828d","system_id":"levelo_inurba_marseille","lat":43.30802,"lon":5.43518,"is_reserved":false,"is_disabled":false,"rental_uris":{"android":"levelo://app?vid=6e09efd0-ae69-455b-a95f-47dfe1e3828d","ios":"levelo://app?vid=6e09efd0-ae69-455b-a95f-47dfe1e3828d"},"vehicle_type_id":"4","last_reported":1747177809,"current_range_meters":9600,"station_id":"ce4bhph2rcd13ifvqheg","pricing_plan_id":"cebpf4jnsgd1na2vs0mg"},{"bike_id":"41640c94-0bf4-429d-b43f-1f3d9cba5d54","system_id":"levelo_inurba_marseille","lat":43.30047,"lon":5.38606,"is_reserved":false,"is_disabled":false,"rental_uris":{"android":"levelo://app?vid=41640c94-0bf4-429d-b43f-1f3d9cba5d54","ios":"levelo://app?vid=41640c94-0bf4-429d-b43f-1f3d9cba5d54"},"vehicle_type_id":"4","last_reported":1747177809,"current_range_meters":10000,"station_id":"ce4bghh2rcd13ifvqb60","pricing_plan_id":"cebpf4jnsgd1na2vs0mg"},{"bike_id":"3097c71f-29aa-4cf9-98d9-b76dabee7dc9","system_id":"levelo_inurba_marseille","lat":43.28107,"lon":5.37833,"is_reserved":false,"is_disabled":false,"rental_uris":{"android":"levelo://app?vid=3097c71f-29aa-4cf9-98d9-b76dabee7dc9","ios":"levelo://app?vid=3097c71f-29aa-4cf9-98d9-b76dabee7dc9"},"vehicle_type_id":"4","last_reported":1747177809,"current_range_meters":10000,"station_id":"ce4bha12rcd13ifvqee0","pricing_plan_id":"cebpf4jnsgd1na2vs0mg"},{"bike_id":"fab41164-e42b-46bd-be5d-f3e06e158750","system_id":"levelo_inurba_marseille","lat":43.278425,"lon":5.392137,"is_reserved":false,"is_disabled":false,"rental_uris":{"android":"levelo://app?vid=fab41164-e42b-46bd-be5d-f3e06e158750","ios":"levelo://app?vid=fab41164-e42b-46bd-be5d-f3e06e158750"},"vehicle_type_id":"4","last_reported":1747177809,"current_range_meters":10000,"station_id":"ce4bhjp2rcd13ifvqga0","pricing_plan_id":"cebpf4jnsgd1na2vs0mg"},{"bike_id":"127f6762-1f70-43ae-8938-79f5184b1ee2","system_id":"levelo_inurba_marseille","lat":43.2407,"lon":5.377601,"is_reserved":false,"is_disabled":false,"rental_uris":{"android":"levelo://app?vid=127f6762-1f70-43ae-8938-79f5184b1ee2","ios":"levelo://app?vid=127f6762-1f70-43ae-8938-79f5184b1ee2"},"vehicle_type_id":"4","last_reported":1747177809,"current_range_meters":10000,"station_id":"ce4bhnp2rcd13ifvqgvg","pricing_plan_id":"cebpf4jnsgd1na2vs0mg"},{"bike_id":"bae0709b-c933-441a-ab47-3aad58f66d78","system_id":"levelo_inurba_marseille","lat":43.21744,"lon":5.34592,"is_reserved":false,"is_disabled":false,"rental_uris":{"android":"levelo://app?vid=bae0709b-c933-441a-ab47-3aad58f66d78","ios":"levelo://app?vid=bae0709b-c933-441a-ab47-3aad58f66d78"},"vehicle_type_id":"4","last_reported":1747177809,"current_range_meters":10000,"station_id":"st_cvj6r9ubvosntc0bgbag","pricing_plan_id":"cebpf4jnsgd1na2vs0mg"},{"bike_id":"ba458a5d-d478-4103-836d-59da615565d8","system_id":"levelo_inurba_marseille","lat":43.27061,"lon":5.42276,"is_reserved":false,"is_disabled":false,"rental_uris":{"android":"levelo://app?vid=ba458a5d-d478-4103-836d-59da615565d8","ios":"levelo://app?vid=ba458a5d-d478-4103-836d-59da615565d8"},"vehicle_type_id":"4","last_reported":1747177809,"current_range_meters":10800,"station_id":"ce4bhk92rcd13ifvqgb0","pricing_plan_id":"cebpf4jnsgd1na2vs0mg"},{"bike_id":"71bca86a-f6ab-4e3c-929a-d88ccefdb327","system_id":"levelo_inurba_marseille","lat":43.32341,"lon":5.40621,"is_reserved":false,"is_disabled":false,"rental_uris":{"android":"levelo://app?vid=71bca86a-f6ab-4e3c-929a-d88ccefdb327","ios":"levelo://app?vid=71bca86a-f6ab-4e3c-929a-d88ccefdb327"},"vehicle_type_id":"4","last_reported":1747177809,"current_range_meters":10800,"station_id":"ce4bhq92rcd13ifvqhjg","pricing_plan_id":"cebpf4jnsgd1na2vs0mg"},{"bike_id":"38e9e65c-4b87-4784-9bde-542e3f5b04b3","system_id":"levelo_inurba_marseille","lat":43.32361,"lon":5.38888,"is_reserved":false,"is_disabled":false,"rental_uris":{"android":"levelo://app?vid=38e9e65c-4b87-4784-9bde-542e3f5b04b3","ios":"levelo://app?vid=38e9e65c-4b87-4784-9bde-542e3f5b04b3"},"vehicle_type_id":"4","last_reported":1747177809,"current_range_meters":10800,"station_id":"ce4bhqp2rcd13ifvqhog","pricing_plan_id":"cebpf4jnsgd1na2vs0mg"},{"bike_id":"47b426d0-f6dd-4e48-87c1-a053a74ef8e3","system_id":"levelo_inurba_marseille","lat":43.30246,"lon":5.40061,"is_reserved":false,"is_disabled":false,"rental_uris":{"android":"levelo://app?vid=47b426d0-f6dd-4e48-87c1-a053a74ef8e3","ios":"levelo://app?vid=47b426d0-f6dd-4e48-87c1-a053a74ef8e3"},"vehicle_type_id":"4","last_reported":1747177809,"current_range_meters":11200,"station_id":"ce4bgvh2rcd13ifvqcs0","pricing_plan_id":"cebpf4jnsgd1na2vs0mg"},{"bike_id":"80bee8ac-b124-4980-a798-213773e52355","system_id":"levelo_inurba_marseille","lat":43.30318,"lon":5.4043,"is_reserved":false,"is_disabled":false,"rental_uris":{"android":"levelo://app?vid=80bee8ac-b124-4980-a798-213773e52355","ios":"levelo://app?vid=80bee8ac-b124-4980-a798-213773e52355"},"vehicle_type_id":"4","last_reported":1747177809,"current_range_meters":11200,"station_id":"ce4bh012rcd13ifvqd10","pricing_plan_id":"cebpf4jnsgd1na2vs0mg"},{"bike_id":"9c7224b1-1bf5-4174-843d-f9bc5d28275e","system_id":"levelo_inurba_marseille","lat":43.2871,"lon":5.39993,"is_reserved":false,"is_disabled":false,"rental_uris":{"android":"levelo://app?vid=9c7224b1-1bf5-4174-843d-f9bc5d28275e","ios":"levelo://app?vid=9c7224b1-1bf5-4174-843d-f9bc5d28275e"},"vehicle_type_id":"4","last_reported":1747177809,"current_range_meters":11200,"station_id":"ce4bho92rcd13ifvqh3g","pricing_plan_id":"cebpf4jnsgd1na2vs0mg"},{"bike_id":"d559a899-b1bd-4a71-a12e-4458bcd0cdbf","system_id":"levelo_inurba_marseille","lat":43.230597,"lon":5.354917,"is_reserved":false,"is_disabled":false,"rental_uris":{"android":"levelo://app?vid=d559a899-b1bd-4a71-a12e-4458bcd0cdbf","ios":"levelo://app?vid=d559a899-b1bd-4a71-a12e-4458bcd0cdbf"},"vehicle_type_id":"4","last_reported":1747177809,"current_range_meters":11200,"station_id":"cpo3342slgdg3j2ifvpg","pricing_plan_id":"cebpf4jnsgd1na2vs0mg"},{"bike_id":"83119d09-9efb-429c-b5b9-f2163d6f4389","system_id":"levelo_inurba_marseille","lat":43.310742,"lon":5.38352,"is_reserved":false,"is_disabled":false,"rental_uris":{"android":"levelo://app?vid=83119d09-9efb-429c-b5b9-f2163d6f4389","ios":"levelo://app?vid=83119d09-9efb-429c-b5b9-f2163d6f4389"},"vehicle_type_id":"4","last_reported":1747177809,"current_range_meters":11600,"station_id":"ce4bgv92rcd13ifvqcr0","pricing_plan_id":"cebpf4jnsgd1na2vs0mg"},{"bike_id":"11e495cb-e2b0-4615-bc23-02982335ed54","system_id":"levelo_inurba_marseille","lat":43.250872,"lon":5.395171,"is_reserved":false,"is_disabled":false,"rental_uris":{"android":"levelo://app?vid=11e495cb-e2b0-4615-bc23-02982335ed54","ios":"levelo://app?vid=11e495cb-e2b0-4615-bc23-02982335ed54"},"vehicle_type_id":"4","last_reported":1747177809,"current_range_meters":11600,"station_id":"ce4bhm12rcd13ifvqgkg","pricing_plan_id":"cebpf4jnsgd1na2vs0mg"},{"bike_id":"29ca8818-f2ee-47ec-a332-2860bcc2fb2a","system_id":"levelo_inurba_marseille","lat":43.231895,"lon":5.355585,"is_reserved":false,"is_disabled":false,"rental_uris":{"android":"levelo://app?vid=29ca8818-f2ee-47ec-a332-2860bcc2fb2a","ios":"levelo://app?vid=29ca8818-f2ee-47ec-a332-2860bcc2fb2a"},"vehicle_type_id":"4","last_reported":1747177809,"current_range_meters":11600,"station_id":"ce4bhu92rcd13ifvqi70","pricing_plan_id":"cebpf4jnsgd1na2vs0mg"},{"bike_id":"932e2eea-2ef5-46ab-b128-64df19c5d658","system_id":"levelo_inurba_marseille","lat":43.304703,"lon":5.392958,"is_reserved":false,"is_disabled":false,"rental_uris":{"android":"levelo://app?vid=932e2eea-2ef5-46ab-b128-64df19c5d658","ios":"levelo://app?vid=932e2eea-2ef5-46ab-b128-64df19c5d658"},"vehicle_type_id":"4","last_reported":1747177809,"current_range_meters":12000,"station_id":"","pricing_plan_id":"cebpf4jnsgd1na2vs0mg"},{"bike_id":"a681fd8a-af7e-409a-938a-dc3de79aa287","system_id":"levelo_inurba_marseille","lat":43.31282,"lon":5.40168,"is_reserved":false,"is_disabled":false,"rental_uris":{"android":"levelo://app?vid=a681fd8a-af7e-409a-938a-dc3de79aa287","ios":"levelo://app?vid=a681fd8a-af7e-409a-938a-dc3de79aa287"},"vehicle_type_id":"4","last_reported":1747177809,"current_range_meters":12000,"station_id":"ce4bh092rcd13ifvqd30","pricing_plan_id":"cebpf4jnsgd1na2vs0mg"},{"bike_id":"485f36f8-f5b5-4b39-aa91-9cd33c8f655c","system_id":"levelo_inurba_marseille","lat":43.30095,"lon":5.39045,"is_reserved":false,"is_disabled":false,"rental_uris":{"android":"levelo://app?vid=485f36f8-f5b5-4b39-aa91-9cd33c8f655c","ios":"levelo://app?vid=485f36f8-f5b5-4b39-aa91-9cd33c8f655c"},"vehicle_type_id":"4","last_reported":1747177809,"current_range_meters":12000,"station_id":"ce4bh192rcd13ifvqdb0","pricing_plan_id":"cebpf4jnsgd1na2vs0mg"},{"bike_id":"bdfb75ca-fefb-4fb9-becc-bd378613ab46","system_id":"levelo_inurba_marseille","lat":43.294419,"lon":5.397497,"is_reserved":false,"is_disabled":false,"rental_uris":{"android":"levelo://app?vid=bdfb75ca-fefb-4fb9-becc-bd378613ab46","ios":"levelo://app?vid=bdfb75ca-fefb-4fb9-becc-bd378613ab46"},"vehicle_type_id":"4","last_reported":1747177809,"current_range_meters":12400,"station_id":"ce4bh3h2rcd13ifvqdo0","pricing_plan_id":"cebpf4jnsgd1na2vs0mg"},{"bike_id":"f6f851f2-f97b-46bd-8825-a1535387dd49","system_id":"levelo_inurba_marseille","lat":43.28421,"lon":5.37515,"is_reserved":false,"is_disabled":false,"rental_uris":{"android":"levelo://app?vid=f6f851f2-f97b-46bd-8825-a1535387dd49","ios":"levelo://app?vid=f6f851f2-f97b-46bd-8825-a1535387dd49"},"vehicle_type_id":"4","last_reported":1747177809,"current_range_meters":12400,"station_id":"ce4bh412rcd13ifvqds0","pricing_plan_id":"cebpf4jnsgd1na2vs0mg"},{"bike_id":"fe7f0644-d1d5-4fe8-bec7-6452cc96eeec","system_id":"levelo_inurba_marseille","lat":43.28463,"lon":5.35875,"is_reserved":false,"is_disabled":false,"rental_uris":{"android":"levelo://app?vid=fe7f0644-d1d5-4fe8-bec7-6452cc96eeec","ios":"levelo://app?vid=fe7f0644-d1d5-4fe8-bec7-6452cc96eeec"},"vehicle_type_id":"4","last_reported":1747177809,"current_range_meters":12400,"station_id":"ce4bhah2rcd13ifvqei0","pricing_plan_id":"cebpf4jnsgd1na2vs0mg"},{"bike_id":"f992a421-1974-43d2-890b-13f18604b31c","system_id":"levelo_inurba_marseille","lat":43.246384,"lon":5.389091,"is_reserved":false,"is_disabled":false,"rental_uris":{"android":"levelo://app?vid=f992a421-1974-43d2-890b-13f18604b31c","ios":"levelo://app?vid=f992a421-1974-43d2-890b-13f18604b31c"},"vehicle_type_id":"4","last_reported":1747177809,"current_range_meters":12400,"station_id":"ce4bhg12rcd13ifvqf60","pricing_plan_id":"cebpf4jnsgd1na2vs0mg"},{"bike_id":"7d8a940b-fa41-48ed-bc64-d4da3160240b","system_id":"levelo_inurba_marseille","lat":43.30814,"lon":5.37913,"is_reserved":false,"is_disabled":false,"rental_uris":{"android":"levelo://app?vid=7d8a940b-fa41-48ed-bc64-d4da3160240b","ios":"levelo://app?vid=7d8a940b-fa41-48ed-bc64-d4da3160240b"},"vehicle_type_id":"4","last_reported":1747177809,"current_range_meters":12800,"station_id":"","pricing_plan_id":"cebpf4jnsgd1na2vs0mg"},{"bike_id":"4d1dec91-681c-43ec-bef1-6f9ae59b99c1","system_id":"levelo_inurba_marseille","lat":43.308107,"lon":5.381603,"is_reserved":false,"is_disabled":false,"rental_uris":{"android":"levelo://app?vid=4d1dec91-681c-43ec-bef1-6f9ae59b99c1","ios":"levelo://app?vid=4d1dec91-681c-43ec-bef1-6f9ae59b99c1"},"vehicle_type_id":"4","last_reported":1747177809,"current_range_meters":12800,"station_id":"ce4bgt12rcd13ifvqce0","pricing_plan_id":"cebpf4jnsgd1na2vs0mg"},{"bike_id":"e15dd958-cc90-41eb-8c8a-6663f7bccd99","system_id":"levelo_inurba_marseille","lat":43.311182,"lon":5.377632,"is_reserved":false,"is_disabled":false,"rental_uris":{"android":"levelo://app?vid=e15dd958-cc90-41eb-8c8a-6663f7bccd99","ios":"levelo://app?vid=e15dd958-cc90-41eb-8c8a-6663f7bccd99"},"vehicle_type_id":"4","last_reported":1747177809,"current_range_meters":12800,"station_id":"ce4bgt92rcd13ifvqcg0","pricing_plan_id":"cebpf4jnsgd1na2vs0mg"},{"bike_id":"63582912-f314-437d-bdb9-8991ea5c92a6","system_id":"levelo_inurba_marseille","lat":43.24645,"lon":5.38891,"is_reserved":false,"is_disabled":false,"rental_uris":{"android":"levelo://app?vid=63582912-f314-437d-bdb9-8991ea5c92a6","ios":"levelo://app?vid=63582912-f314-437d-bdb9-8991ea5c92a6"},"vehicle_type_id":"4","last_reported":1747177809,"current_range_meters":12800,"station_id":"ce4bhg12rcd13ifvqf60","pricing_plan_id":"cebpf4jnsgd1na2vs0mg"},{"bike_id":"a250410d-0a65-4836-b3d6-8073e02974a8","system_id":"levelo_inurba_marseille","lat":43.28702,"lon":5.39983,"is_reserved":false,"is_disabled":false,"rental_uris":{"android":"levelo://app?vid=a250410d-0a65-4836-b3d6-8073e02974a8","ios":"levelo://app?vid=a250410d-0a65-4836-b3d6-8073e02974a8"},"vehicle_type_id":"4","last_reported":1747177809,"current_range_meters":12800,"station_id":"ce4bho92rcd13ifvqh3g","pricing_plan_id":"cebpf4jnsgd1na2vs0mg"},{"bike_id":"02ae333d-bbde-4fb0-bd85-0743a6b650dd","system_id":"levelo_inurba_marseille","lat":43.303546,"lon":5.418794,"is_reserved":false,"is_disabled":false,"rental_uris":{"android":"levelo://app?vid=02ae333d-bbde-4fb0-bd85-0743a6b650dd","ios":"levelo://app?vid=02ae333d-bbde-4fb0-bd85-0743a6b650dd"},"vehicle_type_id":"4","last_reported":1747177809,"current_range_meters":12800,"station_id":"ce4bhop2rcd13ifvqh7g","pricing_plan_id":"cebpf4jnsgd1na2vs0mg"},{"bike_id":"b0242bf4-b83b-4d62-aa3e-64266801fbe9","system_id":"levelo_inurba_marseille","lat":43.310829,"lon":5.424341,"is_reserved":false,"is_disabled":false,"rental_uris":{"android":"levelo://app?vid=b0242bf4-b83b-4d62-aa3e-64266801fbe9","ios":"levelo://app?vid=b0242bf4-b83b-4d62-aa3e-64266801fbe9"},"vehicle_type_id":"4","last_reported":1747177809,"current_range_meters":12800,"station_id":"ce4bhp92rcd13ifvqhag","pricing_plan_id":"cebpf4jnsgd1na2vs0mg"},{"bike_id":"4821750a-72fd-4a71-957e-987850a371e2","system_id":"levelo_inurba_marseille","lat":43.301497,"lon":5.47649,"is_reserved":false,"is_disabled":false,"rental_uris":{"android":"levelo://app?vid=4821750a-72fd-4a71-957e-987850a371e2","ios":"levelo://app?vid=4821750a-72fd-4a71-957e-987850a371e2"},"vehicle_type_id":"4","last_reported":1747177809,"current_range_meters":13600,"station_id":"","pricing_plan_id":"cebpf4jnsgd1na2vs0mg"},{"bike_id":"84241356-8b0e-4382-ab20-0a4ae650ab7b","system_id":"levelo_inurba_marseille","lat":43.301001,"lon":5.3908,"is_reserved":false,"is_disabled":false,"rental_uris":{"android":"levelo://app?vid=84241356-8b0e-4382-ab20-0a4ae650ab7b","ios":"levelo://app?vid=84241356-8b0e-4382-ab20-0a4ae650ab7b"},"vehicle_type_id":"4","last_reported":1747177809,"current_range_meters":13600,"station_id":"ce4bh192rcd13ifvqdb0","pricing_plan_id":"cebpf4jnsgd1na2vs0mg"},{"bike_id":"ee95d7b1-23aa-4ba2-8604-c3c7e16b2172","system_id":"levelo_inurba_marseille","lat":43.289139,"lon":5.366699,"is_reserved":false,"is_disabled":false,"rental_uris":{"android":"levelo://app?vid=ee95d7b1-23aa-4ba2-8604-c3c7e16b2172","ios":"levelo://app?vid=ee95d7b1-23aa-4ba2-8604-c3c7e16b2172"},"vehicle_type_id":"4","last_reported":1747177809,"current_range_meters":13600,"station_id":"ce4bhap2rcd13ifvqek0","pricing_plan_id":"cebpf4jnsgd1na2vs0mg"},{"bike_id":"5c8b9c5b-5c2a-483e-865d-ae36047d40b5","system_id":"levelo_inurba_marseille","lat":43.30006,"lon":5.47636,"is_reserved":false,"is_disabled":false,"rental_uris":{"android":"levelo://app?vid=5c8b9c5b-5c2a-483e-865d-ae36047d40b5","ios":"levelo://app?vid=5c8b9c5b-5c2a-483e-865d-ae36047d40b5"},"vehicle_type_id":"4","last_reported":1747177809,"current_range_meters":14000,"station_id":"","pricing_plan_id":"cebpf4jnsgd1na2vs0mg"},{"bike_id":"382da604-28cd-407b-adb2-1bed2bb48c46","system_id":"levelo_inurba_marseille","lat":43.31873,"lon":5.36732,"is_reserved":false,"is_disabled":false,"rental_uris":{"android":"levelo://app?vid=382da604-28cd-407b-adb2-1bed2bb48c46","ios":"levelo://app?vid=382da604-28cd-407b-adb2-1bed2bb48c46"},"vehicle_type_id":"4","last_reported":1747177809,"current_range_meters":14000,"station_id":"","pricing_plan_id":"cebpf4jnsgd1na2vs0mg"},{"bike_id":"8105509e-103b-42b1-8c41-49fbd40131d0","system_id":"levelo_inurba_marseille","lat":43.3053,"lon":5.38426,"is_reserved":false,"is_disabled":false,"rental_uris":{"android":"levelo://app?vid=8105509e-103b-42b1-8c41-49fbd40131d0","ios":"levelo://app?vid=8105509e-103b-42b1-8c41-49fbd40131d0"},"vehicle_type_id":"4","last_reported":1747177809,"current_range_meters":14000,"station_id":"ce4bgg92rcd13ifvqb30","pricing_plan_id":"cebpf4jnsgd1na2vs0mg"},{"bike_id":"bbb4056d-3b5b-499c-aa55-a6f4e0388cad","system_id":"levelo_inurba_marseille","lat":43.27557,"lon":5.38424,"is_reserved":false,"is_disabled":false,"rental_uris":{"android":"levelo://app?vid=bbb4056d-3b5b-499c-aa55-a6f4e0388cad","ios":"levelo://app?vid=bbb4056d-3b5b-499c-aa55-a6f4e0388cad"},"vehicle_type_id":"4","last_reported":1747177809,"current_range_meters":14000,"station_id":"ce4bhh92rcd13ifvqfi0","pricing_plan_id":"cebpf4jnsgd1na2vs0mg"},{"bike_id":"26e09eef-f5bb-4c23-8c87-682fa27fa79a","system_id":"levelo_inurba_marseille","lat":43.2438,"lon":5.37024,"is_reserved":false,"is_disabled":false,"rental_uris":{"android":"levelo://app?vid=26e09eef-f5bb-4c23-8c87-682fa27fa79a","ios":"levelo://app?vid=26e09eef-f5bb-4c23-8c87-682fa27fa79a"},"vehicle_type_id":"4","last_reported":1747177809,"current_range_meters":14000,"station_id":"ce4bhhh2rcd13ifvqfk0","pricing_plan_id":"cebpf4jnsgd1na2vs0mg"},{"bike_id":"7395c0f9-eb26-4cbc-9f9b-9c1edf7364f4","system_id":"levelo_inurba_marseille","lat":43.32965,"lon":5.40569,"is_reserved":false,"is_disabled":false,"rental_uris":{"android":"levelo://app?vid=7395c0f9-eb26-4cbc-9f9b-9c1edf7364f4","ios":"levelo://app?vid=7395c0f9-eb26-4cbc-9f9b-9c1edf7364f4"},"vehicle_type_id":"4","last_reported":1747177809,"current_range_meters":14400,"station_id":"","pricing_plan_id":"cebpf4jnsgd1na2vs0mg"},{"bike_id":"55a82d97-745b-41fd-8dda-f8ea9e4d2f06","system_id":"levelo_inurba_marseille","lat":43.33581,"lon":5.42825,"is_reserved":false,"is_disabled":false,"rental_uris":{"android":"levelo://app?vid=55a82d97-745b-41fd-8dda-f8ea9e4d2f06","ios":"levelo://app?vid=55a82d97-745b-41fd-8dda-f8ea9e4d2f06"},"vehicle_type_id":"4","last_reported":1747177809,"current_range_meters":14400,"station_id":"","pricing_plan_id":"cebpf4jnsgd1na2vs0mg"},{"bike_id":"7b983520-c2bc-40d9-bfad-4a39b5981eb2","system_id":"levelo_inurba_marseille","lat":43.29301,"lon":5.37171,"is_reserved":false,"is_disabled":false,"rental_uris":{"android":"levelo://app?vid=7b983520-c2bc-40d9-bfad-4a39b5981eb2","ios":"levelo://app?vid=7b983520-c2bc-40d9-bfad-4a39b5981eb2"},"vehicle_type_id":"4","last_reported":1747177809,"current_range_meters":14400,"station_id":"ce4bgh92rcd13ifvqb40","pricing_plan_id":"cebpf4jnsgd1na2vs0mg"},{"bike_id":"301a3a6f-3f8e-4707-9290-d6655e615c25","system_id":"levelo_inurba_marseille","lat":43.31725,"lon":5.424045,"is_reserved":false,"is_disabled":false,"rental_uris":{"android":"levelo://app?vid=301a3a6f-3f8e-4707-9290-d6655e615c25","ios":"levelo://app?vid=301a3a6f-3f8e-4707-9290-d6655e615c25"},"vehicle_type_id":"4","last_reported":1747177809,"current_range_meters":14400,"station_id":"ce4bhp92rcd13ifvqhbg","pricing_plan_id":"cebpf4jnsgd1na2vs0mg"},{"bike_id":"6b7c26be-9a4f-428c-8f3a-237ecf9240f7","system_id":"levelo_inurba_marseille","lat":43.3163,"lon":5.39626,"is_reserved":false,"is_disabled":false,"rental_uris":{"android":"levelo://app?vid=6b7c26be-9a4f-428c-8f3a-237ecf9240f7","ios":"levelo://app?vid=6b7c26be-9a4f-428c-8f3a-237ecf9240f7"},"vehicle_type_id":"4","last_reported":1747177809,"current_range_meters":14800,"station_id":"","pricing_plan_id":"cebpf4jnsgd1na2vs0mg"},{"bike_id":"f57e6f12-c038-4a7e-8f40-23ed2bed5616","system_id":"levelo_inurba_marseille","lat":43.30015,"lon":5.47579,"is_reserved":false,"is_disabled":false,"rental_uris":{"android":"levelo://app?vid=f57e6f12-c038-4a7e-8f40-23ed2bed5616","ios":"levelo://app?vid=f57e6f12-c038-4a7e-8f40-23ed2bed5616"},"vehicle_type_id":"4","last_reported":1747177809,"current_range_meters":14800,"station_id":"","pricing_plan_id":"cebpf4jnsgd1na2vs0mg"},{"bike_id":"42cfaabc-d4d4-405c-ab84-52ce3ce3032a","system_id":"levelo_inurba_marseille","lat":43.317229,"lon":5.436037,"is_reserved":false,"is_disabled":false,"rental_uris":{"android":"levelo://app?vid=42cfaabc-d4d4-405c-ab84-52ce3ce3032a","ios":"levelo://app?vid=42cfaabc-d4d4-405c-ab84-52ce3ce3032a"},"vehicle_type_id":"4","last_reported":1747177809,"current_range_meters":14800,"station_id":"","pricing_plan_id":"cebpf4jnsgd1na2vs0mg"},{"bike_id":"a0c836bd-3175-4f52-b689-ec99736589ef","system_id":"levelo_inurba_marseille","lat":43.245509,"lon":5.395179,"is_reserved":false,"is_disabled":false,"rental_uris":{"android":"levelo://app?vid=a0c836bd-3175-4f52-b689-ec99736589ef","ios":"levelo://app?vid=a0c836bd-3175-4f52-b689-ec99736589ef"},"vehicle_type_id":"4","last_reported":1747177809,"current_range_meters":14800,"station_id":"ce4bhlp2rcd13ifvqgjg","pricing_plan_id":"cebpf4jnsgd1na2vs0mg"},{"bike_id":"5b83d4c8-c0b4-47f3-b1d8-051959d6423b","system_id":"levelo_inurba_marseille","lat":43.26216,"lon":5.40438,"is_reserved":false,"is_disabled":false,"rental_uris":{"android":"levelo://app?vid=5b83d4c8-c0b4-47f3-b1d8-051959d6423b","ios":"levelo://app?vid=5b83d4c8-c0b4-47f3-b1d8-051959d6423b"},"vehicle_type_id":"4","last_reported":1747177809,"current_range_meters":14800,"station_id":"ce4bhmh2rcd13ifvqgmg","pricing_plan_id":"cebpf4jnsgd1na2vs0mg"},{"bike_id":"ddede2fb-2f81-465d-98bb-e95d89460d99","system_id":"levelo_inurba_marseille","lat":43.28713,"lon":5.39968,"is_reserved":false,"is_disabled":false,"rental_uris":{"android":"levelo://app?vid=ddede2fb-2f81-465d-98bb-e95d89460d99","ios":"levelo://app?vid=ddede2fb-2f81-465d-98bb-e95d89460d99"},"vehicle_type_id":"4","last_reported":1747177809,"current_range_meters":14800,"station_id":"ce4bho92rcd13ifvqh3g","pricing_plan_id":"cebpf4jnsgd1na2vs0mg"},{"bike_id":"f0267f64-5ef8-4ce2-9a46-84b39f9f0f53","system_id":"levelo_inurba_marseille","lat":43.27994,"lon":5.40011,"is_reserved":false,"is_disabled":false,"rental_uris":{"android":"levelo://app?vid=f0267f64-5ef8-4ce2-9a46-84b39f9f0f53","ios":"levelo://app?vid=f0267f64-5ef8-4ce2-9a46-84b39f9f0f53"},"vehicle_type_id":"4","last_reported":1747177809,"current_range_meters":14800,"station_id":"ce4bho92rcd13ifvqh4g","pricing_plan_id":"cebpf4jnsgd1na2vs0mg"},{"bike_id":"79e3b530-86a7-4cfb-beab-fad1c6a6c9c5","system_id":"levelo_inurba_marseille","lat":43.29906,"lon":5.38167,"is_reserved":false,"is_disabled":false,"rental_uris":{"android":"levelo://app?vid=79e3b530-86a7-4cfb-beab-fad1c6a6c9c5","ios":"levelo://app?vid=79e3b530-86a7-4cfb-beab-fad1c6a6c9c5"},"vehicle_type_id":"4","last_reported":1747177809,"current_range_meters":15200,"station_id":"ce4bgj12rcd13ifvqbc0","pricing_plan_id":"cebpf4jnsgd1na2vs0mg"},{"bike_id":"ebbb3db5-66b4-4907-9a7b-ed749cb4c62b","system_id":"levelo_inurba_marseille","lat":43.317576,"lon":5.39019,"is_reserved":false,"is_disabled":false,"rental_uris":{"android":"levelo://app?vid=ebbb3db5-66b4-4907-9a7b-ed749cb4c62b","ios":"levelo://app?vid=ebbb3db5-66b4-4907-9a7b-ed749cb4c62b"},"vehicle_type_id":"4","last_reported":1747177809,"current_range_meters":15200,"station_id":"ce4bhqp2rcd13ifvqhng","pricing_plan_id":"cebpf4jnsgd1na2vs0mg"},{"bike_id":"6c320e07-d645-40f2-af93-68425ed6e226","system_id":"levelo_inurba_marseille","lat":43.31068,"lon":5.3835,"is_reserved":false,"is_disabled":false,"rental_uris":{"android":"levelo://app?vid=6c320e07-d645-40f2-af93-68425ed6e226","ios":"levelo://app?vid=6c320e07-d645-40f2-af93-68425ed6e226"},"vehicle_type_id":"4","last_reported":1747177809,"current_range_meters":16000,"station_id":"ce4bgv92rcd13ifvqcr0","pricing_plan_id":"cebpf4jnsgd1na2vs0mg"},{"bike_id":"356eb65b-4211-494a-b4a2-fba28f60c55b","system_id":"levelo_inurba_marseille","lat":43.312649,"lon":5.40157,"is_reserved":false,"is_disabled":false,"rental_uris":{"android":"levelo://app?vid=356eb65b-4211-494a-b4a2-fba28f60c55b","ios":"levelo://app?vid=356eb65b-4211-494a-b4a2-fba28f60c55b"},"vehicle_type_id":"4","last_reported":1747177809,"current_range_meters":16000,"station_id":"ce4bh092rcd13ifvqd30","pricing_plan_id":"cebpf4jnsgd1na2vs0mg"},{"bike_id":"1e297e0e-a907-489c-9a22-1dfb89bfb64f","system_id":"levelo_inurba_marseille","lat":43.29227,"lon":5.36435,"is_reserved":false,"is_disabled":false,"rental_uris":{"android":"levelo://app?vid=1e297e0e-a907-489c-9a22-1dfb89bfb64f","ios":"levelo://app?vid=1e297e0e-a907-489c-9a22-1dfb89bfb64f"},"vehicle_type_id":"4","last_reported":1747177809,"current_range_meters":16400,"station_id":"","pricing_plan_id":"cebpf4jnsgd1na2vs0mg"},{"bike_id":"0c893fb7-8626-4706-85bf-f404b871dea5","system_id":"levelo_inurba_marseille","lat":43.281288,"lon":5.445844,"is_reserved":false,"is_disabled":false,"rental_uris":{"android":"levelo://app?vid=0c893fb7-8626-4706-85bf-f404b871dea5","ios":"levelo://app?vid=0c893fb7-8626-4706-85bf-f404b871dea5"},"vehicle_type_id":"4","last_reported":1747177809,"current_range_meters":16400,"station_id":"","pricing_plan_id":"cebpf4jnsgd1na2vs0mg"},{"bike_id":"57ab902e-1d3b-490e-8d67-17fc65e6b6a3","system_id":"levelo_inurba_marseille","lat":43.30801,"lon":5.38149,"is_reserved":false,"is_disabled":false,"rental_uris":{"android":"levelo://app?vid=57ab902e-1d3b-490e-8d67-17fc65e6b6a3","ios":"levelo://app?vid=57ab902e-1d3b-490e-8d67-17fc65e6b6a3"},"vehicle_type_id":"4","last_reported":1747177809,"current_range_meters":16400,"station_id":"ce4bgt12rcd13ifvqce0","pricing_plan_id":"cebpf4jnsgd1na2vs0mg"},{"bike_id":"f91a9f20-e278-49f9-bff0-9af4e1bfdc72","system_id":"levelo_inurba_marseille","lat":43.28686,"lon":5.39967,"is_reserved":false,"is_disabled":false,"rental_uris":{"android":"levelo://app?vid=f91a9f20-e278-49f9-bff0-9af4e1bfdc72","ios":"levelo://app?vid=f91a9f20-e278-49f9-bff0-9af4e1bfdc72"},"vehicle_type_id":"4","last_reported":1747177809,"current_range_meters":16400,"station_id":"ce4bho92rcd13ifvqh3g","pricing_plan_id":"cebpf4jnsgd1na2vs0mg"},{"bike_id":"e1b7877d-b413-4fd3-b7e0-fbf47c737189","system_id":"levelo_inurba_marseille","lat":43.28436,"lon":5.39196,"is_reserved":false,"is_disabled":false,"rental_uris":{"android":"levelo://app?vid=e1b7877d-b413-4fd3-b7e0-fbf47c737189","ios":"levelo://app?vid=e1b7877d-b413-4fd3-b7e0-fbf47c737189"},"vehicle_type_id":"4","last_reported":1747177809,"current_range_meters":16400,"station_id":"ce4bhoh2rcd13ifvqh5g","pricing_plan_id":"cebpf4jnsgd1na2vs0mg"},{"bike_id":"97217441-ea12-4518-a887-81be72138ac9","system_id":"levelo_inurba_marseille","lat":43.305808,"lon":5.393573,"is_reserved":false,"is_disabled":false,"rental_uris":{"android":"levelo://app?vid=97217441-ea12-4518-a887-81be72138ac9","ios":"levelo://app?vid=97217441-ea12-4518-a887-81be72138ac9"},"vehicle_type_id":"4","last_reported":1747177809,"current_range_meters":16800,"station_id":"ce4bh0p2rcd13ifvqd80","pricing_plan_id":"cebpf4jnsgd1na2vs0mg"},{"bike_id":"32b7020e-1726-46f6-9ab7-2466e1437a8e","system_id":"levelo_inurba_marseille","lat":43.29049,"lon":5.35889,"is_reserved":false,"is_disabled":false,"rental_uris":{"android":"levelo://app?vid=32b7020e-1726-46f6-9ab7-2466e1437a8e","ios":"levelo://app?vid=32b7020e-1726-46f6-9ab7-2466e1437a8e"},"vehicle_type_id":"4","last_reported":1747177809,"current_range_meters":16800,"station_id":"ce4bha92rcd13ifvqeg0","pricing_plan_id":"cebpf4jnsgd1na2vs0mg"},{"bike_id":"8d563e64-e76f-43b4-934f-0ef8b1e94d35","system_id":"levelo_inurba_marseille","lat":43.318793,"lon":5.37379,"is_reserved":false,"is_disabled":false,"rental_uris":{"android":"levelo://app?vid=8d563e64-e76f-43b4-934f-0ef8b1e94d35","ios":"levelo://app?vid=8d563e64-e76f-43b4-934f-0ef8b1e94d35"},"vehicle_type_id":"4","last_reported":1747177809,"current_range_meters":17200,"station_id":"","pricing_plan_id":"cebpf4jnsgd1na2vs0mg"},{"bike_id":"bd2b5a4c-e937-4cff-a5f6-59cf103d5392","system_id":"levelo_inurba_marseille","lat":43.30252,"lon":5.40084,"is_reserved":false,"is_disabled":false,"rental_uris":{"android":"levelo://app?vid=bd2b5a4c-e937-4cff-a5f6-59cf103d5392","ios":"levelo://app?vid=bd2b5a4c-e937-4cff-a5f6-59cf103d5392"},"vehicle_type_id":"4","last_reported":1747177809,"current_range_meters":17200,"station_id":"ce4bgvh2rcd13ifvqcs0","pricing_plan_id":"cebpf4jnsgd1na2vs0mg"},{"bike_id":"bb6276ba-fb0d-470d-9ea4-cdc7b83a7468","system_id":"levelo_inurba_marseille","lat":43.29572,"lon":5.39966,"is_reserved":false,"is_disabled":false,"rental_uris":{"android":"levelo://app?vid=bb6276ba-fb0d-470d-9ea4-cdc7b83a7468","ios":"levelo://app?vid=bb6276ba-fb0d-470d-9ea4-cdc7b83a7468"},"vehicle_type_id":"4","last_reported":1747177809,"current_range_meters":17200,"station_id":"ce4bh312rcd13ifvqdj0","pricing_plan_id":"cebpf4jnsgd1na2vs0mg"},{"bike_id":"140a4313-931b-4531-86c2-56a878302554","system_id":"levelo_inurba_marseille","lat":43.30934,"lon":5.40149,"is_reserved":false,"is_disabled":false,"rental_uris":{"android":"levelo://app?vid=140a4313-931b-4531-86c2-56a878302554","ios":"levelo://app?vid=140a4313-931b-4531-86c2-56a878302554"},"vehicle_type_id":"4","last_reported":1747177809,"current_range_meters":17600,"station_id":"ce4bgvp2rcd13ifvqct0","pricing_plan_id":"cebpf4jnsgd1na2vs0mg"},{"bike_id":"0b5e4325-202f-4149-942e-ef8dd7da7992","system_id":"levelo_inurba_marseille","lat":43.2868,"lon":5.386563,"is_reserved":false,"is_disabled":false,"rental_uris":{"android":"levelo://app?vid=0b5e4325-202f-4149-942e-ef8dd7da7992","ios":"levelo://app?vid=0b5e4325-202f-4149-942e-ef8dd7da7992"},"vehicle_type_id":"4","last_reported":1747177809,"current_range_meters":17600,"station_id":"ce4bh492rcd13ifvqdug","pricing_plan_id":"cebpf4jnsgd1na2vs0mg"},{"bike_id":"f8f1723d-98a8-4f57-b09b-e0626a73568c","system_id":"levelo_inurba_marseille","lat":43.279027,"lon":5.37997,"is_reserved":false,"is_disabled":false,"rental_uris":{"android":"levelo://app?vid=f8f1723d-98a8-4f57-b09b-e0626a73568c","ios":"levelo://app?vid=f8f1723d-98a8-4f57-b09b-e0626a73568c"},"vehicle_type_id":"4","last_reported":1747177809,"current_range_meters":17600,"station_id":"ce4bhf92rcd13ifvqf50","pricing_plan_id":"cebpf4jnsgd1na2vs0mg"},{"bike_id":"10f98a35-89c5-4475-9c01-49b1c98311db","system_id":"levelo_inurba_marseille","lat":43.27572,"lon":5.38407,"is_reserved":false,"is_disabled":false,"rental_uris":{"android":"levelo://app?vid=10f98a35-89c5-4475-9c01-49b1c98311db","ios":"levelo://app?vid=10f98a35-89c5-4475-9c01-49b1c98311db"},"vehicle_type_id":"4","last_reported":1747177809,"current_range_meters":17600,"station_id":"ce4bhh92rcd13ifvqfi0","pricing_plan_id":"cebpf4jnsgd1na2vs0mg"},{"bike_id":"7725aa1e-b0b3-4e99-93ab-eefed6b422bc","system_id":"levelo_inurba_marseille","lat":43.32029,"lon":5.38287,"is_reserved":false,"is_disabled":false,"rental_uris":{"android":"levelo://app?vid=7725aa1e-b0b3-4e99-93ab-eefed6b422bc","ios":"levelo://app?vid=7725aa1e-b0b3-4e99-93ab-eefed6b422bc"},"vehicle_type_id":"4","last_reported":1747177809,"current_range_meters":18000,"station_id":"","pricing_plan_id":"cebpf4jnsgd1na2vs0mg"},{"bike_id":"b4777d59-fc56-46ae-8a48-c6f6a5536c77","system_id":"levelo_inurba_marseille","lat":43.30314,"lon":5.40436,"is_reserved":false,"is_disabled":false,"rental_uris":{"android":"levelo://app?vid=b4777d59-fc56-46ae-8a48-c6f6a5536c77","ios":"levelo://app?vid=b4777d59-fc56-46ae-8a48-c6f6a5536c77"},"vehicle_type_id":"4","last_reported":1747177809,"current_range_meters":18000,"station_id":"ce4bh012rcd13ifvqd10","pricing_plan_id":"cebpf4jnsgd1na2vs0mg"},{"bike_id":"3a38be58-7cfa-4616-b7da-ed8acbc61bb7","system_id":"levelo_inurba_marseille","lat":43.24388,"lon":5.37059,"is_reserved":false,"is_disabled":false,"rental_uris":{"android":"levelo://app?vid=3a38be58-7cfa-4616-b7da-ed8acbc61bb7","ios":"levelo://app?vid=3a38be58-7cfa-4616-b7da-ed8acbc61bb7"},"vehicle_type_id":"4","last_reported":1747177809,"current_range_meters":18000,"station_id":"ce4bhhh2rcd13ifvqfk0","pricing_plan_id":"cebpf4jnsgd1na2vs0mg"},{"bike_id":"51436966-3bae-4f05-bd39-e136a6553cbf","system_id":"levelo_inurba_marseille","lat":43.28435,"lon":5.39211,"is_reserved":false,"is_disabled":false,"rental_uris":{"android":"levelo://app?vid=51436966-3bae-4f05-bd39-e136a6553cbf","ios":"levelo://app?vid=51436966-3bae-4f05-bd39-e136a6553cbf"},"vehicle_type_id":"4","last_reported":1747177809,"current_range_meters":18000,"station_id":"ce4bhoh2rcd13ifvqh5g","pricing_plan_id":"cebpf4jnsgd1na2vs0mg"},{"bike_id":"5d370f72-1749-4f0b-9815-d32525a7fd58","system_id":"levelo_inurba_marseille","lat":43.32338,"lon":5.40618,"is_reserved":false,"is_disabled":false,"rental_uris":{"android":"levelo://app?vid=5d370f72-1749-4f0b-9815-d32525a7fd58","ios":"levelo://app?vid=5d370f72-1749-4f0b-9815-d32525a7fd58"},"vehicle_type_id":"4","last_reported":1747177809,"current_range_meters":18000,"station_id":"ce4bhq92rcd13ifvqhjg","pricing_plan_id":"cebpf4jnsgd1na2vs0mg"},{"bike_id":"c5a6038e-e242-4c42-a6da-186787771b16","system_id":"levelo_inurba_marseille","lat":43.21778,"lon":5.34598,"is_reserved":false,"is_disabled":false,"rental_uris":{"android":"levelo://app?vid=c5a6038e-e242-4c42-a6da-186787771b16","ios":"levelo://app?vid=c5a6038e-e242-4c42-a6da-186787771b16"},"vehicle_type_id":"4","last_reported":1747177809,"current_range_meters":18000,"station_id":"st_cvj6r9ubvosntc0bgbag","pricing_plan_id":"cebpf4jnsgd1na2vs0mg"},{"bike_id":"8494d181-9ae5-4c66-9c18-2effdb88bdb3","system_id":"levelo_inurba_marseille","lat":43.30788,"lon":5.37642,"is_reserved":false,"is_disabled":false,"rental_uris":{"android":"levelo://app?vid=8494d181-9ae5-4c66-9c18-2effdb88bdb3","ios":"levelo://app?vid=8494d181-9ae5-4c66-9c18-2effdb88bdb3"},"vehicle_type_id":"4","last_reported":1747177809,"current_range_meters":18800,"station_id":"ce4bgv92rcd13ifvqcq0","pricing_plan_id":"cebpf4jnsgd1na2vs0mg"},{"bike_id":"ffc6879f-a245-4d68-a699-afc6cc6c2490","system_id":"levelo_inurba_marseille","lat":43.30327,"lon":5.40436,"is_reserved":false,"is_disabled":false,"rental_uris":{"android":"levelo://app?vid=ffc6879f-a245-4d68-a699-afc6cc6c2490","ios":"levelo://app?vid=ffc6879f-a245-4d68-a699-afc6cc6c2490"},"vehicle_type_id":"4","last_reported":1747177809,"current_range_meters":18800,"station_id":"ce4bh012rcd13ifvqd10","pricing_plan_id":"cebpf4jnsgd1na2vs0mg"},{"bike_id":"1f4658bd-b04a-47f1-8fa8-8ae9eb2b41b6","system_id":"levelo_inurba_marseille","lat":43.287085,"lon":5.39989,"is_reserved":false,"is_disabled":false,"rental_uris":{"android":"levelo://app?vid=1f4658bd-b04a-47f1-8fa8-8ae9eb2b41b6","ios":"levelo://app?vid=1f4658bd-b04a-47f1-8fa8-8ae9eb2b41b6"},"vehicle_type_id":"4","last_reported":1747177809,"current_range_meters":18800,"station_id":"ce4bho92rcd13ifvqh3g","pricing_plan_id":"cebpf4jnsgd1na2vs0mg"},{"bike_id":"29ce2bff-29c9-4638-a93d-53611c79a41e","system_id":"levelo_inurba_marseille","lat":43.323636,"lon":5.388874,"is_reserved":false,"is_disabled":false,"rental_uris":{"android":"levelo://app?vid=29ce2bff-29c9-4638-a93d-53611c79a41e","ios":"levelo://app?vid=29ce2bff-29c9-4638-a93d-53611c79a41e"},"vehicle_type_id":"4","last_reported":1747177809,"current_range_meters":18800,"station_id":"ce4bhqp2rcd13ifvqhog","pricing_plan_id":"cebpf4jnsgd1na2vs0mg"},{"bike_id":"4fc49f79-fa67-4460-a03b-8373ee1b7092","system_id":"levelo_inurba_marseille","lat":43.268063,"lon":5.402693,"is_reserved":false,"is_disabled":false,"rental_uris":{"android":"levelo://app?vid=4fc49f79-fa67-4460-a03b-8373ee1b7092","ios":"levelo://app?vid=4fc49f79-fa67-4460-a03b-8373ee1b7092"},"vehicle_type_id":"4","last_reported":1747177809,"current_range_meters":18800,"station_id":"ce501612rcd8frsf0b60","pricing_plan_id":"cebpf4jnsgd1na2vs0mg"},{"bike_id":"c77744cd-dd85-473a-952b-e9873b6afa4f","system_id":"levelo_inurba_marseille","lat":43.332238,"lon":5.404335,"is_reserved":false,"is_disabled":false,"rental_uris":{"android":"levelo://app?vid=c77744cd-dd85-473a-952b-e9873b6afa4f","ios":"levelo://app?vid=c77744cd-dd85-473a-952b-e9873b6afa4f"},"vehicle_type_id":"4","last_reported":1747177809,"current_range_meters":19200,"station_id":"","pricing_plan_id":"cebpf4jnsgd1na2vs0mg"},{"bike_id":"743d0d38-9a78-4c3b-bda7-0ebf8bc2b883","system_id":"levelo_inurba_marseille","lat":43.29197,"lon":5.39314,"is_reserved":false,"is_disabled":false,"rental_uris":{"android":"levelo://app?vid=743d0d38-9a78-4c3b-bda7-0ebf8bc2b883","ios":"levelo://app?vid=743d0d38-9a78-4c3b-bda7-0ebf8bc2b883"},"vehicle_type_id":"4","last_reported":1747177809,"current_range_meters":19200,"station_id":"ce4bh192rcd13ifvqdd0","pricing_plan_id":"cebpf4jnsgd1na2vs0mg"},{"bike_id":"1cfb5e24-e097-429b-8c97-a76aaf9b3f49","system_id":"levelo_inurba_marseille","lat":43.24673,"lon":5.38153,"is_reserved":false,"is_disabled":false,"rental_uris":{"android":"levelo://app?vid=1cfb5e24-e097-429b-8c97-a76aaf9b3f49","ios":"levelo://app?vid=1cfb5e24-e097-429b-8c97-a76aaf9b3f49"},"vehicle_type_id":"4","last_reported":1747177809,"current_range_meters":19200,"station_id":"ce4bhih2rcd13ifvqfr0","pricing_plan_id":"cebpf4jnsgd1na2vs0mg"},{"bike_id":"3315caf7-376f-4460-bd73-ddce057d5263","system_id":"levelo_inurba_marseille","lat":43.240672,"lon":5.377336,"is_reserved":false,"is_disabled":false,"rental_uris":{"android":"levelo://app?vid=3315caf7-376f-4460-bd73-ddce057d5263","ios":"levelo://app?vid=3315caf7-376f-4460-bd73-ddce057d5263"},"vehicle_type_id":"4","last_reported":1747177809,"current_range_meters":19200,"station_id":"ce4bhnp2rcd13ifvqgvg","pricing_plan_id":"cebpf4jnsgd1na2vs0mg"},{"bike_id":"698ec32a-f174-4bbe-87ad-8cc7c40c91b5","system_id":"levelo_inurba_marseille","lat":43.33716,"lon":5.39187,"is_reserved":false,"is_disabled":false,"rental_uris":{"android":"levelo://app?vid=698ec32a-f174-4bbe-87ad-8cc7c40c91b5","ios":"levelo://app?vid=698ec32a-f174-4bbe-87ad-8cc7c40c91b5"},"vehicle_type_id":"4","last_reported":1747177809,"current_range_meters":19200,"station_id":"ce4bhr92rcd13ifvqhsg","pricing_plan_id":"cebpf4jnsgd1na2vs0mg"},{"bike_id":"5647a91f-31a6-41fb-82bb-83893a94fc73","system_id":"levelo_inurba_marseille","lat":43.212033,"lon":5.350671,"is_reserved":false,"is_disabled":false,"rental_uris":{"android":"levelo://app?vid=5647a91f-31a6-41fb-82bb-83893a94fc73","ios":"levelo://app?vid=5647a91f-31a6-41fb-82bb-83893a94fc73"},"vehicle_type_id":"4","last_reported":1747177809,"current_range_meters":19200,"station_id":"st_cvj6sg6p6f1abm77japg","pricing_plan_id":"cebpf4jnsgd1na2vs0mg"},{"bike_id":"71184bd5-3817-43b3-8b7e-8c7eedcc81a3","system_id":"levelo_inurba_marseille","lat":43.30323,"lon":5.40435,"is_reserved":false,"is_disabled":false,"rental_uris":{"android":"levelo://app?vid=71184bd5-3817-43b3-8b7e-8c7eedcc81a3","ios":"levelo://app?vid=71184bd5-3817-43b3-8b7e-8c7eedcc81a3"},"vehicle_type_id":"4","last_reported":1747177809,"current_range_meters":19600,"station_id":"ce4bh012rcd13ifvqd10","pricing_plan_id":"cebpf4jnsgd1na2vs0mg"},{"bike_id":"0b9607ef-f196-4c2a-a63c-3384ebed5fb2","system_id":"levelo_inurba_marseille","lat":43.29867,"lon":5.3974,"is_reserved":false,"is_disabled":false,"rental_uris":{"android":"levelo://app?vid=0b9607ef-f196-4c2a-a63c-3384ebed5fb2","ios":"levelo://app?vid=0b9607ef-f196-4c2a-a63c-3384ebed5fb2"},"vehicle_type_id":"4","last_reported":1747177809,"current_range_meters":19600,"station_id":"ce4bh0h2rcd13ifvqd50","pricing_plan_id":"cebpf4jnsgd1na2vs0mg"},{"bike_id":"c61dc4c2-1457-4a98-ab55-37af57e827a1","system_id":"levelo_inurba_marseille","lat":43.28156,"lon":5.42644,"is_reserved":false,"is_disabled":false,"rental_uris":{"android":"levelo://app?vid=c61dc4c2-1457-4a98-ab55-37af57e827a1","ios":"levelo://app?vid=c61dc4c2-1457-4a98-ab55-37af57e827a1"},"vehicle_type_id":"4","last_reported":1747177809,"current_range_meters":19600,"station_id":"ce4bhnh2rcd13ifvqgug","pricing_plan_id":"cebpf4jnsgd1na2vs0mg"},{"bike_id":"c11d672d-5ac8-4a85-b01e-f9e4763d878d","system_id":"levelo_inurba_marseille","lat":43.335782,"lon":5.40987,"is_reserved":false,"is_disabled":false,"rental_uris":{"android":"levelo://app?vid=c11d672d-5ac8-4a85-b01e-f9e4763d878d","ios":"levelo://app?vid=c11d672d-5ac8-4a85-b01e-f9e4763d878d"},"vehicle_type_id":"4","last_reported":1747177809,"current_range_meters":19600,"station_id":"ce4bhqh2rcd13ifvqhmg","pricing_plan_id":"cebpf4jnsgd1na2vs0mg"},{"bike_id":"042b9723-7f0a-48a6-9720-7f35c609a25c","system_id":"levelo_inurba_marseille","lat":43.31383,"lon":5.38513,"is_reserved":false,"is_disabled":false,"rental_uris":{"android":"levelo://app?vid=042b9723-7f0a-48a6-9720-7f35c609a25c","ios":"levelo://app?vid=042b9723-7f0a-48a6-9720-7f35c609a25c"},"vehicle_type_id":"4","last_reported":1747177809,"current_range_meters":20000,"station_id":"ce4bgt92rcd13ifvqcf0","pricing_plan_id":"cebpf4jnsgd1na2vs0mg"},{"bike_id":"49a5f454-00ee-4b17-84b8-175848e72351","system_id":"levelo_inurba_marseille","lat":43.30653,"lon":5.400871,"is_reserved":false,"is_disabled":false,"rental_uris":{"android":"levelo://app?vid=49a5f454-00ee-4b17-84b8-175848e72351","ios":"levelo://app?vid=49a5f454-00ee-4b17-84b8-175848e72351"},"vehicle_type_id":"4","last_reported":1747177809,"current_range_meters":20000,"station_id":"ce4bh112rcd13ifvqda0","pricing_plan_id":"cebpf4jnsgd1na2vs0mg"},{"bike_id":"c4f204d2-505f-4d38-a978-29d1e951ec0a","system_id":"levelo_inurba_marseille","lat":43.25001,"lon":5.38926,"is_reserved":false,"is_disabled":false,"rental_uris":{"android":"levelo://app?vid=c4f204d2-505f-4d38-a978-29d1e951ec0a","ios":"levelo://app?vid=c4f204d2-505f-4d38-a978-29d1e951ec0a"},"vehicle_type_id":"4","last_reported":1747177809,"current_range_meters":20000,"station_id":"ce4bhgp2rcd13ifvqfd0","pricing_plan_id":"cebpf4jnsgd1na2vs0mg"},{"bike_id":"c2b14f17-082d-4942-ac27-c2062cd954d6","system_id":"levelo_inurba_marseille","lat":43.2618,"lon":5.37921,"is_reserved":false,"is_disabled":false,"rental_uris":{"android":"levelo://app?vid=c2b14f17-082d-4942-ac27-c2062cd954d6","ios":"levelo://app?vid=c2b14f17-082d-4942-ac27-c2062cd954d6"},"vehicle_type_id":"4","last_reported":1747177809,"current_range_meters":20000,"station_id":"ce4bhjp2rcd13ifvqg90","pricing_plan_id":"cebpf4jnsgd1na2vs0mg"},{"bike_id":"41534364-62ff-4459-92c4-4f300a43681b","system_id":"levelo_inurba_marseille","lat":43.284415,"lon":5.392025,"is_reserved":false,"is_disabled":false,"rental_uris":{"android":"levelo://app?vid=41534364-62ff-4459-92c4-4f300a43681b","ios":"levelo://app?vid=41534364-62ff-4459-92c4-4f300a43681b"},"vehicle_type_id":"4","last_reported":1747177809,"current_range_meters":20000,"station_id":"ce4bhoh2rcd13ifvqh5g","pricing_plan_id":"cebpf4jnsgd1na2vs0mg"},{"bike_id":"ac0112c9-313e-422c-910b-a3523b05b0c9","system_id":"levelo_inurba_marseille","lat":43.230544,"lon":5.354871,"is_reserved":false,"is_disabled":false,"rental_uris":{"android":"levelo://app?vid=ac0112c9-313e-422c-910b-a3523b05b0c9","ios":"levelo://app?vid=ac0112c9-313e-422c-910b-a3523b05b0c9"},"vehicle_type_id":"4","last_reported":1747177809,"current_range_meters":20000,"station_id":"cpo3342slgdg3j2ifvpg","pricing_plan_id":"cebpf4jnsgd1na2vs0mg"},{"bike_id":"f0649364-0107-4d97-ae7e-c2cb5ebd23f0","system_id":"levelo_inurba_marseille","lat":43.2176,"lon":5.34595,"is_reserved":false,"is_disabled":false,"rental_uris":{"android":"levelo://app?vid=f0649364-0107-4d97-ae7e-c2cb5ebd23f0","ios":"levelo://app?vid=f0649364-0107-4d97-ae7e-c2cb5ebd23f0"},"vehicle_type_id":"4","last_reported":1747177809,"current_range_meters":20000,"station_id":"st_cvj6r9ubvosntc0bgbag","pricing_plan_id":"cebpf4jnsgd1na2vs0mg"},{"bike_id":"e409cd08-b9c4-4d62-aefb-05d029e2c480","system_id":"levelo_inurba_marseille","lat":43.30677,"lon":5.42813,"is_reserved":false,"is_disabled":false,"rental_uris":{"android":"levelo://app?vid=e409cd08-b9c4-4d62-aefb-05d029e2c480","ios":"levelo://app?vid=e409cd08-b9c4-4d62-aefb-05d029e2c480"},"vehicle_type_id":"4","last_reported":1747177809,"current_range_meters":20400,"station_id":"","pricing_plan_id":"cebpf4jnsgd1na2vs0mg"},{"bike_id":"09a35a50-6156-435d-8ef9-8519335d4492","system_id":"levelo_inurba_marseille","lat":43.30655,"lon":5.4007,"is_reserved":false,"is_disabled":false,"rental_uris":{"android":"levelo://app?vid=09a35a50-6156-435d-8ef9-8519335d4492","ios":"levelo://app?vid=09a35a50-6156-435d-8ef9-8519335d4492"},"vehicle_type_id":"4","last_reported":1747177809,"current_range_meters":20400,"station_id":"ce4bh112rcd13ifvqda0","pricing_plan_id":"cebpf4jnsgd1na2vs0mg"},{"bike_id":"9f1268c2-d2d6-4f6b-ad6b-d35923580a6d","system_id":"levelo_inurba_marseille","lat":43.2418,"lon":5.39724,"is_reserved":false,"is_disabled":false,"rental_uris":{"android":"levelo://app?vid=9f1268c2-d2d6-4f6b-ad6b-d35923580a6d","ios":"levelo://app?vid=9f1268c2-d2d6-4f6b-ad6b-d35923580a6d"},"vehicle_type_id":"4","last_reported":1747177809,"current_range_meters":20400,"station_id":"ce4bhn12rcd13ifvqgpg","pricing_plan_id":"cebpf4jnsgd1na2vs0mg"},{"bike_id":"000c0b13-a9a2-4019-bac1-98362dbbca8f","system_id":"levelo_inurba_marseille","lat":43.2407,"lon":5.37753,"is_reserved":false,"is_disabled":false,"rental_uris":{"android":"levelo://app?vid=000c0b13-a9a2-4019-bac1-98362dbbca8f","ios":"levelo://app?vid=000c0b13-a9a2-4019-bac1-98362dbbca8f"},"vehicle_type_id":"4","last_reported":1747177809,"current_range_meters":20400,"station_id":"ce4bhnp2rcd13ifvqgvg","pricing_plan_id":"cebpf4jnsgd1na2vs0mg"},{"bike_id":"a0b33ced-2d73-4ee0-93d7-11f117c46477","system_id":"levelo_inurba_marseille","lat":43.30802,"lon":5.38125,"is_reserved":false,"is_disabled":false,"rental_uris":{"android":"levelo://app?vid=a0b33ced-2d73-4ee0-93d7-11f117c46477","ios":"levelo://app?vid=a0b33ced-2d73-4ee0-93d7-11f117c46477"},"vehicle_type_id":"4","last_reported":1747177809,"current_range_meters":20800,"station_id":"ce4bgt12rcd13ifvqce0","pricing_plan_id":"cebpf4jnsgd1na2vs0mg"},{"bike_id":"65a2976c-8b04-429a-95dd-f42d445408eb","system_id":"levelo_inurba_marseille","lat":43.28939,"lon":5.39623,"is_reserved":false,"is_disabled":false,"rental_uris":{"android":"levelo://app?vid=65a2976c-8b04-429a-95dd-f42d445408eb","ios":"levelo://app?vid=65a2976c-8b04-429a-95dd-f42d445408eb"},"vehicle_type_id":"4","last_reported":1747177809,"current_range_meters":20800,"station_id":"ce4bh3h2rcd13ifvqdn0","pricing_plan_id":"cebpf4jnsgd1na2vs0mg"},{"bike_id":"e4d6b6aa-c524-451f-a91f-6316d65123c9","system_id":"levelo_inurba_marseille","lat":43.28462,"lon":5.35873,"is_reserved":false,"is_disabled":false,"rental_uris":{"android":"levelo://app?vid=e4d6b6aa-c524-451f-a91f-6316d65123c9","ios":"levelo://app?vid=e4d6b6aa-c524-451f-a91f-6316d65123c9"},"vehicle_type_id":"4","last_reported":1747177809,"current_range_meters":20800,"station_id":"ce4bhah2rcd13ifvqei0","pricing_plan_id":"cebpf4jnsgd1na2vs0mg"},{"bike_id":"68bd40db-e76c-4167-888e-a375f5a26ea6","system_id":"levelo_inurba_marseille","lat":43.28163,"lon":5.42627,"is_reserved":false,"is_disabled":false,"rental_uris":{"android":"levelo://app?vid=68bd40db-e76c-4167-888e-a375f5a26ea6","ios":"levelo://app?vid=68bd40db-e76c-4167-888e-a375f5a26ea6"},"vehicle_type_id":"4","last_reported":1747177809,"current_range_meters":20800,"station_id":"ce4bhnh2rcd13ifvqgug","pricing_plan_id":"cebpf4jnsgd1na2vs0mg"},{"bike_id":"406489b6-1d82-4c67-be0d-dfa2ed69b9c3","system_id":"levelo_inurba_marseille","lat":43.279439,"lon":5.410542,"is_reserved":false,"is_disabled":false,"rental_uris":{"android":"levelo://app?vid=406489b6-1d82-4c67-be0d-dfa2ed69b9c3","ios":"levelo://app?vid=406489b6-1d82-4c67-be0d-dfa2ed69b9c3"},"vehicle_type_id":"4","last_reported":1747177809,"current_range_meters":20800,"station_id":"ce4bhnp2rcd13ifvqh0g","pricing_plan_id":"cebpf4jnsgd1na2vs0mg"},{"bike_id":"e46528c9-be4d-4b17-9919-22ec681c2159","system_id":"levelo_inurba_marseille","lat":43.29934,"lon":5.38518,"is_reserved":false,"is_disabled":false,"rental_uris":{"android":"levelo://app?vid=e46528c9-be4d-4b17-9919-22ec681c2159","ios":"levelo://app?vid=e46528c9-be4d-4b17-9919-22ec681c2159"},"vehicle_type_id":"4","last_reported":1747177809,"current_range_meters":21600,"station_id":"","pricing_plan_id":"cebpf4jnsgd1na2vs0mg"},{"bike_id":"fb79ac18-2f2d-4f36-9787-f214c7c860d4","system_id":"levelo_inurba_marseille","lat":43.28482,"lon":5.38414,"is_reserved":false,"is_disabled":false,"rental_uris":{"android":"levelo://app?vid=fb79ac18-2f2d-4f36-9787-f214c7c860d4","ios":"levelo://app?vid=fb79ac18-2f2d-4f36-9787-f214c7c860d4"},"vehicle_type_id":"4","last_reported":1747177809,"current_range_meters":21600,"station_id":"ce4bh512rcd13ifvqe3g","pricing_plan_id":"cebpf4jnsgd1na2vs0mg"},{"bike_id":"87da12cb-7463-45ea-b982-82611751f2e3","system_id":"levelo_inurba_marseille","lat":43.30923,"lon":5.4015,"is_reserved":false,"is_disabled":false,"rental_uris":{"android":"levelo://app?vid=87da12cb-7463-45ea-b982-82611751f2e3","ios":"levelo://app?vid=87da12cb-7463-45ea-b982-82611751f2e3"},"vehicle_type_id":"4","last_reported":1747177809,"current_range_meters":22000,"station_id":"ce4bgvp2rcd13ifvqct0","pricing_plan_id":"cebpf4jnsgd1na2vs0mg"},{"bike_id":"d8da2754-2d80-430c-a5f4-b0886f45a83f","system_id":"levelo_inurba_marseille","lat":43.27836,"lon":5.39186,"is_reserved":false,"is_disabled":false,"rental_uris":{"android":"levelo://app?vid=d8da2754-2d80-430c-a5f4-b0886f45a83f","ios":"levelo://app?vid=d8da2754-2d80-430c-a5f4-b0886f45a83f"},"vehicle_type_id":"4","last_reported":1747177809,"current_range_meters":22000,"station_id":"ce4bhjp2rcd13ifvqga0","pricing_plan_id":"cebpf4jnsgd1na2vs0mg"},{"bike_id":"644511a3-94a8-4d9e-a99e-a8a4681f0634","system_id":"levelo_inurba_marseille","lat":43.241787,"lon":5.397293,"is_reserved":false,"is_disabled":false,"rental_uris":{"android":"levelo://app?vid=644511a3-94a8-4d9e-a99e-a8a4681f0634","ios":"levelo://app?vid=644511a3-94a8-4d9e-a99e-a8a4681f0634"},"vehicle_type_id":"4","last_reported":1747177809,"current_range_meters":22000,"station_id":"ce4bhn12rcd13ifvqgpg","pricing_plan_id":"cebpf4jnsgd1na2vs0mg"},{"bike_id":"b6df1ef4-d5f7-49cc-b6d6-45e21292bd56","system_id":"levelo_inurba_marseille","lat":43.307792,"lon":5.376532,"is_reserved":false,"is_disabled":false,"rental_uris":{"android":"levelo://app?vid=b6df1ef4-d5f7-49cc-b6d6-45e21292bd56","ios":"levelo://app?vid=b6df1ef4-d5f7-49cc-b6d6-45e21292bd56"},"vehicle_type_id":"4","last_reported":1747177809,"current_range_meters":22400,"station_id":"ce4bgv92rcd13ifvqcq0","pricing_plan_id":"cebpf4jnsgd1na2vs0mg"},{"bike_id":"c35bcab0-a37f-4f36-9542-92ea7d9f56c6","system_id":"levelo_inurba_marseille","lat":43.284303,"lon":5.391758,"is_reserved":false,"is_disabled":false,"rental_uris":{"android":"levelo://app?vid=c35bcab0-a37f-4f36-9542-92ea7d9f56c6","ios":"levelo://app?vid=c35bcab0-a37f-4f36-9542-92ea7d9f56c6"},"vehicle_type_id":"4","last_reported":1747177809,"current_range_meters":22400,"station_id":"ce4bhoh2rcd13ifvqh5g","pricing_plan_id":"cebpf4jnsgd1na2vs0mg"},{"bike_id":"08a93b84-f9e2-4480-b23a-2ee7a592645e","system_id":"levelo_inurba_marseille","lat":43.21747,"lon":5.34601,"is_reserved":false,"is_disabled":false,"rental_uris":{"android":"levelo://app?vid=08a93b84-f9e2-4480-b23a-2ee7a592645e","ios":"levelo://app?vid=08a93b84-f9e2-4480-b23a-2ee7a592645e"},"vehicle_type_id":"4","last_reported":1747177809,"current_range_meters":22400,"station_id":"st_cvj6r9ubvosntc0bgbag","pricing_plan_id":"cebpf4jnsgd1na2vs0mg"},{"bike_id":"3b0eae02-f47a-4fca-aa56-cf1f239c2129","system_id":"levelo_inurba_marseille","lat":43.258666,"lon":5.399056,"is_reserved":false,"is_disabled":false,"rental_uris":{"android":"levelo://app?vid=3b0eae02-f47a-4fca-aa56-cf1f239c2129","ios":"levelo://app?vid=3b0eae02-f47a-4fca-aa56-cf1f239c2129"},"vehicle_type_id":"4","last_reported":1747177809,"current_range_meters":22800,"station_id":"ce4bhl92rcd13ifvqghg","pricing_plan_id":"cebpf4jnsgd1na2vs0mg"},{"bike_id":"64824209-6cba-4c12-875a-1502c403c27a","system_id":"levelo_inurba_marseille","lat":43.212165,"lon":5.350664,"is_reserved":false,"is_disabled":false,"rental_uris":{"android":"levelo://app?vid=64824209-6cba-4c12-875a-1502c403c27a","ios":"levelo://app?vid=64824209-6cba-4c12-875a-1502c403c27a"},"vehicle_type_id":"4","last_reported":1747177809,"current_range_meters":22800,"station_id":"st_cvj6sg6p6f1abm77japg","pricing_plan_id":"cebpf4jnsgd1na2vs0mg"},{"bike_id":"47a5d4f1-51d5-4071-8c11-355e9b418599","system_id":"levelo_inurba_marseille","lat":43.309572,"lon":5.390294,"is_reserved":false,"is_disabled":false,"rental_uris":{"android":"levelo://app?vid=47a5d4f1-51d5-4071-8c11-355e9b418599","ios":"levelo://app?vid=47a5d4f1-51d5-4071-8c11-355e9b418599"},"vehicle_type_id":"4","last_reported":1747177809,"current_range_meters":23200,"station_id":"ce4bgup2rcd13ifvqco0","pricing_plan_id":"cebpf4jnsgd1na2vs0mg"},{"bike_id":"a2efea7a-e698-4a8c-9d4e-b1603e4bc014","system_id":"levelo_inurba_marseille","lat":43.30414,"lon":5.3889,"is_reserved":false,"is_disabled":false,"rental_uris":{"android":"levelo://app?vid=a2efea7a-e698-4a8c-9d4e-b1603e4bc014","ios":"levelo://app?vid=a2efea7a-e698-4a8c-9d4e-b1603e4bc014"},"vehicle_type_id":"4","last_reported":1747177809,"current_range_meters":24000,"station_id":"ce4bgk12rcd13ifvqbi0","pricing_plan_id":"cebpf4jnsgd1na2vs0mg"},{"bike_id":"f7f6f24d-43e1-4937-8f7b-cf3ee6847e7e","system_id":"levelo_inurba_marseille","lat":43.30803,"lon":5.38152,"is_reserved":false,"is_disabled":false,"rental_uris":{"android":"levelo://app?vid=f7f6f24d-43e1-4937-8f7b-cf3ee6847e7e","ios":"levelo://app?vid=f7f6f24d-43e1-4937-8f7b-cf3ee6847e7e"},"vehicle_type_id":"4","last_reported":1747177809,"current_range_meters":24000,"station_id":"ce4bgt12rcd13ifvqce0","pricing_plan_id":"cebpf4jnsgd1na2vs0mg"},{"bike_id":"7303a2e1-fe2a-453e-b11b-ed3d4649f9fa","system_id":"levelo_inurba_marseille","lat":43.28665,"lon":5.38676,"is_reserved":false,"is_disabled":false,"rental_uris":{"android":"levelo://app?vid=7303a2e1-fe2a-453e-b11b-ed3d4649f9fa","ios":"levelo://app?vid=7303a2e1-fe2a-453e-b11b-ed3d4649f9fa"},"vehicle_type_id":"4","last_reported":1747177809,"current_range_meters":24000,"station_id":"ce4bh492rcd13ifvqdug","pricing_plan_id":"cebpf4jnsgd1na2vs0mg"},{"bike_id":"d608ab93-8a42-4106-a60f-e264e23b137a","system_id":"levelo_inurba_marseille","lat":43.24174,"lon":5.3972,"is_reserved":false,"is_disabled":false,"rental_uris":{"android":"levelo://app?vid=d608ab93-8a42-4106-a60f-e264e23b137a","ios":"levelo://app?vid=d608ab93-8a42-4106-a60f-e264e23b137a"},"vehicle_type_id":"4","last_reported":1747177809,"current_range_meters":24000,"station_id":"ce4bhn12rcd13ifvqgpg","pricing_plan_id":"cebpf4jnsgd1na2vs0mg"},{"bike_id":"9a402898-f116-408b-8709-c62dd77d2b5d","system_id":"levelo_inurba_marseille","lat":43.29364,"lon":5.42854,"is_reserved":false,"is_disabled":false,"rental_uris":{"android":"levelo://app?vid=9a402898-f116-408b-8709-c62dd77d2b5d","ios":"levelo://app?vid=9a402898-f116-408b-8709-c62dd77d2b5d"},"vehicle_type_id":"4","last_reported":1747177809,"current_range_meters":24400,"station_id":"","pricing_plan_id":"cebpf4jnsgd1na2vs0mg"},{"bike_id":"dec63699-b782-4fdb-a96b-005f3d66f244","system_id":"levelo_inurba_marseille","lat":43.298,"lon":5.40402,"is_reserved":false,"is_disabled":false,"rental_uris":{"android":"levelo://app?vid=dec63699-b782-4fdb-a96b-005f3d66f244","ios":"levelo://app?vid=dec63699-b782-4fdb-a96b-005f3d66f244"},"vehicle_type_id":"4","last_reported":1747177809,"current_range_meters":24400,"station_id":"ce4bh112rcd13ifvqd90","pricing_plan_id":"cebpf4jnsgd1na2vs0mg"},{"bike_id":"87b33058-9dfb-4d1c-aa38-424b1ad9fa37","system_id":"levelo_inurba_marseille","lat":43.308112,"lon":5.381528,"is_reserved":false,"is_disabled":false,"rental_uris":{"android":"levelo://app?vid=87b33058-9dfb-4d1c-aa38-424b1ad9fa37","ios":"levelo://app?vid=87b33058-9dfb-4d1c-aa38-424b1ad9fa37"},"vehicle_type_id":"4","last_reported":1747177809,"current_range_meters":24800,"station_id":"ce4bgt12rcd13ifvqce0","pricing_plan_id":"cebpf4jnsgd1na2vs0mg"},{"bike_id":"36b613c8-87ff-4a29-b0e2-e521c0d3d8db","system_id":"levelo_inurba_marseille","lat":43.30801,"lon":5.38147,"is_reserved":false,"is_disabled":false,"rental_uris":{"android":"levelo://app?vid=36b613c8-87ff-4a29-b0e2-e521c0d3d8db","ios":"levelo://app?vid=36b613c8-87ff-4a29-b0e2-e521c0d3d8db"},"vehicle_type_id":"4","last_reported":1747177809,"current_range_meters":24800,"station_id":"ce4bgt12rcd13ifvqce0","pricing_plan_id":"cebpf4jnsgd1na2vs0mg"},{"bike_id":"2327f6b4-4bf2-4ecd-949e-140dc538dc1f","system_id":"levelo_inurba_marseille","lat":43.30787,"lon":5.37658,"is_reserved":false,"is_disabled":false,"rental_uris":{"android":"levelo://app?vid=2327f6b4-4bf2-4ecd-949e-140dc538dc1f","ios":"levelo://app?vid=2327f6b4-4bf2-4ecd-949e-140dc538dc1f"},"vehicle_type_id":"4","last_reported":1747177809,"current_range_meters":24800,"station_id":"ce4bgv92rcd13ifvqcq0","pricing_plan_id":"cebpf4jnsgd1na2vs0mg"},{"bike_id":"c7d6c562-b7e1-4d6b-9698-3ded696f5564","system_id":"levelo_inurba_marseille","lat":43.303178,"lon":5.404407,"is_reserved":false,"is_disabled":false,"rental_uris":{"android":"levelo://app?vid=c7d6c562-b7e1-4d6b-9698-3ded696f5564","ios":"levelo://app?vid=c7d6c562-b7e1-4d6b-9698-3ded696f5564"},"vehicle_type_id":"4","last_reported":1747177809,"current_range_meters":24800,"station_id":"ce4bh012rcd13ifvqd10","pricing_plan_id":"cebpf4jnsgd1na2vs0mg"},{"bike_id":"84cb6767-3eec-4008-94f2-cf384810ff36","system_id":"levelo_inurba_marseille","lat":43.28938,"lon":5.39612,"is_reserved":false,"is_disabled":false,"rental_uris":{"android":"levelo://app?vid=84cb6767-3eec-4008-94f2-cf384810ff36","ios":"levelo://app?vid=84cb6767-3eec-4008-94f2-cf384810ff36"},"vehicle_type_id":"4","last_reported":1747177809,"current_range_meters":24800,"station_id":"ce4bh3h2rcd13ifvqdn0","pricing_plan_id":"cebpf4jnsgd1na2vs0mg"},{"bike_id":"c2ac44b7-3191-4603-bdb3-e6b54ca29273","system_id":"levelo_inurba_marseille","lat":43.33612,"lon":5.4103,"is_reserved":false,"is_disabled":false,"rental_uris":{"android":"levelo://app?vid=c2ac44b7-3191-4603-bdb3-e6b54ca29273","ios":"levelo://app?vid=c2ac44b7-3191-4603-bdb3-e6b54ca29273"},"vehicle_type_id":"4","last_reported":1747177809,"current_range_meters":24800,"station_id":"ce4bhqh2rcd13ifvqhmg","pricing_plan_id":"cebpf4jnsgd1na2vs0mg"},{"bike_id":"be7b98ac-9f0e-4fc1-87d5-31e0909c45c5","system_id":"levelo_inurba_marseille","lat":43.31715,"lon":5.37785,"is_reserved":false,"is_disabled":false,"rental_uris":{"android":"levelo://app?vid=be7b98ac-9f0e-4fc1-87d5-31e0909c45c5","ios":"levelo://app?vid=be7b98ac-9f0e-4fc1-87d5-31e0909c45c5"},"vehicle_type_id":"4","last_reported":1747177809,"current_range_meters":25200,"station_id":"ce4bgth2rcd13ifvqch0","pricing_plan_id":"cebpf4jnsgd1na2vs0mg"},{"bike_id":"112ed344-11c8-4a38-90a5-4490a705948b","system_id":"levelo_inurba_marseille","lat":43.30249,"lon":5.40019,"is_reserved":false,"is_disabled":false,"rental_uris":{"android":"levelo://app?vid=112ed344-11c8-4a38-90a5-4490a705948b","ios":"levelo://app?vid=112ed344-11c8-4a38-90a5-4490a705948b"},"vehicle_type_id":"4","last_reported":1747177809,"current_range_meters":25200,"station_id":"ce4bgvh2rcd13ifvqcs0","pricing_plan_id":"cebpf4jnsgd1na2vs0mg"},{"bike_id":"6fdb574a-5718-4caa-af02-36809eb7f41b","system_id":"levelo_inurba_marseille","lat":43.24393,"lon":5.37063,"is_reserved":false,"is_disabled":false,"rental_uris":{"android":"levelo://app?vid=6fdb574a-5718-4caa-af02-36809eb7f41b","ios":"levelo://app?vid=6fdb574a-5718-4caa-af02-36809eb7f41b"},"vehicle_type_id":"4","last_reported":1747177809,"current_range_meters":25200,"station_id":"ce4bhhh2rcd13ifvqfk0","pricing_plan_id":"cebpf4jnsgd1na2vs0mg"},{"bike_id":"8f7e4e4e-fae5-4382-8f9d-1ea9deb48874","system_id":"levelo_inurba_marseille","lat":43.28607,"lon":5.37067,"is_reserved":false,"is_disabled":false,"rental_uris":{"android":"levelo://app?vid=8f7e4e4e-fae5-4382-8f9d-1ea9deb48874","ios":"levelo://app?vid=8f7e4e4e-fae5-4382-8f9d-1ea9deb48874"},"vehicle_type_id":"4","last_reported":1747177809,"current_range_meters":25200,"station_id":"ce4bht12rcd13ifvqi60","pricing_plan_id":"cebpf4jnsgd1na2vs0mg"},{"bike_id":"c351ad74-cfad-4524-b23a-5f995cfa52ab","system_id":"levelo_inurba_marseille","lat":43.22506,"lon":5.34798,"is_reserved":false,"is_disabled":false,"rental_uris":{"android":"levelo://app?vid=c351ad74-cfad-4524-b23a-5f995cfa52ab","ios":"levelo://app?vid=c351ad74-cfad-4524-b23a-5f995cfa52ab"},"vehicle_type_id":"4","last_reported":1747177809,"current_range_meters":25200,"station_id":"st_cvj5dfep6f1abm77gieg","pricing_plan_id":"cebpf4jnsgd1na2vs0mg"},{"bike_id":"1995e567-578e-4f33-8ed5-b839c88d6f4e","system_id":"levelo_inurba_marseille","lat":43.300026,"lon":5.475876,"is_reserved":false,"is_disabled":false,"rental_uris":{"android":"levelo://app?vid=1995e567-578e-4f33-8ed5-b839c88d6f4e","ios":"levelo://app?vid=1995e567-578e-4f33-8ed5-b839c88d6f4e"},"vehicle_type_id":"4","last_reported":1747177809,"current_range_meters":25600,"station_id":"","pricing_plan_id":"cebpf4jnsgd1na2vs0mg"},{"bike_id":"e1f49d6b-4e4e-4113-9f4e-900e9b695e3d","system_id":"levelo_inurba_marseille","lat":43.306487,"lon":5.400875,"is_reserved":false,"is_disabled":false,"rental_uris":{"android":"levelo://app?vid=e1f49d6b-4e4e-4113-9f4e-900e9b695e3d","ios":"levelo://app?vid=e1f49d6b-4e4e-4113-9f4e-900e9b695e3d"},"vehicle_type_id":"4","last_reported":1747177809,"current_range_meters":25600,"station_id":"ce4bh112rcd13ifvqda0","pricing_plan_id":"cebpf4jnsgd1na2vs0mg"},{"bike_id":"f4f686b9-96ac-4872-9628-82d1c833f2f8","system_id":"levelo_inurba_marseille","lat":43.24664,"lon":5.381608,"is_reserved":false,"is_disabled":false,"rental_uris":{"android":"levelo://app?vid=f4f686b9-96ac-4872-9628-82d1c833f2f8","ios":"levelo://app?vid=f4f686b9-96ac-4872-9628-82d1c833f2f8"},"vehicle_type_id":"4","last_reported":1747177809,"current_range_meters":25600,"station_id":"ce4bhih2rcd13ifvqfr0","pricing_plan_id":"cebpf4jnsgd1na2vs0mg"},{"bike_id":"c7fe9ce9-d589-478c-be0a-50ab1965f950","system_id":"levelo_inurba_marseille","lat":43.34238,"lon":5.43695,"is_reserved":false,"is_disabled":false,"rental_uris":{"android":"levelo://app?vid=c7fe9ce9-d589-478c-be0a-50ab1965f950","ios":"levelo://app?vid=c7fe9ce9-d589-478c-be0a-50ab1965f950"},"vehicle_type_id":"4","last_reported":1747177809,"current_range_meters":26000,"station_id":"","pricing_plan_id":"cebpf4jnsgd1na2vs0mg"},{"bike_id":"841b2dfe-1b65-47a4-bd0a-f73fceb041f4","system_id":"levelo_inurba_marseille","lat":43.30928,"lon":5.40146,"is_reserved":false,"is_disabled":false,"rental_uris":{"android":"levelo://app?vid=841b2dfe-1b65-47a4-bd0a-f73fceb041f4","ios":"levelo://app?vid=841b2dfe-1b65-47a4-bd0a-f73fceb041f4"},"vehicle_type_id":"4","last_reported":1747177809,"current_range_meters":26000,"station_id":"ce4bgvp2rcd13ifvqct0","pricing_plan_id":"cebpf4jnsgd1na2vs0mg"},{"bike_id":"1904f0a5-8b5a-47ad-8e6f-2951da28fe7d","system_id":"levelo_inurba_marseille","lat":43.28077,"lon":5.3966,"is_reserved":false,"is_disabled":false,"rental_uris":{"android":"levelo://app?vid=1904f0a5-8b5a-47ad-8e6f-2951da28fe7d","ios":"levelo://app?vid=1904f0a5-8b5a-47ad-8e6f-2951da28fe7d"},"vehicle_type_id":"4","last_reported":1747177809,"current_range_meters":26000,"station_id":"ce4bho12rcd13ifvqh2g","pricing_plan_id":"cebpf4jnsgd1na2vs0mg"},{"bike_id":"9f15ef63-e54e-4369-a0cd-7aec8c12e395","system_id":"levelo_inurba_marseille","lat":43.3372,"lon":5.3918,"is_reserved":false,"is_disabled":false,"rental_uris":{"android":"levelo://app?vid=9f15ef63-e54e-4369-a0cd-7aec8c12e395","ios":"levelo://app?vid=9f15ef63-e54e-4369-a0cd-7aec8c12e395"},"vehicle_type_id":"4","last_reported":1747177809,"current_range_meters":26000,"station_id":"ce4bhr92rcd13ifvqhsg","pricing_plan_id":"cebpf4jnsgd1na2vs0mg"},{"bike_id":"6390cc8e-3afa-40ba-81a3-2743384ffd08","system_id":"levelo_inurba_marseille","lat":43.268071,"lon":5.402697,"is_reserved":false,"is_disabled":false,"rental_uris":{"android":"levelo://app?vid=6390cc8e-3afa-40ba-81a3-2743384ffd08","ios":"levelo://app?vid=6390cc8e-3afa-40ba-81a3-2743384ffd08"},"vehicle_type_id":"4","last_reported":1747177809,"current_range_meters":26000,"station_id":"ce501612rcd8frsf0b60","pricing_plan_id":"cebpf4jnsgd1na2vs0mg"},{"bike_id":"859f775d-fe7e-47d1-a8f4-be5f964ceda4","system_id":"levelo_inurba_marseille","lat":43.29911,"lon":5.37484,"is_reserved":false,"is_disabled":false,"rental_uris":{"android":"levelo://app?vid=859f775d-fe7e-47d1-a8f4-be5f964ceda4","ios":"levelo://app?vid=859f775d-fe7e-47d1-a8f4-be5f964ceda4"},"vehicle_type_id":"4","last_reported":1747177809,"current_range_meters":26800,"station_id":"ce4bgjh2rcd13ifvqbg0","pricing_plan_id":"cebpf4jnsgd1na2vs0mg"},{"bike_id":"51c79bd2-3986-4a41-98c1-47cb9a2b68bc","system_id":"levelo_inurba_marseille","lat":43.30785,"lon":5.37655,"is_reserved":false,"is_disabled":false,"rental_uris":{"android":"levelo://app?vid=51c79bd2-3986-4a41-98c1-47cb9a2b68bc","ios":"levelo://app?vid=51c79bd2-3986-4a41-98c1-47cb9a2b68bc"},"vehicle_type_id":"4","last_reported":1747177809,"current_range_meters":26800,"station_id":"ce4bgv92rcd13ifvqcq0","pricing_plan_id":"cebpf4jnsgd1na2vs0mg"},{"bike_id":"3b0287d7-5086-4233-bc54-f918e62f66e2","system_id":"levelo_inurba_marseille","lat":43.30936,"lon":5.40139,"is_reserved":false,"is_disabled":false,"rental_uris":{"android":"levelo://app?vid=3b0287d7-5086-4233-bc54-f918e62f66e2","ios":"levelo://app?vid=3b0287d7-5086-4233-bc54-f918e62f66e2"},"vehicle_type_id":"4","last_reported":1747177809,"current_range_meters":26800,"station_id":"ce4bgvp2rcd13ifvqct0","pricing_plan_id":"cebpf4jnsgd1na2vs0mg"},{"bike_id":"f856a76c-00e1-4457-9fb5-f29e31f32b4b","system_id":"levelo_inurba_marseille","lat":43.30136,"lon":5.39861,"is_reserved":false,"is_disabled":false,"rental_uris":{"android":"levelo://app?vid=f856a76c-00e1-4457-9fb5-f29e31f32b4b","ios":"levelo://app?vid=f856a76c-00e1-4457-9fb5-f29e31f32b4b"},"vehicle_type_id":"4","last_reported":1747177809,"current_range_meters":26800,"station_id":"ce4bh0h2rcd13ifvqd40","pricing_plan_id":"cebpf4jnsgd1na2vs0mg"},{"bike_id":"b045219f-ea0a-4d44-9f2a-9cb062cf360e","system_id":"levelo_inurba_marseille","lat":43.301027,"lon":5.390697,"is_reserved":false,"is_disabled":false,"rental_uris":{"android":"levelo://app?vid=b045219f-ea0a-4d44-9f2a-9cb062cf360e","ios":"levelo://app?vid=b045219f-ea0a-4d44-9f2a-9cb062cf360e"},"vehicle_type_id":"4","last_reported":1747177809,"current_range_meters":26800,"station_id":"ce4bh192rcd13ifvqdb0","pricing_plan_id":"cebpf4jnsgd1na2vs0mg"},{"bike_id":"d92dceb4-9a4b-4a92-a388-831979eb6a3f","system_id":"levelo_inurba_marseille","lat":43.291957,"lon":5.39332,"is_reserved":false,"is_disabled":false,"rental_uris":{"android":"levelo://app?vid=d92dceb4-9a4b-4a92-a388-831979eb6a3f","ios":"levelo://app?vid=d92dceb4-9a4b-4a92-a388-831979eb6a3f"},"vehicle_type_id":"4","last_reported":1747177809,"current_range_meters":26800,"station_id":"ce4bh192rcd13ifvqdd0","pricing_plan_id":"cebpf4jnsgd1na2vs0mg"},{"bike_id":"2db9e9ab-5d7d-4398-b791-2dca896aaa56","system_id":"levelo_inurba_marseille","lat":43.28105,"lon":5.37832,"is_reserved":false,"is_disabled":false,"rental_uris":{"android":"levelo://app?vid=2db9e9ab-5d7d-4398-b791-2dca896aaa56","ios":"levelo://app?vid=2db9e9ab-5d7d-4398-b791-2dca896aaa56"},"vehicle_type_id":"4","last_reported":1747177809,"current_range_meters":26800,"station_id":"ce4bha12rcd13ifvqee0","pricing_plan_id":"cebpf4jnsgd1na2vs0mg"},{"bike_id":"ca14e6fe-24c6-420a-a698-81d4d2fc6d72","system_id":"levelo_inurba_marseille","lat":43.27066,"lon":5.42285,"is_reserved":false,"is_disabled":false,"rental_uris":{"android":"levelo://app?vid=ca14e6fe-24c6-420a-a698-81d4d2fc6d72","ios":"levelo://app?vid=ca14e6fe-24c6-420a-a698-81d4d2fc6d72"},"vehicle_type_id":"4","last_reported":1747177809,"current_range_meters":26800,"station_id":"ce4bhk92rcd13ifvqgb0","pricing_plan_id":"cebpf4jnsgd1na2vs0mg"},{"bike_id":"5856205d-c2b8-49c6-a478-1b90c12ce64f","system_id":"levelo_inurba_marseille","lat":43.28728,"lon":5.36078,"is_reserved":false,"is_disabled":false,"rental_uris":{"android":"levelo://app?vid=5856205d-c2b8-49c6-a478-1b90c12ce64f","ios":"levelo://app?vid=5856205d-c2b8-49c6-a478-1b90c12ce64f"},"vehicle_type_id":"4","last_reported":1747177809,"current_range_meters":26800,"station_id":"cki0cbj6b192h4jlfktg","pricing_plan_id":"cebpf4jnsgd1na2vs0mg"},{"bike_id":"54c80718-1468-47f9-9877-bc44f5940722","system_id":"levelo_inurba_marseille","lat":43.211969,"lon":5.350734,"is_reserved":false,"is_disabled":false,"rental_uris":{"android":"levelo://app?vid=54c80718-1468-47f9-9877-bc44f5940722","ios":"levelo://app?vid=54c80718-1468-47f9-9877-bc44f5940722"},"vehicle_type_id":"4","last_reported":1747177809,"current_range_meters":26800,"station_id":"st_cvj6sg6p6f1abm77japg","pricing_plan_id":"cebpf4jnsgd1na2vs0mg"},{"bike_id":"81872884-a37f-455c-b9d5-1ebdeec9cc85","system_id":"levelo_inurba_marseille","lat":43.29796,"lon":5.40411,"is_reserved":false,"is_disabled":false,"rental_uris":{"android":"levelo://app?vid=81872884-a37f-455c-b9d5-1ebdeec9cc85","ios":"levelo://app?vid=81872884-a37f-455c-b9d5-1ebdeec9cc85"},"vehicle_type_id":"4","last_reported":1747177809,"current_range_meters":27200,"station_id":"ce4bh112rcd13ifvqd90","pricing_plan_id":"cebpf4jnsgd1na2vs0mg"},{"bike_id":"eae57951-8539-4e54-9f2d-145878da0ad9","system_id":"levelo_inurba_marseille","lat":43.27915,"lon":5.39575,"is_reserved":false,"is_disabled":false,"rental_uris":{"android":"levelo://app?vid=eae57951-8539-4e54-9f2d-145878da0ad9","ios":"levelo://app?vid=eae57951-8539-4e54-9f2d-145878da0ad9"},"vehicle_type_id":"4","last_reported":1747177809,"current_range_meters":27200,"station_id":"ce4bhf92rcd13ifvqf40","pricing_plan_id":"cebpf4jnsgd1na2vs0mg"},{"bike_id":"ca003df3-0d89-4e79-8c79-7d710bab3964","system_id":"levelo_inurba_marseille","lat":43.24181,"lon":5.39727,"is_reserved":false,"is_disabled":false,"rental_uris":{"android":"levelo://app?vid=ca003df3-0d89-4e79-8c79-7d710bab3964","ios":"levelo://app?vid=ca003df3-0d89-4e79-8c79-7d710bab3964"},"vehicle_type_id":"4","last_reported":1747177809,"current_range_meters":27200,"station_id":"ce4bhn12rcd13ifvqgpg","pricing_plan_id":"cebpf4jnsgd1na2vs0mg"},{"bike_id":"7ddb934d-66d9-429a-ac93-667cf7df78ee","system_id":"levelo_inurba_marseille","lat":43.33352,"lon":5.43102,"is_reserved":false,"is_disabled":false,"rental_uris":{"android":"levelo://app?vid=7ddb934d-66d9-429a-ac93-667cf7df78ee","ios":"levelo://app?vid=7ddb934d-66d9-429a-ac93-667cf7df78ee"},"vehicle_type_id":"4","last_reported":1747177809,"current_range_meters":27600,"station_id":"","pricing_plan_id":"cebpf4jnsgd1na2vs0mg"},{"bike_id":"140dfeb1-5ee2-4344-a418-d6c7a122369d","system_id":"levelo_inurba_marseille","lat":43.30427,"lon":5.38903,"is_reserved":false,"is_disabled":false,"rental_uris":{"android":"levelo://app?vid=140dfeb1-5ee2-4344-a418-d6c7a122369d","ios":"levelo://app?vid=140dfeb1-5ee2-4344-a418-d6c7a122369d"},"vehicle_type_id":"4","last_reported":1747177809,"current_range_meters":27600,"station_id":"ce4bgk12rcd13ifvqbi0","pricing_plan_id":"cebpf4jnsgd1na2vs0mg"},{"bike_id":"f1e75fe0-ef03-465d-957b-53e6286ff81a","system_id":"levelo_inurba_marseille","lat":43.30136,"lon":5.39856,"is_reserved":false,"is_disabled":false,"rental_uris":{"android":"levelo://app?vid=f1e75fe0-ef03-465d-957b-53e6286ff81a","ios":"levelo://app?vid=f1e75fe0-ef03-465d-957b-53e6286ff81a"},"vehicle_type_id":"4","last_reported":1747177809,"current_range_meters":27600,"station_id":"ce4bh0h2rcd13ifvqd40","pricing_plan_id":"cebpf4jnsgd1na2vs0mg"},{"bike_id":"c6011daa-d53a-41c5-95b2-f24caffbb930","system_id":"levelo_inurba_marseille","lat":43.28413,"lon":5.37514,"is_reserved":false,"is_disabled":false,"rental_uris":{"android":"levelo://app?vid=c6011daa-d53a-41c5-95b2-f24caffbb930","ios":"levelo://app?vid=c6011daa-d53a-41c5-95b2-f24caffbb930"},"vehicle_type_id":"4","last_reported":1747177809,"current_range_meters":27600,"station_id":"ce4bh412rcd13ifvqds0","pricing_plan_id":"cebpf4jnsgd1na2vs0mg"},{"bike_id":"ec4ec925-d047-4a5b-8edc-c2495e9b04cc","system_id":"levelo_inurba_marseille","lat":43.2816,"lon":5.42645,"is_reserved":false,"is_disabled":false,"rental_uris":{"android":"levelo://app?vid=ec4ec925-d047-4a5b-8edc-c2495e9b04cc","ios":"levelo://app?vid=ec4ec925-d047-4a5b-8edc-c2495e9b04cc"},"vehicle_type_id":"4","last_reported":1747177809,"current_range_meters":27600,"station_id":"ce4bhnh2rcd13ifvqgug","pricing_plan_id":"cebpf4jnsgd1na2vs0mg"},{"bike_id":"c378cf4d-f644-4f43-b064-f56045e8062c","system_id":"levelo_inurba_marseille","lat":43.28432,"lon":5.39175,"is_reserved":false,"is_disabled":false,"rental_uris":{"android":"levelo://app?vid=c378cf4d-f644-4f43-b064-f56045e8062c","ios":"levelo://app?vid=c378cf4d-f644-4f43-b064-f56045e8062c"},"vehicle_type_id":"4","last_reported":1747177809,"current_range_meters":27600,"station_id":"ce4bhoh2rcd13ifvqh5g","pricing_plan_id":"cebpf4jnsgd1na2vs0mg"},{"bike_id":"c796e419-b1ec-4298-bc71-15b1811c2344","system_id":"levelo_inurba_marseille","lat":43.320997,"lon":5.367696,"is_reserved":false,"is_disabled":false,"rental_uris":{"android":"levelo://app?vid=c796e419-b1ec-4298-bc71-15b1811c2344","ios":"levelo://app?vid=c796e419-b1ec-4298-bc71-15b1811c2344"},"vehicle_type_id":"4","last_reported":1747177809,"current_range_meters":27600,"station_id":"ce4bhrh2rcd13ifvqhug","pricing_plan_id":"cebpf4jnsgd1na2vs0mg"},{"bike_id":"737dbeb0-99f8-4547-ac85-eb37fad6e034","system_id":"levelo_inurba_marseille","lat":43.231999,"lon":5.355524,"is_reserved":false,"is_disabled":false,"rental_uris":{"android":"levelo://app?vid=737dbeb0-99f8-4547-ac85-eb37fad6e034","ios":"levelo://app?vid=737dbeb0-99f8-4547-ac85-eb37fad6e034"},"vehicle_type_id":"4","last_reported":1747177809,"current_range_meters":27600,"station_id":"ce4bhu92rcd13ifvqi70","pricing_plan_id":"cebpf4jnsgd1na2vs0mg"},{"bike_id":"b6158fa8-a577-4dd3-a6ba-f6a00ebc31e6","system_id":"levelo_inurba_marseille","lat":43.29712,"lon":5.36616,"is_reserved":false,"is_disabled":false,"rental_uris":{"android":"levelo://app?vid=b6158fa8-a577-4dd3-a6ba-f6a00ebc31e6","ios":"levelo://app?vid=b6158fa8-a577-4dd3-a6ba-f6a00ebc31e6"},"vehicle_type_id":"4","last_reported":1747177809,"current_range_meters":28000,"station_id":"ce4bgn12rcd13ifvqbt0","pricing_plan_id":"cebpf4jnsgd1na2vs0mg"},{"bike_id":"e2ca1b4e-6031-41d0-98fc-883770ae256f","system_id":"levelo_inurba_marseille","lat":43.30774,"lon":5.3764,"is_reserved":false,"is_disabled":false,"rental_uris":{"android":"levelo://app?vid=e2ca1b4e-6031-41d0-98fc-883770ae256f","ios":"levelo://app?vid=e2ca1b4e-6031-41d0-98fc-883770ae256f"},"vehicle_type_id":"4","last_reported":1747177809,"current_range_meters":28000,"station_id":"ce4bgv92rcd13ifvqcq0","pricing_plan_id":"cebpf4jnsgd1na2vs0mg"},{"bike_id":"eb65ce00-3a0d-4163-92f5-d67296338f2f","system_id":"levelo_inurba_marseille","lat":43.308877,"lon":5.396497,"is_reserved":false,"is_disabled":false,"rental_uris":{"android":"levelo://app?vid=eb65ce00-3a0d-4163-92f5-d67296338f2f","ios":"levelo://app?vid=eb65ce00-3a0d-4163-92f5-d67296338f2f"},"vehicle_type_id":"4","last_reported":1747177809,"current_range_meters":28000,"station_id":"ce4bh012rcd13ifvqcv0","pricing_plan_id":"cebpf4jnsgd1na2vs0mg"},{"bike_id":"3394213b-0a0b-4bf2-ac31-7fb7244df8fc","system_id":"levelo_inurba_marseille","lat":43.317039,"lon":5.404559,"is_reserved":false,"is_disabled":false,"rental_uris":{"android":"levelo://app?vid=3394213b-0a0b-4bf2-ac31-7fb7244df8fc","ios":"levelo://app?vid=3394213b-0a0b-4bf2-ac31-7fb7244df8fc"},"vehicle_type_id":"4","last_reported":1747177809,"current_range_meters":28000,"station_id":"ce4bh012rcd13ifvqd00","pricing_plan_id":"cebpf4jnsgd1na2vs0mg"},{"bike_id":"fd6b7348-9bed-4fd3-85ae-f58d6dae845a","system_id":"levelo_inurba_marseille","lat":43.31685,"lon":5.40472,"is_reserved":false,"is_disabled":false,"rental_uris":{"android":"levelo://app?vid=fd6b7348-9bed-4fd3-85ae-f58d6dae845a","ios":"levelo://app?vid=fd6b7348-9bed-4fd3-85ae-f58d6dae845a"},"vehicle_type_id":"4","last_reported":1747177809,"current_range_meters":28000,"station_id":"ce4bh012rcd13ifvqd00","pricing_plan_id":"cebpf4jnsgd1na2vs0mg"},{"bike_id":"d10cb2a9-36b5-4d27-b7c3-632cdcec4508","system_id":"levelo_inurba_marseille","lat":43.30126,"lon":5.39855,"is_reserved":false,"is_disabled":false,"rental_uris":{"android":"levelo://app?vid=d10cb2a9-36b5-4d27-b7c3-632cdcec4508","ios":"levelo://app?vid=d10cb2a9-36b5-4d27-b7c3-632cdcec4508"},"vehicle_type_id":"4","last_reported":1747177809,"current_range_meters":28000,"station_id":"ce4bh0h2rcd13ifvqd40","pricing_plan_id":"cebpf4jnsgd1na2vs0mg"},{"bike_id":"49202049-6fc6-4f2e-9117-e376b25bd697","system_id":"levelo_inurba_marseille","lat":43.23956,"lon":5.36645,"is_reserved":false,"is_disabled":false,"rental_uris":{"android":"levelo://app?vid=49202049-6fc6-4f2e-9117-e376b25bd697","ios":"levelo://app?vid=49202049-6fc6-4f2e-9117-e376b25bd697"},"vehicle_type_id":"4","last_reported":1747177809,"current_range_meters":28000,"station_id":"ce4bhi12rcd13ifvqfp0","pricing_plan_id":"cebpf4jnsgd1na2vs0mg"},{"bike_id":"c7f6e331-8cf0-4f61-b3ba-09bf6a25c891","system_id":"levelo_inurba_marseille","lat":43.27835,"lon":5.39208,"is_reserved":false,"is_disabled":false,"rental_uris":{"android":"levelo://app?vid=c7f6e331-8cf0-4f61-b3ba-09bf6a25c891","ios":"levelo://app?vid=c7f6e331-8cf0-4f61-b3ba-09bf6a25c891"},"vehicle_type_id":"4","last_reported":1747177809,"current_range_meters":28000,"station_id":"ce4bhjp2rcd13ifvqga0","pricing_plan_id":"cebpf4jnsgd1na2vs0mg"},{"bike_id":"9070fdf7-bc44-4866-a0ec-5fe6ed545b0b","system_id":"levelo_inurba_marseille","lat":43.26941,"lon":5.40248,"is_reserved":false,"is_disabled":false,"rental_uris":{"android":"levelo://app?vid=9070fdf7-bc44-4866-a0ec-5fe6ed545b0b","ios":"levelo://app?vid=9070fdf7-bc44-4866-a0ec-5fe6ed545b0b"},"vehicle_type_id":"4","last_reported":1747177809,"current_range_meters":28000,"station_id":"cjm6bp8fraef2m0cb0m0","pricing_plan_id":"cebpf4jnsgd1na2vs0mg"},{"bike_id":"d90f8fa7-db3f-4a90-99e7-5d786758f9ba","system_id":"levelo_inurba_marseille","lat":43.30032,"lon":5.37623,"is_reserved":false,"is_disabled":false,"rental_uris":{"android":"levelo://app?vid=d90f8fa7-db3f-4a90-99e7-5d786758f9ba","ios":"levelo://app?vid=d90f8fa7-db3f-4a90-99e7-5d786758f9ba"},"vehicle_type_id":"4","last_reported":1747177809,"current_range_meters":28400,"station_id":"","pricing_plan_id":"cebpf4jnsgd1na2vs0mg"},{"bike_id":"805cc9fb-0939-4c45-9edf-08a5c5a568b8","system_id":"levelo_inurba_marseille","lat":43.29712,"lon":5.36606,"is_reserved":false,"is_disabled":false,"rental_uris":{"android":"levelo://app?vid=805cc9fb-0939-4c45-9edf-08a5c5a568b8","ios":"levelo://app?vid=805cc9fb-0939-4c45-9edf-08a5c5a568b8"},"vehicle_type_id":"4","last_reported":1747177809,"current_range_meters":28400,"station_id":"ce4bgn12rcd13ifvqbt0","pricing_plan_id":"cebpf4jnsgd1na2vs0mg"},{"bike_id":"62e2ef34-529f-4088-8c5d-609c22efd178","system_id":"levelo_inurba_marseille","lat":43.30781,"lon":5.37665,"is_reserved":false,"is_disabled":false,"rental_uris":{"android":"levelo://app?vid=62e2ef34-529f-4088-8c5d-609c22efd178","ios":"levelo://app?vid=62e2ef34-529f-4088-8c5d-609c22efd178"},"vehicle_type_id":"4","last_reported":1747177809,"current_range_meters":28400,"station_id":"ce4bgv92rcd13ifvqcq0","pricing_plan_id":"cebpf4jnsgd1na2vs0mg"},