{"last_updated":1731708553,"ttl":60,"version":"2.2","data":{"bikes":[{"bike_id":"2a4f068a-bf44-4be8-9720-65434032f534","system_id":"levelo_inurba_marseille","lat":43.29066,"lon":5.39369,"is_reserved":false,"is_disabled":false,"rental_uris":{"android":"levelo://app?vid=2a4f068a-bf44-4be8-9720-65434032f534","ios":"levelo://app?vid=2a4f068a-bf44-4be8-9720-65434032f534"},"vehicle_type_id":"4","last_reported":1731708553,"current_range_meters":10000,"station_id":"","pricing_plan_id":"cebpf4jnsgd1na2vs0mg"},{"bike_id":"0ced7113-db48-4671-8b7b-648b43de37ab","system_id":"levelo_inurba_marseille","lat":43.27373,"lon":5.36257,"is_reserved":false,"is_disabled":false,"rental_uris":{"android":"levelo://app?vid=0ced7113-db48-4671-8b7b-648b43de37ab","ios":"levelo://app?vid=0ced7113-db48-4671-8b7b-648b43de37ab"},"vehicle_type_id":"4","last_reported":1731708553,"current_range_meters":38800,"station_id":"ce4bhbh2rcd13ifvqeo0","pricing_plan_id":"cebpf4jnsgd1na2vs0mg"},{"bike_id":"69cf69a8-cdb6-4e52-af09-be5462ee4d82","system_id":"levelo_inurba_marseille","lat":43.29172,"lon":5.37162,"is_reserved":false,"is_disabled":false,"rental_uris":{"android":"levelo://app?vid=69cf69a8-cdb6-4e52-af09-be5462ee4d82","ios":"levelo://app?vid=69cf69a8-cdb6-4e52-af09-be5462ee4d82"},"vehicle_type_id":"4","last_reported":1731708553,"current_range_meters":33200,"station_id":"ce4bha92rcd13ifvqeh0","pricing_plan_id":"cebpf4jnsgd1na2vs0mg"},{"bike_id":"6449248c-ddbe-49f8-8a86-d7347eab10b2","system_id":"levelo_inurba_marseille","lat":43.30879,"lon":5.39636,"is_reserved":false,"is_disabled":false,"rental_uris":{"android":"levelo://app?vid=6449248c-ddbe-49f8-8a86-d7347eab10b2","ios":"levelo://app?vid=6449248c-ddbe-49f8-8a86-d7347eab10b2"},"vehicle_type_id":"4","last_reported":1731708553,"current_range_meters":8000,"station_id":"ce4bh012rcd13ifvqcv0","pricing_plan_id":"cebpf4jnsgd1na2vs0mg"},{"bike_id":"5856ad94-bc0e-4f57-993d-864d7234767f","system_id":"levelo_inurba_marseille","lat":43.33763,"lon":5.37483,"is_reserved":false,"is_disabled":false,"rental_uris":{"android":"levelo://app?vid=5856ad94-bc0e-4f57-993d-864d7234767f","ios":"levelo://app?vid=5856ad94-bc0e-4f57-993d-864d7234767f"},"vehicle_type_id":"4","last_reported":1731708553,"current_range_meters":36000,"station_id":"","pricing_plan_id":"cebpf4jnsgd1na2vs0mg"},{"bike_id":"31514e32-afb6-42c0-9d4e-52bc7623427d","system_id":"levelo_inurba_marseille","lat":43.31083,"lon":5.42431,"is_reserved":false,"is_disabled":false,"rental_uris":{"android":"levelo://app?vid=31514e32-afb6-42c0-9d4e-52bc7623427d","ios":"levelo://app?vid=31514e32-afb6-42c0-9d4e-52bc7623427d"},"vehicle_type_id":"4","last_reported":1731708553,"current_range_meters":23200,"station_id":"ce4bhp92rcd13ifvqhag","pricing_plan_id":"cebpf4jnsgd1na2vs0mg"},{"bike_id":"4aafe376-b9bc-4522-87a4-83d6ad5af617","system_id":"levelo_inurba_marseille","lat":43.27069,"lon":5.42271,"is_reserved":false,"is_disabled":false,"rental_uris":{"android":"levelo://app?vid=4aafe376-b9bc-4522-87a4-83d6ad5af617","ios":"levelo://app?vid=4aafe376-b9bc-4522-87a4-83d6ad5af617"},"vehicle_type_id":"4","last_reported":1731708553,"current_range_meters":28800,"station_id":"ce4bhk92rcd13ifvqgb0","pricing_plan_id":"cebpf4jnsgd1na2vs0mg"},{"bike_id":"81aa54c8-4fbb-437f-b72c-490e1b0653e9","system_id":"levelo_inurba_marseille","lat":43.28674,"lon":5.38668,"is_reserved":false,"is_disabled":false,"rental_uris":{"android":"levelo://app?vid=81aa54c8-4fbb-437f-b72c-490e1b0653e9","ios":"levelo://app?vid=81aa54c8-4fbb-437f-b72c-490e1b0653e9"},"vehicle_type_id":"4","last_reported":1731708553,"current_range_meters":24400,"station_id":"ce4bh492rcd13ifvqdug","pricing_plan_id":"cebpf4jnsgd1na2vs0mg"},{"bike_id":"2a4cafe2-8507-47ae-b39f-170bc519ade2","system_id":"levelo_inurba_marseille","lat":43.28936,"lon":5.3665,"is_reserved":false,"is_disabled":false,"rental_uris":{"android":"levelo://app?vid=2a4cafe2-8507-47ae-b39f-170bc519ade2","ios":"levelo://app?vid=2a4cafe2-8507-47ae-b39f-170bc519ade2"},"vehicle_type_id":"4","last_reported":1731708553,"current_range_meters":12400,"station_id":"ce4bhap2rcd13ifvqek0","pricing_plan_id":"cebpf4jnsgd1na2vs0mg"},{"bike_id":"682b87b3-f03f-42aa-b3b7-325813b49003","system_id":"levelo_inurba_marseille","lat":43.24678,"lon":5.38153,"is_reserved":false,"is_disabled":false,"rental_uris":{"android":"levelo://app?vid=682b87b3-f03f-42aa-b3b7-325813b49003","ios":"levelo://app?vid=682b87b3-f03f-42aa-b3b7-325813b49003"},"vehicle_type_id":"4","last_reported":1731708553,"current_range_meters":14800,"station_id":"ce4bhih2rcd13ifvqfr0","pricing_plan_id":"cebpf4jnsgd1na2vs0mg"},{"bike_id":"0f260fec-40f0-4f84-8466-74de9dd90cc3","system_id":"levelo_inurba_marseille","lat":43.29531,"lon":5.38549,"is_reserved":false,"is_disabled":false,"rental_uris":{"android":"levelo://app?vid=0f260fec-40f0-4f84-8466-74de9dd90cc3","ios":"levelo://app?vid=0f260fec-40f0-4f84-8466-74de9dd90cc3"},"vehicle_type_id":"4","last_reported":1731708553,"current_range_meters":28400,"station_id":"ce4bgih2rcd13ifvqba0","pricing_plan_id":"cebpf4jnsgd1na2vs0mg"},{"bike_id":"032ce453-8eab-4e86-a761-033f2cb26fc2","system_id":"levelo_inurba_marseille","lat":43.29425,"lon":5.38622,"is_reserved":false,"is_disabled":false,"rental_uris":{"android":"levelo://app?vid=032ce453-8eab-4e86-a761-033f2cb26fc2","ios":"levelo://app?vid=032ce453-8eab-4e86-a761-033f2cb26fc2"},"vehicle_type_id":"4","last_reported":1731708553,"current_range_meters":38800,"station_id":"ce4bh2h2rcd13ifvqdh0","pricing_plan_id":"cebpf4jnsgd1na2vs0mg"},{"bike_id":"2b0a7153-8b33-4b27-835a-298e284f7de3","system_id":"levelo_inurba_marseille","lat":43.286989,"lon":5.373801,"is_reserved":false,"is_disabled":false,"rental_uris":{"android":"levelo://app?vid=2b0a7153-8b33-4b27-835a-298e284f7de3","ios":"levelo://app?vid=2b0a7153-8b33-4b27-835a-298e284f7de3"},"vehicle_type_id":"4","last_reported":1731708553,"current_range_meters":36800,"station_id":"ce4bh3p2rcd13ifvqdq0","pricing_plan_id":"cebpf4jnsgd1na2vs0mg"},{"bike_id":"989d3e43-d6cb-4d81-b012-425771d86328","system_id":"levelo_inurba_marseille","lat":43.30798,"lon":5.38157,"is_reserved":false,"is_disabled":false,"rental_uris":{"android":"levelo://app?vid=989d3e43-d6cb-4d81-b012-425771d86328","ios":"levelo://app?vid=989d3e43-d6cb-4d81-b012-425771d86328"},"vehicle_type_id":"4","last_reported":1731708553,"current_range_meters":17200,"station_id":"ce4bgt12rcd13ifvqce0","pricing_plan_id":"cebpf4jnsgd1na2vs0mg"},{"bike_id":"57d225a4-56ba-48aa-b34b-fb1ad1c6c19a","system_id":"levelo_inurba_marseille","lat":43.29203,"lon":5.39326,"is_reserved":false,"is_disabled":false,"rental_uris":{"android":"levelo://app?vid=57d225a4-56ba-48aa-b34b-fb1ad1c6c19a","ios":"levelo://app?vid=57d225a4-56ba-48aa-b34b-fb1ad1c6c19a"},"vehicle_type_id":"4","last_reported":1731708553,"current_range_meters":38800,"station_id":"ce4bh192rcd13ifvqdd0","pricing_plan_id":"cebpf4jnsgd1na2vs0mg"},{"bike_id":"3cc52009-3995-4644-88ba-63ca8accb4f9","system_id":"levelo_inurba_marseille","lat":43.31172,"lon":5.38727,"is_reserved":false,"is_disabled":false,"rental_uris":{"android":"levelo://app?vid=3cc52009-3995-4644-88ba-63ca8accb4f9","ios":"levelo://app?vid=3cc52009-3995-4644-88ba-63ca8accb4f9"},"vehicle_type_id":"4","last_reported":1731708553,"current_range_meters":12000,"station_id":"ce4bgv12rcd13ifvqcp0","pricing_plan_id":"cebpf4jnsgd1na2vs0mg"},{"bike_id":"a89f1153-08fe-41a4-abf9-8bcece3d8bfd","system_id":"levelo_inurba_marseille","lat":43.29024,"lon":5.38114,"is_reserved":false,"is_disabled":false,"rental_uris":{"android":"levelo://app?vid=a89f1153-08fe-41a4-abf9-8bcece3d8bfd","ios":"levelo://app?vid=a89f1153-08fe-41a4-abf9-8bcece3d8bfd"},"vehicle_type_id":"4","last_reported":1731708553,"current_range_meters":27200,"station_id":"ce4bh4p2rcd13ifvqe1g","pricing_plan_id":"cebpf4jnsgd1na2vs0mg"},{"bike_id":"e6041af5-5eaf-4493-9815-672b45b94902","system_id":"levelo_inurba_marseille","lat":43.29267,"lon":5.38433,"is_reserved":false,"is_disabled":false,"rental_uris":{"android":"levelo://app?vid=e6041af5-5eaf-4493-9815-672b45b94902","ios":"levelo://app?vid=e6041af5-5eaf-4493-9815-672b45b94902"},"vehicle_type_id":"4","last_reported":1731708553,"current_range_meters":24800,"station_id":"ce4bh692rcd13ifvqea0","pricing_plan_id":"cebpf4jnsgd1na2vs0mg"},{"bike_id":"b286a076-cae4-4eaf-a73e-cfccbd875304","system_id":"levelo_inurba_marseille","lat":43.291117,"lon":5.381327,"is_reserved":false,"is_disabled":false,"rental_uris":{"android":"levelo://app?vid=b286a076-cae4-4eaf-a73e-cfccbd875304","ios":"levelo://app?vid=b286a076-cae4-4eaf-a73e-cfccbd875304"},"vehicle_type_id":"4","last_reported":1731708553,"current_range_meters":38800,"station_id":"ce4bh512rcd13ifvqe2g","pricing_plan_id":"cebpf4jnsgd1na2vs0mg"},{"bike_id":"906347f7-b857-4677-b3f3-7720e8dfadfc","system_id":"levelo_inurba_marseille","lat":43.26936,"lon":5.40255,"is_reserved":false,"is_disabled":false,"rental_uris":{"android":"levelo://app?vid=906347f7-b857-4677-b3f3-7720e8dfadfc","ios":"levelo://app?vid=906347f7-b857-4677-b3f3-7720e8dfadfc"},"vehicle_type_id":"4","last_reported":1731708553,"current_range_meters":37600,"station_id":"cjm6bp8fraef2m0cb0m0","pricing_plan_id":"cebpf4jnsgd1na2vs0mg"},{"bike_id":"bf25b18c-a3db-4da6-b057-3cfceca9d595","system_id":"levelo_inurba_marseille","lat":43.30601,"lon":5.37216,"is_reserved":false,"is_disabled":false,"rental_uris":{"android":"levelo://app?vid=bf25b18c-a3db-4da6-b057-3cfceca9d595","ios":"levelo://app?vid=bf25b18c-a3db-4da6-b057-3cfceca9d595"},"vehicle_type_id":"4","last_reported":1731708553,"current_range_meters":38800,"station_id":"ce4bgqh2rcd13ifvqc4g","pricing_plan_id":"cebpf4jnsgd1na2vs0mg"},{"bike_id":"6b0ea79e-cb12-4a50-9845-e4686b3cacc8","system_id":"levelo_inurba_marseille","lat":43.295751,"lon":5.399791,"is_reserved":false,"is_disabled":false,"rental_uris":{"android":"levelo://app?vid=6b0ea79e-cb12-4a50-9845-e4686b3cacc8","ios":"levelo://app?vid=6b0ea79e-cb12-4a50-9845-e4686b3cacc8"},"vehicle_type_id":"4","last_reported":1731708553,"current_range_meters":16800,"station_id":"","pricing_plan_id":"cebpf4jnsgd1na2vs0mg"},{"bike_id":"d1658b93-d7f7-40d5-8254-375e20319a01","system_id":"levelo_inurba_marseille","lat":43.2893,"lon":5.36409,"is_reserved":false,"is_disabled":false,"rental_uris":{"android":"levelo://app?vid=d1658b93-d7f7-40d5-8254-375e20319a01","ios":"levelo://app?vid=d1658b93-d7f7-40d5-8254-375e20319a01"},"vehicle_type_id":"4","last_reported":1731708553,"current_range_meters":38400,"station_id":"ce4bhc92rcd13ifvqetg","pricing_plan_id":"cebpf4jnsgd1na2vs0mg"},{"bike_id":"ff1f4c81-33b8-4ab3-9a68-18b08daa5f93","system_id":"levelo_inurba_marseille","lat":43.30781,"lon":5.37652,"is_reserved":false,"is_disabled":false,"rental_uris":{"android":"levelo://app?vid=ff1f4c81-33b8-4ab3-9a68-18b08daa5f93","ios":"levelo://app?vid=ff1f4c81-33b8-4ab3-9a68-18b08daa5f93"},"vehicle_type_id":"4","last_reported":1731708553,"current_range_meters":36800,"station_id":"ce4bgv92rcd13ifvqcq0","pricing_plan_id":"cebpf4jnsgd1na2vs0mg"},{"bike_id":"5a22c5db-171d-4004-b004-95993bce1a52","system_id":"levelo_inurba_marseille","lat":43.29895,"lon":5.4367,"is_reserved":false,"is_disabled":false,"rental_uris":{"android":"levelo://app?vid=5a22c5db-171d-4004-b004-95993bce1a52","ios":"levelo://app?vid=5a22c5db-171d-4004-b004-95993bce1a52"},"vehicle_type_id":"4","last_reported":1731708553,"current_range_meters":19600,"station_id":"ce4bhpp2rcd13ifvqhfg","pricing_plan_id":"cebpf4jnsgd1na2vs0mg"},{"bike_id":"4a74f469-1d99-48ee-a8ca-9199898c00a4","system_id":"levelo_inurba_marseille","lat":43.23192,"lon":5.35548,"is_reserved":false,"is_disabled":false,"rental_uris":{"android":"levelo://app?vid=4a74f469-1d99-48ee-a8ca-9199898c00a4","ios":"levelo://app?vid=4a74f469-1d99-48ee-a8ca-9199898c00a4"},"vehicle_type_id":"4","last_reported":1731708553,"current_range_meters":12000,"station_id":"ce4bhu92rcd13ifvqi70","pricing_plan_id":"cebpf4jnsgd1na2vs0mg"},{"bike_id":"1f43be81-f60b-4996-89e7-99986d734131","system_id":"levelo_inurba_marseille","lat":43.31187,"lon":5.38714,"is_reserved":false,"is_disabled":false,"rental_uris":{"android":"levelo://app?vid=1f43be81-f60b-4996-89e7-99986d734131","ios":"levelo://app?vid=1f43be81-f60b-4996-89e7-99986d734131"},"vehicle_type_id":"4","last_reported":1731708553,"current_range_meters":38800,"station_id":"ce4bgv12rcd13ifvqcp0","pricing_plan_id":"cebpf4jnsgd1na2vs0mg"},{"bike_id":"c478ff06-0baa-4687-ac70-3188bd2aae0c","system_id":"levelo_inurba_marseille","lat":43.27624,"lon":5.36102,"is_reserved":false,"is_disabled":false,"rental_uris":{"android":"levelo://app?vid=c478ff06-0baa-4687-ac70-3188bd2aae0c","ios":"levelo://app?vid=c478ff06-0baa-4687-ac70-3188bd2aae0c"},"vehicle_type_id":"4","last_reported":1731708553,"current_range_meters":18000,"station_id":"ce4bgj92rcd13ifvqbe0","pricing_plan_id":"cebpf4jnsgd1na2vs0mg"},{"bike_id":"d78d7d44-876d-4db4-88b6-0363c3056c76","system_id":"levelo_inurba_marseille","lat":43.29717,"lon":5.37693,"is_reserved":false,"is_disabled":false,"rental_uris":{"android":"levelo://app?vid=d78d7d44-876d-4db4-88b6-0363c3056c76","ios":"levelo://app?vid=d78d7d44-876d-4db4-88b6-0363c3056c76"},"vehicle_type_id":"4","last_reported":1731708553,"current_range_meters":27600,"station_id":"ce4bgkh2rcd13ifvqbl0","pricing_plan_id":"cebpf4jnsgd1na2vs0mg"},{"bike_id":"e4bacf1b-dac0-429e-8969-b352e374e880","system_id":"levelo_inurba_marseille","lat":43.28674,"lon":5.36335,"is_reserved":false,"is_disabled":false,"rental_uris":{"android":"levelo://app?vid=e4bacf1b-dac0-429e-8969-b352e374e880","ios":"levelo://app?vid=e4bacf1b-dac0-429e-8969-b352e374e880"},"vehicle_type_id":"4","last_reported":1731708553,"current_range_meters":18000,"station_id":"ce4bhah2rcd13ifvqej0","pricing_plan_id":"cebpf4jnsgd1na2vs0mg"},{"bike_id":"636911fc-0e5c-474a-9461-ec702ce7b87f","system_id":"levelo_inurba_marseille","lat":43.30195,"lon":5.36616,"is_reserved":false,"is_disabled":false,"rental_uris":{"android":"levelo://app?vid=636911fc-0e5c-474a-9461-ec702ce7b87f","ios":"levelo://app?vid=636911fc-0e5c-474a-9461-ec702ce7b87f"},"vehicle_type_id":"4","last_reported":1731708553,"current_range_meters":36000,"station_id":"ce4bgrh2rcd13ifvqc8g","pricing_plan_id":"cebpf4jnsgd1na2vs0mg"},{"bike_id":"57810485-8047-41f3-a695-a9d3cfe854fa","system_id":"levelo_inurba_marseille","lat":43.30886,"lon":5.37202,"is_reserved":false,"is_disabled":false,"rental_uris":{"android":"levelo://app?vid=57810485-8047-41f3-a695-a9d3cfe854fa","ios":"levelo://app?vid=57810485-8047-41f3-a695-a9d3cfe854fa"},"vehicle_type_id":"4","last_reported":1731708553,"current_range_meters":38800,"station_id":"ce4bguh2rcd13ifvqckg","pricing_plan_id":"cebpf4jnsgd1na2vs0mg"},{"bike_id":"c1d8ac21-f7f8-4836-8471-1264078cb1c2","system_id":"levelo_inurba_marseille","lat":43.27079,"lon":5.42278,"is_reserved":false,"is_disabled":false,"rental_uris":{"android":"levelo://app?vid=c1d8ac21-f7f8-4836-8471-1264078cb1c2","ios":"levelo://app?vid=c1d8ac21-f7f8-4836-8471-1264078cb1c2"},"vehicle_type_id":"4","last_reported":1731708553,"current_range_meters":12000,"station_id":"ce4bhk92rcd13ifvqgb0","pricing_plan_id":"cebpf4jnsgd1na2vs0mg"},{"bike_id":"4bcf4b9e-69df-429c-8b2f-7f3bedaef300","system_id":"levelo_inurba_marseille","lat":43.30083,"lon":5.39069,"is_reserved":false,"is_disabled":false,"rental_uris":{"android":"levelo://app?vid=4bcf4b9e-69df-429c-8b2f-7f3bedaef300","ios":"levelo://app?vid=4bcf4b9e-69df-429c-8b2f-7f3bedaef300"},"vehicle_type_id":"4","last_reported":1731708553,"current_range_meters":38000,"station_id":"ce4bh192rcd13ifvqdb0","pricing_plan_id":"cebpf4jnsgd1na2vs0mg"},{"bike_id":"66078488-c679-41b3-b351-356700d7b06f","system_id":"levelo_inurba_marseille","lat":43.30187,"lon":5.3661,"is_reserved":false,"is_disabled":false,"rental_uris":{"android":"levelo://app?vid=66078488-c679-41b3-b351-356700d7b06f","ios":"levelo://app?vid=66078488-c679-41b3-b351-356700d7b06f"},"vehicle_type_id":"4","last_reported":1731708553,"current_range_meters":38800,"station_id":"ce4bgrh2rcd13ifvqc8g","pricing_plan_id":"cebpf4jnsgd1na2vs0mg"},{"bike_id":"61dc5a72-902e-4195-9647-849b2eaa5d03","system_id":"levelo_inurba_marseille","lat":43.24671,"lon":5.38157,"is_reserved":false,"is_disabled":false,"rental_uris":{"android":"levelo://app?vid=61dc5a72-902e-4195-9647-849b2eaa5d03","ios":"levelo://app?vid=61dc5a72-902e-4195-9647-849b2eaa5d03"},"vehicle_type_id":"4","last_reported":1731708553,"current_range_meters":38800,"station_id":"ce4bhih2rcd13ifvqfr0","pricing_plan_id":"cebpf4jnsgd1na2vs0mg"},{"bike_id":"ff729c03-f11b-41a3-8cd0-c1a246aaa130","system_id":"levelo_inurba_marseille","lat":43.2979,"lon":5.38091,"is_reserved":false,"is_disabled":false,"rental_uris":{"android":"levelo://app?vid=ff729c03-f11b-41a3-8cd0-c1a246aaa130","ios":"levelo://app?vid=ff729c03-f11b-41a3-8cd0-c1a246aaa130"},"vehicle_type_id":"4","last_reported":1731708553,"current_range_meters":20800,"station_id":"ce4bgip2rcd13ifvqbb0","pricing_plan_id":"cebpf4jnsgd1na2vs0mg"},{"bike_id":"da863569-47a6-425c-bbd0-2f3c13181f24","system_id":"levelo_inurba_marseille","lat":43.285126,"lon":5.360076,"is_reserved":false,"is_disabled":false,"rental_uris":{"android":"levelo://app?vid=da863569-47a6-425c-bbd0-2f3c13181f24","ios":"levelo://app?vid=da863569-47a6-425c-bbd0-2f3c13181f24"},"vehicle_type_id":"4","last_reported":1731708553,"current_range_meters":34800,"station_id":"ce4bhah2rcd13ifvqei0","pricing_plan_id":"cebpf4jnsgd1na2vs0mg"},{"bike_id":"163bc152-5555-4932-96f3-2bd060bede8c","system_id":"levelo_inurba_marseille","lat":43.29265,"lon":5.38449,"is_reserved":false,"is_disabled":false,"rental_uris":{"android":"levelo://app?vid=163bc152-5555-4932-96f3-2bd060bede8c","ios":"levelo://app?vid=163bc152-5555-4932-96f3-2bd060bede8c"},"vehicle_type_id":"4","last_reported":1731708553,"current_range_meters":4400,"station_id":"ce4bh692rcd13ifvqea0","pricing_plan_id":"cebpf4jnsgd1na2vs0mg"},{"bike_id":"2c484f00-f074-40c3-8efd-fa0c1984e4d5","system_id":"levelo_inurba_marseille","lat":43.29296,"lon":5.37454,"is_reserved":false,"is_disabled":false,"rental_uris":{"android":"levelo://app?vid=2c484f00-f074-40c3-8efd-fa0c1984e4d5","ios":"levelo://app?vid=2c484f00-f074-40c3-8efd-fa0c1984e4d5"},"vehicle_type_id":"4","last_reported":1731708553,"current_range_meters":2000,"station_id":"ce4bgi12rcd13ifvqb70","pricing_plan_id":"cebpf4jnsgd1na2vs0mg"},{"bike_id":"6875c373-3a3e-464e-8826-15cf173d3295","system_id":"levelo_inurba_marseille","lat":43.24172,"lon":5.36392,"is_reserved":false,"is_disabled":false,"rental_uris":{"android":"levelo://app?vid=6875c373-3a3e-464e-8826-15cf173d3295","ios":"levelo://app?vid=6875c373-3a3e-464e-8826-15cf173d3295"},"vehicle_type_id":"4","last_reported":1731708553,"current_range_meters":38800,"station_id":"cpo36qri1sfpv3e86is0","pricing_plan_id":"cebpf4jnsgd1na2vs0mg"},{"bike_id":"950926cd-c8b6-4e86-88ea-a5fd52535194","system_id":"levelo_inurba_marseille","lat":43.29414,"lon":5.38629,"is_reserved":false,"is_disabled":false,"rental_uris":{"android":"levelo://app?vid=950926cd-c8b6-4e86-88ea-a5fd52535194","ios":"levelo://app?vid=950926cd-c8b6-4e86-88ea-a5fd52535194"},"vehicle_type_id":"4","last_reported":1731708553,"current_range_meters":38800,"station_id":"ce4bh2h2rcd13ifvqdh0","pricing_plan_id":"cebpf4jnsgd1na2vs0mg"},{"bike_id":"23c6735a-3b87-4602-8ef4-49451ad82108","system_id":"levelo_inurba_marseille","lat":43.29586,"lon":5.36766,"is_reserved":false,"is_disabled":false,"rental_uris":{"android":"levelo://app?vid=23c6735a-3b87-4602-8ef4-49451ad82108","ios":"levelo://app?vid=23c6735a-3b87-4602-8ef4-49451ad82108"},"vehicle_type_id":"4","last_reported":1731708553,"current_range_meters":9200,"station_id":"ce4bgph2rcd13ifvqc2g","pricing_plan_id":"cebpf4jnsgd1na2vs0mg"},{"bike_id":"276123fe-8b10-488e-8ded-9da68cfca0b3","system_id":"levelo_inurba_marseille","lat":43.29532,"lon":5.38545,"is_reserved":false,"is_disabled":false,"rental_uris":{"android":"levelo://app?vid=276123fe-8b10-488e-8ded-9da68cfca0b3","ios":"levelo://app?vid=276123fe-8b10-488e-8ded-9da68cfca0b3"},"vehicle_type_id":"4","last_reported":1731708553,"current_range_meters":19600,"station_id":"ce4bgih2rcd13ifvqba0","pricing_plan_id":"cebpf4jnsgd1na2vs0mg"},{"bike_id":"79fb7f84-6342-4e15-8645-c2407f8a49e3","system_id":"levelo_inurba_marseille","lat":43.28151,"lon":5.42648,"is_reserved":false,"is_disabled":false,"rental_uris":{"android":"levelo://app?vid=79fb7f84-6342-4e15-8645-c2407f8a49e3","ios":"levelo://app?vid=79fb7f84-6342-4e15-8645-c2407f8a49e3"},"vehicle_type_id":"4","last_reported":1731708553,"current_range_meters":28800,"station_id":"ce4bhnh2rcd13ifvqgug","pricing_plan_id":"cebpf4jnsgd1na2vs0mg"},{"bike_id":"792ba918-f0aa-452f-8f68-1a7a13f87316","system_id":"levelo_inurba_marseille","lat":43.24666,"lon":5.38155,"is_reserved":false,"is_disabled":false,"rental_uris":{"android":"levelo://app?vid=792ba918-f0aa-452f-8f68-1a7a13f87316","ios":"levelo://app?vid=792ba918-f0aa-452f-8f68-1a7a13f87316"},"vehicle_type_id":"4","last_reported":1731708553,"current_range_meters":24800,"station_id":"ce4bhih2rcd13ifvqfr0","pricing_plan_id":"cebpf4jnsgd1na2vs0mg"},{"bike_id":"389eb30f-b9d9-4e8d-a3b0-0d2be7fa7e36","system_id":"levelo_inurba_marseille","lat":43.29531,"lon":5.38539,"is_reserved":false,"is_disabled":false,"rental_uris":{"android":"levelo://app?vid=389eb30f-b9d9-4e8d-a3b0-0d2be7fa7e36","ios":"levelo://app?vid=389eb30f-b9d9-4e8d-a3b0-0d2be7fa7e36"},"vehicle_type_id":"4","last_reported":1731708553,"current_range_meters":38400,"station_id":"ce4bgih2rcd13ifvqba0","pricing_plan_id":"cebpf4jnsgd1na2vs0mg"},{"bike_id":"af0a7af4-8d77-46d8-8104-af120a3098b7","system_id":"levelo_inurba_marseille","lat":43.29172,"lon":5.3717,"is_reserved":false,"is_disabled":false,"rental_uris":{"android":"levelo://app?vid=af0a7af4-8d77-46d8-8104-af120a3098b7","ios":"levelo://app?vid=af0a7af4-8d77-46d8-8104-af120a3098b7"},"vehicle_type_id":"4","last_reported":1731708553,"current_range_meters":14400,"station_id":"ce4bha92rcd13ifvqeh0","pricing_plan_id":"cebpf4jnsgd1na2vs0mg"},{"bike_id":"7de3944a-fe17-4831-9276-5d19a780243e","system_id":"levelo_inurba_marseille","lat":43.292999,"lon":5.371805,"is_reserved":false,"is_disabled":false,"rental_uris":{"android":"levelo://app?vid=7de3944a-fe17-4831-9276-5d19a780243e","ios":"levelo://app?vid=7de3944a-fe17-4831-9276-5d19a780243e"},"vehicle_type_id":"4","last_reported":1731708553,"current_range_meters":37600,"station_id":"ce4bgh92rcd13ifvqb40","pricing_plan_id":"cebpf4jnsgd1na2vs0mg"},{"bike_id":"286d49fb-bfb0-4d11-b8a3-05db5ab4ea6b","system_id":"levelo_inurba_marseille","lat":43.27811,"lon":5.40713,"is_reserved":false,"is_disabled":false,"rental_uris":{"android":"levelo://app?vid=286d49fb-bfb0-4d11-b8a3-05db5ab4ea6b","ios":"levelo://app?vid=286d49fb-bfb0-4d11-b8a3-05db5ab4ea6b"},"vehicle_type_id":"4","last_reported":1731708553,"current_range_meters":15200,"station_id":"ce4bhnh2rcd13ifvqgtg","pricing_plan_id":"cebpf4jnsgd1na2vs0mg"},{"bike_id":"292ec6b9-529d-4ec1-b4f8-d3df413f2923","system_id":"levelo_inurba_marseille","lat":43.31714,"lon":5.43711,"is_reserved":false,"is_disabled":false,"rental_uris":{"android":"levelo://app?vid=292ec6b9-529d-4ec1-b4f8-d3df413f2923","ios":"levelo://app?vid=292ec6b9-529d-4ec1-b4f8-d3df413f2923"},"vehicle_type_id":"4","last_reported":1731708553,"current_range_meters":16800,"station_id":"ce4bhp92rcd13ifvqhcg","pricing_plan_id":"cebpf4jnsgd1na2vs0mg"},{"bike_id":"76ada99b-13e5-4bb8-a67a-8c73c57f3f01","system_id":"levelo_inurba_marseille","lat":43.3207,"lon":5.41558,"is_reserved":false,"is_disabled":false,"rental_uris":{"android":"levelo://app?vid=76ada99b-13e5-4bb8-a67a-8c73c57f3f01","ios":"levelo://app?vid=76ada99b-13e5-4bb8-a67a-8c73c57f3f01"},"vehicle_type_id":"4","last_reported":1731708553,"current_range_meters":32400,"station_id":"ce4bhq92rcd13ifvqhkg","pricing_plan_id":"cebpf4jnsgd1na2vs0mg"},{"bike_id":"3d61e5bd-e13d-406b-ac06-a71917c97183","system_id":"levelo_inurba_marseille","lat":43.29715,"lon":5.37694,"is_reserved":false,"is_disabled":false,"rental_uris":{"android":"levelo://app?vid=3d61e5bd-e13d-406b-ac06-a71917c97183","ios":"levelo://app?vid=3d61e5bd-e13d-406b-ac06-a71917c97183"},"vehicle_type_id":"4","last_reported":1731708553,"current_range_meters":35600,"station_id":"ce4bgkh2rcd13ifvqbl0","pricing_plan_id":"cebpf4jnsgd1na2vs0mg"},{"bike_id":"fcd3e0a7-bbac-46f7-82d9-70244351bb5a","system_id":"levelo_inurba_marseille","lat":43.29203,"lon":5.39318,"is_reserved":false,"is_disabled":false,"rental_uris":{"android":"levelo://app?vid=fcd3e0a7-bbac-46f7-82d9-70244351bb5a","ios":"levelo://app?vid=fcd3e0a7-bbac-46f7-82d9-70244351bb5a"},"vehicle_type_id":"4","last_reported":1731708553,"current_range_meters":23200,"station_id":"ce4bh192rcd13ifvqdd0","pricing_plan_id":"cebpf4jnsgd1na2vs0mg"},{"bike_id":"5ea0e85b-4953-42da-bede-a9a9ca319e2c","system_id":"levelo_inurba_marseille","lat":43.29417,"lon":5.38617,"is_reserved":false,"is_disabled":false,"rental_uris":{"android":"levelo://app?vid=5ea0e85b-4953-42da-bede-a9a9ca319e2c","ios":"levelo://app?vid=5ea0e85b-4953-42da-bede-a9a9ca319e2c"},"vehicle_type_id":"4","last_reported":1731708553,"current_range_meters":38800,"station_id":"ce4bh2h2rcd13ifvqdh0","pricing_plan_id":"cebpf4jnsgd1na2vs0mg"},{"bike_id":"60eb8806-e522-41dd-be59-8cb3d3621667","system_id":"levelo_inurba_marseille","lat":43.2979,"lon":5.39344,"is_reserved":false,"is_disabled":false,"rental_uris":{"android":"levelo://app?vid=60eb8806-e522-41dd-be59-8cb3d3621667","ios":"levelo://app?vid=60eb8806-e522-41dd-be59-8cb3d3621667"},"vehicle_type_id":"4","last_reported":1731708553,"current_range_meters":38800,"station_id":"chh1huq6cuj3fo74tm60","pricing_plan_id":"cebpf4jnsgd1na2vs0mg"},{"bike_id":"82588854-e185-482e-a51c-801099d30d24","system_id":"levelo_inurba_marseille","lat":43.24672,"lon":5.38161,"is_reserved":false,"is_disabled":false,"rental_uris":{"android":"levelo://app?vid=82588854-e185-482e-a51c-801099d30d24","ios":"levelo://app?vid=82588854-e185-482e-a51c-801099d30d24"},"vehicle_type_id":"4","last_reported":1731708553,"current_range_meters":12800,"station_id":"ce4bhih2rcd13ifvqfr0","pricing_plan_id":"cebpf4jnsgd1na2vs0mg"},{"bike_id":"9f74b6a1-c3bb-456c-9c75-5097724fcce6","system_id":"levelo_inurba_marseille","lat":43.29533,"lon":5.38542,"is_reserved":false,"is_disabled":false,"rental_uris":{"android":"levelo://app?vid=9f74b6a1-c3bb-456c-9c75-5097724fcce6","ios":"levelo://app?vid=9f74b6a1-c3bb-456c-9c75-5097724fcce6"},"vehicle_type_id":"4","last_reported":1731708553,"current_range_meters":18800,"station_id":"ce4bgih2rcd13ifvqba0","pricing_plan_id":"cebpf4jnsgd1na2vs0mg"},{"bike_id":"6b8eba9e-251e-401f-9b82-4a96d08ef40f","system_id":"levelo_inurba_marseille","lat":43.33015,"lon":5.39043,"is_reserved":false,"is_disabled":false,"rental_uris":{"android":"levelo://app?vid=6b8eba9e-251e-401f-9b82-4a96d08ef40f","ios":"levelo://app?vid=6b8eba9e-251e-401f-9b82-4a96d08ef40f"},"vehicle_type_id":"4","last_reported":1731708553,"current_range_meters":21600,"station_id":"ce4bhr92rcd13ifvqhrg","pricing_plan_id":"cebpf4jnsgd1na2vs0mg"},{"bike_id":"bbcb9f4c-0d60-42a1-b0c5-e43fd8593542","system_id":"levelo_inurba_marseille","lat":43.31685,"lon":5.40474,"is_reserved":false,"is_disabled":false,"rental_uris":{"android":"levelo://app?vid=bbcb9f4c-0d60-42a1-b0c5-e43fd8593542","ios":"levelo://app?vid=bbcb9f4c-0d60-42a1-b0c5-e43fd8593542"},"vehicle_type_id":"4","last_reported":1731708553,"current_range_meters":33200,"station_id":"ce4bh012rcd13ifvqd00","pricing_plan_id":"cebpf4jnsgd1na2vs0mg"},{"bike_id":"c974cc8b-299b-4d52-81c8-4e50a91b9225","system_id":"levelo_inurba_marseille","lat":43.33745,"lon":5.37487,"is_reserved":false,"is_disabled":false,"rental_uris":{"android":"levelo://app?vid=c974cc8b-299b-4d52-81c8-4e50a91b9225","ios":"levelo://app?vid=c974cc8b-299b-4d52-81c8-4e50a91b9225"},"vehicle_type_id":"4","last_reported":1731708553,"current_range_meters":37600,"station_id":"","pricing_plan_id":"cebpf4jnsgd1na2vs0mg"},{"bike_id":"f86a601e-26e3-440e-a7e5-894f75bad9f4","system_id":"levelo_inurba_marseille","lat":43.337444,"lon":5.374475,"is_reserved":false,"is_disabled":false,"rental_uris":{"android":"levelo://app?vid=f86a601e-26e3-440e-a7e5-894f75bad9f4","ios":"levelo://app?vid=f86a601e-26e3-440e-a7e5-894f75bad9f4"},"vehicle_type_id":"4","last_reported":1731708553,"current_range_meters":22000,"station_id":"","pricing_plan_id":"cebpf4jnsgd1na2vs0mg"},{"bike_id":"b02cad58-3de4-410a-a29d-78e174a9d94a","system_id":"levelo_inurba_marseille","lat":43.23194,"lon":5.35549,"is_reserved":false,"is_disabled":false,"rental_uris":{"android":"levelo://app?vid=b02cad58-3de4-410a-a29d-78e174a9d94a","ios":"levelo://app?vid=b02cad58-3de4-410a-a29d-78e174a9d94a"},"vehicle_type_id":"4","last_reported":1731708553,"current_range_meters":38800,"station_id":"ce4bhu92rcd13ifvqi70","pricing_plan_id":"cebpf4jnsgd1na2vs0mg"},{"bike_id":"bab8bee1-b9a1-441c-90dd-aff6a139d804","system_id":"levelo_inurba_marseille","lat":43.292755,"lon":5.384597,"is_reserved":false,"is_disabled":false,"rental_uris":{"android":"levelo://app?vid=bab8bee1-b9a1-441c-90dd-aff6a139d804","ios":"levelo://app?vid=bab8bee1-b9a1-441c-90dd-aff6a139d804"},"vehicle_type_id":"4","last_reported":1731708553,"current_range_meters":2000,"station_id":"ce4bgv12rcd13ifvqcp0","pricing_plan_id":"cebpf4jnsgd1na2vs0mg"},{"bike_id":"980c2b64-5ae6-4e8e-ac4f-88eb697394b6","system_id":"levelo_inurba_marseille","lat":43.25926,"lon":5.40906,"is_reserved":false,"is_disabled":false,"rental_uris":{"android":"levelo://app?vid=980c2b64-5ae6-4e8e-ac4f-88eb697394b6","ios":"levelo://app?vid=980c2b64-5ae6-4e8e-ac4f-88eb697394b6"},"vehicle_type_id":"4","last_reported":1731708553,"current_range_meters":6000,"station_id":"ce4bhm92rcd13ifvqglg","pricing_plan_id":"cebpf4jnsgd1na2vs0mg"},{"bike_id":"00beb359-3cf2-4e01-938f-2c11b6efaf51","system_id":"levelo_inurba_marseille","lat":43.25108,"lon":5.40334,"is_reserved":false,"is_disabled":false,"rental_uris":{"android":"levelo://app?vid=00beb359-3cf2-4e01-938f-2c11b6efaf51","ios":"levelo://app?vid=00beb359-3cf2-4e01-938f-2c11b6efaf51"},"vehicle_type_id":"4","last_reported":1731708553,"current_range_meters":38800,"station_id":"ce4bhlh2rcd13ifvqgig","pricing_plan_id":"cebpf4jnsgd1na2vs0mg"},{"bike_id":"642f5def-6e78-4f7e-9ac0-941a94e86de5","system_id":"levelo_inurba_marseille","lat":43.31686,"lon":5.40467,"is_reserved":false,"is_disabled":false,"rental_uris":{"android":"levelo://app?vid=642f5def-6e78-4f7e-9ac0-941a94e86de5","ios":"levelo://app?vid=642f5def-6e78-4f7e-9ac0-941a94e86de5"},"vehicle_type_id":"4","last_reported":1731708553,"current_range_meters":38800,"station_id":"ce4bh012rcd13ifvqd00","pricing_plan_id":"cebpf4jnsgd1na2vs0mg"},{"bike_id":"8a32b09b-7036-46a9-957f-6cd7abf08180","system_id":"levelo_inurba_marseille","lat":43.30898,"lon":5.36844,"is_reserved":false,"is_disabled":false,"rental_uris":{"android":"levelo://app?vid=8a32b09b-7036-46a9-957f-6cd7abf08180","ios":"levelo://app?vid=8a32b09b-7036-46a9-957f-6cd7abf08180"},"vehicle_type_id":"4","last_reported":1731708553,"current_range_meters":12800,"station_id":"ce4bgn92rcd13ifvqbvg","pricing_plan_id":"cebpf4jnsgd1na2vs0mg"},{"bike_id":"e0d9caf7-e1dd-4ab8-902f-4b60f2b7828d","system_id":"levelo_inurba_marseille","lat":43.294464,"lon":5.386748,"is_reserved":false,"is_disabled":false,"rental_uris":{"android":"levelo://app?vid=e0d9caf7-e1dd-4ab8-902f-4b60f2b7828d","ios":"levelo://app?vid=e0d9caf7-e1dd-4ab8-902f-4b60f2b7828d"},"vehicle_type_id":"4","last_reported":1731708553,"current_range_meters":28400,"station_id":"ce4bh2h2rcd13ifvqdh0","pricing_plan_id":"cebpf4jnsgd1na2vs0mg"},{"bike_id":"d94748f8-40ee-4468-9ec9-f30930775c57","system_id":"levelo_inurba_marseille","lat":43.27172,"lon":5.4099,"is_reserved":false,"is_disabled":false,"rental_uris":{"android":"levelo://app?vid=d94748f8-40ee-4468-9ec9-f30930775c57","ios":"levelo://app?vid=d94748f8-40ee-4468-9ec9-f30930775c57"},"vehicle_type_id":"4","last_reported":1731708553,"current_range_meters":38800,"station_id":"ce4bhl12rcd13ifvqgf0","pricing_plan_id":"cebpf4jnsgd1na2vs0mg"},{"bike_id":"baf948ad-adf3-41b6-8605-0b0f6b24354d","system_id":"levelo_inurba_marseille","lat":43.27892,"lon":5.36912,"is_reserved":false,"is_disabled":false,"rental_uris":{"android":"levelo://app?vid=baf948ad-adf3-41b6-8605-0b0f6b24354d","ios":"levelo://app?vid=baf948ad-adf3-41b6-8605-0b0f6b24354d"},"vehicle_type_id":"4","last_reported":1731708553,"current_range_meters":4000,"station_id":"","pricing_plan_id":"cebpf4jnsgd1na2vs0mg"},{"bike_id":"64121eb1-1cd1-4b91-ae8d-ec5240440754","system_id":"levelo_inurba_marseille","lat":43.2781,"lon":5.40709,"is_reserved":false,"is_disabled":false,"rental_uris":{"android":"levelo://app?vid=64121eb1-1cd1-4b91-ae8d-ec5240440754","ios":"levelo://app?vid=64121eb1-1cd1-4b91-ae8d-ec5240440754"},"vehicle_type_id":"4","last_reported":1731708553,"current_range_meters":12400,"station_id":"ce4bhnh2rcd13ifvqgtg","pricing_plan_id":"cebpf4jnsgd1na2vs0mg"},{"bike_id":"c7ad3112-6fa1-480b-b6f6-f0b1dce495ed","system_id":"levelo_inurba_marseille","lat":43.2738,"lon":5.36251,"is_reserved":false,"is_disabled":false,"rental_uris":{"android":"levelo://app?vid=c7ad3112-6fa1-480b-b6f6-f0b1dce495ed","ios":"levelo://app?vid=c7ad3112-6fa1-480b-b6f6-f0b1dce495ed"},"vehicle_type_id":"4","last_reported":1731708553,"current_range_meters":38800,"station_id":"ce4bhbh2rcd13ifvqeo0","pricing_plan_id":"cebpf4jnsgd1na2vs0mg"},{"bike_id":"02b2e806-f54e-47af-9af3-817f9e684f62","system_id":"levelo_inurba_marseille","lat":43.33006,"lon":5.39028,"is_reserved":false,"is_disabled":false,"rental_uris":{"android":"levelo://app?vid=02b2e806-f54e-47af-9af3-817f9e684f62","ios":"levelo://app?vid=02b2e806-f54e-47af-9af3-817f9e684f62"},"vehicle_type_id":"4","last_reported":1731708553,"current_range_meters":24000,"station_id":"ce4bhr92rcd13ifvqhrg","pricing_plan_id":"cebpf4jnsgd1na2vs0mg"},{"bike_id":"d7c640cb-2a84-4400-9766-128530948093","system_id":"levelo_inurba_marseille","lat":43.31537,"lon":5.38027,"is_reserved":false,"is_disabled":false,"rental_uris":{"android":"levelo://app?vid=d7c640cb-2a84-4400-9766-128530948093","ios":"levelo://app?vid=d7c640cb-2a84-4400-9766-128530948093"},"vehicle_type_id":"4","last_reported":1731708553,"current_range_meters":38000,"station_id":"ce4bhsp2rcd13ifvqi50","pricing_plan_id":"cebpf4jnsgd1na2vs0mg"},{"bike_id":"5c28af49-1311-42ec-956b-05a6cb87cb8d","system_id":"levelo_inurba_marseille","lat":43.27946,"lon":5.4104,"is_reserved":false,"is_disabled":false,"rental_uris":{"android":"levelo://app?vid=5c28af49-1311-42ec-956b-05a6cb87cb8d","ios":"levelo://app?vid=5c28af49-1311-42ec-956b-05a6cb87cb8d"},"vehicle_type_id":"4","last_reported":1731708553,"current_range_meters":38800,"station_id":"ce4bhnp2rcd13ifvqh0g","pricing_plan_id":"cebpf4jnsgd1na2vs0mg"},{"bike_id":"bc0d10e0-28a9-494f-accd-c09bd01bda0d","system_id":"levelo_inurba_marseille","lat":43.30328,"lon":5.40439,"is_reserved":false,"is_disabled":false,"rental_uris":{"android":"levelo://app?vid=bc0d10e0-28a9-494f-accd-c09bd01bda0d","ios":"levelo://app?vid=bc0d10e0-28a9-494f-accd-c09bd01bda0d"},"vehicle_type_id":"4","last_reported":1731708553,"current_range_meters":27600,"station_id":"ce4bh012rcd13ifvqd10","pricing_plan_id":"cebpf4jnsgd1na2vs0mg"},{"bike_id":"036a2130-f796-41a2-87ee-477590520b8b","system_id":"levelo_inurba_marseille","lat":43.27052,"lon":5.40268,"is_reserved":false,"is_disabled":false,"rental_uris":{"android":"levelo://app?vid=036a2130-f796-41a2-87ee-477590520b8b","ios":"levelo://app?vid=036a2130-f796-41a2-87ee-477590520b8b"},"vehicle_type_id":"4","last_reported":1731708553,"current_range_meters":20400,"station_id":"ce4bhk92rcd13ifvqgc0","pricing_plan_id":"cebpf4jnsgd1na2vs0mg"},{"bike_id":"46632805-d598-46ca-8978-4f5e71b702c6","system_id":"levelo_inurba_marseille","lat":43.28155,"lon":5.42639,"is_reserved":false,"is_disabled":false,"rental_uris":{"android":"levelo://app?vid=46632805-d598-46ca-8978-4f5e71b702c6","ios":"levelo://app?vid=46632805-d598-46ca-8978-4f5e71b702c6"},"vehicle_type_id":"4","last_reported":1731708553,"current_range_meters":38800,"station_id":"ce4bhnh2rcd13ifvqgug","pricing_plan_id":"cebpf4jnsgd1na2vs0mg"},{"bike_id":"bff2b802-22fb-4440-9ddd-c6e48a3f3504","system_id":"levelo_inurba_marseille","lat":43.32337,"lon":5.4062,"is_reserved":false,"is_disabled":false,"rental_uris":{"android":"levelo://app?vid=bff2b802-22fb-4440-9ddd-c6e48a3f3504","ios":"levelo://app?vid=bff2b802-22fb-4440-9ddd-c6e48a3f3504"},"vehicle_type_id":"4","last_reported":1731708553,"current_range_meters":27600,"station_id":"ce4bhq92rcd13ifvqhjg","pricing_plan_id":"cebpf4jnsgd1na2vs0mg"},{"bike_id":"d01dca5e-5b16-48ef-9899-62a24cb1091b","system_id":"levelo_inurba_marseille","lat":43.30595,"lon":5.37223,"is_reserved":false,"is_disabled":false,"rental_uris":{"android":"levelo://app?vid=d01dca5e-5b16-48ef-9899-62a24cb1091b","ios":"levelo://app?vid=d01dca5e-5b16-48ef-9899-62a24cb1091b"},"vehicle_type_id":"4","last_reported":1731708553,"current_range_meters":34000,"station_id":"ce4bgqh2rcd13ifvqc4g","pricing_plan_id":"cebpf4jnsgd1na2vs0mg"},{"bike_id":"5d86f886-5d1c-4480-89a6-7c110eb1a4a5","system_id":"levelo_inurba_marseille","lat":43.29531,"lon":5.38536,"is_reserved":false,"is_disabled":false,"rental_uris":{"android":"levelo://app?vid=5d86f886-5d1c-4480-89a6-7c110eb1a4a5","ios":"levelo://app?vid=5d86f886-5d1c-4480-89a6-7c110eb1a4a5"},"vehicle_type_id":"4","last_reported":1731708553,"current_range_meters":30000,"station_id":"ce4bgih2rcd13ifvqba0","pricing_plan_id":"cebpf4jnsgd1na2vs0mg"},{"bike_id":"2c7da520-bf3f-4579-bbaf-d8bed38515fb","system_id":"levelo_inurba_marseille","lat":43.24652,"lon":5.38897,"is_reserved":false,"is_disabled":false,"rental_uris":{"android":"levelo://app?vid=2c7da520-bf3f-4579-bbaf-d8bed38515fb","ios":"levelo://app?vid=2c7da520-bf3f-4579-bbaf-d8bed38515fb"},"vehicle_type_id":"4","last_reported":1731708553,"current_range_meters":39200,"station_id":"ce4bhg12rcd13ifvqf60","pricing_plan_id":"cebpf4jnsgd1na2vs0mg"},{"bike_id":"8893f2f1-2edb-4438-9753-3811227c3612","system_id":"levelo_inurba_marseille","lat":43.29418,"lon":5.38622,"is_reserved":false,"is_disabled":false,"rental_uris":{"android":"levelo://app?vid=8893f2f1-2edb-4438-9753-3811227c3612","ios":"levelo://app?vid=8893f2f1-2edb-4438-9753-3811227c3612"},"vehicle_type_id":"4","last_reported":1731708553,"current_range_meters":38400,"station_id":"ce4bh2h2rcd13ifvqdh0","pricing_plan_id":"cebpf4jnsgd1na2vs0mg"},{"bike_id":"b8e0adfd-dc7d-42dd-a2e4-574f06410f3c","system_id":"levelo_inurba_marseille","lat":43.27811,"lon":5.40705,"is_reserved":false,"is_disabled":false,"rental_uris":{"android":"levelo://app?vid=b8e0adfd-dc7d-42dd-a2e4-574f06410f3c","ios":"levelo://app?vid=b8e0adfd-dc7d-42dd-a2e4-574f06410f3c"},"vehicle_type_id":"4","last_reported":1731708553,"current_range_meters":8800,"station_id":"ce4bhnh2rcd13ifvqgtg","pricing_plan_id":"cebpf4jnsgd1na2vs0mg"},{"bike_id":"e14ab643-64c2-436a-887b-c668a13e7fcb","system_id":"levelo_inurba_marseille","lat":43.29421,"lon":5.38624,"is_reserved":false,"is_disabled":false,"rental_uris":{"android":"levelo://app?vid=e14ab643-64c2-436a-887b-c668a13e7fcb","ios":"levelo://app?vid=e14ab643-64c2-436a-887b-c668a13e7fcb"},"vehicle_type_id":"4","last_reported":1731708553,"current_range_meters":36400,"station_id":"ce4bh2h2rcd13ifvqdh0","pricing_plan_id":"cebpf4jnsgd1na2vs0mg"},{"bike_id":"4defb62b-67ba-4dc9-abce-6d3dfc2d3f86","system_id":"levelo_inurba_marseille","lat":43.280306,"lon":5.369434,"is_reserved":false,"is_disabled":false,"rental_uris":{"android":"levelo://app?vid=4defb62b-67ba-4dc9-abce-6d3dfc2d3f86","ios":"levelo://app?vid=4defb62b-67ba-4dc9-abce-6d3dfc2d3f86"},"vehicle_type_id":"4","last_reported":1731708553,"current_range_meters":23200,"station_id":"ce4bha12rcd13ifvqef0","pricing_plan_id":"cebpf4jnsgd1na2vs0mg"},{"bike_id":"60346686-846e-43e0-b1f0-095f872d71c2","system_id":"levelo_inurba_marseille","lat":43.337444,"lon":5.374475,"is_reserved":false,"is_disabled":false,"rental_uris":{"android":"levelo://app?vid=60346686-846e-43e0-b1f0-095f872d71c2","ios":"levelo://app?vid=60346686-846e-43e0-b1f0-095f872d71c2"},"vehicle_type_id":"4","last_reported":1731708553,"current_range_meters":37600,"station_id":"","pricing_plan_id":"cebpf4jnsgd1na2vs0mg"},{"bike_id":"d48d82d5-aecb-4fcc-9d67-53e0a2b37e92","system_id":"levelo_inurba_marseille","lat":43.31698,"lon":5.37767,"is_reserved":false,"is_disabled":false,"rental_uris":{"android":"levelo://app?vid=d48d82d5-aecb-4fcc-9d67-53e0a2b37e92","ios":"levelo://app?vid=d48d82d5-aecb-4fcc-9d67-53e0a2b37e92"},"vehicle_type_id":"4","last_reported":1731708553,"current_range_meters":38000,"station_id":"ce4bgth2rcd13ifvqch0","pricing_plan_id":"cebpf4jnsgd1na2vs0mg"},{"bike_id":"a65a2419-69e6-4d19-b1e3-3abe61fd327b","system_id":"levelo_inurba_marseille","lat":43.24808,"lon":5.37452,"is_reserved":false,"is_disabled":false,"rental_uris":{"android":"levelo://app?vid=a65a2419-69e6-4d19-b1e3-3abe61fd327b","ios":"levelo://app?vid=a65a2419-69e6-4d19-b1e3-3abe61fd327b"},"vehicle_type_id":"4","last_reported":1731708553,"current_range_meters":38400,"station_id":"ce4bhgh2rcd13ifvqfb0","pricing_plan_id":"cebpf4jnsgd1na2vs0mg"},{"bike_id":"d206d41a-8ea1-48b7-8dea-76f005b54e28","system_id":"levelo_inurba_marseille","lat":43.337444,"lon":5.374475,"is_reserved":false,"is_disabled":false,"rental_uris":{"android":"levelo://app?vid=d206d41a-8ea1-48b7-8dea-76f005b54e28","ios":"levelo://app?vid=d206d41a-8ea1-48b7-8dea-76f005b54e28"},"vehicle_type_id":"4","last_reported":1731708553,"current_range_meters":26000,"station_id":"","pricing_plan_id":"cebpf4jnsgd1na2vs0mg"},{"bike_id":"7386319e-0d6c-493a-904a-1c5207db3d50","system_id":"levelo_inurba_marseille","lat":43.23194,"lon":5.39986,"is_reserved":false,"is_disabled":false,"rental_uris":{"android":"levelo://app?vid=7386319e-0d6c-493a-904a-1c5207db3d50","ios":"levelo://app?vid=7386319e-0d6c-493a-904a-1c5207db3d50"},"vehicle_type_id":"4","last_reported":1731708553,"current_range_meters":21600,"station_id":"ce4bhn12rcd13ifvqgqg","pricing_plan_id":"cebpf4jnsgd1na2vs0mg"},{"bike_id":"833e03e1-4c2a-4d48-b02a-e51996b7b259","system_id":"levelo_inurba_marseille","lat":43.26488,"lon":5.39547,"is_reserved":false,"is_disabled":false,"rental_uris":{"android":"levelo://app?vid=833e03e1-4c2a-4d48-b02a-e51996b7b259","ios":"levelo://app?vid=833e03e1-4c2a-4d48-b02a-e51996b7b259"},"vehicle_type_id":"4","last_reported":1731708553,"current_range_meters":6000,"station_id":"ce4bhi12rcd13ifvqfq0","pricing_plan_id":"cebpf4jnsgd1na2vs0mg"},{"bike_id":"3a331d28-2106-48df-a843-11a12997c937","system_id":"levelo_inurba_marseille","lat":43.30888,"lon":5.39655,"is_reserved":false,"is_disabled":false,"rental_uris":{"android":"levelo://app?vid=3a331d28-2106-48df-a843-11a12997c937","ios":"levelo://app?vid=3a331d28-2106-48df-a843-11a12997c937"},"vehicle_type_id":"4","last_reported":1731708553,"current_range_meters":19600,"station_id":"ce4bh012rcd13ifvqcv0","pricing_plan_id":"cebpf4jnsgd1na2vs0mg"},{"bike_id":"0bcd71bc-5f6c-4af6-961a-76f94ceb8ff4","system_id":"levelo_inurba_marseille","lat":43.28412,"lon":5.37531,"is_reserved":false,"is_disabled":false,"rental_uris":{"android":"levelo://app?vid=0bcd71bc-5f6c-4af6-961a-76f94ceb8ff4","ios":"levelo://app?vid=0bcd71bc-5f6c-4af6-961a-76f94ceb8ff4"},"vehicle_type_id":"4","last_reported":1731708553,"current_range_meters":34000,"station_id":"ce4bh412rcd13ifvqds0","pricing_plan_id":"cebpf4jnsgd1na2vs0mg"},{"bike_id":"963e5493-1e1e-4e84-8dcb-e5db09ee7ae9","system_id":"levelo_inurba_marseille","lat":43.26214,"lon":5.37437,"is_reserved":false,"is_disabled":false,"rental_uris":{"android":"levelo://app?vid=963e5493-1e1e-4e84-8dcb-e5db09ee7ae9","ios":"levelo://app?vid=963e5493-1e1e-4e84-8dcb-e5db09ee7ae9"},"vehicle_type_id":"4","last_reported":1731708553,"current_range_meters":36000,"station_id":"ce4bhgp2rcd13ifvqfc0","pricing_plan_id":"cebpf4jnsgd1na2vs0mg"},{"bike_id":"27f6f96f-c370-40b4-9530-5f3dff5f5a2f","system_id":"levelo_inurba_marseille","lat":43.28716,"lon":5.37943,"is_reserved":false,"is_disabled":false,"rental_uris":{"android":"levelo://app?vid=27f6f96f-c370-40b4-9530-5f3dff5f5a2f","ios":"levelo://app?vid=27f6f96f-c370-40b4-9530-5f3dff5f5a2f"},"vehicle_type_id":"4","last_reported":1731708553,"current_range_meters":28800,"station_id":"ce4bh9p2rcd13ifvqec0","pricing_plan_id":"cebpf4jnsgd1na2vs0mg"},{"bike_id":"33f4c069-a133-434b-b4b5-38b67ea11e19","system_id":"levelo_inurba_marseille","lat":43.30799,"lon":5.3922,"is_reserved":false,"is_disabled":false,"rental_uris":{"android":"levelo://app?vid=33f4c069-a133-434b-b4b5-38b67ea11e19","ios":"levelo://app?vid=33f4c069-a133-434b-b4b5-38b67ea11e19"},"vehicle_type_id":"4","last_reported":1731708553,"current_range_meters":28400,"station_id":"","pricing_plan_id":"cebpf4jnsgd1na2vs0mg"},{"bike_id":"328a338d-c14e-415d-99a6-90e77649b2f4","system_id":"levelo_inurba_marseille","lat":43.25507,"lon":5.37673,"is_reserved":false,"is_disabled":false,"rental_uris":{"android":"levelo://app?vid=328a338d-c14e-415d-99a6-90e77649b2f4","ios":"levelo://app?vid=328a338d-c14e-415d-99a6-90e77649b2f4"},"vehicle_type_id":"4","last_reported":1731708553,"current_range_meters":21600,"station_id":"ce4bhh12rcd13ifvqff0","pricing_plan_id":"cebpf4jnsgd1na2vs0mg"},{"bike_id":"1252811b-6a0c-4c35-bf70-d3d61b2082c0","system_id":"levelo_inurba_marseille","lat":43.29419,"lon":5.38632,"is_reserved":false,"is_disabled":false,"rental_uris":{"android":"levelo://app?vid=1252811b-6a0c-4c35-bf70-d3d61b2082c0","ios":"levelo://app?vid=1252811b-6a0c-4c35-bf70-d3d61b2082c0"},"vehicle_type_id":"4","last_reported":1731708553,"current_range_meters":33600,"station_id":"ce4bh2h2rcd13ifvqdh0","pricing_plan_id":"cebpf4jnsgd1na2vs0mg"},{"bike_id":"7cb9c0c4-e389-4c7c-8d2a-5aa235ba359a","system_id":"levelo_inurba_marseille","lat":43.31699,"lon":5.40473,"is_reserved":false,"is_disabled":false,"rental_uris":{"android":"levelo://app?vid=7cb9c0c4-e389-4c7c-8d2a-5aa235ba359a","ios":"levelo://app?vid=7cb9c0c4-e389-4c7c-8d2a-5aa235ba359a"},"vehicle_type_id":"4","last_reported":1731708553,"current_range_meters":38800,"station_id":"ce4bh012rcd13ifvqd00","pricing_plan_id":"cebpf4jnsgd1na2vs0mg"},{"bike_id":"1d1da4c9-e222-4045-a315-95ad45a051f4","system_id":"levelo_inurba_marseille","lat":43.2943,"lon":5.38624,"is_reserved":false,"is_disabled":false,"rental_uris":{"android":"levelo://app?vid=1d1da4c9-e222-4045-a315-95ad45a051f4","ios":"levelo://app?vid=1d1da4c9-e222-4045-a315-95ad45a051f4"},"vehicle_type_id":"4","last_reported":1731708553,"current_range_meters":38800,"station_id":"ce4bh2h2rcd13ifvqdh0","pricing_plan_id":"cebpf4jnsgd1na2vs0mg"},{"bike_id":"afcb96cc-da56-41f7-8d2b-2ed6c81711b1","system_id":"levelo_inurba_marseille","lat":43.28036,"lon":5.36955,"is_reserved":false,"is_disabled":false,"rental_uris":{"android":"levelo://app?vid=afcb96cc-da56-41f7-8d2b-2ed6c81711b1","ios":"levelo://app?vid=afcb96cc-da56-41f7-8d2b-2ed6c81711b1"},"vehicle_type_id":"4","last_reported":1731708553,"current_range_meters":8000,"station_id":"ce4bha12rcd13ifvqef0","pricing_plan_id":"cebpf4jnsgd1na2vs0mg"},{"bike_id":"e017d363-fb9a-4824-8abf-234d831a57c1","system_id":"levelo_inurba_marseille","lat":43.28466,"lon":5.35905,"is_reserved":false,"is_disabled":false,"rental_uris":{"android":"levelo://app?vid=e017d363-fb9a-4824-8abf-234d831a57c1","ios":"levelo://app?vid=e017d363-fb9a-4824-8abf-234d831a57c1"},"vehicle_type_id":"4","last_reported":1731708553,"current_range_meters":36400,"station_id":"ce4bhah2rcd13ifvqei0","pricing_plan_id":"cebpf4jnsgd1na2vs0mg"},{"bike_id":"00f01bcd-abb4-428d-a4f7-8bdd5b1341cd","system_id":"levelo_inurba_marseille","lat":43.32289,"lon":5.38274,"is_reserved":false,"is_disabled":false,"rental_uris":{"android":"levelo://app?vid=00f01bcd-abb4-428d-a4f7-8bdd5b1341cd","ios":"levelo://app?vid=00f01bcd-abb4-428d-a4f7-8bdd5b1341cd"},"vehicle_type_id":"4","last_reported":1731708553,"current_range_meters":11200,"station_id":"ce4bhr12rcd13ifvqhqg","pricing_plan_id":"cebpf4jnsgd1na2vs0mg"},{"bike_id":"87156f78-2e09-4e66-89df-0a85c184e89b","system_id":"levelo_inurba_marseille","lat":43.27942,"lon":5.41039,"is_reserved":false,"is_disabled":false,"rental_uris":{"android":"levelo://app?vid=87156f78-2e09-4e66-89df-0a85c184e89b","ios":"levelo://app?vid=87156f78-2e09-4e66-89df-0a85c184e89b"},"vehicle_type_id":"4","last_reported":1731708553,"current_range_meters":28800,"station_id":"ce4bhnp2rcd13ifvqh0g","pricing_plan_id":"cebpf4jnsgd1na2vs0mg"},{"bike_id":"1f820e15-5981-4ed6-9032-88f853e4daac","system_id":"levelo_inurba_marseille","lat":43.26207,"lon":5.37452,"is_reserved":false,"is_disabled":false,"rental_uris":{"android":"levelo://app?vid=1f820e15-5981-4ed6-9032-88f853e4daac","ios":"levelo://app?vid=1f820e15-5981-4ed6-9032-88f853e4daac"},"vehicle_type_id":"4","last_reported":1731708553,"current_range_meters":18000,"station_id":"ce4bhgp2rcd13ifvqfc0","pricing_plan_id":"cebpf4jnsgd1na2vs0mg"},{"bike_id":"7be9199b-afb6-4033-aaf6-16840ab51d79","system_id":"levelo_inurba_marseille","lat":43.30891,"lon":5.39639,"is_reserved":false,"is_disabled":false,"rental_uris":{"android":"levelo://app?vid=7be9199b-afb6-4033-aaf6-16840ab51d79","ios":"levelo://app?vid=7be9199b-afb6-4033-aaf6-16840ab51d79"},"vehicle_type_id":"4","last_reported":1731708553,"current_range_meters":30800,"station_id":"ce4bh012rcd13ifvqcv0","pricing_plan_id":"cebpf4jnsgd1na2vs0mg"},{"bike_id":"cab35850-219b-4032-b189-de1e44b38556","system_id":"levelo_inurba_marseille","lat":43.29266,"lon":5.384367,"is_reserved":false,"is_disabled":false,"rental_uris":{"android":"levelo://app?vid=cab35850-219b-4032-b189-de1e44b38556","ios":"levelo://app?vid=cab35850-219b-4032-b189-de1e44b38556"},"vehicle_type_id":"4","last_reported":1731708553,"current_range_meters":23200,"station_id":"ce4bh692rcd13ifvqea0","pricing_plan_id":"cebpf4jnsgd1na2vs0mg"},{"bike_id":"e1ba9017-f05f-4a25-ba07-a4cbb544a061","system_id":"levelo_inurba_marseille","lat":43.2954,"lon":5.38549,"is_reserved":false,"is_disabled":false,"rental_uris":{"android":"levelo://app?vid=e1ba9017-f05f-4a25-ba07-a4cbb544a061","ios":"levelo://app?vid=e1ba9017-f05f-4a25-ba07-a4cbb544a061"},"vehicle_type_id":"4","last_reported":1731708553,"current_range_meters":24800,"station_id":"ce4bgih2rcd13ifvqba0","pricing_plan_id":"cebpf4jnsgd1na2vs0mg"},{"bike_id":"04246129-5461-4657-8b0a-917c23e4a028","system_id":"levelo_inurba_marseille","lat":43.27172,"lon":5.40987,"is_reserved":false,"is_disabled":false,"rental_uris":{"android":"levelo://app?vid=04246129-5461-4657-8b0a-917c23e4a028","ios":"levelo://app?vid=04246129-5461-4657-8b0a-917c23e4a028"},"vehicle_type_id":"4","last_reported":1731708553,"current_range_meters":39200,"station_id":"ce4bhl12rcd13ifvqgf0","pricing_plan_id":"cebpf4jnsgd1na2vs0mg"},{"bike_id":"fda17adf-97ea-438e-81e7-fd6fce640ce4","system_id":"levelo_inurba_marseille","lat":43.27569,"lon":5.38427,"is_reserved":false,"is_disabled":false,"rental_uris":{"android":"levelo://app?vid=fda17adf-97ea-438e-81e7-fd6fce640ce4","ios":"levelo://app?vid=fda17adf-97ea-438e-81e7-fd6fce640ce4"},"vehicle_type_id":"4","last_reported":1731708553,"current_range_meters":30400,"station_id":"ce4bhh92rcd13ifvqfi0","pricing_plan_id":"cebpf4jnsgd1na2vs0mg"},{"bike_id":"8df63250-87c6-46c3-9eab-e7b6ded22fb2","system_id":"levelo_inurba_marseille","lat":43.30886,"lon":5.39642,"is_reserved":false,"is_disabled":false,"rental_uris":{"android":"levelo://app?vid=8df63250-87c6-46c3-9eab-e7b6ded22fb2","ios":"levelo://app?vid=8df63250-87c6-46c3-9eab-e7b6ded22fb2"},"vehicle_type_id":"4","last_reported":1731708553,"current_range_meters":10800,"station_id":"ce4bh012rcd13ifvqcv0","pricing_plan_id":"cebpf4jnsgd1na2vs0mg"},{"bike_id":"d7cad7ba-a3cf-4113-8f4d-63bd503bb522","system_id":"levelo_inurba_marseille","lat":43.27615,"lon":5.36109,"is_reserved":false,"is_disabled":false,"rental_uris":{"android":"levelo://app?vid=d7cad7ba-a3cf-4113-8f4d-63bd503bb522","ios":"levelo://app?vid=d7cad7ba-a3cf-4113-8f4d-63bd503bb522"},"vehicle_type_id":"4","last_reported":1731708553,"current_range_meters":22800,"station_id":"ce4bgj92rcd13ifvqbe0","pricing_plan_id":"cebpf4jnsgd1na2vs0mg"},{"bike_id":"b17d06d2-c9d4-430e-8c4e-4c13081ec160","system_id":"levelo_inurba_marseille","lat":43.24649,"lon":5.38888,"is_reserved":false,"is_disabled":false,"rental_uris":{"android":"levelo://app?vid=b17d06d2-c9d4-430e-8c4e-4c13081ec160","ios":"levelo://app?vid=b17d06d2-c9d4-430e-8c4e-4c13081ec160"},"vehicle_type_id":"4","last_reported":1731708553,"current_range_meters":36000,"station_id":"ce4bhg12rcd13ifvqf60","pricing_plan_id":"cebpf4jnsgd1na2vs0mg"},{"bike_id":"e0a50b92-2a41-45ff-bfbc-c6ffc781939f","system_id":"levelo_inurba_marseille","lat":43.32369,"lon":5.38884,"is_reserved":false,"is_disabled":false,"rental_uris":{"android":"levelo://app?vid=e0a50b92-2a41-45ff-bfbc-c6ffc781939f","ios":"levelo://app?vid=e0a50b92-2a41-45ff-bfbc-c6ffc781939f"},"vehicle_type_id":"4","last_reported":1731708553,"current_range_meters":38800,"station_id":"ce4bhqp2rcd13ifvqhog","pricing_plan_id":"cebpf4jnsgd1na2vs0mg"},{"bike_id":"e40acb1f-7c3b-464f-a385-d83d7c01e615","system_id":"levelo_inurba_marseille","lat":43.32286,"lon":5.38282,"is_reserved":false,"is_disabled":false,"rental_uris":{"android":"levelo://app?vid=e40acb1f-7c3b-464f-a385-d83d7c01e615","ios":"levelo://app?vid=e40acb1f-7c3b-464f-a385-d83d7c01e615"},"vehicle_type_id":"4","last_reported":1731708553,"current_range_meters":19200,"station_id":"ce4bhr12rcd13ifvqhqg","pricing_plan_id":"cebpf4jnsgd1na2vs0mg"},{"bike_id":"383dbfdd-dadc-4957-9c5a-2d452e2c74c2","system_id":"levelo_inurba_marseille","lat":43.29545,"lon":5.38548,"is_reserved":false,"is_disabled":false,"rental_uris":{"android":"levelo://app?vid=383dbfdd-dadc-4957-9c5a-2d452e2c74c2","ios":"levelo://app?vid=383dbfdd-dadc-4957-9c5a-2d452e2c74c2"},"vehicle_type_id":"4","last_reported":1731708553,"current_range_meters":35600,"station_id":"ce4bgih2rcd13ifvqba0","pricing_plan_id":"cebpf4jnsgd1na2vs0mg"},{"bike_id":"f448e447-68b3-4792-8edf-5df3c5c43484","system_id":"levelo_inurba_marseille","lat":43.27997,"lon":5.41659,"is_reserved":false,"is_disabled":false,"rental_uris":{"android":"levelo://app?vid=f448e447-68b3-4792-8edf-5df3c5c43484","ios":"levelo://app?vid=f448e447-68b3-4792-8edf-5df3c5c43484"},"vehicle_type_id":"4","last_reported":1731708553,"current_range_meters":28400,"station_id":"ce4bho12rcd13ifvqh1g","pricing_plan_id":"cebpf4jnsgd1na2vs0mg"},{"bike_id":"5ce2d086-af0a-41a9-a5f6-a8dcf6dd55a5","system_id":"levelo_inurba_marseille","lat":43.33026,"lon":5.39042,"is_reserved":false,"is_disabled":false,"rental_uris":{"android":"levelo://app?vid=5ce2d086-af0a-41a9-a5f6-a8dcf6dd55a5","ios":"levelo://app?vid=5ce2d086-af0a-41a9-a5f6-a8dcf6dd55a5"},"vehicle_type_id":"4","last_reported":1731708553,"current_range_meters":37600,"station_id":"ce4bhr92rcd13ifvqhrg","pricing_plan_id":"cebpf4jnsgd1na2vs0mg"},{"bike_id":"36502b60-4bc7-4a32-b7db-486ac5a4b9f1","system_id":"levelo_inurba_marseille","lat":43.28439,"lon":5.39208,"is_reserved":false,"is_disabled":false,"rental_uris":{"android":"levelo://app?vid=36502b60-4bc7-4a32-b7db-486ac5a4b9f1","ios":"levelo://app?vid=36502b60-4bc7-4a32-b7db-486ac5a4b9f1"},"vehicle_type_id":"4","last_reported":1731708553,"current_range_meters":19600,"station_id":"ce4bhoh2rcd13ifvqh5g","pricing_plan_id":"cebpf4jnsgd1na2vs0mg"},{"bike_id":"afe90356-eddb-409d-9b70-e6cbcbb4bc35","system_id":"levelo_inurba_marseille","lat":43.2917,"lon":5.37163,"is_reserved":false,"is_disabled":false,"rental_uris":{"android":"levelo://app?vid=afe90356-eddb-409d-9b70-e6cbcbb4bc35","ios":"levelo://app?vid=afe90356-eddb-409d-9b70-e6cbcbb4bc35"},"vehicle_type_id":"4","last_reported":1731708553,"current_range_meters":25200,"station_id":"ce4bha92rcd13ifvqeh0","pricing_plan_id":"cebpf4jnsgd1na2vs0mg"},{"bike_id":"51070367-fcd9-4941-9bf9-dec020adaabd","system_id":"levelo_inurba_marseille","lat":43.30804,"lon":5.38146,"is_reserved":false,"is_disabled":false,"rental_uris":{"android":"levelo://app?vid=51070367-fcd9-4941-9bf9-dec020adaabd","ios":"levelo://app?vid=51070367-fcd9-4941-9bf9-dec020adaabd"},"vehicle_type_id":"4","last_reported":1731708553,"current_range_meters":17200,"station_id":"ce4bgt12rcd13ifvqce0","pricing_plan_id":"cebpf4jnsgd1na2vs0mg"},{"bike_id":"a87b089c-f44c-47a1-9e46-cec646cf4360","system_id":"levelo_inurba_marseille","lat":43.29535,"lon":5.3854,"is_reserved":false,"is_disabled":false,"rental_uris":{"android":"levelo://app?vid=a87b089c-f44c-47a1-9e46-cec646cf4360","ios":"levelo://app?vid=a87b089c-f44c-47a1-9e46-cec646cf4360"},"vehicle_type_id":"4","last_reported":1731708553,"current_range_meters":38800,"station_id":"ce4bgih2rcd13ifvqba0","pricing_plan_id":"cebpf4jnsgd1na2vs0mg"},{"bike_id":"82a7fa7a-156a-46a6-800c-aa67acf5ce4f","system_id":"levelo_inurba_marseille","lat":43.27884,"lon":5.35681,"is_reserved":false,"is_disabled":false,"rental_uris":{"android":"levelo://app?vid=82a7fa7a-156a-46a6-800c-aa67acf5ce4f","ios":"levelo://app?vid=82a7fa7a-156a-46a6-800c-aa67acf5ce4f"},"vehicle_type_id":"4","last_reported":1731708553,"current_range_meters":7200,"station_id":"ce4bhah2rcd13ifvqei0","pricing_plan_id":"cebpf4jnsgd1na2vs0mg"},{"bike_id":"107d26bb-dbe5-4489-9be3-de922ee670da","system_id":"levelo_inurba_marseille","lat":43.32065,"lon":5.41535,"is_reserved":false,"is_disabled":false,"rental_uris":{"android":"levelo://app?vid=107d26bb-dbe5-4489-9be3-de922ee670da","ios":"levelo://app?vid=107d26bb-dbe5-4489-9be3-de922ee670da"},"vehicle_type_id":"4","last_reported":1731708553,"current_range_meters":37600,"station_id":"ce4bhq92rcd13ifvqhkg","pricing_plan_id":"cebpf4jnsgd1na2vs0mg"},{"bike_id":"3b3d662c-686a-4ba3-b7b2-3b40fe46acd2","system_id":"levelo_inurba_marseille","lat":43.28978,"lon":5.37834,"is_reserved":false,"is_disabled":false,"rental_uris":{"android":"levelo://app?vid=3b3d662c-686a-4ba3-b7b2-3b40fe46acd2","ios":"levelo://app?vid=3b3d662c-686a-4ba3-b7b2-3b40fe46acd2"},"vehicle_type_id":"4","last_reported":1731708553,"current_range_meters":38800,"station_id":"ce4bh9p2rcd13ifvqed0","pricing_plan_id":"cebpf4jnsgd1na2vs0mg"},{"bike_id":"76fda271-4bcd-4529-8397-8074a1eff7fe","system_id":"levelo_inurba_marseille","lat":43.337444,"lon":5.374475,"is_reserved":false,"is_disabled":false,"rental_uris":{"android":"levelo://app?vid=76fda271-4bcd-4529-8397-8074a1eff7fe","ios":"levelo://app?vid=76fda271-4bcd-4529-8397-8074a1eff7fe"},"vehicle_type_id":"4","last_reported":1731708553,"current_range_meters":36000,"station_id":"","pricing_plan_id":"cebpf4jnsgd1na2vs0mg"},{"bike_id":"5c538d0f-9136-4735-8ea8-3c3fb2ae89db","system_id":"levelo_inurba_marseille","lat":43.29608,"lon":5.38096,"is_reserved":false,"is_disabled":false,"rental_uris":{"android":"levelo://app?vid=5c538d0f-9136-4735-8ea8-3c3fb2ae89db","ios":"levelo://app?vid=5c538d0f-9136-4735-8ea8-3c3fb2ae89db"},"vehicle_type_id":"4","last_reported":1731708553,"current_range_meters":36400,"station_id":"ce4bgl12rcd13ifvqbo0","pricing_plan_id":"cebpf4jnsgd1na2vs0mg"},{"bike_id":"7125cda5-6cac-4f0d-b24c-2d801b2955b5","system_id":"levelo_inurba_marseille","lat":43.2318,"lon":5.39982,"is_reserved":false,"is_disabled":false,"rental_uris":{"android":"levelo://app?vid=7125cda5-6cac-4f0d-b24c-2d801b2955b5","ios":"levelo://app?vid=7125cda5-6cac-4f0d-b24c-2d801b2955b5"},"vehicle_type_id":"4","last_reported":1731708553,"current_range_meters":39200,"station_id":"ce4bhn12rcd13ifvqgqg","pricing_plan_id":"cebpf4jnsgd1na2vs0mg"},{"bike_id":"86215429-cbbf-4219-9878-648fd0a498c9","system_id":"levelo_inurba_marseille","lat":43.280007,"lon":5.400123,"is_reserved":false,"is_disabled":false,"rental_uris":{"android":"levelo://app?vid=86215429-cbbf-4219-9878-648fd0a498c9","ios":"levelo://app?vid=86215429-cbbf-4219-9878-648fd0a498c9"},"vehicle_type_id":"4","last_reported":1731708553,"current_range_meters":39200,"station_id":"ce4bho92rcd13ifvqh4g","pricing_plan_id":"cebpf4jnsgd1na2vs0mg"},{"bike_id":"48329731-4f6c-41e1-a533-cc84398d0a05","system_id":"levelo_inurba_marseille","lat":43.26498,"lon":5.39535,"is_reserved":false,"is_disabled":false,"rental_uris":{"android":"levelo://app?vid=48329731-4f6c-41e1-a533-cc84398d0a05","ios":"levelo://app?vid=48329731-4f6c-41e1-a533-cc84398d0a05"},"vehicle_type_id":"4","last_reported":1731708553,"current_range_meters":33200,"station_id":"ce4bhi12rcd13ifvqfq0","pricing_plan_id":"cebpf4jnsgd1na2vs0mg"},{"bike_id":"de4e3896-0c91-4eb1-b204-320b3c3297a8","system_id":"levelo_inurba_marseille","lat":43.23201,"lon":5.39996,"is_reserved":false,"is_disabled":false,"rental_uris":{"android":"levelo://app?vid=de4e3896-0c91-4eb1-b204-320b3c3297a8","ios":"levelo://app?vid=de4e3896-0c91-4eb1-b204-320b3c3297a8"},"vehicle_type_id":"4","last_reported":1731708553,"current_range_meters":26800,"station_id":"ce4bhn12rcd13ifvqgqg","pricing_plan_id":"cebpf4jnsgd1na2vs0mg"},{"bike_id":"2f0d00eb-7b3e-4f6a-97f3-0f5351f15aca","system_id":"levelo_inurba_marseille","lat":43.29529,"lon":5.38539,"is_reserved":false,"is_disabled":false,"rental_uris":{"android":"levelo://app?vid=2f0d00eb-7b3e-4f6a-97f3-0f5351f15aca","ios":"levelo://app?vid=2f0d00eb-7b3e-4f6a-97f3-0f5351f15aca"},"vehicle_type_id":"4","last_reported":1731708553,"current_range_meters":37600,"station_id":"ce4bgih2rcd13ifvqba0","pricing_plan_id":"cebpf4jnsgd1na2vs0mg"},{"bike_id":"0798270e-42c9-4323-819e-b75eb6dce35a","system_id":"levelo_inurba_marseille","lat":43.27805,"lon":5.407,"is_reserved":false,"is_disabled":false,"rental_uris":{"android":"levelo://app?vid=0798270e-42c9-4323-819e-b75eb6dce35a","ios":"levelo://app?vid=0798270e-42c9-4323-819e-b75eb6dce35a"},"vehicle_type_id":"4","last_reported":1731708553,"current_range_meters":38800,"station_id":"ce4bhnh2rcd13ifvqgtg","pricing_plan_id":"cebpf4jnsgd1na2vs0mg"},{"bike_id":"abf9dfa1-68ab-43a0-904f-b1955f6d7bdd","system_id":"levelo_inurba_marseille","lat":43.305966,"lon":5.372347,"is_reserved":false,"is_disabled":false,"rental_uris":{"android":"levelo://app?vid=abf9dfa1-68ab-43a0-904f-b1955f6d7bdd","ios":"levelo://app?vid=abf9dfa1-68ab-43a0-904f-b1955f6d7bdd"},"vehicle_type_id":"4","last_reported":1731708553,"current_range_meters":23200,"station_id":"ce4bgqh2rcd13ifvqc4g","pricing_plan_id":"cebpf4jnsgd1na2vs0mg"},{"bike_id":"491e5eb8-c23e-4e53-9ba3-d428ee8ab793","system_id":"levelo_inurba_marseille","lat":43.31324,"lon":5.3971,"is_reserved":false,"is_disabled":false,"rental_uris":{"android":"levelo://app?vid=491e5eb8-c23e-4e53-9ba3-d428ee8ab793","ios":"levelo://app?vid=491e5eb8-c23e-4e53-9ba3-d428ee8ab793"},"vehicle_type_id":"4","last_reported":1731708553,"current_range_meters":26000,"station_id":"ce4bgvp2rcd13ifvqcu0","pricing_plan_id":"cebpf4jnsgd1na2vs0mg"},{"bike_id":"862a0738-37c6-4949-a1c7-43ce857c2ac1","system_id":"levelo_inurba_marseille","lat":43.29312,"lon":5.37168,"is_reserved":false,"is_disabled":false,"rental_uris":{"android":"levelo://app?vid=862a0738-37c6-4949-a1c7-43ce857c2ac1","ios":"levelo://app?vid=862a0738-37c6-4949-a1c7-43ce857c2ac1"},"vehicle_type_id":"4","last_reported":1731708553,"current_range_meters":29600,"station_id":"ce4bgh92rcd13ifvqb40","pricing_plan_id":"cebpf4jnsgd1na2vs0mg"},{"bike_id":"6d757fef-4f26-43f9-ac2c-ffab39bf7dae","system_id":"levelo_inurba_marseille","lat":43.32249,"lon":5.36901,"is_reserved":false,"is_disabled":false,"rental_uris":{"android":"levelo://app?vid=6d757fef-4f26-43f9-ac2c-ffab39bf7dae","ios":"levelo://app?vid=6d757fef-4f26-43f9-ac2c-ffab39bf7dae"},"vehicle_type_id":"4","last_reported":1731708553,"current_range_meters":22400,"station_id":"","pricing_plan_id":"cebpf4jnsgd1na2vs0mg"},{"bike_id":"bf5fc513-5b16-49ac-b46e-8d1576a8b635","system_id":"levelo_inurba_marseille","lat":43.29551,"lon":5.4228,"is_reserved":false,"is_disabled":false,"rental_uris":{"android":"levelo://app?vid=bf5fc513-5b16-49ac-b46e-8d1576a8b635","ios":"levelo://app?vid=bf5fc513-5b16-49ac-b46e-8d1576a8b635"},"vehicle_type_id":"4","last_reported":1731708553,"current_range_meters":35600,"station_id":"ce4bhph2rcd13ifvqhdg","pricing_plan_id":"cebpf4jnsgd1na2vs0mg"},{"bike_id":"2b7a6636-8fcc-4bb2-ae50-6b7ab880a134","system_id":"levelo_inurba_marseille","lat":43.24999,"lon":5.38935,"is_reserved":false,"is_disabled":false,"rental_uris":{"android":"levelo://app?vid=2b7a6636-8fcc-4bb2-ae50-6b7ab880a134","ios":"levelo://app?vid=2b7a6636-8fcc-4bb2-ae50-6b7ab880a134"},"vehicle_type_id":"4","last_reported":1731708553,"current_range_meters":26800,"station_id":"ce4bhgp2rcd13ifvqfd0","pricing_plan_id":"cebpf4jnsgd1na2vs0mg"},{"bike_id":"e681c876-40a7-4a08-aec4-c73ef4716fba","system_id":"levelo_inurba_marseille","lat":43.28727,"lon":5.37936,"is_reserved":false,"is_disabled":false,"rental_uris":{"android":"levelo://app?vid=e681c876-40a7-4a08-aec4-c73ef4716fba","ios":"levelo://app?vid=e681c876-40a7-4a08-aec4-c73ef4716fba"},"vehicle_type_id":"4","last_reported":1731708553,"current_range_meters":30400,"station_id":"ce4bh9p2rcd13ifvqec0","pricing_plan_id":"cebpf4jnsgd1na2vs0mg"},{"bike_id":"8c575929-3c69-41c7-a066-804f3ed95ab8","system_id":"levelo_inurba_marseille","lat":43.29268,"lon":5.40902,"is_reserved":false,"is_disabled":false,"rental_uris":{"android":"levelo://app?vid=8c575929-3c69-41c7-a066-804f3ed95ab8","ios":"levelo://app?vid=8c575929-3c69-41c7-a066-804f3ed95ab8"},"vehicle_type_id":"4","last_reported":1731708553,"current_range_meters":27200,"station_id":"ce4bh192rcd13ifvqdc0","pricing_plan_id":"cebpf4jnsgd1na2vs0mg"},{"bike_id":"0a9751da-8684-43f9-b53f-6389ddca1500","system_id":"levelo_inurba_marseille","lat":43.31884,"lon":5.40726,"is_reserved":false,"is_disabled":false,"rental_uris":{"android":"levelo://app?vid=0a9751da-8684-43f9-b53f-6389ddca1500","ios":"levelo://app?vid=0a9751da-8684-43f9-b53f-6389ddca1500"},"vehicle_type_id":"4","last_reported":1731708553,"current_range_meters":26000,"station_id":"ce4bhq12rcd13ifvqhig","pricing_plan_id":"cebpf4jnsgd1na2vs0mg"},{"bike_id":"7989f92b-f0e1-4871-8b69-6cefae44c065","system_id":"levelo_inurba_marseille","lat":43.26562,"lon":5.37285,"is_reserved":false,"is_disabled":false,"rental_uris":{"android":"levelo://app?vid=7989f92b-f0e1-4871-8b69-6cefae44c065","ios":"levelo://app?vid=7989f92b-f0e1-4871-8b69-6cefae44c065"},"vehicle_type_id":"4","last_reported":1731708553,"current_range_meters":4800,"station_id":"ce4bhg12rcd13ifvqf70","pricing_plan_id":"cebpf4jnsgd1na2vs0mg"},{"bike_id":"3def47d5-da07-4acb-a4a9-5e939a90a81a","system_id":"levelo_inurba_marseille","lat":43.32651,"lon":5.40984,"is_reserved":false,"is_disabled":false,"rental_uris":{"android":"levelo://app?vid=3def47d5-da07-4acb-a4a9-5e939a90a81a","ios":"levelo://app?vid=3def47d5-da07-4acb-a4a9-5e939a90a81a"},"vehicle_type_id":"4","last_reported":1731708553,"current_range_meters":38800,"station_id":"ce4bhpp2rcd13ifvqhgg","pricing_plan_id":"cebpf4jnsgd1na2vs0mg"},{"bike_id":"9a626e27-56cb-4f32-aee1-86da176828ea","system_id":"levelo_inurba_marseille","lat":43.29266,"lon":5.40906,"is_reserved":false,"is_disabled":false,"rental_uris":{"android":"levelo://app?vid=9a626e27-56cb-4f32-aee1-86da176828ea","ios":"levelo://app?vid=9a626e27-56cb-4f32-aee1-86da176828ea"},"vehicle_type_id":"4","last_reported":1731708553,"current_range_meters":38800,"station_id":"ce4bh192rcd13ifvqdc0","pricing_plan_id":"cebpf4jnsgd1na2vs0mg"},{"bike_id":"01abbd6c-f381-41f7-8eb8-f26e28bbd898","system_id":"levelo_inurba_marseille","lat":43.30891,"lon":5.37201,"is_reserved":false,"is_disabled":false,"rental_uris":{"android":"levelo://app?vid=01abbd6c-f381-41f7-8eb8-f26e28bbd898","ios":"levelo://app?vid=01abbd6c-f381-41f7-8eb8-f26e28bbd898"},"vehicle_type_id":"4","last_reported":1731708553,"current_range_meters":14000,"station_id":"ce4bguh2rcd13ifvqckg","pricing_plan_id":"cebpf4jnsgd1na2vs0mg"},{"bike_id":"d27a3475-2e52-4b6c-9dea-c67313b855a8","system_id":"levelo_inurba_marseille","lat":43.31891,"lon":5.40733,"is_reserved":false,"is_disabled":false,"rental_uris":{"android":"levelo://app?vid=d27a3475-2e52-4b6c-9dea-c67313b855a8","ios":"levelo://app?vid=d27a3475-2e52-4b6c-9dea-c67313b855a8"},"vehicle_type_id":"4","last_reported":1731708553,"current_range_meters":32000,"station_id":"ce4bhq12rcd13ifvqhig","pricing_plan_id":"cebpf4jnsgd1na2vs0mg"},{"bike_id":"2f70c9d6-b647-4dc7-9d50-b16561ca2282","system_id":"levelo_inurba_marseille","lat":43.24073,"lon":5.3776,"is_reserved":false,"is_disabled":false,"rental_uris":{"android":"levelo://app?vid=2f70c9d6-b647-4dc7-9d50-b16561ca2282","ios":"levelo://app?vid=2f70c9d6-b647-4dc7-9d50-b16561ca2282"},"vehicle_type_id":"4","last_reported":1731708553,"current_range_meters":30000,"station_id":"ce4bhnp2rcd13ifvqgvg","pricing_plan_id":"cebpf4jnsgd1na2vs0mg"},{"bike_id":"cc6dab0b-8834-4ae3-9cdd-a2d3b1edd735","system_id":"levelo_inurba_marseille","lat":43.32294,"lon":5.38271,"is_reserved":false,"is_disabled":false,"rental_uris":{"android":"levelo://app?vid=cc6dab0b-8834-4ae3-9cdd-a2d3b1edd735","ios":"levelo://app?vid=cc6dab0b-8834-4ae3-9cdd-a2d3b1edd735"},"vehicle_type_id":"4","last_reported":1731708553,"current_range_meters":38800,"station_id":"ce4bhr12rcd13ifvqhqg","pricing_plan_id":"cebpf4jnsgd1na2vs0mg"},{"bike_id":"89a3ddbd-3e34-4845-868d-70420f89e82f","system_id":"levelo_inurba_marseille","lat":43.30435,"lon":5.38886,"is_reserved":false,"is_disabled":false,"rental_uris":{"android":"levelo://app?vid=89a3ddbd-3e34-4845-868d-70420f89e82f","ios":"levelo://app?vid=89a3ddbd-3e34-4845-868d-70420f89e82f"},"vehicle_type_id":"4","last_reported":1731708553,"current_range_meters":24000,"station_id":"ce4bgk12rcd13ifvqbi0","pricing_plan_id":"cebpf4jnsgd1na2vs0mg"},{"bike_id":"c32cb617-b374-4b74-8210-e0f4e45c9111","system_id":"levelo_inurba_marseille","lat":43.2781,"lon":5.40712,"is_reserved":false,"is_disabled":false,"rental_uris":{"android":"levelo://app?vid=c32cb617-b374-4b74-8210-e0f4e45c9111","ios":"levelo://app?vid=c32cb617-b374-4b74-8210-e0f4e45c9111"},"vehicle_type_id":"4","last_reported":1731708553,"current_range_meters":39200,"station_id":"ce4bhnh2rcd13ifvqgtg","pricing_plan_id":"cebpf4jnsgd1na2vs0mg"},{"bike_id":"b162d0a6-b24a-4567-8638-cd60e29e186e","system_id":"levelo_inurba_marseille","lat":43.28706,"lon":5.37914,"is_reserved":false,"is_disabled":false,"rental_uris":{"android":"levelo://app?vid=b162d0a6-b24a-4567-8638-cd60e29e186e","ios":"levelo://app?vid=b162d0a6-b24a-4567-8638-cd60e29e186e"},"vehicle_type_id":"4","last_reported":1731708553,"current_range_meters":25600,"station_id":"ce4bh9p2rcd13ifvqec0","pricing_plan_id":"cebpf4jnsgd1na2vs0mg"},{"bike_id":"814db09f-e3d9-4506-8531-69a5aa778948","system_id":"levelo_inurba_marseille","lat":43.27815,"lon":5.40706,"is_reserved":false,"is_disabled":false,"rental_uris":{"android":"levelo://app?vid=814db09f-e3d9-4506-8531-69a5aa778948","ios":"levelo://app?vid=814db09f-e3d9-4506-8531-69a5aa778948"},"vehicle_type_id":"4","last_reported":1731708553,"current_range_meters":35600,"station_id":"ce4bhnh2rcd13ifvqgtg","pricing_plan_id":"cebpf4jnsgd1na2vs0mg"},{"bike_id":"b6e29239-107b-4bf3-9a6d-4106d6b8d40f","system_id":"levelo_inurba_marseille","lat":43.30257,"lon":5.4007,"is_reserved":false,"is_disabled":false,"rental_uris":{"android":"levelo://app?vid=b6e29239-107b-4bf3-9a6d-4106d6b8d40f","ios":"levelo://app?vid=b6e29239-107b-4bf3-9a6d-4106d6b8d40f"},"vehicle_type_id":"4","last_reported":1731708553,"current_range_meters":17200,"station_id":"ce4bgvh2rcd13ifvqcs0","pricing_plan_id":"cebpf4jnsgd1na2vs0mg"},{"bike_id":"27d8548c-3f71-411a-a7c0-cda7cc725ba3","system_id":"levelo_inurba_marseille","lat":43.28682,"lon":5.38664,"is_reserved":false,"is_disabled":false,"rental_uris":{"android":"levelo://app?vid=27d8548c-3f71-411a-a7c0-cda7cc725ba3","ios":"levelo://app?vid=27d8548c-3f71-411a-a7c0-cda7cc725ba3"},"vehicle_type_id":"4","last_reported":1731708553,"current_range_meters":17600,"station_id":"ce4bh492rcd13ifvqdug","pricing_plan_id":"cebpf4jnsgd1na2vs0mg"},{"bike_id":"af922e35-461e-406c-834b-ec6d251fe769","system_id":"levelo_inurba_marseille","lat":43.29534,"lon":5.38539,"is_reserved":false,"is_disabled":false,"rental_uris":{"android":"levelo://app?vid=af922e35-461e-406c-834b-ec6d251fe769","ios":"levelo://app?vid=af922e35-461e-406c-834b-ec6d251fe769"},"vehicle_type_id":"4","last_reported":1731708553,"current_range_meters":24400,"station_id":"ce4bgih2rcd13ifvqba0","pricing_plan_id":"cebpf4jnsgd1na2vs0mg"},{"bike_id":"71b94df0-f556-4766-aa06-92d91f75dff9","system_id":"levelo_inurba_marseille","lat":43.29269,"lon":5.38432,"is_reserved":false,"is_disabled":false,"rental_uris":{"android":"levelo://app?vid=71b94df0-f556-4766-aa06-92d91f75dff9","ios":"levelo://app?vid=71b94df0-f556-4766-aa06-92d91f75dff9"},"vehicle_type_id":"4","last_reported":1731708553,"current_range_meters":32800,"station_id":"ce4bh692rcd13ifvqea0","pricing_plan_id":"cebpf4jnsgd1na2vs0mg"},{"bike_id":"08f2da3e-9a4f-4bf2-9ab5-de990ce33744","system_id":"levelo_inurba_marseille","lat":43.30662,"lon":5.36831,"is_reserved":false,"is_disabled":false,"rental_uris":{"android":"levelo://app?vid=08f2da3e-9a4f-4bf2-9ab5-de990ce33744","ios":"levelo://app?vid=08f2da3e-9a4f-4bf2-9ab5-de990ce33744"},"vehicle_type_id":"4","last_reported":1731708553,"current_range_meters":36800,"station_id":"","pricing_plan_id":"cebpf4jnsgd1na2vs0mg"},{"bike_id":"cca4ec0e-3315-4fea-b54f-00303191c9e0","system_id":"levelo_inurba_marseille","lat":43.27571,"lon":5.38439,"is_reserved":false,"is_disabled":false,"rental_uris":{"android":"levelo://app?vid=cca4ec0e-3315-4fea-b54f-00303191c9e0","ios":"levelo://app?vid=cca4ec0e-3315-4fea-b54f-00303191c9e0"},"vehicle_type_id":"4","last_reported":1731708553,"current_range_meters":32000,"station_id":"ce4bhh92rcd13ifvqfi0","pricing_plan_id":"cebpf4jnsgd1na2vs0mg"},{"bike_id":"337552e9-9e69-4fae-9c81-107a97262863","system_id":"levelo_inurba_marseille","lat":43.23188,"lon":5.39988,"is_reserved":false,"is_disabled":false,"rental_uris":{"android":"levelo://app?vid=337552e9-9e69-4fae-9c81-107a97262863","ios":"levelo://app?vid=337552e9-9e69-4fae-9c81-107a97262863"},"vehicle_type_id":"4","last_reported":1731708553,"current_range_meters":12800,"station_id":"ce4bhn12rcd13ifvqgqg","pricing_plan_id":"cebpf4jnsgd1na2vs0mg"},{"bike_id":"d7f79274-e640-43c4-b7dd-f4e3dad6011c","system_id":"levelo_inurba_marseille","lat":43.27998,"lon":5.41666,"is_reserved":false,"is_disabled":false,"rental_uris":{"android":"levelo://app?vid=d7f79274-e640-43c4-b7dd-f4e3dad6011c","ios":"levelo://app?vid=d7f79274-e640-43c4-b7dd-f4e3dad6011c"},"vehicle_type_id":"4","last_reported":1731708553,"current_range_meters":39200,"station_id":"ce4bho12rcd13ifvqh1g","pricing_plan_id":"cebpf4jnsgd1na2vs0mg"},{"bike_id":"f1e0f3dd-a15a-4f0c-a853-07b7313ac16b","system_id":"levelo_inurba_marseille","lat":43.31886,"lon":5.40728,"is_reserved":false,"is_disabled":false,"rental_uris":{"android":"levelo://app?vid=f1e0f3dd-a15a-4f0c-a853-07b7313ac16b","ios":"levelo://app?vid=f1e0f3dd-a15a-4f0c-a853-07b7313ac16b"},"vehicle_type_id":"4","last_reported":1731708553,"current_range_meters":38000,"station_id":"ce4bhq12rcd13ifvqhig","pricing_plan_id":"cebpf4jnsgd1na2vs0mg"},{"bike_id":"2851198b-6aeb-47b3-8567-9a867f6296f6","system_id":"levelo_inurba_marseille","lat":43.27982,"lon":5.3874,"is_reserved":false,"is_disabled":false,"rental_uris":{"android":"levelo://app?vid=2851198b-6aeb-47b3-8567-9a867f6296f6","ios":"levelo://app?vid=2851198b-6aeb-47b3-8567-9a867f6296f6"},"vehicle_type_id":"4","last_reported":1731708553,"current_range_meters":25600,"station_id":"ce4bhg12rcd13ifvqf80","pricing_plan_id":"cebpf4jnsgd1na2vs0mg"},{"bike_id":"9824153c-4bc7-4267-93dd-578c12aaec30","system_id":"levelo_inurba_marseille","lat":43.29201,"lon":5.35813,"is_reserved":false,"is_disabled":false,"rental_uris":{"android":"levelo://app?vid=9824153c-4bc7-4267-93dd-578c12aaec30","ios":"levelo://app?vid=9824153c-4bc7-4267-93dd-578c12aaec30"},"vehicle_type_id":"4","last_reported":1731708553,"current_range_meters":18000,"station_id":"ce4bhb12rcd13ifvqel0","pricing_plan_id":"cebpf4jnsgd1na2vs0mg"},{"bike_id":"b54f4471-f146-477a-ade3-58e1dea1b85e","system_id":"levelo_inurba_marseille","lat":43.337444,"lon":5.374475,"is_reserved":false,"is_disabled":false,"rental_uris":{"android":"levelo://app?vid=b54f4471-f146-477a-ade3-58e1dea1b85e","ios":"levelo://app?vid=b54f4471-f146-477a-ade3-58e1dea1b85e"},"vehicle_type_id":"4","last_reported":1731708553,"current_range_meters":35600,"station_id":"","pricing_plan_id":"cebpf4jnsgd1na2vs0mg"},{"bike_id":"ecc7fb54-d5dd-441b-b324-af1d207ef66a","system_id":"levelo_inurba_marseille","lat":43.28701,"lon":5.39974,"is_reserved":false,"is_disabled":false,"rental_uris":{"android":"levelo://app?vid=ecc7fb54-d5dd-441b-b324-af1d207ef66a","ios":"levelo://app?vid=ecc7fb54-d5dd-441b-b324-af1d207ef66a"},"vehicle_type_id":"4","last_reported":1731708553,"current_range_meters":38800,"station_id":"ce4bho92rcd13ifvqh3g","pricing_plan_id":"cebpf4jnsgd1na2vs0mg"},{"bike_id":"52eb6de7-84a6-45d0-b734-f6c150be3108","system_id":"levelo_inurba_marseille","lat":43.28701,"lon":5.39988,"is_reserved":false,"is_disabled":false,"rental_uris":{"android":"levelo://app?vid=52eb6de7-84a6-45d0-b734-f6c150be3108","ios":"levelo://app?vid=52eb6de7-84a6-45d0-b734-f6c150be3108"},"vehicle_type_id":"4","last_reported":1731708553,"current_range_meters":25600,"station_id":"ce4bho92rcd13ifvqh3g","pricing_plan_id":"cebpf4jnsgd1na2vs0mg"},{"bike_id":"059f2be1-c31c-467b-bc0c-d2a13b4220ea","system_id":"levelo_inurba_marseille","lat":43.292,"lon":5.35807,"is_reserved":false,"is_disabled":false,"rental_uris":{"android":"levelo://app?vid=059f2be1-c31c-467b-bc0c-d2a13b4220ea","ios":"levelo://app?vid=059f2be1-c31c-467b-bc0c-d2a13b4220ea"},"vehicle_type_id":"4","last_reported":1731708553,"current_range_meters":14000,"station_id":"ce4bhb12rcd13ifvqel0","pricing_plan_id":"cebpf4jnsgd1na2vs0mg"},{"bike_id":"805cfe6b-be44-4949-bab5-57b1ce8478a4","system_id":"levelo_inurba_marseille","lat":43.33752,"lon":5.37459,"is_reserved":false,"is_disabled":false,"rental_uris":{"android":"levelo://app?vid=805cfe6b-be44-4949-bab5-57b1ce8478a4","ios":"levelo://app?vid=805cfe6b-be44-4949-bab5-57b1ce8478a4"},"vehicle_type_id":"4","last_reported":1731708553,"current_range_meters":32000,"station_id":"","pricing_plan_id":"cebpf4jnsgd1na2vs0mg"},{"bike_id":"3cd2663d-ddea-4c47-bfe3-6f60b341aaa3","system_id":"levelo_inurba_marseille","lat":43.27821,"lon":5.407,"is_reserved":false,"is_disabled":false,"rental_uris":{"android":"levelo://app?vid=3cd2663d-ddea-4c47-bfe3-6f60b341aaa3","ios":"levelo://app?vid=3cd2663d-ddea-4c47-bfe3-6f60b341aaa3"},"vehicle_type_id":"4","last_reported":1731708553,"current_range_meters":9600,"station_id":"ce4bhnh2rcd13ifvqgtg","pricing_plan_id":"cebpf4jnsgd1na2vs0mg"},{"bike_id":"8acfffe4-8eb1-4867-94e4-74fcf4d3bf4c","system_id":"levelo_inurba_marseille","lat":43.27208,"lon":5.39186,"is_reserved":false,"is_disabled":false,"rental_uris":{"android":"levelo://app?vid=8acfffe4-8eb1-4867-94e4-74fcf4d3bf4c","ios":"levelo://app?vid=8acfffe4-8eb1-4867-94e4-74fcf4d3bf4c"},"vehicle_type_id":"4","last_reported":1731708553,"current_range_meters":38800,"station_id":"ce4bhhp2rcd13ifvqfm0","pricing_plan_id":"cebpf4jnsgd1na2vs0mg"},{"bike_id":"615cd994-d13c-46b8-be29-42ceb034a276","system_id":"levelo_inurba_marseille","lat":43.29259,"lon":5.38436,"is_reserved":false,"is_disabled":false,"rental_uris":{"android":"levelo://app?vid=615cd994-d13c-46b8-be29-42ceb034a276","ios":"levelo://app?vid=615cd994-d13c-46b8-be29-42ceb034a276"},"vehicle_type_id":"4","last_reported":1731708553,"current_range_meters":36800,"station_id":"ce4bh692rcd13ifvqea0","pricing_plan_id":"cebpf4jnsgd1na2vs0mg"},{"bike_id":"4d290e24-f8ef-46cc-8e85-56690ccf4aff","system_id":"levelo_inurba_marseille","lat":43.30889,"lon":5.39636,"is_reserved":false,"is_disabled":false,"rental_uris":{"android":"levelo://app?vid=4d290e24-f8ef-46cc-8e85-56690ccf4aff","ios":"levelo://app?vid=4d290e24-f8ef-46cc-8e85-56690ccf4aff"},"vehicle_type_id":"4","last_reported":1731708553,"current_range_meters":19200,"station_id":"ce4bh012rcd13ifvqcv0","pricing_plan_id":"cebpf4jnsgd1na2vs0mg"},{"bike_id":"f941b43b-3b57-4ea8-aee6-9223604fdbc4","system_id":"levelo_inurba_marseille","lat":43.29029,"lon":5.37764,"is_reserved":false,"is_disabled":false,"rental_uris":{"android":"levelo://app?vid=f941b43b-3b57-4ea8-aee6-9223604fdbc4","ios":"levelo://app?vid=f941b43b-3b57-4ea8-aee6-9223604fdbc4"},"vehicle_type_id":"4","last_reported":1731708553,"current_range_meters":24400,"station_id":"ce4bhap2rcd13ifvqek0","pricing_plan_id":"cebpf4jnsgd1na2vs0mg"},{"bike_id":"1cd7d493-1889-446e-ad0e-f38634beb973","system_id":"levelo_inurba_marseille","lat":43.32364,"lon":5.38881,"is_reserved":false,"is_disabled":false,"rental_uris":{"android":"levelo://app?vid=1cd7d493-1889-446e-ad0e-f38634beb973","ios":"levelo://app?vid=1cd7d493-1889-446e-ad0e-f38634beb973"},"vehicle_type_id":"4","last_reported":1731708553,"current_range_meters":38800,"station_id":"ce4bhqp2rcd13ifvqhog","pricing_plan_id":"cebpf4jnsgd1na2vs0mg"},{"bike_id":"ca655f3b-8380-4045-b3f8-8acaa0e83ede","system_id":"levelo_inurba_marseille","lat":43.33733,"lon":5.37456,"is_reserved":false,"is_disabled":false,"rental_uris":{"android":"levelo://app?vid=ca655f3b-8380-4045-b3f8-8acaa0e83ede","ios":"levelo://app?vid=ca655f3b-8380-4045-b3f8-8acaa0e83ede"},"vehicle_type_id":"4","last_reported":1731708553,"current_range_meters":35200,"station_id":"","pricing_plan_id":"cebpf4jnsgd1na2vs0mg"},{"bike_id":"55d702b7-d90e-48f7-a2e8-3167cff0bc16","system_id":"levelo_inurba_marseille","lat":43.29984,"lon":5.37172,"is_reserved":false,"is_disabled":false,"rental_uris":{"android":"levelo://app?vid=55d702b7-d90e-48f7-a2e8-3167cff0bc16","ios":"levelo://app?vid=55d702b7-d90e-48f7-a2e8-3167cff0bc16"},"vehicle_type_id":"4","last_reported":1731708553,"current_range_meters":27600,"station_id":"ce4bgr92rcd13ifvqc7g","pricing_plan_id":"cebpf4jnsgd1na2vs0mg"},{"bike_id":"eeee108a-0c4d-4aae-9f19-d70e79b8d29f","system_id":"levelo_inurba_marseille","lat":43.324811,"lon":5.365657,"is_reserved":false,"is_disabled":false,"rental_uris":{"android":"levelo://app?vid=eeee108a-0c4d-4aae-9f19-d70e79b8d29f","ios":"levelo://app?vid=eeee108a-0c4d-4aae-9f19-d70e79b8d29f"},"vehicle_type_id":"4","last_reported":1731708553,"current_range_meters":38800,"station_id":"ce4bhs12rcd13ifvqhvg","pricing_plan_id":"cebpf4jnsgd1na2vs0mg"},{"bike_id":"a6b8c285-acc9-4039-9531-1aae39136a33","system_id":"levelo_inurba_marseille","lat":43.312042,"lon":5.367348,"is_reserved":false,"is_disabled":false,"rental_uris":{"android":"levelo://app?vid=a6b8c285-acc9-4039-9531-1aae39136a33","ios":"levelo://app?vid=a6b8c285-acc9-4039-9531-1aae39136a33"},"vehicle_type_id":"4","last_reported":1731708553,"current_range_meters":17600,"station_id":"","pricing_plan_id":"cebpf4jnsgd1na2vs0mg"},{"bike_id":"7533f0c2-14f7-425a-b3ed-0abe750ceb15","system_id":"levelo_inurba_marseille","lat":43.25592,"lon":5.38249,"is_reserved":false,"is_disabled":false,"rental_uris":{"android":"levelo://app?vid=7533f0c2-14f7-425a-b3ed-0abe750ceb15","ios":"levelo://app?vid=7533f0c2-14f7-425a-b3ed-0abe750ceb15"},"vehicle_type_id":"4","last_reported":1731708553,"current_range_meters":20400,"station_id":"ce4bhih2rcd13ifvqfs0","pricing_plan_id":"cebpf4jnsgd1na2vs0mg"},{"bike_id":"5c254126-8805-4ed8-9520-9f63561143b3","system_id":"levelo_inurba_marseille","lat":43.241696,"lon":5.364006,"is_reserved":false,"is_disabled":false,"rental_uris":{"android":"levelo://app?vid=5c254126-8805-4ed8-9520-9f63561143b3","ios":"levelo://app?vid=5c254126-8805-4ed8-9520-9f63561143b3"},"vehicle_type_id":"4","last_reported":1731708553,"current_range_meters":24800,"station_id":"cpo36qri1sfpv3e86is0","pricing_plan_id":"cebpf4jnsgd1na2vs0mg"},{"bike_id":"73f67389-bc64-4ccb-bae5-f97accc880eb","system_id":"levelo_inurba_marseille","lat":43.29423,"lon":5.38613,"is_reserved":false,"is_disabled":false,"rental_uris":{"android":"levelo://app?vid=73f67389-bc64-4ccb-bae5-f97accc880eb","ios":"levelo://app?vid=73f67389-bc64-4ccb-bae5-f97accc880eb"},"vehicle_type_id":"4","last_reported":1731708553,"current_range_meters":8400,"station_id":"ce4bh2h2rcd13ifvqdh0","pricing_plan_id":"cebpf4jnsgd1na2vs0mg"},{"bike_id":"95189523-b163-438d-9cb1-f7dc4435500d","system_id":"levelo_inurba_marseille","lat":43.32336,"lon":5.40623,"is_reserved":false,"is_disabled":false,"rental_uris":{"android":"levelo://app?vid=95189523-b163-438d-9cb1-f7dc4435500d","ios":"levelo://app?vid=95189523-b163-438d-9cb1-f7dc4435500d"},"vehicle_type_id":"4","last_reported":1731708553,"current_range_meters":38800,"station_id":"ce4bhq92rcd13ifvqhjg","pricing_plan_id":"cebpf4jnsgd1na2vs0mg"},{"bike_id":"50ae3ec0-9f46-43fd-819a-4c7a80c3cf46","system_id":"levelo_inurba_marseille","lat":43.288457,"lon":5.358316,"is_reserved":false,"is_disabled":false,"rental_uris":{"android":"levelo://app?vid=50ae3ec0-9f46-43fd-819a-4c7a80c3cf46","ios":"levelo://app?vid=50ae3ec0-9f46-43fd-819a-4c7a80c3cf46"},"vehicle_type_id":"4","last_reported":1731708553,"current_range_meters":37600,"station_id":"ce4bhb12rcd13ifvqem0","pricing_plan_id":"cebpf4jnsgd1na2vs0mg"},{"bike_id":"09f47a4a-50d6-4fd5-9210-3d055e2b592d","system_id":"levelo_inurba_marseille","lat":43.29264,"lon":5.40901,"is_reserved":false,"is_disabled":false,"rental_uris":{"android":"levelo://app?vid=09f47a4a-50d6-4fd5-9210-3d055e2b592d","ios":"levelo://app?vid=09f47a4a-50d6-4fd5-9210-3d055e2b592d"},"vehicle_type_id":"4","last_reported":1731708553,"current_range_meters":38800,"station_id":"ce4bh192rcd13ifvqdc0","pricing_plan_id":"cebpf4jnsgd1na2vs0mg"},{"bike_id":"05cbc5af-00e2-43d9-9837-527d141c1f7a","system_id":"levelo_inurba_marseille","lat":43.29059,"lon":5.37976,"is_reserved":false,"is_disabled":false,"rental_uris":{"android":"levelo://app?vid=05cbc5af-00e2-43d9-9837-527d141c1f7a","ios":"levelo://app?vid=05cbc5af-00e2-43d9-9837-527d141c1f7a"},"vehicle_type_id":"4","last_reported":1731708553,"current_range_meters":36800,"station_id":"ce4bh492rcd13ifvqdvg","pricing_plan_id":"cebpf4jnsgd1na2vs0mg"},{"bike_id":"6ef266d1-92eb-440d-9bcd-6ee947c0d029","system_id":"levelo_inurba_marseille","lat":43.27496,"lon":5.42447,"is_reserved":false,"is_disabled":false,"rental_uris":{"android":"levelo://app?vid=6ef266d1-92eb-440d-9bcd-6ee947c0d029","ios":"levelo://app?vid=6ef266d1-92eb-440d-9bcd-6ee947c0d029"},"vehicle_type_id":"4","last_reported":1731708553,"current_range_meters":38800,"station_id":"ce4bhn92rcd13ifvqgrg","pricing_plan_id":"cebpf4jnsgd1na2vs0mg"},{"bike_id":"56e128db-d281-4e18-8304-040ffeba0eed","system_id":"levelo_inurba_marseille","lat":43.2942,"lon":5.38629,"is_reserved":false,"is_disabled":false,"rental_uris":{"android":"levelo://app?vid=56e128db-d281-4e18-8304-040ffeba0eed","ios":"levelo://app?vid=56e128db-d281-4e18-8304-040ffeba0eed"},"vehicle_type_id":"4","last_reported":1731708553,"current_range_meters":19600,"station_id":"ce4bh2h2rcd13ifvqdh0","pricing_plan_id":"cebpf4jnsgd1na2vs0mg"},{"bike_id":"1ae8fe75-00ad-479b-a755-74d45d76bfbe","system_id":"levelo_inurba_marseille","lat":43.24167,"lon":5.36392,"is_reserved":false,"is_disabled":false,"rental_uris":{"android":"levelo://app?vid=1ae8fe75-00ad-479b-a755-74d45d76bfbe","ios":"levelo://app?vid=1ae8fe75-00ad-479b-a755-74d45d76bfbe"},"vehicle_type_id":"4","last_reported":1731708553,"current_range_meters":8800,"station_id":"cpo36qri1sfpv3e86is0","pricing_plan_id":"cebpf4jnsgd1na2vs0mg"},{"bike_id":"25814bd3-d4dd-4170-aae5-5225113c94cc","system_id":"levelo_inurba_marseille","lat":43.29268,"lon":5.38535,"is_reserved":false,"is_disabled":false,"rental_uris":{"android":"levelo://app?vid=25814bd3-d4dd-4170-aae5-5225113c94cc","ios":"levelo://app?vid=25814bd3-d4dd-4170-aae5-5225113c94cc"},"vehicle_type_id":"4","last_reported":1731708553,"current_range_meters":8400,"station_id":"","pricing_plan_id":"cebpf4jnsgd1na2vs0mg"},{"bike_id":"5df34f29-1a7a-4221-97e5-c009d97a2929","system_id":"levelo_inurba_marseille","lat":43.23841,"lon":5.36529,"is_reserved":false,"is_disabled":false,"rental_uris":{"android":"levelo://app?vid=5df34f29-1a7a-4221-97e5-c009d97a2929","ios":"levelo://app?vid=5df34f29-1a7a-4221-97e5-c009d97a2929"},"vehicle_type_id":"4","last_reported":1731708553,"current_range_meters":12000,"station_id":"","pricing_plan_id":"cebpf4jnsgd1na2vs0mg"},{"bike_id":"92ac4858-87d6-4ceb-8f6e-004635a816a8","system_id":"levelo_inurba_marseille","lat":43.2779,"lon":5.4073,"is_reserved":false,"is_disabled":false,"rental_uris":{"android":"levelo://app?vid=92ac4858-87d6-4ceb-8f6e-004635a816a8","ios":"levelo://app?vid=92ac4858-87d6-4ceb-8f6e-004635a816a8"},"vehicle_type_id":"4","last_reported":1731708553,"current_range_meters":35600,"station_id":"ce4bhnh2rcd13ifvqgtg","pricing_plan_id":"cebpf4jnsgd1na2vs0mg"},{"bike_id":"4f2295d7-3587-4d90-aa10-8787d547e97e","system_id":"levelo_inurba_marseille","lat":43.26215,"lon":5.37437,"is_reserved":false,"is_disabled":false,"rental_uris":{"android":"levelo://app?vid=4f2295d7-3587-4d90-aa10-8787d547e97e","ios":"levelo://app?vid=4f2295d7-3587-4d90-aa10-8787d547e97e"},"vehicle_type_id":"4","last_reported":1731708553,"current_range_meters":8000,"station_id":"ce4bhgp2rcd13ifvqfc0","pricing_plan_id":"cebpf4jnsgd1na2vs0mg"},{"bike_id":"acccc9dd-ae8e-4182-bf16-701672e8ed55","system_id":"levelo_inurba_marseille","lat":43.25718,"lon":5.41106,"is_reserved":false,"is_disabled":false,"rental_uris":{"android":"levelo://app?vid=acccc9dd-ae8e-4182-bf16-701672e8ed55","ios":"levelo://app?vid=acccc9dd-ae8e-4182-bf16-701672e8ed55"},"vehicle_type_id":"4","last_reported":1731708553,"current_range_meters":38400,"station_id":"ce4bhkp2rcd13ifvqgd0","pricing_plan_id":"cebpf4jnsgd1na2vs0mg"},{"bike_id":"4764d1eb-018a-433b-b755-fe7052d97325","system_id":"levelo_inurba_marseille","lat":43.21557,"lon":5.34472,"is_reserved":false,"is_disabled":false,"rental_uris":{"android":"levelo://app?vid=4764d1eb-018a-433b-b755-fe7052d97325","ios":"levelo://app?vid=4764d1eb-018a-433b-b755-fe7052d97325"},"vehicle_type_id":"4","last_reported":1731708553,"current_range_meters":16800,"station_id":"","pricing_plan_id":"cebpf4jnsgd1na2vs0mg"},{"bike_id":"347c7842-b74d-475c-9f43-0b98799e9df1","system_id":"levelo_inurba_marseille","lat":43.32343,"lon":5.40623,"is_reserved":false,"is_disabled":false,"rental_uris":{"android":"levelo://app?vid=347c7842-b74d-475c-9f43-0b98799e9df1","ios":"levelo://app?vid=347c7842-b74d-475c-9f43-0b98799e9df1"},"vehicle_type_id":"4","last_reported":1731708553,"current_range_meters":38800,"station_id":"ce4bhq92rcd13ifvqhjg","pricing_plan_id":"cebpf4jnsgd1na2vs0mg"},{"bike_id":"ec2cfdc2-4f84-4e38-a19d-43ff2b2c9286","system_id":"levelo_inurba_marseille","lat":43.31702,"lon":5.40463,"is_reserved":false,"is_disabled":false,"rental_uris":{"android":"levelo://app?vid=ec2cfdc2-4f84-4e38-a19d-43ff2b2c9286","ios":"levelo://app?vid=ec2cfdc2-4f84-4e38-a19d-43ff2b2c9286"},"vehicle_type_id":"4","last_reported":1731708553,"current_range_meters":10800,"station_id":"ce4bh012rcd13ifvqd00","pricing_plan_id":"cebpf4jnsgd1na2vs0mg"},{"bike_id":"4f9bbc6b-a988-43f8-bc00-4d944c1473b5","system_id":"levelo_inurba_marseille","lat":43.29927,"lon":5.36389,"is_reserved":false,"is_disabled":false,"rental_uris":{"android":"levelo://app?vid=4f9bbc6b-a988-43f8-bc00-4d944c1473b5","ios":"levelo://app?vid=4f9bbc6b-a988-43f8-bc00-4d944c1473b5"},"vehicle_type_id":"4","last_reported":1731708553,"current_range_meters":30000,"station_id":"","pricing_plan_id":"cebpf4jnsgd1na2vs0mg"},{"bike_id":"adc7e3f5-638c-4131-8d22-3b1984a6e070","system_id":"levelo_inurba_marseille","lat":43.31374,"lon":5.38494,"is_reserved":false,"is_disabled":false,"rental_uris":{"android":"levelo://app?vid=adc7e3f5-638c-4131-8d22-3b1984a6e070","ios":"levelo://app?vid=adc7e3f5-638c-4131-8d22-3b1984a6e070"},"vehicle_type_id":"4","last_reported":1731708553,"current_range_meters":28000,"station_id":"ce4bgt92rcd13ifvqcf0","pricing_plan_id":"cebpf4jnsgd1na2vs0mg"},{"bike_id":"139d00fc-e67b-449a-9fd4-0db893561dc2","system_id":"levelo_inurba_marseille","lat":43.33756,"lon":5.37418,"is_reserved":false,"is_disabled":false,"rental_uris":{"android":"levelo://app?vid=139d00fc-e67b-449a-9fd4-0db893561dc2","ios":"levelo://app?vid=139d00fc-e67b-449a-9fd4-0db893561dc2"},"vehicle_type_id":"4","last_reported":1731708553,"current_range_meters":8000,"station_id":"","pricing_plan_id":"cebpf4jnsgd1na2vs0mg"},{"bike_id":"bdda4347-118f-4304-b506-09b4b5e15b39","system_id":"levelo_inurba_marseille","lat":43.33723,"lon":5.39186,"is_reserved":false,"is_disabled":false,"rental_uris":{"android":"levelo://app?vid=bdda4347-118f-4304-b506-09b4b5e15b39","ios":"levelo://app?vid=bdda4347-118f-4304-b506-09b4b5e15b39"},"vehicle_type_id":"4","last_reported":1731708553,"current_range_meters":18000,"station_id":"ce4bhr92rcd13ifvqhsg","pricing_plan_id":"cebpf4jnsgd1na2vs0mg"},{"bike_id":"33d11ece-d040-4857-8fd2-e02b3e60c387","system_id":"levelo_inurba_marseille","lat":43.24179,"lon":5.39725,"is_reserved":false,"is_disabled":false,"rental_uris":{"android":"levelo://app?vid=33d11ece-d040-4857-8fd2-e02b3e60c387","ios":"levelo://app?vid=33d11ece-d040-4857-8fd2-e02b3e60c387"},"vehicle_type_id":"4","last_reported":1731708553,"current_range_meters":18000,"station_id":"ce4bhn12rcd13ifvqgpg","pricing_plan_id":"cebpf4jnsgd1na2vs0mg"},{"bike_id":"91cbf1b3-79cd-43ab-82da-608da995dd35","system_id":"levelo_inurba_marseille","lat":43.27494,"lon":5.42446,"is_reserved":false,"is_disabled":false,"rental_uris":{"android":"levelo://app?vid=91cbf1b3-79cd-43ab-82da-608da995dd35","ios":"levelo://app?vid=91cbf1b3-79cd-43ab-82da-608da995dd35"},"vehicle_type_id":"4","last_reported":1731708553,"current_range_meters":12400,"station_id":"ce4bhn92rcd13ifvqgrg","pricing_plan_id":"cebpf4jnsgd1na2vs0mg"},{"bike_id":"5999d422-cf9c-4424-9c0b-206d30e6ae7c","system_id":"levelo_inurba_marseille","lat":43.29167,"lon":5.37171,"is_reserved":false,"is_disabled":false,"rental_uris":{"android":"levelo://app?vid=5999d422-cf9c-4424-9c0b-206d30e6ae7c","ios":"levelo://app?vid=5999d422-cf9c-4424-9c0b-206d30e6ae7c"},"vehicle_type_id":"4","last_reported":1731708553,"current_range_meters":26800,"station_id":"ce4bha92rcd13ifvqeh0","pricing_plan_id":"cebpf4jnsgd1na2vs0mg"},{"bike_id":"6028eb81-03df-4724-a08c-6ed1a2fef584","system_id":"levelo_inurba_marseille","lat":43.24179,"lon":5.39726,"is_reserved":false,"is_disabled":false,"rental_uris":{"android":"levelo://app?vid=6028eb81-03df-4724-a08c-6ed1a2fef584","ios":"levelo://app?vid=6028eb81-03df-4724-a08c-6ed1a2fef584"},"vehicle_type_id":"4","last_reported":1731708553,"current_range_meters":27600,"station_id":"ce4bhn12rcd13ifvqgpg","pricing_plan_id":"cebpf4jnsgd1na2vs0mg"},{"bike_id":"86a1b7b5-85f3-4283-96ed-19cf0731dd61","system_id":"levelo_inurba_marseille","lat":43.2781,"lon":5.40713,"is_reserved":false,"is_disabled":false,"rental_uris":{"android":"levelo://app?vid=86a1b7b5-85f3-4283-96ed-19cf0731dd61","ios":"levelo://app?vid=86a1b7b5-85f3-4283-96ed-19cf0731dd61"},"vehicle_type_id":"4","last_reported":1731708553,"current_range_meters":16000,"station_id":"ce4bhnh2rcd13ifvqgtg","pricing_plan_id":"cebpf4jnsgd1na2vs0mg"},{"bike_id":"5626e7a2-cc8c-4e27-8b85-6724b1d55d1e","system_id":"levelo_inurba_marseille","lat":43.33723,"lon":5.39181,"is_reserved":false,"is_disabled":false,"rental_uris":{"android":"levelo://app?vid=5626e7a2-cc8c-4e27-8b85-6724b1d55d1e","ios":"levelo://app?vid=5626e7a2-cc8c-4e27-8b85-6724b1d55d1e"},"vehicle_type_id":"4","last_reported":1731708553,"current_range_meters":38000,"station_id":"ce4bhr92rcd13ifvqhsg","pricing_plan_id":"cebpf4jnsgd1na2vs0mg"},{"bike_id":"3f2fc949-cd79-41e6-9dc2-dc2cedcf56d7","system_id":"levelo_inurba_marseille","lat":43.30793,"lon":5.37645,"is_reserved":false,"is_disabled":false,"rental_uris":{"android":"levelo://app?vid=3f2fc949-cd79-41e6-9dc2-dc2cedcf56d7","ios":"levelo://app?vid=3f2fc949-cd79-41e6-9dc2-dc2cedcf56d7"},"vehicle_type_id":"4","last_reported":1731708553,"current_range_meters":29600,"station_id":"ce4bgv92rcd13ifvqcq0","pricing_plan_id":"cebpf4jnsgd1na2vs0mg"},{"bike_id":"35b00de4-5f28-4b53-9382-5964f8727cf2","system_id":"levelo_inurba_marseille","lat":43.2799,"lon":5.41656,"is_reserved":false,"is_disabled":false,"rental_uris":{"android":"levelo://app?vid=35b00de4-5f28-4b53-9382-5964f8727cf2","ios":"levelo://app?vid=35b00de4-5f28-4b53-9382-5964f8727cf2"},"vehicle_type_id":"4","last_reported":1731708553,"current_range_meters":38800,"station_id":"ce4bho12rcd13ifvqh1g","pricing_plan_id":"cebpf4jnsgd1na2vs0mg"},{"bike_id":"b5ce9235-4ffb-4d40-a9ab-7ab7ce5a79f6","system_id":"levelo_inurba_marseille","lat":43.248,"lon":5.37453,"is_reserved":false,"is_disabled":false,"rental_uris":{"android":"levelo://app?vid=b5ce9235-4ffb-4d40-a9ab-7ab7ce5a79f6","ios":"levelo://app?vid=b5ce9235-4ffb-4d40-a9ab-7ab7ce5a79f6"},"vehicle_type_id":"4","last_reported":1731708553,"current_range_meters":38800,"station_id":"ce4bhgh2rcd13ifvqfb0","pricing_plan_id":"cebpf4jnsgd1na2vs0mg"},{"bike_id":"37ac7e5f-6c23-4d14-b0e5-2ab5bade4bca","system_id":"levelo_inurba_marseille","lat":43.27941,"lon":5.41041,"is_reserved":false,"is_disabled":false,"rental_uris":{"android":"levelo://app?vid=37ac7e5f-6c23-4d14-b0e5-2ab5bade4bca","ios":"levelo://app?vid=37ac7e5f-6c23-4d14-b0e5-2ab5bade4bca"},"vehicle_type_id":"4","last_reported":1731708553,"current_range_meters":8400,"station_id":"ce4bhnp2rcd13ifvqh0g","pricing_plan_id":"cebpf4jnsgd1na2vs0mg"},{"bike_id":"037d1d01-2d7d-4633-aa8f-e9a2f7158ca1","system_id":"levelo_inurba_marseille","lat":43.31694,"lon":5.4048,"is_reserved":false,"is_disabled":false,"rental_uris":{"android":"levelo://app?vid=037d1d01-2d7d-4633-aa8f-e9a2f7158ca1","ios":"levelo://app?vid=037d1d01-2d7d-4633-aa8f-e9a2f7158ca1"},"vehicle_type_id":"4","last_reported":1731708553,"current_range_meters":28000,"station_id":"ce4bh012rcd13ifvqd00","pricing_plan_id":"cebpf4jnsgd1na2vs0mg"},{"bike_id":"a2cc038b-1b07-490b-82f3-05e8553c734c","system_id":"levelo_inurba_marseille","lat":43.32287,"lon":5.38269,"is_reserved":false,"is_disabled":false,"rental_uris":{"android":"levelo://app?vid=a2cc038b-1b07-490b-82f3-05e8553c734c","ios":"levelo://app?vid=a2cc038b-1b07-490b-82f3-05e8553c734c"},"vehicle_type_id":"4","last_reported":1731708553,"current_range_meters":30000,"station_id":"ce4bhr12rcd13ifvqhqg","pricing_plan_id":"cebpf4jnsgd1na2vs0mg"},{"bike_id":"6d6992bf-ade3-4a22-a168-306dafdc4544","system_id":"levelo_inurba_marseille","lat":43.2417,"lon":5.36391,"is_reserved":false,"is_disabled":false,"rental_uris":{"android":"levelo://app?vid=6d6992bf-ade3-4a22-a168-306dafdc4544","ios":"levelo://app?vid=6d6992bf-ade3-4a22-a168-306dafdc4544"},"vehicle_type_id":"4","last_reported":1731708553,"current_range_meters":36800,"station_id":"cpo36qri1sfpv3e86is0","pricing_plan_id":"cebpf4jnsgd1na2vs0mg"},{"bike_id":"074c6971-4ae7-4906-8673-1607af29a7e1","system_id":"levelo_inurba_marseille","lat":43.25105,"lon":5.39494,"is_reserved":false,"is_disabled":false,"rental_uris":{"android":"levelo://app?vid=074c6971-4ae7-4906-8673-1607af29a7e1","ios":"levelo://app?vid=074c6971-4ae7-4906-8673-1607af29a7e1"},"vehicle_type_id":"4","last_reported":1731708553,"current_range_meters":36400,"station_id":"ce4bhm12rcd13ifvqgkg","pricing_plan_id":"cebpf4jnsgd1na2vs0mg"},{"bike_id":"d84838c9-e739-497f-a4d2-c54749e60be1","system_id":"levelo_inurba_marseille","lat":43.31886,"lon":5.4073,"is_reserved":false,"is_disabled":false,"rental_uris":{"android":"levelo://app?vid=d84838c9-e739-497f-a4d2-c54749e60be1","ios":"levelo://app?vid=d84838c9-e739-497f-a4d2-c54749e60be1"},"vehicle_type_id":"4","last_reported":1731708553,"current_range_meters":24400,"station_id":"ce4bhq12rcd13ifvqhig","pricing_plan_id":"cebpf4jnsgd1na2vs0mg"},{"bike_id":"eef5d37c-5bfd-4c76-81bd-46afa511c5a9","system_id":"levelo_inurba_marseille","lat":43.33024,"lon":5.39038,"is_reserved":false,"is_disabled":false,"rental_uris":{"android":"levelo://app?vid=eef5d37c-5bfd-4c76-81bd-46afa511c5a9","ios":"levelo://app?vid=eef5d37c-5bfd-4c76-81bd-46afa511c5a9"},"vehicle_type_id":"4","last_reported":1731708553,"current_range_meters":38800,"station_id":"ce4bhr92rcd13ifvqhrg","pricing_plan_id":"cebpf4jnsgd1na2vs0mg"},