{"last_updated":1719248804,"ttl":30,"version":"2.2","data":{"bikes":[{"bike_id":"efdbb7a4-587f-43c1-b5ea-215e5d630f3f","system_id":"levelo_inurba_marseille","lat":43.314811,"lon":5.373104,"is_reserved":false,"is_disabled":false,"rental_uris":{"android":"levelo://app?vid=efdbb7a4-587f-43c1-b5ea-215e5d630f3f","ios":"levelo://app?vid=efdbb7a4-587f-43c1-b5ea-215e5d630f3f"},"vehicle_type_id":"4","last_reported":1719248804,"current_range_meters":30000,"station_id":"ce4bgt12rcd13ifvqcd0","pricing_plan_id":"cebpf4jnsgd1na2vs0mg"},{"bike_id":"3e6229a9-daa1-4e8e-b7ec-60b28f97252f","system_id":"levelo_inurba_marseille","lat":43.31452,"lon":5.373706,"is_reserved":false,"is_disabled":false,"rental_uris":{"android":"levelo://app?vid=3e6229a9-daa1-4e8e-b7ec-60b28f97252f","ios":"levelo://app?vid=3e6229a9-daa1-4e8e-b7ec-60b28f97252f"},"vehicle_type_id":"4","last_reported":1719248804,"current_range_meters":2400,"station_id":"ce4bgt12rcd13ifvqcd0","pricing_plan_id":"cebpf4jnsgd1na2vs0mg"},{"bike_id":"77460ccb-960a-4153-8783-e0a172f31a95","system_id":"levelo_inurba_marseille","lat":43.314513,"lon":5.373723,"is_reserved":false,"is_disabled":false,"rental_uris":{"android":"levelo://app?vid=77460ccb-960a-4153-8783-e0a172f31a95","ios":"levelo://app?vid=77460ccb-960a-4153-8783-e0a172f31a95"},"vehicle_type_id":"4","last_reported":1719248804,"current_range_meters":6000,"station_id":"","pricing_plan_id":"cebpf4jnsgd1na2vs0mg"},{"bike_id":"01797a43-e594-40d7-83a2-8919ffcc8a6b","system_id":"levelo_inurba_marseille","lat":43.309039,"lon":5.371797,"is_reserved":false,"is_disabled":false,"rental_uris":{"android":"levelo://app?vid=01797a43-e594-40d7-83a2-8919ffcc8a6b","ios":"levelo://app?vid=01797a43-e594-40d7-83a2-8919ffcc8a6b"},"vehicle_type_id":"4","last_reported":1719248804,"current_range_meters":0,"station_id":"ce4bguh2rcd13ifvqckg","pricing_plan_id":"cebpf4jnsgd1na2vs0mg"},{"bike_id":"d74d496a-a267-4f58-b9d3-4f468f416945","system_id":"levelo_inurba_marseille","lat":43.30538,"lon":5.366587,"is_reserved":false,"is_disabled":false,"rental_uris":{"android":"levelo://app?vid=d74d496a-a267-4f58-b9d3-4f468f416945","ios":"levelo://app?vid=d74d496a-a267-4f58-b9d3-4f468f416945"},"vehicle_type_id":"4","last_reported":1719248804,"current_range_meters":20400,"station_id":"","pricing_plan_id":"cebpf4jnsgd1na2vs0mg"},{"bike_id":"ad815826-524e-4250-bddd-dda595fe65a8","system_id":"levelo_inurba_marseille","lat":43.30537,"lon":5.367345,"is_reserved":false,"is_disabled":false,"rental_uris":{"android":"levelo://app?vid=ad815826-524e-4250-bddd-dda595fe65a8","ios":"levelo://app?vid=ad815826-524e-4250-bddd-dda595fe65a8"},"vehicle_type_id":"4","last_reported":1719248804,"current_range_meters":17600,"station_id":"ce4bgrp2rcd13ifvqc9g","pricing_plan_id":"cebpf4jnsgd1na2vs0mg"},{"bike_id":"6c457a58-27ee-43d8-a195-9a20e64f4863","system_id":"levelo_inurba_marseille","lat":43.305368,"lon":5.367343,"is_reserved":false,"is_disabled":false,"rental_uris":{"android":"levelo://app?vid=6c457a58-27ee-43d8-a195-9a20e64f4863","ios":"levelo://app?vid=6c457a58-27ee-43d8-a195-9a20e64f4863"},"vehicle_type_id":"4","last_reported":1719248804,"current_range_meters":28400,"station_id":"ce4bgrp2rcd13ifvqc9g","pricing_plan_id":"cebpf4jnsgd1na2vs0mg"},{"bike_id":"4f9b4749-8f37-43ae-9df1-0ec7cc3b89e6","system_id":"levelo_inurba_marseille","lat":43.305276,"lon":5.365829,"is_reserved":false,"is_disabled":false,"rental_uris":{"android":"levelo://app?vid=4f9b4749-8f37-43ae-9df1-0ec7cc3b89e6","ios":"levelo://app?vid=4f9b4749-8f37-43ae-9df1-0ec7cc3b89e6"},"vehicle_type_id":"4","last_reported":1719248804,"current_range_meters":30000,"station_id":"ce4bgs12rcd13ifvqcag","pricing_plan_id":"cebpf4jnsgd1na2vs0mg"},{"bike_id":"4c88cd77-ab95-4a0d-ba21-67dfd5ab9e9f","system_id":"levelo_inurba_marseille","lat":43.311125,"lon":5.377624,"is_reserved":false,"is_disabled":false,"rental_uris":{"android":"levelo://app?vid=4c88cd77-ab95-4a0d-ba21-67dfd5ab9e9f","ios":"levelo://app?vid=4c88cd77-ab95-4a0d-ba21-67dfd5ab9e9f"},"vehicle_type_id":"4","last_reported":1719248804,"current_range_meters":8400,"station_id":"ce4bgt92rcd13ifvqcg0","pricing_plan_id":"cebpf4jnsgd1na2vs0mg"},{"bike_id":"cb81d902-842c-4104-90cb-875ddb39ee7f","system_id":"levelo_inurba_marseille","lat":43.304562,"lon":5.36542,"is_reserved":false,"is_disabled":false,"rental_uris":{"android":"levelo://app?vid=cb81d902-842c-4104-90cb-875ddb39ee7f","ios":"levelo://app?vid=cb81d902-842c-4104-90cb-875ddb39ee7f"},"vehicle_type_id":"4","last_reported":1719248804,"current_range_meters":19200,"station_id":"","pricing_plan_id":"cebpf4jnsgd1na2vs0mg"},{"bike_id":"cc80fa82-a507-48e1-9d55-0954656edefb","system_id":"levelo_inurba_marseille","lat":43.308012,"lon":5.381511,"is_reserved":false,"is_disabled":false,"rental_uris":{"android":"levelo://app?vid=cc80fa82-a507-48e1-9d55-0954656edefb","ios":"levelo://app?vid=cc80fa82-a507-48e1-9d55-0954656edefb"},"vehicle_type_id":"4","last_reported":1719248804,"current_range_meters":24400,"station_id":"ce4bgt12rcd13ifvqce0","pricing_plan_id":"cebpf4jnsgd1na2vs0mg"},{"bike_id":"3fc2aa49-a02e-4a58-97af-ded552ea745a","system_id":"levelo_inurba_marseille","lat":43.32475,"lon":5.36572,"is_reserved":false,"is_disabled":false,"rental_uris":{"android":"levelo://app?vid=3fc2aa49-a02e-4a58-97af-ded552ea745a","ios":"levelo://app?vid=3fc2aa49-a02e-4a58-97af-ded552ea745a"},"vehicle_type_id":"4","last_reported":1719248804,"current_range_meters":0,"station_id":"ce4bhs12rcd13ifvqhvg","pricing_plan_id":"cebpf4jnsgd1na2vs0mg"},{"bike_id":"99940d12-8816-4939-9d2f-6c5fc5e8f53a","system_id":"levelo_inurba_marseille","lat":43.324771,"lon":5.36557,"is_reserved":false,"is_disabled":false,"rental_uris":{"android":"levelo://app?vid=99940d12-8816-4939-9d2f-6c5fc5e8f53a","ios":"levelo://app?vid=99940d12-8816-4939-9d2f-6c5fc5e8f53a"},"vehicle_type_id":"4","last_reported":1719248804,"current_range_meters":21600,"station_id":"ce4bhs12rcd13ifvqhvg","pricing_plan_id":"cebpf4jnsgd1na2vs0mg"},{"bike_id":"9339bcc0-cc27-4575-a3ca-12d4af9ccd00","system_id":"levelo_inurba_marseille","lat":43.324771,"lon":5.36557,"is_reserved":false,"is_disabled":false,"rental_uris":{"android":"levelo://app?vid=9339bcc0-cc27-4575-a3ca-12d4af9ccd00","ios":"levelo://app?vid=9339bcc0-cc27-4575-a3ca-12d4af9ccd00"},"vehicle_type_id":"4","last_reported":1719248804,"current_range_meters":0,"station_id":"ce4bhs12rcd13ifvqhvg","pricing_plan_id":"cebpf4jnsgd1na2vs0mg"},{"bike_id":"8b845e27-1ae4-4b31-b82a-f25d9fdf885a","system_id":"levelo_inurba_marseille","lat":43.324771,"lon":5.36557,"is_reserved":false,"is_disabled":false,"rental_uris":{"android":"levelo://app?vid=8b845e27-1ae4-4b31-b82a-f25d9fdf885a","ios":"levelo://app?vid=8b845e27-1ae4-4b31-b82a-f25d9fdf885a"},"vehicle_type_id":"4","last_reported":1719248804,"current_range_meters":6800,"station_id":"ce4bhs12rcd13ifvqhvg","pricing_plan_id":"cebpf4jnsgd1na2vs0mg"},{"bike_id":"5e6e0d40-5d62-4272-add3-e62b17154e91","system_id":"levelo_inurba_marseille","lat":43.310804,"lon":5.38359,"is_reserved":false,"is_disabled":false,"rental_uris":{"android":"levelo://app?vid=5e6e0d40-5d62-4272-add3-e62b17154e91","ios":"levelo://app?vid=5e6e0d40-5d62-4272-add3-e62b17154e91"},"vehicle_type_id":"4","last_reported":1719248804,"current_range_meters":800,"station_id":"ce4bgv92rcd13ifvqcr0","pricing_plan_id":"cebpf4jnsgd1na2vs0mg"},{"bike_id":"5a51276f-a210-435e-bb99-5eddac07deb4","system_id":"levelo_inurba_marseille","lat":43.302784,"lon":5.377158,"is_reserved":false,"is_disabled":false,"rental_uris":{"android":"levelo://app?vid=5a51276f-a210-435e-bb99-5eddac07deb4","ios":"levelo://app?vid=5a51276f-a210-435e-bb99-5eddac07deb4"},"vehicle_type_id":"4","last_reported":1719248804,"current_range_meters":1600,"station_id":"ce4bguh2rcd13ifvqcj0","pricing_plan_id":"cebpf4jnsgd1na2vs0mg"},{"bike_id":"16b94869-bf82-4232-90d3-4ec3fe35ba7d","system_id":"levelo_inurba_marseille","lat":43.30143,"lon":5.37413,"is_reserved":false,"is_disabled":false,"rental_uris":{"android":"levelo://app?vid=16b94869-bf82-4232-90d3-4ec3fe35ba7d","ios":"levelo://app?vid=16b94869-bf82-4232-90d3-4ec3fe35ba7d"},"vehicle_type_id":"4","last_reported":1719248804,"current_range_meters":0,"station_id":"ce4bgs92rcd13ifvqcc0","pricing_plan_id":"cebpf4jnsgd1na2vs0mg"},{"bike_id":"18c96b10-a05d-44c5-b6aa-1b0545c32153","system_id":"levelo_inurba_marseille","lat":43.299724,"lon":5.371829,"is_reserved":false,"is_disabled":false,"rental_uris":{"android":"levelo://app?vid=18c96b10-a05d-44c5-b6aa-1b0545c32153","ios":"levelo://app?vid=18c96b10-a05d-44c5-b6aa-1b0545c32153"},"vehicle_type_id":"4","last_reported":1719248804,"current_range_meters":0,"station_id":"ce4bgr92rcd13ifvqc7g","pricing_plan_id":"cebpf4jnsgd1na2vs0mg"},{"bike_id":"abde94b4-1d1c-4051-b8e8-6c04a177b207","system_id":"levelo_inurba_marseille","lat":43.299222,"lon":5.365554,"is_reserved":false,"is_disabled":false,"rental_uris":{"android":"levelo://app?vid=abde94b4-1d1c-4051-b8e8-6c04a177b207","ios":"levelo://app?vid=abde94b4-1d1c-4051-b8e8-6c04a177b207"},"vehicle_type_id":"4","last_reported":1719248804,"current_range_meters":0,"station_id":"ce4bgm92rcd13ifvqbr0","pricing_plan_id":"cebpf4jnsgd1na2vs0mg"},{"bike_id":"4f4e5d87-3471-4284-94d7-ccb2cb8520ce","system_id":"levelo_inurba_marseille","lat":43.29976,"lon":5.37593,"is_reserved":false,"is_disabled":false,"rental_uris":{"android":"levelo://app?vid=4f4e5d87-3471-4284-94d7-ccb2cb8520ce","ios":"levelo://app?vid=4f4e5d87-3471-4284-94d7-ccb2cb8520ce"},"vehicle_type_id":"4","last_reported":1719248804,"current_range_meters":6800,"station_id":"","pricing_plan_id":"cebpf4jnsgd1na2vs0mg"},{"bike_id":"4669107f-64f6-426e-be7c-f4dac302b821","system_id":"levelo_inurba_marseille","lat":43.29848,"lon":5.36276,"is_reserved":false,"is_disabled":false,"rental_uris":{"android":"levelo://app?vid=4669107f-64f6-426e-be7c-f4dac302b821","ios":"levelo://app?vid=4669107f-64f6-426e-be7c-f4dac302b821"},"vehicle_type_id":"4","last_reported":1719248804,"current_range_meters":26000,"station_id":"","pricing_plan_id":"cebpf4jnsgd1na2vs0mg"},{"bike_id":"bc9502cf-cb24-4982-98a1-d036e3a2dfc4","system_id":"levelo_inurba_marseille","lat":43.298433,"lon":5.362774,"is_reserved":false,"is_disabled":false,"rental_uris":{"android":"levelo://app?vid=bc9502cf-cb24-4982-98a1-d036e3a2dfc4","ios":"levelo://app?vid=bc9502cf-cb24-4982-98a1-d036e3a2dfc4"},"vehicle_type_id":"4","last_reported":1719248804,"current_range_meters":0,"station_id":"ce4bgpp2rcd13ifvqc3g","pricing_plan_id":"cebpf4jnsgd1na2vs0mg"},{"bike_id":"7271b616-3484-4d45-a255-21d86c5c56fe","system_id":"levelo_inurba_marseille","lat":43.311722,"lon":5.387247,"is_reserved":false,"is_disabled":false,"rental_uris":{"android":"levelo://app?vid=7271b616-3484-4d45-a255-21d86c5c56fe","ios":"levelo://app?vid=7271b616-3484-4d45-a255-21d86c5c56fe"},"vehicle_type_id":"4","last_reported":1719248804,"current_range_meters":0,"station_id":"ce4bgv12rcd13ifvqcp0","pricing_plan_id":"cebpf4jnsgd1na2vs0mg"},{"bike_id":"4b78b0b8-d778-4c8e-8335-4a8971a23903","system_id":"levelo_inurba_marseille","lat":43.29883,"lon":5.37408,"is_reserved":false,"is_disabled":false,"rental_uris":{"android":"levelo://app?vid=4b78b0b8-d778-4c8e-8335-4a8971a23903","ios":"levelo://app?vid=4b78b0b8-d778-4c8e-8335-4a8971a23903"},"vehicle_type_id":"4","last_reported":1719248804,"current_range_meters":30800,"station_id":"","pricing_plan_id":"cebpf4jnsgd1na2vs0mg"},{"bike_id":"01af2536-e2b0-4b71-98bc-087c0bf3c3e0","system_id":"levelo_inurba_marseille","lat":43.32296,"lon":5.3826,"is_reserved":false,"is_disabled":false,"rental_uris":{"android":"levelo://app?vid=01af2536-e2b0-4b71-98bc-087c0bf3c3e0","ios":"levelo://app?vid=01af2536-e2b0-4b71-98bc-087c0bf3c3e0"},"vehicle_type_id":"4","last_reported":1719248804,"current_range_meters":26400,"station_id":"","pricing_plan_id":"cebpf4jnsgd1na2vs0mg"},{"bike_id":"cdd80cad-798d-4d47-a526-7ae149bfe247","system_id":"levelo_inurba_marseille","lat":43.322872,"lon":5.382756,"is_reserved":false,"is_disabled":false,"rental_uris":{"android":"levelo://app?vid=cdd80cad-798d-4d47-a526-7ae149bfe247","ios":"levelo://app?vid=cdd80cad-798d-4d47-a526-7ae149bfe247"},"vehicle_type_id":"4","last_reported":1719248804,"current_range_meters":19200,"station_id":"ce4bhr12rcd13ifvqhqg","pricing_plan_id":"cebpf4jnsgd1na2vs0mg"},{"bike_id":"de15eb35-9a72-4513-b9b1-9d70e26e4f8e","system_id":"levelo_inurba_marseille","lat":43.322872,"lon":5.382756,"is_reserved":false,"is_disabled":false,"rental_uris":{"android":"levelo://app?vid=de15eb35-9a72-4513-b9b1-9d70e26e4f8e","ios":"levelo://app?vid=de15eb35-9a72-4513-b9b1-9d70e26e4f8e"},"vehicle_type_id":"4","last_reported":1719248804,"current_range_meters":31200,"station_id":"ce4bhr12rcd13ifvqhqg","pricing_plan_id":"cebpf4jnsgd1na2vs0mg"},{"bike_id":"f47fe1ce-0f3f-4a44-88a9-37cfd8bd9efa","system_id":"levelo_inurba_marseille","lat":43.29715,"lon":5.36591,"is_reserved":false,"is_disabled":false,"rental_uris":{"android":"levelo://app?vid=f47fe1ce-0f3f-4a44-88a9-37cfd8bd9efa","ios":"levelo://app?vid=f47fe1ce-0f3f-4a44-88a9-37cfd8bd9efa"},"vehicle_type_id":"4","last_reported":1719248804,"current_range_meters":0,"station_id":"ce4bgn12rcd13ifvqbt0","pricing_plan_id":"cebpf4jnsgd1na2vs0mg"},{"bike_id":"8a3dee68-befb-495c-8c53-779d24084da1","system_id":"levelo_inurba_marseille","lat":43.29704,"lon":5.36549,"is_reserved":false,"is_disabled":false,"rental_uris":{"android":"levelo://app?vid=8a3dee68-befb-495c-8c53-779d24084da1","ios":"levelo://app?vid=8a3dee68-befb-495c-8c53-779d24084da1"},"vehicle_type_id":"4","last_reported":1719248804,"current_range_meters":31200,"station_id":"ce4bgn12rcd13ifvqbt0","pricing_plan_id":"cebpf4jnsgd1na2vs0mg"},{"bike_id":"69e14f65-d537-4382-8b23-3b61bab80492","system_id":"levelo_inurba_marseille","lat":43.29799,"lon":5.38084,"is_reserved":false,"is_disabled":false,"rental_uris":{"android":"levelo://app?vid=69e14f65-d537-4382-8b23-3b61bab80492","ios":"levelo://app?vid=69e14f65-d537-4382-8b23-3b61bab80492"},"vehicle_type_id":"4","last_reported":1719248804,"current_range_meters":0,"station_id":"ce4bgip2rcd13ifvqbb0","pricing_plan_id":"cebpf4jnsgd1na2vs0mg"},{"bike_id":"e6af12d2-ecfd-49d1-966c-fce91fa91afc","system_id":"levelo_inurba_marseille","lat":43.298037,"lon":5.381066,"is_reserved":false,"is_disabled":false,"rental_uris":{"android":"levelo://app?vid=e6af12d2-ecfd-49d1-966c-fce91fa91afc","ios":"levelo://app?vid=e6af12d2-ecfd-49d1-966c-fce91fa91afc"},"vehicle_type_id":"4","last_reported":1719248804,"current_range_meters":12000,"station_id":"ce4bgip2rcd13ifvqbb0","pricing_plan_id":"cebpf4jnsgd1na2vs0mg"},{"bike_id":"a8d7d2fe-2c85-467d-a308-3aff4e3d7838","system_id":"levelo_inurba_marseille","lat":43.2957,"lon":5.37521,"is_reserved":false,"is_disabled":false,"rental_uris":{"android":"levelo://app?vid=a8d7d2fe-2c85-467d-a308-3aff4e3d7838","ios":"levelo://app?vid=a8d7d2fe-2c85-467d-a308-3aff4e3d7838"},"vehicle_type_id":"4","last_reported":1719248804,"current_range_meters":0,"station_id":"ce4bgh92rcd13ifvqb50","pricing_plan_id":"cebpf4jnsgd1na2vs0mg"},{"bike_id":"c6c7e945-79e0-4f56-a2ec-e29a67203fea","system_id":"levelo_inurba_marseille","lat":43.30436,"lon":5.38896,"is_reserved":false,"is_disabled":false,"rental_uris":{"android":"levelo://app?vid=c6c7e945-79e0-4f56-a2ec-e29a67203fea","ios":"levelo://app?vid=c6c7e945-79e0-4f56-a2ec-e29a67203fea"},"vehicle_type_id":"4","last_reported":1719248804,"current_range_meters":6000,"station_id":"ce4bgk12rcd13ifvqbi0","pricing_plan_id":"cebpf4jnsgd1na2vs0mg"},{"bike_id":"7d3fbd33-5358-4c3c-a5df-7f731857a84e","system_id":"levelo_inurba_marseille","lat":43.29604,"lon":5.37686,"is_reserved":false,"is_disabled":false,"rental_uris":{"android":"levelo://app?vid=7d3fbd33-5358-4c3c-a5df-7f731857a84e","ios":"levelo://app?vid=7d3fbd33-5358-4c3c-a5df-7f731857a84e"},"vehicle_type_id":"4","last_reported":1719248804,"current_range_meters":6800,"station_id":"","pricing_plan_id":"cebpf4jnsgd1na2vs0mg"},{"bike_id":"7f5953a4-0614-459b-b7f4-9712740febef","system_id":"levelo_inurba_marseille","lat":43.299826,"lon":5.384713,"is_reserved":false,"is_disabled":false,"rental_uris":{"android":"levelo://app?vid=7f5953a4-0614-459b-b7f4-9712740febef","ios":"levelo://app?vid=7f5953a4-0614-459b-b7f4-9712740febef"},"vehicle_type_id":"4","last_reported":1719248804,"current_range_meters":14800,"station_id":"ce4bgj92rcd13ifvqbd0","pricing_plan_id":"cebpf4jnsgd1na2vs0mg"},{"bike_id":"144ab0db-c8c7-41a2-a0a6-42395d4bddec","system_id":"levelo_inurba_marseille","lat":43.299707,"lon":5.384859,"is_reserved":false,"is_disabled":false,"rental_uris":{"android":"levelo://app?vid=144ab0db-c8c7-41a2-a0a6-42395d4bddec","ios":"levelo://app?vid=144ab0db-c8c7-41a2-a0a6-42395d4bddec"},"vehicle_type_id":"4","last_reported":1719248804,"current_range_meters":14000,"station_id":"ce4bgj92rcd13ifvqbd0","pricing_plan_id":"cebpf4jnsgd1na2vs0mg"},{"bike_id":"5520dbd2-69cc-4c71-bbe5-82f86b24bfc5","system_id":"levelo_inurba_marseille","lat":43.299724,"lon":5.384848,"is_reserved":false,"is_disabled":false,"rental_uris":{"android":"levelo://app?vid=5520dbd2-69cc-4c71-bbe5-82f86b24bfc5","ios":"levelo://app?vid=5520dbd2-69cc-4c71-bbe5-82f86b24bfc5"},"vehicle_type_id":"4","last_reported":1719248804,"current_range_meters":30000,"station_id":"ce4bgj92rcd13ifvqbd0","pricing_plan_id":"cebpf4jnsgd1na2vs0mg"},{"bike_id":"69be56d7-0cdc-4f30-8f97-4fe4fbb44898","system_id":"levelo_inurba_marseille","lat":43.29976,"lon":5.38486,"is_reserved":false,"is_disabled":false,"rental_uris":{"android":"levelo://app?vid=69be56d7-0cdc-4f30-8f97-4fe4fbb44898","ios":"levelo://app?vid=69be56d7-0cdc-4f30-8f97-4fe4fbb44898"},"vehicle_type_id":"4","last_reported":1719248804,"current_range_meters":29600,"station_id":"ce4bgj92rcd13ifvqbd0","pricing_plan_id":"cebpf4jnsgd1na2vs0mg"},{"bike_id":"ad01732b-ff30-49a5-8a38-f0e068976df4","system_id":"levelo_inurba_marseille","lat":43.29973,"lon":5.38484,"is_reserved":false,"is_disabled":false,"rental_uris":{"android":"levelo://app?vid=ad01732b-ff30-49a5-8a38-f0e068976df4","ios":"levelo://app?vid=ad01732b-ff30-49a5-8a38-f0e068976df4"},"vehicle_type_id":"4","last_reported":1719248804,"current_range_meters":8000,"station_id":"ce4bgj92rcd13ifvqbd0","pricing_plan_id":"cebpf4jnsgd1na2vs0mg"},{"bike_id":"16184ba9-898d-4858-a522-abb59289b843","system_id":"levelo_inurba_marseille","lat":43.293009,"lon":5.374584,"is_reserved":false,"is_disabled":false,"rental_uris":{"android":"levelo://app?vid=16184ba9-898d-4858-a522-abb59289b843","ios":"levelo://app?vid=16184ba9-898d-4858-a522-abb59289b843"},"vehicle_type_id":"4","last_reported":1719248804,"current_range_meters":26800,"station_id":"ce4bgi12rcd13ifvqb70","pricing_plan_id":"cebpf4jnsgd1na2vs0mg"},{"bike_id":"6206b1c5-8db0-4475-b1a7-1f186bf8e324","system_id":"levelo_inurba_marseille","lat":43.29971,"lon":5.38491,"is_reserved":false,"is_disabled":false,"rental_uris":{"android":"levelo://app?vid=6206b1c5-8db0-4475-b1a7-1f186bf8e324","ios":"levelo://app?vid=6206b1c5-8db0-4475-b1a7-1f186bf8e324"},"vehicle_type_id":"4","last_reported":1719248804,"current_range_meters":24400,"station_id":"ce4bgj92rcd13ifvqbd0","pricing_plan_id":"cebpf4jnsgd1na2vs0mg"},{"bike_id":"a328484f-71dd-4aeb-b3e2-baff960f6227","system_id":"levelo_inurba_marseille","lat":43.29969,"lon":5.38495,"is_reserved":false,"is_disabled":false,"rental_uris":{"android":"levelo://app?vid=a328484f-71dd-4aeb-b3e2-baff960f6227","ios":"levelo://app?vid=a328484f-71dd-4aeb-b3e2-baff960f6227"},"vehicle_type_id":"4","last_reported":1719248804,"current_range_meters":26800,"station_id":"ce4bgj92rcd13ifvqbd0","pricing_plan_id":"cebpf4jnsgd1na2vs0mg"},{"bike_id":"252a2875-305e-4b05-808a-8fe1f4f149f5","system_id":"levelo_inurba_marseille","lat":43.299717,"lon":5.384845,"is_reserved":false,"is_disabled":false,"rental_uris":{"android":"levelo://app?vid=252a2875-305e-4b05-808a-8fe1f4f149f5","ios":"levelo://app?vid=252a2875-305e-4b05-808a-8fe1f4f149f5"},"vehicle_type_id":"4","last_reported":1719248804,"current_range_meters":31200,"station_id":"ce4bgj92rcd13ifvqbd0","pricing_plan_id":"cebpf4jnsgd1na2vs0mg"},{"bike_id":"f677470e-219b-4de0-acd0-6fff2a9ea935","system_id":"levelo_inurba_marseille","lat":43.2938,"lon":5.3625,"is_reserved":false,"is_disabled":false,"rental_uris":{"android":"levelo://app?vid=f677470e-219b-4de0-acd0-6fff2a9ea935","ios":"levelo://app?vid=f677470e-219b-4de0-acd0-6fff2a9ea935"},"vehicle_type_id":"4","last_reported":1719248804,"current_range_meters":20800,"station_id":"","pricing_plan_id":"cebpf4jnsgd1na2vs0mg"},{"bike_id":"39dc2246-5f54-4747-a365-e85f46841779","system_id":"levelo_inurba_marseille","lat":43.293009,"lon":5.374584,"is_reserved":false,"is_disabled":false,"rental_uris":{"android":"levelo://app?vid=39dc2246-5f54-4747-a365-e85f46841779","ios":"levelo://app?vid=39dc2246-5f54-4747-a365-e85f46841779"},"vehicle_type_id":"4","last_reported":1719248804,"current_range_meters":14800,"station_id":"ce4bgi12rcd13ifvqb70","pricing_plan_id":"cebpf4jnsgd1na2vs0mg"},{"bike_id":"ada70157-3115-4a1e-9663-e4921c12b1ac","system_id":"levelo_inurba_marseille","lat":43.293073,"lon":5.371642,"is_reserved":false,"is_disabled":false,"rental_uris":{"android":"levelo://app?vid=ada70157-3115-4a1e-9663-e4921c12b1ac","ios":"levelo://app?vid=ada70157-3115-4a1e-9663-e4921c12b1ac"},"vehicle_type_id":"4","last_reported":1719248804,"current_range_meters":24000,"station_id":"ce4bgh92rcd13ifvqb40","pricing_plan_id":"cebpf4jnsgd1na2vs0mg"},{"bike_id":"cd4142b0-d675-4cf8-8fca-358484835f32","system_id":"levelo_inurba_marseille","lat":43.293249,"lon":5.371578,"is_reserved":false,"is_disabled":false,"rental_uris":{"android":"levelo://app?vid=cd4142b0-d675-4cf8-8fca-358484835f32","ios":"levelo://app?vid=cd4142b0-d675-4cf8-8fca-358484835f32"},"vehicle_type_id":"4","last_reported":1719248804,"current_range_meters":0,"station_id":"ce4bgh92rcd13ifvqb40","pricing_plan_id":"cebpf4jnsgd1na2vs0mg"},{"bike_id":"894840bb-0776-4a44-bb0f-8f354ab4c7a7","system_id":"levelo_inurba_marseille","lat":43.292749,"lon":5.368402,"is_reserved":false,"is_disabled":false,"rental_uris":{"android":"levelo://app?vid=894840bb-0776-4a44-bb0f-8f354ab4c7a7","ios":"levelo://app?vid=894840bb-0776-4a44-bb0f-8f354ab4c7a7"},"vehicle_type_id":"4","last_reported":1719248804,"current_range_meters":10400,"station_id":"ce4bhbp2rcd13ifvqesg","pricing_plan_id":"cebpf4jnsgd1na2vs0mg"},{"bike_id":"b59c443a-923a-4e07-bb07-03110162a98b","system_id":"levelo_inurba_marseille","lat":43.292749,"lon":5.368398,"is_reserved":false,"is_disabled":false,"rental_uris":{"android":"levelo://app?vid=b59c443a-923a-4e07-bb07-03110162a98b","ios":"levelo://app?vid=b59c443a-923a-4e07-bb07-03110162a98b"},"vehicle_type_id":"4","last_reported":1719248804,"current_range_meters":25200,"station_id":"ce4bhbp2rcd13ifvqesg","pricing_plan_id":"cebpf4jnsgd1na2vs0mg"},{"bike_id":"b80e1c76-7914-433a-81e6-1fe7838d8249","system_id":"levelo_inurba_marseille","lat":43.293038,"lon":5.371746,"is_reserved":false,"is_disabled":false,"rental_uris":{"android":"levelo://app?vid=b80e1c76-7914-433a-81e6-1fe7838d8249","ios":"levelo://app?vid=b80e1c76-7914-433a-81e6-1fe7838d8249"},"vehicle_type_id":"4","last_reported":1719248804,"current_range_meters":31200,"station_id":"ce4bgh92rcd13ifvqb40","pricing_plan_id":"cebpf4jnsgd1na2vs0mg"},{"bike_id":"46588831-fe83-47a6-9684-6c3fac5beecc","system_id":"levelo_inurba_marseille","lat":43.29272,"lon":5.36839,"is_reserved":false,"is_disabled":false,"rental_uris":{"android":"levelo://app?vid=46588831-fe83-47a6-9684-6c3fac5beecc","ios":"levelo://app?vid=46588831-fe83-47a6-9684-6c3fac5beecc"},"vehicle_type_id":"4","last_reported":1719248804,"current_range_meters":17200,"station_id":"ce4bhbp2rcd13ifvqesg","pricing_plan_id":"cebpf4jnsgd1na2vs0mg"},{"bike_id":"f7832ec7-5e0d-4fe6-8286-0800848867d5","system_id":"levelo_inurba_marseille","lat":43.292749,"lon":5.368402,"is_reserved":false,"is_disabled":false,"rental_uris":{"android":"levelo://app?vid=f7832ec7-5e0d-4fe6-8286-0800848867d5","ios":"levelo://app?vid=f7832ec7-5e0d-4fe6-8286-0800848867d5"},"vehicle_type_id":"4","last_reported":1719248804,"current_range_meters":0,"station_id":"ce4bhbp2rcd13ifvqesg","pricing_plan_id":"cebpf4jnsgd1na2vs0mg"},{"bike_id":"d3439a81-b45a-4f9b-94bf-26c6d432b110","system_id":"levelo_inurba_marseille","lat":43.294717,"lon":5.38038,"is_reserved":false,"is_disabled":false,"rental_uris":{"android":"levelo://app?vid=d3439a81-b45a-4f9b-94bf-26c6d432b110","ios":"levelo://app?vid=d3439a81-b45a-4f9b-94bf-26c6d432b110"},"vehicle_type_id":"4","last_reported":1719248804,"current_range_meters":400,"station_id":"","pricing_plan_id":"cebpf4jnsgd1na2vs0mg"},{"bike_id":"439311db-0c0e-446f-bfaf-7ced2baf2a8b","system_id":"levelo_inurba_marseille","lat":43.302992,"lon":5.392136,"is_reserved":false,"is_disabled":false,"rental_uris":{"android":"levelo://app?vid=439311db-0c0e-446f-bfaf-7ced2baf2a8b","ios":"levelo://app?vid=439311db-0c0e-446f-bfaf-7ced2baf2a8b"},"vehicle_type_id":"4","last_reported":1719248804,"current_range_meters":12400,"station_id":"ce4bgkh2rcd13ifvqbk0","pricing_plan_id":"cebpf4jnsgd1na2vs0mg"},{"bike_id":"9c10cb0c-c63b-4ac9-9e0d-b6dcf76e205b","system_id":"levelo_inurba_marseille","lat":43.302992,"lon":5.392136,"is_reserved":false,"is_disabled":false,"rental_uris":{"android":"levelo://app?vid=9c10cb0c-c63b-4ac9-9e0d-b6dcf76e205b","ios":"levelo://app?vid=9c10cb0c-c63b-4ac9-9e0d-b6dcf76e205b"},"vehicle_type_id":"4","last_reported":1719248804,"current_range_meters":3600,"station_id":"ce4bgkh2rcd13ifvqbk0","pricing_plan_id":"cebpf4jnsgd1na2vs0mg"},{"bike_id":"2d0a5b45-3e74-4831-b27e-8cfe59ce416f","system_id":"levelo_inurba_marseille","lat":43.30085,"lon":5.390856,"is_reserved":false,"is_disabled":false,"rental_uris":{"android":"levelo://app?vid=2d0a5b45-3e74-4831-b27e-8cfe59ce416f","ios":"levelo://app?vid=2d0a5b45-3e74-4831-b27e-8cfe59ce416f"},"vehicle_type_id":"4","last_reported":1719248804,"current_range_meters":7200,"station_id":"ce4bh192rcd13ifvqdb0","pricing_plan_id":"cebpf4jnsgd1na2vs0mg"},{"bike_id":"d0f1eb6b-b113-48f8-9614-78eabb9d6ca9","system_id":"levelo_inurba_marseille","lat":43.292311,"lon":5.360731,"is_reserved":false,"is_disabled":false,"rental_uris":{"android":"levelo://app?vid=d0f1eb6b-b113-48f8-9614-78eabb9d6ca9","ios":"levelo://app?vid=d0f1eb6b-b113-48f8-9614-78eabb9d6ca9"},"vehicle_type_id":"4","last_reported":1719248804,"current_range_meters":5600,"station_id":"ce4bhbh2rcd13ifvqeqg","pricing_plan_id":"cebpf4jnsgd1na2vs0mg"},{"bike_id":"19a0a709-15ed-452d-86a2-4803ec2caf82","system_id":"levelo_inurba_marseille","lat":43.292311,"lon":5.360731,"is_reserved":false,"is_disabled":false,"rental_uris":{"android":"levelo://app?vid=19a0a709-15ed-452d-86a2-4803ec2caf82","ios":"levelo://app?vid=19a0a709-15ed-452d-86a2-4803ec2caf82"},"vehicle_type_id":"4","last_reported":1719248804,"current_range_meters":2000,"station_id":"ce4bhbh2rcd13ifvqeqg","pricing_plan_id":"cebpf4jnsgd1na2vs0mg"},{"bike_id":"74fbef7b-73ea-4459-8396-a38a45ee4801","system_id":"levelo_inurba_marseille","lat":43.30085,"lon":5.390856,"is_reserved":false,"is_disabled":false,"rental_uris":{"android":"levelo://app?vid=74fbef7b-73ea-4459-8396-a38a45ee4801","ios":"levelo://app?vid=74fbef7b-73ea-4459-8396-a38a45ee4801"},"vehicle_type_id":"4","last_reported":1719248804,"current_range_meters":14800,"station_id":"ce4bh192rcd13ifvqdb0","pricing_plan_id":"cebpf4jnsgd1na2vs0mg"},{"bike_id":"b512c7a3-d486-4341-a63c-45e4c60ad3b2","system_id":"levelo_inurba_marseille","lat":43.292311,"lon":5.360731,"is_reserved":false,"is_disabled":false,"rental_uris":{"android":"levelo://app?vid=b512c7a3-d486-4341-a63c-45e4c60ad3b2","ios":"levelo://app?vid=b512c7a3-d486-4341-a63c-45e4c60ad3b2"},"vehicle_type_id":"4","last_reported":1719248804,"current_range_meters":10000,"station_id":"ce4bhbh2rcd13ifvqeqg","pricing_plan_id":"cebpf4jnsgd1na2vs0mg"},{"bike_id":"a19264a4-c629-4cbf-b45a-a6b2500c2da2","system_id":"levelo_inurba_marseille","lat":43.299043,"lon":5.388864,"is_reserved":false,"is_disabled":false,"rental_uris":{"android":"levelo://app?vid=a19264a4-c629-4cbf-b45a-a6b2500c2da2","ios":"levelo://app?vid=a19264a4-c629-4cbf-b45a-a6b2500c2da2"},"vehicle_type_id":"4","last_reported":1719248804,"current_range_meters":24400,"station_id":"","pricing_plan_id":"cebpf4jnsgd1na2vs0mg"},{"bike_id":"6cb2b9dc-80d7-4854-b95b-d256a5645ce7","system_id":"levelo_inurba_marseille","lat":43.30085,"lon":5.390856,"is_reserved":false,"is_disabled":false,"rental_uris":{"android":"levelo://app?vid=6cb2b9dc-80d7-4854-b95b-d256a5645ce7","ios":"levelo://app?vid=6cb2b9dc-80d7-4854-b95b-d256a5645ce7"},"vehicle_type_id":"4","last_reported":1719248804,"current_range_meters":15600,"station_id":"ce4bh192rcd13ifvqdb0","pricing_plan_id":"cebpf4jnsgd1na2vs0mg"},{"bike_id":"8f55a82f-0013-47d9-b38a-dd1d220655ad","system_id":"levelo_inurba_marseille","lat":43.30085,"lon":5.390856,"is_reserved":false,"is_disabled":false,"rental_uris":{"android":"levelo://app?vid=8f55a82f-0013-47d9-b38a-dd1d220655ad","ios":"levelo://app?vid=8f55a82f-0013-47d9-b38a-dd1d220655ad"},"vehicle_type_id":"4","last_reported":1719248804,"current_range_meters":12400,"station_id":"ce4bh192rcd13ifvqdb0","pricing_plan_id":"cebpf4jnsgd1na2vs0mg"},{"bike_id":"f3a9c250-1993-4eee-8888-74f76c068e21","system_id":"levelo_inurba_marseille","lat":43.30085,"lon":5.390856,"is_reserved":false,"is_disabled":false,"rental_uris":{"android":"levelo://app?vid=f3a9c250-1993-4eee-8888-74f76c068e21","ios":"levelo://app?vid=f3a9c250-1993-4eee-8888-74f76c068e21"},"vehicle_type_id":"4","last_reported":1719248804,"current_range_meters":26000,"station_id":"ce4bh192rcd13ifvqdb0","pricing_plan_id":"cebpf4jnsgd1na2vs0mg"},{"bike_id":"a6896062-d52d-4236-9eb7-ca91d7f68542","system_id":"levelo_inurba_marseille","lat":43.298764,"lon":5.388973,"is_reserved":false,"is_disabled":false,"rental_uris":{"android":"levelo://app?vid=a6896062-d52d-4236-9eb7-ca91d7f68542","ios":"levelo://app?vid=a6896062-d52d-4236-9eb7-ca91d7f68542"},"vehicle_type_id":"4","last_reported":1719248804,"current_range_meters":6400,"station_id":"ce4bh392rcd13ifvqdl0","pricing_plan_id":"cebpf4jnsgd1na2vs0mg"},{"bike_id":"21b2ead7-e7c4-4497-a955-092e8b7b19eb","system_id":"levelo_inurba_marseille","lat":43.30085,"lon":5.390856,"is_reserved":false,"is_disabled":false,"rental_uris":{"android":"levelo://app?vid=21b2ead7-e7c4-4497-a955-092e8b7b19eb","ios":"levelo://app?vid=21b2ead7-e7c4-4497-a955-092e8b7b19eb"},"vehicle_type_id":"4","last_reported":1719248804,"current_range_meters":4000,"station_id":"ce4bh192rcd13ifvqdb0","pricing_plan_id":"cebpf4jnsgd1na2vs0mg"},{"bike_id":"9034d8d0-4f7c-4aa1-bf85-5d54f5137cb7","system_id":"levelo_inurba_marseille","lat":43.30085,"lon":5.390856,"is_reserved":false,"is_disabled":false,"rental_uris":{"android":"levelo://app?vid=9034d8d0-4f7c-4aa1-bf85-5d54f5137cb7","ios":"levelo://app?vid=9034d8d0-4f7c-4aa1-bf85-5d54f5137cb7"},"vehicle_type_id":"4","last_reported":1719248804,"current_range_meters":800,"station_id":"ce4bh192rcd13ifvqdb0","pricing_plan_id":"cebpf4jnsgd1na2vs0mg"},{"bike_id":"9c5315fb-7f7a-49ac-8270-bb360d188009","system_id":"levelo_inurba_marseille","lat":43.298764,"lon":5.388973,"is_reserved":false,"is_disabled":false,"rental_uris":{"android":"levelo://app?vid=9c5315fb-7f7a-49ac-8270-bb360d188009","ios":"levelo://app?vid=9c5315fb-7f7a-49ac-8270-bb360d188009"},"vehicle_type_id":"4","last_reported":1719248804,"current_range_meters":13200,"station_id":"ce4bh392rcd13ifvqdl0","pricing_plan_id":"cebpf4jnsgd1na2vs0mg"},{"bike_id":"96bc76c2-4bf9-4890-86d8-b0d2d1903346","system_id":"levelo_inurba_marseille","lat":43.291671,"lon":5.371575,"is_reserved":false,"is_disabled":false,"rental_uris":{"android":"levelo://app?vid=96bc76c2-4bf9-4890-86d8-b0d2d1903346","ios":"levelo://app?vid=96bc76c2-4bf9-4890-86d8-b0d2d1903346"},"vehicle_type_id":"4","last_reported":1719248804,"current_range_meters":1600,"station_id":"ce4bha92rcd13ifvqeh0","pricing_plan_id":"cebpf4jnsgd1na2vs0mg"},{"bike_id":"e885de08-b584-4887-a90e-fcb43984c25e","system_id":"levelo_inurba_marseille","lat":43.291675,"lon":5.371583,"is_reserved":false,"is_disabled":false,"rental_uris":{"android":"levelo://app?vid=e885de08-b584-4887-a90e-fcb43984c25e","ios":"levelo://app?vid=e885de08-b584-4887-a90e-fcb43984c25e"},"vehicle_type_id":"4","last_reported":1719248804,"current_range_meters":31200,"station_id":"ce4bha92rcd13ifvqeh0","pricing_plan_id":"cebpf4jnsgd1na2vs0mg"},{"bike_id":"5a904fb2-06c4-4f25-b4ec-3546b8a72e36","system_id":"levelo_inurba_marseille","lat":43.298764,"lon":5.388973,"is_reserved":false,"is_disabled":false,"rental_uris":{"android":"levelo://app?vid=5a904fb2-06c4-4f25-b4ec-3546b8a72e36","ios":"levelo://app?vid=5a904fb2-06c4-4f25-b4ec-3546b8a72e36"},"vehicle_type_id":"4","last_reported":1719248804,"current_range_meters":1200,"station_id":"ce4bh392rcd13ifvqdl0","pricing_plan_id":"cebpf4jnsgd1na2vs0mg"},{"bike_id":"8ecdb498-04b1-4118-aaf8-e101e246964a","system_id":"levelo_inurba_marseille","lat":43.33198,"lon":5.3807,"is_reserved":false,"is_disabled":false,"rental_uris":{"android":"levelo://app?vid=8ecdb498-04b1-4118-aaf8-e101e246964a","ios":"levelo://app?vid=8ecdb498-04b1-4118-aaf8-e101e246964a"},"vehicle_type_id":"4","last_reported":1719248804,"current_range_meters":0,"station_id":"","pricing_plan_id":"cebpf4jnsgd1na2vs0mg"},{"bike_id":"c365c914-7695-4425-9781-d5d80213b659","system_id":"levelo_inurba_marseille","lat":43.291994,"lon":5.357886,"is_reserved":false,"is_disabled":false,"rental_uris":{"android":"levelo://app?vid=c365c914-7695-4425-9781-d5d80213b659","ios":"levelo://app?vid=c365c914-7695-4425-9781-d5d80213b659"},"vehicle_type_id":"4","last_reported":1719248804,"current_range_meters":14400,"station_id":"ce4bhb12rcd13ifvqel0","pricing_plan_id":"cebpf4jnsgd1na2vs0mg"},{"bike_id":"ac573f46-d83f-46c4-9f33-2469e363da5d","system_id":"levelo_inurba_marseille","lat":43.313291,"lon":5.396838,"is_reserved":false,"is_disabled":false,"rental_uris":{"android":"levelo://app?vid=ac573f46-d83f-46c4-9f33-2469e363da5d","ios":"levelo://app?vid=ac573f46-d83f-46c4-9f33-2469e363da5d"},"vehicle_type_id":"4","last_reported":1719248804,"current_range_meters":16000,"station_id":"ce4bgvp2rcd13ifvqcu0","pricing_plan_id":"cebpf4jnsgd1na2vs0mg"},{"bike_id":"c943cc75-ee3a-4598-8f31-99ab8e4e69ed","system_id":"levelo_inurba_marseille","lat":43.303424,"lon":5.394141,"is_reserved":false,"is_disabled":false,"rental_uris":{"android":"levelo://app?vid=c943cc75-ee3a-4598-8f31-99ab8e4e69ed","ios":"levelo://app?vid=c943cc75-ee3a-4598-8f31-99ab8e4e69ed"},"vehicle_type_id":"4","last_reported":1719248804,"current_range_meters":0,"station_id":"","pricing_plan_id":"cebpf4jnsgd1na2vs0mg"},{"bike_id":"75eb865f-f015-4fd9-9d67-fc22fe593baf","system_id":"levelo_inurba_marseille","lat":43.309047,"lon":5.396551,"is_reserved":false,"is_disabled":false,"rental_uris":{"android":"levelo://app?vid=75eb865f-f015-4fd9-9d67-fc22fe593baf","ios":"levelo://app?vid=75eb865f-f015-4fd9-9d67-fc22fe593baf"},"vehicle_type_id":"4","last_reported":1719248804,"current_range_meters":0,"station_id":"ce4bh012rcd13ifvqcv0","pricing_plan_id":"cebpf4jnsgd1na2vs0mg"},{"bike_id":"84cb9335-6d48-4c1a-b1a5-cb45922e830a","system_id":"levelo_inurba_marseille","lat":43.29529,"lon":5.385581,"is_reserved":false,"is_disabled":false,"rental_uris":{"android":"levelo://app?vid=84cb9335-6d48-4c1a-b1a5-cb45922e830a","ios":"levelo://app?vid=84cb9335-6d48-4c1a-b1a5-cb45922e830a"},"vehicle_type_id":"4","last_reported":1719248804,"current_range_meters":24400,"station_id":"ce4bgih2rcd13ifvqba0","pricing_plan_id":"cebpf4jnsgd1na2vs0mg"},{"bike_id":"f090f30a-f2da-4cce-a029-a3b078febb25","system_id":"levelo_inurba_marseille","lat":43.29529,"lon":5.385581,"is_reserved":false,"is_disabled":false,"rental_uris":{"android":"levelo://app?vid=f090f30a-f2da-4cce-a029-a3b078febb25","ios":"levelo://app?vid=f090f30a-f2da-4cce-a029-a3b078febb25"},"vehicle_type_id":"4","last_reported":1719248804,"current_range_meters":26800,"station_id":"ce4bgih2rcd13ifvqba0","pricing_plan_id":"cebpf4jnsgd1na2vs0mg"},{"bike_id":"c4713fdd-6231-4cd8-9a22-4b9c12ff0b1b","system_id":"levelo_inurba_marseille","lat":43.29529,"lon":5.385581,"is_reserved":false,"is_disabled":false,"rental_uris":{"android":"levelo://app?vid=c4713fdd-6231-4cd8-9a22-4b9c12ff0b1b","ios":"levelo://app?vid=c4713fdd-6231-4cd8-9a22-4b9c12ff0b1b"},"vehicle_type_id":"4","last_reported":1719248804,"current_range_meters":400,"station_id":"ce4bgih2rcd13ifvqba0","pricing_plan_id":"cebpf4jnsgd1na2vs0mg"},{"bike_id":"462de214-a963-48cd-b7a9-75ee43e0b91c","system_id":"levelo_inurba_marseille","lat":43.2953,"lon":5.3854,"is_reserved":false,"is_disabled":false,"rental_uris":{"android":"levelo://app?vid=462de214-a963-48cd-b7a9-75ee43e0b91c","ios":"levelo://app?vid=462de214-a963-48cd-b7a9-75ee43e0b91c"},"vehicle_type_id":"4","last_reported":1719248804,"current_range_meters":4400,"station_id":"ce4bgih2rcd13ifvqba0","pricing_plan_id":"cebpf4jnsgd1na2vs0mg"},{"bike_id":"08f55f18-7c76-4146-ae7c-f8dbe5714083","system_id":"levelo_inurba_marseille","lat":43.29529,"lon":5.385581,"is_reserved":false,"is_disabled":false,"rental_uris":{"android":"levelo://app?vid=08f55f18-7c76-4146-ae7c-f8dbe5714083","ios":"levelo://app?vid=08f55f18-7c76-4146-ae7c-f8dbe5714083"},"vehicle_type_id":"4","last_reported":1719248804,"current_range_meters":9200,"station_id":"ce4bgih2rcd13ifvqba0","pricing_plan_id":"cebpf4jnsgd1na2vs0mg"},{"bike_id":"9d374902-ca42-4f0c-b155-ba6d25dfd19a","system_id":"levelo_inurba_marseille","lat":43.313291,"lon":5.396838,"is_reserved":false,"is_disabled":false,"rental_uris":{"android":"levelo://app?vid=9d374902-ca42-4f0c-b155-ba6d25dfd19a","ios":"levelo://app?vid=9d374902-ca42-4f0c-b155-ba6d25dfd19a"},"vehicle_type_id":"4","last_reported":1719248804,"current_range_meters":7600,"station_id":"ce4bgvp2rcd13ifvqcu0","pricing_plan_id":"cebpf4jnsgd1na2vs0mg"},{"bike_id":"cf90dc61-ae84-4bf6-87a4-e096dbf3aaa7","system_id":"levelo_inurba_marseille","lat":43.29529,"lon":5.385581,"is_reserved":false,"is_disabled":false,"rental_uris":{"android":"levelo://app?vid=cf90dc61-ae84-4bf6-87a4-e096dbf3aaa7","ios":"levelo://app?vid=cf90dc61-ae84-4bf6-87a4-e096dbf3aaa7"},"vehicle_type_id":"4","last_reported":1719248804,"current_range_meters":1600,"station_id":"ce4bgih2rcd13ifvqba0","pricing_plan_id":"cebpf4jnsgd1na2vs0mg"},{"bike_id":"17af356b-0855-43b5-939f-a6ff77092bf9","system_id":"levelo_inurba_marseille","lat":43.29529,"lon":5.385581,"is_reserved":false,"is_disabled":false,"rental_uris":{"android":"levelo://app?vid=17af356b-0855-43b5-939f-a6ff77092bf9","ios":"levelo://app?vid=17af356b-0855-43b5-939f-a6ff77092bf9"},"vehicle_type_id":"4","last_reported":1719248804,"current_range_meters":11200,"station_id":"ce4bgih2rcd13ifvqba0","pricing_plan_id":"cebpf4jnsgd1na2vs0mg"},{"bike_id":"358ffb7e-32d3-4092-b22d-015086bd49c0","system_id":"levelo_inurba_marseille","lat":43.292749,"lon":5.368402,"is_reserved":false,"is_disabled":false,"rental_uris":{"android":"levelo://app?vid=358ffb7e-32d3-4092-b22d-015086bd49c0","ios":"levelo://app?vid=358ffb7e-32d3-4092-b22d-015086bd49c0"},"vehicle_type_id":"4","last_reported":1719248804,"current_range_meters":0,"station_id":"ce4bhbp2rcd13ifvqesg","pricing_plan_id":"cebpf4jnsgd1na2vs0mg"},{"bike_id":"3a1824f4-0a1f-4b64-9fc3-56dce83d425b","system_id":"levelo_inurba_marseille","lat":43.290779,"lon":5.371482,"is_reserved":false,"is_disabled":false,"rental_uris":{"android":"levelo://app?vid=3a1824f4-0a1f-4b64-9fc3-56dce83d425b","ios":"levelo://app?vid=3a1824f4-0a1f-4b64-9fc3-56dce83d425b"},"vehicle_type_id":"4","last_reported":1719248804,"current_range_meters":19200,"station_id":"ce4bh5p2rcd13ifvqe4g","pricing_plan_id":"cebpf4jnsgd1na2vs0mg"},{"bike_id":"97adbedf-d26c-4ce7-b0e3-953686ad7e16","system_id":"levelo_inurba_marseille","lat":43.290779,"lon":5.371482,"is_reserved":false,"is_disabled":false,"rental_uris":{"android":"levelo://app?vid=97adbedf-d26c-4ce7-b0e3-953686ad7e16","ios":"levelo://app?vid=97adbedf-d26c-4ce7-b0e3-953686ad7e16"},"vehicle_type_id":"4","last_reported":1719248804,"current_range_meters":20000,"station_id":"ce4bh5p2rcd13ifvqe4g","pricing_plan_id":"cebpf4jnsgd1na2vs0mg"},{"bike_id":"613cb716-8c8c-4abe-a0e4-2be51829444a","system_id":"levelo_inurba_marseille","lat":43.302008,"lon":5.394694,"is_reserved":false,"is_disabled":false,"rental_uris":{"android":"levelo://app?vid=613cb716-8c8c-4abe-a0e4-2be51829444a","ios":"levelo://app?vid=613cb716-8c8c-4abe-a0e4-2be51829444a"},"vehicle_type_id":"4","last_reported":1719248804,"current_range_meters":6000,"station_id":"ce4bh0p2rcd13ifvqd70","pricing_plan_id":"cebpf4jnsgd1na2vs0mg"},{"bike_id":"0404e32a-3a04-4691-b9f2-bd9f9fe9dc32","system_id":"levelo_inurba_marseille","lat":43.29034,"lon":5.35913,"is_reserved":false,"is_disabled":false,"rental_uris":{"android":"levelo://app?vid=0404e32a-3a04-4691-b9f2-bd9f9fe9dc32","ios":"levelo://app?vid=0404e32a-3a04-4691-b9f2-bd9f9fe9dc32"},"vehicle_type_id":"4","last_reported":1719248804,"current_range_meters":400,"station_id":"ce4bha92rcd13ifvqeg0","pricing_plan_id":"cebpf4jnsgd1na2vs0mg"},{"bike_id":"eeb98493-219c-48a8-91b4-9684c715e639","system_id":"levelo_inurba_marseille","lat":43.290631,"lon":5.359244,"is_reserved":false,"is_disabled":false,"rental_uris":{"android":"levelo://app?vid=eeb98493-219c-48a8-91b4-9684c715e639","ios":"levelo://app?vid=eeb98493-219c-48a8-91b4-9684c715e639"},"vehicle_type_id":"4","last_reported":1719248804,"current_range_meters":15200,"station_id":"ce4bha92rcd13ifvqeg0","pricing_plan_id":"cebpf4jnsgd1na2vs0mg"},{"bike_id":"609d2991-1fb7-436b-9a2f-164e3100f0b0","system_id":"levelo_inurba_marseille","lat":43.290631,"lon":5.359244,"is_reserved":false,"is_disabled":false,"rental_uris":{"android":"levelo://app?vid=609d2991-1fb7-436b-9a2f-164e3100f0b0","ios":"levelo://app?vid=609d2991-1fb7-436b-9a2f-164e3100f0b0"},"vehicle_type_id":"4","last_reported":1719248804,"current_range_meters":400,"station_id":"ce4bha92rcd13ifvqeg0","pricing_plan_id":"cebpf4jnsgd1na2vs0mg"},{"bike_id":"ede384aa-b1e6-47b1-a2d8-b27dd0ae1d81","system_id":"levelo_inurba_marseille","lat":43.330442,"lon":5.389148,"is_reserved":false,"is_disabled":false,"rental_uris":{"android":"levelo://app?vid=ede384aa-b1e6-47b1-a2d8-b27dd0ae1d81","ios":"levelo://app?vid=ede384aa-b1e6-47b1-a2d8-b27dd0ae1d81"},"vehicle_type_id":"4","last_reported":1719248804,"current_range_meters":13600,"station_id":"ce4bhr92rcd13ifvqhrg","pricing_plan_id":"cebpf4jnsgd1na2vs0mg"},{"bike_id":"634d04ea-36ab-4ac7-8e77-f0f05961589e","system_id":"levelo_inurba_marseille","lat":43.289184,"lon":5.366408,"is_reserved":false,"is_disabled":false,"rental_uris":{"android":"levelo://app?vid=634d04ea-36ab-4ac7-8e77-f0f05961589e","ios":"levelo://app?vid=634d04ea-36ab-4ac7-8e77-f0f05961589e"},"vehicle_type_id":"4","last_reported":1719248804,"current_range_meters":29600,"station_id":"ce4bhap2rcd13ifvqek0","pricing_plan_id":"cebpf4jnsgd1na2vs0mg"},{"bike_id":"45f1d7c7-05bd-4cfb-8589-1730afe90c98","system_id":"levelo_inurba_marseille","lat":43.294153,"lon":5.386305,"is_reserved":false,"is_disabled":false,"rental_uris":{"android":"levelo://app?vid=45f1d7c7-05bd-4cfb-8589-1730afe90c98","ios":"levelo://app?vid=45f1d7c7-05bd-4cfb-8589-1730afe90c98"},"vehicle_type_id":"4","last_reported":1719248804,"current_range_meters":0,"station_id":"ce4bh2h2rcd13ifvqdh0","pricing_plan_id":"cebpf4jnsgd1na2vs0mg"},{"bike_id":"ff865cfd-b43d-4bc0-aca2-ac480ee08f48","system_id":"levelo_inurba_marseille","lat":43.289184,"lon":5.366408,"is_reserved":false,"is_disabled":false,"rental_uris":{"android":"levelo://app?vid=ff865cfd-b43d-4bc0-aca2-ac480ee08f48","ios":"levelo://app?vid=ff865cfd-b43d-4bc0-aca2-ac480ee08f48"},"vehicle_type_id":"4","last_reported":1719248804,"current_range_meters":2000,"station_id":"ce4bhap2rcd13ifvqek0","pricing_plan_id":"cebpf4jnsgd1na2vs0mg"},{"bike_id":"d639ec98-ed59-4190-97b7-a277b1c1c65d","system_id":"levelo_inurba_marseille","lat":43.29417,"lon":5.38628,"is_reserved":false,"is_disabled":false,"rental_uris":{"android":"levelo://app?vid=d639ec98-ed59-4190-97b7-a277b1c1c65d","ios":"levelo://app?vid=d639ec98-ed59-4190-97b7-a277b1c1c65d"},"vehicle_type_id":"4","last_reported":1719248804,"current_range_meters":8800,"station_id":"ce4bh2h2rcd13ifvqdh0","pricing_plan_id":"cebpf4jnsgd1na2vs0mg"},{"bike_id":"7304027c-0047-41d3-800d-3282a99c2f50","system_id":"levelo_inurba_marseille","lat":43.29415,"lon":5.38626,"is_reserved":false,"is_disabled":false,"rental_uris":{"android":"levelo://app?vid=7304027c-0047-41d3-800d-3282a99c2f50","ios":"levelo://app?vid=7304027c-0047-41d3-800d-3282a99c2f50"},"vehicle_type_id":"4","last_reported":1719248804,"current_range_meters":20400,"station_id":"ce4bh2h2rcd13ifvqdh0","pricing_plan_id":"cebpf4jnsgd1na2vs0mg"},{"bike_id":"f8b10a53-b815-4c07-aeea-62fa39e833e0","system_id":"levelo_inurba_marseille","lat":43.294162,"lon":5.386292,"is_reserved":false,"is_disabled":false,"rental_uris":{"android":"levelo://app?vid=f8b10a53-b815-4c07-aeea-62fa39e833e0","ios":"levelo://app?vid=f8b10a53-b815-4c07-aeea-62fa39e833e0"},"vehicle_type_id":"4","last_reported":1719248804,"current_range_meters":4000,"station_id":"ce4bh2h2rcd13ifvqdh0","pricing_plan_id":"cebpf4jnsgd1na2vs0mg"},{"bike_id":"d826fbc8-ed1c-453c-9471-2cf7d2ff56c4","system_id":"levelo_inurba_marseille","lat":43.294153,"lon":5.386305,"is_reserved":false,"is_disabled":false,"rental_uris":{"android":"levelo://app?vid=d826fbc8-ed1c-453c-9471-2cf7d2ff56c4","ios":"levelo://app?vid=d826fbc8-ed1c-453c-9471-2cf7d2ff56c4"},"vehicle_type_id":"4","last_reported":1719248804,"current_range_meters":7600,"station_id":"ce4bh2h2rcd13ifvqdh0","pricing_plan_id":"cebpf4jnsgd1na2vs0mg"},{"bike_id":"fa5cfcb3-091f-4fb7-9e62-9a128c51a376","system_id":"levelo_inurba_marseille","lat":43.289184,"lon":5.366408,"is_reserved":false,"is_disabled":false,"rental_uris":{"android":"levelo://app?vid=fa5cfcb3-091f-4fb7-9e62-9a128c51a376","ios":"levelo://app?vid=fa5cfcb3-091f-4fb7-9e62-9a128c51a376"},"vehicle_type_id":"4","last_reported":1719248804,"current_range_meters":15600,"station_id":"ce4bhap2rcd13ifvqek0","pricing_plan_id":"cebpf4jnsgd1na2vs0mg"},{"bike_id":"afd07423-5fbf-44ef-b7aa-10c16d78bde0","system_id":"levelo_inurba_marseille","lat":43.289184,"lon":5.366408,"is_reserved":false,"is_disabled":false,"rental_uris":{"android":"levelo://app?vid=afd07423-5fbf-44ef-b7aa-10c16d78bde0","ios":"levelo://app?vid=afd07423-5fbf-44ef-b7aa-10c16d78bde0"},"vehicle_type_id":"4","last_reported":1719248804,"current_range_meters":23600,"station_id":"ce4bhap2rcd13ifvqek0","pricing_plan_id":"cebpf4jnsgd1na2vs0mg"},{"bike_id":"51c090fd-d683-405a-8ed8-bad7b548c351","system_id":"levelo_inurba_marseille","lat":43.289468,"lon":5.363719,"is_reserved":false,"is_disabled":false,"rental_uris":{"android":"levelo://app?vid=51c090fd-d683-405a-8ed8-bad7b548c351","ios":"levelo://app?vid=51c090fd-d683-405a-8ed8-bad7b548c351"},"vehicle_type_id":"4","last_reported":1719248804,"current_range_meters":5600,"station_id":"ce4bhc92rcd13ifvqetg","pricing_plan_id":"cebpf4jnsgd1na2vs0mg"},{"bike_id":"4f70c5b8-450b-43b6-a50d-76be003eeb29","system_id":"levelo_inurba_marseille","lat":43.292644,"lon":5.384257,"is_reserved":false,"is_disabled":false,"rental_uris":{"android":"levelo://app?vid=4f70c5b8-450b-43b6-a50d-76be003eeb29","ios":"levelo://app?vid=4f70c5b8-450b-43b6-a50d-76be003eeb29"},"vehicle_type_id":"4","last_reported":1719248804,"current_range_meters":2800,"station_id":"ce4bh692rcd13ifvqea0","pricing_plan_id":"cebpf4jnsgd1na2vs0mg"},{"bike_id":"ad8b309f-8350-405f-88d3-768a5cb52c18","system_id":"levelo_inurba_marseille","lat":43.29264,"lon":5.38434,"is_reserved":false,"is_disabled":false,"rental_uris":{"android":"levelo://app?vid=ad8b309f-8350-405f-88d3-768a5cb52c18","ios":"levelo://app?vid=ad8b309f-8350-405f-88d3-768a5cb52c18"},"vehicle_type_id":"4","last_reported":1719248804,"current_range_meters":1600,"station_id":"ce4bh692rcd13ifvqea0","pricing_plan_id":"cebpf4jnsgd1na2vs0mg"},{"bike_id":"6ab9c157-3a13-4347-adc7-3753b49ff748","system_id":"levelo_inurba_marseille","lat":43.292642,"lon":5.384254,"is_reserved":false,"is_disabled":false,"rental_uris":{"android":"levelo://app?vid=6ab9c157-3a13-4347-adc7-3753b49ff748","ios":"levelo://app?vid=6ab9c157-3a13-4347-adc7-3753b49ff748"},"vehicle_type_id":"4","last_reported":1719248804,"current_range_meters":3600,"station_id":"ce4bh692rcd13ifvqea0","pricing_plan_id":"cebpf4jnsgd1na2vs0mg"},{"bike_id":"fad48db8-cc43-46e2-a5d7-0d234e21b38a","system_id":"levelo_inurba_marseille","lat":43.292644,"lon":5.384257,"is_reserved":false,"is_disabled":false,"rental_uris":{"android":"levelo://app?vid=fad48db8-cc43-46e2-a5d7-0d234e21b38a","ios":"levelo://app?vid=fad48db8-cc43-46e2-a5d7-0d234e21b38a"},"vehicle_type_id":"4","last_reported":1719248804,"current_range_meters":10800,"station_id":"ce4bh692rcd13ifvqea0","pricing_plan_id":"cebpf4jnsgd1na2vs0mg"},{"bike_id":"84b72a9f-bc5e-4df4-a7fd-687a3ff05d87","system_id":"levelo_inurba_marseille","lat":43.292644,"lon":5.384257,"is_reserved":false,"is_disabled":false,"rental_uris":{"android":"levelo://app?vid=84b72a9f-bc5e-4df4-a7fd-687a3ff05d87","ios":"levelo://app?vid=84b72a9f-bc5e-4df4-a7fd-687a3ff05d87"},"vehicle_type_id":"4","last_reported":1719248804,"current_range_meters":4800,"station_id":"ce4bh692rcd13ifvqea0","pricing_plan_id":"cebpf4jnsgd1na2vs0mg"},{"bike_id":"08919bcc-d2cb-4f36-94fd-696be1a3a74f","system_id":"levelo_inurba_marseille","lat":43.292644,"lon":5.384257,"is_reserved":false,"is_disabled":false,"rental_uris":{"android":"levelo://app?vid=08919bcc-d2cb-4f36-94fd-696be1a3a74f","ios":"levelo://app?vid=08919bcc-d2cb-4f36-94fd-696be1a3a74f"},"vehicle_type_id":"4","last_reported":1719248804,"current_range_meters":17200,"station_id":"ce4bh692rcd13ifvqea0","pricing_plan_id":"cebpf4jnsgd1na2vs0mg"},{"bike_id":"14794849-648e-4ece-b0a5-7bebb59c3f44","system_id":"levelo_inurba_marseille","lat":43.290103,"lon":5.356114,"is_reserved":false,"is_disabled":false,"rental_uris":{"android":"levelo://app?vid=14794849-648e-4ece-b0a5-7bebb59c3f44","ios":"levelo://app?vid=14794849-648e-4ece-b0a5-7bebb59c3f44"},"vehicle_type_id":"4","last_reported":1719248804,"current_range_meters":3200,"station_id":"ce4bhb92rcd13ifvqen0","pricing_plan_id":"cebpf4jnsgd1na2vs0mg"},{"bike_id":"26630c28-800e-4184-b270-d6c71c0d5cfc","system_id":"levelo_inurba_marseille","lat":43.290104,"lon":5.356111,"is_reserved":false,"is_disabled":false,"rental_uris":{"android":"levelo://app?vid=26630c28-800e-4184-b270-d6c71c0d5cfc","ios":"levelo://app?vid=26630c28-800e-4184-b270-d6c71c0d5cfc"},"vehicle_type_id":"4","last_reported":1719248804,"current_range_meters":5200,"station_id":"ce4bhb92rcd13ifvqen0","pricing_plan_id":"cebpf4jnsgd1na2vs0mg"},{"bike_id":"e775d0ce-8a4e-4612-83e5-7d51d1b7c5eb","system_id":"levelo_inurba_marseille","lat":43.290995,"lon":5.381361,"is_reserved":false,"is_disabled":false,"rental_uris":{"android":"levelo://app?vid=e775d0ce-8a4e-4612-83e5-7d51d1b7c5eb","ios":"levelo://app?vid=e775d0ce-8a4e-4612-83e5-7d51d1b7c5eb"},"vehicle_type_id":"4","last_reported":1719248804,"current_range_meters":1600,"station_id":"ce4bh512rcd13ifvqe2g","pricing_plan_id":"cebpf4jnsgd1na2vs0mg"},{"bike_id":"498bbb46-9655-420b-9371-4c06bd94e3f1","system_id":"levelo_inurba_marseille","lat":43.297864,"lon":5.393225,"is_reserved":false,"is_disabled":false,"rental_uris":{"android":"levelo://app?vid=498bbb46-9655-420b-9371-4c06bd94e3f1","ios":"levelo://app?vid=498bbb46-9655-420b-9371-4c06bd94e3f1"},"vehicle_type_id":"4","last_reported":1719248804,"current_range_meters":3200,"station_id":"chh1huq6cuj3fo74tm60","pricing_plan_id":"cebpf4jnsgd1na2vs0mg"},{"bike_id":"bb5da089-2a15-4611-812a-869fb58f48df","system_id":"levelo_inurba_marseille","lat":43.297815,"lon":5.393548,"is_reserved":false,"is_disabled":false,"rental_uris":{"android":"levelo://app?vid=bb5da089-2a15-4611-812a-869fb58f48df","ios":"levelo://app?vid=bb5da089-2a15-4611-812a-869fb58f48df"},"vehicle_type_id":"4","last_reported":1719248804,"current_range_meters":28800,"station_id":"chh1huq6cuj3fo74tm60","pricing_plan_id":"cebpf4jnsgd1na2vs0mg"},{"bike_id":"8f07fab1-aecb-4794-803a-7f66e2e14b37","system_id":"levelo_inurba_marseille","lat":43.330442,"lon":5.389148,"is_reserved":false,"is_disabled":false,"rental_uris":{"android":"levelo://app?vid=8f07fab1-aecb-4794-803a-7f66e2e14b37","ios":"levelo://app?vid=8f07fab1-aecb-4794-803a-7f66e2e14b37"},"vehicle_type_id":"4","last_reported":1719248804,"current_range_meters":30400,"station_id":"ce4bhr92rcd13ifvqhrg","pricing_plan_id":"cebpf4jnsgd1na2vs0mg"},{"bike_id":"bc373b7d-04cb-4d3f-8b20-800b89af9a0b","system_id":"levelo_inurba_marseille","lat":43.29525,"lon":5.39028,"is_reserved":false,"is_disabled":false,"rental_uris":{"android":"levelo://app?vid=bc373b7d-04cb-4d3f-8b20-800b89af9a0b","ios":"levelo://app?vid=bc373b7d-04cb-4d3f-8b20-800b89af9a0b"},"vehicle_type_id":"4","last_reported":1719248804,"current_range_meters":0,"station_id":"ce4bh3p2rcd13ifvqdp0","pricing_plan_id":"cebpf4jnsgd1na2vs0mg"},{"bike_id":"9fa70608-159f-40f8-aec6-ac35b41dbb22","system_id":"levelo_inurba_marseille","lat":43.33023,"lon":5.39035,"is_reserved":false,"is_disabled":false,"rental_uris":{"android":"levelo://app?vid=9fa70608-159f-40f8-aec6-ac35b41dbb22","ios":"levelo://app?vid=9fa70608-159f-40f8-aec6-ac35b41dbb22"},"vehicle_type_id":"4","last_reported":1719248804,"current_range_meters":2800,"station_id":"ce4bhr92rcd13ifvqhrg","pricing_plan_id":"cebpf4jnsgd1na2vs0mg"},{"bike_id":"8bda701e-30ac-4f8d-ba15-a3d02136d116","system_id":"levelo_inurba_marseille","lat":43.295169,"lon":5.390426,"is_reserved":false,"is_disabled":false,"rental_uris":{"android":"levelo://app?vid=8bda701e-30ac-4f8d-ba15-a3d02136d116","ios":"levelo://app?vid=8bda701e-30ac-4f8d-ba15-a3d02136d116"},"vehicle_type_id":"4","last_reported":1719248804,"current_range_meters":28000,"station_id":"ce4bh3p2rcd13ifvqdp0","pricing_plan_id":"cebpf4jnsgd1na2vs0mg"},{"bike_id":"95aaf7e0-353a-450b-9989-16544e53ded3","system_id":"levelo_inurba_marseille","lat":43.295169,"lon":5.390426,"is_reserved":false,"is_disabled":false,"rental_uris":{"android":"levelo://app?vid=95aaf7e0-353a-450b-9989-16544e53ded3","ios":"levelo://app?vid=95aaf7e0-353a-450b-9989-16544e53ded3"},"vehicle_type_id":"4","last_reported":1719248804,"current_range_meters":14800,"station_id":"ce4bh3p2rcd13ifvqdp0","pricing_plan_id":"cebpf4jnsgd1na2vs0mg"},{"bike_id":"12cf949f-3465-4f4f-8372-76f042148ddb","system_id":"levelo_inurba_marseille","lat":43.33025,"lon":5.39038,"is_reserved":false,"is_disabled":false,"rental_uris":{"android":"levelo://app?vid=12cf949f-3465-4f4f-8372-76f042148ddb","ios":"levelo://app?vid=12cf949f-3465-4f4f-8372-76f042148ddb"},"vehicle_type_id":"4","last_reported":1719248804,"current_range_meters":800,"station_id":"ce4bhr92rcd13ifvqhrg","pricing_plan_id":"cebpf4jnsgd1na2vs0mg"},{"bike_id":"63ba5f42-7d62-4465-a639-777c8b042ab0","system_id":"levelo_inurba_marseille","lat":43.330442,"lon":5.389148,"is_reserved":false,"is_disabled":false,"rental_uris":{"android":"levelo://app?vid=63ba5f42-7d62-4465-a639-777c8b042ab0","ios":"levelo://app?vid=63ba5f42-7d62-4465-a639-777c8b042ab0"},"vehicle_type_id":"4","last_reported":1719248804,"current_range_meters":10000,"station_id":"ce4bhr92rcd13ifvqhrg","pricing_plan_id":"cebpf4jnsgd1na2vs0mg"},{"bike_id":"8a405821-1226-4777-8f16-f8e88f4356a4","system_id":"levelo_inurba_marseille","lat":43.295169,"lon":5.390426,"is_reserved":false,"is_disabled":false,"rental_uris":{"android":"levelo://app?vid=8a405821-1226-4777-8f16-f8e88f4356a4","ios":"levelo://app?vid=8a405821-1226-4777-8f16-f8e88f4356a4"},"vehicle_type_id":"4","last_reported":1719248804,"current_range_meters":2000,"station_id":"ce4bh3p2rcd13ifvqdp0","pricing_plan_id":"cebpf4jnsgd1na2vs0mg"},{"bike_id":"0c9d9cf1-544f-4a87-b86b-b510c25afa01","system_id":"levelo_inurba_marseille","lat":43.330442,"lon":5.389148,"is_reserved":false,"is_disabled":false,"rental_uris":{"android":"levelo://app?vid=0c9d9cf1-544f-4a87-b86b-b510c25afa01","ios":"levelo://app?vid=0c9d9cf1-544f-4a87-b86b-b510c25afa01"},"vehicle_type_id":"4","last_reported":1719248804,"current_range_meters":2800,"station_id":"ce4bhr92rcd13ifvqhrg","pricing_plan_id":"cebpf4jnsgd1na2vs0mg"},{"bike_id":"ad8026b4-ab7d-4a8e-8405-473ced4d18b9","system_id":"levelo_inurba_marseille","lat":43.330442,"lon":5.389148,"is_reserved":false,"is_disabled":false,"rental_uris":{"android":"levelo://app?vid=ad8026b4-ab7d-4a8e-8405-473ced4d18b9","ios":"levelo://app?vid=ad8026b4-ab7d-4a8e-8405-473ced4d18b9"},"vehicle_type_id":"4","last_reported":1719248804,"current_range_meters":4000,"station_id":"ce4bhr92rcd13ifvqhrg","pricing_plan_id":"cebpf4jnsgd1na2vs0mg"},{"bike_id":"ce8c545b-cf3e-4220-80fd-e2c8b3361185","system_id":"levelo_inurba_marseille","lat":43.289689,"lon":5.378343,"is_reserved":false,"is_disabled":false,"rental_uris":{"android":"levelo://app?vid=ce8c545b-cf3e-4220-80fd-e2c8b3361185","ios":"levelo://app?vid=ce8c545b-cf3e-4220-80fd-e2c8b3361185"},"vehicle_type_id":"4","last_reported":1719248804,"current_range_meters":26400,"station_id":"ce4bh9p2rcd13ifvqed0","pricing_plan_id":"cebpf4jnsgd1na2vs0mg"},{"bike_id":"5e278592-8b1e-475a-9191-7aec943c1606","system_id":"levelo_inurba_marseille","lat":43.312609,"lon":5.401662,"is_reserved":false,"is_disabled":false,"rental_uris":{"android":"levelo://app?vid=5e278592-8b1e-475a-9191-7aec943c1606","ios":"levelo://app?vid=5e278592-8b1e-475a-9191-7aec943c1606"},"vehicle_type_id":"4","last_reported":1719248804,"current_range_meters":20000,"station_id":"ce4bh092rcd13ifvqd30","pricing_plan_id":"cebpf4jnsgd1na2vs0mg"},{"bike_id":"5467ef08-4ffd-481d-9364-5a874559da88","system_id":"levelo_inurba_marseille","lat":43.28856,"lon":5.358371,"is_reserved":false,"is_disabled":false,"rental_uris":{"android":"levelo://app?vid=5467ef08-4ffd-481d-9364-5a874559da88","ios":"levelo://app?vid=5467ef08-4ffd-481d-9364-5a874559da88"},"vehicle_type_id":"4","last_reported":1719248804,"current_range_meters":31200,"station_id":"ce4bhb12rcd13ifvqem0","pricing_plan_id":"cebpf4jnsgd1na2vs0mg"},{"bike_id":"368d3ce6-e8d8-4e0f-aa98-9c38ce35ac97","system_id":"levelo_inurba_marseille","lat":43.2901,"lon":5.381269,"is_reserved":false,"is_disabled":false,"rental_uris":{"android":"levelo://app?vid=368d3ce6-e8d8-4e0f-aa98-9c38ce35ac97","ios":"levelo://app?vid=368d3ce6-e8d8-4e0f-aa98-9c38ce35ac97"},"vehicle_type_id":"4","last_reported":1719248804,"current_range_meters":0,"station_id":"ce4bh4p2rcd13ifvqe1g","pricing_plan_id":"cebpf4jnsgd1na2vs0mg"},{"bike_id":"883ae8da-79bf-44ab-a009-c0d44b5a4e87","system_id":"levelo_inurba_marseille","lat":43.28856,"lon":5.358371,"is_reserved":false,"is_disabled":false,"rental_uris":{"android":"levelo://app?vid=883ae8da-79bf-44ab-a009-c0d44b5a4e87","ios":"levelo://app?vid=883ae8da-79bf-44ab-a009-c0d44b5a4e87"},"vehicle_type_id":"4","last_reported":1719248804,"current_range_meters":3200,"station_id":"ce4bhb12rcd13ifvqem0","pricing_plan_id":"cebpf4jnsgd1na2vs0mg"},{"bike_id":"9f74e9db-8021-4dd1-ba9b-29ff1c3cf81d","system_id":"levelo_inurba_marseille","lat":43.312609,"lon":5.401662,"is_reserved":false,"is_disabled":false,"rental_uris":{"android":"levelo://app?vid=9f74e9db-8021-4dd1-ba9b-29ff1c3cf81d","ios":"levelo://app?vid=9f74e9db-8021-4dd1-ba9b-29ff1c3cf81d"},"vehicle_type_id":"4","last_reported":1719248804,"current_range_meters":8000,"station_id":"ce4bh092rcd13ifvqd30","pricing_plan_id":"cebpf4jnsgd1na2vs0mg"},{"bike_id":"bd9a6c26-2db3-4e30-92c7-c85ae97147aa","system_id":"levelo_inurba_marseille","lat":43.33739,"lon":5.37469,"is_reserved":false,"is_disabled":false,"rental_uris":{"android":"levelo://app?vid=bd9a6c26-2db3-4e30-92c7-c85ae97147aa","ios":"levelo://app?vid=bd9a6c26-2db3-4e30-92c7-c85ae97147aa"},"vehicle_type_id":"0","last_reported":1719248804,"current_range_meters":29600,"station_id":"","pricing_plan_id":"cebpf4jnsgd1na2vs0mg"},{"bike_id":"da5e95be-b638-4eb7-9dd1-09b4b1568d91","system_id":"levelo_inurba_marseille","lat":43.312609,"lon":5.401662,"is_reserved":false,"is_disabled":false,"rental_uris":{"android":"levelo://app?vid=da5e95be-b638-4eb7-9dd1-09b4b1568d91","ios":"levelo://app?vid=da5e95be-b638-4eb7-9dd1-09b4b1568d91"},"vehicle_type_id":"4","last_reported":1719248804,"current_range_meters":800,"station_id":"ce4bh092rcd13ifvqd30","pricing_plan_id":"cebpf4jnsgd1na2vs0mg"},{"bike_id":"bb65fb70-df82-47d8-b27f-438620895501","system_id":"levelo_inurba_marseille","lat":43.337398,"lon":5.3747,"is_reserved":false,"is_disabled":false,"rental_uris":{"android":"levelo://app?vid=bb65fb70-df82-47d8-b27f-438620895501","ios":"levelo://app?vid=bb65fb70-df82-47d8-b27f-438620895501"},"vehicle_type_id":"0","last_reported":1719248804,"current_range_meters":22400,"station_id":"","pricing_plan_id":"cebpf4jnsgd1na2vs0mg"},{"bike_id":"11da98ef-d0c3-43c2-a7e4-890f2c23ccbc","system_id":"levelo_inurba_marseille","lat":43.33741,"lon":5.37465,"is_reserved":false,"is_disabled":false,"rental_uris":{"android":"levelo://app?vid=11da98ef-d0c3-43c2-a7e4-890f2c23ccbc","ios":"levelo://app?vid=11da98ef-d0c3-43c2-a7e4-890f2c23ccbc"},"vehicle_type_id":"0","last_reported":1719248804,"current_range_meters":21200,"station_id":"","pricing_plan_id":"cebpf4jnsgd1na2vs0mg"},{"bike_id":"4c76fc69-c56c-4afc-ba09-55a0c4fdfb30","system_id":"levelo_inurba_marseille","lat":43.312609,"lon":5.401662,"is_reserved":false,"is_disabled":false,"rental_uris":{"android":"levelo://app?vid=4c76fc69-c56c-4afc-ba09-55a0c4fdfb30","ios":"levelo://app?vid=4c76fc69-c56c-4afc-ba09-55a0c4fdfb30"},"vehicle_type_id":"4","last_reported":1719248804,"current_range_meters":6400,"station_id":"ce4bh092rcd13ifvqd30","pricing_plan_id":"cebpf4jnsgd1na2vs0mg"},{"bike_id":"c72d0133-521d-4029-b9e4-6598ecbcb54a","system_id":"levelo_inurba_marseille","lat":43.312609,"lon":5.401662,"is_reserved":false,"is_disabled":false,"rental_uris":{"android":"levelo://app?vid=c72d0133-521d-4029-b9e4-6598ecbcb54a","ios":"levelo://app?vid=c72d0133-521d-4029-b9e4-6598ecbcb54a"},"vehicle_type_id":"4","last_reported":1719248804,"current_range_meters":7200,"station_id":"ce4bh092rcd13ifvqd30","pricing_plan_id":"cebpf4jnsgd1na2vs0mg"},{"bike_id":"8043cc8a-f702-4e45-9523-d56dfd7ee432","system_id":"levelo_inurba_marseille","lat":43.337413,"lon":5.374652,"is_reserved":false,"is_disabled":false,"rental_uris":{"android":"levelo://app?vid=8043cc8a-f702-4e45-9523-d56dfd7ee432","ios":"levelo://app?vid=8043cc8a-f702-4e45-9523-d56dfd7ee432"},"vehicle_type_id":"0","last_reported":1719248804,"current_range_meters":27200,"station_id":"","pricing_plan_id":"cebpf4jnsgd1na2vs0mg"},{"bike_id":"cbff8e2e-87ad-4d9e-a09d-9b1fba1c0aeb","system_id":"levelo_inurba_marseille","lat":43.337419,"lon":5.374683,"is_reserved":false,"is_disabled":false,"rental_uris":{"android":"levelo://app?vid=cbff8e2e-87ad-4d9e-a09d-9b1fba1c0aeb","ios":"levelo://app?vid=cbff8e2e-87ad-4d9e-a09d-9b1fba1c0aeb"},"vehicle_type_id":"0","last_reported":1719248804,"current_range_meters":27600,"station_id":"","pricing_plan_id":"cebpf4jnsgd1na2vs0mg"},{"bike_id":"2a0fb516-a307-4861-b129-104556c40f00","system_id":"levelo_inurba_marseille","lat":43.337424,"lon":5.374696,"is_reserved":false,"is_disabled":false,"rental_uris":{"android":"levelo://app?vid=2a0fb516-a307-4861-b129-104556c40f00","ios":"levelo://app?vid=2a0fb516-a307-4861-b129-104556c40f00"},"vehicle_type_id":"0","last_reported":1719248804,"current_range_meters":18800,"station_id":"","pricing_plan_id":"cebpf4jnsgd1na2vs0mg"},{"bike_id":"bf709b1a-1e81-4c69-a36a-dfef45d67fee","system_id":"levelo_inurba_marseille","lat":43.33744,"lon":5.374651,"is_reserved":false,"is_disabled":false,"rental_uris":{"android":"levelo://app?vid=bf709b1a-1e81-4c69-a36a-dfef45d67fee","ios":"levelo://app?vid=bf709b1a-1e81-4c69-a36a-dfef45d67fee"},"vehicle_type_id":"0","last_reported":1719248804,"current_range_meters":27200,"station_id":"","pricing_plan_id":"cebpf4jnsgd1na2vs0mg"},{"bike_id":"656535e7-9a8a-445a-b05c-b02792753597","system_id":"levelo_inurba_marseille","lat":43.309371,"lon":5.401449,"is_reserved":false,"is_disabled":false,"rental_uris":{"android":"levelo://app?vid=656535e7-9a8a-445a-b05c-b02792753597","ios":"levelo://app?vid=656535e7-9a8a-445a-b05c-b02792753597"},"vehicle_type_id":"4","last_reported":1719248804,"current_range_meters":15600,"station_id":"ce4bgvp2rcd13ifvqct0","pricing_plan_id":"cebpf4jnsgd1na2vs0mg"},{"bike_id":"aa527c2c-31a5-479b-bfbe-daae0d9bb514","system_id":"levelo_inurba_marseille","lat":43.33744,"lon":5.37469,"is_reserved":false,"is_disabled":false,"rental_uris":{"android":"levelo://app?vid=aa527c2c-31a5-479b-bfbe-daae0d9bb514","ios":"levelo://app?vid=aa527c2c-31a5-479b-bfbe-daae0d9bb514"},"vehicle_type_id":"0","last_reported":1719248804,"current_range_meters":18000,"station_id":"","pricing_plan_id":"cebpf4jnsgd1na2vs0mg"},{"bike_id":"c3ddbe4a-157d-4893-acf1-f1f626a65d21","system_id":"levelo_inurba_marseille","lat":43.337435,"lon":5.37472,"is_reserved":false,"is_disabled":false,"rental_uris":{"android":"levelo://app?vid=c3ddbe4a-157d-4893-acf1-f1f626a65d21","ios":"levelo://app?vid=c3ddbe4a-157d-4893-acf1-f1f626a65d21"},"vehicle_type_id":"0","last_reported":1719248804,"current_range_meters":19200,"station_id":"","pricing_plan_id":"cebpf4jnsgd1na2vs0mg"},{"bike_id":"985eda3a-8205-4c72-8b0d-a44593dd15b5","system_id":"levelo_inurba_marseille","lat":43.337433,"lon":5.374747,"is_reserved":false,"is_disabled":false,"rental_uris":{"android":"levelo://app?vid=985eda3a-8205-4c72-8b0d-a44593dd15b5","ios":"levelo://app?vid=985eda3a-8205-4c72-8b0d-a44593dd15b5"},"vehicle_type_id":"0","last_reported":1719248804,"current_range_meters":21200,"station_id":"","pricing_plan_id":"cebpf4jnsgd1na2vs0mg"},{"bike_id":"a6d9cfe7-ec49-4618-ac3f-daa86b9b433a","system_id":"levelo_inurba_marseille","lat":43.309371,"lon":5.401449,"is_reserved":false,"is_disabled":false,"rental_uris":{"android":"levelo://app?vid=a6d9cfe7-ec49-4618-ac3f-daa86b9b433a","ios":"levelo://app?vid=a6d9cfe7-ec49-4618-ac3f-daa86b9b433a"},"vehicle_type_id":"4","last_reported":1719248804,"current_range_meters":15600,"station_id":"ce4bgvp2rcd13ifvqct0","pricing_plan_id":"cebpf4jnsgd1na2vs0mg"},{"bike_id":"9b81675f-44cd-4cbe-9733-2d36a516d8f7","system_id":"levelo_inurba_marseille","lat":43.337454,"lon":5.37469,"is_reserved":false,"is_disabled":false,"rental_uris":{"android":"levelo://app?vid=9b81675f-44cd-4cbe-9733-2d36a516d8f7","ios":"levelo://app?vid=9b81675f-44cd-4cbe-9733-2d36a516d8f7"},"vehicle_type_id":"0","last_reported":1719248804,"current_range_meters":28000,"station_id":"","pricing_plan_id":"cebpf4jnsgd1na2vs0mg"},{"bike_id":"153d48c0-0acf-4d09-866c-dc84c6e32105","system_id":"levelo_inurba_marseille","lat":43.309371,"lon":5.401449,"is_reserved":false,"is_disabled":false,"rental_uris":{"android":"levelo://app?vid=153d48c0-0acf-4d09-866c-dc84c6e32105","ios":"levelo://app?vid=153d48c0-0acf-4d09-866c-dc84c6e32105"},"vehicle_type_id":"4","last_reported":1719248804,"current_range_meters":4000,"station_id":"ce4bgvp2rcd13ifvqct0","pricing_plan_id":"cebpf4jnsgd1na2vs0mg"},{"bike_id":"38cd019e-fc2a-48d0-9990-4b8377bf1e2b","system_id":"levelo_inurba_marseille","lat":43.312609,"lon":5.401662,"is_reserved":false,"is_disabled":false,"rental_uris":{"android":"levelo://app?vid=38cd019e-fc2a-48d0-9990-4b8377bf1e2b","ios":"levelo://app?vid=38cd019e-fc2a-48d0-9990-4b8377bf1e2b"},"vehicle_type_id":"4","last_reported":1719248804,"current_range_meters":8000,"station_id":"ce4bh092rcd13ifvqd30","pricing_plan_id":"cebpf4jnsgd1na2vs0mg"},{"bike_id":"c25a3696-e1cc-43ba-8656-23d4a118ee2e","system_id":"levelo_inurba_marseille","lat":43.337471,"lon":5.374677,"is_reserved":false,"is_disabled":false,"rental_uris":{"android":"levelo://app?vid=c25a3696-e1cc-43ba-8656-23d4a118ee2e","ios":"levelo://app?vid=c25a3696-e1cc-43ba-8656-23d4a118ee2e"},"vehicle_type_id":"0","last_reported":1719248804,"current_range_meters":28000,"station_id":"","pricing_plan_id":"cebpf4jnsgd1na2vs0mg"},{"bike_id":"f867320b-b3ee-4d44-8ef3-37d72db21942","system_id":"levelo_inurba_marseille","lat":43.33754,"lon":5.37456,"is_reserved":false,"is_disabled":false,"rental_uris":{"android":"levelo://app?vid=f867320b-b3ee-4d44-8ef3-37d72db21942","ios":"levelo://app?vid=f867320b-b3ee-4d44-8ef3-37d72db21942"},"vehicle_type_id":"4","last_reported":1719248804,"current_range_meters":29600,"station_id":"","pricing_plan_id":"cebpf4jnsgd1na2vs0mg"},{"bike_id":"e84420b5-9ade-49c1-b80a-1a1ac329e123","system_id":"levelo_inurba_marseille","lat":43.30642,"lon":5.401031,"is_reserved":false,"is_disabled":false,"rental_uris":{"android":"levelo://app?vid=e84420b5-9ade-49c1-b80a-1a1ac329e123","ios":"levelo://app?vid=e84420b5-9ade-49c1-b80a-1a1ac329e123"},"vehicle_type_id":"4","last_reported":1719248804,"current_range_meters":26400,"station_id":"ce4bh112rcd13ifvqda0","pricing_plan_id":"cebpf4jnsgd1na2vs0mg"},{"bike_id":"b52c34c7-e382-4e15-bf2b-89c9853035fe","system_id":"levelo_inurba_marseille","lat":43.306412,"lon":5.401035,"is_reserved":false,"is_disabled":false,"rental_uris":{"android":"levelo://app?vid=b52c34c7-e382-4e15-bf2b-89c9853035fe","ios":"levelo://app?vid=b52c34c7-e382-4e15-bf2b-89c9853035fe"},"vehicle_type_id":"4","last_reported":1719248804,"current_range_meters":15600,"station_id":"ce4bh112rcd13ifvqda0","pricing_plan_id":"cebpf4jnsgd1na2vs0mg"},{"bike_id":"0c98ad98-176e-47da-9922-1117c4d38936","system_id":"levelo_inurba_marseille","lat":43.301117,"lon":5.398795,"is_reserved":false,"is_disabled":false,"rental_uris":{"android":"levelo://app?vid=0c98ad98-176e-47da-9922-1117c4d38936","ios":"levelo://app?vid=0c98ad98-176e-47da-9922-1117c4d38936"},"vehicle_type_id":"4","last_reported":1719248804,"current_range_meters":7600,"station_id":"ce4bh0h2rcd13ifvqd40","pricing_plan_id":"cebpf4jnsgd1na2vs0mg"},{"bike_id":"30234c8b-e6db-44e7-b258-ae0dd34fbb02","system_id":"levelo_inurba_marseille","lat":43.301117,"lon":5.398795,"is_reserved":false,"is_disabled":false,"rental_uris":{"android":"levelo://app?vid=30234c8b-e6db-44e7-b258-ae0dd34fbb02","ios":"levelo://app?vid=30234c8b-e6db-44e7-b258-ae0dd34fbb02"},"vehicle_type_id":"4","last_reported":1719248804,"current_range_meters":13200,"station_id":"ce4bh0h2rcd13ifvqd40","pricing_plan_id":"cebpf4jnsgd1na2vs0mg"},{"bike_id":"0a010eb9-b451-4755-b581-a82f88a4e565","system_id":"levelo_inurba_marseille","lat":43.301117,"lon":5.398795,"is_reserved":false,"is_disabled":false,"rental_uris":{"android":"levelo://app?vid=0a010eb9-b451-4755-b581-a82f88a4e565","ios":"levelo://app?vid=0a010eb9-b451-4755-b581-a82f88a4e565"},"vehicle_type_id":"4","last_reported":1719248804,"current_range_meters":31200,"station_id":"ce4bh0h2rcd13ifvqd40","pricing_plan_id":"cebpf4jnsgd1na2vs0mg"},{"bike_id":"e85224d9-0ed1-40e9-bfe5-fc4ef266a926","system_id":"levelo_inurba_marseille","lat":43.301117,"lon":5.398795,"is_reserved":false,"is_disabled":false,"rental_uris":{"android":"levelo://app?vid=e85224d9-0ed1-40e9-bfe5-fc4ef266a926","ios":"levelo://app?vid=e85224d9-0ed1-40e9-bfe5-fc4ef266a926"},"vehicle_type_id":"4","last_reported":1719248804,"current_range_meters":20800,"station_id":"ce4bh0h2rcd13ifvqd40","pricing_plan_id":"cebpf4jnsgd1na2vs0mg"},{"bike_id":"bdece3f1-fb84-47da-9e1d-ea2c804bdd0d","system_id":"levelo_inurba_marseille","lat":43.301117,"lon":5.398795,"is_reserved":false,"is_disabled":false,"rental_uris":{"android":"levelo://app?vid=bdece3f1-fb84-47da-9e1d-ea2c804bdd0d","ios":"levelo://app?vid=bdece3f1-fb84-47da-9e1d-ea2c804bdd0d"},"vehicle_type_id":"4","last_reported":1719248804,"current_range_meters":31200,"station_id":"ce4bh0h2rcd13ifvqd40","pricing_plan_id":"cebpf4jnsgd1na2vs0mg"},{"bike_id":"d5e7dbd3-206a-4208-a60a-8cc1628fbd76","system_id":"levelo_inurba_marseille","lat":43.30134,"lon":5.39873,"is_reserved":false,"is_disabled":false,"rental_uris":{"android":"levelo://app?vid=d5e7dbd3-206a-4208-a60a-8cc1628fbd76","ios":"levelo://app?vid=d5e7dbd3-206a-4208-a60a-8cc1628fbd76"},"vehicle_type_id":"4","last_reported":1719248804,"current_range_meters":30800,"station_id":"ce4bh0h2rcd13ifvqd40","pricing_plan_id":"cebpf4jnsgd1na2vs0mg"},{"bike_id":"b9488f3b-c98b-46c2-b4df-1fa3c5f6d180","system_id":"levelo_inurba_marseille","lat":43.301117,"lon":5.398795,"is_reserved":false,"is_disabled":false,"rental_uris":{"android":"levelo://app?vid=b9488f3b-c98b-46c2-b4df-1fa3c5f6d180","ios":"levelo://app?vid=b9488f3b-c98b-46c2-b4df-1fa3c5f6d180"},"vehicle_type_id":"4","last_reported":1719248804,"current_range_meters":30000,"station_id":"ce4bh0h2rcd13ifvqd40","pricing_plan_id":"cebpf4jnsgd1na2vs0mg"},{"bike_id":"59226458-140e-4cf9-bbb1-25d82db44e61","system_id":"levelo_inurba_marseille","lat":43.301225,"lon":5.39878,"is_reserved":false,"is_disabled":false,"rental_uris":{"android":"levelo://app?vid=59226458-140e-4cf9-bbb1-25d82db44e61","ios":"levelo://app?vid=59226458-140e-4cf9-bbb1-25d82db44e61"},"vehicle_type_id":"4","last_reported":1719248804,"current_range_meters":23200,"station_id":"ce4bh0h2rcd13ifvqd40","pricing_plan_id":"cebpf4jnsgd1na2vs0mg"},{"bike_id":"9b5413e4-dfdd-4481-9aac-656c9a2b4119","system_id":"levelo_inurba_marseille","lat":43.28727,"lon":5.36078,"is_reserved":false,"is_disabled":false,"rental_uris":{"android":"levelo://app?vid=9b5413e4-dfdd-4481-9aac-656c9a2b4119","ios":"levelo://app?vid=9b5413e4-dfdd-4481-9aac-656c9a2b4119"},"vehicle_type_id":"4","last_reported":1719248804,"current_range_meters":2400,"station_id":"cki0cbj6b192h4jlfktg","pricing_plan_id":"cebpf4jnsgd1na2vs0mg"},{"bike_id":"bf301b78-fbe5-4d02-9c06-73bce0d79a13","system_id":"levelo_inurba_marseille","lat":43.298681,"lon":5.397225,"is_reserved":false,"is_disabled":false,"rental_uris":{"android":"levelo://app?vid=bf301b78-fbe5-4d02-9c06-73bce0d79a13","ios":"levelo://app?vid=bf301b78-fbe5-4d02-9c06-73bce0d79a13"},"vehicle_type_id":"4","last_reported":1719248804,"current_range_meters":0,"station_id":"ce4bh0h2rcd13ifvqd50","pricing_plan_id":"cebpf4jnsgd1na2vs0mg"},{"bike_id":"04267254-a8a0-421e-bd8c-f9f691d6c1ae","system_id":"levelo_inurba_marseille","lat":43.286593,"lon":5.363346,"is_reserved":false,"is_disabled":false,"rental_uris":{"android":"levelo://app?vid=04267254-a8a0-421e-bd8c-f9f691d6c1ae","ios":"levelo://app?vid=04267254-a8a0-421e-bd8c-f9f691d6c1ae"},"vehicle_type_id":"4","last_reported":1719248804,"current_range_meters":11200,"station_id":"ce4bhah2rcd13ifvqej0","pricing_plan_id":"cebpf4jnsgd1na2vs0mg"},{"bike_id":"eb664ac6-516b-4a2c-b9fc-fe1cfbd084e2","system_id":"levelo_inurba_marseille","lat":43.286593,"lon":5.363346,"is_reserved":false,"is_disabled":false,"rental_uris":{"android":"levelo://app?vid=eb664ac6-516b-4a2c-b9fc-fe1cfbd084e2","ios":"levelo://app?vid=eb664ac6-516b-4a2c-b9fc-fe1cfbd084e2"},"vehicle_type_id":"4","last_reported":1719248804,"current_range_meters":6000,"station_id":"ce4bhah2rcd13ifvqej0","pricing_plan_id":"cebpf4jnsgd1na2vs0mg"},{"bike_id":"f593d171-5107-48a5-8fa3-3818cd93146e","system_id":"levelo_inurba_marseille","lat":43.286593,"lon":5.363346,"is_reserved":false,"is_disabled":false,"rental_uris":{"android":"levelo://app?vid=f593d171-5107-48a5-8fa3-3818cd93146e","ios":"levelo://app?vid=f593d171-5107-48a5-8fa3-3818cd93146e"},"vehicle_type_id":"4","last_reported":1719248804,"current_range_meters":18400,"station_id":"ce4bhah2rcd13ifvqej0","pricing_plan_id":"cebpf4jnsgd1na2vs0mg"},{"bike_id":"c6efe57a-f1d3-46f6-b185-1ca9b81aafd4","system_id":"levelo_inurba_marseille","lat":43.286591,"lon":5.363346,"is_reserved":false,"is_disabled":false,"rental_uris":{"android":"levelo://app?vid=c6efe57a-f1d3-46f6-b185-1ca9b81aafd4","ios":"levelo://app?vid=c6efe57a-f1d3-46f6-b185-1ca9b81aafd4"},"vehicle_type_id":"4","last_reported":1719248804,"current_range_meters":4400,"station_id":"ce4bhah2rcd13ifvqej0","pricing_plan_id":"cebpf4jnsgd1na2vs0mg"},{"bike_id":"7c527280-1e90-4e9e-822b-aeedcd953780","system_id":"levelo_inurba_marseille","lat":43.295196,"lon":5.39397,"is_reserved":false,"is_disabled":false,"rental_uris":{"android":"levelo://app?vid=7c527280-1e90-4e9e-822b-aeedcd953780","ios":"levelo://app?vid=7c527280-1e90-4e9e-822b-aeedcd953780"},"vehicle_type_id":"4","last_reported":1719248804,"current_range_meters":1600,"station_id":"ce4bh292rcd13ifvqdf0","pricing_plan_id":"cebpf4jnsgd1na2vs0mg"},{"bike_id":"c94cc0ee-a6d6-479d-9c11-804668ca99c5","system_id":"levelo_inurba_marseille","lat":43.295196,"lon":5.39397,"is_reserved":false,"is_disabled":false,"rental_uris":{"android":"levelo://app?vid=c94cc0ee-a6d6-479d-9c11-804668ca99c5","ios":"levelo://app?vid=c94cc0ee-a6d6-479d-9c11-804668ca99c5"},"vehicle_type_id":"4","last_reported":1719248804,"current_range_meters":23200,"station_id":"ce4bh292rcd13ifvqdf0","pricing_plan_id":"cebpf4jnsgd1na2vs0mg"},{"bike_id":"72d828cf-ffd0-42df-b996-324496a0c759","system_id":"levelo_inurba_marseille","lat":43.286591,"lon":5.363346,"is_reserved":false,"is_disabled":false,"rental_uris":{"android":"levelo://app?vid=72d828cf-ffd0-42df-b996-324496a0c759","ios":"levelo://app?vid=72d828cf-ffd0-42df-b996-324496a0c759"},"vehicle_type_id":"4","last_reported":1719248804,"current_range_meters":31600,"station_id":"ce4bhah2rcd13ifvqej0","pricing_plan_id":"cebpf4jnsgd1na2vs0mg"},{"bike_id":"97fcc97a-6944-4ea1-8d6c-504cbc4bb1f4","system_id":"levelo_inurba_marseille","lat":43.295196,"lon":5.39397,"is_reserved":false,"is_disabled":false,"rental_uris":{"android":"levelo://app?vid=97fcc97a-6944-4ea1-8d6c-504cbc4bb1f4","ios":"levelo://app?vid=97fcc97a-6944-4ea1-8d6c-504cbc4bb1f4"},"vehicle_type_id":"4","last_reported":1719248804,"current_range_meters":0,"station_id":"ce4bh292rcd13ifvqdf0","pricing_plan_id":"cebpf4jnsgd1na2vs0mg"},{"bike_id":"b3f1a675-d949-41f7-ad22-5cee657d9971","system_id":"levelo_inurba_marseille","lat":43.295196,"lon":5.39397,"is_reserved":false,"is_disabled":false,"rental_uris":{"android":"levelo://app?vid=b3f1a675-d949-41f7-ad22-5cee657d9971","ios":"levelo://app?vid=b3f1a675-d949-41f7-ad22-5cee657d9971"},"vehicle_type_id":"4","last_reported":1719248804,"current_range_meters":27600,"station_id":"ce4bh292rcd13ifvqdf0","pricing_plan_id":"cebpf4jnsgd1na2vs0mg"},{"bike_id":"73148208-ba40-4788-861a-243186fb7e23","system_id":"levelo_inurba_marseille","lat":43.295194,"lon":5.39397,"is_reserved":false,"is_disabled":false,"rental_uris":{"android":"levelo://app?vid=73148208-ba40-4788-861a-243186fb7e23","ios":"levelo://app?vid=73148208-ba40-4788-861a-243186fb7e23"},"vehicle_type_id":"4","last_reported":1719248804,"current_range_meters":5200,"station_id":"ce4bh292rcd13ifvqdf0","pricing_plan_id":"cebpf4jnsgd1na2vs0mg"},{"bike_id":"d4db08d3-c540-4f05-bca4-7743bde084ca","system_id":"levelo_inurba_marseille","lat":43.290345,"lon":5.38646,"is_reserved":false,"is_disabled":false,"rental_uris":{"android":"levelo://app?vid=d4db08d3-c540-4f05-bca4-7743bde084ca","ios":"levelo://app?vid=d4db08d3-c540-4f05-bca4-7743bde084ca"},"vehicle_type_id":"4","last_reported":1719248804,"current_range_meters":28400,"station_id":"ce4bh4p2rcd13ifvqe0g","pricing_plan_id":"cebpf4jnsgd1na2vs0mg"},{"bike_id":"38ffb039-b0d9-425b-b53e-7ff4e1e804d9","system_id":"levelo_inurba_marseille","lat":43.28685,"lon":5.37406,"is_reserved":false,"is_disabled":false,"rental_uris":{"android":"levelo://app?vid=38ffb039-b0d9-425b-b53e-7ff4e1e804d9","ios":"levelo://app?vid=38ffb039-b0d9-425b-b53e-7ff4e1e804d9"},"vehicle_type_id":"4","last_reported":1719248804,"current_range_meters":5600,"station_id":"ce4bh3p2rcd13ifvqdq0","pricing_plan_id":"cebpf4jnsgd1na2vs0mg"},{"bike_id":"250802b1-26ba-45c6-b8f4-568a981ad926","system_id":"levelo_inurba_marseille","lat":43.290345,"lon":5.38646,"is_reserved":false,"is_disabled":false,"rental_uris":{"android":"levelo://app?vid=250802b1-26ba-45c6-b8f4-568a981ad926","ios":"levelo://app?vid=250802b1-26ba-45c6-b8f4-568a981ad926"},"vehicle_type_id":"4","last_reported":1719248804,"current_range_meters":0,"station_id":"ce4bh4p2rcd13ifvqe0g","pricing_plan_id":"cebpf4jnsgd1na2vs0mg"},{"bike_id":"2bb98cec-8492-4bc0-bcb7-97a2094cb7d0","system_id":"levelo_inurba_marseille","lat":43.295194,"lon":5.39397,"is_reserved":false,"is_disabled":false,"rental_uris":{"android":"levelo://app?vid=2bb98cec-8492-4bc0-bcb7-97a2094cb7d0","ios":"levelo://app?vid=2bb98cec-8492-4bc0-bcb7-97a2094cb7d0"},"vehicle_type_id":"4","last_reported":1719248804,"current_range_meters":4000,"station_id":"ce4bh292rcd13ifvqdf0","pricing_plan_id":"cebpf4jnsgd1na2vs0mg"},{"bike_id":"e46dccf8-bfc6-4e76-8cf3-0cf6fd660216","system_id":"levelo_inurba_marseille","lat":43.290345,"lon":5.38646,"is_reserved":false,"is_disabled":false,"rental_uris":{"android":"levelo://app?vid=e46dccf8-bfc6-4e76-8cf3-0cf6fd660216","ios":"levelo://app?vid=e46dccf8-bfc6-4e76-8cf3-0cf6fd660216"},"vehicle_type_id":"4","last_reported":1719248804,"current_range_meters":2800,"station_id":"ce4bh4p2rcd13ifvqe0g","pricing_plan_id":"cebpf4jnsgd1na2vs0mg"},{"bike_id":"3b9607cf-e1fa-4ea7-b487-b463ffd79cca","system_id":"levelo_inurba_marseille","lat":43.295194,"lon":5.39397,"is_reserved":false,"is_disabled":false,"rental_uris":{"android":"levelo://app?vid=3b9607cf-e1fa-4ea7-b487-b463ffd79cca","ios":"levelo://app?vid=3b9607cf-e1fa-4ea7-b487-b463ffd79cca"},"vehicle_type_id":"4","last_reported":1719248804,"current_range_meters":0,"station_id":"ce4bh292rcd13ifvqdf0","pricing_plan_id":"cebpf4jnsgd1na2vs0mg"},{"bike_id":"17e1b724-2eb8-4de7-a5d2-317f009c105b","system_id":"levelo_inurba_marseille","lat":43.28928,"lon":5.3839,"is_reserved":false,"is_disabled":false,"rental_uris":{"android":"levelo://app?vid=17e1b724-2eb8-4de7-a5d2-317f009c105b","ios":"levelo://app?vid=17e1b724-2eb8-4de7-a5d2-317f009c105b"},"vehicle_type_id":"4","last_reported":1719248804,"current_range_meters":14800,"station_id":"ce4bh612rcd13ifvqe6g","pricing_plan_id":"cebpf4jnsgd1na2vs0mg"},{"bike_id":"fa7f57a9-dfd8-4708-9c50-7bf1c8357cf7","system_id":"levelo_inurba_marseille","lat":43.290345,"lon":5.38646,"is_reserved":false,"is_disabled":false,"rental_uris":{"android":"levelo://app?vid=fa7f57a9-dfd8-4708-9c50-7bf1c8357cf7","ios":"levelo://app?vid=fa7f57a9-dfd8-4708-9c50-7bf1c8357cf7"},"vehicle_type_id":"4","last_reported":1719248804,"current_range_meters":31200,"station_id":"ce4bh4p2rcd13ifvqe0g","pricing_plan_id":"cebpf4jnsgd1na2vs0mg"},{"bike_id":"093b6675-cd30-4dc3-a114-1f8c390f1676","system_id":"levelo_inurba_marseille","lat":43.290345,"lon":5.38646,"is_reserved":false,"is_disabled":false,"rental_uris":{"android":"levelo://app?vid=093b6675-cd30-4dc3-a114-1f8c390f1676","ios":"levelo://app?vid=093b6675-cd30-4dc3-a114-1f8c390f1676"},"vehicle_type_id":"4","last_reported":1719248804,"current_range_meters":24400,"station_id":"ce4bh4p2rcd13ifvqe0g","pricing_plan_id":"cebpf4jnsgd1na2vs0mg"},{"bike_id":"570e6e5a-1ce7-4041-81c6-495204af5c35","system_id":"levelo_inurba_marseille","lat":43.28925,"lon":5.38394,"is_reserved":false,"is_disabled":false,"rental_uris":{"android":"levelo://app?vid=570e6e5a-1ce7-4041-81c6-495204af5c35","ios":"levelo://app?vid=570e6e5a-1ce7-4041-81c6-495204af5c35"},"vehicle_type_id":"4","last_reported":1719248804,"current_range_meters":0,"station_id":"ce4bh612rcd13ifvqe6g","pricing_plan_id":"cebpf4jnsgd1na2vs0mg"},{"bike_id":"c9366e58-6bda-4815-a01f-e8adc458d2bc","system_id":"levelo_inurba_marseille","lat":43.290336,"lon":5.386425,"is_reserved":false,"is_disabled":false,"rental_uris":{"android":"levelo://app?vid=c9366e58-6bda-4815-a01f-e8adc458d2bc","ios":"levelo://app?vid=c9366e58-6bda-4815-a01f-e8adc458d2bc"},"vehicle_type_id":"4","last_reported":1719248804,"current_range_meters":0,"station_id":"ce4bh4p2rcd13ifvqe0g","pricing_plan_id":"cebpf4jnsgd1na2vs0mg"},{"bike_id":"9ebfca34-693f-4065-be77-f71b429c343d","system_id":"levelo_inurba_marseille","lat":43.290336,"lon":5.386425,"is_reserved":false,"is_disabled":false,"rental_uris":{"android":"levelo://app?vid=9ebfca34-693f-4065-be77-f71b429c343d","ios":"levelo://app?vid=9ebfca34-693f-4065-be77-f71b429c343d"},"vehicle_type_id":"4","last_reported":1719248804,"current_range_meters":18400,"station_id":"ce4bh4p2rcd13ifvqe0g","pricing_plan_id":"cebpf4jnsgd1na2vs0mg"},{"bike_id":"1b02ea54-512a-4b1a-b819-6b6d12d35f88","system_id":"levelo_inurba_marseille","lat":43.290336,"lon":5.386425,"is_reserved":false,"is_disabled":false,"rental_uris":{"android":"levelo://app?vid=1b02ea54-512a-4b1a-b819-6b6d12d35f88","ios":"levelo://app?vid=1b02ea54-512a-4b1a-b819-6b6d12d35f88"},"vehicle_type_id":"4","last_reported":1719248804,"current_range_meters":12400,"station_id":"ce4bh4p2rcd13ifvqe0g","pricing_plan_id":"cebpf4jnsgd1na2vs0mg"},{"bike_id":"d0369f0d-62a8-40f3-9759-bba7c974549f","system_id":"levelo_inurba_marseille","lat":43.302759,"lon":5.400793,"is_reserved":false,"is_disabled":false,"rental_uris":{"android":"levelo://app?vid=d0369f0d-62a8-40f3-9759-bba7c974549f","ios":"levelo://app?vid=d0369f0d-62a8-40f3-9759-bba7c974549f"},"vehicle_type_id":"4","last_reported":1719248804,"current_range_meters":400,"station_id":"ce4bgvh2rcd13ifvqcs0","pricing_plan_id":"cebpf4jnsgd1na2vs0mg"},{"bike_id":"240d8205-cf63-4200-b198-e4e28e4e7aa7","system_id":"levelo_inurba_marseille","lat":43.302759,"lon":5.400793,"is_reserved":false,"is_disabled":false,"rental_uris":{"android":"levelo://app?vid=240d8205-cf63-4200-b198-e4e28e4e7aa7","ios":"levelo://app?vid=240d8205-cf63-4200-b198-e4e28e4e7aa7"},"vehicle_type_id":"4","last_reported":1719248804,"current_range_meters":9600,"station_id":"ce4bgvh2rcd13ifvqcs0","pricing_plan_id":"cebpf4jnsgd1na2vs0mg"},{"bike_id":"8ca8b6e9-3d4e-420f-a7a4-957561ebf898","system_id":"levelo_inurba_marseille","lat":43.287184,"lon":5.37937,"is_reserved":false,"is_disabled":false,"rental_uris":{"android":"levelo://app?vid=8ca8b6e9-3d4e-420f-a7a4-957561ebf898","ios":"levelo://app?vid=8ca8b6e9-3d4e-420f-a7a4-957561ebf898"},"vehicle_type_id":"4","last_reported":1719248804,"current_range_meters":12000,"station_id":"ce4bh9p2rcd13ifvqec0","pricing_plan_id":"cebpf4jnsgd1na2vs0mg"},{"bike_id":"90ec0e2b-9280-49f0-93cc-42dea251d05b","system_id":"levelo_inurba_marseille","lat":43.287184,"lon":5.37937,"is_reserved":false,"is_disabled":false,"rental_uris":{"android":"levelo://app?vid=90ec0e2b-9280-49f0-93cc-42dea251d05b","ios":"levelo://app?vid=90ec0e2b-9280-49f0-93cc-42dea251d05b"},"vehicle_type_id":"4","last_reported":1719248804,"current_range_meters":4800,"station_id":"ce4bh9p2rcd13ifvqec0","pricing_plan_id":"cebpf4jnsgd1na2vs0mg"},{"bike_id":"c5d079e1-4d8e-48b0-bdca-aff8677a8420","system_id":"levelo_inurba_marseille","lat":43.287184,"lon":5.37937,"is_reserved":false,"is_disabled":false,"rental_uris":{"android":"levelo://app?vid=c5d079e1-4d8e-48b0-bdca-aff8677a8420","ios":"levelo://app?vid=c5d079e1-4d8e-48b0-bdca-aff8677a8420"},"vehicle_type_id":"4","last_reported":1719248804,"current_range_meters":31200,"station_id":"ce4bh9p2rcd13ifvqec0","pricing_plan_id":"cebpf4jnsgd1na2vs0mg"},{"bike_id":"e16fa821-102a-42e2-8887-050e8127f926","system_id":"levelo_inurba_marseille","lat":43.287185,"lon":5.379373,"is_reserved":false,"is_disabled":false,"rental_uris":{"android":"levelo://app?vid=e16fa821-102a-42e2-8887-050e8127f926","ios":"levelo://app?vid=e16fa821-102a-42e2-8887-050e8127f926"},"vehicle_type_id":"4","last_reported":1719248804,"current_range_meters":6400,"station_id":"ce4bh9p2rcd13ifvqec0","pricing_plan_id":"cebpf4jnsgd1na2vs0mg"},{"bike_id":"40242ff3-6ac7-4e62-b5e9-37605293431c","system_id":"levelo_inurba_marseille","lat":43.287184,"lon":5.37937,"is_reserved":false,"is_disabled":false,"rental_uris":{"android":"levelo://app?vid=40242ff3-6ac7-4e62-b5e9-37605293431c","ios":"levelo://app?vid=40242ff3-6ac7-4e62-b5e9-37605293431c"},"vehicle_type_id":"4","last_reported":1719248804,"current_range_meters":2800,"station_id":"ce4bh9p2rcd13ifvqec0","pricing_plan_id":"cebpf4jnsgd1na2vs0mg"},{"bike_id":"8056fe12-f90d-45ec-afe2-803b55292763","system_id":"levelo_inurba_marseille","lat":43.287185,"lon":5.379373,"is_reserved":false,"is_disabled":false,"rental_uris":{"android":"levelo://app?vid=8056fe12-f90d-45ec-afe2-803b55292763","ios":"levelo://app?vid=8056fe12-f90d-45ec-afe2-803b55292763"},"vehicle_type_id":"4","last_reported":1719248804,"current_range_meters":9200,"station_id":"ce4bh9p2rcd13ifvqec0","pricing_plan_id":"cebpf4jnsgd1na2vs0mg"},{"bike_id":"946243c0-0759-488f-9e77-7e43683f550a","system_id":"levelo_inurba_marseille","lat":43.287185,"lon":5.379373,"is_reserved":false,"is_disabled":false,"rental_uris":{"android":"levelo://app?vid=946243c0-0759-488f-9e77-7e43683f550a","ios":"levelo://app?vid=946243c0-0759-488f-9e77-7e43683f550a"},"vehicle_type_id":"4","last_reported":1719248804,"current_range_meters":28400,"station_id":"ce4bh9p2rcd13ifvqec0","pricing_plan_id":"cebpf4jnsgd1na2vs0mg"},{"bike_id":"3a6f0360-8021-4932-9fb7-2821cfbe0e70","system_id":"levelo_inurba_marseille","lat":43.31687,"lon":5.40476,"is_reserved":false,"is_disabled":false,"rental_uris":{"android":"levelo://app?vid=3a6f0360-8021-4932-9fb7-2821cfbe0e70","ios":"levelo://app?vid=3a6f0360-8021-4932-9fb7-2821cfbe0e70"},"vehicle_type_id":"4","last_reported":1719248804,"current_range_meters":0,"station_id":"ce4bh012rcd13ifvqd00","pricing_plan_id":"cebpf4jnsgd1na2vs0mg"},{"bike_id":"bdf7b204-8901-495a-a921-8b79b2c9b922","system_id":"levelo_inurba_marseille","lat":43.2891,"lon":5.38752,"is_reserved":false,"is_disabled":false,"rental_uris":{"android":"levelo://app?vid=bdf7b204-8901-495a-a921-8b79b2c9b922","ios":"levelo://app?vid=bdf7b204-8901-495a-a921-8b79b2c9b922"},"vehicle_type_id":"4","last_reported":1719248804,"current_range_meters":0,"station_id":"","pricing_plan_id":"cebpf4jnsgd1na2vs0mg"},{"bike_id":"105a5313-1d23-42c8-ab42-87d00c77e700","system_id":"levelo_inurba_marseille","lat":43.291994,"lon":5.392907,"is_reserved":false,"is_disabled":false,"rental_uris":{"android":"levelo://app?vid=105a5313-1d23-42c8-ab42-87d00c77e700","ios":"levelo://app?vid=105a5313-1d23-42c8-ab42-87d00c77e700"},"vehicle_type_id":"4","last_reported":1719248804,"current_range_meters":2400,"station_id":"ce4bh192rcd13ifvqdd0","pricing_plan_id":"cebpf4jnsgd1na2vs0mg"},{"bike_id":"6aa15703-024e-4785-9290-da9eb04cd367","system_id":"levelo_inurba_marseille","lat":43.291994,"lon":5.392907,"is_reserved":false,"is_disabled":false,"rental_uris":{"android":"levelo://app?vid=6aa15703-024e-4785-9290-da9eb04cd367","ios":"levelo://app?vid=6aa15703-024e-4785-9290-da9eb04cd367"},"vehicle_type_id":"4","last_reported":1719248804,"current_range_meters":12000,"station_id":"ce4bh192rcd13ifvqdd0","pricing_plan_id":"cebpf4jnsgd1na2vs0mg"},{"bike_id":"6a8a06b4-fbe0-4a13-ba83-3320d723a516","system_id":"levelo_inurba_marseille","lat":43.29193,"lon":5.39329,"is_reserved":false,"is_disabled":false,"rental_uris":{"android":"levelo://app?vid=6a8a06b4-fbe0-4a13-ba83-3320d723a516","ios":"levelo://app?vid=6a8a06b4-fbe0-4a13-ba83-3320d723a516"},"vehicle_type_id":"4","last_reported":1719248804,"current_range_meters":0,"station_id":"ce4bh192rcd13ifvqdd0","pricing_plan_id":"cebpf4jnsgd1na2vs0mg"},{"bike_id":"862e5bd8-cc1c-459f-812f-7de5d9e039b9","system_id":"levelo_inurba_marseille","lat":43.291994,"lon":5.392907,"is_reserved":false,"is_disabled":false,"rental_uris":{"android":"levelo://app?vid=862e5bd8-cc1c-459f-812f-7de5d9e039b9","ios":"levelo://app?vid=862e5bd8-cc1c-459f-812f-7de5d9e039b9"},"vehicle_type_id":"4","last_reported":1719248804,"current_range_meters":20400,"station_id":"ce4bh192rcd13ifvqdd0","pricing_plan_id":"cebpf4jnsgd1na2vs0mg"},{"bike_id":"e6780eaf-6a7d-453f-a2aa-68ba723f7a4a","system_id":"levelo_inurba_marseille","lat":43.284538,"lon":5.358657,"is_reserved":false,"is_disabled":false,"rental_uris":{"android":"levelo://app?vid=e6780eaf-6a7d-453f-a2aa-68ba723f7a4a","ios":"levelo://app?vid=e6780eaf-6a7d-453f-a2aa-68ba723f7a4a"},"vehicle_type_id":"4","last_reported":1719248804,"current_range_meters":31200,"station_id":"ce4bhah2rcd13ifvqei0","pricing_plan_id":"cebpf4jnsgd1na2vs0mg"},{"bike_id":"da392363-e2c7-494b-8b5e-59133d1960d8","system_id":"levelo_inurba_marseille","lat":43.284538,"lon":5.358657,"is_reserved":false,"is_disabled":false,"rental_uris":{"android":"levelo://app?vid=da392363-e2c7-494b-8b5e-59133d1960d8","ios":"levelo://app?vid=da392363-e2c7-494b-8b5e-59133d1960d8"},"vehicle_type_id":"4","last_reported":1719248804,"current_range_meters":31200,"station_id":"ce4bhah2rcd13ifvqei0","pricing_plan_id":"cebpf4jnsgd1na2vs0mg"},{"bike_id":"e7244214-4d17-4478-8b93-7cc9483832b6","system_id":"levelo_inurba_marseille","lat":43.284538,"lon":5.358657,"is_reserved":false,"is_disabled":false,"rental_uris":{"android":"levelo://app?vid=e7244214-4d17-4478-8b93-7cc9483832b6","ios":"levelo://app?vid=e7244214-4d17-4478-8b93-7cc9483832b6"},"vehicle_type_id":"4","last_reported":1719248804,"current_range_meters":6400,"station_id":"ce4bhah2rcd13ifvqei0","pricing_plan_id":"cebpf4jnsgd1na2vs0mg"},{"bike_id":"c7b4453a-9621-47c7-97ab-0d38ae16c5f9","system_id":"levelo_inurba_marseille","lat":43.284538,"lon":5.358657,"is_reserved":false,"is_disabled":false,"rental_uris":{"android":"levelo://app?vid=c7b4453a-9621-47c7-97ab-0d38ae16c5f9","ios":"levelo://app?vid=c7b4453a-9621-47c7-97ab-0d38ae16c5f9"},"vehicle_type_id":"4","last_reported":1719248804,"current_range_meters":20800,"station_id":"ce4bhah2rcd13ifvqei0","pricing_plan_id":"cebpf4jnsgd1na2vs0mg"},{"bike_id":"ceaf7b3b-1357-4c72-9cdc-1dfb4e32ba15","system_id":"levelo_inurba_marseille","lat":43.284538,"lon":5.358657,"is_reserved":false,"is_disabled":false,"rental_uris":{"android":"levelo://app?vid=ceaf7b3b-1357-4c72-9cdc-1dfb4e32ba15","ios":"levelo://app?vid=ceaf7b3b-1357-4c72-9cdc-1dfb4e32ba15"},"vehicle_type_id":"4","last_reported":1719248804,"current_range_meters":14000,"station_id":"ce4bhah2rcd13ifvqei0","pricing_plan_id":"cebpf4jnsgd1na2vs0mg"},{"bike_id":"687336b1-e2e1-4935-9668-c5874a58d296","system_id":"levelo_inurba_marseille","lat":43.294314,"lon":5.397498,"is_reserved":false,"is_disabled":false,"rental_uris":{"android":"levelo://app?vid=687336b1-e2e1-4935-9668-c5874a58d296","ios":"levelo://app?vid=687336b1-e2e1-4935-9668-c5874a58d296"},"vehicle_type_id":"4","last_reported":1719248804,"current_range_meters":0,"station_id":"ce4bh3h2rcd13ifvqdo0","pricing_plan_id":"cebpf4jnsgd1na2vs0mg"},{"bike_id":"10726f1a-af29-4106-8edb-079ea4f769d2","system_id":"levelo_inurba_marseille","lat":43.294314,"lon":5.397498,"is_reserved":false,"is_disabled":false,"rental_uris":{"android":"levelo://app?vid=10726f1a-af29-4106-8edb-079ea4f769d2","ios":"levelo://app?vid=10726f1a-af29-4106-8edb-079ea4f769d2"},"vehicle_type_id":"4","last_reported":1719248804,"current_range_meters":26400,"station_id":"ce4bh3h2rcd13ifvqdo0","pricing_plan_id":"cebpf4jnsgd1na2vs0mg"},{"bike_id":"051bcd94-7811-4754-a0b0-7d58227626a4","system_id":"levelo_inurba_marseille","lat":43.294314,"lon":5.397498,"is_reserved":false,"is_disabled":false,"rental_uris":{"android":"levelo://app?vid=051bcd94-7811-4754-a0b0-7d58227626a4","ios":"levelo://app?vid=051bcd94-7811-4754-a0b0-7d58227626a4"},"vehicle_type_id":"4","last_reported":1719248804,"current_range_meters":1200,"station_id":"ce4bh3h2rcd13ifvqdo0","pricing_plan_id":"cebpf4jnsgd1na2vs0mg"},{"bike_id":"3b3fed59-482a-48cd-aaf5-bb6cd39f98ad","system_id":"levelo_inurba_marseille","lat":43.285848,"lon":5.350787,"is_reserved":false,"is_disabled":false,"rental_uris":{"android":"levelo://app?vid=3b3fed59-482a-48cd-aaf5-bb6cd39f98ad","ios":"levelo://app?vid=3b3fed59-482a-48cd-aaf5-bb6cd39f98ad"},"vehicle_type_id":"4","last_reported":1719248804,"current_range_meters":21600,"station_id":"ce4bhch2rcd13ifvqeug","pricing_plan_id":"cebpf4jnsgd1na2vs0mg"},{"bike_id":"af2de595-64f5-41ca-9ee1-50e4d9e3bcb2","system_id":"levelo_inurba_marseille","lat":43.283998,"lon":5.375062,"is_reserved":false,"is_disabled":false,"rental_uris":{"android":"levelo://app?vid=af2de595-64f5-41ca-9ee1-50e4d9e3bcb2","ios":"levelo://app?vid=af2de595-64f5-41ca-9ee1-50e4d9e3bcb2"},"vehicle_type_id":"4","last_reported":1719248804,"current_range_meters":0,"station_id":"ce4bh412rcd13ifvqds0","pricing_plan_id":"cebpf4jnsgd1na2vs0mg"},{"bike_id":"2b2ecb77-8752-490b-bb37-d5340b3267eb","system_id":"levelo_inurba_marseille","lat":43.283998,"lon":5.375062,"is_reserved":false,"is_disabled":false,"rental_uris":{"android":"levelo://app?vid=2b2ecb77-8752-490b-bb37-d5340b3267eb","ios":"levelo://app?vid=2b2ecb77-8752-490b-bb37-d5340b3267eb"},"vehicle_type_id":"4","last_reported":1719248804,"current_range_meters":10000,"station_id":"ce4bh412rcd13ifvqds0","pricing_plan_id":"cebpf4jnsgd1na2vs0mg"},{"bike_id":"aac834dd-a180-463f-9d45-c64c580a1373","system_id":"levelo_inurba_marseille","lat":43.286595,"lon":5.386795,"is_reserved":false,"is_disabled":false,"rental_uris":{"android":"levelo://app?vid=aac834dd-a180-463f-9d45-c64c580a1373","ios":"levelo://app?vid=aac834dd-a180-463f-9d45-c64c580a1373"},"vehicle_type_id":"4","last_reported":1719248804,"current_range_meters":31200,"station_id":"ce4bh492rcd13ifvqdug","pricing_plan_id":"cebpf4jnsgd1na2vs0mg"},{"bike_id":"c484d2e3-6176-4d84-aef9-51febc3affde","system_id":"levelo_inurba_marseille","lat":43.286595,"lon":5.386795,"is_reserved":false,"is_disabled":false,"rental_uris":{"android":"levelo://app?vid=c484d2e3-6176-4d84-aef9-51febc3affde","ios":"levelo://app?vid=c484d2e3-6176-4d84-aef9-51febc3affde"},"vehicle_type_id":"4","last_reported":1719248804,"current_range_meters":27200,"station_id":"ce4bh492rcd13ifvqdug","pricing_plan_id":"cebpf4jnsgd1na2vs0mg"},{"bike_id":"60e574b9-b2d6-4bc8-ab62-bc40dbf7e240","system_id":"levelo_inurba_marseille","lat":43.28655,"lon":5.38667,"is_reserved":false,"is_disabled":false,"rental_uris":{"android":"levelo://app?vid=60e574b9-b2d6-4bc8-ab62-bc40dbf7e240","ios":"levelo://app?vid=60e574b9-b2d6-4bc8-ab62-bc40dbf7e240"},"vehicle_type_id":"4","last_reported":1719248804,"current_range_meters":8800,"station_id":"ce4bh492rcd13ifvqdug","pricing_plan_id":"cebpf4jnsgd1na2vs0mg"},{"bike_id":"dbea5a46-05be-4669-a2f6-077fe8dddeb8","system_id":"levelo_inurba_marseille","lat":43.28652,"lon":5.38672,"is_reserved":false,"is_disabled":false,"rental_uris":{"android":"levelo://app?vid=dbea5a46-05be-4669-a2f6-077fe8dddeb8","ios":"levelo://app?vid=dbea5a46-05be-4669-a2f6-077fe8dddeb8"},"vehicle_type_id":"4","last_reported":1719248804,"current_range_meters":3600,"station_id":"ce4bh492rcd13ifvqdug","pricing_plan_id":"cebpf4jnsgd1na2vs0mg"},{"bike_id":"d5093a4c-ade2-4f32-a6bc-d50361fe6cac","system_id":"levelo_inurba_marseille","lat":43.319179,"lon":5.407725,"is_reserved":false,"is_disabled":false,"rental_uris":{"android":"levelo://app?vid=d5093a4c-ade2-4f32-a6bc-d50361fe6cac","ios":"levelo://app?vid=d5093a4c-ade2-4f32-a6bc-d50361fe6cac"},"vehicle_type_id":"4","last_reported":1719248804,"current_range_meters":4400,"station_id":"ce4bhq12rcd13ifvqhig","pricing_plan_id":"cebpf4jnsgd1na2vs0mg"},{"bike_id":"a6152a66-c951-47fe-9814-30e84cd80cea","system_id":"levelo_inurba_marseille","lat":43.319179,"lon":5.407725,"is_reserved":false,"is_disabled":false,"rental_uris":{"android":"levelo://app?vid=a6152a66-c951-47fe-9814-30e84cd80cea","ios":"levelo://app?vid=a6152a66-c951-47fe-9814-30e84cd80cea"},"vehicle_type_id":"4","last_reported":1719248804,"current_range_meters":800,"station_id":"ce4bhq12rcd13ifvqhig","pricing_plan_id":"cebpf4jnsgd1na2vs0mg"},{"bike_id":"46e52a50-23b1-462f-b407-90e1583aa20d","system_id":"levelo_inurba_marseille","lat":43.28717,"lon":5.38876,"is_reserved":false,"is_disabled":false,"rental_uris":{"android":"levelo://app?vid=46e52a50-23b1-462f-b407-90e1583aa20d","ios":"levelo://app?vid=46e52a50-23b1-462f-b407-90e1583aa20d"},"vehicle_type_id":"4","last_reported":1719248804,"current_range_meters":15200,"station_id":"","pricing_plan_id":"cebpf4jnsgd1na2vs0mg"},{"bike_id":"4c9459ed-2b20-4b52-8694-936af481bbe0","system_id":"levelo_inurba_marseille","lat":43.323464,"lon":5.406297,"is_reserved":false,"is_disabled":false,"rental_uris":{"android":"levelo://app?vid=4c9459ed-2b20-4b52-8694-936af481bbe0","ios":"levelo://app?vid=4c9459ed-2b20-4b52-8694-936af481bbe0"},"vehicle_type_id":"4","last_reported":1719248804,"current_range_meters":29200,"station_id":"ce4bhq92rcd13ifvqhjg","pricing_plan_id":"cebpf4jnsgd1na2vs0mg"},{"bike_id":"a19e7bb1-ff3c-4d5b-9f9a-a2342f0257ce","system_id":"levelo_inurba_marseille","lat":43.284864,"lon":5.384158,"is_reserved":false,"is_disabled":false,"rental_uris":{"android":"levelo://app?vid=a19e7bb1-ff3c-4d5b-9f9a-a2342f0257ce","ios":"levelo://app?vid=a19e7bb1-ff3c-4d5b-9f9a-a2342f0257ce"},