{"last_updated":1751127103,"ttl":60,"version":"2.2","data":{"bikes":[{"bike_id":"3da29fb8-fc97-44c6-b9ac-31dd456b2fd4","system_id":"levelo_inurba_marseille","lat":43.33771,"lon":5.37424,"is_reserved":false,"is_disabled":true,"rental_uris":{"android":"levelo://app?vid=3da29fb8-fc97-44c6-b9ac-31dd456b2fd4","ios":"levelo://app?vid=3da29fb8-fc97-44c6-b9ac-31dd456b2fd4"},"vehicle_type_id":"4","last_reported":1751127104,"current_range_meters":0,"station_id":"","pricing_plan_id":"cebpf4jnsgd1na2vs0mg"},{"bike_id":"01861ad8-a8d7-4be6-816e-651927c87584","system_id":"levelo_inurba_marseille","lat":43.33751,"lon":5.37456,"is_reserved":false,"is_disabled":true,"rental_uris":{"android":"levelo://app?vid=01861ad8-a8d7-4be6-816e-651927c87584","ios":"levelo://app?vid=01861ad8-a8d7-4be6-816e-651927c87584"},"vehicle_type_id":"4","last_reported":1751127104,"current_range_meters":0,"station_id":"","pricing_plan_id":"cebpf4jnsgd1na2vs0mg"},{"bike_id":"e9a7f2ce-f5b2-41e5-b572-5533013492a4","system_id":"levelo_inurba_marseille","lat":43.337444,"lon":5.374475,"is_reserved":false,"is_disabled":true,"rental_uris":{"android":"levelo://app?vid=e9a7f2ce-f5b2-41e5-b572-5533013492a4","ios":"levelo://app?vid=e9a7f2ce-f5b2-41e5-b572-5533013492a4"},"vehicle_type_id":"4","last_reported":1751127104,"current_range_meters":0,"station_id":"","pricing_plan_id":"cebpf4jnsgd1na2vs0mg"},{"bike_id":"666ef40e-8142-4330-a1bf-355f72ca0910","system_id":"levelo_inurba_marseille","lat":43.26339,"lon":5.40119,"is_reserved":false,"is_disabled":true,"rental_uris":{"android":"levelo://app?vid=666ef40e-8142-4330-a1bf-355f72ca0910","ios":"levelo://app?vid=666ef40e-8142-4330-a1bf-355f72ca0910"},"vehicle_type_id":"4","last_reported":1751127104,"current_range_meters":0,"station_id":"","pricing_plan_id":"cebpf4jnsgd1na2vs0mg"},{"bike_id":"3455d39c-f493-4462-bab9-90bc9cb17f0a","system_id":"levelo_inurba_marseille","lat":43.29372,"lon":5.37849,"is_reserved":false,"is_disabled":true,"rental_uris":{"android":"levelo://app?vid=3455d39c-f493-4462-bab9-90bc9cb17f0a","ios":"levelo://app?vid=3455d39c-f493-4462-bab9-90bc9cb17f0a"},"vehicle_type_id":"4","last_reported":1751127104,"current_range_meters":0,"station_id":"ce4bgjh2rcd13ifvqbf0","pricing_plan_id":"cebpf4jnsgd1na2vs0mg"},{"bike_id":"0ef1c4f0-cdeb-4089-bfad-ee5047a55eb7","system_id":"levelo_inurba_marseille","lat":43.29261,"lon":5.40902,"is_reserved":false,"is_disabled":true,"rental_uris":{"android":"levelo://app?vid=0ef1c4f0-cdeb-4089-bfad-ee5047a55eb7","ios":"levelo://app?vid=0ef1c4f0-cdeb-4089-bfad-ee5047a55eb7"},"vehicle_type_id":"4","last_reported":1751127104,"current_range_meters":0,"station_id":"ce4bh192rcd13ifvqdc0","pricing_plan_id":"cebpf4jnsgd1na2vs0mg"},{"bike_id":"cd813e7b-d0e0-4465-a605-9bc8c2cb1769","system_id":"levelo_inurba_marseille","lat":43.27379,"lon":5.36256,"is_reserved":false,"is_disabled":true,"rental_uris":{"android":"levelo://app?vid=cd813e7b-d0e0-4465-a605-9bc8c2cb1769","ios":"levelo://app?vid=cd813e7b-d0e0-4465-a605-9bc8c2cb1769"},"vehicle_type_id":"4","last_reported":1751127104,"current_range_meters":0,"station_id":"ce4bhbh2rcd13ifvqeo0","pricing_plan_id":"cebpf4jnsgd1na2vs0mg"},{"bike_id":"ed075fb9-116c-4d02-aad9-a9453084dfac","system_id":"levelo_inurba_marseille","lat":43.29274,"lon":5.36845,"is_reserved":false,"is_disabled":true,"rental_uris":{"android":"levelo://app?vid=ed075fb9-116c-4d02-aad9-a9453084dfac","ios":"levelo://app?vid=ed075fb9-116c-4d02-aad9-a9453084dfac"},"vehicle_type_id":"4","last_reported":1751127104,"current_range_meters":0,"station_id":"ce4bhbp2rcd13ifvqesg","pricing_plan_id":"cebpf4jnsgd1na2vs0mg"},{"bike_id":"7c94c9b3-e2d9-4a0f-84f0-cbc755d9ef90","system_id":"levelo_inurba_marseille","lat":43.26213,"lon":5.37441,"is_reserved":false,"is_disabled":true,"rental_uris":{"android":"levelo://app?vid=7c94c9b3-e2d9-4a0f-84f0-cbc755d9ef90","ios":"levelo://app?vid=7c94c9b3-e2d9-4a0f-84f0-cbc755d9ef90"},"vehicle_type_id":"4","last_reported":1751127104,"current_range_meters":0,"station_id":"ce4bhgp2rcd13ifvqfc0","pricing_plan_id":"cebpf4jnsgd1na2vs0mg"},{"bike_id":"383240f9-0104-4986-8ab9-7970c243cc55","system_id":"levelo_inurba_marseille","lat":43.25504,"lon":5.37656,"is_reserved":false,"is_disabled":true,"rental_uris":{"android":"levelo://app?vid=383240f9-0104-4986-8ab9-7970c243cc55","ios":"levelo://app?vid=383240f9-0104-4986-8ab9-7970c243cc55"},"vehicle_type_id":"4","last_reported":1751127104,"current_range_meters":0,"station_id":"ce4bhh12rcd13ifvqff0","pricing_plan_id":"cebpf4jnsgd1na2vs0mg"},{"bike_id":"92d3bb11-4cf3-47e6-bc0f-ff80eea58ad1","system_id":"levelo_inurba_marseille","lat":43.30386,"lon":5.42516,"is_reserved":false,"is_disabled":true,"rental_uris":{"android":"levelo://app?vid=92d3bb11-4cf3-47e6-bc0f-ff80eea58ad1","ios":"levelo://app?vid=92d3bb11-4cf3-47e6-bc0f-ff80eea58ad1"},"vehicle_type_id":"4","last_reported":1751127104,"current_range_meters":0,"station_id":"ce4bhoh2rcd13ifvqh6g","pricing_plan_id":"cebpf4jnsgd1na2vs0mg"},{"bike_id":"c8ce0351-fe68-40b1-beb5-45d8ee0eed11","system_id":"levelo_inurba_marseille","lat":43.30384,"lon":5.42485,"is_reserved":false,"is_disabled":true,"rental_uris":{"android":"levelo://app?vid=c8ce0351-fe68-40b1-beb5-45d8ee0eed11","ios":"levelo://app?vid=c8ce0351-fe68-40b1-beb5-45d8ee0eed11"},"vehicle_type_id":"4","last_reported":1751127104,"current_range_meters":0,"station_id":"ce4bhoh2rcd13ifvqh6g","pricing_plan_id":"cebpf4jnsgd1na2vs0mg"},{"bike_id":"39353233-3a20-4b4b-8cc8-6eea991c4abb","system_id":"levelo_inurba_marseille","lat":43.30739,"lon":5.42439,"is_reserved":false,"is_disabled":true,"rental_uris":{"android":"levelo://app?vid=39353233-3a20-4b4b-8cc8-6eea991c4abb","ios":"levelo://app?vid=39353233-3a20-4b4b-8cc8-6eea991c4abb"},"vehicle_type_id":"4","last_reported":1751127104,"current_range_meters":0,"station_id":"st_cvj6ca6bvosntc0bfgr0","pricing_plan_id":"cebpf4jnsgd1na2vs0mg"},{"bike_id":"38d01765-5414-4f3d-b96c-a482eae367ca","system_id":"levelo_inurba_marseille","lat":43.21743,"lon":5.34609,"is_reserved":false,"is_disabled":true,"rental_uris":{"android":"levelo://app?vid=38d01765-5414-4f3d-b96c-a482eae367ca","ios":"levelo://app?vid=38d01765-5414-4f3d-b96c-a482eae367ca"},"vehicle_type_id":"4","last_reported":1751127104,"current_range_meters":0,"station_id":"st_cvj6r9ubvosntc0bgbag","pricing_plan_id":"cebpf4jnsgd1na2vs0mg"},{"bike_id":"070a5204-3e73-4cf5-9fda-520c8795969f","system_id":"levelo_inurba_marseille","lat":43.21753,"lon":5.346,"is_reserved":false,"is_disabled":true,"rental_uris":{"android":"levelo://app?vid=070a5204-3e73-4cf5-9fda-520c8795969f","ios":"levelo://app?vid=070a5204-3e73-4cf5-9fda-520c8795969f"},"vehicle_type_id":"4","last_reported":1751127104,"current_range_meters":0,"station_id":"st_cvj6r9ubvosntc0bgbag","pricing_plan_id":"cebpf4jnsgd1na2vs0mg"},{"bike_id":"1023ce09-81b2-4973-bf66-018d5e051969","system_id":"levelo_inurba_marseille","lat":43.26214,"lon":5.37441,"is_reserved":false,"is_disabled":true,"rental_uris":{"android":"levelo://app?vid=1023ce09-81b2-4973-bf66-018d5e051969","ios":"levelo://app?vid=1023ce09-81b2-4973-bf66-018d5e051969"},"vehicle_type_id":"4","last_reported":1751127104,"current_range_meters":400,"station_id":"ce4bhgp2rcd13ifvqfc0","pricing_plan_id":"cebpf4jnsgd1na2vs0mg"},{"bike_id":"f3584b98-b1d5-4bf7-b6b2-d41b45eaf9ef","system_id":"levelo_inurba_marseille","lat":43.29853,"lon":5.36285,"is_reserved":false,"is_disabled":true,"rental_uris":{"android":"levelo://app?vid=f3584b98-b1d5-4bf7-b6b2-d41b45eaf9ef","ios":"levelo://app?vid=f3584b98-b1d5-4bf7-b6b2-d41b45eaf9ef"},"vehicle_type_id":"4","last_reported":1751127104,"current_range_meters":800,"station_id":"ce4bgpp2rcd13ifvqc3g","pricing_plan_id":"cebpf4jnsgd1na2vs0mg"},{"bike_id":"2e4b3190-9cc9-47cf-87ca-5dc482ba5b0d","system_id":"levelo_inurba_marseille","lat":43.231608,"lon":5.437073,"is_reserved":false,"is_disabled":true,"rental_uris":{"android":"levelo://app?vid=2e4b3190-9cc9-47cf-87ca-5dc482ba5b0d","ios":"levelo://app?vid=2e4b3190-9cc9-47cf-87ca-5dc482ba5b0d"},"vehicle_type_id":"4","last_reported":1751127104,"current_range_meters":800,"station_id":"ce4bhmp2rcd13ifvqgog","pricing_plan_id":"cebpf4jnsgd1na2vs0mg"},{"bike_id":"53f760d9-2926-4c0b-9078-ae8706c81b5c","system_id":"levelo_inurba_marseille","lat":43.21748,"lon":5.34605,"is_reserved":false,"is_disabled":true,"rental_uris":{"android":"levelo://app?vid=53f760d9-2926-4c0b-9078-ae8706c81b5c","ios":"levelo://app?vid=53f760d9-2926-4c0b-9078-ae8706c81b5c"},"vehicle_type_id":"4","last_reported":1751127104,"current_range_meters":1200,"station_id":"st_cvj6r9ubvosntc0bgbag","pricing_plan_id":"cebpf4jnsgd1na2vs0mg"},{"bike_id":"3ed97791-4fd1-4beb-9e6b-4998740d59d9","system_id":"levelo_inurba_marseille","lat":43.271719,"lon":5.410008,"is_reserved":false,"is_disabled":true,"rental_uris":{"android":"levelo://app?vid=3ed97791-4fd1-4beb-9e6b-4998740d59d9","ios":"levelo://app?vid=3ed97791-4fd1-4beb-9e6b-4998740d59d9"},"vehicle_type_id":"4","last_reported":1751127104,"current_range_meters":1600,"station_id":"","pricing_plan_id":"cebpf4jnsgd1na2vs0mg"},{"bike_id":"a1d167da-9549-4802-9615-8261431b2d7d","system_id":"levelo_inurba_marseille","lat":43.26036,"lon":5.37542,"is_reserved":false,"is_disabled":true,"rental_uris":{"android":"levelo://app?vid=a1d167da-9549-4802-9615-8261431b2d7d","ios":"levelo://app?vid=a1d167da-9549-4802-9615-8261431b2d7d"},"vehicle_type_id":"4","last_reported":1751127104,"current_range_meters":2000,"station_id":"ce4bhgh2rcd13ifvqfa0","pricing_plan_id":"cebpf4jnsgd1na2vs0mg"},{"bike_id":"5afecba0-c034-4b6d-9c7e-10e054c0acdb","system_id":"levelo_inurba_marseille","lat":43.23194,"lon":5.35559,"is_reserved":false,"is_disabled":true,"rental_uris":{"android":"levelo://app?vid=5afecba0-c034-4b6d-9c7e-10e054c0acdb","ios":"levelo://app?vid=5afecba0-c034-4b6d-9c7e-10e054c0acdb"},"vehicle_type_id":"4","last_reported":1751127104,"current_range_meters":2000,"station_id":"ce4bhu92rcd13ifvqi70","pricing_plan_id":"cebpf4jnsgd1na2vs0mg"},{"bike_id":"45d43726-d5ed-4f93-a063-bdc9c3c87a61","system_id":"levelo_inurba_marseille","lat":43.24152,"lon":5.36431,"is_reserved":false,"is_disabled":true,"rental_uris":{"android":"levelo://app?vid=45d43726-d5ed-4f93-a063-bdc9c3c87a61","ios":"levelo://app?vid=45d43726-d5ed-4f93-a063-bdc9c3c87a61"},"vehicle_type_id":"4","last_reported":1751127104,"current_range_meters":2000,"station_id":"cpo36qri1sfpv3e86is0","pricing_plan_id":"cebpf4jnsgd1na2vs0mg"},{"bike_id":"27d0de2c-2700-4e13-8538-df59b057a3d9","system_id":"levelo_inurba_marseille","lat":43.30644,"lon":5.40102,"is_reserved":false,"is_disabled":false,"rental_uris":{"android":"levelo://app?vid=27d0de2c-2700-4e13-8538-df59b057a3d9","ios":"levelo://app?vid=27d0de2c-2700-4e13-8538-df59b057a3d9"},"vehicle_type_id":"4","last_reported":1751127104,"current_range_meters":2800,"station_id":"ce4bh112rcd13ifvqda0","pricing_plan_id":"cebpf4jnsgd1na2vs0mg"},{"bike_id":"38373ec1-ecd8-4d77-843c-383024d363ad","system_id":"levelo_inurba_marseille","lat":43.28157,"lon":5.42648,"is_reserved":false,"is_disabled":false,"rental_uris":{"android":"levelo://app?vid=38373ec1-ecd8-4d77-843c-383024d363ad","ios":"levelo://app?vid=38373ec1-ecd8-4d77-843c-383024d363ad"},"vehicle_type_id":"4","last_reported":1751127104,"current_range_meters":2800,"station_id":"ce4bhnh2rcd13ifvqgug","pricing_plan_id":"cebpf4jnsgd1na2vs0mg"},{"bike_id":"ee381119-9e65-4b2d-8af4-6369d18855d0","system_id":"levelo_inurba_marseille","lat":43.276197,"lon":5.361062,"is_reserved":false,"is_disabled":false,"rental_uris":{"android":"levelo://app?vid=ee381119-9e65-4b2d-8af4-6369d18855d0","ios":"levelo://app?vid=ee381119-9e65-4b2d-8af4-6369d18855d0"},"vehicle_type_id":"4","last_reported":1751127104,"current_range_meters":3200,"station_id":"ce4bgj92rcd13ifvqbe0","pricing_plan_id":"cebpf4jnsgd1na2vs0mg"},{"bike_id":"c4c6aa9d-3c78-4d11-bb42-b0b3251410f8","system_id":"levelo_inurba_marseille","lat":43.282631,"lon":5.350701,"is_reserved":false,"is_disabled":true,"rental_uris":{"android":"levelo://app?vid=c4c6aa9d-3c78-4d11-bb42-b0b3251410f8","ios":"levelo://app?vid=c4c6aa9d-3c78-4d11-bb42-b0b3251410f8"},"vehicle_type_id":"4","last_reported":1751127104,"current_range_meters":3200,"station_id":"ce4bhbp2rcd13ifvqerg","pricing_plan_id":"cebpf4jnsgd1na2vs0mg"},{"bike_id":"1a397a0e-1dbf-4367-9fb0-c892eb746bf2","system_id":"levelo_inurba_marseille","lat":43.24403,"lon":5.37054,"is_reserved":false,"is_disabled":false,"rental_uris":{"android":"levelo://app?vid=1a397a0e-1dbf-4367-9fb0-c892eb746bf2","ios":"levelo://app?vid=1a397a0e-1dbf-4367-9fb0-c892eb746bf2"},"vehicle_type_id":"4","last_reported":1751127104,"current_range_meters":3200,"station_id":"ce4bhhh2rcd13ifvqfk0","pricing_plan_id":"cebpf4jnsgd1na2vs0mg"},{"bike_id":"ac2f03d6-8b89-410b-b924-02d57dbe258c","system_id":"levelo_inurba_marseille","lat":43.30191,"lon":5.36627,"is_reserved":false,"is_disabled":false,"rental_uris":{"android":"levelo://app?vid=ac2f03d6-8b89-410b-b924-02d57dbe258c","ios":"levelo://app?vid=ac2f03d6-8b89-410b-b924-02d57dbe258c"},"vehicle_type_id":"4","last_reported":1751127104,"current_range_meters":3600,"station_id":"ce4bgrh2rcd13ifvqc8g","pricing_plan_id":"cebpf4jnsgd1na2vs0mg"},{"bike_id":"19fcf8ab-f00d-4351-b5ab-448bd03f4b31","system_id":"levelo_inurba_marseille","lat":43.306371,"lon":5.400719,"is_reserved":false,"is_disabled":false,"rental_uris":{"android":"levelo://app?vid=19fcf8ab-f00d-4351-b5ab-448bd03f4b31","ios":"levelo://app?vid=19fcf8ab-f00d-4351-b5ab-448bd03f4b31"},"vehicle_type_id":"4","last_reported":1751127104,"current_range_meters":3600,"station_id":"ce4bh112rcd13ifvqda0","pricing_plan_id":"cebpf4jnsgd1na2vs0mg"},{"bike_id":"0a034962-a078-4cd8-ab5c-29a2f15ac163","system_id":"levelo_inurba_marseille","lat":43.299007,"lon":5.43668,"is_reserved":false,"is_disabled":false,"rental_uris":{"android":"levelo://app?vid=0a034962-a078-4cd8-ab5c-29a2f15ac163","ios":"levelo://app?vid=0a034962-a078-4cd8-ab5c-29a2f15ac163"},"vehicle_type_id":"4","last_reported":1751127104,"current_range_meters":4000,"station_id":"ce4bhpp2rcd13ifvqhfg","pricing_plan_id":"cebpf4jnsgd1na2vs0mg"},{"bike_id":"04657dc3-07e8-4844-bdfa-4dfee43b6613","system_id":"levelo_inurba_marseille","lat":43.21752,"lon":5.34599,"is_reserved":false,"is_disabled":false,"rental_uris":{"android":"levelo://app?vid=04657dc3-07e8-4844-bdfa-4dfee43b6613","ios":"levelo://app?vid=04657dc3-07e8-4844-bdfa-4dfee43b6613"},"vehicle_type_id":"4","last_reported":1751127104,"current_range_meters":4000,"station_id":"st_cvj6r9ubvosntc0bgbag","pricing_plan_id":"cebpf4jnsgd1na2vs0mg"},{"bike_id":"a3ba8c7b-f3d9-4a2c-ab2a-85bb001c97bb","system_id":"levelo_inurba_marseille","lat":43.29982,"lon":5.38497,"is_reserved":false,"is_disabled":false,"rental_uris":{"android":"levelo://app?vid=a3ba8c7b-f3d9-4a2c-ab2a-85bb001c97bb","ios":"levelo://app?vid=a3ba8c7b-f3d9-4a2c-ab2a-85bb001c97bb"},"vehicle_type_id":"4","last_reported":1751127104,"current_range_meters":4400,"station_id":"ce4bgj92rcd13ifvqbd0","pricing_plan_id":"cebpf4jnsgd1na2vs0mg"},{"bike_id":"0b12c13e-8251-421b-abbc-8d9f77ebc7fd","system_id":"levelo_inurba_marseille","lat":43.260686,"lon":5.393945,"is_reserved":false,"is_disabled":false,"rental_uris":{"android":"levelo://app?vid=0b12c13e-8251-421b-abbc-8d9f77ebc7fd","ios":"levelo://app?vid=0b12c13e-8251-421b-abbc-8d9f77ebc7fd"},"vehicle_type_id":"4","last_reported":1751127104,"current_range_meters":4400,"station_id":"ce4bhh92rcd13ifvqfj0","pricing_plan_id":"cebpf4jnsgd1na2vs0mg"},{"bike_id":"58766c1e-1772-4c45-aac5-8f7b7cff45fe","system_id":"levelo_inurba_marseille","lat":43.271751,"lon":5.409988,"is_reserved":false,"is_disabled":false,"rental_uris":{"android":"levelo://app?vid=58766c1e-1772-4c45-aac5-8f7b7cff45fe","ios":"levelo://app?vid=58766c1e-1772-4c45-aac5-8f7b7cff45fe"},"vehicle_type_id":"4","last_reported":1751127104,"current_range_meters":4400,"station_id":"ce4bhl12rcd13ifvqgf0","pricing_plan_id":"cebpf4jnsgd1na2vs0mg"},{"bike_id":"d5dc2376-d2be-47b3-997c-18099294d3e4","system_id":"levelo_inurba_marseille","lat":43.31273,"lon":5.40176,"is_reserved":false,"is_disabled":false,"rental_uris":{"android":"levelo://app?vid=d5dc2376-d2be-47b3-997c-18099294d3e4","ios":"levelo://app?vid=d5dc2376-d2be-47b3-997c-18099294d3e4"},"vehicle_type_id":"4","last_reported":1751127104,"current_range_meters":4800,"station_id":"ce4bh092rcd13ifvqd30","pricing_plan_id":"cebpf4jnsgd1na2vs0mg"},{"bike_id":"64c8ac4b-0661-47a2-b6ab-48be086e80e8","system_id":"levelo_inurba_marseille","lat":43.26963,"lon":5.38629,"is_reserved":false,"is_disabled":false,"rental_uris":{"android":"levelo://app?vid=64c8ac4b-0661-47a2-b6ab-48be086e80e8","ios":"levelo://app?vid=64c8ac4b-0661-47a2-b6ab-48be086e80e8"},"vehicle_type_id":"4","last_reported":1751127104,"current_range_meters":4800,"station_id":"ce4bhh92rcd13ifvqfh0","pricing_plan_id":"cebpf4jnsgd1na2vs0mg"},{"bike_id":"7bf6117a-62a7-4ae3-a5ec-deb790f03356","system_id":"levelo_inurba_marseille","lat":43.2417,"lon":5.36405,"is_reserved":false,"is_disabled":false,"rental_uris":{"android":"levelo://app?vid=7bf6117a-62a7-4ae3-a5ec-deb790f03356","ios":"levelo://app?vid=7bf6117a-62a7-4ae3-a5ec-deb790f03356"},"vehicle_type_id":"4","last_reported":1751127104,"current_range_meters":4800,"station_id":"cpo36qri1sfpv3e86is0","pricing_plan_id":"cebpf4jnsgd1na2vs0mg"},{"bike_id":"73a03650-973e-42b0-bad4-545481e15f73","system_id":"levelo_inurba_marseille","lat":43.31227,"lon":5.39103,"is_reserved":false,"is_disabled":false,"rental_uris":{"android":"levelo://app?vid=73a03650-973e-42b0-bad4-545481e15f73","ios":"levelo://app?vid=73a03650-973e-42b0-bad4-545481e15f73"},"vehicle_type_id":"4","last_reported":1751127104,"current_range_meters":5600,"station_id":"","pricing_plan_id":"cebpf4jnsgd1na2vs0mg"},{"bike_id":"59e8fa50-65ff-40b1-beee-b38245ee417e","system_id":"levelo_inurba_marseille","lat":43.31743,"lon":5.40457,"is_reserved":false,"is_disabled":false,"rental_uris":{"android":"levelo://app?vid=59e8fa50-65ff-40b1-beee-b38245ee417e","ios":"levelo://app?vid=59e8fa50-65ff-40b1-beee-b38245ee417e"},"vehicle_type_id":"4","last_reported":1751127104,"current_range_meters":5600,"station_id":"ce4bh012rcd13ifvqd00","pricing_plan_id":"cebpf4jnsgd1na2vs0mg"},{"bike_id":"3b111a14-ae60-402c-bf8d-8d243b633149","system_id":"levelo_inurba_marseille","lat":43.26556,"lon":5.3729,"is_reserved":false,"is_disabled":false,"rental_uris":{"android":"levelo://app?vid=3b111a14-ae60-402c-bf8d-8d243b633149","ios":"levelo://app?vid=3b111a14-ae60-402c-bf8d-8d243b633149"},"vehicle_type_id":"4","last_reported":1751127104,"current_range_meters":5600,"station_id":"ce4bhg12rcd13ifvqf70","pricing_plan_id":"cebpf4jnsgd1na2vs0mg"},{"bike_id":"b42367e9-eece-4bfe-9e17-89e4d417db42","system_id":"levelo_inurba_marseille","lat":43.29987,"lon":5.3717,"is_reserved":false,"is_disabled":false,"rental_uris":{"android":"levelo://app?vid=b42367e9-eece-4bfe-9e17-89e4d417db42","ios":"levelo://app?vid=b42367e9-eece-4bfe-9e17-89e4d417db42"},"vehicle_type_id":"4","last_reported":1751127104,"current_range_meters":6400,"station_id":"ce4bgr92rcd13ifvqc7g","pricing_plan_id":"cebpf4jnsgd1na2vs0mg"},{"bike_id":"8c103616-6f6a-406a-ac2d-83806dae0520","system_id":"levelo_inurba_marseille","lat":43.26946,"lon":5.40253,"is_reserved":false,"is_disabled":false,"rental_uris":{"android":"levelo://app?vid=8c103616-6f6a-406a-ac2d-83806dae0520","ios":"levelo://app?vid=8c103616-6f6a-406a-ac2d-83806dae0520"},"vehicle_type_id":"4","last_reported":1751127104,"current_range_meters":6400,"station_id":"cjm6bp8fraef2m0cb0m0","pricing_plan_id":"cebpf4jnsgd1na2vs0mg"},{"bike_id":"a440f2f6-8cf8-4348-9ba1-e21002a18a07","system_id":"levelo_inurba_marseille","lat":43.32147,"lon":5.36825,"is_reserved":false,"is_disabled":false,"rental_uris":{"android":"levelo://app?vid=a440f2f6-8cf8-4348-9ba1-e21002a18a07","ios":"levelo://app?vid=a440f2f6-8cf8-4348-9ba1-e21002a18a07"},"vehicle_type_id":"4","last_reported":1751127104,"current_range_meters":6800,"station_id":"","pricing_plan_id":"cebpf4jnsgd1na2vs0mg"},{"bike_id":"d93518a7-acea-49d1-8b1d-66917831e25a","system_id":"levelo_inurba_marseille","lat":43.28381,"lon":5.39568,"is_reserved":false,"is_disabled":false,"rental_uris":{"android":"levelo://app?vid=d93518a7-acea-49d1-8b1d-66917831e25a","ios":"levelo://app?vid=d93518a7-acea-49d1-8b1d-66917831e25a"},"vehicle_type_id":"4","last_reported":1751127104,"current_range_meters":7200,"station_id":"","pricing_plan_id":"cebpf4jnsgd1na2vs0mg"},{"bike_id":"4509dea6-c75e-4ecd-985c-6659acdcea08","system_id":"levelo_inurba_marseille","lat":43.31112,"lon":5.37775,"is_reserved":false,"is_disabled":false,"rental_uris":{"android":"levelo://app?vid=4509dea6-c75e-4ecd-985c-6659acdcea08","ios":"levelo://app?vid=4509dea6-c75e-4ecd-985c-6659acdcea08"},"vehicle_type_id":"4","last_reported":1751127104,"current_range_meters":7200,"station_id":"ce4bgt92rcd13ifvqcg0","pricing_plan_id":"cebpf4jnsgd1na2vs0mg"},{"bike_id":"73553f0f-1d61-484c-ab1d-a5695a2ee812","system_id":"levelo_inurba_marseille","lat":43.2738,"lon":5.36259,"is_reserved":false,"is_disabled":false,"rental_uris":{"android":"levelo://app?vid=73553f0f-1d61-484c-ab1d-a5695a2ee812","ios":"levelo://app?vid=73553f0f-1d61-484c-ab1d-a5695a2ee812"},"vehicle_type_id":"4","last_reported":1751127104,"current_range_meters":7200,"station_id":"ce4bhbh2rcd13ifvqeo0","pricing_plan_id":"cebpf4jnsgd1na2vs0mg"},{"bike_id":"4ae10d54-c5aa-482f-9eff-ae34b01c78f1","system_id":"levelo_inurba_marseille","lat":43.28939,"lon":5.36366,"is_reserved":false,"is_disabled":false,"rental_uris":{"android":"levelo://app?vid=4ae10d54-c5aa-482f-9eff-ae34b01c78f1","ios":"levelo://app?vid=4ae10d54-c5aa-482f-9eff-ae34b01c78f1"},"vehicle_type_id":"4","last_reported":1751127104,"current_range_meters":7200,"station_id":"ce4bhc92rcd13ifvqetg","pricing_plan_id":"cebpf4jnsgd1na2vs0mg"},{"bike_id":"55a864d2-da2b-4887-be95-278b903dfe4b","system_id":"levelo_inurba_marseille","lat":43.25506,"lon":5.37648,"is_reserved":false,"is_disabled":false,"rental_uris":{"android":"levelo://app?vid=55a864d2-da2b-4887-be95-278b903dfe4b","ios":"levelo://app?vid=55a864d2-da2b-4887-be95-278b903dfe4b"},"vehicle_type_id":"4","last_reported":1751127104,"current_range_meters":7200,"station_id":"ce4bhh12rcd13ifvqff0","pricing_plan_id":"cebpf4jnsgd1na2vs0mg"},{"bike_id":"6cf3a970-a244-41fc-a34a-04e3e37f0fb6","system_id":"levelo_inurba_marseille","lat":43.25823,"lon":5.39439,"is_reserved":false,"is_disabled":false,"rental_uris":{"android":"levelo://app?vid=6cf3a970-a244-41fc-a34a-04e3e37f0fb6","ios":"levelo://app?vid=6cf3a970-a244-41fc-a34a-04e3e37f0fb6"},"vehicle_type_id":"4","last_reported":1751127104,"current_range_meters":7200,"station_id":"ce4bhip2rcd13ifvqft0","pricing_plan_id":"cebpf4jnsgd1na2vs0mg"},{"bike_id":"71f68f05-a15b-44fc-aa1a-e240f32e8c43","system_id":"levelo_inurba_marseille","lat":43.28927,"lon":5.36652,"is_reserved":false,"is_disabled":false,"rental_uris":{"android":"levelo://app?vid=71f68f05-a15b-44fc-aa1a-e240f32e8c43","ios":"levelo://app?vid=71f68f05-a15b-44fc-aa1a-e240f32e8c43"},"vehicle_type_id":"4","last_reported":1751127104,"current_range_meters":8000,"station_id":"ce4bhap2rcd13ifvqek0","pricing_plan_id":"cebpf4jnsgd1na2vs0mg"},{"bike_id":"786dd9f1-9a9e-449e-aa02-caef6266c938","system_id":"levelo_inurba_marseille","lat":43.27567,"lon":5.38437,"is_reserved":false,"is_disabled":false,"rental_uris":{"android":"levelo://app?vid=786dd9f1-9a9e-449e-aa02-caef6266c938","ios":"levelo://app?vid=786dd9f1-9a9e-449e-aa02-caef6266c938"},"vehicle_type_id":"4","last_reported":1751127104,"current_range_meters":8400,"station_id":"ce4bhh92rcd13ifvqfi0","pricing_plan_id":"cebpf4jnsgd1na2vs0mg"},{"bike_id":"1c8ab180-05fd-405f-9922-b2b2c2d5142f","system_id":"levelo_inurba_marseille","lat":43.32106,"lon":5.368,"is_reserved":false,"is_disabled":false,"rental_uris":{"android":"levelo://app?vid=1c8ab180-05fd-405f-9922-b2b2c2d5142f","ios":"levelo://app?vid=1c8ab180-05fd-405f-9922-b2b2c2d5142f"},"vehicle_type_id":"4","last_reported":1751127104,"current_range_meters":8400,"station_id":"ce4bhrh2rcd13ifvqhug","pricing_plan_id":"cebpf4jnsgd1na2vs0mg"},{"bike_id":"03047c0b-d3f2-4299-b292-04c7da92b080","system_id":"levelo_inurba_marseille","lat":43.211882,"lon":5.350774,"is_reserved":false,"is_disabled":false,"rental_uris":{"android":"levelo://app?vid=03047c0b-d3f2-4299-b292-04c7da92b080","ios":"levelo://app?vid=03047c0b-d3f2-4299-b292-04c7da92b080"},"vehicle_type_id":"4","last_reported":1751127104,"current_range_meters":9200,"station_id":"","pricing_plan_id":"cebpf4jnsgd1na2vs0mg"},{"bike_id":"f48fdea1-2a26-4196-80fe-6c19cdd467cf","system_id":"levelo_inurba_marseille","lat":43.31091,"lon":5.42446,"is_reserved":false,"is_disabled":false,"rental_uris":{"android":"levelo://app?vid=f48fdea1-2a26-4196-80fe-6c19cdd467cf","ios":"levelo://app?vid=f48fdea1-2a26-4196-80fe-6c19cdd467cf"},"vehicle_type_id":"4","last_reported":1751127104,"current_range_meters":9200,"station_id":"ce4bhp92rcd13ifvqhag","pricing_plan_id":"cebpf4jnsgd1na2vs0mg"},{"bike_id":"a6b8dee1-fa21-496b-918d-908eb6a95ebe","system_id":"levelo_inurba_marseille","lat":43.32662,"lon":5.40992,"is_reserved":false,"is_disabled":false,"rental_uris":{"android":"levelo://app?vid=a6b8dee1-fa21-496b-918d-908eb6a95ebe","ios":"levelo://app?vid=a6b8dee1-fa21-496b-918d-908eb6a95ebe"},"vehicle_type_id":"4","last_reported":1751127104,"current_range_meters":9200,"station_id":"ce4bhpp2rcd13ifvqhgg","pricing_plan_id":"cebpf4jnsgd1na2vs0mg"},{"bike_id":"3b2e33f1-1921-4221-ba78-14c74f0fe97b","system_id":"levelo_inurba_marseille","lat":43.23194,"lon":5.35554,"is_reserved":false,"is_disabled":false,"rental_uris":{"android":"levelo://app?vid=3b2e33f1-1921-4221-ba78-14c74f0fe97b","ios":"levelo://app?vid=3b2e33f1-1921-4221-ba78-14c74f0fe97b"},"vehicle_type_id":"4","last_reported":1751127104,"current_range_meters":9200,"station_id":"ce4bhu92rcd13ifvqi70","pricing_plan_id":"cebpf4jnsgd1na2vs0mg"},{"bike_id":"d5e70777-ad97-4594-91b6-43ede9611b14","system_id":"levelo_inurba_marseille","lat":43.32137,"lon":5.36756,"is_reserved":false,"is_disabled":false,"rental_uris":{"android":"levelo://app?vid=d5e70777-ad97-4594-91b6-43ede9611b14","ios":"levelo://app?vid=d5e70777-ad97-4594-91b6-43ede9611b14"},"vehicle_type_id":"4","last_reported":1751127104,"current_range_meters":9600,"station_id":"","pricing_plan_id":"cebpf4jnsgd1na2vs0mg"},{"bike_id":"b4121008-3b28-491e-8c98-c9326f7003f6","system_id":"levelo_inurba_marseille","lat":43.28408,"lon":5.34993,"is_reserved":false,"is_disabled":false,"rental_uris":{"android":"levelo://app?vid=b4121008-3b28-491e-8c98-c9326f7003f6","ios":"levelo://app?vid=b4121008-3b28-491e-8c98-c9326f7003f6"},"vehicle_type_id":"4","last_reported":1751127104,"current_range_meters":9600,"station_id":"ce4bhbh2rcd13ifvqepg","pricing_plan_id":"cebpf4jnsgd1na2vs0mg"},{"bike_id":"46a9cff9-da49-46a1-be26-97a74d4a59b7","system_id":"levelo_inurba_marseille","lat":43.28426,"lon":5.34977,"is_reserved":false,"is_disabled":false,"rental_uris":{"android":"levelo://app?vid=46a9cff9-da49-46a1-be26-97a74d4a59b7","ios":"levelo://app?vid=46a9cff9-da49-46a1-be26-97a74d4a59b7"},"vehicle_type_id":"4","last_reported":1751127104,"current_range_meters":9600,"station_id":"ce4bhbh2rcd13ifvqepg","pricing_plan_id":"cebpf4jnsgd1na2vs0mg"},{"bike_id":"6779ccc1-7ce9-431a-9595-9592d7f68716","system_id":"levelo_inurba_marseille","lat":43.251133,"lon":5.403337,"is_reserved":false,"is_disabled":false,"rental_uris":{"android":"levelo://app?vid=6779ccc1-7ce9-431a-9595-9592d7f68716","ios":"levelo://app?vid=6779ccc1-7ce9-431a-9595-9592d7f68716"},"vehicle_type_id":"4","last_reported":1751127104,"current_range_meters":9600,"station_id":"ce4bhlh2rcd13ifvqgig","pricing_plan_id":"cebpf4jnsgd1na2vs0mg"},{"bike_id":"0ea9a5fa-dfe3-4435-8521-628911f3c041","system_id":"levelo_inurba_marseille","lat":43.232051,"lon":5.355578,"is_reserved":false,"is_disabled":false,"rental_uris":{"android":"levelo://app?vid=0ea9a5fa-dfe3-4435-8521-628911f3c041","ios":"levelo://app?vid=0ea9a5fa-dfe3-4435-8521-628911f3c041"},"vehicle_type_id":"4","last_reported":1751127104,"current_range_meters":10000,"station_id":"","pricing_plan_id":"cebpf4jnsgd1na2vs0mg"},{"bike_id":"2c5a9649-c58e-413a-8359-3218bcd115d9","system_id":"levelo_inurba_marseille","lat":43.29258,"lon":5.37633,"is_reserved":false,"is_disabled":false,"rental_uris":{"android":"levelo://app?vid=2c5a9649-c58e-413a-8359-3218bcd115d9","ios":"levelo://app?vid=2c5a9649-c58e-413a-8359-3218bcd115d9"},"vehicle_type_id":"4","last_reported":1751127104,"current_range_meters":10000,"station_id":"ce4bgi12rcd13ifvqb80","pricing_plan_id":"cebpf4jnsgd1na2vs0mg"},{"bike_id":"d76b0059-6376-410a-9272-e3202421c233","system_id":"levelo_inurba_marseille","lat":43.301419,"lon":5.374239,"is_reserved":false,"is_disabled":false,"rental_uris":{"android":"levelo://app?vid=d76b0059-6376-410a-9272-e3202421c233","ios":"levelo://app?vid=d76b0059-6376-410a-9272-e3202421c233"},"vehicle_type_id":"4","last_reported":1751127104,"current_range_meters":10000,"station_id":"ce4bgs92rcd13ifvqcc0","pricing_plan_id":"cebpf4jnsgd1na2vs0mg"},{"bike_id":"2e7e462e-727b-41af-9c32-d76a8c103ce5","system_id":"levelo_inurba_marseille","lat":43.24804,"lon":5.37472,"is_reserved":false,"is_disabled":false,"rental_uris":{"android":"levelo://app?vid=2e7e462e-727b-41af-9c32-d76a8c103ce5","ios":"levelo://app?vid=2e7e462e-727b-41af-9c32-d76a8c103ce5"},"vehicle_type_id":"4","last_reported":1751127104,"current_range_meters":10000,"station_id":"ce4bhgh2rcd13ifvqfb0","pricing_plan_id":"cebpf4jnsgd1na2vs0mg"},{"bike_id":"4ea4ac8e-da05-4f7a-89e8-96686aa192f9","system_id":"levelo_inurba_marseille","lat":43.217441,"lon":5.346049,"is_reserved":false,"is_disabled":false,"rental_uris":{"android":"levelo://app?vid=4ea4ac8e-da05-4f7a-89e8-96686aa192f9","ios":"levelo://app?vid=4ea4ac8e-da05-4f7a-89e8-96686aa192f9"},"vehicle_type_id":"4","last_reported":1751127104,"current_range_meters":10000,"station_id":"st_cvj6r9ubvosntc0bgbag","pricing_plan_id":"cebpf4jnsgd1na2vs0mg"},{"bike_id":"e6ce70f7-9138-485c-a4db-2c9174614cff","system_id":"levelo_inurba_marseille","lat":43.317798,"lon":5.36851,"is_reserved":false,"is_disabled":false,"rental_uris":{"android":"levelo://app?vid=e6ce70f7-9138-485c-a4db-2c9174614cff","ios":"levelo://app?vid=e6ce70f7-9138-485c-a4db-2c9174614cff"},"vehicle_type_id":"4","last_reported":1751127104,"current_range_meters":10800,"station_id":"","pricing_plan_id":"cebpf4jnsgd1na2vs0mg"},{"bike_id":"47283362-3e5b-4610-b43b-e70da74865bd","system_id":"levelo_inurba_marseille","lat":43.29523,"lon":5.37504,"is_reserved":false,"is_disabled":false,"rental_uris":{"android":"levelo://app?vid=47283362-3e5b-4610-b43b-e70da74865bd","ios":"levelo://app?vid=47283362-3e5b-4610-b43b-e70da74865bd"},"vehicle_type_id":"4","last_reported":1751127104,"current_range_meters":10800,"station_id":"ce4bgkp2rcd13ifvqbmg","pricing_plan_id":"cebpf4jnsgd1na2vs0mg"},{"bike_id":"a4b1eda3-e134-4043-88b1-c366e59076fb","system_id":"levelo_inurba_marseille","lat":43.29039,"lon":5.375621,"is_reserved":false,"is_disabled":false,"rental_uris":{"android":"levelo://app?vid=a4b1eda3-e134-4043-88b1-c366e59076fb","ios":"levelo://app?vid=a4b1eda3-e134-4043-88b1-c366e59076fb"},"vehicle_type_id":"4","last_reported":1751127104,"current_range_meters":10800,"station_id":"ce4bh692rcd13ifvqe90","pricing_plan_id":"cebpf4jnsgd1na2vs0mg"},{"bike_id":"f9b53a81-0016-4b1b-937a-b6f14657d07c","system_id":"levelo_inurba_marseille","lat":43.28721,"lon":5.37944,"is_reserved":false,"is_disabled":false,"rental_uris":{"android":"levelo://app?vid=f9b53a81-0016-4b1b-937a-b6f14657d07c","ios":"levelo://app?vid=f9b53a81-0016-4b1b-937a-b6f14657d07c"},"vehicle_type_id":"4","last_reported":1751127104,"current_range_meters":10800,"station_id":"ce4bh9p2rcd13ifvqec0","pricing_plan_id":"cebpf4jnsgd1na2vs0mg"},{"bike_id":"aaaf0041-d6f1-4b7a-92e6-a06f2fa972ee","system_id":"levelo_inurba_marseille","lat":43.25497,"lon":5.37645,"is_reserved":false,"is_disabled":false,"rental_uris":{"android":"levelo://app?vid=aaaf0041-d6f1-4b7a-92e6-a06f2fa972ee","ios":"levelo://app?vid=aaaf0041-d6f1-4b7a-92e6-a06f2fa972ee"},"vehicle_type_id":"4","last_reported":1751127104,"current_range_meters":10800,"station_id":"ce4bhh12rcd13ifvqff0","pricing_plan_id":"cebpf4jnsgd1na2vs0mg"},{"bike_id":"f559451e-bd9d-4906-b094-783db906afc4","system_id":"levelo_inurba_marseille","lat":43.25866,"lon":5.39899,"is_reserved":false,"is_disabled":false,"rental_uris":{"android":"levelo://app?vid=f559451e-bd9d-4906-b094-783db906afc4","ios":"levelo://app?vid=f559451e-bd9d-4906-b094-783db906afc4"},"vehicle_type_id":"4","last_reported":1751127104,"current_range_meters":10800,"station_id":"ce4bhl92rcd13ifvqghg","pricing_plan_id":"cebpf4jnsgd1na2vs0mg"},{"bike_id":"13726ea4-91b3-4b24-87ce-db653217d50c","system_id":"levelo_inurba_marseille","lat":43.32121,"lon":5.3676,"is_reserved":false,"is_disabled":false,"rental_uris":{"android":"levelo://app?vid=13726ea4-91b3-4b24-87ce-db653217d50c","ios":"levelo://app?vid=13726ea4-91b3-4b24-87ce-db653217d50c"},"vehicle_type_id":"4","last_reported":1751127104,"current_range_meters":10800,"station_id":"ce4bhrh2rcd13ifvqhug","pricing_plan_id":"cebpf4jnsgd1na2vs0mg"},{"bike_id":"bbc4a376-bee7-4ad5-a49a-1022d27c1489","system_id":"levelo_inurba_marseille","lat":43.320834,"lon":5.367692,"is_reserved":false,"is_disabled":false,"rental_uris":{"android":"levelo://app?vid=bbc4a376-bee7-4ad5-a49a-1022d27c1489","ios":"levelo://app?vid=bbc4a376-bee7-4ad5-a49a-1022d27c1489"},"vehicle_type_id":"4","last_reported":1751127104,"current_range_meters":10800,"station_id":"ce4bhrh2rcd13ifvqhug","pricing_plan_id":"cebpf4jnsgd1na2vs0mg"},{"bike_id":"3b699354-e969-4058-96b9-5229d2af8a52","system_id":"levelo_inurba_marseille","lat":43.23223,"lon":5.35533,"is_reserved":false,"is_disabled":false,"rental_uris":{"android":"levelo://app?vid=3b699354-e969-4058-96b9-5229d2af8a52","ios":"levelo://app?vid=3b699354-e969-4058-96b9-5229d2af8a52"},"vehicle_type_id":"4","last_reported":1751127104,"current_range_meters":10800,"station_id":"ce4bhu92rcd13ifvqi70","pricing_plan_id":"cebpf4jnsgd1na2vs0mg"},{"bike_id":"b266b36d-c328-4691-8298-fd36d6e08d51","system_id":"levelo_inurba_marseille","lat":43.22895,"lon":5.35358,"is_reserved":false,"is_disabled":false,"rental_uris":{"android":"levelo://app?vid=b266b36d-c328-4691-8298-fd36d6e08d51","ios":"levelo://app?vid=b266b36d-c328-4691-8298-fd36d6e08d51"},"vehicle_type_id":"4","last_reported":1751127104,"current_range_meters":10800,"station_id":"cpo3532slgdg3j2ikp40","pricing_plan_id":"cebpf4jnsgd1na2vs0mg"},{"bike_id":"6ab8e1c7-8e4e-450c-acd9-615a2b29802a","system_id":"levelo_inurba_marseille","lat":43.25871,"lon":5.39896,"is_reserved":false,"is_disabled":false,"rental_uris":{"android":"levelo://app?vid=6ab8e1c7-8e4e-450c-acd9-615a2b29802a","ios":"levelo://app?vid=6ab8e1c7-8e4e-450c-acd9-615a2b29802a"},"vehicle_type_id":"4","last_reported":1751127104,"current_range_meters":11200,"station_id":"ce4bhl92rcd13ifvqghg","pricing_plan_id":"cebpf4jnsgd1na2vs0mg"},{"bike_id":"a2b3ba95-f901-49e1-af12-b878f0e838e7","system_id":"levelo_inurba_marseille","lat":43.24169,"lon":5.36394,"is_reserved":false,"is_disabled":false,"rental_uris":{"android":"levelo://app?vid=a2b3ba95-f901-49e1-af12-b878f0e838e7","ios":"levelo://app?vid=a2b3ba95-f901-49e1-af12-b878f0e838e7"},"vehicle_type_id":"4","last_reported":1751127104,"current_range_meters":11200,"station_id":"cpo36qri1sfpv3e86is0","pricing_plan_id":"cebpf4jnsgd1na2vs0mg"},{"bike_id":"44b677c8-76ed-4eac-8888-58151f9d5d6e","system_id":"levelo_inurba_marseille","lat":43.319578,"lon":5.367501,"is_reserved":false,"is_disabled":false,"rental_uris":{"android":"levelo://app?vid=44b677c8-76ed-4eac-8888-58151f9d5d6e","ios":"levelo://app?vid=44b677c8-76ed-4eac-8888-58151f9d5d6e"},"vehicle_type_id":"4","last_reported":1751127104,"current_range_meters":11600,"station_id":"","pricing_plan_id":"cebpf4jnsgd1na2vs0mg"},{"bike_id":"91793b7f-cce8-4439-906a-1bba2f05607a","system_id":"levelo_inurba_marseille","lat":43.2439,"lon":5.37056,"is_reserved":false,"is_disabled":false,"rental_uris":{"android":"levelo://app?vid=91793b7f-cce8-4439-906a-1bba2f05607a","ios":"levelo://app?vid=91793b7f-cce8-4439-906a-1bba2f05607a"},"vehicle_type_id":"4","last_reported":1751127104,"current_range_meters":11600,"station_id":"ce4bhhh2rcd13ifvqfk0","pricing_plan_id":"cebpf4jnsgd1na2vs0mg"},{"bike_id":"2cbd26d7-8ccb-4bca-b892-7ed090bc3322","system_id":"levelo_inurba_marseille","lat":43.232024,"lon":5.355489,"is_reserved":false,"is_disabled":false,"rental_uris":{"android":"levelo://app?vid=2cbd26d7-8ccb-4bca-b892-7ed090bc3322","ios":"levelo://app?vid=2cbd26d7-8ccb-4bca-b892-7ed090bc3322"},"vehicle_type_id":"4","last_reported":1751127104,"current_range_meters":11600,"station_id":"ce4bhu92rcd13ifvqi70","pricing_plan_id":"cebpf4jnsgd1na2vs0mg"},{"bike_id":"e28e83d2-3055-46e8-9a15-6a70bcedad63","system_id":"levelo_inurba_marseille","lat":43.26941,"lon":5.40255,"is_reserved":false,"is_disabled":false,"rental_uris":{"android":"levelo://app?vid=e28e83d2-3055-46e8-9a15-6a70bcedad63","ios":"levelo://app?vid=e28e83d2-3055-46e8-9a15-6a70bcedad63"},"vehicle_type_id":"4","last_reported":1751127104,"current_range_meters":11600,"station_id":"cjm6bp8fraef2m0cb0m0","pricing_plan_id":"cebpf4jnsgd1na2vs0mg"},{"bike_id":"89ba5266-f330-45f3-beb6-98b60accef31","system_id":"levelo_inurba_marseille","lat":43.26232,"lon":5.37458,"is_reserved":false,"is_disabled":false,"rental_uris":{"android":"levelo://app?vid=89ba5266-f330-45f3-beb6-98b60accef31","ios":"levelo://app?vid=89ba5266-f330-45f3-beb6-98b60accef31"},"vehicle_type_id":"4","last_reported":1751127104,"current_range_meters":12000,"station_id":"","pricing_plan_id":"cebpf4jnsgd1na2vs0mg"},{"bike_id":"8f20e1d6-2622-49b3-94fe-3fc37cafad58","system_id":"levelo_inurba_marseille","lat":43.24391,"lon":5.37061,"is_reserved":false,"is_disabled":false,"rental_uris":{"android":"levelo://app?vid=8f20e1d6-2622-49b3-94fe-3fc37cafad58","ios":"levelo://app?vid=8f20e1d6-2622-49b3-94fe-3fc37cafad58"},"vehicle_type_id":"4","last_reported":1751127104,"current_range_meters":12000,"station_id":"ce4bhhh2rcd13ifvqfk0","pricing_plan_id":"cebpf4jnsgd1na2vs0mg"},{"bike_id":"b1abe80e-0b82-4f6c-8de0-cb6a27e4b156","system_id":"levelo_inurba_marseille","lat":43.24159,"lon":5.36383,"is_reserved":false,"is_disabled":false,"rental_uris":{"android":"levelo://app?vid=b1abe80e-0b82-4f6c-8de0-cb6a27e4b156","ios":"levelo://app?vid=b1abe80e-0b82-4f6c-8de0-cb6a27e4b156"},"vehicle_type_id":"4","last_reported":1751127104,"current_range_meters":12000,"station_id":"cpo36qri1sfpv3e86is0","pricing_plan_id":"cebpf4jnsgd1na2vs0mg"},{"bike_id":"8b7d4825-f155-4213-9759-6f6a58d50b8f","system_id":"levelo_inurba_marseille","lat":43.27907,"lon":5.38012,"is_reserved":false,"is_disabled":false,"rental_uris":{"android":"levelo://app?vid=8b7d4825-f155-4213-9759-6f6a58d50b8f","ios":"levelo://app?vid=8b7d4825-f155-4213-9759-6f6a58d50b8f"},"vehicle_type_id":"4","last_reported":1751127104,"current_range_meters":12400,"station_id":"ce4bhf92rcd13ifvqf50","pricing_plan_id":"cebpf4jnsgd1na2vs0mg"},{"bike_id":"32983323-0cd0-407c-af59-7a38a9d92fd7","system_id":"levelo_inurba_marseille","lat":43.231894,"lon":5.399928,"is_reserved":false,"is_disabled":false,"rental_uris":{"android":"levelo://app?vid=32983323-0cd0-407c-af59-7a38a9d92fd7","ios":"levelo://app?vid=32983323-0cd0-407c-af59-7a38a9d92fd7"},"vehicle_type_id":"4","last_reported":1751127104,"current_range_meters":12400,"station_id":"ce4bhn12rcd13ifvqgqg","pricing_plan_id":"cebpf4jnsgd1na2vs0mg"},{"bike_id":"873ce198-d36d-4815-8778-b72bd2ca0116","system_id":"levelo_inurba_marseille","lat":43.32102,"lon":5.36773,"is_reserved":false,"is_disabled":false,"rental_uris":{"android":"levelo://app?vid=873ce198-d36d-4815-8778-b72bd2ca0116","ios":"levelo://app?vid=873ce198-d36d-4815-8778-b72bd2ca0116"},"vehicle_type_id":"4","last_reported":1751127104,"current_range_meters":12400,"station_id":"ce4bhrh2rcd13ifvqhug","pricing_plan_id":"cebpf4jnsgd1na2vs0mg"},{"bike_id":"962af267-d53f-46b3-80f5-26c7fbd343ce","system_id":"levelo_inurba_marseille","lat":43.22532,"lon":5.34759,"is_reserved":false,"is_disabled":false,"rental_uris":{"android":"levelo://app?vid=962af267-d53f-46b3-80f5-26c7fbd343ce","ios":"levelo://app?vid=962af267-d53f-46b3-80f5-26c7fbd343ce"},"vehicle_type_id":"4","last_reported":1751127104,"current_range_meters":12400,"station_id":"st_cvj5dfep6f1abm77gieg","pricing_plan_id":"cebpf4jnsgd1na2vs0mg"},{"bike_id":"13fabc0f-5bfd-4dc8-9136-84b1659cd66b","system_id":"levelo_inurba_marseille","lat":43.21194,"lon":5.35072,"is_reserved":false,"is_disabled":false,"rental_uris":{"android":"levelo://app?vid=13fabc0f-5bfd-4dc8-9136-84b1659cd66b","ios":"levelo://app?vid=13fabc0f-5bfd-4dc8-9136-84b1659cd66b"},"vehicle_type_id":"4","last_reported":1751127104,"current_range_meters":12400,"station_id":"st_cvj6sg6p6f1abm77japg","pricing_plan_id":"cebpf4jnsgd1na2vs0mg"},{"bike_id":"721165c1-ef6f-40cc-8d33-af3a7999864b","system_id":"levelo_inurba_marseille","lat":43.32628,"lon":5.37888,"is_reserved":false,"is_disabled":false,"rental_uris":{"android":"levelo://app?vid=721165c1-ef6f-40cc-8d33-af3a7999864b","ios":"levelo://app?vid=721165c1-ef6f-40cc-8d33-af3a7999864b"},"vehicle_type_id":"4","last_reported":1751127104,"current_range_meters":12800,"station_id":"","pricing_plan_id":"cebpf4jnsgd1na2vs0mg"},{"bike_id":"2906afe4-85e0-4972-9ac2-c6253225efc1","system_id":"levelo_inurba_marseille","lat":43.28352,"lon":5.38107,"is_reserved":false,"is_disabled":false,"rental_uris":{"android":"levelo://app?vid=2906afe4-85e0-4972-9ac2-c6253225efc1","ios":"levelo://app?vid=2906afe4-85e0-4972-9ac2-c6253225efc1"},"vehicle_type_id":"4","last_reported":1751127104,"current_range_meters":12800,"station_id":"ce4bh412rcd13ifvqdr0","pricing_plan_id":"cebpf4jnsgd1na2vs0mg"},{"bike_id":"465d715d-c466-435a-83c2-03d320454a0a","system_id":"levelo_inurba_marseille","lat":43.28419,"lon":5.35006,"is_reserved":false,"is_disabled":false,"rental_uris":{"android":"levelo://app?vid=465d715d-c466-435a-83c2-03d320454a0a","ios":"levelo://app?vid=465d715d-c466-435a-83c2-03d320454a0a"},"vehicle_type_id":"4","last_reported":1751127104,"current_range_meters":12800,"station_id":"ce4bhbh2rcd13ifvqepg","pricing_plan_id":"cebpf4jnsgd1na2vs0mg"},{"bike_id":"12c7fc9f-7c7b-4185-9b2f-badd0c17e36b","system_id":"levelo_inurba_marseille","lat":43.24755,"lon":5.37446,"is_reserved":false,"is_disabled":false,"rental_uris":{"android":"levelo://app?vid=12c7fc9f-7c7b-4185-9b2f-badd0c17e36b","ios":"levelo://app?vid=12c7fc9f-7c7b-4185-9b2f-badd0c17e36b"},"vehicle_type_id":"4","last_reported":1751127104,"current_range_meters":12800,"station_id":"ce4bhgh2rcd13ifvqfb0","pricing_plan_id":"cebpf4jnsgd1na2vs0mg"},{"bike_id":"d34b0340-e709-4c73-9929-90a67c9d7238","system_id":"levelo_inurba_marseille","lat":43.23959,"lon":5.36637,"is_reserved":false,"is_disabled":false,"rental_uris":{"android":"levelo://app?vid=d34b0340-e709-4c73-9929-90a67c9d7238","ios":"levelo://app?vid=d34b0340-e709-4c73-9929-90a67c9d7238"},"vehicle_type_id":"4","last_reported":1751127104,"current_range_meters":12800,"station_id":"ce4bhi12rcd13ifvqfp0","pricing_plan_id":"cebpf4jnsgd1na2vs0mg"},{"bike_id":"2dbde8bf-da28-4da7-a5ba-c0905c3e3624","system_id":"levelo_inurba_marseille","lat":43.24085,"lon":5.37756,"is_reserved":false,"is_disabled":false,"rental_uris":{"android":"levelo://app?vid=2dbde8bf-da28-4da7-a5ba-c0905c3e3624","ios":"levelo://app?vid=2dbde8bf-da28-4da7-a5ba-c0905c3e3624"},"vehicle_type_id":"4","last_reported":1751127104,"current_range_meters":12800,"station_id":"ce4bhnp2rcd13ifvqgvg","pricing_plan_id":"cebpf4jnsgd1na2vs0mg"},{"bike_id":"7ef8979e-80df-42fd-a3b2-d37bb3475225","system_id":"levelo_inurba_marseille","lat":43.304474,"lon":5.389865,"is_reserved":false,"is_disabled":false,"rental_uris":{"android":"levelo://app?vid=7ef8979e-80df-42fd-a3b2-d37bb3475225","ios":"levelo://app?vid=7ef8979e-80df-42fd-a3b2-d37bb3475225"},"vehicle_type_id":"4","last_reported":1751127104,"current_range_meters":13600,"station_id":"ce4bgk12rcd13ifvqbi0","pricing_plan_id":"cebpf4jnsgd1na2vs0mg"},{"bike_id":"c7067ed1-f9ee-40ab-a529-1c223a6eea73","system_id":"levelo_inurba_marseille","lat":43.28417,"lon":5.34994,"is_reserved":false,"is_disabled":false,"rental_uris":{"android":"levelo://app?vid=c7067ed1-f9ee-40ab-a529-1c223a6eea73","ios":"levelo://app?vid=c7067ed1-f9ee-40ab-a529-1c223a6eea73"},"vehicle_type_id":"4","last_reported":1751127104,"current_range_meters":13600,"station_id":"ce4bhbh2rcd13ifvqepg","pricing_plan_id":"cebpf4jnsgd1na2vs0mg"},{"bike_id":"a7883090-0e10-4075-944b-a3cca54bc544","system_id":"levelo_inurba_marseille","lat":43.225066,"lon":5.347826,"is_reserved":false,"is_disabled":false,"rental_uris":{"android":"levelo://app?vid=a7883090-0e10-4075-944b-a3cca54bc544","ios":"levelo://app?vid=a7883090-0e10-4075-944b-a3cca54bc544"},"vehicle_type_id":"4","last_reported":1751127104,"current_range_meters":13600,"station_id":"st_cvj5dfep6f1abm77gieg","pricing_plan_id":"cebpf4jnsgd1na2vs0mg"},{"bike_id":"14e8ef37-e834-4d76-9946-e98f7a083a2f","system_id":"levelo_inurba_marseille","lat":43.21194,"lon":5.35073,"is_reserved":false,"is_disabled":false,"rental_uris":{"android":"levelo://app?vid=14e8ef37-e834-4d76-9946-e98f7a083a2f","ios":"levelo://app?vid=14e8ef37-e834-4d76-9946-e98f7a083a2f"},"vehicle_type_id":"4","last_reported":1751127104,"current_range_meters":13600,"station_id":"st_cvj6sg6p6f1abm77japg","pricing_plan_id":"cebpf4jnsgd1na2vs0mg"},{"bike_id":"f61d4198-de67-4313-80b9-bc93ec457b6c","system_id":"levelo_inurba_marseille","lat":43.313382,"lon":5.367311,"is_reserved":false,"is_disabled":false,"rental_uris":{"android":"levelo://app?vid=f61d4198-de67-4313-80b9-bc93ec457b6c","ios":"levelo://app?vid=f61d4198-de67-4313-80b9-bc93ec457b6c"},"vehicle_type_id":"4","last_reported":1751127104,"current_range_meters":14000,"station_id":"ce4bgr92rcd13ifvqc6g","pricing_plan_id":"cebpf4jnsgd1na2vs0mg"},{"bike_id":"2d2fdf5d-c9b4-493a-a92d-4b4a279aa3c2","system_id":"levelo_inurba_marseille","lat":43.28716,"lon":5.3795,"is_reserved":false,"is_disabled":false,"rental_uris":{"android":"levelo://app?vid=2d2fdf5d-c9b4-493a-a92d-4b4a279aa3c2","ios":"levelo://app?vid=2d2fdf5d-c9b4-493a-a92d-4b4a279aa3c2"},"vehicle_type_id":"4","last_reported":1751127104,"current_range_meters":14000,"station_id":"ce4bh9p2rcd13ifvqec0","pricing_plan_id":"cebpf4jnsgd1na2vs0mg"},{"bike_id":"802b2630-8376-4119-a81f-42e77fef6b85","system_id":"levelo_inurba_marseille","lat":43.28444,"lon":5.34973,"is_reserved":false,"is_disabled":false,"rental_uris":{"android":"levelo://app?vid=802b2630-8376-4119-a81f-42e77fef6b85","ios":"levelo://app?vid=802b2630-8376-4119-a81f-42e77fef6b85"},"vehicle_type_id":"4","last_reported":1751127104,"current_range_meters":14400,"station_id":"ce4bhbh2rcd13ifvqepg","pricing_plan_id":"cebpf4jnsgd1na2vs0mg"},{"bike_id":"1c65bfc3-ae68-44a0-8cca-6287af1d3354","system_id":"levelo_inurba_marseille","lat":43.26574,"lon":5.37273,"is_reserved":false,"is_disabled":false,"rental_uris":{"android":"levelo://app?vid=1c65bfc3-ae68-44a0-8cca-6287af1d3354","ios":"levelo://app?vid=1c65bfc3-ae68-44a0-8cca-6287af1d3354"},"vehicle_type_id":"4","last_reported":1751127104,"current_range_meters":14400,"station_id":"ce4bhg12rcd13ifvqf70","pricing_plan_id":"cebpf4jnsgd1na2vs0mg"},{"bike_id":"8614548b-99d4-43ad-af16-fdba3ed98fe3","system_id":"levelo_inurba_marseille","lat":43.25116,"lon":5.40322,"is_reserved":false,"is_disabled":false,"rental_uris":{"android":"levelo://app?vid=8614548b-99d4-43ad-af16-fdba3ed98fe3","ios":"levelo://app?vid=8614548b-99d4-43ad-af16-fdba3ed98fe3"},"vehicle_type_id":"4","last_reported":1751127104,"current_range_meters":14400,"station_id":"ce4bhlh2rcd13ifvqgig","pricing_plan_id":"cebpf4jnsgd1na2vs0mg"},{"bike_id":"964ceafc-a17f-4b98-a26e-079e76227c48","system_id":"levelo_inurba_marseille","lat":43.24161,"lon":5.364,"is_reserved":false,"is_disabled":false,"rental_uris":{"android":"levelo://app?vid=964ceafc-a17f-4b98-a26e-079e76227c48","ios":"levelo://app?vid=964ceafc-a17f-4b98-a26e-079e76227c48"},"vehicle_type_id":"4","last_reported":1751127104,"current_range_meters":14400,"station_id":"cpo36qri1sfpv3e86is0","pricing_plan_id":"cebpf4jnsgd1na2vs0mg"},{"bike_id":"762acdc5-9b99-47a0-bda1-ee8060271245","system_id":"levelo_inurba_marseille","lat":43.21179,"lon":5.35085,"is_reserved":false,"is_disabled":false,"rental_uris":{"android":"levelo://app?vid=762acdc5-9b99-47a0-bda1-ee8060271245","ios":"levelo://app?vid=762acdc5-9b99-47a0-bda1-ee8060271245"},"vehicle_type_id":"4","last_reported":1751127104,"current_range_meters":14400,"station_id":"st_cvj6sg6p6f1abm77japg","pricing_plan_id":"cebpf4jnsgd1na2vs0mg"},{"bike_id":"f0057ca2-de2d-4464-8902-068dc3677e00","system_id":"levelo_inurba_marseille","lat":43.21173,"lon":5.35056,"is_reserved":false,"is_disabled":false,"rental_uris":{"android":"levelo://app?vid=f0057ca2-de2d-4464-8902-068dc3677e00","ios":"levelo://app?vid=f0057ca2-de2d-4464-8902-068dc3677e00"},"vehicle_type_id":"4","last_reported":1751127104,"current_range_meters":14400,"station_id":"st_cvj6sg6p6f1abm77japg","pricing_plan_id":"cebpf4jnsgd1na2vs0mg"},{"bike_id":"724ab3f9-ba2e-43eb-8523-66482cf1612c","system_id":"levelo_inurba_marseille","lat":43.30432,"lon":5.38898,"is_reserved":false,"is_disabled":false,"rental_uris":{"android":"levelo://app?vid=724ab3f9-ba2e-43eb-8523-66482cf1612c","ios":"levelo://app?vid=724ab3f9-ba2e-43eb-8523-66482cf1612c"},"vehicle_type_id":"4","last_reported":1751127104,"current_range_meters":14800,"station_id":"ce4bgk12rcd13ifvqbi0","pricing_plan_id":"cebpf4jnsgd1na2vs0mg"},{"bike_id":"16814516-810a-4923-af59-a1911b692323","system_id":"levelo_inurba_marseille","lat":43.25006,"lon":5.38929,"is_reserved":false,"is_disabled":false,"rental_uris":{"android":"levelo://app?vid=16814516-810a-4923-af59-a1911b692323","ios":"levelo://app?vid=16814516-810a-4923-af59-a1911b692323"},"vehicle_type_id":"4","last_reported":1751127104,"current_range_meters":14800,"station_id":"ce4bhgp2rcd13ifvqfd0","pricing_plan_id":"cebpf4jnsgd1na2vs0mg"},{"bike_id":"a1c0d684-6cae-442c-9932-e85bd6ff68d2","system_id":"levelo_inurba_marseille","lat":43.27499,"lon":5.4245,"is_reserved":false,"is_disabled":false,"rental_uris":{"android":"levelo://app?vid=a1c0d684-6cae-442c-9932-e85bd6ff68d2","ios":"levelo://app?vid=a1c0d684-6cae-442c-9932-e85bd6ff68d2"},"vehicle_type_id":"4","last_reported":1751127104,"current_range_meters":14800,"station_id":"ce4bhn92rcd13ifvqgrg","pricing_plan_id":"cebpf4jnsgd1na2vs0mg"},{"bike_id":"91b65e10-0e4e-418a-bcf7-105b8872a5de","system_id":"levelo_inurba_marseille","lat":43.22936,"lon":5.35376,"is_reserved":false,"is_disabled":false,"rental_uris":{"android":"levelo://app?vid=91b65e10-0e4e-418a-bcf7-105b8872a5de","ios":"levelo://app?vid=91b65e10-0e4e-418a-bcf7-105b8872a5de"},"vehicle_type_id":"4","last_reported":1751127104,"current_range_meters":14800,"station_id":"cpo3532slgdg3j2ikp40","pricing_plan_id":"cebpf4jnsgd1na2vs0mg"},{"bike_id":"c4e23027-fb76-4e12-a17a-e866f2d0c4a5","system_id":"levelo_inurba_marseille","lat":43.26078,"lon":5.37534,"is_reserved":false,"is_disabled":false,"rental_uris":{"android":"levelo://app?vid=c4e23027-fb76-4e12-a17a-e866f2d0c4a5","ios":"levelo://app?vid=c4e23027-fb76-4e12-a17a-e866f2d0c4a5"},"vehicle_type_id":"4","last_reported":1751127104,"current_range_meters":15200,"station_id":"","pricing_plan_id":"cebpf4jnsgd1na2vs0mg"},{"bike_id":"6af79a00-84aa-4908-a347-34425e08c383","system_id":"levelo_inurba_marseille","lat":43.30252,"lon":5.37573,"is_reserved":false,"is_disabled":false,"rental_uris":{"android":"levelo://app?vid=6af79a00-84aa-4908-a347-34425e08c383","ios":"levelo://app?vid=6af79a00-84aa-4908-a347-34425e08c383"},"vehicle_type_id":"4","last_reported":1751127104,"current_range_meters":15200,"station_id":"","pricing_plan_id":"cebpf4jnsgd1na2vs0mg"},{"bike_id":"ffcf88e9-eead-45ca-b889-53869d51e2ac","system_id":"levelo_inurba_marseille","lat":43.29795,"lon":5.38097,"is_reserved":false,"is_disabled":false,"rental_uris":{"android":"levelo://app?vid=ffcf88e9-eead-45ca-b889-53869d51e2ac","ios":"levelo://app?vid=ffcf88e9-eead-45ca-b889-53869d51e2ac"},"vehicle_type_id":"4","last_reported":1751127104,"current_range_meters":15200,"station_id":"ce4bgip2rcd13ifvqbb0","pricing_plan_id":"cebpf4jnsgd1na2vs0mg"},{"bike_id":"455d20be-4ca1-4a85-9cef-7611d6f47dc3","system_id":"levelo_inurba_marseille","lat":43.28412,"lon":5.34991,"is_reserved":false,"is_disabled":false,"rental_uris":{"android":"levelo://app?vid=455d20be-4ca1-4a85-9cef-7611d6f47dc3","ios":"levelo://app?vid=455d20be-4ca1-4a85-9cef-7611d6f47dc3"},"vehicle_type_id":"4","last_reported":1751127104,"current_range_meters":16000,"station_id":"ce4bhbh2rcd13ifvqepg","pricing_plan_id":"cebpf4jnsgd1na2vs0mg"},{"bike_id":"9a721d67-8eef-475d-96f7-78188a5b0787","system_id":"levelo_inurba_marseille","lat":43.28398,"lon":5.35019,"is_reserved":false,"is_disabled":false,"rental_uris":{"android":"levelo://app?vid=9a721d67-8eef-475d-96f7-78188a5b0787","ios":"levelo://app?vid=9a721d67-8eef-475d-96f7-78188a5b0787"},"vehicle_type_id":"4","last_reported":1751127104,"current_range_meters":16000,"station_id":"ce4bhbh2rcd13ifvqepg","pricing_plan_id":"cebpf4jnsgd1na2vs0mg"},{"bike_id":"75b808bf-1730-4859-b9fa-61ac0f1729f5","system_id":"levelo_inurba_marseille","lat":43.29212,"lon":5.36034,"is_reserved":false,"is_disabled":false,"rental_uris":{"android":"levelo://app?vid=75b808bf-1730-4859-b9fa-61ac0f1729f5","ios":"levelo://app?vid=75b808bf-1730-4859-b9fa-61ac0f1729f5"},"vehicle_type_id":"4","last_reported":1751127104,"current_range_meters":16000,"station_id":"ce4bhbh2rcd13ifvqeqg","pricing_plan_id":"cebpf4jnsgd1na2vs0mg"},{"bike_id":"7025df18-330e-42a4-bc8d-a4cf9b4b300e","system_id":"levelo_inurba_marseille","lat":43.24811,"lon":5.37448,"is_reserved":false,"is_disabled":false,"rental_uris":{"android":"levelo://app?vid=7025df18-330e-42a4-bc8d-a4cf9b4b300e","ios":"levelo://app?vid=7025df18-330e-42a4-bc8d-a4cf9b4b300e"},"vehicle_type_id":"4","last_reported":1751127104,"current_range_meters":16000,"station_id":"ce4bhgh2rcd13ifvqfb0","pricing_plan_id":"cebpf4jnsgd1na2vs0mg"},{"bike_id":"f810be2a-3c00-446f-9ba1-1f3840ce349d","system_id":"levelo_inurba_marseille","lat":43.321099,"lon":5.367686,"is_reserved":false,"is_disabled":false,"rental_uris":{"android":"levelo://app?vid=f810be2a-3c00-446f-9ba1-1f3840ce349d","ios":"levelo://app?vid=f810be2a-3c00-446f-9ba1-1f3840ce349d"},"vehicle_type_id":"4","last_reported":1751127104,"current_range_meters":16000,"station_id":"ce4bhrh2rcd13ifvqhug","pricing_plan_id":"cebpf4jnsgd1na2vs0mg"},{"bike_id":"c0a2de0a-20e3-4e62-848e-f0dbd6b2e588","system_id":"levelo_inurba_marseille","lat":43.22527,"lon":5.34781,"is_reserved":false,"is_disabled":false,"rental_uris":{"android":"levelo://app?vid=c0a2de0a-20e3-4e62-848e-f0dbd6b2e588","ios":"levelo://app?vid=c0a2de0a-20e3-4e62-848e-f0dbd6b2e588"},"vehicle_type_id":"4","last_reported":1751127104,"current_range_meters":16000,"station_id":"st_cvj5dfep6f1abm77gieg","pricing_plan_id":"cebpf4jnsgd1na2vs0mg"},{"bike_id":"2a9a5366-8dad-42f1-bee6-ffb042c54776","system_id":"levelo_inurba_marseille","lat":43.21196,"lon":5.35082,"is_reserved":false,"is_disabled":false,"rental_uris":{"android":"levelo://app?vid=2a9a5366-8dad-42f1-bee6-ffb042c54776","ios":"levelo://app?vid=2a9a5366-8dad-42f1-bee6-ffb042c54776"},"vehicle_type_id":"4","last_reported":1751127104,"current_range_meters":16000,"station_id":"st_cvj6sg6p6f1abm77japg","pricing_plan_id":"cebpf4jnsgd1na2vs0mg"},{"bike_id":"e5e9e78b-4730-43b1-8651-5c571c638bbb","system_id":"levelo_inurba_marseille","lat":43.21201,"lon":5.35081,"is_reserved":false,"is_disabled":false,"rental_uris":{"android":"levelo://app?vid=e5e9e78b-4730-43b1-8651-5c571c638bbb","ios":"levelo://app?vid=e5e9e78b-4730-43b1-8651-5c571c638bbb"},"vehicle_type_id":"4","last_reported":1751127104,"current_range_meters":16000,"station_id":"st_cvj6sg6p6f1abm77japg","pricing_plan_id":"cebpf4jnsgd1na2vs0mg"},{"bike_id":"3a75f00f-da7e-4c4b-9146-8b409ba68115","system_id":"levelo_inurba_marseille","lat":43.31275,"lon":5.36849,"is_reserved":false,"is_disabled":false,"rental_uris":{"android":"levelo://app?vid=3a75f00f-da7e-4c4b-9146-8b409ba68115","ios":"levelo://app?vid=3a75f00f-da7e-4c4b-9146-8b409ba68115"},"vehicle_type_id":"4","last_reported":1751127104,"current_range_meters":16400,"station_id":"","pricing_plan_id":"cebpf4jnsgd1na2vs0mg"},{"bike_id":"4f7da216-f811-4c57-9e64-cdee7467bddd","system_id":"levelo_inurba_marseille","lat":43.225108,"lon":5.347871,"is_reserved":false,"is_disabled":false,"rental_uris":{"android":"levelo://app?vid=4f7da216-f811-4c57-9e64-cdee7467bddd","ios":"levelo://app?vid=4f7da216-f811-4c57-9e64-cdee7467bddd"},"vehicle_type_id":"4","last_reported":1751127104,"current_range_meters":16400,"station_id":"","pricing_plan_id":"cebpf4jnsgd1na2vs0mg"},{"bike_id":"be2d95a6-3f98-4b02-b87a-88864aee3ccb","system_id":"levelo_inurba_marseille","lat":43.29076,"lon":5.37177,"is_reserved":false,"is_disabled":false,"rental_uris":{"android":"levelo://app?vid=be2d95a6-3f98-4b02-b87a-88864aee3ccb","ios":"levelo://app?vid=be2d95a6-3f98-4b02-b87a-88864aee3ccb"},"vehicle_type_id":"4","last_reported":1751127104,"current_range_meters":16400,"station_id":"ce4bh5p2rcd13ifvqe4g","pricing_plan_id":"cebpf4jnsgd1na2vs0mg"},{"bike_id":"910652eb-a9d3-4ea9-95a8-4aadc7afb032","system_id":"levelo_inurba_marseille","lat":43.28432,"lon":5.35,"is_reserved":false,"is_disabled":false,"rental_uris":{"android":"levelo://app?vid=910652eb-a9d3-4ea9-95a8-4aadc7afb032","ios":"levelo://app?vid=910652eb-a9d3-4ea9-95a8-4aadc7afb032"},"vehicle_type_id":"4","last_reported":1751127104,"current_range_meters":16400,"station_id":"ce4bhbh2rcd13ifvqepg","pricing_plan_id":"cebpf4jnsgd1na2vs0mg"},{"bike_id":"2d64210f-bc56-457a-9e63-d4602ac1eb88","system_id":"levelo_inurba_marseille","lat":43.26216,"lon":5.37446,"is_reserved":false,"is_disabled":false,"rental_uris":{"android":"levelo://app?vid=2d64210f-bc56-457a-9e63-d4602ac1eb88","ios":"levelo://app?vid=2d64210f-bc56-457a-9e63-d4602ac1eb88"},"vehicle_type_id":"4","last_reported":1751127104,"current_range_meters":16400,"station_id":"ce4bhgp2rcd13ifvqfc0","pricing_plan_id":"cebpf4jnsgd1na2vs0mg"},{"bike_id":"9660d42f-62ac-4258-8a45-8063dd7e7505","system_id":"levelo_inurba_marseille","lat":43.22535,"lon":5.34765,"is_reserved":false,"is_disabled":false,"rental_uris":{"android":"levelo://app?vid=9660d42f-62ac-4258-8a45-8063dd7e7505","ios":"levelo://app?vid=9660d42f-62ac-4258-8a45-8063dd7e7505"},"vehicle_type_id":"4","last_reported":1751127104,"current_range_meters":16400,"station_id":"st_cvj5dfep6f1abm77gieg","pricing_plan_id":"cebpf4jnsgd1na2vs0mg"},{"bike_id":"8d1e10f3-20fd-463c-a408-0a21083b0c6f","system_id":"levelo_inurba_marseille","lat":43.21191,"lon":5.35071,"is_reserved":false,"is_disabled":false,"rental_uris":{"android":"levelo://app?vid=8d1e10f3-20fd-463c-a408-0a21083b0c6f","ios":"levelo://app?vid=8d1e10f3-20fd-463c-a408-0a21083b0c6f"},"vehicle_type_id":"4","last_reported":1751127104,"current_range_meters":16400,"station_id":"st_cvj6sg6p6f1abm77japg","pricing_plan_id":"cebpf4jnsgd1na2vs0mg"},{"bike_id":"5d5e13a4-10cc-485c-a362-06d02242e666","system_id":"levelo_inurba_marseille","lat":43.21229,"lon":5.35059,"is_reserved":false,"is_disabled":false,"rental_uris":{"android":"levelo://app?vid=5d5e13a4-10cc-485c-a362-06d02242e666","ios":"levelo://app?vid=5d5e13a4-10cc-485c-a362-06d02242e666"},"vehicle_type_id":"4","last_reported":1751127104,"current_range_meters":16800,"station_id":"","pricing_plan_id":"cebpf4jnsgd1na2vs0mg"},{"bike_id":"735fb3ec-51d3-42a0-b0e0-35a6ef148211","system_id":"levelo_inurba_marseille","lat":43.312857,"lon":5.373091,"is_reserved":false,"is_disabled":false,"rental_uris":{"android":"levelo://app?vid=735fb3ec-51d3-42a0-b0e0-35a6ef148211","ios":"levelo://app?vid=735fb3ec-51d3-42a0-b0e0-35a6ef148211"},"vehicle_type_id":"4","last_reported":1751127104,"current_range_meters":16800,"station_id":"","pricing_plan_id":"cebpf4jnsgd1na2vs0mg"},{"bike_id":"d308c658-b19c-49c0-8014-5506ff26f69a","system_id":"levelo_inurba_marseille","lat":43.23071,"lon":5.40496,"is_reserved":false,"is_disabled":false,"rental_uris":{"android":"levelo://app?vid=d308c658-b19c-49c0-8014-5506ff26f69a","ios":"levelo://app?vid=d308c658-b19c-49c0-8014-5506ff26f69a"},"vehicle_type_id":"4","last_reported":1751127104,"current_range_meters":16800,"station_id":"","pricing_plan_id":"cebpf4jnsgd1na2vs0mg"},{"bike_id":"120aa163-3b63-453e-a096-79aab3bf8611","system_id":"levelo_inurba_marseille","lat":43.292609,"lon":5.409118,"is_reserved":false,"is_disabled":false,"rental_uris":{"android":"levelo://app?vid=120aa163-3b63-453e-a096-79aab3bf8611","ios":"levelo://app?vid=120aa163-3b63-453e-a096-79aab3bf8611"},"vehicle_type_id":"4","last_reported":1751127104,"current_range_meters":16800,"station_id":"ce4bh192rcd13ifvqdc0","pricing_plan_id":"cebpf4jnsgd1na2vs0mg"},{"bike_id":"e5e3cd02-05df-4eb6-ae19-0375beaace7c","system_id":"levelo_inurba_marseille","lat":43.24162,"lon":5.36423,"is_reserved":false,"is_disabled":false,"rental_uris":{"android":"levelo://app?vid=e5e3cd02-05df-4eb6-ae19-0375beaace7c","ios":"levelo://app?vid=e5e3cd02-05df-4eb6-ae19-0375beaace7c"},"vehicle_type_id":"4","last_reported":1751127104,"current_range_meters":16800,"station_id":"cpo36qri1sfpv3e86is0","pricing_plan_id":"cebpf4jnsgd1na2vs0mg"},{"bike_id":"aff4423e-c2af-4b70-b9bd-2bdc17fafffc","system_id":"levelo_inurba_marseille","lat":43.24172,"lon":5.36414,"is_reserved":false,"is_disabled":false,"rental_uris":{"android":"levelo://app?vid=aff4423e-c2af-4b70-b9bd-2bdc17fafffc","ios":"levelo://app?vid=aff4423e-c2af-4b70-b9bd-2bdc17fafffc"},"vehicle_type_id":"4","last_reported":1751127104,"current_range_meters":16800,"station_id":"cpo36qri1sfpv3e86is0","pricing_plan_id":"cebpf4jnsgd1na2vs0mg"},{"bike_id":"b13877a6-4825-4d82-b46b-67fa8ad66c5d","system_id":"levelo_inurba_marseille","lat":43.21197,"lon":5.3508,"is_reserved":false,"is_disabled":false,"rental_uris":{"android":"levelo://app?vid=b13877a6-4825-4d82-b46b-67fa8ad66c5d","ios":"levelo://app?vid=b13877a6-4825-4d82-b46b-67fa8ad66c5d"},"vehicle_type_id":"4","last_reported":1751127104,"current_range_meters":16800,"station_id":"st_cvj6sg6p6f1abm77japg","pricing_plan_id":"cebpf4jnsgd1na2vs0mg"},{"bike_id":"9063a283-04e6-416a-b7fe-b3ed16db32dd","system_id":"levelo_inurba_marseille","lat":43.21198,"lon":5.35076,"is_reserved":false,"is_disabled":false,"rental_uris":{"android":"levelo://app?vid=9063a283-04e6-416a-b7fe-b3ed16db32dd","ios":"levelo://app?vid=9063a283-04e6-416a-b7fe-b3ed16db32dd"},"vehicle_type_id":"4","last_reported":1751127104,"current_range_meters":16800,"station_id":"st_cvj6sg6p6f1abm77japg","pricing_plan_id":"cebpf4jnsgd1na2vs0mg"},{"bike_id":"70273705-0512-4b12-b8c8-41029d1b123c","system_id":"levelo_inurba_marseille","lat":43.303621,"lon":5.367917,"is_reserved":false,"is_disabled":false,"rental_uris":{"android":"levelo://app?vid=70273705-0512-4b12-b8c8-41029d1b123c","ios":"levelo://app?vid=70273705-0512-4b12-b8c8-41029d1b123c"},"vehicle_type_id":"4","last_reported":1751127104,"current_range_meters":17200,"station_id":"","pricing_plan_id":"cebpf4jnsgd1na2vs0mg"},{"bike_id":"304b5ed9-c892-4d3f-be29-cf1d7f31f482","system_id":"levelo_inurba_marseille","lat":43.27382,"lon":5.36258,"is_reserved":false,"is_disabled":false,"rental_uris":{"android":"levelo://app?vid=304b5ed9-c892-4d3f-be29-cf1d7f31f482","ios":"levelo://app?vid=304b5ed9-c892-4d3f-be29-cf1d7f31f482"},"vehicle_type_id":"4","last_reported":1751127104,"current_range_meters":17200,"station_id":"ce4bhbh2rcd13ifvqeo0","pricing_plan_id":"cebpf4jnsgd1na2vs0mg"},{"bike_id":"9db98927-cbb4-438a-acea-aa3277b872f2","system_id":"levelo_inurba_marseille","lat":43.24808,"lon":5.37462,"is_reserved":false,"is_disabled":false,"rental_uris":{"android":"levelo://app?vid=9db98927-cbb4-438a-acea-aa3277b872f2","ios":"levelo://app?vid=9db98927-cbb4-438a-acea-aa3277b872f2"},"vehicle_type_id":"4","last_reported":1751127104,"current_range_meters":17200,"station_id":"ce4bhgh2rcd13ifvqfb0","pricing_plan_id":"cebpf4jnsgd1na2vs0mg"},{"bike_id":"e0bad0bc-6b22-419e-a7db-5b26eb862c36","system_id":"levelo_inurba_marseille","lat":43.25108,"lon":5.40304,"is_reserved":false,"is_disabled":false,"rental_uris":{"android":"levelo://app?vid=e0bad0bc-6b22-419e-a7db-5b26eb862c36","ios":"levelo://app?vid=e0bad0bc-6b22-419e-a7db-5b26eb862c36"},"vehicle_type_id":"4","last_reported":1751127104,"current_range_meters":17200,"station_id":"ce4bhlh2rcd13ifvqgig","pricing_plan_id":"cebpf4jnsgd1na2vs0mg"},{"bike_id":"908cd11d-d19a-40a4-a488-254614ce5263","system_id":"levelo_inurba_marseille","lat":43.23077,"lon":5.35504,"is_reserved":false,"is_disabled":false,"rental_uris":{"android":"levelo://app?vid=908cd11d-d19a-40a4-a488-254614ce5263","ios":"levelo://app?vid=908cd11d-d19a-40a4-a488-254614ce5263"},"vehicle_type_id":"4","last_reported":1751127104,"current_range_meters":17200,"station_id":"cpo3342slgdg3j2ifvpg","pricing_plan_id":"cebpf4jnsgd1na2vs0mg"},{"bike_id":"e0d25799-cb17-4211-bfde-68ae2503bf1f","system_id":"levelo_inurba_marseille","lat":43.23106,"lon":5.35481,"is_reserved":false,"is_disabled":false,"rental_uris":{"android":"levelo://app?vid=e0d25799-cb17-4211-bfde-68ae2503bf1f","ios":"levelo://app?vid=e0d25799-cb17-4211-bfde-68ae2503bf1f"},"vehicle_type_id":"4","last_reported":1751127104,"current_range_meters":17600,"station_id":"","pricing_plan_id":"cebpf4jnsgd1na2vs0mg"},{"bike_id":"66abb35b-0e37-4ddd-bf66-70dc62e8f63c","system_id":"levelo_inurba_marseille","lat":43.22865,"lon":5.35126,"is_reserved":false,"is_disabled":false,"rental_uris":{"android":"levelo://app?vid=66abb35b-0e37-4ddd-bf66-70dc62e8f63c","ios":"levelo://app?vid=66abb35b-0e37-4ddd-bf66-70dc62e8f63c"},"vehicle_type_id":"4","last_reported":1751127104,"current_range_meters":17600,"station_id":"","pricing_plan_id":"cebpf4jnsgd1na2vs0mg"},{"bike_id":"c595d0e1-c778-4abe-9c79-a9dd74f54e27","system_id":"levelo_inurba_marseille","lat":43.24476,"lon":5.37238,"is_reserved":false,"is_disabled":false,"rental_uris":{"android":"levelo://app?vid=c595d0e1-c778-4abe-9c79-a9dd74f54e27","ios":"levelo://app?vid=c595d0e1-c778-4abe-9c79-a9dd74f54e27"},"vehicle_type_id":"4","last_reported":1751127104,"current_range_meters":17600,"station_id":"","pricing_plan_id":"cebpf4jnsgd1na2vs0mg"},{"bike_id":"07ca4d32-f8d4-4205-8a35-c7ff63def9dc","system_id":"levelo_inurba_marseille","lat":43.225078,"lon":5.347877,"is_reserved":false,"is_disabled":false,"rental_uris":{"android":"levelo://app?vid=07ca4d32-f8d4-4205-8a35-c7ff63def9dc","ios":"levelo://app?vid=07ca4d32-f8d4-4205-8a35-c7ff63def9dc"},"vehicle_type_id":"4","last_reported":1751127104,"current_range_meters":17600,"station_id":"","pricing_plan_id":"cebpf4jnsgd1na2vs0mg"},{"bike_id":"a2619b13-7112-4fe6-80a1-f5601d60cbad","system_id":"levelo_inurba_marseille","lat":43.28264,"lon":5.35078,"is_reserved":false,"is_disabled":false,"rental_uris":{"android":"levelo://app?vid=a2619b13-7112-4fe6-80a1-f5601d60cbad","ios":"levelo://app?vid=a2619b13-7112-4fe6-80a1-f5601d60cbad"},"vehicle_type_id":"4","last_reported":1751127104,"current_range_meters":17600,"station_id":"ce4bhbp2rcd13ifvqerg","pricing_plan_id":"cebpf4jnsgd1na2vs0mg"},{"bike_id":"121d37e8-77e4-4abc-986d-01d48dbd2d9d","system_id":"levelo_inurba_marseille","lat":43.258671,"lon":5.398945,"is_reserved":false,"is_disabled":false,"rental_uris":{"android":"levelo://app?vid=121d37e8-77e4-4abc-986d-01d48dbd2d9d","ios":"levelo://app?vid=121d37e8-77e4-4abc-986d-01d48dbd2d9d"},"vehicle_type_id":"4","last_reported":1751127104,"current_range_meters":17600,"station_id":"ce4bhl92rcd13ifvqghg","pricing_plan_id":"cebpf4jnsgd1na2vs0mg"},{"bike_id":"8e41df63-5922-4cd3-94e1-83a309f71dc9","system_id":"levelo_inurba_marseille","lat":43.212,"lon":5.35088,"is_reserved":false,"is_disabled":false,"rental_uris":{"android":"levelo://app?vid=8e41df63-5922-4cd3-94e1-83a309f71dc9","ios":"levelo://app?vid=8e41df63-5922-4cd3-94e1-83a309f71dc9"},"vehicle_type_id":"4","last_reported":1751127104,"current_range_meters":17600,"station_id":"st_cvj6sg6p6f1abm77japg","pricing_plan_id":"cebpf4jnsgd1na2vs0mg"},{"bike_id":"72df8c60-f190-4633-b0af-a27bfeb7314d","system_id":"levelo_inurba_marseille","lat":43.24169,"lon":5.36379,"is_reserved":false,"is_disabled":false,"rental_uris":{"android":"levelo://app?vid=72df8c60-f190-4633-b0af-a27bfeb7314d","ios":"levelo://app?vid=72df8c60-f190-4633-b0af-a27bfeb7314d"},"vehicle_type_id":"4","last_reported":1751127104,"current_range_meters":18000,"station_id":"cpo36qri1sfpv3e86is0","pricing_plan_id":"cebpf4jnsgd1na2vs0mg"},{"bike_id":"792b80b4-905a-4277-9591-ec1829b5bde0","system_id":"levelo_inurba_marseille","lat":43.21769,"lon":5.34584,"is_reserved":false,"is_disabled":false,"rental_uris":{"android":"levelo://app?vid=792b80b4-905a-4277-9591-ec1829b5bde0","ios":"levelo://app?vid=792b80b4-905a-4277-9591-ec1829b5bde0"},"vehicle_type_id":"4","last_reported":1751127104,"current_range_meters":18000,"station_id":"st_cvj6r9ubvosntc0bgbag","pricing_plan_id":"cebpf4jnsgd1na2vs0mg"},{"bike_id":"e8ea605e-e138-4e5e-ba06-7b44d8d7c125","system_id":"levelo_inurba_marseille","lat":43.212043,"lon":5.350832,"is_reserved":false,"is_disabled":false,"rental_uris":{"android":"levelo://app?vid=e8ea605e-e138-4e5e-ba06-7b44d8d7c125","ios":"levelo://app?vid=e8ea605e-e138-4e5e-ba06-7b44d8d7c125"},"vehicle_type_id":"4","last_reported":1751127104,"current_range_meters":18000,"station_id":"st_cvj6sg6p6f1abm77japg","pricing_plan_id":"cebpf4jnsgd1na2vs0mg"},{"bike_id":"66dbe837-f757-43b6-b4e7-c6549d9a34cc","system_id":"levelo_inurba_marseille","lat":43.2903,"lon":5.38646,"is_reserved":false,"is_disabled":false,"rental_uris":{"android":"levelo://app?vid=66dbe837-f757-43b6-b4e7-c6549d9a34cc","ios":"levelo://app?vid=66dbe837-f757-43b6-b4e7-c6549d9a34cc"},"vehicle_type_id":"4","last_reported":1751127104,"current_range_meters":18800,"station_id":"ce4bh4p2rcd13ifvqe0g","pricing_plan_id":"cebpf4jnsgd1na2vs0mg"},{"bike_id":"69dcd1dc-81c3-49cf-8d6f-a191c7d9445c","system_id":"levelo_inurba_marseille","lat":43.29007,"lon":5.35617,"is_reserved":false,"is_disabled":false,"rental_uris":{"android":"levelo://app?vid=69dcd1dc-81c3-49cf-8d6f-a191c7d9445c","ios":"levelo://app?vid=69dcd1dc-81c3-49cf-8d6f-a191c7d9445c"},"vehicle_type_id":"4","last_reported":1751127104,"current_range_meters":18800,"station_id":"ce4bhb92rcd13ifvqen0","pricing_plan_id":"cebpf4jnsgd1na2vs0mg"},{"bike_id":"fede116f-fe8f-4996-bd86-bef08c43bb15","system_id":"levelo_inurba_marseille","lat":43.284188,"lon":5.349918,"is_reserved":false,"is_disabled":false,"rental_uris":{"android":"levelo://app?vid=fede116f-fe8f-4996-bd86-bef08c43bb15","ios":"levelo://app?vid=fede116f-fe8f-4996-bd86-bef08c43bb15"},"vehicle_type_id":"4","last_reported":1751127104,"current_range_meters":18800,"station_id":"ce4bhbh2rcd13ifvqepg","pricing_plan_id":"cebpf4jnsgd1na2vs0mg"},{"bike_id":"4aeaf653-d823-4fb0-b0d6-e6f59346d5eb","system_id":"levelo_inurba_marseille","lat":43.28964,"lon":5.36386,"is_reserved":false,"is_disabled":false,"rental_uris":{"android":"levelo://app?vid=4aeaf653-d823-4fb0-b0d6-e6f59346d5eb","ios":"levelo://app?vid=4aeaf653-d823-4fb0-b0d6-e6f59346d5eb"},"vehicle_type_id":"4","last_reported":1751127104,"current_range_meters":18800,"station_id":"ce4bhc92rcd13ifvqetg","pricing_plan_id":"cebpf4jnsgd1na2vs0mg"},{"bike_id":"8877f127-a7ce-414e-92b5-3530f73ea89b","system_id":"levelo_inurba_marseille","lat":43.27905,"lon":5.38014,"is_reserved":false,"is_disabled":false,"rental_uris":{"android":"levelo://app?vid=8877f127-a7ce-414e-92b5-3530f73ea89b","ios":"levelo://app?vid=8877f127-a7ce-414e-92b5-3530f73ea89b"},"vehicle_type_id":"4","last_reported":1751127104,"current_range_meters":18800,"station_id":"ce4bhf92rcd13ifvqf50","pricing_plan_id":"cebpf4jnsgd1na2vs0mg"},{"bike_id":"bd213def-799d-4aab-a780-8c619d9d9973","system_id":"levelo_inurba_marseille","lat":43.26196,"lon":5.37449,"is_reserved":false,"is_disabled":false,"rental_uris":{"android":"levelo://app?vid=bd213def-799d-4aab-a780-8c619d9d9973","ios":"levelo://app?vid=bd213def-799d-4aab-a780-8c619d9d9973"},"vehicle_type_id":"4","last_reported":1751127104,"current_range_meters":18800,"station_id":"ce4bhgp2rcd13ifvqfc0","pricing_plan_id":"cebpf4jnsgd1na2vs0mg"},{"bike_id":"f1b5db61-3ba2-459c-82f7-210044fc660e","system_id":"levelo_inurba_marseille","lat":43.272065,"lon":5.391836,"is_reserved":false,"is_disabled":false,"rental_uris":{"android":"levelo://app?vid=f1b5db61-3ba2-459c-82f7-210044fc660e","ios":"levelo://app?vid=f1b5db61-3ba2-459c-82f7-210044fc660e"},"vehicle_type_id":"4","last_reported":1751127104,"current_range_meters":18800,"station_id":"ce4bhhp2rcd13ifvqfm0","pricing_plan_id":"cebpf4jnsgd1na2vs0mg"},{"bike_id":"86ca2c09-239c-4691-b6c8-16a4b4c7926e","system_id":"levelo_inurba_marseille","lat":43.3172,"lon":5.43723,"is_reserved":false,"is_disabled":false,"rental_uris":{"android":"levelo://app?vid=86ca2c09-239c-4691-b6c8-16a4b4c7926e","ios":"levelo://app?vid=86ca2c09-239c-4691-b6c8-16a4b4c7926e"},"vehicle_type_id":"4","last_reported":1751127104,"current_range_meters":18800,"station_id":"ce4bhp92rcd13ifvqhcg","pricing_plan_id":"cebpf4jnsgd1na2vs0mg"},{"bike_id":"4792a642-f8ff-4c6d-8472-c9d8e796ff3f","system_id":"levelo_inurba_marseille","lat":43.26939,"lon":5.40261,"is_reserved":false,"is_disabled":false,"rental_uris":{"android":"levelo://app?vid=4792a642-f8ff-4c6d-8472-c9d8e796ff3f","ios":"levelo://app?vid=4792a642-f8ff-4c6d-8472-c9d8e796ff3f"},"vehicle_type_id":"4","last_reported":1751127104,"current_range_meters":18800,"station_id":"cjm6bp8fraef2m0cb0m0","pricing_plan_id":"cebpf4jnsgd1na2vs0mg"},{"bike_id":"6e53ad1f-d4f5-4de6-9418-67b290ec993f","system_id":"levelo_inurba_marseille","lat":43.30941,"lon":5.4103,"is_reserved":false,"is_disabled":false,"rental_uris":{"android":"levelo://app?vid=6e53ad1f-d4f5-4de6-9418-67b290ec993f","ios":"levelo://app?vid=6e53ad1f-d4f5-4de6-9418-67b290ec993f"},"vehicle_type_id":"4","last_reported":1751127104,"current_range_meters":19200,"station_id":"","pricing_plan_id":"cebpf4jnsgd1na2vs0mg"},{"bike_id":"3e82f598-9d1d-4257-8afa-a4dc7305de09","system_id":"levelo_inurba_marseille","lat":43.21226,"lon":5.35075,"is_reserved":false,"is_disabled":false,"rental_uris":{"android":"levelo://app?vid=3e82f598-9d1d-4257-8afa-a4dc7305de09","ios":"levelo://app?vid=3e82f598-9d1d-4257-8afa-a4dc7305de09"},"vehicle_type_id":"4","last_reported":1751127104,"current_range_meters":19200,"station_id":"","pricing_plan_id":"cebpf4jnsgd1na2vs0mg"},{"bike_id":"818ee4b7-31e6-44dc-86be-67f7b3013149","system_id":"levelo_inurba_marseille","lat":43.28446,"lon":5.34981,"is_reserved":false,"is_disabled":false,"rental_uris":{"android":"levelo://app?vid=818ee4b7-31e6-44dc-86be-67f7b3013149","ios":"levelo://app?vid=818ee4b7-31e6-44dc-86be-67f7b3013149"},"vehicle_type_id":"4","last_reported":1751127104,"current_range_meters":19200,"station_id":"ce4bhbh2rcd13ifvqepg","pricing_plan_id":"cebpf4jnsgd1na2vs0mg"},{"bike_id":"78c0c55d-77e6-4428-91cc-a99b6b3e2d1c","system_id":"levelo_inurba_marseille","lat":43.284273,"lon":5.349754,"is_reserved":false,"is_disabled":false,"rental_uris":{"android":"levelo://app?vid=78c0c55d-77e6-4428-91cc-a99b6b3e2d1c","ios":"levelo://app?vid=78c0c55d-77e6-4428-91cc-a99b6b3e2d1c"},"vehicle_type_id":"4","last_reported":1751127104,"current_range_meters":19200,"station_id":"ce4bhbh2rcd13ifvqepg","pricing_plan_id":"cebpf4jnsgd1na2vs0mg"},{"bike_id":"fdbd174b-8fac-4dfd-9e69-c5a0ff3dbc0c","system_id":"levelo_inurba_marseille","lat":43.24656,"lon":5.38894,"is_reserved":false,"is_disabled":false,"rental_uris":{"android":"levelo://app?vid=fdbd174b-8fac-4dfd-9e69-c5a0ff3dbc0c","ios":"levelo://app?vid=fdbd174b-8fac-4dfd-9e69-c5a0ff3dbc0c"},"vehicle_type_id":"4","last_reported":1751127104,"current_range_meters":19200,"station_id":"ce4bhg12rcd13ifvqf60","pricing_plan_id":"cebpf4jnsgd1na2vs0mg"},{"bike_id":"7406fb04-50c4-4dd8-8789-2d5aeebc861e","system_id":"levelo_inurba_marseille","lat":43.24806,"lon":5.37459,"is_reserved":false,"is_disabled":false,"rental_uris":{"android":"levelo://app?vid=7406fb04-50c4-4dd8-8789-2d5aeebc861e","ios":"levelo://app?vid=7406fb04-50c4-4dd8-8789-2d5aeebc861e"},"vehicle_type_id":"4","last_reported":1751127104,"current_range_meters":19200,"station_id":"ce4bhgh2rcd13ifvqfb0","pricing_plan_id":"cebpf4jnsgd1na2vs0mg"},{"bike_id":"bc0333fd-1397-4952-b6c9-b389233d6324","system_id":"levelo_inurba_marseille","lat":43.25489,"lon":5.3761,"is_reserved":false,"is_disabled":false,"rental_uris":{"android":"levelo://app?vid=bc0333fd-1397-4952-b6c9-b389233d6324","ios":"levelo://app?vid=bc0333fd-1397-4952-b6c9-b389233d6324"},"vehicle_type_id":"4","last_reported":1751127104,"current_range_meters":19200,"station_id":"ce4bhh12rcd13ifvqff0","pricing_plan_id":"cebpf4jnsgd1na2vs0mg"},{"bike_id":"b101ca3c-0945-4c03-aecd-cb61c372ddb7","system_id":"levelo_inurba_marseille","lat":43.32671,"lon":5.40999,"is_reserved":false,"is_disabled":false,"rental_uris":{"android":"levelo://app?vid=b101ca3c-0945-4c03-aecd-cb61c372ddb7","ios":"levelo://app?vid=b101ca3c-0945-4c03-aecd-cb61c372ddb7"},"vehicle_type_id":"4","last_reported":1751127104,"current_range_meters":19200,"station_id":"ce4bhpp2rcd13ifvqhgg","pricing_plan_id":"cebpf4jnsgd1na2vs0mg"},{"bike_id":"7cd73daf-6410-4b72-a872-e5224e9d29ff","system_id":"levelo_inurba_marseille","lat":43.274078,"lon":5.41209,"is_reserved":false,"is_disabled":false,"rental_uris":{"android":"levelo://app?vid=7cd73daf-6410-4b72-a872-e5224e9d29ff","ios":"levelo://app?vid=7cd73daf-6410-4b72-a872-e5224e9d29ff"},"vehicle_type_id":"4","last_reported":1751127104,"current_range_meters":19600,"station_id":"","pricing_plan_id":"cebpf4jnsgd1na2vs0mg"},{"bike_id":"d5c5398f-ea7c-4e43-82b6-abfcba61c266","system_id":"levelo_inurba_marseille","lat":43.30642,"lon":5.40087,"is_reserved":false,"is_disabled":false,"rental_uris":{"android":"levelo://app?vid=d5c5398f-ea7c-4e43-82b6-abfcba61c266","ios":"levelo://app?vid=d5c5398f-ea7c-4e43-82b6-abfcba61c266"},"vehicle_type_id":"4","last_reported":1751127104,"current_range_meters":19600,"station_id":"ce4bh112rcd13ifvqda0","pricing_plan_id":"cebpf4jnsgd1na2vs0mg"},{"bike_id":"1f752ded-b8ec-4bc6-8178-64fe3a965820","system_id":"levelo_inurba_marseille","lat":43.24395,"lon":5.37067,"is_reserved":false,"is_disabled":false,"rental_uris":{"android":"levelo://app?vid=1f752ded-b8ec-4bc6-8178-64fe3a965820","ios":"levelo://app?vid=1f752ded-b8ec-4bc6-8178-64fe3a965820"},"vehicle_type_id":"4","last_reported":1751127104,"current_range_meters":19600,"station_id":"ce4bhhh2rcd13ifvqfk0","pricing_plan_id":"cebpf4jnsgd1na2vs0mg"},{"bike_id":"52f9100a-34c4-414d-abb5-d5c6bbbda80c","system_id":"levelo_inurba_marseille","lat":43.26961,"lon":5.40247,"is_reserved":false,"is_disabled":false,"rental_uris":{"android":"levelo://app?vid=52f9100a-34c4-414d-abb5-d5c6bbbda80c","ios":"levelo://app?vid=52f9100a-34c4-414d-abb5-d5c6bbbda80c"},"vehicle_type_id":"4","last_reported":1751127104,"current_range_meters":19600,"station_id":"cjm6bp8fraef2m0cb0m0","pricing_plan_id":"cebpf4jnsgd1na2vs0mg"},{"bike_id":"acb6143c-5d5a-42d2-985e-cddacaebaaa1","system_id":"levelo_inurba_marseille","lat":43.30735,"lon":5.42432,"is_reserved":false,"is_disabled":false,"rental_uris":{"android":"levelo://app?vid=acb6143c-5d5a-42d2-985e-cddacaebaaa1","ios":"levelo://app?vid=acb6143c-5d5a-42d2-985e-cddacaebaaa1"},"vehicle_type_id":"4","last_reported":1751127104,"current_range_meters":19600,"station_id":"st_cvj6ca6bvosntc0bfgr0","pricing_plan_id":"cebpf4jnsgd1na2vs0mg"},{"bike_id":"bf24b26e-7f51-4120-9a48-54c87edaa2f7","system_id":"levelo_inurba_marseille","lat":43.21196,"lon":5.35068,"is_reserved":false,"is_disabled":false,"rental_uris":{"android":"levelo://app?vid=bf24b26e-7f51-4120-9a48-54c87edaa2f7","ios":"levelo://app?vid=bf24b26e-7f51-4120-9a48-54c87edaa2f7"},"vehicle_type_id":"4","last_reported":1751127104,"current_range_meters":19600,"station_id":"st_cvj6sg6p6f1abm77japg","pricing_plan_id":"cebpf4jnsgd1na2vs0mg"},{"bike_id":"7f212f1e-9b22-4ad3-88bb-18d999719345","system_id":"levelo_inurba_marseille","lat":43.21211,"lon":5.35086,"is_reserved":false,"is_disabled":false,"rental_uris":{"android":"levelo://app?vid=7f212f1e-9b22-4ad3-88bb-18d999719345","ios":"levelo://app?vid=7f212f1e-9b22-4ad3-88bb-18d999719345"},"vehicle_type_id":"4","last_reported":1751127104,"current_range_meters":19600,"station_id":"st_cvj6sg6p6f1abm77japg","pricing_plan_id":"cebpf4jnsgd1na2vs0mg"},{"bike_id":"3a38d560-f7c4-4636-b5df-2c9f1e4db516","system_id":"levelo_inurba_marseille","lat":43.29579,"lon":5.3675,"is_reserved":false,"is_disabled":false,"rental_uris":{"android":"levelo://app?vid=3a38d560-f7c4-4636-b5df-2c9f1e4db516","ios":"levelo://app?vid=3a38d560-f7c4-4636-b5df-2c9f1e4db516"},"vehicle_type_id":"4","last_reported":1751127104,"current_range_meters":20000,"station_id":"ce4bgph2rcd13ifvqc2g","pricing_plan_id":"cebpf4jnsgd1na2vs0mg"},{"bike_id":"d0cf40c6-50cf-4028-9f5e-ef13a899521d","system_id":"levelo_inurba_marseille","lat":43.28614,"lon":5.35103,"is_reserved":false,"is_disabled":false,"rental_uris":{"android":"levelo://app?vid=d0cf40c6-50cf-4028-9f5e-ef13a899521d","ios":"levelo://app?vid=d0cf40c6-50cf-4028-9f5e-ef13a899521d"},"vehicle_type_id":"4","last_reported":1751127104,"current_range_meters":20000,"station_id":"ce4bhch2rcd13ifvqeug","pricing_plan_id":"cebpf4jnsgd1na2vs0mg"},{"bike_id":"41d758e7-f5f3-472a-a769-61425a92f53d","system_id":"levelo_inurba_marseille","lat":43.26569,"lon":5.37282,"is_reserved":false,"is_disabled":false,"rental_uris":{"android":"levelo://app?vid=41d758e7-f5f3-472a-a769-61425a92f53d","ios":"levelo://app?vid=41d758e7-f5f3-472a-a769-61425a92f53d"},"vehicle_type_id":"4","last_reported":1751127104,"current_range_meters":20000,"station_id":"ce4bhg12rcd13ifvqf70","pricing_plan_id":"cebpf4jnsgd1na2vs0mg"},{"bike_id":"694c7c4b-e51a-4ab7-99c2-d3428516e98b","system_id":"levelo_inurba_marseille","lat":43.26697,"lon":5.38268,"is_reserved":false,"is_disabled":false,"rental_uris":{"android":"levelo://app?vid=694c7c4b-e51a-4ab7-99c2-d3428516e98b","ios":"levelo://app?vid=694c7c4b-e51a-4ab7-99c2-d3428516e98b"},"vehicle_type_id":"4","last_reported":1751127104,"current_range_meters":20000,"station_id":"ce4bhg92rcd13ifvqf90","pricing_plan_id":"cebpf4jnsgd1na2vs0mg"},{"bike_id":"ed92a9c0-fb64-496e-9fee-b9638536839a","system_id":"levelo_inurba_marseille","lat":43.2317,"lon":5.35545,"is_reserved":false,"is_disabled":false,"rental_uris":{"android":"levelo://app?vid=ed92a9c0-fb64-496e-9fee-b9638536839a","ios":"levelo://app?vid=ed92a9c0-fb64-496e-9fee-b9638536839a"},"vehicle_type_id":"4","last_reported":1751127104,"current_range_meters":20000,"station_id":"ce4bhu92rcd13ifvqi70","pricing_plan_id":"cebpf4jnsgd1na2vs0mg"},{"bike_id":"59f561f1-858a-4941-a229-0357bec69d62","system_id":"levelo_inurba_marseille","lat":43.28357,"lon":5.38111,"is_reserved":false,"is_disabled":false,"rental_uris":{"android":"levelo://app?vid=59f561f1-858a-4941-a229-0357bec69d62","ios":"levelo://app?vid=59f561f1-858a-4941-a229-0357bec69d62"},"vehicle_type_id":"4","last_reported":1751127104,"current_range_meters":20400,"station_id":"ce4bh412rcd13ifvqdr0","pricing_plan_id":"cebpf4jnsgd1na2vs0mg"},{"bike_id":"c33671e3-cc95-4b7a-9ef5-d272f60b9d5b","system_id":"levelo_inurba_marseille","lat":43.27385,"lon":5.36265,"is_reserved":false,"is_disabled":false,"rental_uris":{"android":"levelo://app?vid=c33671e3-cc95-4b7a-9ef5-d272f60b9d5b","ios":"levelo://app?vid=c33671e3-cc95-4b7a-9ef5-d272f60b9d5b"},"vehicle_type_id":"4","last_reported":1751127104,"current_range_meters":20400,"station_id":"ce4bhbh2rcd13ifvqeo0","pricing_plan_id":"cebpf4jnsgd1na2vs0mg"},{"bike_id":"622b2287-a04e-43e3-ac9d-7dbbacabec95","system_id":"levelo_inurba_marseille","lat":43.28426,"lon":5.34995,"is_reserved":false,"is_disabled":false,"rental_uris":{"android":"levelo://app?vid=622b2287-a04e-43e3-ac9d-7dbbacabec95","ios":"levelo://app?vid=622b2287-a04e-43e3-ac9d-7dbbacabec95"},"vehicle_type_id":"4","last_reported":1751127104,"current_range_meters":20400,"station_id":"ce4bhbh2rcd13ifvqepg","pricing_plan_id":"cebpf4jnsgd1na2vs0mg"},{"bike_id":"c3b76c9c-a3fc-4d6c-a653-eacbc3c43519","system_id":"levelo_inurba_marseille","lat":43.28618,"lon":5.35112,"is_reserved":false,"is_disabled":false,"rental_uris":{"android":"levelo://app?vid=c3b76c9c-a3fc-4d6c-a653-eacbc3c43519","ios":"levelo://app?vid=c3b76c9c-a3fc-4d6c-a653-eacbc3c43519"},"vehicle_type_id":"4","last_reported":1751127104,"current_range_meters":20400,"station_id":"ce4bhch2rcd13ifvqeug","pricing_plan_id":"cebpf4jnsgd1na2vs0mg"},{"bike_id":"7f8218ac-4241-47de-9356-9b0fe91827b8","system_id":"levelo_inurba_marseille","lat":43.24386,"lon":5.370502,"is_reserved":false,"is_disabled":false,"rental_uris":{"android":"levelo://app?vid=7f8218ac-4241-47de-9356-9b0fe91827b8","ios":"levelo://app?vid=7f8218ac-4241-47de-9356-9b0fe91827b8"},"vehicle_type_id":"4","last_reported":1751127104,"current_range_meters":20400,"station_id":"ce4bhhh2rcd13ifvqfk0","pricing_plan_id":"cebpf4jnsgd1na2vs0mg"},{"bike_id":"e7641e58-176f-485d-9342-129003cdc52b","system_id":"levelo_inurba_marseille","lat":43.32105,"lon":5.3677,"is_reserved":false,"is_disabled":false,"rental_uris":{"android":"levelo://app?vid=e7641e58-176f-485d-9342-129003cdc52b","ios":"levelo://app?vid=e7641e58-176f-485d-9342-129003cdc52b"},"vehicle_type_id":"4","last_reported":1751127104,"current_range_meters":20400,"station_id":"ce4bhrh2rcd13ifvqhug","pricing_plan_id":"cebpf4jnsgd1na2vs0mg"},{"bike_id":"fcad9888-fad6-41e0-b317-83b146129f2a","system_id":"levelo_inurba_marseille","lat":43.22931,"lon":5.35394,"is_reserved":false,"is_disabled":false,"rental_uris":{"android":"levelo://app?vid=fcad9888-fad6-41e0-b317-83b146129f2a","ios":"levelo://app?vid=fcad9888-fad6-41e0-b317-83b146129f2a"},"vehicle_type_id":"4","last_reported":1751127104,"current_range_meters":20400,"station_id":"cpo3532slgdg3j2ikp40","pricing_plan_id":"cebpf4jnsgd1na2vs0mg"},{"bike_id":"0530d8ac-0114-461d-a8ba-09ea5add6fae","system_id":"levelo_inurba_marseille","lat":43.24187,"lon":5.36421,"is_reserved":false,"is_disabled":false,"rental_uris":{"android":"levelo://app?vid=0530d8ac-0114-461d-a8ba-09ea5add6fae","ios":"levelo://app?vid=0530d8ac-0114-461d-a8ba-09ea5add6fae"},"vehicle_type_id":"4","last_reported":1751127104,"current_range_meters":20400,"station_id":"cpo36qri1sfpv3e86is0","pricing_plan_id":"cebpf4jnsgd1na2vs0mg"},{"bike_id":"108380d7-0c6f-4f4b-a7f1-0b1b5aef0f6e","system_id":"levelo_inurba_marseille","lat":43.26562,"lon":5.37277,"is_reserved":false,"is_disabled":false,"rental_uris":{"android":"levelo://app?vid=108380d7-0c6f-4f4b-a7f1-0b1b5aef0f6e","ios":"levelo://app?vid=108380d7-0c6f-4f4b-a7f1-0b1b5aef0f6e"},"vehicle_type_id":"4","last_reported":1751127104,"current_range_meters":20800,"station_id":"ce4bhg12rcd13ifvqf70","pricing_plan_id":"cebpf4jnsgd1na2vs0mg"},{"bike_id":"6796914d-2ce5-4882-9d87-b68567886885","system_id":"levelo_inurba_marseille","lat":43.2318,"lon":5.35591,"is_reserved":false,"is_disabled":false,"rental_uris":{"android":"levelo://app?vid=6796914d-2ce5-4882-9d87-b68567886885","ios":"levelo://app?vid=6796914d-2ce5-4882-9d87-b68567886885"},"vehicle_type_id":"4","last_reported":1751127104,"current_range_meters":20800,"station_id":"ce4bhu92rcd13ifvqi70","pricing_plan_id":"cebpf4jnsgd1na2vs0mg"},{"bike_id":"baf8283d-da3b-4ed0-bc66-8c0af8b88a2a","system_id":"levelo_inurba_marseille","lat":43.28406,"lon":5.3501,"is_reserved":false,"is_disabled":false,"rental_uris":{"android":"levelo://app?vid=baf8283d-da3b-4ed0-bc66-8c0af8b88a2a","ios":"levelo://app?vid=baf8283d-da3b-4ed0-bc66-8c0af8b88a2a"},"vehicle_type_id":"4","last_reported":1751127104,"current_range_meters":21600,"station_id":"ce4bhbh2rcd13ifvqepg","pricing_plan_id":"cebpf4jnsgd1na2vs0mg"},{"bike_id":"9e1e900c-cea4-4b09-a151-d194cc61880d","system_id":"levelo_inurba_marseille","lat":43.26686,"lon":5.3827,"is_reserved":false,"is_disabled":false,"rental_uris":{"android":"levelo://app?vid=9e1e900c-cea4-4b09-a151-d194cc61880d","ios":"levelo://app?vid=9e1e900c-cea4-4b09-a151-d194cc61880d"},"vehicle_type_id":"4","last_reported":1751127104,"current_range_meters":21600,"station_id":"ce4bhg92rcd13ifvqf90","pricing_plan_id":"cebpf4jnsgd1na2vs0mg"},{"bike_id":"e9627ca0-5856-420f-909d-8f12da40de48","system_id":"levelo_inurba_marseille","lat":43.27503,"lon":5.42442,"is_reserved":false,"is_disabled":false,"rental_uris":{"android":"levelo://app?vid=e9627ca0-5856-420f-909d-8f12da40de48","ios":"levelo://app?vid=e9627ca0-5856-420f-909d-8f12da40de48"},"vehicle_type_id":"4","last_reported":1751127104,"current_range_meters":21600,"station_id":"ce4bhn92rcd13ifvqgrg","pricing_plan_id":"cebpf4jnsgd1na2vs0mg"},{"bike_id":"54e6c144-89e2-4352-bee4-0bc5a4da8819","system_id":"levelo_inurba_marseille","lat":43.32658,"lon":5.40989,"is_reserved":false,"is_disabled":false,"rental_uris":{"android":"levelo://app?vid=54e6c144-89e2-4352-bee4-0bc5a4da8819","ios":"levelo://app?vid=54e6c144-89e2-4352-bee4-0bc5a4da8819"},"vehicle_type_id":"4","last_reported":1751127104,"current_range_meters":21600,"station_id":"ce4bhpp2rcd13ifvqhgg","pricing_plan_id":"cebpf4jnsgd1na2vs0mg"},{"bike_id":"c26f0771-40ed-44cc-adcd-5757ceb9846c","system_id":"levelo_inurba_marseille","lat":43.26942,"lon":5.40257,"is_reserved":false,"is_disabled":false,"rental_uris":{"android":"levelo://app?vid=c26f0771-40ed-44cc-adcd-5757ceb9846c","ios":"levelo://app?vid=c26f0771-40ed-44cc-adcd-5757ceb9846c"},"vehicle_type_id":"4","last_reported":1751127104,"current_range_meters":21600,"station_id":"cjm6bp8fraef2m0cb0m0","pricing_plan_id":"cebpf4jnsgd1na2vs0mg"},{"bike_id":"2a8dfd6c-801a-42f1-91ce-8e25cb9ed277","system_id":"levelo_inurba_marseille","lat":43.21757,"lon":5.34616,"is_reserved":false,"is_disabled":false,"rental_uris":{"android":"levelo://app?vid=2a8dfd6c-801a-42f1-91ce-8e25cb9ed277","ios":"levelo://app?vid=2a8dfd6c-801a-42f1-91ce-8e25cb9ed277"},"vehicle_type_id":"4","last_reported":1751127104,"current_range_meters":21600,"station_id":"st_cvj6r9ubvosntc0bgbag","pricing_plan_id":"cebpf4jnsgd1na2vs0mg"},{"bike_id":"bfbf956d-bf2d-455d-af06-cab128bc4806","system_id":"levelo_inurba_marseille","lat":43.21748,"lon":5.34617,"is_reserved":false,"is_disabled":false,"rental_uris":{"android":"levelo://app?vid=bfbf956d-bf2d-455d-af06-cab128bc4806","ios":"levelo://app?vid=bfbf956d-bf2d-455d-af06-cab128bc4806"},"vehicle_type_id":"4","last_reported":1751127104,"current_range_meters":21600,"station_id":"st_cvj6r9ubvosntc0bgbag","pricing_plan_id":"cebpf4jnsgd1na2vs0mg"},{"bike_id":"ff359b06-e82b-4518-b602-f9c62162a27d","system_id":"levelo_inurba_marseille","lat":43.211915,"lon":5.350698,"is_reserved":false,"is_disabled":false,"rental_uris":{"android":"levelo://app?vid=ff359b06-e82b-4518-b602-f9c62162a27d","ios":"levelo://app?vid=ff359b06-e82b-4518-b602-f9c62162a27d"},"vehicle_type_id":"4","last_reported":1751127104,"current_range_meters":21600,"station_id":"st_cvj6sg6p6f1abm77japg","pricing_plan_id":"cebpf4jnsgd1na2vs0mg"},{"bike_id":"9b21541a-edfa-4c28-a626-87d8c52e11d9","system_id":"levelo_inurba_marseille","lat":43.31764,"lon":5.37453,"is_reserved":false,"is_disabled":false,"rental_uris":{"android":"levelo://app?vid=9b21541a-edfa-4c28-a626-87d8c52e11d9","ios":"levelo://app?vid=9b21541a-edfa-4c28-a626-87d8c52e11d9"},"vehicle_type_id":"4","last_reported":1751127104,"current_range_meters":22000,"station_id":"","pricing_plan_id":"cebpf4jnsgd1na2vs0mg"},{"bike_id":"38d27167-3914-44dc-ae9e-5085b4b8ca9b","system_id":"levelo_inurba_marseille","lat":43.31341,"lon":5.39695,"is_reserved":false,"is_disabled":false,"rental_uris":{"android":"levelo://app?vid=38d27167-3914-44dc-ae9e-5085b4b8ca9b","ios":"levelo://app?vid=38d27167-3914-44dc-ae9e-5085b4b8ca9b"},"vehicle_type_id":"4","last_reported":1751127104,"current_range_meters":22000,"station_id":"ce4bgvp2rcd13ifvqcu0","pricing_plan_id":"cebpf4jnsgd1na2vs0mg"},{"bike_id":"d4ac4454-39ce-49f5-9c8a-e5845093676f","system_id":"levelo_inurba_marseille","lat":43.28411,"lon":5.35003,"is_reserved":false,"is_disabled":false,"rental_uris":{"android":"levelo://app?vid=d4ac4454-39ce-49f5-9c8a-e5845093676f","ios":"levelo://app?vid=d4ac4454-39ce-49f5-9c8a-e5845093676f"},"vehicle_type_id":"4","last_reported":1751127104,"current_range_meters":22000,"station_id":"ce4bhbh2rcd13ifvqepg","pricing_plan_id":"cebpf4jnsgd1na2vs0mg"},{"bike_id":"3eabe1e2-f9f5-41cb-a4ed-73ca7f909c5c","system_id":"levelo_inurba_marseille","lat":43.21183,"lon":5.35083,"is_reserved":false,"is_disabled":false,"rental_uris":{"android":"levelo://app?vid=3eabe1e2-f9f5-41cb-a4ed-73ca7f909c5c","ios":"levelo://app?vid=3eabe1e2-f9f5-41cb-a4ed-73ca7f909c5c"},"vehicle_type_id":"4","last_reported":1751127104,"current_range_meters":22000,"station_id":"st_cvj6sg6p6f1abm77japg","pricing_plan_id":"cebpf4jnsgd1na2vs0mg"},{"bike_id":"ba926bfc-9632-4680-b0ed-32a040d6fb83","system_id":"levelo_inurba_marseille","lat":43.21186,"lon":5.35075,"is_reserved":false,"is_disabled":false,"rental_uris":{"android":"levelo://app?vid=ba926bfc-9632-4680-b0ed-32a040d6fb83","ios":"levelo://app?vid=ba926bfc-9632-4680-b0ed-32a040d6fb83"},"vehicle_type_id":"4","last_reported":1751127104,"current_range_meters":22000,"station_id":"st_cvj6sg6p6f1abm77japg","pricing_plan_id":"cebpf4jnsgd1na2vs0mg"},{"bike_id":"1ac664aa-f2a4-4b75-879f-dcb93272d133","system_id":"levelo_inurba_marseille","lat":43.320292,"lon":5.409526,"is_reserved":false,"is_disabled":false,"rental_uris":{"android":"levelo://app?vid=1ac664aa-f2a4-4b75-879f-dcb93272d133","ios":"levelo://app?vid=1ac664aa-f2a4-4b75-879f-dcb93272d133"},"vehicle_type_id":"4","last_reported":1751127104,"current_range_meters":22400,"station_id":"","pricing_plan_id":"cebpf4jnsgd1na2vs0mg"},{"bike_id":"6c8986d3-382a-468b-b1a4-4f66d4a9b373","system_id":"levelo_inurba_marseille","lat":43.30622,"lon":5.37231,"is_reserved":false,"is_disabled":false,"rental_uris":{"android":"levelo://app?vid=6c8986d3-382a-468b-b1a4-4f66d4a9b373","ios":"levelo://app?vid=6c8986d3-382a-468b-b1a4-4f66d4a9b373"},"vehicle_type_id":"4","last_reported":1751127104,"current_range_meters":22400,"station_id":"ce4bgqh2rcd13ifvqc4g","pricing_plan_id":"cebpf4jnsgd1na2vs0mg"},{"bike_id":"0a4a86ea-1ba8-4dd8-8b87-70308b5fc867","system_id":"levelo_inurba_marseille","lat":43.32467,"lon":5.36581,"is_reserved":false,"is_disabled":false,"rental_uris":{"android":"levelo://app?vid=0a4a86ea-1ba8-4dd8-8b87-70308b5fc867","ios":"levelo://app?vid=0a4a86ea-1ba8-4dd8-8b87-70308b5fc867"},"vehicle_type_id":"4","last_reported":1751127104,"current_range_meters":22400,"station_id":"ce4bhs12rcd13ifvqhvg","pricing_plan_id":"cebpf4jnsgd1na2vs0mg"},{"bike_id":"452e8211-4f44-45d0-814a-3e9e25b8c44e","system_id":"levelo_inurba_marseille","lat":43.212036,"lon":5.35063,"is_reserved":false,"is_disabled":false,"rental_uris":{"android":"levelo://app?vid=452e8211-4f44-45d0-814a-3e9e25b8c44e","ios":"levelo://app?vid=452e8211-4f44-45d0-814a-3e9e25b8c44e"},"vehicle_type_id":"4","last_reported":1751127104,"current_range_meters":22400,"station_id":"st_cvj6sg6p6f1abm77japg","pricing_plan_id":"cebpf4jnsgd1na2vs0mg"},{"bike_id":"2a7d4522-b0dd-48c1-8653-7a6d0e58cc43","system_id":"levelo_inurba_marseille","lat":43.32081,"lon":5.40116,"is_reserved":false,"is_disabled":false,"rental_uris":{"android":"levelo://app?vid=2a7d4522-b0dd-48c1-8653-7a6d0e58cc43","ios":"levelo://app?vid=2a7d4522-b0dd-48c1-8653-7a6d0e58cc43"},"vehicle_type_id":"4","last_reported":1751127104,"current_range_meters":22800,"station_id":"","pricing_plan_id":"cebpf4jnsgd1na2vs0mg"},{"bike_id":"01712c06-ecef-4653-bfcf-6e87d8ead188","system_id":"levelo_inurba_marseille","lat":43.29806,"lon":5.38094,"is_reserved":false,"is_disabled":false,"rental_uris":{"android":"levelo://app?vid=01712c06-ecef-4653-bfcf-6e87d8ead188","ios":"levelo://app?vid=01712c06-ecef-4653-bfcf-6e87d8ead188"},"vehicle_type_id":"4","last_reported":1751127104,"current_range_meters":22800,"station_id":"ce4bgip2rcd13ifvqbb0","pricing_plan_id":"cebpf4jnsgd1na2vs0mg"},{"bike_id":"e76efbe8-a7d8-4fe2-bb82-9ec265efb891","system_id":"levelo_inurba_marseille","lat":43.29605,"lon":5.38102,"is_reserved":false,"is_disabled":false,"rental_uris":{"android":"levelo://app?vid=e76efbe8-a7d8-4fe2-bb82-9ec265efb891","ios":"levelo://app?vid=e76efbe8-a7d8-4fe2-bb82-9ec265efb891"},"vehicle_type_id":"4","last_reported":1751127104,"current_range_meters":22800,"station_id":"ce4bgl12rcd13ifvqbo0","pricing_plan_id":"cebpf4jnsgd1na2vs0mg"},{"bike_id":"33ff6f6c-6f97-47b9-a07f-660ba4aafa6d","system_id":"levelo_inurba_marseille","lat":43.30141,"lon":5.39851,"is_reserved":false,"is_disabled":false,"rental_uris":{"android":"levelo://app?vid=33ff6f6c-6f97-47b9-a07f-660ba4aafa6d","ios":"levelo://app?vid=33ff6f6c-6f97-47b9-a07f-660ba4aafa6d"},"vehicle_type_id":"4","last_reported":1751127104,"current_range_meters":22800,"station_id":"ce4bh0h2rcd13ifvqd40","pricing_plan_id":"cebpf4jnsgd1na2vs0mg"},{"bike_id":"15132cdd-0b10-4485-85ec-af008cafdbf4","system_id":"levelo_inurba_marseille","lat":43.2842,"lon":5.34995,"is_reserved":false,"is_disabled":false,"rental_uris":{"android":"levelo://app?vid=15132cdd-0b10-4485-85ec-af008cafdbf4","ios":"levelo://app?vid=15132cdd-0b10-4485-85ec-af008cafdbf4"},"vehicle_type_id":"4","last_reported":1751127104,"current_range_meters":22800,"station_id":"ce4bhbh2rcd13ifvqepg","pricing_plan_id":"cebpf4jnsgd1na2vs0mg"},{"bike_id":"f477ab52-1e13-4350-af7d-4e7b3ad9c01d","system_id":"levelo_inurba_marseille","lat":43.255,"lon":5.37654,"is_reserved":false,"is_disabled":false,"rental_uris":{"android":"levelo://app?vid=f477ab52-1e13-4350-af7d-4e7b3ad9c01d","ios":"levelo://app?vid=f477ab52-1e13-4350-af7d-4e7b3ad9c01d"},"vehicle_type_id":"4","last_reported":1751127104,"current_range_meters":22800,"station_id":"ce4bhh12rcd13ifvqff0","pricing_plan_id":"cebpf4jnsgd1na2vs0mg"},{"bike_id":"d192b54c-3cee-43bf-b9ba-ebe5381351f6","system_id":"levelo_inurba_marseille","lat":43.21767,"lon":5.34584,"is_reserved":false,"is_disabled":false,"rental_uris":{"android":"levelo://app?vid=d192b54c-3cee-43bf-b9ba-ebe5381351f6","ios":"levelo://app?vid=d192b54c-3cee-43bf-b9ba-ebe5381351f6"},"vehicle_type_id":"4","last_reported":1751127104,"current_range_meters":22800,"station_id":"st_cvj6r9ubvosntc0bgbag","pricing_plan_id":"cebpf4jnsgd1na2vs0mg"},{"bike_id":"987422cd-1f24-48ed-aeba-cde8d3ebb316","system_id":"levelo_inurba_marseille","lat":43.28848,"lon":5.39332,"is_reserved":false,"is_disabled":false,"rental_uris":{"android":"levelo://app?vid=987422cd-1f24-48ed-aeba-cde8d3ebb316","ios":"levelo://app?vid=987422cd-1f24-48ed-aeba-cde8d3ebb316"},"vehicle_type_id":"4","last_reported":1751127104,"current_range_meters":23200,"station_id":"ce4bh2p2rcd13ifvqdi0","pricing_plan_id":"cebpf4jnsgd1na2vs0mg"},{"bike_id":"47526409-c30c-4861-8249-924be23e7b76","system_id":"levelo_inurba_marseille","lat":43.28123,"lon":5.37868,"is_reserved":false,"is_disabled":false,"rental_uris":{"android":"levelo://app?vid=47526409-c30c-4861-8249-924be23e7b76","ios":"levelo://app?vid=47526409-c30c-4861-8249-924be23e7b76"},"vehicle_type_id":"4","last_reported":1751127104,"current_range_meters":23200,"station_id":"ce4bha12rcd13ifvqee0","pricing_plan_id":"cebpf4jnsgd1na2vs0mg"},{"bike_id":"a3da0c01-e4a1-4204-9a35-367880ac2c0d","system_id":"levelo_inurba_marseille","lat":43.28945,"lon":5.36636,"is_reserved":false,"is_disabled":false,"rental_uris":{"android":"levelo://app?vid=a3da0c01-e4a1-4204-9a35-367880ac2c0d","ios":"levelo://app?vid=a3da0c01-e4a1-4204-9a35-367880ac2c0d"},"vehicle_type_id":"4","last_reported":1751127104,"current_range_meters":23200,"station_id":"ce4bhap2rcd13ifvqek0","pricing_plan_id":"cebpf4jnsgd1na2vs0mg"},{"bike_id":"654f937a-c8bb-4e4c-9804-5467e7cc345c","system_id":"levelo_inurba_marseille","lat":43.26197,"lon":5.37462,"is_reserved":false,"is_disabled":false,"rental_uris":{"android":"levelo://app?vid=654f937a-c8bb-4e4c-9804-5467e7cc345c","ios":"levelo://app?vid=654f937a-c8bb-4e4c-9804-5467e7cc345c"},"vehicle_type_id":"4","last_reported":1751127104,"current_range_meters":23200,"station_id":"ce4bhgp2rcd13ifvqfc0","pricing_plan_id":"cebpf4jnsgd1na2vs0mg"},