{"last_updated":1678561543,"ttl":30,"version":"2.2","data":{"bikes":[{"bike_id":"4b48e255-c52f-445e-999c-ebc2eb0e6070","system_id":"levelo_inurba_marseille","lat":43.312239,"lon":5.368562,"is_reserved":false,"is_disabled":false,"rental_uris":{"android":"levelo://app?vid=4b48e255-c52f-445e-999c-ebc2eb0e6070","ios":"levelo://app?vid=4b48e255-c52f-445e-999c-ebc2eb0e6070"},"vehicle_type_id":"4","last_reported":1678561544,"current_range_meters":2800,"station_id":"ce4bgl92rcd13ifvqbq0","pricing_plan_id":"free"},{"bike_id":"4e8a888d-9b22-435d-b4fa-d76c229f9665","system_id":"levelo_inurba_marseille","lat":43.31221,"lon":5.36854,"is_reserved":false,"is_disabled":false,"rental_uris":{"android":"levelo://app?vid=4e8a888d-9b22-435d-b4fa-d76c229f9665","ios":"levelo://app?vid=4e8a888d-9b22-435d-b4fa-d76c229f9665"},"vehicle_type_id":"4","last_reported":1678561544,"current_range_meters":0,"station_id":"","pricing_plan_id":"free"},{"bike_id":"6fcf0723-1f35-4134-94b2-dce114f37e3f","system_id":"levelo_inurba_marseille","lat":43.312239,"lon":5.368562,"is_reserved":false,"is_disabled":false,"rental_uris":{"android":"levelo://app?vid=6fcf0723-1f35-4134-94b2-dce114f37e3f","ios":"levelo://app?vid=6fcf0723-1f35-4134-94b2-dce114f37e3f"},"vehicle_type_id":"4","last_reported":1678561544,"current_range_meters":22000,"station_id":"ce4bgl92rcd13ifvqbq0","pricing_plan_id":"free"},{"bike_id":"1c512036-5241-414a-b94b-eb6ed845f171","system_id":"levelo_inurba_marseille","lat":43.312239,"lon":5.368562,"is_reserved":false,"is_disabled":false,"rental_uris":{"android":"levelo://app?vid=1c512036-5241-414a-b94b-eb6ed845f171","ios":"levelo://app?vid=1c512036-5241-414a-b94b-eb6ed845f171"},"vehicle_type_id":"4","last_reported":1678561544,"current_range_meters":3600,"station_id":"ce4bgl92rcd13ifvqbq0","pricing_plan_id":"free"},{"bike_id":"56221090-092f-4f0d-9e02-06ba8e5d3ac8","system_id":"levelo_inurba_marseille","lat":43.312239,"lon":5.368562,"is_reserved":false,"is_disabled":false,"rental_uris":{"android":"levelo://app?vid=56221090-092f-4f0d-9e02-06ba8e5d3ac8","ios":"levelo://app?vid=56221090-092f-4f0d-9e02-06ba8e5d3ac8"},"vehicle_type_id":"4","last_reported":1678561544,"current_range_meters":12000,"station_id":"ce4bgl92rcd13ifvqbq0","pricing_plan_id":"free"},{"bike_id":"89ceb6bb-bfec-475e-b6e2-b401971a3e3d","system_id":"levelo_inurba_marseille","lat":43.31488,"lon":5.37308,"is_reserved":false,"is_disabled":false,"rental_uris":{"android":"levelo://app?vid=89ceb6bb-bfec-475e-b6e2-b401971a3e3d","ios":"levelo://app?vid=89ceb6bb-bfec-475e-b6e2-b401971a3e3d"},"vehicle_type_id":"4","last_reported":1678561544,"current_range_meters":5200,"station_id":"ce4bgt12rcd13ifvqcd0","pricing_plan_id":"free"},{"bike_id":"c7d10942-cf34-44c1-afe0-1edcbee12699","system_id":"levelo_inurba_marseille","lat":43.308614,"lon":5.372098,"is_reserved":false,"is_disabled":false,"rental_uris":{"android":"levelo://app?vid=c7d10942-cf34-44c1-afe0-1edcbee12699","ios":"levelo://app?vid=c7d10942-cf34-44c1-afe0-1edcbee12699"},"vehicle_type_id":"4","last_reported":1678561544,"current_range_meters":2400,"station_id":"ce4bguh2rcd13ifvqckg","pricing_plan_id":"free"},{"bike_id":"4a0e601d-c14f-4e74-b91b-7fa21d6ddeb0","system_id":"levelo_inurba_marseille","lat":43.30895,"lon":5.37188,"is_reserved":false,"is_disabled":false,"rental_uris":{"android":"levelo://app?vid=4a0e601d-c14f-4e74-b91b-7fa21d6ddeb0","ios":"levelo://app?vid=4a0e601d-c14f-4e74-b91b-7fa21d6ddeb0"},"vehicle_type_id":"4","last_reported":1678561544,"current_range_meters":10800,"station_id":"","pricing_plan_id":"free"},{"bike_id":"ccf42d3a-5a2a-44b4-8a68-aa47682ebb3c","system_id":"levelo_inurba_marseille","lat":43.31795,"lon":5.36815,"is_reserved":false,"is_disabled":false,"rental_uris":{"android":"levelo://app?vid=ccf42d3a-5a2a-44b4-8a68-aa47682ebb3c","ios":"levelo://app?vid=ccf42d3a-5a2a-44b4-8a68-aa47682ebb3c"},"vehicle_type_id":"4","last_reported":1678561544,"current_range_meters":13200,"station_id":"","pricing_plan_id":"free"},{"bike_id":"bd2b18df-bfc7-4c6f-a6e6-8f2cb0f3dd36","system_id":"levelo_inurba_marseille","lat":43.308614,"lon":5.372098,"is_reserved":false,"is_disabled":false,"rental_uris":{"android":"levelo://app?vid=bd2b18df-bfc7-4c6f-a6e6-8f2cb0f3dd36","ios":"levelo://app?vid=bd2b18df-bfc7-4c6f-a6e6-8f2cb0f3dd36"},"vehicle_type_id":"4","last_reported":1678561544,"current_range_meters":0,"station_id":"ce4bguh2rcd13ifvqckg","pricing_plan_id":"free"},{"bike_id":"178e57c6-c3b3-41cf-928b-2f4e3c175b5f","system_id":"levelo_inurba_marseille","lat":43.308614,"lon":5.372098,"is_reserved":false,"is_disabled":false,"rental_uris":{"android":"levelo://app?vid=178e57c6-c3b3-41cf-928b-2f4e3c175b5f","ios":"levelo://app?vid=178e57c6-c3b3-41cf-928b-2f4e3c175b5f"},"vehicle_type_id":"4","last_reported":1678561544,"current_range_meters":0,"station_id":"ce4bguh2rcd13ifvqckg","pricing_plan_id":"free"},{"bike_id":"31c8190e-6e34-457a-a79f-a9b9091d0cb8","system_id":"levelo_inurba_marseille","lat":43.305989,"lon":5.37225,"is_reserved":false,"is_disabled":false,"rental_uris":{"android":"levelo://app?vid=31c8190e-6e34-457a-a79f-a9b9091d0cb8","ios":"levelo://app?vid=31c8190e-6e34-457a-a79f-a9b9091d0cb8"},"vehicle_type_id":"4","last_reported":1678561544,"current_range_meters":15200,"station_id":"ce4bgqh2rcd13ifvqc4g","pricing_plan_id":"free"},{"bike_id":"e396857b-bc9e-4fd8-9e4b-082d9f0ed727","system_id":"levelo_inurba_marseille","lat":43.305989,"lon":5.37225,"is_reserved":false,"is_disabled":false,"rental_uris":{"android":"levelo://app?vid=e396857b-bc9e-4fd8-9e4b-082d9f0ed727","ios":"levelo://app?vid=e396857b-bc9e-4fd8-9e4b-082d9f0ed727"},"vehicle_type_id":"4","last_reported":1678561544,"current_range_meters":0,"station_id":"ce4bgqh2rcd13ifvqc4g","pricing_plan_id":"free"},{"bike_id":"003ec28f-bc25-4cdd-a524-c6b02aa6e319","system_id":"levelo_inurba_marseille","lat":43.317075,"lon":5.377367,"is_reserved":false,"is_disabled":false,"rental_uris":{"android":"levelo://app?vid=003ec28f-bc25-4cdd-a524-c6b02aa6e319","ios":"levelo://app?vid=003ec28f-bc25-4cdd-a524-c6b02aa6e319"},"vehicle_type_id":"4","last_reported":1678561544,"current_range_meters":15600,"station_id":"ce4bgth2rcd13ifvqch0","pricing_plan_id":"free"},{"bike_id":"878f0e81-eda5-425b-9816-843edae93cbf","system_id":"levelo_inurba_marseille","lat":43.317075,"lon":5.377367,"is_reserved":false,"is_disabled":false,"rental_uris":{"android":"levelo://app?vid=878f0e81-eda5-425b-9816-843edae93cbf","ios":"levelo://app?vid=878f0e81-eda5-425b-9816-843edae93cbf"},"vehicle_type_id":"4","last_reported":1678561544,"current_range_meters":400,"station_id":"ce4bgth2rcd13ifvqch0","pricing_plan_id":"free"},{"bike_id":"41e000cc-6398-41bc-913c-f093c948a0bb","system_id":"levelo_inurba_marseille","lat":43.317075,"lon":5.377367,"is_reserved":false,"is_disabled":false,"rental_uris":{"android":"levelo://app?vid=41e000cc-6398-41bc-913c-f093c948a0bb","ios":"levelo://app?vid=41e000cc-6398-41bc-913c-f093c948a0bb"},"vehicle_type_id":"4","last_reported":1678561544,"current_range_meters":24400,"station_id":"ce4bgth2rcd13ifvqch0","pricing_plan_id":"free"},{"bike_id":"83129ceb-0c43-479c-94b1-245c23138ee4","system_id":"levelo_inurba_marseille","lat":43.30342,"lon":5.37255,"is_reserved":false,"is_disabled":false,"rental_uris":{"android":"levelo://app?vid=83129ceb-0c43-479c-94b1-245c23138ee4","ios":"levelo://app?vid=83129ceb-0c43-479c-94b1-245c23138ee4"},"vehicle_type_id":"4","last_reported":1678561544,"current_range_meters":0,"station_id":"","pricing_plan_id":"free"},{"bike_id":"e3a0d52a-1214-4495-a3e5-9ad8849f2305","system_id":"levelo_inurba_marseille","lat":43.301899,"lon":5.366185,"is_reserved":false,"is_disabled":false,"rental_uris":{"android":"levelo://app?vid=e3a0d52a-1214-4495-a3e5-9ad8849f2305","ios":"levelo://app?vid=e3a0d52a-1214-4495-a3e5-9ad8849f2305"},"vehicle_type_id":"4","last_reported":1678561544,"current_range_meters":17600,"station_id":"ce4bgup2rcd13ifvqcn0","pricing_plan_id":"free"},{"bike_id":"73cef0f6-08b9-45f0-8ecf-f63ed5e1cfdc","system_id":"levelo_inurba_marseille","lat":43.30795,"lon":5.38139,"is_reserved":false,"is_disabled":false,"rental_uris":{"android":"levelo://app?vid=73cef0f6-08b9-45f0-8ecf-f63ed5e1cfdc","ios":"levelo://app?vid=73cef0f6-08b9-45f0-8ecf-f63ed5e1cfdc"},"vehicle_type_id":"4","last_reported":1678561544,"current_range_meters":2000,"station_id":"","pricing_plan_id":"free"},{"bike_id":"3de1a332-9941-44c2-b37c-01b75eb04efd","system_id":"levelo_inurba_marseille","lat":43.308012,"lon":5.381511,"is_reserved":false,"is_disabled":false,"rental_uris":{"android":"levelo://app?vid=3de1a332-9941-44c2-b37c-01b75eb04efd","ios":"levelo://app?vid=3de1a332-9941-44c2-b37c-01b75eb04efd"},"vehicle_type_id":"4","last_reported":1678561544,"current_range_meters":11600,"station_id":"ce4bgt12rcd13ifvqce0","pricing_plan_id":"free"},{"bike_id":"0c35790a-2601-4954-855d-c659150313c0","system_id":"levelo_inurba_marseille","lat":43.308012,"lon":5.381511,"is_reserved":false,"is_disabled":false,"rental_uris":{"android":"levelo://app?vid=0c35790a-2601-4954-855d-c659150313c0","ios":"levelo://app?vid=0c35790a-2601-4954-855d-c659150313c0"},"vehicle_type_id":"4","last_reported":1678561544,"current_range_meters":19600,"station_id":"ce4bgt12rcd13ifvqce0","pricing_plan_id":"free"},{"bike_id":"1f517d7a-7aa9-492b-b3e7-9b2c82c7d159","system_id":"levelo_inurba_marseille","lat":43.304606,"lon":5.379026,"is_reserved":false,"is_disabled":false,"rental_uris":{"android":"levelo://app?vid=1f517d7a-7aa9-492b-b3e7-9b2c82c7d159","ios":"levelo://app?vid=1f517d7a-7aa9-492b-b3e7-9b2c82c7d159"},"vehicle_type_id":"4","last_reported":1678561544,"current_range_meters":6800,"station_id":"ce4bgup2rcd13ifvqcn0","pricing_plan_id":"free"},{"bike_id":"13652986-8c2a-43a1-b7e8-ad94ff13e036","system_id":"levelo_inurba_marseille","lat":43.304606,"lon":5.379026,"is_reserved":false,"is_disabled":false,"rental_uris":{"android":"levelo://app?vid=13652986-8c2a-43a1-b7e8-ad94ff13e036","ios":"levelo://app?vid=13652986-8c2a-43a1-b7e8-ad94ff13e036"},"vehicle_type_id":"4","last_reported":1678561544,"current_range_meters":21600,"station_id":"ce4bgup2rcd13ifvqcn0","pricing_plan_id":"free"},{"bike_id":"b1e33c96-2976-403e-a275-5c8cb23edbb6","system_id":"levelo_inurba_marseille","lat":43.304606,"lon":5.379026,"is_reserved":false,"is_disabled":false,"rental_uris":{"android":"levelo://app?vid=b1e33c96-2976-403e-a275-5c8cb23edbb6","ios":"levelo://app?vid=b1e33c96-2976-403e-a275-5c8cb23edbb6"},"vehicle_type_id":"4","last_reported":1678561544,"current_range_meters":8800,"station_id":"ce4bgup2rcd13ifvqcn0","pricing_plan_id":"free"},{"bike_id":"2569cca9-0520-438d-a2a6-435da97731d2","system_id":"levelo_inurba_marseille","lat":43.304606,"lon":5.379026,"is_reserved":false,"is_disabled":false,"rental_uris":{"android":"levelo://app?vid=2569cca9-0520-438d-a2a6-435da97731d2","ios":"levelo://app?vid=2569cca9-0520-438d-a2a6-435da97731d2"},"vehicle_type_id":"4","last_reported":1678561544,"current_range_meters":15600,"station_id":"ce4bgup2rcd13ifvqcn0","pricing_plan_id":"free"},{"bike_id":"1f34bc72-e5f1-4ac6-aec4-6891ed3223bc","system_id":"levelo_inurba_marseille","lat":43.304606,"lon":5.379026,"is_reserved":false,"is_disabled":false,"rental_uris":{"android":"levelo://app?vid=1f34bc72-e5f1-4ac6-aec4-6891ed3223bc","ios":"levelo://app?vid=1f34bc72-e5f1-4ac6-aec4-6891ed3223bc"},"vehicle_type_id":"4","last_reported":1678561544,"current_range_meters":24000,"station_id":"ce4bgup2rcd13ifvqcn0","pricing_plan_id":"free"},{"bike_id":"9a40f161-1d88-4d63-be57-946702715a2c","system_id":"levelo_inurba_marseille","lat":43.304606,"lon":5.379026,"is_reserved":false,"is_disabled":false,"rental_uris":{"android":"levelo://app?vid=9a40f161-1d88-4d63-be57-946702715a2c","ios":"levelo://app?vid=9a40f161-1d88-4d63-be57-946702715a2c"},"vehicle_type_id":"4","last_reported":1678561544,"current_range_meters":13600,"station_id":"ce4bgup2rcd13ifvqcn0","pricing_plan_id":"free"},{"bike_id":"f8b33688-ebcf-40ee-aa4e-3584f3b3cb44","system_id":"levelo_inurba_marseille","lat":43.304606,"lon":5.379026,"is_reserved":false,"is_disabled":false,"rental_uris":{"android":"levelo://app?vid=f8b33688-ebcf-40ee-aa4e-3584f3b3cb44","ios":"levelo://app?vid=f8b33688-ebcf-40ee-aa4e-3584f3b3cb44"},"vehicle_type_id":"4","last_reported":1678561544,"current_range_meters":0,"station_id":"ce4bgup2rcd13ifvqcn0","pricing_plan_id":"free"},{"bike_id":"0cbfe67d-4232-47d6-911d-4ea90b78dcae","system_id":"levelo_inurba_marseille","lat":43.313571,"lon":5.384829,"is_reserved":false,"is_disabled":false,"rental_uris":{"android":"levelo://app?vid=0cbfe67d-4232-47d6-911d-4ea90b78dcae","ios":"levelo://app?vid=0cbfe67d-4232-47d6-911d-4ea90b78dcae"},"vehicle_type_id":"4","last_reported":1678561544,"current_range_meters":22800,"station_id":"ce4bgt92rcd13ifvqcf0","pricing_plan_id":"free"},{"bike_id":"d40b6d92-f5d9-4569-b6fb-9e4085c108f1","system_id":"levelo_inurba_marseille","lat":43.29853,"lon":5.36285,"is_reserved":false,"is_disabled":false,"rental_uris":{"android":"levelo://app?vid=d40b6d92-f5d9-4569-b6fb-9e4085c108f1","ios":"levelo://app?vid=d40b6d92-f5d9-4569-b6fb-9e4085c108f1"},"vehicle_type_id":"4","last_reported":1678561544,"current_range_meters":0,"station_id":"ce4bgpp2rcd13ifvqc3g","pricing_plan_id":"free"},{"bike_id":"715af64e-3762-45e3-991e-0695c0a6db36","system_id":"levelo_inurba_marseille","lat":43.305364,"lon":5.384119,"is_reserved":false,"is_disabled":false,"rental_uris":{"android":"levelo://app?vid=715af64e-3762-45e3-991e-0695c0a6db36","ios":"levelo://app?vid=715af64e-3762-45e3-991e-0695c0a6db36"},"vehicle_type_id":"4","last_reported":1678561544,"current_range_meters":0,"station_id":"ce4bgg92rcd13ifvqb30","pricing_plan_id":"free"},{"bike_id":"14b3e6df-e8fb-4f23-a0c5-0f98a1c550af","system_id":"levelo_inurba_marseille","lat":43.305364,"lon":5.384119,"is_reserved":false,"is_disabled":false,"rental_uris":{"android":"levelo://app?vid=14b3e6df-e8fb-4f23-a0c5-0f98a1c550af","ios":"levelo://app?vid=14b3e6df-e8fb-4f23-a0c5-0f98a1c550af"},"vehicle_type_id":"4","last_reported":1678561544,"current_range_meters":11200,"station_id":"ce4bgg92rcd13ifvqb30","pricing_plan_id":"free"},{"bike_id":"6400ee7d-46cd-4047-bbd6-4bcf54129e81","system_id":"levelo_inurba_marseille","lat":43.305364,"lon":5.384119,"is_reserved":false,"is_disabled":false,"rental_uris":{"android":"levelo://app?vid=6400ee7d-46cd-4047-bbd6-4bcf54129e81","ios":"levelo://app?vid=6400ee7d-46cd-4047-bbd6-4bcf54129e81"},"vehicle_type_id":"4","last_reported":1678561544,"current_range_meters":8800,"station_id":"ce4bgg92rcd13ifvqb30","pricing_plan_id":"free"},{"bike_id":"ccb2001e-bdb9-4735-b8d5-5500c214d75b","system_id":"levelo_inurba_marseille","lat":43.311646,"lon":5.387097,"is_reserved":false,"is_disabled":false,"rental_uris":{"android":"levelo://app?vid=ccb2001e-bdb9-4735-b8d5-5500c214d75b","ios":"levelo://app?vid=ccb2001e-bdb9-4735-b8d5-5500c214d75b"},"vehicle_type_id":"4","last_reported":1678561544,"current_range_meters":14000,"station_id":"","pricing_plan_id":"free"},{"bike_id":"f99d3b47-bc88-4d0a-bfb4-8566c3fa73b5","system_id":"levelo_inurba_marseille","lat":43.311722,"lon":5.387247,"is_reserved":false,"is_disabled":false,"rental_uris":{"android":"levelo://app?vid=f99d3b47-bc88-4d0a-bfb4-8566c3fa73b5","ios":"levelo://app?vid=f99d3b47-bc88-4d0a-bfb4-8566c3fa73b5"},"vehicle_type_id":"4","last_reported":1678561544,"current_range_meters":3600,"station_id":"ce4bgv12rcd13ifvqcp0","pricing_plan_id":"free"},{"bike_id":"22ebd2a6-f80f-4c38-ada3-263028153afb","system_id":"levelo_inurba_marseille","lat":43.328371,"lon":5.366912,"is_reserved":false,"is_disabled":false,"rental_uris":{"android":"levelo://app?vid=22ebd2a6-f80f-4c38-ada3-263028153afb","ios":"levelo://app?vid=22ebd2a6-f80f-4c38-ada3-263028153afb"},"vehicle_type_id":"4","last_reported":1678561544,"current_range_meters":29200,"station_id":"ce4bhs92rcd13ifvqi0g","pricing_plan_id":"free"},{"bike_id":"70db027b-5957-4c3d-a2f9-a8a4d79b8eac","system_id":"levelo_inurba_marseille","lat":43.32828,"lon":5.3669,"is_reserved":false,"is_disabled":false,"rental_uris":{"android":"levelo://app?vid=70db027b-5957-4c3d-a2f9-a8a4d79b8eac","ios":"levelo://app?vid=70db027b-5957-4c3d-a2f9-a8a4d79b8eac"},"vehicle_type_id":"4","last_reported":1678561544,"current_range_meters":4400,"station_id":"","pricing_plan_id":"free"},{"bike_id":"c96f2d64-10b9-4826-93b5-7efc32bb0caf","system_id":"levelo_inurba_marseille","lat":43.328371,"lon":5.366909,"is_reserved":false,"is_disabled":false,"rental_uris":{"android":"levelo://app?vid=c96f2d64-10b9-4826-93b5-7efc32bb0caf","ios":"levelo://app?vid=c96f2d64-10b9-4826-93b5-7efc32bb0caf"},"vehicle_type_id":"4","last_reported":1678561544,"current_range_meters":9600,"station_id":"ce4bhs92rcd13ifvqi0g","pricing_plan_id":"free"},{"bike_id":"a0a89ec3-99fc-43ed-bdde-ded8faf83dec","system_id":"levelo_inurba_marseille","lat":43.2969,"lon":5.37287,"is_reserved":false,"is_disabled":false,"rental_uris":{"android":"levelo://app?vid=a0a89ec3-99fc-43ed-bdde-ded8faf83dec","ios":"levelo://app?vid=a0a89ec3-99fc-43ed-bdde-ded8faf83dec"},"vehicle_type_id":"4","last_reported":1678561544,"current_range_meters":10000,"station_id":"ce4bgk12rcd13ifvqbj0","pricing_plan_id":"free"},{"bike_id":"19c2df6c-5321-4705-bb60-ee6ddc617704","system_id":"levelo_inurba_marseille","lat":43.2962,"lon":5.37146,"is_reserved":false,"is_disabled":false,"rental_uris":{"android":"levelo://app?vid=19c2df6c-5321-4705-bb60-ee6ddc617704","ios":"levelo://app?vid=19c2df6c-5321-4705-bb60-ee6ddc617704"},"vehicle_type_id":"4","last_reported":1678561544,"current_range_meters":0,"station_id":"","pricing_plan_id":"free"},{"bike_id":"e5f25d41-3cec-44a9-ba83-18ca0bc7160d","system_id":"levelo_inurba_marseille","lat":43.29583,"lon":5.36745,"is_reserved":false,"is_disabled":false,"rental_uris":{"android":"levelo://app?vid=e5f25d41-3cec-44a9-ba83-18ca0bc7160d","ios":"levelo://app?vid=e5f25d41-3cec-44a9-ba83-18ca0bc7160d"},"vehicle_type_id":"4","last_reported":1678561544,"current_range_meters":26000,"station_id":"","pricing_plan_id":"free"},{"bike_id":"8eb31d33-dce1-47e1-93a7-1df76a31b8a6","system_id":"levelo_inurba_marseille","lat":43.296131,"lon":5.370791,"is_reserved":false,"is_disabled":false,"rental_uris":{"android":"levelo://app?vid=8eb31d33-dce1-47e1-93a7-1df76a31b8a6","ios":"levelo://app?vid=8eb31d33-dce1-47e1-93a7-1df76a31b8a6"},"vehicle_type_id":"4","last_reported":1678561544,"current_range_meters":2400,"station_id":"ce4bgnh2rcd13ifvqc0g","pricing_plan_id":"free"},{"bike_id":"e3a2a8e3-a405-439e-bcb3-26c5f80eb5e8","system_id":"levelo_inurba_marseille","lat":43.295815,"lon":5.367423,"is_reserved":false,"is_disabled":false,"rental_uris":{"android":"levelo://app?vid=e3a2a8e3-a405-439e-bcb3-26c5f80eb5e8","ios":"levelo://app?vid=e3a2a8e3-a405-439e-bcb3-26c5f80eb5e8"},"vehicle_type_id":"4","last_reported":1678561544,"current_range_meters":0,"station_id":"ce4bgph2rcd13ifvqc2g","pricing_plan_id":"free"},{"bike_id":"65172ea0-a443-4867-9fec-6ecc7e33d437","system_id":"levelo_inurba_marseille","lat":43.29573,"lon":5.367355,"is_reserved":false,"is_disabled":false,"rental_uris":{"android":"levelo://app?vid=65172ea0-a443-4867-9fec-6ecc7e33d437","ios":"levelo://app?vid=65172ea0-a443-4867-9fec-6ecc7e33d437"},"vehicle_type_id":"4","last_reported":1678561544,"current_range_meters":19200,"station_id":"ce4bgph2rcd13ifvqc2g","pricing_plan_id":"free"},{"bike_id":"33583367-fccd-435d-af0f-f61a24ff16e6","system_id":"levelo_inurba_marseille","lat":43.29577,"lon":5.36739,"is_reserved":false,"is_disabled":false,"rental_uris":{"android":"levelo://app?vid=33583367-fccd-435d-af0f-f61a24ff16e6","ios":"levelo://app?vid=33583367-fccd-435d-af0f-f61a24ff16e6"},"vehicle_type_id":"4","last_reported":1678561544,"current_range_meters":3600,"station_id":"","pricing_plan_id":"free"},{"bike_id":"506d7fe3-eb3d-4037-9cf0-0124cd761265","system_id":"levelo_inurba_marseille","lat":43.29573,"lon":5.367355,"is_reserved":false,"is_disabled":false,"rental_uris":{"android":"levelo://app?vid=506d7fe3-eb3d-4037-9cf0-0124cd761265","ios":"levelo://app?vid=506d7fe3-eb3d-4037-9cf0-0124cd761265"},"vehicle_type_id":"4","last_reported":1678561544,"current_range_meters":5200,"station_id":"ce4bgph2rcd13ifvqc2g","pricing_plan_id":"free"},{"bike_id":"a838b364-1dc0-4e7b-8f60-5b70347aa09e","system_id":"levelo_inurba_marseille","lat":43.29573,"lon":5.367355,"is_reserved":false,"is_disabled":false,"rental_uris":{"android":"levelo://app?vid=a838b364-1dc0-4e7b-8f60-5b70347aa09e","ios":"levelo://app?vid=a838b364-1dc0-4e7b-8f60-5b70347aa09e"},"vehicle_type_id":"4","last_reported":1678561544,"current_range_meters":2000,"station_id":"ce4bgph2rcd13ifvqc2g","pricing_plan_id":"free"},{"bike_id":"bdf58dc7-8230-431d-8bb5-0b45bc65d6db","system_id":"levelo_inurba_marseille","lat":43.29573,"lon":5.367355,"is_reserved":false,"is_disabled":false,"rental_uris":{"android":"levelo://app?vid=bdf58dc7-8230-431d-8bb5-0b45bc65d6db","ios":"levelo://app?vid=bdf58dc7-8230-431d-8bb5-0b45bc65d6db"},"vehicle_type_id":"4","last_reported":1678561544,"current_range_meters":4000,"station_id":"ce4bgph2rcd13ifvqc2g","pricing_plan_id":"free"},{"bike_id":"83245615-5e1c-4e2b-b255-890b65f0fa47","system_id":"levelo_inurba_marseille","lat":43.29574,"lon":5.36742,"is_reserved":false,"is_disabled":false,"rental_uris":{"android":"levelo://app?vid=83245615-5e1c-4e2b-b255-890b65f0fa47","ios":"levelo://app?vid=83245615-5e1c-4e2b-b255-890b65f0fa47"},"vehicle_type_id":"4","last_reported":1678561544,"current_range_meters":29200,"station_id":"","pricing_plan_id":"free"},{"bike_id":"134f38a8-0eb9-4721-9f45-39aefc3d803a","system_id":"levelo_inurba_marseille","lat":43.296277,"lon":5.377108,"is_reserved":false,"is_disabled":false,"rental_uris":{"android":"levelo://app?vid=134f38a8-0eb9-4721-9f45-39aefc3d803a","ios":"levelo://app?vid=134f38a8-0eb9-4721-9f45-39aefc3d803a"},"vehicle_type_id":"4","last_reported":1678561544,"current_range_meters":24400,"station_id":"ce4bgi92rcd13ifvqb90","pricing_plan_id":"free"},{"bike_id":"047e671b-11d7-4fa3-8fd5-7783bb098403","system_id":"levelo_inurba_marseille","lat":43.29573,"lon":5.367355,"is_reserved":false,"is_disabled":false,"rental_uris":{"android":"levelo://app?vid=047e671b-11d7-4fa3-8fd5-7783bb098403","ios":"levelo://app?vid=047e671b-11d7-4fa3-8fd5-7783bb098403"},"vehicle_type_id":"4","last_reported":1678561544,"current_range_meters":2800,"station_id":"ce4bgph2rcd13ifvqc2g","pricing_plan_id":"free"},{"bike_id":"ccf26a9e-9eba-4e7d-998d-9759e8321418","system_id":"levelo_inurba_marseille","lat":43.309589,"lon":5.390258,"is_reserved":false,"is_disabled":false,"rental_uris":{"android":"levelo://app?vid=ccf26a9e-9eba-4e7d-998d-9759e8321418","ios":"levelo://app?vid=ccf26a9e-9eba-4e7d-998d-9759e8321418"},"vehicle_type_id":"4","last_reported":1678561544,"current_range_meters":24800,"station_id":"ce4bgup2rcd13ifvqco0","pricing_plan_id":"free"},{"bike_id":"2d147397-e5a0-45aa-b790-5d6dd30c0c24","system_id":"levelo_inurba_marseille","lat":43.30955,"lon":5.39037,"is_reserved":false,"is_disabled":false,"rental_uris":{"android":"levelo://app?vid=2d147397-e5a0-45aa-b790-5d6dd30c0c24","ios":"levelo://app?vid=2d147397-e5a0-45aa-b790-5d6dd30c0c24"},"vehicle_type_id":"4","last_reported":1678561544,"current_range_meters":30800,"station_id":"ce4bgup2rcd13ifvqco0","pricing_plan_id":"free"},{"bike_id":"238dfd07-a1ee-4437-97a8-5d60d39adb3d","system_id":"levelo_inurba_marseille","lat":43.309589,"lon":5.390258,"is_reserved":false,"is_disabled":false,"rental_uris":{"android":"levelo://app?vid=238dfd07-a1ee-4437-97a8-5d60d39adb3d","ios":"levelo://app?vid=238dfd07-a1ee-4437-97a8-5d60d39adb3d"},"vehicle_type_id":"4","last_reported":1678561544,"current_range_meters":30000,"station_id":"ce4bgup2rcd13ifvqco0","pricing_plan_id":"free"},{"bike_id":"80ad3bc1-c0f4-4ae7-abcc-62ebdf7b454a","system_id":"levelo_inurba_marseille","lat":43.317557,"lon":5.390173,"is_reserved":false,"is_disabled":false,"rental_uris":{"android":"levelo://app?vid=80ad3bc1-c0f4-4ae7-abcc-62ebdf7b454a","ios":"levelo://app?vid=80ad3bc1-c0f4-4ae7-abcc-62ebdf7b454a"},"vehicle_type_id":"4","last_reported":1678561544,"current_range_meters":9600,"station_id":"ce4bhqp2rcd13ifvqhng","pricing_plan_id":"free"},{"bike_id":"55b0205a-8e75-46f5-99f3-d582e7b5723e","system_id":"levelo_inurba_marseille","lat":43.317557,"lon":5.390173,"is_reserved":false,"is_disabled":false,"rental_uris":{"android":"levelo://app?vid=55b0205a-8e75-46f5-99f3-d582e7b5723e","ios":"levelo://app?vid=55b0205a-8e75-46f5-99f3-d582e7b5723e"},"vehicle_type_id":"4","last_reported":1678561544,"current_range_meters":15600,"station_id":"ce4bhqp2rcd13ifvqhng","pricing_plan_id":"free"},{"bike_id":"0fbf2b6d-77d8-454f-8789-8881ddd2edd7","system_id":"levelo_inurba_marseille","lat":43.317557,"lon":5.390173,"is_reserved":false,"is_disabled":false,"rental_uris":{"android":"levelo://app?vid=0fbf2b6d-77d8-454f-8789-8881ddd2edd7","ios":"levelo://app?vid=0fbf2b6d-77d8-454f-8789-8881ddd2edd7"},"vehicle_type_id":"4","last_reported":1678561544,"current_range_meters":25200,"station_id":"ce4bhqp2rcd13ifvqhng","pricing_plan_id":"free"},{"bike_id":"29ee8031-70ec-42cf-8949-eb5a60c96431","system_id":"levelo_inurba_marseille","lat":43.317557,"lon":5.390173,"is_reserved":false,"is_disabled":false,"rental_uris":{"android":"levelo://app?vid=29ee8031-70ec-42cf-8949-eb5a60c96431","ios":"levelo://app?vid=29ee8031-70ec-42cf-8949-eb5a60c96431"},"vehicle_type_id":"4","last_reported":1678561544,"current_range_meters":30800,"station_id":"ce4bhqp2rcd13ifvqhng","pricing_plan_id":"free"},{"bike_id":"7af0b745-be9d-4dd6-8d05-34a9e5e495d5","system_id":"levelo_inurba_marseille","lat":43.317557,"lon":5.390173,"is_reserved":false,"is_disabled":false,"rental_uris":{"android":"levelo://app?vid=7af0b745-be9d-4dd6-8d05-34a9e5e495d5","ios":"levelo://app?vid=7af0b745-be9d-4dd6-8d05-34a9e5e495d5"},"vehicle_type_id":"4","last_reported":1678561544,"current_range_meters":28000,"station_id":"ce4bhqp2rcd13ifvqhng","pricing_plan_id":"free"},{"bike_id":"aba579e7-bf92-431c-acac-b5501e7187aa","system_id":"levelo_inurba_marseille","lat":43.317557,"lon":5.390173,"is_reserved":false,"is_disabled":false,"rental_uris":{"android":"levelo://app?vid=aba579e7-bf92-431c-acac-b5501e7187aa","ios":"levelo://app?vid=aba579e7-bf92-431c-acac-b5501e7187aa"},"vehicle_type_id":"4","last_reported":1678561544,"current_range_meters":18800,"station_id":"ce4bhqp2rcd13ifvqhng","pricing_plan_id":"free"},{"bike_id":"10181c2b-6116-47eb-ae0b-ff80d825779c","system_id":"levelo_inurba_marseille","lat":43.317557,"lon":5.390173,"is_reserved":false,"is_disabled":false,"rental_uris":{"android":"levelo://app?vid=10181c2b-6116-47eb-ae0b-ff80d825779c","ios":"levelo://app?vid=10181c2b-6116-47eb-ae0b-ff80d825779c"},"vehicle_type_id":"4","last_reported":1678561544,"current_range_meters":25600,"station_id":"ce4bhqp2rcd13ifvqhng","pricing_plan_id":"free"},{"bike_id":"776723cd-ea0f-4401-9bc6-9d6bdce7578d","system_id":"levelo_inurba_marseille","lat":43.317557,"lon":5.390173,"is_reserved":false,"is_disabled":false,"rental_uris":{"android":"levelo://app?vid=776723cd-ea0f-4401-9bc6-9d6bdce7578d","ios":"levelo://app?vid=776723cd-ea0f-4401-9bc6-9d6bdce7578d"},"vehicle_type_id":"4","last_reported":1678561544,"current_range_meters":22800,"station_id":"ce4bhqp2rcd13ifvqhng","pricing_plan_id":"free"},{"bike_id":"e612a666-9b67-4a04-b9c9-ccecefbb580c","system_id":"levelo_inurba_marseille","lat":43.317557,"lon":5.390173,"is_reserved":false,"is_disabled":false,"rental_uris":{"android":"levelo://app?vid=e612a666-9b67-4a04-b9c9-ccecefbb580c","ios":"levelo://app?vid=e612a666-9b67-4a04-b9c9-ccecefbb580c"},"vehicle_type_id":"4","last_reported":1678561544,"current_range_meters":31600,"station_id":"ce4bhqp2rcd13ifvqhng","pricing_plan_id":"free"},{"bike_id":"51a5a348-dd8f-4466-9650-b6e4020c1484","system_id":"levelo_inurba_marseille","lat":43.298037,"lon":5.381066,"is_reserved":false,"is_disabled":false,"rental_uris":{"android":"levelo://app?vid=51a5a348-dd8f-4466-9650-b6e4020c1484","ios":"levelo://app?vid=51a5a348-dd8f-4466-9650-b6e4020c1484"},"vehicle_type_id":"4","last_reported":1678561544,"current_range_meters":10800,"station_id":"ce4bgip2rcd13ifvqbb0","pricing_plan_id":"free"},{"bike_id":"0c8fc9a4-5959-4871-beee-8f3e2a591281","system_id":"levelo_inurba_marseille","lat":43.295748,"lon":5.37522,"is_reserved":false,"is_disabled":false,"rental_uris":{"android":"levelo://app?vid=0c8fc9a4-5959-4871-beee-8f3e2a591281","ios":"levelo://app?vid=0c8fc9a4-5959-4871-beee-8f3e2a591281"},"vehicle_type_id":"4","last_reported":1678561544,"current_range_meters":800,"station_id":"ce4bgh92rcd13ifvqb50","pricing_plan_id":"free"},{"bike_id":"2ed3aedf-fd86-4dac-bfa0-aba97721c97f","system_id":"levelo_inurba_marseille","lat":43.299779,"lon":5.38493,"is_reserved":false,"is_disabled":false,"rental_uris":{"android":"levelo://app?vid=2ed3aedf-fd86-4dac-bfa0-aba97721c97f","ios":"levelo://app?vid=2ed3aedf-fd86-4dac-bfa0-aba97721c97f"},"vehicle_type_id":"4","last_reported":1678561544,"current_range_meters":0,"station_id":"ce4bgj92rcd13ifvqbd0","pricing_plan_id":"free"},{"bike_id":"1aeadeb2-fdff-4313-8e93-adc0ee700dfa","system_id":"levelo_inurba_marseille","lat":43.29973,"lon":5.38491,"is_reserved":false,"is_disabled":false,"rental_uris":{"android":"levelo://app?vid=1aeadeb2-fdff-4313-8e93-adc0ee700dfa","ios":"levelo://app?vid=1aeadeb2-fdff-4313-8e93-adc0ee700dfa"},"vehicle_type_id":"4","last_reported":1678561544,"current_range_meters":800,"station_id":"","pricing_plan_id":"free"},{"bike_id":"935886c0-201e-426a-ad70-7a0ef22f39b0","system_id":"levelo_inurba_marseille","lat":43.29975,"lon":5.38495,"is_reserved":false,"is_disabled":false,"rental_uris":{"android":"levelo://app?vid=935886c0-201e-426a-ad70-7a0ef22f39b0","ios":"levelo://app?vid=935886c0-201e-426a-ad70-7a0ef22f39b0"},"vehicle_type_id":"4","last_reported":1678561544,"current_range_meters":0,"station_id":"","pricing_plan_id":"free"},{"bike_id":"729fbed5-4ca0-40e7-a984-c6f6afbeff0b","system_id":"levelo_inurba_marseille","lat":43.29516,"lon":5.37508,"is_reserved":false,"is_disabled":false,"rental_uris":{"android":"levelo://app?vid=729fbed5-4ca0-40e7-a984-c6f6afbeff0b","ios":"levelo://app?vid=729fbed5-4ca0-40e7-a984-c6f6afbeff0b"},"vehicle_type_id":"4","last_reported":1678561544,"current_range_meters":0,"station_id":"","pricing_plan_id":"free"},{"bike_id":"119fc3bf-4523-45d0-b759-7d1bbf6fdbf3","system_id":"levelo_inurba_marseille","lat":43.32367,"lon":5.388836,"is_reserved":false,"is_disabled":false,"rental_uris":{"android":"levelo://app?vid=119fc3bf-4523-45d0-b759-7d1bbf6fdbf3","ios":"levelo://app?vid=119fc3bf-4523-45d0-b759-7d1bbf6fdbf3"},"vehicle_type_id":"4","last_reported":1678561544,"current_range_meters":19200,"station_id":"ce4bhqp2rcd13ifvqhog","pricing_plan_id":"free"},{"bike_id":"fb904483-bf11-46f8-9f67-4d7da4611087","system_id":"levelo_inurba_marseille","lat":43.32367,"lon":5.388836,"is_reserved":false,"is_disabled":false,"rental_uris":{"android":"levelo://app?vid=fb904483-bf11-46f8-9f67-4d7da4611087","ios":"levelo://app?vid=fb904483-bf11-46f8-9f67-4d7da4611087"},"vehicle_type_id":"4","last_reported":1678561544,"current_range_meters":0,"station_id":"ce4bhqp2rcd13ifvqhog","pricing_plan_id":"free"},{"bike_id":"53b760a8-a9fd-42d5-ab9b-e8ded5d1a33b","system_id":"levelo_inurba_marseille","lat":43.32367,"lon":5.388836,"is_reserved":false,"is_disabled":false,"rental_uris":{"android":"levelo://app?vid=53b760a8-a9fd-42d5-ab9b-e8ded5d1a33b","ios":"levelo://app?vid=53b760a8-a9fd-42d5-ab9b-e8ded5d1a33b"},"vehicle_type_id":"4","last_reported":1678561544,"current_range_meters":10400,"station_id":"ce4bhqp2rcd13ifvqhog","pricing_plan_id":"free"},{"bike_id":"b1e2453e-b5bb-4b6e-8924-e348d50edcfe","system_id":"levelo_inurba_marseille","lat":43.32367,"lon":5.388836,"is_reserved":false,"is_disabled":false,"rental_uris":{"android":"levelo://app?vid=b1e2453e-b5bb-4b6e-8924-e348d50edcfe","ios":"levelo://app?vid=b1e2453e-b5bb-4b6e-8924-e348d50edcfe"},"vehicle_type_id":"4","last_reported":1678561544,"current_range_meters":10000,"station_id":"ce4bhqp2rcd13ifvqhog","pricing_plan_id":"free"},{"bike_id":"007cd52a-fdd4-45d1-92eb-f50edc7c1def","system_id":"levelo_inurba_marseille","lat":43.32367,"lon":5.388836,"is_reserved":false,"is_disabled":false,"rental_uris":{"android":"levelo://app?vid=007cd52a-fdd4-45d1-92eb-f50edc7c1def","ios":"levelo://app?vid=007cd52a-fdd4-45d1-92eb-f50edc7c1def"},"vehicle_type_id":"4","last_reported":1678561544,"current_range_meters":16400,"station_id":"ce4bhqp2rcd13ifvqhog","pricing_plan_id":"free"},{"bike_id":"e085edff-0b2c-4122-b8e5-67ebc7ce87bd","system_id":"levelo_inurba_marseille","lat":43.293009,"lon":5.374584,"is_reserved":false,"is_disabled":false,"rental_uris":{"android":"levelo://app?vid=e085edff-0b2c-4122-b8e5-67ebc7ce87bd","ios":"levelo://app?vid=e085edff-0b2c-4122-b8e5-67ebc7ce87bd"},"vehicle_type_id":"4","last_reported":1678561544,"current_range_meters":0,"station_id":"ce4bgi12rcd13ifvqb70","pricing_plan_id":"free"},{"bike_id":"3945cb37-cf6e-4788-920a-8f6f51484d86","system_id":"levelo_inurba_marseille","lat":43.2936,"lon":5.37835,"is_reserved":false,"is_disabled":false,"rental_uris":{"android":"levelo://app?vid=3945cb37-cf6e-4788-920a-8f6f51484d86","ios":"levelo://app?vid=3945cb37-cf6e-4788-920a-8f6f51484d86"},"vehicle_type_id":"4","last_reported":1678561544,"current_range_meters":18000,"station_id":"ce4bgjh2rcd13ifvqbf0","pricing_plan_id":"free"},{"bike_id":"d65ac111-7f6a-4be3-8d34-20888beac317","system_id":"levelo_inurba_marseille","lat":43.2936,"lon":5.37835,"is_reserved":false,"is_disabled":false,"rental_uris":{"android":"levelo://app?vid=d65ac111-7f6a-4be3-8d34-20888beac317","ios":"levelo://app?vid=d65ac111-7f6a-4be3-8d34-20888beac317"},"vehicle_type_id":"4","last_reported":1678561544,"current_range_meters":22800,"station_id":"ce4bgjh2rcd13ifvqbf0","pricing_plan_id":"free"},{"bike_id":"54e3f1a9-9355-4885-a48b-0f6274150334","system_id":"levelo_inurba_marseille","lat":43.292311,"lon":5.360731,"is_reserved":false,"is_disabled":false,"rental_uris":{"android":"levelo://app?vid=54e3f1a9-9355-4885-a48b-0f6274150334","ios":"levelo://app?vid=54e3f1a9-9355-4885-a48b-0f6274150334"},"vehicle_type_id":"4","last_reported":1678561544,"current_range_meters":22800,"station_id":"ce4bhbh2rcd13ifvqeqg","pricing_plan_id":"free"},{"bike_id":"4db81a7a-5d79-40e8-a365-4763723ba1f4","system_id":"levelo_inurba_marseille","lat":43.292311,"lon":5.360731,"is_reserved":false,"is_disabled":false,"rental_uris":{"android":"levelo://app?vid=4db81a7a-5d79-40e8-a365-4763723ba1f4","ios":"levelo://app?vid=4db81a7a-5d79-40e8-a365-4763723ba1f4"},"vehicle_type_id":"4","last_reported":1678561544,"current_range_meters":31600,"station_id":"ce4bhbh2rcd13ifvqeqg","pricing_plan_id":"free"},{"bike_id":"d056549e-0c02-4fc9-a6d2-7c1b14ac0a93","system_id":"levelo_inurba_marseille","lat":43.292311,"lon":5.360731,"is_reserved":false,"is_disabled":false,"rental_uris":{"android":"levelo://app?vid=d056549e-0c02-4fc9-a6d2-7c1b14ac0a93","ios":"levelo://app?vid=d056549e-0c02-4fc9-a6d2-7c1b14ac0a93"},"vehicle_type_id":"4","last_reported":1678561544,"current_range_meters":31600,"station_id":"ce4bhbh2rcd13ifvqeqg","pricing_plan_id":"free"},{"bike_id":"e1197294-8afd-4918-8155-17c46ee5faea","system_id":"levelo_inurba_marseille","lat":43.292311,"lon":5.360731,"is_reserved":false,"is_disabled":false,"rental_uris":{"android":"levelo://app?vid=e1197294-8afd-4918-8155-17c46ee5faea","ios":"levelo://app?vid=e1197294-8afd-4918-8155-17c46ee5faea"},"vehicle_type_id":"4","last_reported":1678561544,"current_range_meters":31600,"station_id":"ce4bhbh2rcd13ifvqeqg","pricing_plan_id":"free"},{"bike_id":"361b0398-29b4-4fa6-8c97-9238c45e3254","system_id":"levelo_inurba_marseille","lat":43.292225,"lon":5.36068,"is_reserved":false,"is_disabled":false,"rental_uris":{"android":"levelo://app?vid=361b0398-29b4-4fa6-8c97-9238c45e3254","ios":"levelo://app?vid=361b0398-29b4-4fa6-8c97-9238c45e3254"},"vehicle_type_id":"4","last_reported":1678561544,"current_range_meters":8800,"station_id":"","pricing_plan_id":"free"},{"bike_id":"385d5ad9-7711-4f95-9b71-1e6cbd99d145","system_id":"levelo_inurba_marseille","lat":43.292311,"lon":5.360731,"is_reserved":false,"is_disabled":false,"rental_uris":{"android":"levelo://app?vid=385d5ad9-7711-4f95-9b71-1e6cbd99d145","ios":"levelo://app?vid=385d5ad9-7711-4f95-9b71-1e6cbd99d145"},"vehicle_type_id":"4","last_reported":1678561544,"current_range_meters":31600,"station_id":"ce4bhbh2rcd13ifvqeqg","pricing_plan_id":"free"},{"bike_id":"c8974fde-1158-4010-9aaa-7c5e69dd0911","system_id":"levelo_inurba_marseille","lat":43.292311,"lon":5.360731,"is_reserved":false,"is_disabled":false,"rental_uris":{"android":"levelo://app?vid=c8974fde-1158-4010-9aaa-7c5e69dd0911","ios":"levelo://app?vid=c8974fde-1158-4010-9aaa-7c5e69dd0911"},"vehicle_type_id":"4","last_reported":1678561544,"current_range_meters":16800,"station_id":"ce4bhbh2rcd13ifvqeqg","pricing_plan_id":"free"},{"bike_id":"aba14039-dabd-416e-bb4c-3775a9e17388","system_id":"levelo_inurba_marseille","lat":43.292311,"lon":5.360731,"is_reserved":false,"is_disabled":false,"rental_uris":{"android":"levelo://app?vid=aba14039-dabd-416e-bb4c-3775a9e17388","ios":"levelo://app?vid=aba14039-dabd-416e-bb4c-3775a9e17388"},"vehicle_type_id":"4","last_reported":1678561544,"current_range_meters":16400,"station_id":"ce4bhbh2rcd13ifvqeqg","pricing_plan_id":"free"},{"bike_id":"62aeb5d3-ccc0-4213-8eff-684e8c6c6e59","system_id":"levelo_inurba_marseille","lat":43.292311,"lon":5.360731,"is_reserved":false,"is_disabled":false,"rental_uris":{"android":"levelo://app?vid=62aeb5d3-ccc0-4213-8eff-684e8c6c6e59","ios":"levelo://app?vid=62aeb5d3-ccc0-4213-8eff-684e8c6c6e59"},"vehicle_type_id":"4","last_reported":1678561544,"current_range_meters":31600,"station_id":"ce4bhbh2rcd13ifvqeqg","pricing_plan_id":"free"},{"bike_id":"f9a6fd75-022a-4394-85ea-b371ccdbca02","system_id":"levelo_inurba_marseille","lat":43.291664,"lon":5.371517,"is_reserved":false,"is_disabled":false,"rental_uris":{"android":"levelo://app?vid=f9a6fd75-022a-4394-85ea-b371ccdbca02","ios":"levelo://app?vid=f9a6fd75-022a-4394-85ea-b371ccdbca02"},"vehicle_type_id":"4","last_reported":1678561544,"current_range_meters":0,"station_id":"","pricing_plan_id":"free"},{"bike_id":"1d77cab3-136c-46de-a8c8-a8f9a92485a0","system_id":"levelo_inurba_marseille","lat":43.313291,"lon":5.396838,"is_reserved":false,"is_disabled":false,"rental_uris":{"android":"levelo://app?vid=1d77cab3-136c-46de-a8c8-a8f9a92485a0","ios":"levelo://app?vid=1d77cab3-136c-46de-a8c8-a8f9a92485a0"},"vehicle_type_id":"4","last_reported":1678561544,"current_range_meters":29600,"station_id":"ce4bgvp2rcd13ifvqcu0","pricing_plan_id":"free"},{"bike_id":"67a0c94e-f259-4098-bb7f-2fe66a89a8f1","system_id":"levelo_inurba_marseille","lat":43.313334,"lon":5.397019,"is_reserved":false,"is_disabled":false,"rental_uris":{"android":"levelo://app?vid=67a0c94e-f259-4098-bb7f-2fe66a89a8f1","ios":"levelo://app?vid=67a0c94e-f259-4098-bb7f-2fe66a89a8f1"},"vehicle_type_id":"4","last_reported":1678561544,"current_range_meters":4000,"station_id":"ce4bgvp2rcd13ifvqcu0","pricing_plan_id":"free"},{"bike_id":"667d7399-c96a-420f-9e4b-e03fbf5d8fe5","system_id":"levelo_inurba_marseille","lat":43.29529,"lon":5.385581,"is_reserved":false,"is_disabled":false,"rental_uris":{"android":"levelo://app?vid=667d7399-c96a-420f-9e4b-e03fbf5d8fe5","ios":"levelo://app?vid=667d7399-c96a-420f-9e4b-e03fbf5d8fe5"},"vehicle_type_id":"4","last_reported":1678561544,"current_range_meters":12400,"station_id":"ce4bgih2rcd13ifvqba0","pricing_plan_id":"free"},{"bike_id":"b370cc82-1d1a-4cd9-92de-76062fcfce43","system_id":"levelo_inurba_marseille","lat":43.29529,"lon":5.385581,"is_reserved":false,"is_disabled":false,"rental_uris":{"android":"levelo://app?vid=b370cc82-1d1a-4cd9-92de-76062fcfce43","ios":"levelo://app?vid=b370cc82-1d1a-4cd9-92de-76062fcfce43"},"vehicle_type_id":"4","last_reported":1678561544,"current_range_meters":19200,"station_id":"ce4bgih2rcd13ifvqba0","pricing_plan_id":"free"},{"bike_id":"b80315eb-866b-4674-bb75-304cfb4c3cbd","system_id":"levelo_inurba_marseille","lat":43.29529,"lon":5.385581,"is_reserved":false,"is_disabled":false,"rental_uris":{"android":"levelo://app?vid=b80315eb-866b-4674-bb75-304cfb4c3cbd","ios":"levelo://app?vid=b80315eb-866b-4674-bb75-304cfb4c3cbd"},"vehicle_type_id":"4","last_reported":1678561544,"current_range_meters":24800,"station_id":"ce4bgih2rcd13ifvqba0","pricing_plan_id":"free"},{"bike_id":"5dac9b89-7283-4707-821c-bc44dc92baf7","system_id":"levelo_inurba_marseille","lat":43.29529,"lon":5.385581,"is_reserved":false,"is_disabled":false,"rental_uris":{"android":"levelo://app?vid=5dac9b89-7283-4707-821c-bc44dc92baf7","ios":"levelo://app?vid=5dac9b89-7283-4707-821c-bc44dc92baf7"},"vehicle_type_id":"4","last_reported":1678561544,"current_range_meters":5200,"station_id":"ce4bgih2rcd13ifvqba0","pricing_plan_id":"free"},{"bike_id":"b3126650-eade-4c26-bf0d-2860400c6b3d","system_id":"levelo_inurba_marseille","lat":43.29529,"lon":5.385581,"is_reserved":false,"is_disabled":false,"rental_uris":{"android":"levelo://app?vid=b3126650-eade-4c26-bf0d-2860400c6b3d","ios":"levelo://app?vid=b3126650-eade-4c26-bf0d-2860400c6b3d"},"vehicle_type_id":"4","last_reported":1678561544,"current_range_meters":21600,"station_id":"ce4bgih2rcd13ifvqba0","pricing_plan_id":"free"},{"bike_id":"1aacaa4a-178a-4c39-bb01-ffc81ff8fdc9","system_id":"levelo_inurba_marseille","lat":43.290715,"lon":5.371706,"is_reserved":false,"is_disabled":false,"rental_uris":{"android":"levelo://app?vid=1aacaa4a-178a-4c39-bb01-ffc81ff8fdc9","ios":"levelo://app?vid=1aacaa4a-178a-4c39-bb01-ffc81ff8fdc9"},"vehicle_type_id":"4","last_reported":1678561544,"current_range_meters":0,"station_id":"ce4bh5p2rcd13ifvqe4g","pricing_plan_id":"free"},{"bike_id":"8fccd644-54f2-4e78-bf91-9d949d39dcc2","system_id":"levelo_inurba_marseille","lat":43.322614,"lon":5.394442,"is_reserved":false,"is_disabled":false,"rental_uris":{"android":"levelo://app?vid=8fccd644-54f2-4e78-bf91-9d949d39dcc2","ios":"levelo://app?vid=8fccd644-54f2-4e78-bf91-9d949d39dcc2"},"vehicle_type_id":"4","last_reported":1678561544,"current_range_meters":0,"station_id":"","pricing_plan_id":"free"},{"bike_id":"26e34f84-f853-4f75-a0f4-399cbbf4cd9c","system_id":"levelo_inurba_marseille","lat":43.290425,"lon":5.35918,"is_reserved":false,"is_disabled":false,"rental_uris":{"android":"levelo://app?vid=26e34f84-f853-4f75-a0f4-399cbbf4cd9c","ios":"levelo://app?vid=26e34f84-f853-4f75-a0f4-399cbbf4cd9c"},"vehicle_type_id":"4","last_reported":1678561544,"current_range_meters":0,"station_id":"","pricing_plan_id":"free"},{"bike_id":"d0fdde95-e13d-4c87-bfcb-acacb6d2966f","system_id":"levelo_inurba_marseille","lat":43.290355,"lon":5.35924,"is_reserved":false,"is_disabled":false,"rental_uris":{"android":"levelo://app?vid=d0fdde95-e13d-4c87-bfcb-acacb6d2966f","ios":"levelo://app?vid=d0fdde95-e13d-4c87-bfcb-acacb6d2966f"},"vehicle_type_id":"4","last_reported":1678561544,"current_range_meters":12400,"station_id":"","pricing_plan_id":"free"},{"bike_id":"63a61f91-d06b-4fdc-b01d-fe3e2eebbb6a","system_id":"levelo_inurba_marseille","lat":43.2942,"lon":5.38637,"is_reserved":false,"is_disabled":false,"rental_uris":{"android":"levelo://app?vid=63a61f91-d06b-4fdc-b01d-fe3e2eebbb6a","ios":"levelo://app?vid=63a61f91-d06b-4fdc-b01d-fe3e2eebbb6a"},"vehicle_type_id":"4","last_reported":1678561544,"current_range_meters":24800,"station_id":"","pricing_plan_id":"free"},{"bike_id":"4d8f16dc-570f-4e2b-8f1e-9e6f458ba4ab","system_id":"levelo_inurba_marseille","lat":43.28935,"lon":5.36642,"is_reserved":false,"is_disabled":false,"rental_uris":{"android":"levelo://app?vid=4d8f16dc-570f-4e2b-8f1e-9e6f458ba4ab","ios":"levelo://app?vid=4d8f16dc-570f-4e2b-8f1e-9e6f458ba4ab"},"vehicle_type_id":"4","last_reported":1678561544,"current_range_meters":20000,"station_id":"","pricing_plan_id":"free"},{"bike_id":"34c4c7c0-f1ef-4d2c-91e4-6b7e79eea98c","system_id":"levelo_inurba_marseille","lat":43.292644,"lon":5.384257,"is_reserved":false,"is_disabled":false,"rental_uris":{"android":"levelo://app?vid=34c4c7c0-f1ef-4d2c-91e4-6b7e79eea98c","ios":"levelo://app?vid=34c4c7c0-f1ef-4d2c-91e4-6b7e79eea98c"},"vehicle_type_id":"4","last_reported":1678561544,"current_range_meters":24400,"station_id":"ce4bh692rcd13ifvqea0","pricing_plan_id":"free"},{"bike_id":"abd987c0-e249-4f36-968b-a429ac044504","system_id":"levelo_inurba_marseille","lat":43.292644,"lon":5.384257,"is_reserved":false,"is_disabled":false,"rental_uris":{"android":"levelo://app?vid=abd987c0-e249-4f36-968b-a429ac044504","ios":"levelo://app?vid=abd987c0-e249-4f36-968b-a429ac044504"},"vehicle_type_id":"4","last_reported":1678561544,"current_range_meters":0,"station_id":"ce4bh692rcd13ifvqea0","pricing_plan_id":"free"},{"bike_id":"60dc03a6-986e-44a9-bda0-620a0761c682","system_id":"levelo_inurba_marseille","lat":43.292644,"lon":5.384257,"is_reserved":false,"is_disabled":false,"rental_uris":{"android":"levelo://app?vid=60dc03a6-986e-44a9-bda0-620a0761c682","ios":"levelo://app?vid=60dc03a6-986e-44a9-bda0-620a0761c682"},"vehicle_type_id":"4","last_reported":1678561544,"current_range_meters":0,"station_id":"ce4bh692rcd13ifvqea0","pricing_plan_id":"free"},{"bike_id":"42fcfb3c-0b6e-4c7b-ac47-1c8232d023e9","system_id":"levelo_inurba_marseille","lat":43.29266,"lon":5.384491,"is_reserved":false,"is_disabled":false,"rental_uris":{"android":"levelo://app?vid=42fcfb3c-0b6e-4c7b-ac47-1c8232d023e9","ios":"levelo://app?vid=42fcfb3c-0b6e-4c7b-ac47-1c8232d023e9"},"vehicle_type_id":"4","last_reported":1678561544,"current_range_meters":0,"station_id":"ce4bh692rcd13ifvqea0","pricing_plan_id":"free"},{"bike_id":"7a4fa81d-761c-4864-ac7d-33eaffa4facb","system_id":"levelo_inurba_marseille","lat":43.292644,"lon":5.384257,"is_reserved":false,"is_disabled":false,"rental_uris":{"android":"levelo://app?vid=7a4fa81d-761c-4864-ac7d-33eaffa4facb","ios":"levelo://app?vid=7a4fa81d-761c-4864-ac7d-33eaffa4facb"},"vehicle_type_id":"4","last_reported":1678561544,"current_range_meters":28400,"station_id":"ce4bh692rcd13ifvqea0","pricing_plan_id":"free"},{"bike_id":"d6a51079-a33c-4e9b-a7c4-1e3e0c188e73","system_id":"levelo_inurba_marseille","lat":43.33038,"lon":5.38921,"is_reserved":false,"is_disabled":false,"rental_uris":{"android":"levelo://app?vid=d6a51079-a33c-4e9b-a7c4-1e3e0c188e73","ios":"levelo://app?vid=d6a51079-a33c-4e9b-a7c4-1e3e0c188e73"},"vehicle_type_id":"4","last_reported":1678561544,"current_range_meters":7600,"station_id":"","pricing_plan_id":"free"},{"bike_id":"55c6f790-be9e-45fb-bced-09fbf91b9d61","system_id":"levelo_inurba_marseille","lat":43.33039,"lon":5.3892,"is_reserved":false,"is_disabled":false,"rental_uris":{"android":"levelo://app?vid=55c6f790-be9e-45fb-bced-09fbf91b9d61","ios":"levelo://app?vid=55c6f790-be9e-45fb-bced-09fbf91b9d61"},"vehicle_type_id":"4","last_reported":1678561544,"current_range_meters":17200,"station_id":"ce4bhr92rcd13ifvqhrg","pricing_plan_id":"free"},{"bike_id":"6119f6ce-6d3d-4b42-a8e5-7d6668c62333","system_id":"levelo_inurba_marseille","lat":43.33041,"lon":5.38918,"is_reserved":false,"is_disabled":false,"rental_uris":{"android":"levelo://app?vid=6119f6ce-6d3d-4b42-a8e5-7d6668c62333","ios":"levelo://app?vid=6119f6ce-6d3d-4b42-a8e5-7d6668c62333"},"vehicle_type_id":"4","last_reported":1678561544,"current_range_meters":0,"station_id":"","pricing_plan_id":"free"},{"bike_id":"4865b40a-4111-4f1a-8482-fb68e875133f","system_id":"levelo_inurba_marseille","lat":43.33043,"lon":5.38917,"is_reserved":false,"is_disabled":false,"rental_uris":{"android":"levelo://app?vid=4865b40a-4111-4f1a-8482-fb68e875133f","ios":"levelo://app?vid=4865b40a-4111-4f1a-8482-fb68e875133f"},"vehicle_type_id":"4","last_reported":1678561544,"current_range_meters":22000,"station_id":"","pricing_plan_id":"free"},{"bike_id":"6a2bf921-50cc-47b7-9086-45f1e59b26b2","system_id":"levelo_inurba_marseille","lat":43.290104,"lon":5.356111,"is_reserved":false,"is_disabled":false,"rental_uris":{"android":"levelo://app?vid=6a2bf921-50cc-47b7-9086-45f1e59b26b2","ios":"levelo://app?vid=6a2bf921-50cc-47b7-9086-45f1e59b26b2"},"vehicle_type_id":"4","last_reported":1678561544,"current_range_meters":5600,"station_id":"ce4bhb92rcd13ifvqen0","pricing_plan_id":"free"},{"bike_id":"d8774137-c6ed-46f9-83e1-159bb4cb7602","system_id":"levelo_inurba_marseille","lat":43.290104,"lon":5.356111,"is_reserved":false,"is_disabled":false,"rental_uris":{"android":"levelo://app?vid=d8774137-c6ed-46f9-83e1-159bb4cb7602","ios":"levelo://app?vid=d8774137-c6ed-46f9-83e1-159bb4cb7602"},"vehicle_type_id":"4","last_reported":1678561544,"current_range_meters":5200,"station_id":"ce4bhb92rcd13ifvqen0","pricing_plan_id":"free"},{"bike_id":"32d785ad-aea2-4782-9b80-cb747fc5feea","system_id":"levelo_inurba_marseille","lat":43.29007,"lon":5.356149,"is_reserved":false,"is_disabled":false,"rental_uris":{"android":"levelo://app?vid=32d785ad-aea2-4782-9b80-cb747fc5feea","ios":"levelo://app?vid=32d785ad-aea2-4782-9b80-cb747fc5feea"},"vehicle_type_id":"4","last_reported":1678561544,"current_range_meters":26000,"station_id":"","pricing_plan_id":"free"},{"bike_id":"33680b50-d948-4ec7-af82-617530069060","system_id":"levelo_inurba_marseille","lat":43.290104,"lon":5.356111,"is_reserved":false,"is_disabled":false,"rental_uris":{"android":"levelo://app?vid=33680b50-d948-4ec7-af82-617530069060","ios":"levelo://app?vid=33680b50-d948-4ec7-af82-617530069060"},"vehicle_type_id":"4","last_reported":1678561544,"current_range_meters":0,"station_id":"ce4bhb92rcd13ifvqen0","pricing_plan_id":"free"},{"bike_id":"f1d6d8d7-75d5-470c-afd9-e1067321309f","system_id":"levelo_inurba_marseille","lat":43.290104,"lon":5.356111,"is_reserved":false,"is_disabled":false,"rental_uris":{"android":"levelo://app?vid=f1d6d8d7-75d5-470c-afd9-e1067321309f","ios":"levelo://app?vid=f1d6d8d7-75d5-470c-afd9-e1067321309f"},"vehicle_type_id":"4","last_reported":1678561544,"current_range_meters":31200,"station_id":"ce4bhb92rcd13ifvqen0","pricing_plan_id":"free"},{"bike_id":"8ab0eae9-8e73-468c-a9e3-2a3c2fdb6430","system_id":"levelo_inurba_marseille","lat":43.330442,"lon":5.389148,"is_reserved":false,"is_disabled":false,"rental_uris":{"android":"levelo://app?vid=8ab0eae9-8e73-468c-a9e3-2a3c2fdb6430","ios":"levelo://app?vid=8ab0eae9-8e73-468c-a9e3-2a3c2fdb6430"},"vehicle_type_id":"4","last_reported":1678561544,"current_range_meters":10800,"station_id":"ce4bhr92rcd13ifvqhrg","pricing_plan_id":"free"},{"bike_id":"18d168bd-3310-483c-84fb-85de0f8cb09e","system_id":"levelo_inurba_marseille","lat":43.290035,"lon":5.356207,"is_reserved":false,"is_disabled":false,"rental_uris":{"android":"levelo://app?vid=18d168bd-3310-483c-84fb-85de0f8cb09e","ios":"levelo://app?vid=18d168bd-3310-483c-84fb-85de0f8cb09e"},"vehicle_type_id":"4","last_reported":1678561544,"current_range_meters":30800,"station_id":"ce4bhb92rcd13ifvqen0","pricing_plan_id":"free"},{"bike_id":"77813c0c-35ec-4af1-816e-7e93151b4b69","system_id":"levelo_inurba_marseille","lat":43.290104,"lon":5.356111,"is_reserved":false,"is_disabled":false,"rental_uris":{"android":"levelo://app?vid=77813c0c-35ec-4af1-816e-7e93151b4b69","ios":"levelo://app?vid=77813c0c-35ec-4af1-816e-7e93151b4b69"},"vehicle_type_id":"4","last_reported":1678561544,"current_range_meters":9600,"station_id":"ce4bhb92rcd13ifvqen0","pricing_plan_id":"free"},{"bike_id":"e55bb4d8-5c5e-4107-8e08-0f72e1003048","system_id":"levelo_inurba_marseille","lat":43.290104,"lon":5.356111,"is_reserved":false,"is_disabled":false,"rental_uris":{"android":"levelo://app?vid=e55bb4d8-5c5e-4107-8e08-0f72e1003048","ios":"levelo://app?vid=e55bb4d8-5c5e-4107-8e08-0f72e1003048"},"vehicle_type_id":"4","last_reported":1678561544,"current_range_meters":0,"station_id":"ce4bhb92rcd13ifvqen0","pricing_plan_id":"free"},{"bike_id":"968e01b6-a035-4b00-bab4-e73062392ac0","system_id":"levelo_inurba_marseille","lat":43.290041,"lon":5.356151,"is_reserved":false,"is_disabled":false,"rental_uris":{"android":"levelo://app?vid=968e01b6-a035-4b00-bab4-e73062392ac0","ios":"levelo://app?vid=968e01b6-a035-4b00-bab4-e73062392ac0"},"vehicle_type_id":"4","last_reported":1678561544,"current_range_meters":2000,"station_id":"","pricing_plan_id":"free"},{"bike_id":"fdc2d1e6-83a5-4768-b73b-9a3f7e65b0da","system_id":"levelo_inurba_marseille","lat":43.290034,"lon":5.356159,"is_reserved":false,"is_disabled":false,"rental_uris":{"android":"levelo://app?vid=fdc2d1e6-83a5-4768-b73b-9a3f7e65b0da","ios":"levelo://app?vid=fdc2d1e6-83a5-4768-b73b-9a3f7e65b0da"},"vehicle_type_id":"4","last_reported":1678561544,"current_range_meters":0,"station_id":"","pricing_plan_id":"free"},{"bike_id":"1b4b9a90-b13d-4a99-b538-383922d37db0","system_id":"levelo_inurba_marseille","lat":43.29003,"lon":5.35614,"is_reserved":false,"is_disabled":false,"rental_uris":{"android":"levelo://app?vid=1b4b9a90-b13d-4a99-b538-383922d37db0","ios":"levelo://app?vid=1b4b9a90-b13d-4a99-b538-383922d37db0"},"vehicle_type_id":"4","last_reported":1678561544,"current_range_meters":31600,"station_id":"ce4bhb92rcd13ifvqen0","pricing_plan_id":"free"},{"bike_id":"e519ae35-c8a0-4669-b9f4-9e952ab7b6de","system_id":"levelo_inurba_marseille","lat":43.290104,"lon":5.356111,"is_reserved":false,"is_disabled":false,"rental_uris":{"android":"levelo://app?vid=e519ae35-c8a0-4669-b9f4-9e952ab7b6de","ios":"levelo://app?vid=e519ae35-c8a0-4669-b9f4-9e952ab7b6de"},"vehicle_type_id":"4","last_reported":1678561544,"current_range_meters":0,"station_id":"ce4bhb92rcd13ifvqen0","pricing_plan_id":"free"},{"bike_id":"990a910b-dc9c-4dbe-aa3e-68dadff084eb","system_id":"levelo_inurba_marseille","lat":43.290104,"lon":5.356111,"is_reserved":false,"is_disabled":false,"rental_uris":{"android":"levelo://app?vid=990a910b-dc9c-4dbe-aa3e-68dadff084eb","ios":"levelo://app?vid=990a910b-dc9c-4dbe-aa3e-68dadff084eb"},"vehicle_type_id":"4","last_reported":1678561544,"current_range_meters":18800,"station_id":"ce4bhb92rcd13ifvqen0","pricing_plan_id":"free"},{"bike_id":"254da4a6-8ae7-4cb7-8fbc-faa3a0ed2b65","system_id":"levelo_inurba_marseille","lat":43.290104,"lon":5.356111,"is_reserved":false,"is_disabled":false,"rental_uris":{"android":"levelo://app?vid=254da4a6-8ae7-4cb7-8fbc-faa3a0ed2b65","ios":"levelo://app?vid=254da4a6-8ae7-4cb7-8fbc-faa3a0ed2b65"},"vehicle_type_id":"4","last_reported":1678561544,"current_range_meters":30400,"station_id":"ce4bhb92rcd13ifvqen0","pricing_plan_id":"free"},{"bike_id":"1b235d89-1d68-4df9-9e43-74e5891f8bef","system_id":"levelo_inurba_marseille","lat":43.290104,"lon":5.356111,"is_reserved":false,"is_disabled":false,"rental_uris":{"android":"levelo://app?vid=1b235d89-1d68-4df9-9e43-74e5891f8bef","ios":"levelo://app?vid=1b235d89-1d68-4df9-9e43-74e5891f8bef"},"vehicle_type_id":"4","last_reported":1678561544,"current_range_meters":31600,"station_id":"ce4bhb92rcd13ifvqen0","pricing_plan_id":"free"},{"bike_id":"78e11fa5-88dd-4c4f-b340-a9c00a33e279","system_id":"levelo_inurba_marseille","lat":43.29084,"lon":5.38121,"is_reserved":false,"is_disabled":false,"rental_uris":{"android":"levelo://app?vid=78e11fa5-88dd-4c4f-b340-a9c00a33e279","ios":"levelo://app?vid=78e11fa5-88dd-4c4f-b340-a9c00a33e279"},"vehicle_type_id":"4","last_reported":1678561544,"current_range_meters":6400,"station_id":"ce4bh512rcd13ifvqe2g","pricing_plan_id":"free"},{"bike_id":"773a5d46-0e2f-4b9c-a0c6-203944769444","system_id":"levelo_inurba_marseille","lat":43.29084,"lon":5.38129,"is_reserved":false,"is_disabled":false,"rental_uris":{"android":"levelo://app?vid=773a5d46-0e2f-4b9c-a0c6-203944769444","ios":"levelo://app?vid=773a5d46-0e2f-4b9c-a0c6-203944769444"},"vehicle_type_id":"4","last_reported":1678561544,"current_range_meters":4800,"station_id":"","pricing_plan_id":"free"},{"bike_id":"95cc236f-8c77-4f3f-9699-f94c378fa0ae","system_id":"levelo_inurba_marseille","lat":43.337423,"lon":5.374753,"is_reserved":false,"is_disabled":false,"rental_uris":{"android":"levelo://app?vid=95cc236f-8c77-4f3f-9699-f94c378fa0ae","ios":"levelo://app?vid=95cc236f-8c77-4f3f-9699-f94c378fa0ae"},"vehicle_type_id":"4","last_reported":1678561544,"current_range_meters":14000,"station_id":"","pricing_plan_id":"free"},{"bike_id":"79062b08-7311-4f18-82f8-ab94a02a9cf2","system_id":"levelo_inurba_marseille","lat":43.30642,"lon":5.401031,"is_reserved":false,"is_disabled":false,"rental_uris":{"android":"levelo://app?vid=79062b08-7311-4f18-82f8-ab94a02a9cf2","ios":"levelo://app?vid=79062b08-7311-4f18-82f8-ab94a02a9cf2"},"vehicle_type_id":"4","last_reported":1678561544,"current_range_meters":0,"station_id":"ce4bh112rcd13ifvqda0","pricing_plan_id":"free"},{"bike_id":"435f7c0f-d753-42b2-827b-56619a538298","system_id":"levelo_inurba_marseille","lat":43.301117,"lon":5.398795,"is_reserved":false,"is_disabled":false,"rental_uris":{"android":"levelo://app?vid=435f7c0f-d753-42b2-827b-56619a538298","ios":"levelo://app?vid=435f7c0f-d753-42b2-827b-56619a538298"},"vehicle_type_id":"4","last_reported":1678561544,"current_range_meters":9200,"station_id":"ce4bh0h2rcd13ifvqd40","pricing_plan_id":"free"},{"bike_id":"8e70820c-4751-4839-96c2-49d1ba6b4c24","system_id":"levelo_inurba_marseille","lat":43.29545,"lon":5.39393,"is_reserved":false,"is_disabled":false,"rental_uris":{"android":"levelo://app?vid=8e70820c-4751-4839-96c2-49d1ba6b4c24","ios":"levelo://app?vid=8e70820c-4751-4839-96c2-49d1ba6b4c24"},"vehicle_type_id":"4","last_reported":1678561544,"current_range_meters":28800,"station_id":"ce4bh212rcd13ifvqde0","pricing_plan_id":"free"},{"bike_id":"b87cad5d-e0b5-46bc-8605-2de7b75a67b8","system_id":"levelo_inurba_marseille","lat":43.298681,"lon":5.397225,"is_reserved":false,"is_disabled":false,"rental_uris":{"android":"levelo://app?vid=b87cad5d-e0b5-46bc-8605-2de7b75a67b8","ios":"levelo://app?vid=b87cad5d-e0b5-46bc-8605-2de7b75a67b8"},"vehicle_type_id":"4","last_reported":1678561544,"current_range_meters":7200,"station_id":"ce4bh0h2rcd13ifvqd50","pricing_plan_id":"free"},{"bike_id":"18ff89d6-218f-481a-b560-67823bb17e8b","system_id":"levelo_inurba_marseille","lat":43.298681,"lon":5.397225,"is_reserved":false,"is_disabled":false,"rental_uris":{"android":"levelo://app?vid=18ff89d6-218f-481a-b560-67823bb17e8b","ios":"levelo://app?vid=18ff89d6-218f-481a-b560-67823bb17e8b"},"vehicle_type_id":"4","last_reported":1678561544,"current_range_meters":24000,"station_id":"ce4bh0h2rcd13ifvqd50","pricing_plan_id":"free"},{"bike_id":"2550228c-6e43-4f66-a7b9-157ba0e57629","system_id":"levelo_inurba_marseille","lat":43.298681,"lon":5.397225,"is_reserved":false,"is_disabled":false,"rental_uris":{"android":"levelo://app?vid=2550228c-6e43-4f66-a7b9-157ba0e57629","ios":"levelo://app?vid=2550228c-6e43-4f66-a7b9-157ba0e57629"},"vehicle_type_id":"4","last_reported":1678561544,"current_range_meters":18400,"station_id":"ce4bh0h2rcd13ifvqd50","pricing_plan_id":"free"},{"bike_id":"e98e2dd4-6170-46e7-a217-48c8bc01b814","system_id":"levelo_inurba_marseille","lat":43.286591,"lon":5.363346,"is_reserved":false,"is_disabled":false,"rental_uris":{"android":"levelo://app?vid=e98e2dd4-6170-46e7-a217-48c8bc01b814","ios":"levelo://app?vid=e98e2dd4-6170-46e7-a217-48c8bc01b814"},"vehicle_type_id":"4","last_reported":1678561544,"current_range_meters":8800,"station_id":"ce4bhah2rcd13ifvqej0","pricing_plan_id":"free"},{"bike_id":"bc78dd80-478c-47c7-9c54-b2ca510e435d","system_id":"levelo_inurba_marseille","lat":43.29529,"lon":5.39394,"is_reserved":false,"is_disabled":false,"rental_uris":{"android":"levelo://app?vid=bc78dd80-478c-47c7-9c54-b2ca510e435d","ios":"levelo://app?vid=bc78dd80-478c-47c7-9c54-b2ca510e435d"},"vehicle_type_id":"4","last_reported":1678561544,"current_range_meters":0,"station_id":"ce4bh292rcd13ifvqdf0","pricing_plan_id":"free"},{"bike_id":"80660a43-b387-49ea-9c2e-8b767cec692b","system_id":"levelo_inurba_marseille","lat":43.29525,"lon":5.39397,"is_reserved":false,"is_disabled":false,"rental_uris":{"android":"levelo://app?vid=80660a43-b387-49ea-9c2e-8b767cec692b","ios":"levelo://app?vid=80660a43-b387-49ea-9c2e-8b767cec692b"},"vehicle_type_id":"4","last_reported":1678561544,"current_range_meters":14400,"station_id":"ce4bh212rcd13ifvqde0","pricing_plan_id":"free"},{"bike_id":"b98aa4d6-3894-4f80-b137-72c89f5cb0d4","system_id":"levelo_inurba_marseille","lat":43.295287,"lon":5.394036,"is_reserved":false,"is_disabled":false,"rental_uris":{"android":"levelo://app?vid=b98aa4d6-3894-4f80-b137-72c89f5cb0d4","ios":"levelo://app?vid=b98aa4d6-3894-4f80-b137-72c89f5cb0d4"},"vehicle_type_id":"4","last_reported":1678561544,"current_range_meters":0,"station_id":"ce4bh292rcd13ifvqdf0","pricing_plan_id":"free"},{"bike_id":"9795e5ba-ce62-407e-bbf3-109c236f56d6","system_id":"levelo_inurba_marseille","lat":43.29516,"lon":5.39403,"is_reserved":false,"is_disabled":false,"rental_uris":{"android":"levelo://app?vid=9795e5ba-ce62-407e-bbf3-109c236f56d6","ios":"levelo://app?vid=9795e5ba-ce62-407e-bbf3-109c236f56d6"},"vehicle_type_id":"4","last_reported":1678561544,"current_range_meters":0,"station_id":"ce4bh212rcd13ifvqde0","pricing_plan_id":"free"},{"bike_id":"9a41290e-d72a-4bdc-a1d8-75a26ee7aa9d","system_id":"levelo_inurba_marseille","lat":43.29024,"lon":5.3863,"is_reserved":false,"is_disabled":false,"rental_uris":{"android":"levelo://app?vid=9a41290e-d72a-4bdc-a1d8-75a26ee7aa9d","ios":"levelo://app?vid=9a41290e-d72a-4bdc-a1d8-75a26ee7aa9d"},"vehicle_type_id":"4","last_reported":1678561544,"current_range_meters":0,"station_id":"ce4bh4p2rcd13ifvqe0g","pricing_plan_id":"free"},{"bike_id":"597dc47d-a598-4247-aab3-e78f37dbafae","system_id":"levelo_inurba_marseille","lat":43.29494,"lon":5.39403,"is_reserved":false,"is_disabled":false,"rental_uris":{"android":"levelo://app?vid=597dc47d-a598-4247-aab3-e78f37dbafae","ios":"levelo://app?vid=597dc47d-a598-4247-aab3-e78f37dbafae"},"vehicle_type_id":"4","last_reported":1678561544,"current_range_meters":3200,"station_id":"ce4bh212rcd13ifvqde0","pricing_plan_id":"free"},{"bike_id":"2f37f7a4-e738-4515-830b-1c9ce852318e","system_id":"levelo_inurba_marseille","lat":43.302759,"lon":5.400793,"is_reserved":false,"is_disabled":false,"rental_uris":{"android":"levelo://app?vid=2f37f7a4-e738-4515-830b-1c9ce852318e","ios":"levelo://app?vid=2f37f7a4-e738-4515-830b-1c9ce852318e"},"vehicle_type_id":"4","last_reported":1678561544,"current_range_meters":28800,"station_id":"ce4bgvh2rcd13ifvqcs0","pricing_plan_id":"free"},{"bike_id":"cf5820a6-6964-48e9-b4b7-5ec2b8cb91ee","system_id":"levelo_inurba_marseille","lat":43.287185,"lon":5.379373,"is_reserved":false,"is_disabled":false,"rental_uris":{"android":"levelo://app?vid=cf5820a6-6964-48e9-b4b7-5ec2b8cb91ee","ios":"levelo://app?vid=cf5820a6-6964-48e9-b4b7-5ec2b8cb91ee"},"vehicle_type_id":"4","last_reported":1678561544,"current_range_meters":800,"station_id":"ce4bh9p2rcd13ifvqec0","pricing_plan_id":"free"},{"bike_id":"847ddf49-5492-4a35-9124-afd704640df1","system_id":"levelo_inurba_marseille","lat":43.316517,"lon":5.404375,"is_reserved":false,"is_disabled":false,"rental_uris":{"android":"levelo://app?vid=847ddf49-5492-4a35-9124-afd704640df1","ios":"levelo://app?vid=847ddf49-5492-4a35-9124-afd704640df1"},"vehicle_type_id":"4","last_reported":1678561544,"current_range_meters":31600,"station_id":"ce4bh012rcd13ifvqd00","pricing_plan_id":"free"},{"bike_id":"cf00639b-3efd-47ed-80a3-9285353205e6","system_id":"levelo_inurba_marseille","lat":43.316517,"lon":5.404375,"is_reserved":false,"is_disabled":false,"rental_uris":{"android":"levelo://app?vid=cf00639b-3efd-47ed-80a3-9285353205e6","ios":"levelo://app?vid=cf00639b-3efd-47ed-80a3-9285353205e6"},"vehicle_type_id":"4","last_reported":1678561544,"current_range_meters":30400,"station_id":"ce4bh012rcd13ifvqd00","pricing_plan_id":"free"},{"bike_id":"ef3e5c50-187e-4ce1-8a69-dcaa595ccd2e","system_id":"levelo_inurba_marseille","lat":43.316517,"lon":5.404375,"is_reserved":false,"is_disabled":false,"rental_uris":{"android":"levelo://app?vid=ef3e5c50-187e-4ce1-8a69-dcaa595ccd2e","ios":"levelo://app?vid=ef3e5c50-187e-4ce1-8a69-dcaa595ccd2e"},"vehicle_type_id":"4","last_reported":1678561544,"current_range_meters":31600,"station_id":"ce4bh012rcd13ifvqd00","pricing_plan_id":"free"},{"bike_id":"8c4d4918-b477-4ed4-a044-a260c8013548","system_id":"levelo_inurba_marseille","lat":43.316517,"lon":5.404375,"is_reserved":false,"is_disabled":false,"rental_uris":{"android":"levelo://app?vid=8c4d4918-b477-4ed4-a044-a260c8013548","ios":"levelo://app?vid=8c4d4918-b477-4ed4-a044-a260c8013548"},"vehicle_type_id":"4","last_reported":1678561544,"current_range_meters":27600,"station_id":"ce4bh012rcd13ifvqd00","pricing_plan_id":"free"},{"bike_id":"243ae2b8-9255-4faa-a896-f177c89f8ede","system_id":"levelo_inurba_marseille","lat":43.316517,"lon":5.404375,"is_reserved":false,"is_disabled":false,"rental_uris":{"android":"levelo://app?vid=243ae2b8-9255-4faa-a896-f177c89f8ede","ios":"levelo://app?vid=243ae2b8-9255-4faa-a896-f177c89f8ede"},"vehicle_type_id":"4","last_reported":1678561544,"current_range_meters":24800,"station_id":"ce4bh012rcd13ifvqd00","pricing_plan_id":"free"},{"bike_id":"b51d770d-a33a-4431-8dd1-d8967064c1d8","system_id":"levelo_inurba_marseille","lat":43.316517,"lon":5.404375,"is_reserved":false,"is_disabled":false,"rental_uris":{"android":"levelo://app?vid=b51d770d-a33a-4431-8dd1-d8967064c1d8","ios":"levelo://app?vid=b51d770d-a33a-4431-8dd1-d8967064c1d8"},"vehicle_type_id":"4","last_reported":1678561544,"current_range_meters":31600,"station_id":"ce4bh012rcd13ifvqd00","pricing_plan_id":"free"},{"bike_id":"4fafd2c1-9cd1-495f-8862-c5a347d4ef27","system_id":"levelo_inurba_marseille","lat":43.316517,"lon":5.404375,"is_reserved":false,"is_disabled":false,"rental_uris":{"android":"levelo://app?vid=4fafd2c1-9cd1-495f-8862-c5a347d4ef27","ios":"levelo://app?vid=4fafd2c1-9cd1-495f-8862-c5a347d4ef27"},"vehicle_type_id":"4","last_reported":1678561544,"current_range_meters":2800,"station_id":"ce4bh012rcd13ifvqd00","pricing_plan_id":"free"},{"bike_id":"2e53870f-bd12-4246-86c1-e7cc0b761e7e","system_id":"levelo_inurba_marseille","lat":43.316517,"lon":5.404375,"is_reserved":false,"is_disabled":false,"rental_uris":{"android":"levelo://app?vid=2e53870f-bd12-4246-86c1-e7cc0b761e7e","ios":"levelo://app?vid=2e53870f-bd12-4246-86c1-e7cc0b761e7e"},"vehicle_type_id":"4","last_reported":1678561544,"current_range_meters":29600,"station_id":"ce4bh012rcd13ifvqd00","pricing_plan_id":"free"},{"bike_id":"4a818bd1-3675-4f0a-8335-451516b9fe1a","system_id":"levelo_inurba_marseille","lat":43.316517,"lon":5.404375,"is_reserved":false,"is_disabled":false,"rental_uris":{"android":"levelo://app?vid=4a818bd1-3675-4f0a-8335-451516b9fe1a","ios":"levelo://app?vid=4a818bd1-3675-4f0a-8335-451516b9fe1a"},"vehicle_type_id":"4","last_reported":1678561544,"current_range_meters":5200,"station_id":"ce4bh012rcd13ifvqd00","pricing_plan_id":"free"},{"bike_id":"a7c54f68-4ebd-46c5-ab43-2625d7f16c76","system_id":"levelo_inurba_marseille","lat":43.316517,"lon":5.404375,"is_reserved":false,"is_disabled":false,"rental_uris":{"android":"levelo://app?vid=a7c54f68-4ebd-46c5-ab43-2625d7f16c76","ios":"levelo://app?vid=a7c54f68-4ebd-46c5-ab43-2625d7f16c76"},"vehicle_type_id":"4","last_reported":1678561544,"current_range_meters":1600,"station_id":"ce4bh012rcd13ifvqd00","pricing_plan_id":"free"},{"bike_id":"365ab45e-3872-4f6c-a7a2-e207013fd22a","system_id":"levelo_inurba_marseille","lat":43.316517,"lon":5.404375,"is_reserved":false,"is_disabled":false,"rental_uris":{"android":"levelo://app?vid=365ab45e-3872-4f6c-a7a2-e207013fd22a","ios":"levelo://app?vid=365ab45e-3872-4f6c-a7a2-e207013fd22a"},"vehicle_type_id":"4","last_reported":1678561544,"current_range_meters":15200,"station_id":"ce4bh012rcd13ifvqd00","pricing_plan_id":"free"},{"bike_id":"f3f1ccf8-7b50-4a58-a9b5-2e9cc04cbf8d","system_id":"levelo_inurba_marseille","lat":43.316517,"lon":5.404375,"is_reserved":false,"is_disabled":false,"rental_uris":{"android":"levelo://app?vid=f3f1ccf8-7b50-4a58-a9b5-2e9cc04cbf8d","ios":"levelo://app?vid=f3f1ccf8-7b50-4a58-a9b5-2e9cc04cbf8d"},"vehicle_type_id":"4","last_reported":1678561544,"current_range_meters":15200,"station_id":"ce4bh012rcd13ifvqd00","pricing_plan_id":"free"},{"bike_id":"a95770c2-1343-48aa-bfe7-520ad0986bc7","system_id":"levelo_inurba_marseille","lat":43.316517,"lon":5.404375,"is_reserved":false,"is_disabled":false,"rental_uris":{"android":"levelo://app?vid=a95770c2-1343-48aa-bfe7-520ad0986bc7","ios":"levelo://app?vid=a95770c2-1343-48aa-bfe7-520ad0986bc7"},"vehicle_type_id":"4","last_reported":1678561544,"current_range_meters":2400,"station_id":"ce4bh012rcd13ifvqd00","pricing_plan_id":"free"},{"bike_id":"42b16d4e-26f4-4d2b-bc81-5b08c735fbe1","system_id":"levelo_inurba_marseille","lat":43.286021,"lon":5.353336,"is_reserved":false,"is_disabled":false,"rental_uris":{"android":"levelo://app?vid=42b16d4e-26f4-4d2b-bc81-5b08c735fbe1","ios":"levelo://app?vid=42b16d4e-26f4-4d2b-bc81-5b08c735fbe1"},"vehicle_type_id":"4","last_reported":1678561544,"current_range_meters":0,"station_id":"","pricing_plan_id":"free"},{"bike_id":"a74db311-6b8e-45eb-b923-d3fc4f6a3ac7","system_id":"levelo_inurba_marseille","lat":43.284534,"lon":5.358662,"is_reserved":false,"is_disabled":false,"rental_uris":{"android":"levelo://app?vid=a74db311-6b8e-45eb-b923-d3fc4f6a3ac7","ios":"levelo://app?vid=a74db311-6b8e-45eb-b923-d3fc4f6a3ac7"},"vehicle_type_id":"4","last_reported":1678561544,"current_range_meters":3200,"station_id":"ce4bhah2rcd13ifvqei0","pricing_plan_id":"free"},{"bike_id":"3d68fd7e-4c83-4e1a-bfa2-2f87cf4ad9b7","system_id":"levelo_inurba_marseille","lat":43.28461,"lon":5.3589,"is_reserved":false,"is_disabled":false,"rental_uris":{"android":"levelo://app?vid=3d68fd7e-4c83-4e1a-bfa2-2f87cf4ad9b7","ios":"levelo://app?vid=3d68fd7e-4c83-4e1a-bfa2-2f87cf4ad9b7"},"vehicle_type_id":"4","last_reported":1678561544,"current_range_meters":29600,"station_id":"ce4bhah2rcd13ifvqei0","pricing_plan_id":"free"},{"bike_id":"fae74a18-77d6-4eb9-b78b-cbb5c636eeeb","system_id":"levelo_inurba_marseille","lat":43.284609,"lon":5.358803,"is_reserved":false,"is_disabled":false,"rental_uris":{"android":"levelo://app?vid=fae74a18-77d6-4eb9-b78b-cbb5c636eeeb","ios":"levelo://app?vid=fae74a18-77d6-4eb9-b78b-cbb5c636eeeb"},"vehicle_type_id":"4","last_reported":1678561544,"current_range_meters":28400,"station_id":"","pricing_plan_id":"free"},{"bike_id":"d187ed1c-a624-4767-b885-40e073303d0c","system_id":"levelo_inurba_marseille","lat":43.295713,"lon":5.399639,"is_reserved":false,"is_disabled":false,"rental_uris":{"android":"levelo://app?vid=d187ed1c-a624-4767-b885-40e073303d0c","ios":"levelo://app?vid=d187ed1c-a624-4767-b885-40e073303d0c"},"vehicle_type_id":"4","last_reported":1678561544,"current_range_meters":28000,"station_id":"ce4bh312rcd13ifvqdj0","pricing_plan_id":"free"},{"bike_id":"398bf4c2-8fb8-458b-bda1-3e070f00e202","system_id":"levelo_inurba_marseille","lat":43.295713,"lon":5.399639,"is_reserved":false,"is_disabled":false,"rental_uris":{"android":"levelo://app?vid=398bf4c2-8fb8-458b-bda1-3e070f00e202","ios":"levelo://app?vid=398bf4c2-8fb8-458b-bda1-3e070f00e202"},"vehicle_type_id":"4","last_reported":1678561544,"current_range_meters":3200,"station_id":"ce4bh312rcd13ifvqdj0","pricing_plan_id":"free"},{"bike_id":"071751a6-2257-4f47-b83d-6a49691737ea","system_id":"levelo_inurba_marseille","lat":43.33723,"lon":5.39173,"is_reserved":false,"is_disabled":false,"rental_uris":{"android":"levelo://app?vid=071751a6-2257-4f47-b83d-6a49691737ea","ios":"levelo://app?vid=071751a6-2257-4f47-b83d-6a49691737ea"},"vehicle_type_id":"4","last_reported":1678561544,"current_range_meters":20000,"station_id":"","pricing_plan_id":"free"},{"bike_id":"16f0dc7b-56a1-4503-831f-4e1fb24172ab","system_id":"levelo_inurba_marseille","lat":43.337168,"lon":5.391825,"is_reserved":false,"is_disabled":false,"rental_uris":{"android":"levelo://app?vid=16f0dc7b-56a1-4503-831f-4e1fb24172ab","ios":"levelo://app?vid=16f0dc7b-56a1-4503-831f-4e1fb24172ab"},"vehicle_type_id":"4","last_reported":1678561544,"current_range_meters":0,"station_id":"ce4bhr92rcd13ifvqhsg","pricing_plan_id":"free"},{"bike_id":"c6663e10-5580-4ca6-b47e-7f4f35e494f7","system_id":"levelo_inurba_marseille","lat":43.33724,"lon":5.39176,"is_reserved":false,"is_disabled":false,"rental_uris":{"android":"levelo://app?vid=c6663e10-5580-4ca6-b47e-7f4f35e494f7","ios":"levelo://app?vid=c6663e10-5580-4ca6-b47e-7f4f35e494f7"},"vehicle_type_id":"4","last_reported":1678561544,"current_range_meters":26400,"station_id":"","pricing_plan_id":"free"},{"bike_id":"7ebff1c8-db28-4930-a896-d6a1bb9e737c","system_id":"levelo_inurba_marseille","lat":43.337168,"lon":5.391825,"is_reserved":false,"is_disabled":false,"rental_uris":{"android":"levelo://app?vid=7ebff1c8-db28-4930-a896-d6a1bb9e737c","ios":"levelo://app?vid=7ebff1c8-db28-4930-a896-d6a1bb9e737c"},"vehicle_type_id":"4","last_reported":1678561544,"current_range_meters":0,"station_id":"ce4bhr92rcd13ifvqhsg","pricing_plan_id":"free"},{"bike_id":"42e28ab5-8793-4be0-9d7f-ebdfd7e9b678","system_id":"levelo_inurba_marseille","lat":43.337168,"lon":5.391825,"is_reserved":false,"is_disabled":false,"rental_uris":{"android":"levelo://app?vid=42e28ab5-8793-4be0-9d7f-ebdfd7e9b678","ios":"levelo://app?vid=42e28ab5-8793-4be0-9d7f-ebdfd7e9b678"},"vehicle_type_id":"4","last_reported":1678561544,"current_range_meters":15600,"station_id":"ce4bhr92rcd13ifvqhsg","pricing_plan_id":"free"},{"bike_id":"024758cd-58b3-47e4-a65c-1a19a9b716b5","system_id":"levelo_inurba_marseille","lat":43.337168,"lon":5.391825,"is_reserved":false,"is_disabled":false,"rental_uris":{"android":"levelo://app?vid=024758cd-58b3-47e4-a65c-1a19a9b716b5","ios":"levelo://app?vid=024758cd-58b3-47e4-a65c-1a19a9b716b5"},"vehicle_type_id":"4","last_reported":1678561544,"current_range_meters":13600,"station_id":"ce4bhr92rcd13ifvqhsg","pricing_plan_id":"free"},{"bike_id":"4e34cadd-607d-4ba4-83f0-da4cac819d45","system_id":"levelo_inurba_marseille","lat":43.33723,"lon":5.39191,"is_reserved":false,"is_disabled":false,"rental_uris":{"android":"levelo://app?vid=4e34cadd-607d-4ba4-83f0-da4cac819d45","ios":"levelo://app?vid=4e34cadd-607d-4ba4-83f0-da4cac819d45"},"vehicle_type_id":"4","last_reported":1678561544,"current_range_meters":0,"station_id":"","pricing_plan_id":"free"},{"bike_id":"be89b116-4999-470c-a7d4-b1c9dc279419","system_id":"levelo_inurba_marseille","lat":43.337257,"lon":5.39194,"is_reserved":false,"is_disabled":false,"rental_uris":{"android":"levelo://app?vid=be89b116-4999-470c-a7d4-b1c9dc279419","ios":"levelo://app?vid=be89b116-4999-470c-a7d4-b1c9dc279419"},"vehicle_type_id":"4","last_reported":1678561544,"current_range_meters":2400,"station_id":"ce4bhr92rcd13ifvqhsg","pricing_plan_id":"free"},{"bike_id":"8740c9a6-83bd-4ec0-b313-25a6fb365634","system_id":"levelo_inurba_marseille","lat":43.33729,"lon":5.3919,"is_reserved":false,"is_disabled":false,"rental_uris":{"android":"levelo://app?vid=8740c9a6-83bd-4ec0-b313-25a6fb365634","ios":"levelo://app?vid=8740c9a6-83bd-4ec0-b313-25a6fb365634"},"vehicle_type_id":"4","last_reported":1678561544,"current_range_meters":13600,"station_id":"","pricing_plan_id":"free"},{"bike_id":"dcdfd42d-50f9-40a5-8398-3291456d660e","system_id":"levelo_inurba_marseille","lat":43.284704,"lon":5.384177,"is_reserved":false,"is_disabled":false,"rental_uris":{"android":"levelo://app?vid=dcdfd42d-50f9-40a5-8398-3291456d660e","ios":"levelo://app?vid=dcdfd42d-50f9-40a5-8398-3291456d660e"},"vehicle_type_id":"4","last_reported":1678561544,"current_range_meters":29200,"station_id":"ce4bh512rcd13ifvqe3g","pricing_plan_id":"free"},{"bike_id":"8db7582e-f123-408f-8db2-f460a1630277","system_id":"levelo_inurba_marseille","lat":43.284787,"lon":5.384116,"is_reserved":false,"is_disabled":false,"rental_uris":{"android":"levelo://app?vid=8db7582e-f123-408f-8db2-f460a1630277","ios":"levelo://app?vid=8db7582e-f123-408f-8db2-f460a1630277"},"vehicle_type_id":"4","last_reported":1678561544,"current_range_meters":29200,"station_id":"ce4bh512rcd13ifvqe3g","pricing_plan_id":"free"},{"bike_id":"3fe20732-012e-4922-9823-8721d49fcd98","system_id":"levelo_inurba_marseille","lat":43.2843,"lon":5.34992,"is_reserved":false,"is_disabled":false,"rental_uris":{"android":"levelo://app?vid=3fe20732-012e-4922-9823-8721d49fcd98","ios":"levelo://app?vid=3fe20732-012e-4922-9823-8721d49fcd98"},"vehicle_type_id":"4","last_reported":1678561544,"current_range_meters":31200,"station_id":"ce4bhbh2rcd13ifvqepg","pricing_plan_id":"free"},{"bike_id":"4db5b596-eba7-44bb-a27e-9d2522bd6fe2","system_id":"levelo_inurba_marseille","lat":43.284219,"lon":5.349804,"is_reserved":false,"is_disabled":false,"rental_uris":{"android":"levelo://app?vid=4db5b596-eba7-44bb-a27e-9d2522bd6fe2","ios":"levelo://app?vid=4db5b596-eba7-44bb-a27e-9d2522bd6fe2"},"vehicle_type_id":"4","last_reported":1678561544,"current_range_meters":26000,"station_id":"ce4bhbh2rcd13ifvqepg","pricing_plan_id":"free"},{"bike_id":"d2c43190-f7c6-4580-9052-046b737c710a","system_id":"levelo_inurba_marseille","lat":43.284219,"lon":5.3497,"is_reserved":false,"is_disabled":false,"rental_uris":{"android":"levelo://app?vid=d2c43190-f7c6-4580-9052-046b737c710a","ios":"levelo://app?vid=d2c43190-f7c6-4580-9052-046b737c710a"},"vehicle_type_id":"4","last_reported":1678561544,"current_range_meters":19200,"station_id":"ce4bhbh2rcd13ifvqepg","pricing_plan_id":"free"},{"bike_id":"4f9ff09e-8d46-4ddf-ae6f-aa7ce99507df","system_id":"levelo_inurba_marseille","lat":43.292724,"lon":5.401131,"is_reserved":false,"is_disabled":false,"rental_uris":{"android":"levelo://app?vid=4f9ff09e-8d46-4ddf-ae6f-aa7ce99507df","ios":"levelo://app?vid=4f9ff09e-8d46-4ddf-ae6f-aa7ce99507df"},"vehicle_type_id":"4","last_reported":1678561544,"current_range_meters":4400,"station_id":"ce4bh312rcd13ifvqdk0","pricing_plan_id":"free"},{"bike_id":"38f4a108-a779-40b3-a0ed-55d6935109a8","system_id":"levelo_inurba_marseille","lat":43.292724,"lon":5.401131,"is_reserved":false,"is_disabled":false,"rental_uris":{"android":"levelo://app?vid=38f4a108-a779-40b3-a0ed-55d6935109a8","ios":"levelo://app?vid=38f4a108-a779-40b3-a0ed-55d6935109a8"},"vehicle_type_id":"4","last_reported":1678561544,"current_range_meters":18800,"station_id":"ce4bh312rcd13ifvqdk0","pricing_plan_id":"free"},{"bike_id":"b55d0706-f5b8-4e4c-9e31-1eb9bf763285","system_id":"levelo_inurba_marseille","lat":43.292724,"lon":5.401131,"is_reserved":false,"is_disabled":false,"rental_uris":{"android":"levelo://app?vid=b55d0706-f5b8-4e4c-9e31-1eb9bf763285","ios":"levelo://app?vid=b55d0706-f5b8-4e4c-9e31-1eb9bf763285"},"vehicle_type_id":"4","last_reported":1678561544,"current_range_meters":3200,"station_id":"ce4bh312rcd13ifvqdk0","pricing_plan_id":"free"},{"bike_id":"1eba99fe-652d-4a88-98e8-fc0df9e9e26b","system_id":"levelo_inurba_marseille","lat":43.292724,"lon":5.401131,"is_reserved":false,"is_disabled":false,"rental_uris":{"android":"levelo://app?vid=1eba99fe-652d-4a88-98e8-fc0df9e9e26b","ios":"levelo://app?vid=1eba99fe-652d-4a88-98e8-fc0df9e9e26b"},"vehicle_type_id":"4","last_reported":1678561544,"current_range_meters":0,"station_id":"ce4bh312rcd13ifvqdk0","pricing_plan_id":"free"},{"bike_id":"3faac745-a5d1-4be2-8164-30169104d9ed","system_id":"levelo_inurba_marseille","lat":43.292724,"lon":5.401131,"is_reserved":false,"is_disabled":false,"rental_uris":{"android":"levelo://app?vid=3faac745-a5d1-4be2-8164-30169104d9ed","ios":"levelo://app?vid=3faac745-a5d1-4be2-8164-30169104d9ed"},"vehicle_type_id":"4","last_reported":1678561544,"current_range_meters":7200,"station_id":"ce4bh312rcd13ifvqdk0","pricing_plan_id":"free"},{"bike_id":"5dabecf2-de75-4cbd-a302-d9d3cb551b43","system_id":"levelo_inurba_marseille","lat":43.292724,"lon":5.401131,"is_reserved":false,"is_disabled":false,"rental_uris":{"android":"levelo://app?vid=5dabecf2-de75-4cbd-a302-d9d3cb551b43","ios":"levelo://app?vid=5dabecf2-de75-4cbd-a302-d9d3cb551b43"},"vehicle_type_id":"4","last_reported":1678561544,"current_range_meters":28000,"station_id":"ce4bh312rcd13ifvqdk0","pricing_plan_id":"free"},{"bike_id":"7eea7e0c-b64e-4ea5-897f-164d9bab6995","system_id":"levelo_inurba_marseille","lat":43.282767,"lon":5.350743,"is_reserved":false,"is_disabled":false,"rental_uris":{"android":"levelo://app?vid=7eea7e0c-b64e-4ea5-897f-164d9bab6995","ios":"levelo://app?vid=7eea7e0c-b64e-4ea5-897f-164d9bab6995"},"vehicle_type_id":"4","last_reported":1678561544,"current_range_meters":0,"station_id":"ce4bhbp2rcd13ifvqerg","pricing_plan_id":"free"},{"bike_id":"2c6cfe01-fc8b-4499-833f-b640ff003c2c","system_id":"levelo_inurba_marseille","lat":43.28273,"lon":5.35075,"is_reserved":false,"is_disabled":false,"rental_uris":{"android":"levelo://app?vid=2c6cfe01-fc8b-4499-833f-b640ff003c2c","ios":"levelo://app?vid=2c6cfe01-fc8b-4499-833f-b640ff003c2c"},"vehicle_type_id":"4","last_reported":1678561544,"current_range_meters":30800,"station_id":"ce4bhbp2rcd13ifvqerg","pricing_plan_id":"free"},{"bike_id":"b63485db-deb2-4f93-9f81-05b5f9f98aaf","system_id":"levelo_inurba_marseille","lat":43.283502,"lon":5.386471,"is_reserved":false,"is_disabled":false,"rental_uris":{"android":"levelo://app?vid=b63485db-deb2-4f93-9f81-05b5f9f98aaf","ios":"levelo://app?vid=b63485db-deb2-4f93-9f81-05b5f9f98aaf"},"vehicle_type_id":"4","last_reported":1678561544,"current_range_meters":0,"station_id":"ce4bh492rcd13ifvqdvg","pricing_plan_id":"free"},{"bike_id":"fa7602e5-ae1f-4238-ba35-b03aaba93572","system_id":"levelo_inurba_marseille","lat":43.29041,"lon":5.399634,"is_reserved":false,"is_disabled":false,"rental_uris":{"android":"levelo://app?vid=fa7602e5-ae1f-4238-ba35-b03aaba93572","ios":"levelo://app?vid=fa7602e5-ae1f-4238-ba35-b03aaba93572"},"vehicle_type_id":"4","last_reported":1678561544,"current_range_meters":8400,"station_id":"ce4bh392rcd13ifvqdm0","pricing_plan_id":"free"},{"bike_id":"da909c69-9def-4faf-9fe9-9d2a195de65d","system_id":"levelo_inurba_marseille","lat":43.29621,"lon":5.40593,"is_reserved":false,"is_disabled":false,"rental_uris":{"android":"levelo://app?vid=da909c69-9def-4faf-9fe9-9d2a195de65d","ios":"levelo://app?vid=da909c69-9def-4faf-9fe9-9d2a195de65d"},"vehicle_type_id":"4","last_reported":1678561544,"current_range_meters":13200,"station_id":"ce4bh0h2rcd13ifvqd60","pricing_plan_id":"free"},{"bike_id":"ffa25ae7-bc81-4ade-9540-b031c8ac431f","system_id":"levelo_inurba_marseille","lat":43.28434,"lon":5.39197,"is_reserved":false,"is_disabled":false,"rental_uris":{"android":"levelo://app?vid=ffa25ae7-bc81-4ade-9540-b031c8ac431f","ios":"levelo://app?vid=ffa25ae7-bc81-4ade-9540-b031c8ac431f"},"vehicle_type_id":"4","last_reported":1678561544,"current_range_meters":0,"station_id":"","pricing_plan_id":"free"},{"bike_id":"8033fd04-d3dd-4935-9ba0-09ae37b10d3b","system_id":"levelo_inurba_marseille","lat":43.320045,"lon":5.415048,"is_reserved":false,"is_disabled":false,"rental_uris":{"android":"levelo://app?vid=8033fd04-d3dd-4935-9ba0-09ae37b10d3b","ios":"levelo://app?vid=8033fd04-d3dd-4935-9ba0-09ae37b10d3b"},"vehicle_type_id":"4","last_reported":1678561544,"current_range_meters":29600,"station_id":"ce4bhq92rcd13ifvqhkg","pricing_plan_id":"free"},{"bike_id":"5dd14ec1-75d5-496b-87fc-db177a17fe58","system_id":"levelo_inurba_marseille","lat":43.320045,"lon":5.415048,"is_reserved":false,"is_disabled":false,"rental_uris":{"android":"levelo://app?vid=5dd14ec1-75d5-496b-87fc-db177a17fe58","ios":"levelo://app?vid=5dd14ec1-75d5-496b-87fc-db177a17fe58"},"vehicle_type_id":"4","last_reported":1678561544,"current_range_meters":15600,"station_id":"ce4bhq92rcd13ifvqhkg","pricing_plan_id":"free"},{"bike_id":"86241b88-164f-4ead-ab7e-313f87213e2c","system_id":"levelo_inurba_marseille","lat":43.320045,"lon":5.415048,"is_reserved":false,"is_disabled":false,"rental_uris":{"android":"levelo://app?vid=86241b88-164f-4ead-ab7e-313f87213e2c","ios":"levelo://app?vid=86241b88-164f-4ead-ab7e-313f87213e2c"},"vehicle_type_id":"4","last_reported":1678561544,"current_range_meters":18000,"station_id":"ce4bhq92rcd13ifvqhkg","pricing_plan_id":"free"},{"bike_id":"d873de88-39ec-4ff2-9ffd-f98414bb9fd1","system_id":"levelo_inurba_marseille","lat":43.320444,"lon":5.415326,"is_reserved":false,"is_disabled":false,"rental_uris":{"android":"levelo://app?vid=d873de88-39ec-4ff2-9ffd-f98414bb9fd1","ios":"levelo://app?vid=d873de88-39ec-4ff2-9ffd-f98414bb9fd1"},"vehicle_type_id":"4","last_reported":1678561544,"current_range_meters":31600,"station_id":"","pricing_plan_id":"free"},{"bike_id":"652de2e5-7d4f-41be-8f9e-1dba6d0ea678","system_id":"levelo_inurba_marseille","lat":43.320045,"lon":5.415048,"is_reserved":false,"is_disabled":false,"rental_uris":{"android":"levelo://app?vid=652de2e5-7d4f-41be-8f9e-1dba6d0ea678","ios":"levelo://app?vid=652de2e5-7d4f-41be-8f9e-1dba6d0ea678"},"vehicle_type_id":"4","last_reported":1678561544,"current_range_meters":27600,"station_id":"ce4bhq92rcd13ifvqhkg","pricing_plan_id":"free"},{"bike_id":"12d93222-8545-4cbc-8d66-06921f4e0044","system_id":"levelo_inurba_marseille","lat":43.320045,"lon":5.415048,"is_reserved":false,"is_disabled":false,"rental_uris":{"android":"levelo://app?vid=12d93222-8545-4cbc-8d66-06921f4e0044","ios":"levelo://app?vid=12d93222-8545-4cbc-8d66-06921f4e0044"},"vehicle_type_id":"4","last_reported":1678561544,"current_range_meters":29200,"station_id":"ce4bhq92rcd13ifvqhkg","pricing_plan_id":"free"},{"bike_id":"c5cdd435-bd84-46db-9a68-f6f7cc302d4f","system_id":"levelo_inurba_marseille","lat":43.320045,"lon":5.415048,"is_reserved":false,"is_disabled":false,"rental_uris":{"android":"levelo://app?vid=c5cdd435-bd84-46db-9a68-f6f7cc302d4f","ios":"levelo://app?vid=c5cdd435-bd84-46db-9a68-f6f7cc302d4f"},"vehicle_type_id":"4","last_reported":1678561544,"current_range_meters":27600,"station_id":"ce4bhq92rcd13ifvqhkg","pricing_plan_id":"free"},{"bike_id":"3a7414ed-8ced-42d2-951b-b0b79fed471f","system_id":"levelo_inurba_marseille","lat":43.320045,"lon":5.415048,"is_reserved":false,"is_disabled":false,"rental_uris":{"android":"levelo://app?vid=3a7414ed-8ced-42d2-951b-b0b79fed471f","ios":"levelo://app?vid=3a7414ed-8ced-42d2-951b-b0b79fed471f"},"vehicle_type_id":"4","last_reported":1678561544,"current_range_meters":24800,"station_id":"ce4bhq92rcd13ifvqhkg","pricing_plan_id":"free"},{"bike_id":"d50a180f-4bf1-435b-84dd-39c937534f67","system_id":"levelo_inurba_marseille","lat":43.320045,"lon":5.415048,"is_reserved":false,"is_disabled":false,"rental_uris":{"android":"levelo://app?vid=d50a180f-4bf1-435b-84dd-39c937534f67","ios":"levelo://app?vid=d50a180f-4bf1-435b-84dd-39c937534f67"},"vehicle_type_id":"4","last_reported":1678561544,"current_range_meters":31600,"station_id":"ce4bhq92rcd13ifvqhkg","pricing_plan_id":"free"},{"bike_id":"b193c10f-b1c9-4e3a-a61b-12bc2ed175b1","system_id":"levelo_inurba_marseille","lat":43.320045,"lon":5.415048,"is_reserved":false,"is_disabled":false,"rental_uris":{"android":"levelo://app?vid=b193c10f-b1c9-4e3a-a61b-12bc2ed175b1","ios":"levelo://app?vid=b193c10f-b1c9-4e3a-a61b-12bc2ed175b1"},"vehicle_type_id":"4","last_reported":1678561544,"current_range_meters":31600,"station_id":"ce4bhq92rcd13ifvqhkg","pricing_plan_id":"free"},{"bike_id":"62d5ccff-05fe-4953-b201-2101628b29e2","system_id":"levelo_inurba_marseille","lat":43.320045,"lon":5.415048,"is_reserved":false,"is_disabled":false,"rental_uris":{"android":"levelo://app?vid=62d5ccff-05fe-4953-b201-2101628b29e2","ios":"levelo://app?vid=62d5ccff-05fe-4953-b201-2101628b29e2"},"vehicle_type_id":"4","last_reported":1678561544,"current_range_meters":29600,"station_id":"ce4bhq92rcd13ifvqhkg","pricing_plan_id":"free"},{"bike_id":"58f7f8eb-06e3-4828-b8f4-40d4adca1456","system_id":"levelo_inurba_marseille","lat":43.320045,"lon":5.415048,"is_reserved":false,"is_disabled":false,"rental_uris":{"android":"levelo://app?vid=58f7f8eb-06e3-4828-b8f4-40d4adca1456","ios":"levelo://app?vid=58f7f8eb-06e3-4828-b8f4-40d4adca1456"},"vehicle_type_id":"4","last_reported":1678561544,"current_range_meters":28800,"station_id":"ce4bhq92rcd13ifvqhkg","pricing_plan_id":"free"},{"bike_id":"3f873970-d166-4576-94e7-112b0007b7d1","system_id":"levelo_inurba_marseille","lat":43.279742,"lon":5.38744,"is_reserved":false,"is_disabled":false,"rental_uris":{"android":"levelo://app?vid=3f873970-d166-4576-94e7-112b0007b7d1","ios":"levelo://app?vid=3f873970-d166-4576-94e7-112b0007b7d1"},"vehicle_type_id":"4","last_reported":1678561544,"current_range_meters":800,"station_id":"ce4bhg12rcd13ifvqf80","pricing_plan_id":"free"},{"bike_id":"95b71e76-e5f9-4426-8b57-d45018d07e3e","system_id":"levelo_inurba_marseille","lat":43.279742,"lon":5.38744,"is_reserved":false,"is_disabled":false,"rental_uris":{"android":"levelo://app?vid=95b71e76-e5f9-4426-8b57-d45018d07e3e","ios":"levelo://app?vid=95b71e76-e5f9-4426-8b57-d45018d07e3e"},"vehicle_type_id":"4","last_reported":1678561544,"current_range_meters":30000,"station_id":"ce4bhg12rcd13ifvqf80","pricing_plan_id":"free"},{"bike_id":"fc310a87-5e94-4fdc-a419-ef9c0efa8e04","system_id":"levelo_inurba_marseille","lat":43.320045,"lon":5.415048,"is_reserved":false,"is_disabled":false,"rental_uris":{"android":"levelo://app?vid=fc310a87-5e94-4fdc-a419-ef9c0efa8e04","ios":"levelo://app?vid=fc310a87-5e94-4fdc-a419-ef9c0efa8e04"},"vehicle_type_id":"4","last_reported":1678561544,"current_range_meters":26000,"station_id":"ce4bhq92rcd13ifvqhkg","pricing_plan_id":"free"},{"bike_id":"39475df8-2a14-41d0-8a8f-1331f22bafab","system_id":"levelo_inurba_marseille","lat":43.292569,"lon":5.409107,"is_reserved":false,"is_disabled":false,"rental_uris":{"android":"levelo://app?vid=39475df8-2a14-41d0-8a8f-1331f22bafab","ios":"levelo://app?vid=39475df8-2a14-41d0-8a8f-1331f22bafab"},"vehicle_type_id":"4","last_reported":1678561544,"current_range_meters":18400,"station_id":"ce4bh192rcd13ifvqdc0","pricing_plan_id":"free"},{"bike_id":"ff9929e3-2d9a-4f6a-9b79-4d482c87e627","system_id":"levelo_inurba_marseille","lat":43.292571,"lon":5.409107,"is_reserved":false,"is_disabled":false,"rental_uris":{"android":"levelo://app?vid=ff9929e3-2d9a-4f6a-9b79-4d482c87e627","ios":"levelo://app?vid=ff9929e3-2d9a-4f6a-9b79-4d482c87e627"},"vehicle_type_id":"4","last_reported":1678561544,"current_range_meters":10800,"station_id":"ce4bh192rcd13ifvqdc0","pricing_plan_id":"free"},{"bike_id":"0bdd2250-79fc-409b-8617-53b9c6d0d9df","system_id":"levelo_inurba_marseille","lat":43.292571,"lon":5.409107,"is_reserved":false,"is_disabled":false,"rental_uris":{"android":"levelo://app?vid=0bdd2250-79fc-409b-8617-53b9c6d0d9df","ios":"levelo://app?vid=0bdd2250-79fc-409b-8617-53b9c6d0d9df"},"vehicle_type_id":"4","last_reported":1678561544,"current_range_meters":1200,"station_id":"ce4bh192rcd13ifvqdc0","pricing_plan_id":"free"},{"bike_id":"888ec31e-7ff1-4415-9121-a594691e70f7","system_id":"levelo_inurba_marseille","lat":43.27618,"lon":5.361009,"is_reserved":false,"is_disabled":false,"rental_uris":{"android":"levelo://app?vid=888ec31e-7ff1-4415-9121-a594691e70f7","ios":"levelo://app?vid=888ec31e-7ff1-4415-9121-a594691e70f7"},"vehicle_type_id":"4","last_reported":1678561544,"current_range_meters":31600,"station_id":"ce4bgj92rcd13ifvqbe0","pricing_plan_id":"free"},{"bike_id":"c81f28f0-8e18-4d86-9832-4d93127084ed","system_id":"levelo_inurba_marseille","lat":43.27618,"lon":5.361009,"is_reserved":false,"is_disabled":false,"rental_uris":{"android":"levelo://app?vid=c81f28f0-8e18-4d86-9832-4d93127084ed","ios":"levelo://app?vid=c81f28f0-8e18-4d86-9832-4d93127084ed"},"vehicle_type_id":"4","last_reported":1678561544,"current_range_meters":28800,"station_id":"ce4bgj92rcd13ifvqbe0","pricing_plan_id":"free"},{"bike_id":"18aa44bb-65a4-4112-aada-f68a39a6d620","system_id":"levelo_inurba_marseille","lat":43.27618,"lon":5.361009,"is_reserved":false,"is_disabled":false,"rental_uris":{"android":"levelo://app?vid=18aa44bb-65a4-4112-aada-f68a39a6d620","ios":"levelo://app?vid=18aa44bb-65a4-4112-aada-f68a39a6d620"},"vehicle_type_id":"4","last_reported":1678561544,"current_range_meters":28800,"station_id":"ce4bgj92rcd13ifvqbe0","pricing_plan_id":"free"},{"bike_id":"8c9726c5-efe4-4657-bcf4-896245da61b0","system_id":"levelo_inurba_marseille","lat":43.27618,"lon":5.361009,"is_reserved":false,"is_disabled":false,"rental_uris":{"android":"levelo://app?vid=8c9726c5-efe4-4657-bcf4-896245da61b0","ios":"levelo://app?vid=8c9726c5-efe4-4657-bcf4-896245da61b0"},"vehicle_type_id":"4","last_reported":1678561544,"current_range_meters":27200,"station_id":"ce4bgj92rcd13ifvqbe0","pricing_plan_id":"free"},{"bike_id":"1d321179-1483-4a22-9355-5170945100a9","system_id":"levelo_inurba_marseille","lat":43.27618,"lon":5.361009,"is_reserved":false,"is_disabled":false,"rental_uris":{"android":"levelo://app?vid=1d321179-1483-4a22-9355-5170945100a9","ios":"levelo://app?vid=1d321179-1483-4a22-9355-5170945100a9"},"vehicle_type_id":"4","last_reported":1678561544,"current_range_meters":26800,"station_id":"ce4bgj92rcd13ifvqbe0","pricing_plan_id":"free"},{"bike_id":"4e3fe89f-1f82-43e6-a58d-364147f1545e","system_id":"levelo_inurba_marseille","lat":43.27618,"lon":5.361009,"is_reserved":false,"is_disabled":false,"rental_uris":{"android":"levelo://app?vid=4e3fe89f-1f82-43e6-a58d-364147f1545e","ios":"levelo://app?vid=4e3fe89f-1f82-43e6-a58d-364147f1545e"},"vehicle_type_id":"4","last_reported":1678561544,"current_range_meters":31600,"station_id":"ce4bgj92rcd13ifvqbe0","pricing_plan_id":"free"},{"bike_id":"64cc5183-8758-4e73-94a1-6e5b39947225","system_id":"levelo_inurba_marseille","lat":43.28081,"lon":5.39657,"is_reserved":false,"is_disabled":false,"rental_uris":{"android":"levelo://app?vid=64cc5183-8758-4e73-94a1-6e5b39947225","ios":"levelo://app?vid=64cc5183-8758-4e73-94a1-6e5b39947225"},"vehicle_type_id":"4","last_reported":1678561544,"current_range_meters":6000,"station_id":"","pricing_plan_id":"free"},{"bike_id":"97a28ada-25cf-443f-a648-b62b4ef424ce","system_id":"levelo_inurba_marseille","lat":43.280784,"lon":5.396622,"is_reserved":false,"is_disabled":false,"rental_uris":{"android":"levelo://app?vid=97a28ada-25cf-443f-a648-b62b4ef424ce","ios":"levelo://app?vid=97a28ada-25cf-443f-a648-b62b4ef424ce"},"vehicle_type_id":"4","last_reported":1678561544,"current_range_meters":10000,"station_id":"ce4bho12rcd13ifvqh2g","pricing_plan_id":"free"},{"bike_id":"4e24dbe5-f40e-487a-b613-fde09bc44378","system_id":"levelo_inurba_marseille","lat":43.28075,"lon":5.39663,"is_reserved":false,"is_disabled":false,"rental_uris":{"android":"levelo://app?vid=4e24dbe5-f40e-487a-b613-fde09bc44378","ios":"levelo://app?vid=4e24dbe5-f40e-487a-b613-fde09bc44378"},"vehicle_type_id":"4","last_reported":1678561544,"current_range_meters":27600,"station_id":"ce4bho12rcd13ifvqh2g","pricing_plan_id":"free"},{"bike_id":"33c7f1f9-580e-44fe-837d-72f22d1d933c","system_id":"levelo_inurba_marseille","lat":43.280784,"lon":5.396622,"is_reserved":false,"is_disabled":false,"rental_uris":{"android":"levelo://app?vid=33c7f1f9-580e-44fe-837d-72f22d1d933c","ios":"levelo://app?vid=33c7f1f9-580e-44fe-837d-72f22d1d933c"},"vehicle_type_id":"4","last_reported":1678561544,"current_range_meters":2000,"station_id":"ce4bho12rcd13ifvqh2g","pricing_plan_id":"free"},{"bike_id":"55c5a45e-77b9-49a8-9813-2c2106c21f89","system_id":"levelo_inurba_marseille","lat":43.280784,"lon":5.396622,"is_reserved":false,"is_disabled":false,"rental_uris":{"android":"levelo://app?vid=55c5a45e-77b9-49a8-9813-2c2106c21f89","ios":"levelo://app?vid=55c5a45e-77b9-49a8-9813-2c2106c21f89"},"vehicle_type_id":"4","last_reported":1678561544,"current_range_meters":9200,"station_id":"ce4bho12rcd13ifvqh2g","pricing_plan_id":"free"},{"bike_id":"bc5b89f3-2855-4d4e-8ee1-2e503e73d318","system_id":"levelo_inurba_marseille","lat":43.273795,"lon":5.362615,"is_reserved":false,"is_disabled":false,"rental_uris":{"android":"levelo://app?vid=bc5b89f3-2855-4d4e-8ee1-2e503e73d318","ios":"levelo://app?vid=bc5b89f3-2855-4d4e-8ee1-2e503e73d318"},"vehicle_type_id":"4","last_reported":1678561544,"current_range_meters":5600,"station_id":"","pricing_plan_id":"free"},{"bike_id":"6569c008-0c5f-4487-a335-d8783f1c4b73","system_id":"levelo_inurba_marseille","lat":43.27374,"lon":5.362623,"is_reserved":false,"is_disabled":false,"rental_uris":{"android":"levelo://app?vid=6569c008-0c5f-4487-a335-d8783f1c4b73","ios":"levelo://app?vid=6569c008-0c5f-4487-a335-d8783f1c4b73"},"vehicle_type_id":"4","last_reported":1678561544,"current_range_meters":16000,"station_id":"ce4bhbh2rcd13ifvqeo0","pricing_plan_id":"free"},{"bike_id":"8c2dba4b-ba1f-4d3c-b9fe-1c47d886d8ba","system_id":"levelo_inurba_marseille","lat":43.27372,"lon":5.36261,"is_reserved":false,"is_disabled":false,"rental_uris":{"android":"levelo://app?vid=8c2dba4b-ba1f-4d3c-b9fe-1c47d886d8ba","ios":"levelo://app?vid=8c2dba4b-ba1f-4d3c-b9fe-1c47d886d8ba"},"vehicle_type_id":"4","last_reported":1678561544,"current_range_meters":4800,"station_id":"ce4bhbh2rcd13ifvqeo0","pricing_plan_id":"free"},{"bike_id":"2fc0eb41-7a27-426d-8b5f-9422b1551cd7","system_id":"levelo_inurba_marseille","lat":43.273613,"lon":5.362705,"is_reserved":false,"is_disabled":false,"rental_uris":{"android":"levelo://app?vid=2fc0eb41-7a27-426d-8b5f-9422b1551cd7","ios":"levelo://app?vid=2fc0eb41-7a27-426d-8b5f-9422b1551cd7"},"vehicle_type_id":"4","last_reported":1678561544,"current_range_meters":1600,"station_id":"ce4bhbh2rcd13ifvqeo0","pricing_plan_id":"free"},{"bike_id":"39fc7d94-aa42-4041-b4b5-48df88a6f292","system_id":"levelo_inurba_marseille","lat":43.33612,"lon":5.410321,"is_reserved":false,"is_disabled":false,"rental_uris":{"android":"levelo://app?vid=39fc7d94-aa42-4041-b4b5-48df88a6f292","ios":"levelo://app?vid=39fc7d94-aa42-4041-b4b5-48df88a6f292"},"vehicle_type_id":"4","last_reported":1678561544,"current_range_meters":26000,"station_id":"ce4bhqh2rcd13ifvqhmg","pricing_plan_id":"free"},{"bike_id":"2ccd445e-4526-4c42-86b6-dac017d48f0c","system_id":"levelo_inurba_marseille","lat":43.27668,"lon":5.38921,"is_reserved":false,"is_disabled":false,"rental_uris":{"android":"levelo://app?vid=2ccd445e-4526-4c42-86b6-dac017d48f0c","ios":"levelo://app?vid=2ccd445e-4526-4c42-86b6-dac017d48f0c"},"vehicle_type_id":"4","last_reported":1678561544,"current_range_meters":3200,"station_id":"","pricing_plan_id":"free"},{"bike_id":"acb252d6-4137-4734-89dd-f03a2f5a61cc","system_id":"levelo_inurba_marseille","lat":43.317121,"lon":5.423936,"is_reserved":false,"is_disabled":false,"rental_uris":{"android":"levelo://app?vid=acb252d6-4137-4734-89dd-f03a2f5a61cc","ios":"levelo://app?vid=acb252d6-4137-4734-89dd-f03a2f5a61cc"},"vehicle_type_id":"4","last_reported":1678561544,"current_range_meters":25600,"station_id":"ce4bhp92rcd13ifvqhbg","pricing_plan_id":"free"},{"bike_id":"6e7e6b58-27e8-42c5-a438-4508638380dc","system_id":"levelo_inurba_marseille","lat":43.317121,"lon":5.423936,"is_reserved":false,"is_disabled":false,"rental_uris":{"android":"levelo://app?vid=6e7e6b58-27e8-42c5-a438-4508638380dc","ios":"levelo://app?vid=6e7e6b58-27e8-42c5-a438-4508638380dc"},"vehicle_type_id":"4","last_reported":1678561544,"current_range_meters":30400,"station_id":"ce4bhp92rcd13ifvqhbg","pricing_plan_id":"free"},{"bike_id":"a4beba90-c6a3-4273-95b5-39611eb5dbb3","system_id":"levelo_inurba_marseille","lat":43.273125,"lon":5.390731,"is_reserved":false,"is_disabled":false,"rental_uris":{"android":"levelo://app?vid=a4beba90-c6a3-4273-95b5-39611eb5dbb3","ios":"levelo://app?vid=a4beba90-c6a3-4273-95b5-39611eb5dbb3"},"vehicle_type_id":"4","last_reported":1678561544,"current_range_meters":0,"station_id":"ce4bhgp2rcd13ifvqfe0","pricing_plan_id":"free"},{"bike_id":"4abe47de-a7db-4e8a-bf9b-ea3749358064","system_id":"levelo_inurba_marseille","lat":43.295511,"lon":5.422926,"is_reserved":false,"is_disabled":false,"rental_uris":{"android":"levelo://app?vid=4abe47de-a7db-4e8a-bf9b-ea3749358064","ios":"levelo://app?vid=4abe47de-a7db-4e8a-bf9b-ea3749358064"},"vehicle_type_id":"4","last_reported":1678561544,"current_range_meters":3600,"station_id":"ce4bhph2rcd13ifvqhdg","pricing_plan_id":"free"},{"bike_id":"236da3e4-e24a-4414-9e16-0945b3f5d9f5","system_id":"levelo_inurba_marseille","lat":43.295511,"lon":5.422926,"is_reserved":false,"is_disabled":false,"rental_uris":{"android":"levelo://app?vid=236da3e4-e24a-4414-9e16-0945b3f5d9f5","ios":"levelo://app?vid=236da3e4-e24a-4414-9e16-0945b3f5d9f5"},"vehicle_type_id":"4","last_reported":1678561544,"current_range_meters":23600,"station_id":"ce4bhph2rcd13ifvqhdg","pricing_plan_id":"free"},