{"last_updated":1726647128,"ttl":30,"version":"2.2","data":{"bikes":[{"bike_id":"322e1fc7-477e-479f-b0df-9ee6bb7c3f34","system_id":"levelo_inurba_marseille","lat":43.32543,"lon":5.41495,"is_reserved":false,"is_disabled":false,"rental_uris":{"android":"levelo://app?vid=322e1fc7-477e-479f-b0df-9ee6bb7c3f34","ios":"levelo://app?vid=322e1fc7-477e-479f-b0df-9ee6bb7c3f34"},"vehicle_type_id":"4","last_reported":1726647128,"current_range_meters":39200,"station_id":"ce4bhq12rcd13ifvqhhg","pricing_plan_id":"cebpf4jnsgd1na2vs0mg"},{"bike_id":"d8a7bbae-3d0e-457c-8e82-e6128d956f4d","system_id":"levelo_inurba_marseille","lat":43.27496,"lon":5.42467,"is_reserved":false,"is_disabled":false,"rental_uris":{"android":"levelo://app?vid=d8a7bbae-3d0e-457c-8e82-e6128d956f4d","ios":"levelo://app?vid=d8a7bbae-3d0e-457c-8e82-e6128d956f4d"},"vehicle_type_id":"4","last_reported":1726647128,"current_range_meters":8400,"station_id":"ce4bhn92rcd13ifvqgrg","pricing_plan_id":"cebpf4jnsgd1na2vs0mg"},{"bike_id":"7d230ddf-aeb4-4728-90d1-b0dbb82e6d43","system_id":"levelo_inurba_marseille","lat":43.26057,"lon":5.39399,"is_reserved":false,"is_disabled":false,"rental_uris":{"android":"levelo://app?vid=7d230ddf-aeb4-4728-90d1-b0dbb82e6d43","ios":"levelo://app?vid=7d230ddf-aeb4-4728-90d1-b0dbb82e6d43"},"vehicle_type_id":"4","last_reported":1726647128,"current_range_meters":25200,"station_id":"ce4bhh92rcd13ifvqfj0","pricing_plan_id":"cebpf4jnsgd1na2vs0mg"},{"bike_id":"005b4cb7-40ef-46da-b28a-c870673d83f3","system_id":"levelo_inurba_marseille","lat":43.2694,"lon":5.38643,"is_reserved":false,"is_disabled":false,"rental_uris":{"android":"levelo://app?vid=005b4cb7-40ef-46da-b28a-c870673d83f3","ios":"levelo://app?vid=005b4cb7-40ef-46da-b28a-c870673d83f3"},"vehicle_type_id":"4","last_reported":1726647128,"current_range_meters":32800,"station_id":"ce4bhh92rcd13ifvqfh0","pricing_plan_id":"cebpf4jnsgd1na2vs0mg"},{"bike_id":"1b2eb3bf-704f-4ec9-b5bf-79bc64acc587","system_id":"levelo_inurba_marseille","lat":43.27291,"lon":5.39079,"is_reserved":false,"is_disabled":false,"rental_uris":{"android":"levelo://app?vid=1b2eb3bf-704f-4ec9-b5bf-79bc64acc587","ios":"levelo://app?vid=1b2eb3bf-704f-4ec9-b5bf-79bc64acc587"},"vehicle_type_id":"4","last_reported":1726647128,"current_range_meters":18800,"station_id":"ce4bhgp2rcd13ifvqfe0","pricing_plan_id":"cebpf4jnsgd1na2vs0mg"},{"bike_id":"faf458fe-7be6-4c54-a850-b961043d5b27","system_id":"levelo_inurba_marseille","lat":43.328155,"lon":5.367478,"is_reserved":false,"is_disabled":false,"rental_uris":{"android":"levelo://app?vid=faf458fe-7be6-4c54-a850-b961043d5b27","ios":"levelo://app?vid=faf458fe-7be6-4c54-a850-b961043d5b27"},"vehicle_type_id":"4","last_reported":1726647128,"current_range_meters":22800,"station_id":"ce4bhs12rcd13ifvqhvg","pricing_plan_id":"cebpf4jnsgd1na2vs0mg"},{"bike_id":"43176770-eaee-4996-86c7-d408161e4ce6","system_id":"levelo_inurba_marseille","lat":43.29896,"lon":5.43665,"is_reserved":false,"is_disabled":false,"rental_uris":{"android":"levelo://app?vid=43176770-eaee-4996-86c7-d408161e4ce6","ios":"levelo://app?vid=43176770-eaee-4996-86c7-d408161e4ce6"},"vehicle_type_id":"4","last_reported":1726647128,"current_range_meters":38000,"station_id":"ce4bhpp2rcd13ifvqhfg","pricing_plan_id":"cebpf4jnsgd1na2vs0mg"},{"bike_id":"05976b69-d4de-44ef-87b1-8bce8cd5521e","system_id":"levelo_inurba_marseille","lat":43.24078,"lon":5.37749,"is_reserved":false,"is_disabled":false,"rental_uris":{"android":"levelo://app?vid=05976b69-d4de-44ef-87b1-8bce8cd5521e","ios":"levelo://app?vid=05976b69-d4de-44ef-87b1-8bce8cd5521e"},"vehicle_type_id":"4","last_reported":1726647128,"current_range_meters":36400,"station_id":"ce4bhnp2rcd13ifvqgvg","pricing_plan_id":"cebpf4jnsgd1na2vs0mg"},{"bike_id":"9a2795ab-b8e3-41d5-8e6e-349078045a73","system_id":"levelo_inurba_marseille","lat":43.33612,"lon":5.41033,"is_reserved":false,"is_disabled":false,"rental_uris":{"android":"levelo://app?vid=9a2795ab-b8e3-41d5-8e6e-349078045a73","ios":"levelo://app?vid=9a2795ab-b8e3-41d5-8e6e-349078045a73"},"vehicle_type_id":"4","last_reported":1726647128,"current_range_meters":9600,"station_id":"ce4bhqh2rcd13ifvqhmg","pricing_plan_id":"cebpf4jnsgd1na2vs0mg"},{"bike_id":"f85ce8c6-1f53-41f6-90ea-c0a37e5934f8","system_id":"levelo_inurba_marseille","lat":43.27075,"lon":5.42282,"is_reserved":false,"is_disabled":false,"rental_uris":{"android":"levelo://app?vid=f85ce8c6-1f53-41f6-90ea-c0a37e5934f8","ios":"levelo://app?vid=f85ce8c6-1f53-41f6-90ea-c0a37e5934f8"},"vehicle_type_id":"4","last_reported":1726647128,"current_range_meters":30800,"station_id":"ce4bhk92rcd13ifvqgb0","pricing_plan_id":"cebpf4jnsgd1na2vs0mg"},{"bike_id":"a6862d6c-bcdb-4c5e-854a-506954e7f8c0","system_id":"levelo_inurba_marseille","lat":43.25937,"lon":5.40905,"is_reserved":false,"is_disabled":false,"rental_uris":{"android":"levelo://app?vid=a6862d6c-bcdb-4c5e-854a-506954e7f8c0","ios":"levelo://app?vid=a6862d6c-bcdb-4c5e-854a-506954e7f8c0"},"vehicle_type_id":"4","last_reported":1726647128,"current_range_meters":9200,"station_id":"ce4bhm92rcd13ifvqglg","pricing_plan_id":"cebpf4jnsgd1na2vs0mg"},{"bike_id":"16a6f96a-5cb2-461f-a294-02ee9ebc6764","system_id":"levelo_inurba_marseille","lat":43.31347,"lon":5.36717,"is_reserved":false,"is_disabled":false,"rental_uris":{"android":"levelo://app?vid=16a6f96a-5cb2-461f-a294-02ee9ebc6764","ios":"levelo://app?vid=16a6f96a-5cb2-461f-a294-02ee9ebc6764"},"vehicle_type_id":"4","last_reported":1726647128,"current_range_meters":28400,"station_id":"ce4bgr92rcd13ifvqc6g","pricing_plan_id":"cebpf4jnsgd1na2vs0mg"},{"bike_id":"b592e2f2-3b3c-4b97-abca-4d0c4bf54e79","system_id":"levelo_inurba_marseille","lat":43.29939,"lon":5.40376,"is_reserved":false,"is_disabled":false,"rental_uris":{"android":"levelo://app?vid=b592e2f2-3b3c-4b97-abca-4d0c4bf54e79","ios":"levelo://app?vid=b592e2f2-3b3c-4b97-abca-4d0c4bf54e79"},"vehicle_type_id":"4","last_reported":1726647128,"current_range_meters":34800,"station_id":"","pricing_plan_id":"cebpf4jnsgd1na2vs0mg"},{"bike_id":"a3d35908-568e-4db5-a7de-7cea06d43e55","system_id":"levelo_inurba_marseille","lat":43.25822,"lon":5.39424,"is_reserved":false,"is_disabled":false,"rental_uris":{"android":"levelo://app?vid=a3d35908-568e-4db5-a7de-7cea06d43e55","ios":"levelo://app?vid=a3d35908-568e-4db5-a7de-7cea06d43e55"},"vehicle_type_id":"4","last_reported":1726647128,"current_range_meters":25600,"station_id":"ce4bh692rcd13ifvqea0","pricing_plan_id":"cebpf4jnsgd1na2vs0mg"},{"bike_id":"cc61c424-22d6-4f28-9a8e-cbfb1de6dc3a","system_id":"levelo_inurba_marseille","lat":43.30434,"lon":5.38904,"is_reserved":false,"is_disabled":false,"rental_uris":{"android":"levelo://app?vid=cc61c424-22d6-4f28-9a8e-cbfb1de6dc3a","ios":"levelo://app?vid=cc61c424-22d6-4f28-9a8e-cbfb1de6dc3a"},"vehicle_type_id":"4","last_reported":1726647128,"current_range_meters":14800,"station_id":"ce4bgk12rcd13ifvqbi0","pricing_plan_id":"cebpf4jnsgd1na2vs0mg"},{"bike_id":"8da63c38-0dd6-4468-98f8-c6c79beaea47","system_id":"levelo_inurba_marseille","lat":43.28933,"lon":5.36633,"is_reserved":false,"is_disabled":false,"rental_uris":{"android":"levelo://app?vid=8da63c38-0dd6-4468-98f8-c6c79beaea47","ios":"levelo://app?vid=8da63c38-0dd6-4468-98f8-c6c79beaea47"},"vehicle_type_id":"4","last_reported":1726647128,"current_range_meters":39200,"station_id":"ce4bhap2rcd13ifvqek0","pricing_plan_id":"cebpf4jnsgd1na2vs0mg"},{"bike_id":"b5890725-bfd6-4476-9287-9e093cd096fb","system_id":"levelo_inurba_marseille","lat":43.33022,"lon":5.39039,"is_reserved":false,"is_disabled":false,"rental_uris":{"android":"levelo://app?vid=b5890725-bfd6-4476-9287-9e093cd096fb","ios":"levelo://app?vid=b5890725-bfd6-4476-9287-9e093cd096fb"},"vehicle_type_id":"4","last_reported":1726647128,"current_range_meters":6000,"station_id":"ce4bhr92rcd13ifvqhrg","pricing_plan_id":"cebpf4jnsgd1na2vs0mg"},{"bike_id":"de672d3e-6631-4f79-a15a-ca2546ba213b","system_id":"levelo_inurba_marseille","lat":43.24074,"lon":5.37758,"is_reserved":false,"is_disabled":false,"rental_uris":{"android":"levelo://app?vid=de672d3e-6631-4f79-a15a-ca2546ba213b","ios":"levelo://app?vid=de672d3e-6631-4f79-a15a-ca2546ba213b"},"vehicle_type_id":"4","last_reported":1726647128,"current_range_meters":11200,"station_id":"ce4bhnp2rcd13ifvqgvg","pricing_plan_id":"cebpf4jnsgd1na2vs0mg"},{"bike_id":"553a82d5-e222-4603-9da6-f2b592b1881b","system_id":"levelo_inurba_marseille","lat":43.30465,"lon":5.37899,"is_reserved":false,"is_disabled":false,"rental_uris":{"android":"levelo://app?vid=553a82d5-e222-4603-9da6-f2b592b1881b","ios":"levelo://app?vid=553a82d5-e222-4603-9da6-f2b592b1881b"},"vehicle_type_id":"4","last_reported":1726647128,"current_range_meters":16000,"station_id":"ce4bgup2rcd13ifvqcn0","pricing_plan_id":"cebpf4jnsgd1na2vs0mg"},{"bike_id":"5309d39c-1795-43e9-bfff-4830328841b6","system_id":"levelo_inurba_marseille","lat":43.23151,"lon":5.43719,"is_reserved":false,"is_disabled":false,"rental_uris":{"android":"levelo://app?vid=5309d39c-1795-43e9-bfff-4830328841b6","ios":"levelo://app?vid=5309d39c-1795-43e9-bfff-4830328841b6"},"vehicle_type_id":"4","last_reported":1726647128,"current_range_meters":27600,"station_id":"ce4bhmp2rcd13ifvqgog","pricing_plan_id":"cebpf4jnsgd1na2vs0mg"},{"bike_id":"9321ee4e-d05d-4d6d-b6e4-d898cfa9ebfb","system_id":"levelo_inurba_marseille","lat":43.30146,"lon":5.3807,"is_reserved":false,"is_disabled":false,"rental_uris":{"android":"levelo://app?vid=9321ee4e-d05d-4d6d-b6e4-d898cfa9ebfb","ios":"levelo://app?vid=9321ee4e-d05d-4d6d-b6e4-d898cfa9ebfb"},"vehicle_type_id":"4","last_reported":1726647128,"current_range_meters":28000,"station_id":"ce4bgjp2rcd13ifvqbh0","pricing_plan_id":"cebpf4jnsgd1na2vs0mg"},{"bike_id":"c3c364f4-0fa8-4b51-8626-4a339baace73","system_id":"levelo_inurba_marseille","lat":43.24077,"lon":5.37752,"is_reserved":false,"is_disabled":false,"rental_uris":{"android":"levelo://app?vid=c3c364f4-0fa8-4b51-8626-4a339baace73","ios":"levelo://app?vid=c3c364f4-0fa8-4b51-8626-4a339baace73"},"vehicle_type_id":"4","last_reported":1726647128,"current_range_meters":20800,"station_id":"ce4bhnp2rcd13ifvqgvg","pricing_plan_id":"cebpf4jnsgd1na2vs0mg"},{"bike_id":"faa506e9-5969-4e5b-8be0-34cff0a31bdc","system_id":"levelo_inurba_marseille","lat":43.29728,"lon":5.37679,"is_reserved":false,"is_disabled":false,"rental_uris":{"android":"levelo://app?vid=faa506e9-5969-4e5b-8be0-34cff0a31bdc","ios":"levelo://app?vid=faa506e9-5969-4e5b-8be0-34cff0a31bdc"},"vehicle_type_id":"4","last_reported":1726647128,"current_range_meters":32400,"station_id":"ce4bgkh2rcd13ifvqbl0","pricing_plan_id":"cebpf4jnsgd1na2vs0mg"},{"bike_id":"346734d6-3bd5-4c14-ab6a-6a90976482fa","system_id":"levelo_inurba_marseille","lat":43.24177,"lon":5.39724,"is_reserved":false,"is_disabled":false,"rental_uris":{"android":"levelo://app?vid=346734d6-3bd5-4c14-ab6a-6a90976482fa","ios":"levelo://app?vid=346734d6-3bd5-4c14-ab6a-6a90976482fa"},"vehicle_type_id":"4","last_reported":1726647128,"current_range_meters":8400,"station_id":"ce4bhn12rcd13ifvqgpg","pricing_plan_id":"cebpf4jnsgd1na2vs0mg"},{"bike_id":"94306d42-ea71-4ff6-9cf4-02f2bfbb1144","system_id":"levelo_inurba_marseille","lat":43.28918,"lon":5.36402,"is_reserved":false,"is_disabled":false,"rental_uris":{"android":"levelo://app?vid=94306d42-ea71-4ff6-9cf4-02f2bfbb1144","ios":"levelo://app?vid=94306d42-ea71-4ff6-9cf4-02f2bfbb1144"},"vehicle_type_id":"4","last_reported":1726647128,"current_range_meters":40000,"station_id":"ce4bhc92rcd13ifvqetg","pricing_plan_id":"cebpf4jnsgd1na2vs0mg"},{"bike_id":"103a716b-dbc7-4e49-a7f2-16e378e92b85","system_id":"levelo_inurba_marseille","lat":43.22927,"lon":5.35373,"is_reserved":false,"is_disabled":false,"rental_uris":{"android":"levelo://app?vid=103a716b-dbc7-4e49-a7f2-16e378e92b85","ios":"levelo://app?vid=103a716b-dbc7-4e49-a7f2-16e378e92b85"},"vehicle_type_id":"4","last_reported":1726647128,"current_range_meters":26000,"station_id":"cpo3532slgdg3j2ikp40","pricing_plan_id":"cebpf4jnsgd1na2vs0mg"},{"bike_id":"c99f4b83-09a2-4c79-9cc7-9e4f5b91cfa1","system_id":"levelo_inurba_marseille","lat":43.285605,"lon":5.394951,"is_reserved":false,"is_disabled":false,"rental_uris":{"android":"levelo://app?vid=c99f4b83-09a2-4c79-9cc7-9e4f5b91cfa1","ios":"levelo://app?vid=c99f4b83-09a2-4c79-9cc7-9e4f5b91cfa1"},"vehicle_type_id":"4","last_reported":1726647128,"current_range_meters":20000,"station_id":"ce4bhgp2rcd13ifvqfe0","pricing_plan_id":"cebpf4jnsgd1na2vs0mg"},{"bike_id":"7affc5c7-b1b3-4f2c-af16-dca461f78215","system_id":"levelo_inurba_marseille","lat":43.31354,"lon":5.36721,"is_reserved":false,"is_disabled":false,"rental_uris":{"android":"levelo://app?vid=7affc5c7-b1b3-4f2c-af16-dca461f78215","ios":"levelo://app?vid=7affc5c7-b1b3-4f2c-af16-dca461f78215"},"vehicle_type_id":"4","last_reported":1726647128,"current_range_meters":33200,"station_id":"ce4bgr92rcd13ifvqc6g","pricing_plan_id":"cebpf4jnsgd1na2vs0mg"},{"bike_id":"9d3e0994-7291-4fa8-b920-e0297ab61683","system_id":"levelo_inurba_marseille","lat":43.31353,"lon":5.36739,"is_reserved":false,"is_disabled":false,"rental_uris":{"android":"levelo://app?vid=9d3e0994-7291-4fa8-b920-e0297ab61683","ios":"levelo://app?vid=9d3e0994-7291-4fa8-b920-e0297ab61683"},"vehicle_type_id":"4","last_reported":1726647128,"current_range_meters":24000,"station_id":"ce4bgr92rcd13ifvqc6g","pricing_plan_id":"cebpf4jnsgd1na2vs0mg"},{"bike_id":"26194a59-95df-4de1-b052-7cbab7529a40","system_id":"levelo_inurba_marseille","lat":43.27063,"lon":5.402592,"is_reserved":false,"is_disabled":false,"rental_uris":{"android":"levelo://app?vid=26194a59-95df-4de1-b052-7cbab7529a40","ios":"levelo://app?vid=26194a59-95df-4de1-b052-7cbab7529a40"},"vehicle_type_id":"4","last_reported":1726647128,"current_range_meters":30400,"station_id":"ce4bhk92rcd13ifvqgc0","pricing_plan_id":"cebpf4jnsgd1na2vs0mg"},{"bike_id":"a02531e7-e816-40db-83bd-a99a7ebc00d2","system_id":"levelo_inurba_marseille","lat":43.30472,"lon":5.3791,"is_reserved":false,"is_disabled":false,"rental_uris":{"android":"levelo://app?vid=a02531e7-e816-40db-83bd-a99a7ebc00d2","ios":"levelo://app?vid=a02531e7-e816-40db-83bd-a99a7ebc00d2"},"vehicle_type_id":"4","last_reported":1726647128,"current_range_meters":35200,"station_id":"ce4bgup2rcd13ifvqcn0","pricing_plan_id":"cebpf4jnsgd1na2vs0mg"},{"bike_id":"01e01486-e4e5-454a-a5c6-fa0320fdf1ba","system_id":"levelo_inurba_marseille","lat":43.30189,"lon":5.36612,"is_reserved":false,"is_disabled":false,"rental_uris":{"android":"levelo://app?vid=01e01486-e4e5-454a-a5c6-fa0320fdf1ba","ios":"levelo://app?vid=01e01486-e4e5-454a-a5c6-fa0320fdf1ba"},"vehicle_type_id":"4","last_reported":1726647128,"current_range_meters":39200,"station_id":"ce4bgrh2rcd13ifvqc8g","pricing_plan_id":"cebpf4jnsgd1na2vs0mg"},{"bike_id":"3865a787-eeae-426d-8d42-5d04bb282598","system_id":"levelo_inurba_marseille","lat":43.28924,"lon":5.364,"is_reserved":false,"is_disabled":false,"rental_uris":{"android":"levelo://app?vid=3865a787-eeae-426d-8d42-5d04bb282598","ios":"levelo://app?vid=3865a787-eeae-426d-8d42-5d04bb282598"},"vehicle_type_id":"4","last_reported":1726647128,"current_range_meters":18800,"station_id":"ce4bhc92rcd13ifvqetg","pricing_plan_id":"cebpf4jnsgd1na2vs0mg"},{"bike_id":"d9b62648-6378-4dbb-9f13-09848203a4fd","system_id":"levelo_inurba_marseille","lat":43.26679,"lon":5.38278,"is_reserved":false,"is_disabled":false,"rental_uris":{"android":"levelo://app?vid=d9b62648-6378-4dbb-9f13-09848203a4fd","ios":"levelo://app?vid=d9b62648-6378-4dbb-9f13-09848203a4fd"},"vehicle_type_id":"4","last_reported":1726647128,"current_range_meters":38800,"station_id":"ce4bhg92rcd13ifvqf90","pricing_plan_id":"cebpf4jnsgd1na2vs0mg"},{"bike_id":"a0e5f421-709d-44df-bdfd-e59779795297","system_id":"levelo_inurba_marseille","lat":43.246521,"lon":5.381586,"is_reserved":false,"is_disabled":false,"rental_uris":{"android":"levelo://app?vid=a0e5f421-709d-44df-bdfd-e59779795297","ios":"levelo://app?vid=a0e5f421-709d-44df-bdfd-e59779795297"},"vehicle_type_id":"4","last_reported":1726647128,"current_range_meters":37600,"station_id":"ce4bhih2rcd13ifvqfr0","pricing_plan_id":"cebpf4jnsgd1na2vs0mg"},{"bike_id":"2a5808e5-1612-4dc1-a62b-b9c71459256c","system_id":"levelo_inurba_marseille","lat":43.34089,"lon":5.39103,"is_reserved":false,"is_disabled":false,"rental_uris":{"android":"levelo://app?vid=2a5808e5-1612-4dc1-a62b-b9c71459256c","ios":"levelo://app?vid=2a5808e5-1612-4dc1-a62b-b9c71459256c"},"vehicle_type_id":"4","last_reported":1726647128,"current_range_meters":6400,"station_id":"","pricing_plan_id":"cebpf4jnsgd1na2vs0mg"},{"bike_id":"cdf82ab7-5b21-42a8-b62b-7c9153e0b3ec","system_id":"levelo_inurba_marseille","lat":43.27495,"lon":5.4245,"is_reserved":false,"is_disabled":false,"rental_uris":{"android":"levelo://app?vid=cdf82ab7-5b21-42a8-b62b-7c9153e0b3ec","ios":"levelo://app?vid=cdf82ab7-5b21-42a8-b62b-7c9153e0b3ec"},"vehicle_type_id":"4","last_reported":1726647128,"current_range_meters":30000,"station_id":"ce4bhn92rcd13ifvqgrg","pricing_plan_id":"cebpf4jnsgd1na2vs0mg"},{"bike_id":"533d9208-fe89-453e-b3c3-610f93fc3de8","system_id":"levelo_inurba_marseille","lat":43.2928,"lon":5.4013,"is_reserved":false,"is_disabled":false,"rental_uris":{"android":"levelo://app?vid=533d9208-fe89-453e-b3c3-610f93fc3de8","ios":"levelo://app?vid=533d9208-fe89-453e-b3c3-610f93fc3de8"},"vehicle_type_id":"4","last_reported":1726647128,"current_range_meters":39200,"station_id":"ce4bh312rcd13ifvqdk0","pricing_plan_id":"cebpf4jnsgd1na2vs0mg"},{"bike_id":"058d56fc-6eee-44d9-95b4-4f9ba907d92e","system_id":"levelo_inurba_marseille","lat":43.26566,"lon":5.39009,"is_reserved":false,"is_disabled":false,"rental_uris":{"android":"levelo://app?vid=058d56fc-6eee-44d9-95b4-4f9ba907d92e","ios":"levelo://app?vid=058d56fc-6eee-44d9-95b4-4f9ba907d92e"},"vehicle_type_id":"4","last_reported":1726647128,"current_range_meters":28800,"station_id":"ce4bhe12rcd13ifvqf30","pricing_plan_id":"cebpf4jnsgd1na2vs0mg"},{"bike_id":"4131fcbb-4f50-4456-b408-a6cfff5131d3","system_id":"levelo_inurba_marseille","lat":43.28263,"lon":5.35066,"is_reserved":false,"is_disabled":false,"rental_uris":{"android":"levelo://app?vid=4131fcbb-4f50-4456-b408-a6cfff5131d3","ios":"levelo://app?vid=4131fcbb-4f50-4456-b408-a6cfff5131d3"},"vehicle_type_id":"4","last_reported":1726647128,"current_range_meters":26000,"station_id":"ce4bhbp2rcd13ifvqerg","pricing_plan_id":"cebpf4jnsgd1na2vs0mg"},{"bike_id":"65eaf48d-8e15-4c50-a81a-08d7b23a7362","system_id":"levelo_inurba_marseille","lat":43.31079,"lon":5.42433,"is_reserved":false,"is_disabled":false,"rental_uris":{"android":"levelo://app?vid=65eaf48d-8e15-4c50-a81a-08d7b23a7362","ios":"levelo://app?vid=65eaf48d-8e15-4c50-a81a-08d7b23a7362"},"vehicle_type_id":"4","last_reported":1726647128,"current_range_meters":37600,"station_id":"ce4bhp92rcd13ifvqhag","pricing_plan_id":"cebpf4jnsgd1na2vs0mg"},{"bike_id":"b4450704-51e1-4ff8-a772-08322cc70eb7","system_id":"levelo_inurba_marseille","lat":43.2319,"lon":5.35554,"is_reserved":false,"is_disabled":false,"rental_uris":{"android":"levelo://app?vid=b4450704-51e1-4ff8-a772-08322cc70eb7","ios":"levelo://app?vid=b4450704-51e1-4ff8-a772-08322cc70eb7"},"vehicle_type_id":"4","last_reported":1726647128,"current_range_meters":36400,"station_id":"ce4bhu92rcd13ifvqi70","pricing_plan_id":"cebpf4jnsgd1na2vs0mg"},{"bike_id":"f884c139-5e70-4b5c-839d-930bc641f4ea","system_id":"levelo_inurba_marseille","lat":43.25004,"lon":5.38924,"is_reserved":false,"is_disabled":false,"rental_uris":{"android":"levelo://app?vid=f884c139-5e70-4b5c-839d-930bc641f4ea","ios":"levelo://app?vid=f884c139-5e70-4b5c-839d-930bc641f4ea"},"vehicle_type_id":"4","last_reported":1726647128,"current_range_meters":40000,"station_id":"ce4bhgp2rcd13ifvqfd0","pricing_plan_id":"cebpf4jnsgd1na2vs0mg"},{"bike_id":"c2667222-5d26-4d9c-a938-761c480fe584","system_id":"levelo_inurba_marseille","lat":43.33023,"lon":5.39048,"is_reserved":false,"is_disabled":false,"rental_uris":{"android":"levelo://app?vid=c2667222-5d26-4d9c-a938-761c480fe584","ios":"levelo://app?vid=c2667222-5d26-4d9c-a938-761c480fe584"},"vehicle_type_id":"4","last_reported":1726647128,"current_range_meters":11200,"station_id":"ce4bhr92rcd13ifvqhrg","pricing_plan_id":"cebpf4jnsgd1na2vs0mg"},{"bike_id":"d2648441-8611-4e86-b6a3-95e5dd6d09df","system_id":"levelo_inurba_marseille","lat":43.24648,"lon":5.38892,"is_reserved":false,"is_disabled":false,"rental_uris":{"android":"levelo://app?vid=d2648441-8611-4e86-b6a3-95e5dd6d09df","ios":"levelo://app?vid=d2648441-8611-4e86-b6a3-95e5dd6d09df"},"vehicle_type_id":"4","last_reported":1726647128,"current_range_meters":36000,"station_id":"ce4bhg12rcd13ifvqf60","pricing_plan_id":"cebpf4jnsgd1na2vs0mg"},{"bike_id":"442c5059-0433-4ca9-94c3-1cf6dbafc57d","system_id":"levelo_inurba_marseille","lat":43.30155,"lon":5.38075,"is_reserved":false,"is_disabled":false,"rental_uris":{"android":"levelo://app?vid=442c5059-0433-4ca9-94c3-1cf6dbafc57d","ios":"levelo://app?vid=442c5059-0433-4ca9-94c3-1cf6dbafc57d"},"vehicle_type_id":"4","last_reported":1726647128,"current_range_meters":33600,"station_id":"ce4bgjp2rcd13ifvqbh0","pricing_plan_id":"cebpf4jnsgd1na2vs0mg"},{"bike_id":"ec3f636a-f5ea-4ad3-b5fb-a36413f34fbf","system_id":"levelo_inurba_marseille","lat":43.27486,"lon":5.42455,"is_reserved":false,"is_disabled":false,"rental_uris":{"android":"levelo://app?vid=ec3f636a-f5ea-4ad3-b5fb-a36413f34fbf","ios":"levelo://app?vid=ec3f636a-f5ea-4ad3-b5fb-a36413f34fbf"},"vehicle_type_id":"4","last_reported":1726647128,"current_range_meters":16400,"station_id":"ce4bhn92rcd13ifvqgrg","pricing_plan_id":"cebpf4jnsgd1na2vs0mg"},{"bike_id":"6263ac81-788d-4e4a-b429-f49e7603afef","system_id":"levelo_inurba_marseille","lat":43.31361,"lon":5.36691,"is_reserved":false,"is_disabled":false,"rental_uris":{"android":"levelo://app?vid=6263ac81-788d-4e4a-b429-f49e7603afef","ios":"levelo://app?vid=6263ac81-788d-4e4a-b429-f49e7603afef"},"vehicle_type_id":"4","last_reported":1726647128,"current_range_meters":34000,"station_id":"ce4bgr92rcd13ifvqc6g","pricing_plan_id":"cebpf4jnsgd1na2vs0mg"},{"bike_id":"802ef220-f68e-4424-9cd5-dba229c3356a","system_id":"levelo_inurba_marseille","lat":43.28261,"lon":5.35072,"is_reserved":false,"is_disabled":false,"rental_uris":{"android":"levelo://app?vid=802ef220-f68e-4424-9cd5-dba229c3356a","ios":"levelo://app?vid=802ef220-f68e-4424-9cd5-dba229c3356a"},"vehicle_type_id":"4","last_reported":1726647128,"current_range_meters":27600,"station_id":"ce4bhbp2rcd13ifvqerg","pricing_plan_id":"cebpf4jnsgd1na2vs0mg"},{"bike_id":"adc3d03c-1a26-4c6b-978d-4c30cce189a2","system_id":"levelo_inurba_marseille","lat":43.25498,"lon":5.37655,"is_reserved":false,"is_disabled":false,"rental_uris":{"android":"levelo://app?vid=adc3d03c-1a26-4c6b-978d-4c30cce189a2","ios":"levelo://app?vid=adc3d03c-1a26-4c6b-978d-4c30cce189a2"},"vehicle_type_id":"4","last_reported":1726647128,"current_range_meters":31200,"station_id":"ce4bhh12rcd13ifvqff0","pricing_plan_id":"cebpf4jnsgd1na2vs0mg"},{"bike_id":"19589ba5-4ec4-4f07-bb6e-2bdc4a985826","system_id":"levelo_inurba_marseille","lat":43.29172,"lon":5.37166,"is_reserved":false,"is_disabled":false,"rental_uris":{"android":"levelo://app?vid=19589ba5-4ec4-4f07-bb6e-2bdc4a985826","ios":"levelo://app?vid=19589ba5-4ec4-4f07-bb6e-2bdc4a985826"},"vehicle_type_id":"4","last_reported":1726647128,"current_range_meters":38800,"station_id":"ce4bha92rcd13ifvqeh0","pricing_plan_id":"cebpf4jnsgd1na2vs0mg"},{"bike_id":"5e22b78d-a19f-4c84-859e-5ca877c7909a","system_id":"levelo_inurba_marseille","lat":43.24177,"lon":5.39731,"is_reserved":false,"is_disabled":false,"rental_uris":{"android":"levelo://app?vid=5e22b78d-a19f-4c84-859e-5ca877c7909a","ios":"levelo://app?vid=5e22b78d-a19f-4c84-859e-5ca877c7909a"},"vehicle_type_id":"4","last_reported":1726647128,"current_range_meters":20400,"station_id":"ce4bhn12rcd13ifvqgpg","pricing_plan_id":"cebpf4jnsgd1na2vs0mg"},{"bike_id":"1c3a530e-b0e4-4d7e-965f-e38992d27024","system_id":"levelo_inurba_marseille","lat":43.24082,"lon":5.3775,"is_reserved":false,"is_disabled":false,"rental_uris":{"android":"levelo://app?vid=1c3a530e-b0e4-4d7e-965f-e38992d27024","ios":"levelo://app?vid=1c3a530e-b0e4-4d7e-965f-e38992d27024"},"vehicle_type_id":"4","last_reported":1726647128,"current_range_meters":18800,"station_id":"ce4bhnp2rcd13ifvqgvg","pricing_plan_id":"cebpf4jnsgd1na2vs0mg"},{"bike_id":"d9cd8e64-f0e8-4451-863f-a14224a06409","system_id":"levelo_inurba_marseille","lat":43.32544,"lon":5.41449,"is_reserved":false,"is_disabled":false,"rental_uris":{"android":"levelo://app?vid=d9cd8e64-f0e8-4451-863f-a14224a06409","ios":"levelo://app?vid=d9cd8e64-f0e8-4451-863f-a14224a06409"},"vehicle_type_id":"4","last_reported":1726647128,"current_range_meters":32800,"station_id":"ce4bhq12rcd13ifvqhhg","pricing_plan_id":"cebpf4jnsgd1na2vs0mg"},{"bike_id":"9ec75349-5981-4540-9c85-67e247bba546","system_id":"levelo_inurba_marseille","lat":43.31699,"lon":5.40463,"is_reserved":false,"is_disabled":false,"rental_uris":{"android":"levelo://app?vid=9ec75349-5981-4540-9c85-67e247bba546","ios":"levelo://app?vid=9ec75349-5981-4540-9c85-67e247bba546"},"vehicle_type_id":"4","last_reported":1726647128,"current_range_meters":36800,"station_id":"ce4bh012rcd13ifvqd00","pricing_plan_id":"cebpf4jnsgd1na2vs0mg"},{"bike_id":"85accb8b-04bf-4b10-bd64-d66dfa393f45","system_id":"levelo_inurba_marseille","lat":43.26556,"lon":5.37284,"is_reserved":false,"is_disabled":false,"rental_uris":{"android":"levelo://app?vid=85accb8b-04bf-4b10-bd64-d66dfa393f45","ios":"levelo://app?vid=85accb8b-04bf-4b10-bd64-d66dfa393f45"},"vehicle_type_id":"4","last_reported":1726647128,"current_range_meters":22400,"station_id":"ce4bhg12rcd13ifvqf70","pricing_plan_id":"cebpf4jnsgd1na2vs0mg"},{"bike_id":"66127129-8160-4ecf-b52d-2134894b1647","system_id":"levelo_inurba_marseille","lat":43.28609,"lon":5.37065,"is_reserved":false,"is_disabled":false,"rental_uris":{"android":"levelo://app?vid=66127129-8160-4ecf-b52d-2134894b1647","ios":"levelo://app?vid=66127129-8160-4ecf-b52d-2134894b1647"},"vehicle_type_id":"4","last_reported":1726647128,"current_range_meters":38000,"station_id":"ce4bht12rcd13ifvqi60","pricing_plan_id":"cebpf4jnsgd1na2vs0mg"},{"bike_id":"02d4a814-d76b-4483-906c-9c392ff455a3","system_id":"levelo_inurba_marseille","lat":43.30153,"lon":5.38078,"is_reserved":false,"is_disabled":false,"rental_uris":{"android":"levelo://app?vid=02d4a814-d76b-4483-906c-9c392ff455a3","ios":"levelo://app?vid=02d4a814-d76b-4483-906c-9c392ff455a3"},"vehicle_type_id":"4","last_reported":1726647128,"current_range_meters":36400,"station_id":"ce4bgjp2rcd13ifvqbh0","pricing_plan_id":"cebpf4jnsgd1na2vs0mg"},{"bike_id":"e2ee6c47-636c-428c-bca5-9b48d7bfa727","system_id":"levelo_inurba_marseille","lat":43.28936,"lon":5.36413,"is_reserved":false,"is_disabled":false,"rental_uris":{"android":"levelo://app?vid=e2ee6c47-636c-428c-bca5-9b48d7bfa727","ios":"levelo://app?vid=e2ee6c47-636c-428c-bca5-9b48d7bfa727"},"vehicle_type_id":"4","last_reported":1726647128,"current_range_meters":32400,"station_id":"ce4bhc92rcd13ifvqetg","pricing_plan_id":"cebpf4jnsgd1na2vs0mg"},{"bike_id":"e8e55469-9ad3-4cd3-9b3a-94d5805a8f44","system_id":"levelo_inurba_marseille","lat":43.25498,"lon":5.37647,"is_reserved":false,"is_disabled":false,"rental_uris":{"android":"levelo://app?vid=e8e55469-9ad3-4cd3-9b3a-94d5805a8f44","ios":"levelo://app?vid=e8e55469-9ad3-4cd3-9b3a-94d5805a8f44"},"vehicle_type_id":"4","last_reported":1726647128,"current_range_meters":28800,"station_id":"ce4bhh12rcd13ifvqff0","pricing_plan_id":"cebpf4jnsgd1na2vs0mg"},{"bike_id":"55b5a4cc-060d-4660-b59a-73a2200a56fb","system_id":"levelo_inurba_marseille","lat":43.2315,"lon":5.43722,"is_reserved":false,"is_disabled":false,"rental_uris":{"android":"levelo://app?vid=55b5a4cc-060d-4660-b59a-73a2200a56fb","ios":"levelo://app?vid=55b5a4cc-060d-4660-b59a-73a2200a56fb"},"vehicle_type_id":"4","last_reported":1726647128,"current_range_meters":34800,"station_id":"ce4bhmp2rcd13ifvqgog","pricing_plan_id":"cebpf4jnsgd1na2vs0mg"},{"bike_id":"c9a88f41-9958-41b8-b42f-ce004cf3a8e3","system_id":"levelo_inurba_marseille","lat":43.26783,"lon":5.39423,"is_reserved":false,"is_disabled":false,"rental_uris":{"android":"levelo://app?vid=c9a88f41-9958-41b8-b42f-ce004cf3a8e3","ios":"levelo://app?vid=c9a88f41-9958-41b8-b42f-ce004cf3a8e3"},"vehicle_type_id":"4","last_reported":1726647128,"current_range_meters":30800,"station_id":"ce4bhh12rcd13ifvqfg0","pricing_plan_id":"cebpf4jnsgd1na2vs0mg"},{"bike_id":"70ce3a79-6e57-48cf-ae26-bc1ac4de3616","system_id":"levelo_inurba_marseille","lat":43.30535,"lon":5.36705,"is_reserved":false,"is_disabled":false,"rental_uris":{"android":"levelo://app?vid=70ce3a79-6e57-48cf-ae26-bc1ac4de3616","ios":"levelo://app?vid=70ce3a79-6e57-48cf-ae26-bc1ac4de3616"},"vehicle_type_id":"4","last_reported":1726647128,"current_range_meters":38000,"station_id":"ce4bgrp2rcd13ifvqc9g","pricing_plan_id":"cebpf4jnsgd1na2vs0mg"},{"bike_id":"e1b92079-8eba-4948-bb01-6e52721c3dfb","system_id":"levelo_inurba_marseille","lat":43.33719,"lon":5.39194,"is_reserved":false,"is_disabled":false,"rental_uris":{"android":"levelo://app?vid=e1b92079-8eba-4948-bb01-6e52721c3dfb","ios":"levelo://app?vid=e1b92079-8eba-4948-bb01-6e52721c3dfb"},"vehicle_type_id":"4","last_reported":1726647128,"current_range_meters":6800,"station_id":"ce4bhr92rcd13ifvqhsg","pricing_plan_id":"cebpf4jnsgd1na2vs0mg"},{"bike_id":"4f20d691-d367-42f1-bafd-7c8ad404fdb0","system_id":"levelo_inurba_marseille","lat":43.33763,"lon":5.37451,"is_reserved":false,"is_disabled":false,"rental_uris":{"android":"levelo://app?vid=4f20d691-d367-42f1-bafd-7c8ad404fdb0","ios":"levelo://app?vid=4f20d691-d367-42f1-bafd-7c8ad404fdb0"},"vehicle_type_id":"4","last_reported":1726647128,"current_range_meters":28400,"station_id":"","pricing_plan_id":"cebpf4jnsgd1na2vs0mg"},{"bike_id":"c7f93bf2-2b30-4c5c-aa72-447b3f4a28ea","system_id":"levelo_inurba_marseille","lat":43.29903,"lon":5.43664,"is_reserved":false,"is_disabled":false,"rental_uris":{"android":"levelo://app?vid=c7f93bf2-2b30-4c5c-aa72-447b3f4a28ea","ios":"levelo://app?vid=c7f93bf2-2b30-4c5c-aa72-447b3f4a28ea"},"vehicle_type_id":"4","last_reported":1726647128,"current_range_meters":5600,"station_id":"ce4bhpp2rcd13ifvqhfg","pricing_plan_id":"cebpf4jnsgd1na2vs0mg"},{"bike_id":"2376b186-e80a-4a54-a442-5d392f671c81","system_id":"levelo_inurba_marseille","lat":43.27425,"lon":5.3942,"is_reserved":false,"is_disabled":false,"rental_uris":{"android":"levelo://app?vid=2376b186-e80a-4a54-a442-5d392f671c81","ios":"levelo://app?vid=2376b186-e80a-4a54-a442-5d392f671c81"},"vehicle_type_id":"4","last_reported":1726647128,"current_range_meters":38800,"station_id":"ce4bhdp2rcd13ifvqf20","pricing_plan_id":"cebpf4jnsgd1na2vs0mg"},{"bike_id":"8a895e1a-4c62-443f-8433-ffcde5d58a39","system_id":"levelo_inurba_marseille","lat":43.272064,"lon":5.391802,"is_reserved":false,"is_disabled":false,"rental_uris":{"android":"levelo://app?vid=8a895e1a-4c62-443f-8433-ffcde5d58a39","ios":"levelo://app?vid=8a895e1a-4c62-443f-8433-ffcde5d58a39"},"vehicle_type_id":"4","last_reported":1726647128,"current_range_meters":18800,"station_id":"ce4bhhp2rcd13ifvqfm0","pricing_plan_id":"cebpf4jnsgd1na2vs0mg"},{"bike_id":"ed69e130-7cee-4db1-9e10-0d56961305c9","system_id":"levelo_inurba_marseille","lat":43.24169,"lon":5.36399,"is_reserved":false,"is_disabled":false,"rental_uris":{"android":"levelo://app?vid=ed69e130-7cee-4db1-9e10-0d56961305c9","ios":"levelo://app?vid=ed69e130-7cee-4db1-9e10-0d56961305c9"},"vehicle_type_id":"4","last_reported":1726647128,"current_range_meters":27200,"station_id":"cpo36qri1sfpv3e86is0","pricing_plan_id":"cebpf4jnsgd1na2vs0mg"},{"bike_id":"9d7979ee-6109-4f33-a1fb-6a8eefd1632d","system_id":"levelo_inurba_marseille","lat":43.26952,"lon":5.38643,"is_reserved":false,"is_disabled":false,"rental_uris":{"android":"levelo://app?vid=9d7979ee-6109-4f33-a1fb-6a8eefd1632d","ios":"levelo://app?vid=9d7979ee-6109-4f33-a1fb-6a8eefd1632d"},"vehicle_type_id":"4","last_reported":1726647128,"current_range_meters":17600,"station_id":"ce4bhh92rcd13ifvqfh0","pricing_plan_id":"cebpf4jnsgd1na2vs0mg"},{"bike_id":"f3703907-d519-40b6-b257-5dfa14712ec1","system_id":"levelo_inurba_marseille","lat":43.24081,"lon":5.37751,"is_reserved":false,"is_disabled":false,"rental_uris":{"android":"levelo://app?vid=f3703907-d519-40b6-b257-5dfa14712ec1","ios":"levelo://app?vid=f3703907-d519-40b6-b257-5dfa14712ec1"},"vehicle_type_id":"4","last_reported":1726647128,"current_range_meters":21600,"station_id":"ce4bhnp2rcd13ifvqgvg","pricing_plan_id":"cebpf4jnsgd1na2vs0mg"},{"bike_id":"d33d16c9-f2bf-41b4-b3dc-22b0407c2359","system_id":"levelo_inurba_marseille","lat":43.27494,"lon":5.42452,"is_reserved":false,"is_disabled":false,"rental_uris":{"android":"levelo://app?vid=d33d16c9-f2bf-41b4-b3dc-22b0407c2359","ios":"levelo://app?vid=d33d16c9-f2bf-41b4-b3dc-22b0407c2359"},"vehicle_type_id":"4","last_reported":1726647128,"current_range_meters":25600,"station_id":"ce4bhn92rcd13ifvqgrg","pricing_plan_id":"cebpf4jnsgd1na2vs0mg"},{"bike_id":"1b5a3615-4988-4982-8b62-9226ed5a66a6","system_id":"levelo_inurba_marseille","lat":43.31346,"lon":5.38314,"is_reserved":false,"is_disabled":false,"rental_uris":{"android":"levelo://app?vid=1b5a3615-4988-4982-8b62-9226ed5a66a6","ios":"levelo://app?vid=1b5a3615-4988-4982-8b62-9226ed5a66a6"},"vehicle_type_id":"4","last_reported":1726647128,"current_range_meters":3600,"station_id":"","pricing_plan_id":"cebpf4jnsgd1na2vs0mg"},{"bike_id":"80d1eb54-6334-4c2f-a160-7e4b5cb79537","system_id":"levelo_inurba_marseille","lat":43.2996,"lon":5.41344,"is_reserved":false,"is_disabled":false,"rental_uris":{"android":"levelo://app?vid=80d1eb54-6334-4c2f-a160-7e4b5cb79537","ios":"levelo://app?vid=80d1eb54-6334-4c2f-a160-7e4b5cb79537"},"vehicle_type_id":"4","last_reported":1726647128,"current_range_meters":36400,"station_id":"ce4bhp12rcd13ifvqh9g","pricing_plan_id":"cebpf4jnsgd1na2vs0mg"},{"bike_id":"3533cfbc-a930-4f9e-a7ed-bfa08424b8c3","system_id":"levelo_inurba_marseille","lat":43.27322,"lon":5.39075,"is_reserved":false,"is_disabled":false,"rental_uris":{"android":"levelo://app?vid=3533cfbc-a930-4f9e-a7ed-bfa08424b8c3","ios":"levelo://app?vid=3533cfbc-a930-4f9e-a7ed-bfa08424b8c3"},"vehicle_type_id":"4","last_reported":1726647128,"current_range_meters":39200,"station_id":"ce4bhgp2rcd13ifvqfe0","pricing_plan_id":"cebpf4jnsgd1na2vs0mg"},{"bike_id":"00a6664c-3a79-4ed8-94ec-b2785bff8128","system_id":"levelo_inurba_marseille","lat":43.2678,"lon":5.39424,"is_reserved":false,"is_disabled":false,"rental_uris":{"android":"levelo://app?vid=00a6664c-3a79-4ed8-94ec-b2785bff8128","ios":"levelo://app?vid=00a6664c-3a79-4ed8-94ec-b2785bff8128"},"vehicle_type_id":"4","last_reported":1726647128,"current_range_meters":3200,"station_id":"ce4bhh12rcd13ifvqfg0","pricing_plan_id":"cebpf4jnsgd1na2vs0mg"},{"bike_id":"63c911ee-ca06-4e10-8c7c-0ca06e366d07","system_id":"levelo_inurba_marseille","lat":43.24072,"lon":5.37758,"is_reserved":false,"is_disabled":false,"rental_uris":{"android":"levelo://app?vid=63c911ee-ca06-4e10-8c7c-0ca06e366d07","ios":"levelo://app?vid=63c911ee-ca06-4e10-8c7c-0ca06e366d07"},"vehicle_type_id":"4","last_reported":1726647128,"current_range_meters":32000,"station_id":"ce4bhnp2rcd13ifvqgvg","pricing_plan_id":"cebpf4jnsgd1na2vs0mg"},{"bike_id":"b88d8bac-711e-49d2-9eee-8f0f2fcec434","system_id":"levelo_inurba_marseille","lat":43.33025,"lon":5.39046,"is_reserved":false,"is_disabled":false,"rental_uris":{"android":"levelo://app?vid=b88d8bac-711e-49d2-9eee-8f0f2fcec434","ios":"levelo://app?vid=b88d8bac-711e-49d2-9eee-8f0f2fcec434"},"vehicle_type_id":"4","last_reported":1726647128,"current_range_meters":26000,"station_id":"ce4bhr92rcd13ifvqhrg","pricing_plan_id":"cebpf4jnsgd1na2vs0mg"},{"bike_id":"abade041-4e35-4da6-9d08-569c6fc11e7a","system_id":"levelo_inurba_marseille","lat":43.289673,"lon":5.433517,"is_reserved":false,"is_disabled":false,"rental_uris":{"android":"levelo://app?vid=abade041-4e35-4da6-9d08-569c6fc11e7a","ios":"levelo://app?vid=abade041-4e35-4da6-9d08-569c6fc11e7a"},"vehicle_type_id":"4","last_reported":1726647128,"current_range_meters":34000,"station_id":"ce4bh3h2rcd13ifvqdo0","pricing_plan_id":"cebpf4jnsgd1na2vs0mg"},{"bike_id":"51c8f926-dd42-4188-8ae9-9d5cbb2f7e71","system_id":"levelo_inurba_marseille","lat":43.24171,"lon":5.39727,"is_reserved":false,"is_disabled":false,"rental_uris":{"android":"levelo://app?vid=51c8f926-dd42-4188-8ae9-9d5cbb2f7e71","ios":"levelo://app?vid=51c8f926-dd42-4188-8ae9-9d5cbb2f7e71"},"vehicle_type_id":"4","last_reported":1726647128,"current_range_meters":20800,"station_id":"ce4bhn12rcd13ifvqgpg","pricing_plan_id":"cebpf4jnsgd1na2vs0mg"},{"bike_id":"e6e8b857-6ef5-4ed4-bbea-6973fe896ee1","system_id":"levelo_inurba_marseille","lat":43.26573,"lon":5.39021,"is_reserved":false,"is_disabled":false,"rental_uris":{"android":"levelo://app?vid=e6e8b857-6ef5-4ed4-bbea-6973fe896ee1","ios":"levelo://app?vid=e6e8b857-6ef5-4ed4-bbea-6973fe896ee1"},"vehicle_type_id":"4","last_reported":1726647128,"current_range_meters":22800,"station_id":"ce4bhe12rcd13ifvqf30","pricing_plan_id":"cebpf4jnsgd1na2vs0mg"},{"bike_id":"2e2254f6-d3ed-4277-af5f-ee204e464f40","system_id":"levelo_inurba_marseille","lat":43.29942,"lon":5.41323,"is_reserved":false,"is_disabled":false,"rental_uris":{"android":"levelo://app?vid=2e2254f6-d3ed-4277-af5f-ee204e464f40","ios":"levelo://app?vid=2e2254f6-d3ed-4277-af5f-ee204e464f40"},"vehicle_type_id":"4","last_reported":1726647128,"current_range_meters":36400,"station_id":"ce4bhp12rcd13ifvqh9g","pricing_plan_id":"cebpf4jnsgd1na2vs0mg"},{"bike_id":"535370a0-6161-4b0b-819e-b1c1c6dab109","system_id":"levelo_inurba_marseille","lat":43.2408,"lon":5.37752,"is_reserved":false,"is_disabled":false,"rental_uris":{"android":"levelo://app?vid=535370a0-6161-4b0b-819e-b1c1c6dab109","ios":"levelo://app?vid=535370a0-6161-4b0b-819e-b1c1c6dab109"},"vehicle_type_id":"4","last_reported":1726647128,"current_range_meters":18800,"station_id":"ce4bhnp2rcd13ifvqgvg","pricing_plan_id":"cebpf4jnsgd1na2vs0mg"},{"bike_id":"136974d7-482e-457a-92dd-e65a56657d61","system_id":"levelo_inurba_marseille","lat":43.297852,"lon":5.371081,"is_reserved":false,"is_disabled":false,"rental_uris":{"android":"levelo://app?vid=136974d7-482e-457a-92dd-e65a56657d61","ios":"levelo://app?vid=136974d7-482e-457a-92dd-e65a56657d61"},"vehicle_type_id":"4","last_reported":1726647128,"current_range_meters":20800,"station_id":"ce4bgup2rcd13ifvqco0","pricing_plan_id":"cebpf4jnsgd1na2vs0mg"},{"bike_id":"7ffa0a34-2412-4cf6-a653-08d8c8ef67dd","system_id":"levelo_inurba_marseille","lat":43.31991,"lon":5.43849,"is_reserved":false,"is_disabled":false,"rental_uris":{"android":"levelo://app?vid=7ffa0a34-2412-4cf6-a653-08d8c8ef67dd","ios":"levelo://app?vid=7ffa0a34-2412-4cf6-a653-08d8c8ef67dd"},"vehicle_type_id":"4","last_reported":1726647128,"current_range_meters":13600,"station_id":"","pricing_plan_id":"cebpf4jnsgd1na2vs0mg"},{"bike_id":"f2cc5877-7adb-4f4a-9f11-20ee9f72e78a","system_id":"levelo_inurba_marseille","lat":43.26948,"lon":5.3863,"is_reserved":false,"is_disabled":false,"rental_uris":{"android":"levelo://app?vid=f2cc5877-7adb-4f4a-9f11-20ee9f72e78a","ios":"levelo://app?vid=f2cc5877-7adb-4f4a-9f11-20ee9f72e78a"},"vehicle_type_id":"4","last_reported":1726647128,"current_range_meters":13600,"station_id":"ce4bhh92rcd13ifvqfh0","pricing_plan_id":"cebpf4jnsgd1na2vs0mg"},{"bike_id":"8cb592d9-f82f-4171-894f-8d7ffa6525e5","system_id":"levelo_inurba_marseille","lat":43.23196,"lon":5.35549,"is_reserved":false,"is_disabled":false,"rental_uris":{"android":"levelo://app?vid=8cb592d9-f82f-4171-894f-8d7ffa6525e5","ios":"levelo://app?vid=8cb592d9-f82f-4171-894f-8d7ffa6525e5"},"vehicle_type_id":"4","last_reported":1726647128,"current_range_meters":15200,"station_id":"ce4bhu92rcd13ifvqi70","pricing_plan_id":"cebpf4jnsgd1na2vs0mg"},{"bike_id":"79cad5b6-9cb0-4262-b39c-374cdf1c25d1","system_id":"levelo_inurba_marseille","lat":43.32485,"lon":5.36561,"is_reserved":false,"is_disabled":false,"rental_uris":{"android":"levelo://app?vid=79cad5b6-9cb0-4262-b39c-374cdf1c25d1","ios":"levelo://app?vid=79cad5b6-9cb0-4262-b39c-374cdf1c25d1"},"vehicle_type_id":"4","last_reported":1726647128,"current_range_meters":39200,"station_id":"ce4bhs12rcd13ifvqhvg","pricing_plan_id":"cebpf4jnsgd1na2vs0mg"},{"bike_id":"9540325f-9595-4f82-b8d6-4d781256492e","system_id":"levelo_inurba_marseille","lat":43.290946,"lon":5.381315,"is_reserved":false,"is_disabled":false,"rental_uris":{"android":"levelo://app?vid=9540325f-9595-4f82-b8d6-4d781256492e","ios":"levelo://app?vid=9540325f-9595-4f82-b8d6-4d781256492e"},"vehicle_type_id":"4","last_reported":1726647128,"current_range_meters":22400,"station_id":"ce4bh392rcd13ifvqdm0","pricing_plan_id":"cebpf4jnsgd1na2vs0mg"},{"bike_id":"f4195fcd-36b5-4159-be6c-ca02510cf31f","system_id":"levelo_inurba_marseille","lat":43.314856,"lon":5.373069,"is_reserved":false,"is_disabled":false,"rental_uris":{"android":"levelo://app?vid=f4195fcd-36b5-4159-be6c-ca02510cf31f","ios":"levelo://app?vid=f4195fcd-36b5-4159-be6c-ca02510cf31f"},"vehicle_type_id":"4","last_reported":1726647128,"current_range_meters":9200,"station_id":"ce4bgt12rcd13ifvqcd0","pricing_plan_id":"cebpf4jnsgd1na2vs0mg"},{"bike_id":"0caf0b63-60bb-4994-89f8-3e8519b95de5","system_id":"levelo_inurba_marseille","lat":43.30281,"lon":5.37704,"is_reserved":false,"is_disabled":false,"rental_uris":{"android":"levelo://app?vid=0caf0b63-60bb-4994-89f8-3e8519b95de5","ios":"levelo://app?vid=0caf0b63-60bb-4994-89f8-3e8519b95de5"},"vehicle_type_id":"4","last_reported":1726647128,"current_range_meters":30400,"station_id":"ce4bguh2rcd13ifvqcj0","pricing_plan_id":"cebpf4jnsgd1na2vs0mg"},{"bike_id":"82d79ce9-afd2-43ef-b60c-23e3aeace105","system_id":"levelo_inurba_marseille","lat":43.3136,"lon":5.38501,"is_reserved":false,"is_disabled":false,"rental_uris":{"android":"levelo://app?vid=82d79ce9-afd2-43ef-b60c-23e3aeace105","ios":"levelo://app?vid=82d79ce9-afd2-43ef-b60c-23e3aeace105"},"vehicle_type_id":"4","last_reported":1726647128,"current_range_meters":2800,"station_id":"ce4bgt92rcd13ifvqcf0","pricing_plan_id":"cebpf4jnsgd1na2vs0mg"},{"bike_id":"9cd2158d-f3f3-4a97-a884-99e19ad4bcb7","system_id":"levelo_inurba_marseille","lat":43.23155,"lon":5.43709,"is_reserved":false,"is_disabled":false,"rental_uris":{"android":"levelo://app?vid=9cd2158d-f3f3-4a97-a884-99e19ad4bcb7","ios":"levelo://app?vid=9cd2158d-f3f3-4a97-a884-99e19ad4bcb7"},"vehicle_type_id":"4","last_reported":1726647128,"current_range_meters":29600,"station_id":"ce4bhmp2rcd13ifvqgog","pricing_plan_id":"cebpf4jnsgd1na2vs0mg"},{"bike_id":"c3bcca86-6294-4639-9d07-9722d40f464e","system_id":"levelo_inurba_marseille","lat":43.29899,"lon":5.43669,"is_reserved":false,"is_disabled":false,"rental_uris":{"android":"levelo://app?vid=c3bcca86-6294-4639-9d07-9722d40f464e","ios":"levelo://app?vid=c3bcca86-6294-4639-9d07-9722d40f464e"},"vehicle_type_id":"4","last_reported":1726647128,"current_range_meters":24800,"station_id":"ce4bhpp2rcd13ifvqhfg","pricing_plan_id":"cebpf4jnsgd1na2vs0mg"},{"bike_id":"9242cf14-e007-46a6-bf57-3daf8a7e8d69","system_id":"levelo_inurba_marseille","lat":43.28343,"lon":5.38111,"is_reserved":false,"is_disabled":false,"rental_uris":{"android":"levelo://app?vid=9242cf14-e007-46a6-bf57-3daf8a7e8d69","ios":"levelo://app?vid=9242cf14-e007-46a6-bf57-3daf8a7e8d69"},"vehicle_type_id":"4","last_reported":1726647128,"current_range_meters":29600,"station_id":"ce4bh412rcd13ifvqdr0","pricing_plan_id":"cebpf4jnsgd1na2vs0mg"},{"bike_id":"464b765a-5bcf-418f-9058-526dab1b44f9","system_id":"levelo_inurba_marseille","lat":43.32287,"lon":5.3827,"is_reserved":false,"is_disabled":false,"rental_uris":{"android":"levelo://app?vid=464b765a-5bcf-418f-9058-526dab1b44f9","ios":"levelo://app?vid=464b765a-5bcf-418f-9058-526dab1b44f9"},"vehicle_type_id":"4","last_reported":1726647128,"current_range_meters":20400,"station_id":"ce4bhr12rcd13ifvqhqg","pricing_plan_id":"cebpf4jnsgd1na2vs0mg"},{"bike_id":"edfb28d5-b66c-4090-b4b8-2607f3c4f6ab","system_id":"levelo_inurba_marseille","lat":43.32551,"lon":5.41442,"is_reserved":false,"is_disabled":false,"rental_uris":{"android":"levelo://app?vid=edfb28d5-b66c-4090-b4b8-2607f3c4f6ab","ios":"levelo://app?vid=edfb28d5-b66c-4090-b4b8-2607f3c4f6ab"},"vehicle_type_id":"4","last_reported":1726647128,"current_range_meters":38000,"station_id":"ce4bhq12rcd13ifvqhhg","pricing_plan_id":"cebpf4jnsgd1na2vs0mg"},{"bike_id":"6899203a-960a-4d98-8684-2b85d0bc1d54","system_id":"levelo_inurba_marseille","lat":43.34032,"lon":5.40973,"is_reserved":false,"is_disabled":false,"rental_uris":{"android":"levelo://app?vid=6899203a-960a-4d98-8684-2b85d0bc1d54","ios":"levelo://app?vid=6899203a-960a-4d98-8684-2b85d0bc1d54"},"vehicle_type_id":"4","last_reported":1726647128,"current_range_meters":22800,"station_id":"","pricing_plan_id":"cebpf4jnsgd1na2vs0mg"},{"bike_id":"8e3c84db-879d-4669-8d43-f74eed3d4c1b","system_id":"levelo_inurba_marseille","lat":43.27372,"lon":5.36258,"is_reserved":false,"is_disabled":false,"rental_uris":{"android":"levelo://app?vid=8e3c84db-879d-4669-8d43-f74eed3d4c1b","ios":"levelo://app?vid=8e3c84db-879d-4669-8d43-f74eed3d4c1b"},"vehicle_type_id":"4","last_reported":1726647128,"current_range_meters":40000,"station_id":"ce4bhbh2rcd13ifvqeo0","pricing_plan_id":"cebpf4jnsgd1na2vs0mg"},{"bike_id":"2f0e506d-69bb-46ee-8f71-e278d04f0c3f","system_id":"levelo_inurba_marseille","lat":43.25916,"lon":5.4089,"is_reserved":false,"is_disabled":false,"rental_uris":{"android":"levelo://app?vid=2f0e506d-69bb-46ee-8f71-e278d04f0c3f","ios":"levelo://app?vid=2f0e506d-69bb-46ee-8f71-e278d04f0c3f"},"vehicle_type_id":"4","last_reported":1726647128,"current_range_meters":28800,"station_id":"ce4bhm92rcd13ifvqglg","pricing_plan_id":"cebpf4jnsgd1na2vs0mg"},{"bike_id":"00e75aa4-679c-42d6-be48-906ec2eca445","system_id":"levelo_inurba_marseille","lat":43.30536,"lon":5.36538,"is_reserved":false,"is_disabled":false,"rental_uris":{"android":"levelo://app?vid=00e75aa4-679c-42d6-be48-906ec2eca445","ios":"levelo://app?vid=00e75aa4-679c-42d6-be48-906ec2eca445"},"vehicle_type_id":"4","last_reported":1726647128,"current_range_meters":32800,"station_id":"ce4bgs12rcd13ifvqcag","pricing_plan_id":"cebpf4jnsgd1na2vs0mg"},{"bike_id":"b5cc06aa-fd0a-4f16-9512-cc0ee529c93f","system_id":"levelo_inurba_marseille","lat":43.23153,"lon":5.43709,"is_reserved":false,"is_disabled":false,"rental_uris":{"android":"levelo://app?vid=b5cc06aa-fd0a-4f16-9512-cc0ee529c93f","ios":"levelo://app?vid=b5cc06aa-fd0a-4f16-9512-cc0ee529c93f"},"vehicle_type_id":"4","last_reported":1726647128,"current_range_meters":25200,"station_id":"ce4bhmp2rcd13ifvqgog","pricing_plan_id":"cebpf4jnsgd1na2vs0mg"},{"bike_id":"b1db6496-7d7b-4acc-a88c-e5406d38e100","system_id":"levelo_inurba_marseille","lat":43.2319,"lon":5.3555,"is_reserved":false,"is_disabled":false,"rental_uris":{"android":"levelo://app?vid=b1db6496-7d7b-4acc-a88c-e5406d38e100","ios":"levelo://app?vid=b1db6496-7d7b-4acc-a88c-e5406d38e100"},"vehicle_type_id":"4","last_reported":1726647128,"current_range_meters":24000,"station_id":"ce4bhu92rcd13ifvqi70","pricing_plan_id":"cebpf4jnsgd1na2vs0mg"},{"bike_id":"d2e41afa-cdb1-4281-adbb-7f02b04acc69","system_id":"levelo_inurba_marseille","lat":43.24079,"lon":5.37753,"is_reserved":false,"is_disabled":false,"rental_uris":{"android":"levelo://app?vid=d2e41afa-cdb1-4281-adbb-7f02b04acc69","ios":"levelo://app?vid=d2e41afa-cdb1-4281-adbb-7f02b04acc69"},"vehicle_type_id":"4","last_reported":1726647128,"current_range_meters":28400,"station_id":"ce4bhnp2rcd13ifvqgvg","pricing_plan_id":"cebpf4jnsgd1na2vs0mg"},{"bike_id":"60a924c7-3aa1-49e1-a7ff-1fd723ae6cd4","system_id":"levelo_inurba_marseille","lat":43.28349,"lon":5.38105,"is_reserved":false,"is_disabled":false,"rental_uris":{"android":"levelo://app?vid=60a924c7-3aa1-49e1-a7ff-1fd723ae6cd4","ios":"levelo://app?vid=60a924c7-3aa1-49e1-a7ff-1fd723ae6cd4"},"vehicle_type_id":"4","last_reported":1726647128,"current_range_meters":38800,"station_id":"ce4bh412rcd13ifvqdr0","pricing_plan_id":"cebpf4jnsgd1na2vs0mg"},{"bike_id":"d0d8fbfa-4de4-42a7-9832-5e25d5f2fdfb","system_id":"levelo_inurba_marseille","lat":43.3054,"lon":5.36531,"is_reserved":false,"is_disabled":false,"rental_uris":{"android":"levelo://app?vid=d0d8fbfa-4de4-42a7-9832-5e25d5f2fdfb","ios":"levelo://app?vid=d0d8fbfa-4de4-42a7-9832-5e25d5f2fdfb"},"vehicle_type_id":"4","last_reported":1726647128,"current_range_meters":36400,"station_id":"ce4bgs12rcd13ifvqcag","pricing_plan_id":"cebpf4jnsgd1na2vs0mg"},{"bike_id":"b554f3f1-66b9-488a-a046-b541bf6cacfc","system_id":"levelo_inurba_marseille","lat":43.28973,"lon":5.37842,"is_reserved":false,"is_disabled":false,"rental_uris":{"android":"levelo://app?vid=b554f3f1-66b9-488a-a046-b541bf6cacfc","ios":"levelo://app?vid=b554f3f1-66b9-488a-a046-b541bf6cacfc"},"vehicle_type_id":"4","last_reported":1726647128,"current_range_meters":22800,"station_id":"ce4bh9p2rcd13ifvqed0","pricing_plan_id":"cebpf4jnsgd1na2vs0mg"},{"bike_id":"7a1aefa5-3f47-4fb6-b298-3120a02f47d7","system_id":"levelo_inurba_marseille","lat":43.32474,"lon":5.36572,"is_reserved":false,"is_disabled":false,"rental_uris":{"android":"levelo://app?vid=7a1aefa5-3f47-4fb6-b298-3120a02f47d7","ios":"levelo://app?vid=7a1aefa5-3f47-4fb6-b298-3120a02f47d7"},"vehicle_type_id":"4","last_reported":1726647128,"current_range_meters":36800,"station_id":"ce4bhs12rcd13ifvqhvg","pricing_plan_id":"cebpf4jnsgd1na2vs0mg"},{"bike_id":"2823dff1-8953-4d85-8ac5-ae31220b19ee","system_id":"levelo_inurba_marseille","lat":43.26198,"lon":5.37928,"is_reserved":false,"is_disabled":false,"rental_uris":{"android":"levelo://app?vid=2823dff1-8953-4d85-8ac5-ae31220b19ee","ios":"levelo://app?vid=2823dff1-8953-4d85-8ac5-ae31220b19ee"},"vehicle_type_id":"4","last_reported":1726647128,"current_range_meters":24000,"station_id":"ce4bhjp2rcd13ifvqg90","pricing_plan_id":"cebpf4jnsgd1na2vs0mg"},{"bike_id":"586b389c-8df2-4427-88c1-cfb40fb755dc","system_id":"levelo_inurba_marseille","lat":43.30545,"lon":5.36535,"is_reserved":false,"is_disabled":false,"rental_uris":{"android":"levelo://app?vid=586b389c-8df2-4427-88c1-cfb40fb755dc","ios":"levelo://app?vid=586b389c-8df2-4427-88c1-cfb40fb755dc"},"vehicle_type_id":"4","last_reported":1726647128,"current_range_meters":37600,"station_id":"ce4bgs12rcd13ifvqcag","pricing_plan_id":"cebpf4jnsgd1na2vs0mg"},{"bike_id":"1e490c7b-e360-427f-bee4-a08e58a98640","system_id":"levelo_inurba_marseille","lat":43.24076,"lon":5.37754,"is_reserved":false,"is_disabled":false,"rental_uris":{"android":"levelo://app?vid=1e490c7b-e360-427f-bee4-a08e58a98640","ios":"levelo://app?vid=1e490c7b-e360-427f-bee4-a08e58a98640"},"vehicle_type_id":"4","last_reported":1726647128,"current_range_meters":28000,"station_id":"ce4bhnp2rcd13ifvqgvg","pricing_plan_id":"cebpf4jnsgd1na2vs0mg"},{"bike_id":"7efadcb6-f988-4793-9d14-f592bf1672c1","system_id":"levelo_inurba_marseille","lat":43.26553,"lon":5.39019,"is_reserved":false,"is_disabled":false,"rental_uris":{"android":"levelo://app?vid=7efadcb6-f988-4793-9d14-f592bf1672c1","ios":"levelo://app?vid=7efadcb6-f988-4793-9d14-f592bf1672c1"},"vehicle_type_id":"4","last_reported":1726647128,"current_range_meters":38000,"station_id":"ce4bhe12rcd13ifvqf30","pricing_plan_id":"cebpf4jnsgd1na2vs0mg"},{"bike_id":"b645ac77-0d58-4fa9-8ad3-947af8bdb1d9","system_id":"levelo_inurba_marseille","lat":43.29899,"lon":5.43664,"is_reserved":false,"is_disabled":false,"rental_uris":{"android":"levelo://app?vid=b645ac77-0d58-4fa9-8ad3-947af8bdb1d9","ios":"levelo://app?vid=b645ac77-0d58-4fa9-8ad3-947af8bdb1d9"},"vehicle_type_id":"4","last_reported":1726647128,"current_range_meters":20000,"station_id":"ce4bhpp2rcd13ifvqhfg","pricing_plan_id":"cebpf4jnsgd1na2vs0mg"},{"bike_id":"c70646b5-0ed7-4f41-b696-bc25c65851c4","system_id":"levelo_inurba_marseille","lat":43.25933,"lon":5.40913,"is_reserved":false,"is_disabled":false,"rental_uris":{"android":"levelo://app?vid=c70646b5-0ed7-4f41-b696-bc25c65851c4","ios":"levelo://app?vid=c70646b5-0ed7-4f41-b696-bc25c65851c4"},"vehicle_type_id":"4","last_reported":1726647128,"current_range_meters":8400,"station_id":"ce4bhm92rcd13ifvqglg","pricing_plan_id":"cebpf4jnsgd1na2vs0mg"},{"bike_id":"ab927be6-8eda-4b1e-8888-f5462fc7dbdd","system_id":"levelo_inurba_marseille","lat":43.3136,"lon":5.36711,"is_reserved":false,"is_disabled":false,"rental_uris":{"android":"levelo://app?vid=ab927be6-8eda-4b1e-8888-f5462fc7dbdd","ios":"levelo://app?vid=ab927be6-8eda-4b1e-8888-f5462fc7dbdd"},"vehicle_type_id":"4","last_reported":1726647128,"current_range_meters":18800,"station_id":"ce4bgr92rcd13ifvqc6g","pricing_plan_id":"cebpf4jnsgd1na2vs0mg"},{"bike_id":"2821bd5e-f2cc-464c-a98c-3e36c986cc0e","system_id":"levelo_inurba_marseille","lat":43.25934,"lon":5.4091,"is_reserved":false,"is_disabled":false,"rental_uris":{"android":"levelo://app?vid=2821bd5e-f2cc-464c-a98c-3e36c986cc0e","ios":"levelo://app?vid=2821bd5e-f2cc-464c-a98c-3e36c986cc0e"},"vehicle_type_id":"4","last_reported":1726647128,"current_range_meters":36400,"station_id":"ce4bhm92rcd13ifvqglg","pricing_plan_id":"cebpf4jnsgd1na2vs0mg"},{"bike_id":"e712a7cb-d76a-4dcd-b3a5-9055e5eca858","system_id":"levelo_inurba_marseille","lat":43.3048,"lon":5.37913,"is_reserved":false,"is_disabled":false,"rental_uris":{"android":"levelo://app?vid=e712a7cb-d76a-4dcd-b3a5-9055e5eca858","ios":"levelo://app?vid=e712a7cb-d76a-4dcd-b3a5-9055e5eca858"},"vehicle_type_id":"4","last_reported":1726647128,"current_range_meters":38400,"station_id":"ce4bgup2rcd13ifvqcn0","pricing_plan_id":"cebpf4jnsgd1na2vs0mg"},{"bike_id":"8ceb5aea-b40e-4dad-98b0-1dcabb72c74a","system_id":"levelo_inurba_marseille","lat":43.32286,"lon":5.38268,"is_reserved":false,"is_disabled":false,"rental_uris":{"android":"levelo://app?vid=8ceb5aea-b40e-4dad-98b0-1dcabb72c74a","ios":"levelo://app?vid=8ceb5aea-b40e-4dad-98b0-1dcabb72c74a"},"vehicle_type_id":"4","last_reported":1726647128,"current_range_meters":26800,"station_id":"ce4bhr12rcd13ifvqhqg","pricing_plan_id":"cebpf4jnsgd1na2vs0mg"},{"bike_id":"1433a10c-9f4f-46c9-9fb4-2c8ee9ba7ffa","system_id":"levelo_inurba_marseille","lat":43.23151,"lon":5.43715,"is_reserved":false,"is_disabled":false,"rental_uris":{"android":"levelo://app?vid=1433a10c-9f4f-46c9-9fb4-2c8ee9ba7ffa","ios":"levelo://app?vid=1433a10c-9f4f-46c9-9fb4-2c8ee9ba7ffa"},"vehicle_type_id":"4","last_reported":1726647128,"current_range_meters":10800,"station_id":"ce4bhmp2rcd13ifvqgog","pricing_plan_id":"cebpf4jnsgd1na2vs0mg"},{"bike_id":"35f6569d-8dcd-4ab5-a8c1-26d92b7ae670","system_id":"levelo_inurba_marseille","lat":43.29378,"lon":5.37891,"is_reserved":false,"is_disabled":false,"rental_uris":{"android":"levelo://app?vid=35f6569d-8dcd-4ab5-a8c1-26d92b7ae670","ios":"levelo://app?vid=35f6569d-8dcd-4ab5-a8c1-26d92b7ae670"},"vehicle_type_id":"4","last_reported":1726647128,"current_range_meters":38400,"station_id":"ce4bgjh2rcd13ifvqbf0","pricing_plan_id":"cebpf4jnsgd1na2vs0mg"},{"bike_id":"677498c9-746b-4650-9a8e-2c7479635944","system_id":"levelo_inurba_marseille","lat":43.33023,"lon":5.3905,"is_reserved":false,"is_disabled":false,"rental_uris":{"android":"levelo://app?vid=677498c9-746b-4650-9a8e-2c7479635944","ios":"levelo://app?vid=677498c9-746b-4650-9a8e-2c7479635944"},"vehicle_type_id":"4","last_reported":1726647128,"current_range_meters":16400,"station_id":"ce4bhr92rcd13ifvqhrg","pricing_plan_id":"cebpf4jnsgd1na2vs0mg"},{"bike_id":"aa6fa472-012e-439e-8ec2-c036e8b70d25","system_id":"levelo_inurba_marseille","lat":43.24083,"lon":5.37753,"is_reserved":false,"is_disabled":false,"rental_uris":{"android":"levelo://app?vid=aa6fa472-012e-439e-8ec2-c036e8b70d25","ios":"levelo://app?vid=aa6fa472-012e-439e-8ec2-c036e8b70d25"},"vehicle_type_id":"4","last_reported":1726647128,"current_range_meters":2800,"station_id":"ce4bhnp2rcd13ifvqgvg","pricing_plan_id":"cebpf4jnsgd1na2vs0mg"},{"bike_id":"2b6686af-adcb-4f0c-b71f-73fe9b9a5c36","system_id":"levelo_inurba_marseille","lat":43.3414,"lon":5.40897,"is_reserved":false,"is_disabled":false,"rental_uris":{"android":"levelo://app?vid=2b6686af-adcb-4f0c-b71f-73fe9b9a5c36","ios":"levelo://app?vid=2b6686af-adcb-4f0c-b71f-73fe9b9a5c36"},"vehicle_type_id":"4","last_reported":1726647128,"current_range_meters":38000,"station_id":"ce4bhqh2rcd13ifvqhlg","pricing_plan_id":"cebpf4jnsgd1na2vs0mg"},{"bike_id":"1d0e82e0-c627-46a9-9900-72456a2e4f58","system_id":"levelo_inurba_marseille","lat":43.24076,"lon":5.37759,"is_reserved":false,"is_disabled":false,"rental_uris":{"android":"levelo://app?vid=1d0e82e0-c627-46a9-9900-72456a2e4f58","ios":"levelo://app?vid=1d0e82e0-c627-46a9-9900-72456a2e4f58"},"vehicle_type_id":"4","last_reported":1726647128,"current_range_meters":36800,"station_id":"ce4bhnp2rcd13ifvqgvg","pricing_plan_id":"cebpf4jnsgd1na2vs0mg"},{"bike_id":"9f6f9bb1-cc7a-4fdd-9d06-0ccf96de6f40","system_id":"levelo_inurba_marseille","lat":43.30556,"lon":5.36542,"is_reserved":false,"is_disabled":false,"rental_uris":{"android":"levelo://app?vid=9f6f9bb1-cc7a-4fdd-9d06-0ccf96de6f40","ios":"levelo://app?vid=9f6f9bb1-cc7a-4fdd-9d06-0ccf96de6f40"},"vehicle_type_id":"4","last_reported":1726647128,"current_range_meters":10000,"station_id":"ce4bgs12rcd13ifvqcag","pricing_plan_id":"cebpf4jnsgd1na2vs0mg"},{"bike_id":"c8f71e24-76e9-40ce-83d3-6a8f04596b12","system_id":"levelo_inurba_marseille","lat":43.28343,"lon":5.38114,"is_reserved":false,"is_disabled":false,"rental_uris":{"android":"levelo://app?vid=c8f71e24-76e9-40ce-83d3-6a8f04596b12","ios":"levelo://app?vid=c8f71e24-76e9-40ce-83d3-6a8f04596b12"},"vehicle_type_id":"4","last_reported":1726647128,"current_range_meters":32800,"station_id":"ce4bh412rcd13ifvqdr0","pricing_plan_id":"cebpf4jnsgd1na2vs0mg"},{"bike_id":"f07c161a-3a63-4ed9-8bdb-6a07bbf9507e","system_id":"levelo_inurba_marseille","lat":43.303359,"lon":5.365089,"is_reserved":false,"is_disabled":false,"rental_uris":{"android":"levelo://app?vid=f07c161a-3a63-4ed9-8bdb-6a07bbf9507e","ios":"levelo://app?vid=f07c161a-3a63-4ed9-8bdb-6a07bbf9507e"},"vehicle_type_id":"4","last_reported":1726647128,"current_range_meters":20000,"station_id":"ce4bgs12rcd13ifvqcag","pricing_plan_id":"cebpf4jnsgd1na2vs0mg"},{"bike_id":"f14f2a98-fd5d-4202-a531-571b58ecbfbb","system_id":"levelo_inurba_marseille","lat":43.315324,"lon":5.380363,"is_reserved":false,"is_disabled":false,"rental_uris":{"android":"levelo://app?vid=f14f2a98-fd5d-4202-a531-571b58ecbfbb","ios":"levelo://app?vid=f14f2a98-fd5d-4202-a531-571b58ecbfbb"},"vehicle_type_id":"4","last_reported":1726647128,"current_range_meters":10800,"station_id":"ce4bhsp2rcd13ifvqi50","pricing_plan_id":"cebpf4jnsgd1na2vs0mg"},{"bike_id":"1ac66024-28ac-41bb-a4c8-3b7a64682c8f","system_id":"levelo_inurba_marseille","lat":43.240831,"lon":5.377476,"is_reserved":false,"is_disabled":false,"rental_uris":{"android":"levelo://app?vid=1ac66024-28ac-41bb-a4c8-3b7a64682c8f","ios":"levelo://app?vid=1ac66024-28ac-41bb-a4c8-3b7a64682c8f"},"vehicle_type_id":"4","last_reported":1726647128,"current_range_meters":36800,"station_id":"ce4bhnp2rcd13ifvqgvg","pricing_plan_id":"cebpf4jnsgd1na2vs0mg"},{"bike_id":"edcb7831-5f93-4381-9cdb-bf2cddba3298","system_id":"levelo_inurba_marseille","lat":43.26682,"lon":5.38264,"is_reserved":false,"is_disabled":false,"rental_uris":{"android":"levelo://app?vid=edcb7831-5f93-4381-9cdb-bf2cddba3298","ios":"levelo://app?vid=edcb7831-5f93-4381-9cdb-bf2cddba3298"},"vehicle_type_id":"4","last_reported":1726647128,"current_range_meters":28400,"station_id":"ce4bhg92rcd13ifvqf90","pricing_plan_id":"cebpf4jnsgd1na2vs0mg"},{"bike_id":"fd35cf2e-3b78-417d-ae61-fa4063a3900a","system_id":"levelo_inurba_marseille","lat":43.30911,"lon":5.36858,"is_reserved":false,"is_disabled":false,"rental_uris":{"android":"levelo://app?vid=fd35cf2e-3b78-417d-ae61-fa4063a3900a","ios":"levelo://app?vid=fd35cf2e-3b78-417d-ae61-fa4063a3900a"},"vehicle_type_id":"4","last_reported":1726647128,"current_range_meters":18800,"station_id":"ce4bgn92rcd13ifvqbvg","pricing_plan_id":"cebpf4jnsgd1na2vs0mg"},{"bike_id":"8746bc86-84bc-469d-bc9c-452476199d12","system_id":"levelo_inurba_marseille","lat":43.26947,"lon":5.38639,"is_reserved":false,"is_disabled":false,"rental_uris":{"android":"levelo://app?vid=8746bc86-84bc-469d-bc9c-452476199d12","ios":"levelo://app?vid=8746bc86-84bc-469d-bc9c-452476199d12"},"vehicle_type_id":"4","last_reported":1726647128,"current_range_meters":38400,"station_id":"ce4bhh92rcd13ifvqfh0","pricing_plan_id":"cebpf4jnsgd1na2vs0mg"},{"bike_id":"3f0f49b2-7b9f-4f81-9b92-02cf815ca1d4","system_id":"levelo_inurba_marseille","lat":43.30471,"lon":5.37901,"is_reserved":false,"is_disabled":false,"rental_uris":{"android":"levelo://app?vid=3f0f49b2-7b9f-4f81-9b92-02cf815ca1d4","ios":"levelo://app?vid=3f0f49b2-7b9f-4f81-9b92-02cf815ca1d4"},"vehicle_type_id":"4","last_reported":1726647128,"current_range_meters":38000,"station_id":"ce4bgup2rcd13ifvqcn0","pricing_plan_id":"cebpf4jnsgd1na2vs0mg"},{"bike_id":"f99a26d4-ce77-4c99-a12c-213f1654df1a","system_id":"levelo_inurba_marseille","lat":43.25004,"lon":5.38923,"is_reserved":false,"is_disabled":false,"rental_uris":{"android":"levelo://app?vid=f99a26d4-ce77-4c99-a12c-213f1654df1a","ios":"levelo://app?vid=f99a26d4-ce77-4c99-a12c-213f1654df1a"},"vehicle_type_id":"4","last_reported":1726647128,"current_range_meters":3200,"station_id":"ce4bhgp2rcd13ifvqfd0","pricing_plan_id":"cebpf4jnsgd1na2vs0mg"},{"bike_id":"f7f3e2a5-0c68-4eb6-bd2e-bcd5fb09951d","system_id":"levelo_inurba_marseille","lat":43.32529,"lon":5.41475,"is_reserved":false,"is_disabled":false,"rental_uris":{"android":"levelo://app?vid=f7f3e2a5-0c68-4eb6-bd2e-bcd5fb09951d","ios":"levelo://app?vid=f7f3e2a5-0c68-4eb6-bd2e-bcd5fb09951d"},"vehicle_type_id":"4","last_reported":1726647128,"current_range_meters":26800,"station_id":"ce4bhq12rcd13ifvqhhg","pricing_plan_id":"cebpf4jnsgd1na2vs0mg"},{"bike_id":"b78112f7-713c-4967-8d92-e9318090bb02","system_id":"levelo_inurba_marseille","lat":43.31322,"lon":5.39696,"is_reserved":false,"is_disabled":false,"rental_uris":{"android":"levelo://app?vid=b78112f7-713c-4967-8d92-e9318090bb02","ios":"levelo://app?vid=b78112f7-713c-4967-8d92-e9318090bb02"},"vehicle_type_id":"4","last_reported":1726647128,"current_range_meters":16400,"station_id":"ce4bgvp2rcd13ifvqcu0","pricing_plan_id":"cebpf4jnsgd1na2vs0mg"},{"bike_id":"9dbc1275-dff3-4f6f-ac47-2da20b7eaced","system_id":"levelo_inurba_marseille","lat":43.24084,"lon":5.37757,"is_reserved":false,"is_disabled":false,"rental_uris":{"android":"levelo://app?vid=9dbc1275-dff3-4f6f-ac47-2da20b7eaced","ios":"levelo://app?vid=9dbc1275-dff3-4f6f-ac47-2da20b7eaced"},"vehicle_type_id":"4","last_reported":1726647128,"current_range_meters":36800,"station_id":"ce4bhnp2rcd13ifvqgvg","pricing_plan_id":"cebpf4jnsgd1na2vs0mg"},{"bike_id":"af15b34b-0a1b-4f05-9975-d29c112ecf5a","system_id":"levelo_inurba_marseille","lat":43.26549,"lon":5.37287,"is_reserved":false,"is_disabled":false,"rental_uris":{"android":"levelo://app?vid=af15b34b-0a1b-4f05-9975-d29c112ecf5a","ios":"levelo://app?vid=af15b34b-0a1b-4f05-9975-d29c112ecf5a"},"vehicle_type_id":"4","last_reported":1726647128,"current_range_meters":33200,"station_id":"ce4bhg12rcd13ifvqf70","pricing_plan_id":"cebpf4jnsgd1na2vs0mg"},{"bike_id":"99684f50-b398-427b-a4e9-7ca0a0382c79","system_id":"levelo_inurba_marseille","lat":43.23194,"lon":5.3554,"is_reserved":false,"is_disabled":false,"rental_uris":{"android":"levelo://app?vid=99684f50-b398-427b-a4e9-7ca0a0382c79","ios":"levelo://app?vid=99684f50-b398-427b-a4e9-7ca0a0382c79"},"vehicle_type_id":"4","last_reported":1726647128,"current_range_meters":40000,"station_id":"ce4bhu92rcd13ifvqi70","pricing_plan_id":"cebpf4jnsgd1na2vs0mg"},{"bike_id":"004161ea-2444-4d2f-bb89-87c083836a64","system_id":"levelo_inurba_marseille","lat":43.25933,"lon":5.40906,"is_reserved":false,"is_disabled":false,"rental_uris":{"android":"levelo://app?vid=004161ea-2444-4d2f-bb89-87c083836a64","ios":"levelo://app?vid=004161ea-2444-4d2f-bb89-87c083836a64"},"vehicle_type_id":"4","last_reported":1726647128,"current_range_meters":33200,"station_id":"ce4bhm92rcd13ifvqglg","pricing_plan_id":"cebpf4jnsgd1na2vs0mg"},{"bike_id":"d782c430-b2c7-45ce-aaaf-78dc9a80ca97","system_id":"levelo_inurba_marseille","lat":43.33028,"lon":5.39045,"is_reserved":false,"is_disabled":false,"rental_uris":{"android":"levelo://app?vid=d782c430-b2c7-45ce-aaaf-78dc9a80ca97","ios":"levelo://app?vid=d782c430-b2c7-45ce-aaaf-78dc9a80ca97"},"vehicle_type_id":"4","last_reported":1726647128,"current_range_meters":25600,"station_id":"ce4bhr92rcd13ifvqhrg","pricing_plan_id":"cebpf4jnsgd1na2vs0mg"},{"bike_id":"c4faec35-7580-4da0-9121-0c9580611ed4","system_id":"levelo_inurba_marseille","lat":43.32341,"lon":5.40627,"is_reserved":false,"is_disabled":false,"rental_uris":{"android":"levelo://app?vid=c4faec35-7580-4da0-9121-0c9580611ed4","ios":"levelo://app?vid=c4faec35-7580-4da0-9121-0c9580611ed4"},"vehicle_type_id":"4","last_reported":1726647128,"current_range_meters":33200,"station_id":"ce4bhq92rcd13ifvqhjg","pricing_plan_id":"cebpf4jnsgd1na2vs0mg"},{"bike_id":"8903f4ef-48ce-46af-9247-c84df1839bc1","system_id":"levelo_inurba_marseille","lat":43.30477,"lon":5.37911,"is_reserved":false,"is_disabled":false,"rental_uris":{"android":"levelo://app?vid=8903f4ef-48ce-46af-9247-c84df1839bc1","ios":"levelo://app?vid=8903f4ef-48ce-46af-9247-c84df1839bc1"},"vehicle_type_id":"4","last_reported":1726647128,"current_range_meters":34800,"station_id":"ce4bgup2rcd13ifvqcn0","pricing_plan_id":"cebpf4jnsgd1na2vs0mg"},{"bike_id":"d7f08400-f527-48cc-a5f0-6454339c6cb8","system_id":"levelo_inurba_marseille","lat":43.28155,"lon":5.42642,"is_reserved":false,"is_disabled":false,"rental_uris":{"android":"levelo://app?vid=d7f08400-f527-48cc-a5f0-6454339c6cb8","ios":"levelo://app?vid=d7f08400-f527-48cc-a5f0-6454339c6cb8"},"vehicle_type_id":"4","last_reported":1726647128,"current_range_meters":10000,"station_id":"ce4bhnh2rcd13ifvqgug","pricing_plan_id":"cebpf4jnsgd1na2vs0mg"},{"bike_id":"2b714e73-49f8-4f26-bb6d-7d72ce23aabc","system_id":"levelo_inurba_marseille","lat":43.23052,"lon":5.3549,"is_reserved":false,"is_disabled":false,"rental_uris":{"android":"levelo://app?vid=2b714e73-49f8-4f26-bb6d-7d72ce23aabc","ios":"levelo://app?vid=2b714e73-49f8-4f26-bb6d-7d72ce23aabc"},"vehicle_type_id":"4","last_reported":1726647128,"current_range_meters":8800,"station_id":"cpo3342slgdg3j2ifvpg","pricing_plan_id":"cebpf4jnsgd1na2vs0mg"},{"bike_id":"08517893-63cf-43d9-88aa-3c89b83ce921","system_id":"levelo_inurba_marseille","lat":43.32477,"lon":5.36569,"is_reserved":false,"is_disabled":false,"rental_uris":{"android":"levelo://app?vid=08517893-63cf-43d9-88aa-3c89b83ce921","ios":"levelo://app?vid=08517893-63cf-43d9-88aa-3c89b83ce921"},"vehicle_type_id":"4","last_reported":1726647128,"current_range_meters":39200,"station_id":"ce4bhs12rcd13ifvqhvg","pricing_plan_id":"cebpf4jnsgd1na2vs0mg"},{"bike_id":"23b661e7-91d5-4597-9542-7d849264e4ee","system_id":"levelo_inurba_marseille","lat":43.29985,"lon":5.37178,"is_reserved":false,"is_disabled":false,"rental_uris":{"android":"levelo://app?vid=23b661e7-91d5-4597-9542-7d849264e4ee","ios":"levelo://app?vid=23b661e7-91d5-4597-9542-7d849264e4ee"},"vehicle_type_id":"4","last_reported":1726647128,"current_range_meters":38000,"station_id":"ce4bgr92rcd13ifvqc7g","pricing_plan_id":"cebpf4jnsgd1na2vs0mg"},{"bike_id":"254be443-d968-4d66-9923-e7b0733a451f","system_id":"levelo_inurba_marseille","lat":43.30549,"lon":5.36701,"is_reserved":false,"is_disabled":false,"rental_uris":{"android":"levelo://app?vid=254be443-d968-4d66-9923-e7b0733a451f","ios":"levelo://app?vid=254be443-d968-4d66-9923-e7b0733a451f"},"vehicle_type_id":"4","last_reported":1726647128,"current_range_meters":40000,"station_id":"ce4bgrp2rcd13ifvqc9g","pricing_plan_id":"cebpf4jnsgd1na2vs0mg"},{"bike_id":"a89301d3-9c70-4155-92a0-7f64285794a0","system_id":"levelo_inurba_marseille","lat":43.30883,"lon":5.37199,"is_reserved":false,"is_disabled":false,"rental_uris":{"android":"levelo://app?vid=a89301d3-9c70-4155-92a0-7f64285794a0","ios":"levelo://app?vid=a89301d3-9c70-4155-92a0-7f64285794a0"},"vehicle_type_id":"4","last_reported":1726647128,"current_range_meters":27200,"station_id":"ce4bguh2rcd13ifvqckg","pricing_plan_id":"cebpf4jnsgd1na2vs0mg"},{"bike_id":"8b9810ec-eb8f-4062-84f1-d58c3b0311fa","system_id":"levelo_inurba_marseille","lat":43.30469,"lon":5.37913,"is_reserved":false,"is_disabled":false,"rental_uris":{"android":"levelo://app?vid=8b9810ec-eb8f-4062-84f1-d58c3b0311fa","ios":"levelo://app?vid=8b9810ec-eb8f-4062-84f1-d58c3b0311fa"},"vehicle_type_id":"4","last_reported":1726647128,"current_range_meters":12800,"station_id":"ce4bgup2rcd13ifvqcn0","pricing_plan_id":"cebpf4jnsgd1na2vs0mg"},{"bike_id":"3fd74174-16c9-4c30-b4c8-3922b7c6cbc8","system_id":"levelo_inurba_marseille","lat":43.24071,"lon":5.37761,"is_reserved":false,"is_disabled":false,"rental_uris":{"android":"levelo://app?vid=3fd74174-16c9-4c30-b4c8-3922b7c6cbc8","ios":"levelo://app?vid=3fd74174-16c9-4c30-b4c8-3922b7c6cbc8"},"vehicle_type_id":"4","last_reported":1726647128,"current_range_meters":6000,"station_id":"ce4bhnp2rcd13ifvqgvg","pricing_plan_id":"cebpf4jnsgd1na2vs0mg"},{"bike_id":"33f69f3f-8823-49c1-90ed-ec30bb04d814","system_id":"levelo_inurba_marseille","lat":43.24073,"lon":5.37758,"is_reserved":false,"is_disabled":false,"rental_uris":{"android":"levelo://app?vid=33f69f3f-8823-49c1-90ed-ec30bb04d814","ios":"levelo://app?vid=33f69f3f-8823-49c1-90ed-ec30bb04d814"},"vehicle_type_id":"4","last_reported":1726647128,"current_range_meters":37600,"station_id":"ce4bhnp2rcd13ifvqgvg","pricing_plan_id":"cebpf4jnsgd1na2vs0mg"},{"bike_id":"76d439c6-f9f7-40ab-a273-41f85ec9da3c","system_id":"levelo_inurba_marseille","lat":43.27991,"lon":5.4166,"is_reserved":false,"is_disabled":false,"rental_uris":{"android":"levelo://app?vid=76d439c6-f9f7-40ab-a273-41f85ec9da3c","ios":"levelo://app?vid=76d439c6-f9f7-40ab-a273-41f85ec9da3c"},"vehicle_type_id":"4","last_reported":1726647128,"current_range_meters":24000,"station_id":"ce4bho12rcd13ifvqh1g","pricing_plan_id":"cebpf4jnsgd1na2vs0mg"},{"bike_id":"e8befb56-1303-484d-9ed5-cb1654ca2bd2","system_id":"levelo_inurba_marseille","lat":43.2396,"lon":5.3663,"is_reserved":false,"is_disabled":false,"rental_uris":{"android":"levelo://app?vid=e8befb56-1303-484d-9ed5-cb1654ca2bd2","ios":"levelo://app?vid=e8befb56-1303-484d-9ed5-cb1654ca2bd2"},"vehicle_type_id":"4","last_reported":1726647128,"current_range_meters":37600,"station_id":"ce4bhi12rcd13ifvqfp0","pricing_plan_id":"cebpf4jnsgd1na2vs0mg"},{"bike_id":"2e4c0d1a-a4a2-40d5-9c70-26993c46a5f6","system_id":"levelo_inurba_marseille","lat":43.23197,"lon":5.35549,"is_reserved":false,"is_disabled":false,"rental_uris":{"android":"levelo://app?vid=2e4c0d1a-a4a2-40d5-9c70-26993c46a5f6","ios":"levelo://app?vid=2e4c0d1a-a4a2-40d5-9c70-26993c46a5f6"},"vehicle_type_id":"4","last_reported":1726647128,"current_range_meters":37600,"station_id":"ce4bhu92rcd13ifvqi70","pricing_plan_id":"cebpf4jnsgd1na2vs0mg"},{"bike_id":"b29ae848-88e6-467d-bf50-a5fe6b94f93b","system_id":"levelo_inurba_marseille","lat":43.295502,"lon":5.422808,"is_reserved":false,"is_disabled":false,"rental_uris":{"android":"levelo://app?vid=b29ae848-88e6-467d-bf50-a5fe6b94f93b","ios":"levelo://app?vid=b29ae848-88e6-467d-bf50-a5fe6b94f93b"},"vehicle_type_id":"4","last_reported":1726647128,"current_range_meters":10800,"station_id":"ce4bhop2rcd13ifvqh7g","pricing_plan_id":"cebpf4jnsgd1na2vs0mg"},{"bike_id":"03194731-c663-4f08-8359-4624ba26913a","system_id":"levelo_inurba_marseille","lat":43.31349,"lon":5.36707,"is_reserved":false,"is_disabled":false,"rental_uris":{"android":"levelo://app?vid=03194731-c663-4f08-8359-4624ba26913a","ios":"levelo://app?vid=03194731-c663-4f08-8359-4624ba26913a"},"vehicle_type_id":"4","last_reported":1726647128,"current_range_meters":33600,"station_id":"ce4bgr92rcd13ifvqc6g","pricing_plan_id":"cebpf4jnsgd1na2vs0mg"},{"bike_id":"21084f93-3279-4437-98bc-21d82c8332a5","system_id":"levelo_inurba_marseille","lat":43.30922,"lon":5.36847,"is_reserved":false,"is_disabled":false,"rental_uris":{"android":"levelo://app?vid=21084f93-3279-4437-98bc-21d82c8332a5","ios":"levelo://app?vid=21084f93-3279-4437-98bc-21d82c8332a5"},"vehicle_type_id":"4","last_reported":1726647128,"current_range_meters":24800,"station_id":"ce4bgn92rcd13ifvqbvg","pricing_plan_id":"cebpf4jnsgd1na2vs0mg"},{"bike_id":"24519058-e1d4-4885-8455-4ae30a828bf2","system_id":"levelo_inurba_marseille","lat":43.26933,"lon":5.38925,"is_reserved":false,"is_disabled":false,"rental_uris":{"android":"levelo://app?vid=24519058-e1d4-4885-8455-4ae30a828bf2","ios":"levelo://app?vid=24519058-e1d4-4885-8455-4ae30a828bf2"},"vehicle_type_id":"4","last_reported":1726647128,"current_range_meters":18000,"station_id":"ce4bhhh2rcd13ifvqfl0","pricing_plan_id":"cebpf4jnsgd1na2vs0mg"},{"bike_id":"baf5667e-8051-443a-80ed-4736f7eabf02","system_id":"levelo_inurba_marseille","lat":43.29299,"lon":5.37467,"is_reserved":false,"is_disabled":false,"rental_uris":{"android":"levelo://app?vid=baf5667e-8051-443a-80ed-4736f7eabf02","ios":"levelo://app?vid=baf5667e-8051-443a-80ed-4736f7eabf02"},"vehicle_type_id":"4","last_reported":1726647128,"current_range_meters":30400,"station_id":"ce4bgi12rcd13ifvqb70","pricing_plan_id":"cebpf4jnsgd1na2vs0mg"},{"bike_id":"60f77d8c-b647-4452-a0e2-2c5b42e24646","system_id":"levelo_inurba_marseille","lat":43.25938,"lon":5.40903,"is_reserved":false,"is_disabled":false,"rental_uris":{"android":"levelo://app?vid=60f77d8c-b647-4452-a0e2-2c5b42e24646","ios":"levelo://app?vid=60f77d8c-b647-4452-a0e2-2c5b42e24646"},"vehicle_type_id":"4","last_reported":1726647128,"current_range_meters":32400,"station_id":"ce4bhm92rcd13ifvqglg","pricing_plan_id":"cebpf4jnsgd1na2vs0mg"},{"bike_id":"4e2c2699-3b3a-4d93-8b4c-cf2922b45c99","system_id":"levelo_inurba_marseille","lat":43.24078,"lon":5.3775,"is_reserved":false,"is_disabled":false,"rental_uris":{"android":"levelo://app?vid=4e2c2699-3b3a-4d93-8b4c-cf2922b45c99","ios":"levelo://app?vid=4e2c2699-3b3a-4d93-8b4c-cf2922b45c99"},"vehicle_type_id":"4","last_reported":1726647128,"current_range_meters":28800,"station_id":"ce4bhnp2rcd13ifvqgvg","pricing_plan_id":"cebpf4jnsgd1na2vs0mg"},{"bike_id":"11844f37-ec33-42cb-8263-5f2bde8f61a0","system_id":"levelo_inurba_marseille","lat":43.31704,"lon":5.40462,"is_reserved":false,"is_disabled":false,"rental_uris":{"android":"levelo://app?vid=11844f37-ec33-42cb-8263-5f2bde8f61a0","ios":"levelo://app?vid=11844f37-ec33-42cb-8263-5f2bde8f61a0"},"vehicle_type_id":"4","last_reported":1726647128,"current_range_meters":12000,"station_id":"ce4bh012rcd13ifvqd00","pricing_plan_id":"cebpf4jnsgd1na2vs0mg"},{"bike_id":"c3c66152-4cc7-4227-88b4-4aaa5885cbf1","system_id":"levelo_inurba_marseille","lat":43.30468,"lon":5.37906,"is_reserved":false,"is_disabled":false,"rental_uris":{"android":"levelo://app?vid=c3c66152-4cc7-4227-88b4-4aaa5885cbf1","ios":"levelo://app?vid=c3c66152-4cc7-4227-88b4-4aaa5885cbf1"},"vehicle_type_id":"4","last_reported":1726647128,"current_range_meters":38000,"station_id":"ce4bgup2rcd13ifvqcn0","pricing_plan_id":"cebpf4jnsgd1na2vs0mg"},{"bike_id":"2d0868ea-7d73-47b4-9f65-41ad570bd40a","system_id":"levelo_inurba_marseille","lat":43.30157,"lon":5.38082,"is_reserved":false,"is_disabled":false,"rental_uris":{"android":"levelo://app?vid=2d0868ea-7d73-47b4-9f65-41ad570bd40a","ios":"levelo://app?vid=2d0868ea-7d73-47b4-9f65-41ad570bd40a"},"vehicle_type_id":"4","last_reported":1726647128,"current_range_meters":22800,"station_id":"ce4bgjp2rcd13ifvqbh0","pricing_plan_id":"cebpf4jnsgd1na2vs0mg"},{"bike_id":"d452f3de-fa85-4886-ba1d-f7b4ee934383","system_id":"levelo_inurba_marseille","lat":43.28097,"lon":5.37844,"is_reserved":false,"is_disabled":false,"rental_uris":{"android":"levelo://app?vid=d452f3de-fa85-4886-ba1d-f7b4ee934383","ios":"levelo://app?vid=d452f3de-fa85-4886-ba1d-f7b4ee934383"},"vehicle_type_id":"4","last_reported":1726647128,"current_range_meters":22000,"station_id":"ce4bha12rcd13ifvqee0","pricing_plan_id":"cebpf4jnsgd1na2vs0mg"},{"bike_id":"6dd17a2f-59bb-4453-859d-2c09ab795824","system_id":"levelo_inurba_marseille","lat":43.33026,"lon":5.39049,"is_reserved":false,"is_disabled":false,"rental_uris":{"android":"levelo://app?vid=6dd17a2f-59bb-4453-859d-2c09ab795824","ios":"levelo://app?vid=6dd17a2f-59bb-4453-859d-2c09ab795824"},"vehicle_type_id":"4","last_reported":1726647128,"current_range_meters":26000,"station_id":"ce4bhr92rcd13ifvqhrg","pricing_plan_id":"cebpf4jnsgd1na2vs0mg"},{"bike_id":"9767c89d-2e87-4db2-a737-b207217512dd","system_id":"levelo_inurba_marseille","lat":43.3136,"lon":5.38494,"is_reserved":false,"is_disabled":false,"rental_uris":{"android":"levelo://app?vid=9767c89d-2e87-4db2-a737-b207217512dd","ios":"levelo://app?vid=9767c89d-2e87-4db2-a737-b207217512dd"},"vehicle_type_id":"4","last_reported":1726647128,"current_range_meters":30400,"station_id":"ce4bgt92rcd13ifvqcf0","pricing_plan_id":"cebpf4jnsgd1na2vs0mg"},{"bike_id":"db3fc979-9333-49eb-869c-0b4dd335ac12","system_id":"levelo_inurba_marseille","lat":43.30468,"lon":5.37896,"is_reserved":false,"is_disabled":false,"rental_uris":{"android":"levelo://app?vid=db3fc979-9333-49eb-869c-0b4dd335ac12","ios":"levelo://app?vid=db3fc979-9333-49eb-869c-0b4dd335ac12"},"vehicle_type_id":"4","last_reported":1726647128,"current_range_meters":39200,"station_id":"ce4bgup2rcd13ifvqcn0","pricing_plan_id":"cebpf4jnsgd1na2vs0mg"},{"bike_id":"333c7ce2-2d18-462f-9262-1bd6f056d7eb","system_id":"levelo_inurba_marseille","lat":43.30555,"lon":5.36536,"is_reserved":false,"is_disabled":false,"rental_uris":{"android":"levelo://app?vid=333c7ce2-2d18-462f-9262-1bd6f056d7eb","ios":"levelo://app?vid=333c7ce2-2d18-462f-9262-1bd6f056d7eb"},"vehicle_type_id":"4","last_reported":1726647128,"current_range_meters":40000,"station_id":"ce4bgs12rcd13ifvqcag","pricing_plan_id":"cebpf4jnsgd1na2vs0mg"},{"bike_id":"35977f31-cfb3-425f-987d-b6042a4e6aae","system_id":"levelo_inurba_marseille","lat":43.25934,"lon":5.40907,"is_reserved":false,"is_disabled":false,"rental_uris":{"android":"levelo://app?vid=35977f31-cfb3-425f-987d-b6042a4e6aae","ios":"levelo://app?vid=35977f31-cfb3-425f-987d-b6042a4e6aae"},"vehicle_type_id":"4","last_reported":1726647128,"current_range_meters":27600,"station_id":"ce4bhm92rcd13ifvqglg","pricing_plan_id":"cebpf4jnsgd1na2vs0mg"},{"bike_id":"81d71b40-b21e-412d-adb8-fb23d520ae84","system_id":"levelo_inurba_marseille","lat":43.30591,"lon":5.39358,"is_reserved":false,"is_disabled":false,"rental_uris":{"android":"levelo://app?vid=81d71b40-b21e-412d-adb8-fb23d520ae84","ios":"levelo://app?vid=81d71b40-b21e-412d-adb8-fb23d520ae84"},"vehicle_type_id":"4","last_reported":1726647128,"current_range_meters":27600,"station_id":"ce4bh0p2rcd13ifvqd80","pricing_plan_id":"cebpf4jnsgd1na2vs0mg"},{"bike_id":"c9b40bea-211c-4e0b-bedf-7eceab955071","system_id":"levelo_inurba_marseille","lat":43.26496,"lon":5.39538,"is_reserved":false,"is_disabled":false,"rental_uris":{"android":"levelo://app?vid=c9b40bea-211c-4e0b-bedf-7eceab955071","ios":"levelo://app?vid=c9b40bea-211c-4e0b-bedf-7eceab955071"},"vehicle_type_id":"4","last_reported":1726647128,"current_range_meters":14400,"station_id":"ce4bhi12rcd13ifvqfq0","pricing_plan_id":"cebpf4jnsgd1na2vs0mg"},{"bike_id":"c5483938-683f-4dd8-a9d6-ebf3c734472a","system_id":"levelo_inurba_marseille","lat":43.26684,"lon":5.38272,"is_reserved":false,"is_disabled":false,"rental_uris":{"android":"levelo://app?vid=c5483938-683f-4dd8-a9d6-ebf3c734472a","ios":"levelo://app?vid=c5483938-683f-4dd8-a9d6-ebf3c734472a"},"vehicle_type_id":"4","last_reported":1726647128,"current_range_meters":36400,"station_id":"ce4bhg92rcd13ifvqf90","pricing_plan_id":"cebpf4jnsgd1na2vs0mg"},{"bike_id":"d1aafa03-562e-4084-a007-ce284996d1a9","system_id":"levelo_inurba_marseille","lat":43.33762,"lon":5.37437,"is_reserved":false,"is_disabled":false,"rental_uris":{"android":"levelo://app?vid=d1aafa03-562e-4084-a007-ce284996d1a9","ios":"levelo://app?vid=d1aafa03-562e-4084-a007-ce284996d1a9"},"vehicle_type_id":"4","last_reported":1726647128,"current_range_meters":19600,"station_id":"","pricing_plan_id":"cebpf4jnsgd1na2vs0mg"},{"bike_id":"41e6c322-5ad0-4aee-87e8-f7c73e21197f","system_id":"levelo_inurba_marseille","lat":43.26781,"lon":5.39416,"is_reserved":false,"is_disabled":false,"rental_uris":{"android":"levelo://app?vid=41e6c322-5ad0-4aee-87e8-f7c73e21197f","ios":"levelo://app?vid=41e6c322-5ad0-4aee-87e8-f7c73e21197f"},"vehicle_type_id":"4","last_reported":1726647128,"current_range_meters":34000,"station_id":"ce4bhh12rcd13ifvqfg0","pricing_plan_id":"cebpf4jnsgd1na2vs0mg"},{"bike_id":"551007eb-0d19-4212-aaad-40cf20c93b6d","system_id":"levelo_inurba_marseille","lat":43.30543,"lon":5.36538,"is_reserved":false,"is_disabled":false,"rental_uris":{"android":"levelo://app?vid=551007eb-0d19-4212-aaad-40cf20c93b6d","ios":"levelo://app?vid=551007eb-0d19-4212-aaad-40cf20c93b6d"},"vehicle_type_id":"4","last_reported":1726647128,"current_range_meters":39200,"station_id":"ce4bgs12rcd13ifvqcag","pricing_plan_id":"cebpf4jnsgd1na2vs0mg"},{"bike_id":"ffacbdff-c76c-4587-9724-7ec0dd7a8263","system_id":"levelo_inurba_marseille","lat":43.30888,"lon":5.37194,"is_reserved":false,"is_disabled":false,"rental_uris":{"android":"levelo://app?vid=ffacbdff-c76c-4587-9724-7ec0dd7a8263","ios":"levelo://app?vid=ffacbdff-c76c-4587-9724-7ec0dd7a8263"},"vehicle_type_id":"4","last_reported":1726647128,"current_range_meters":8800,"station_id":"ce4bguh2rcd13ifvqckg","pricing_plan_id":"cebpf4jnsgd1na2vs0mg"},{"bike_id":"841b8f30-f704-49ab-bba1-b3800127cda3","system_id":"levelo_inurba_marseille","lat":43.27968,"lon":5.38687,"is_reserved":false,"is_disabled":false,"rental_uris":{"android":"levelo://app?vid=841b8f30-f704-49ab-bba1-b3800127cda3","ios":"levelo://app?vid=841b8f30-f704-49ab-bba1-b3800127cda3"},"vehicle_type_id":"4","last_reported":1726647128,"current_range_meters":11200,"station_id":"ce4bhg12rcd13ifvqf80","pricing_plan_id":"cebpf4jnsgd1na2vs0mg"},{"bike_id":"d51458f5-7695-4e6e-b2eb-f41ee3c9152c","system_id":"levelo_inurba_marseille","lat":43.3047,"lon":5.379,"is_reserved":false,"is_disabled":false,"rental_uris":{"android":"levelo://app?vid=d51458f5-7695-4e6e-b2eb-f41ee3c9152c","ios":"levelo://app?vid=d51458f5-7695-4e6e-b2eb-f41ee3c9152c"},"vehicle_type_id":"4","last_reported":1726647128,"current_range_meters":20000,"station_id":"ce4bgup2rcd13ifvqcn0","pricing_plan_id":"cebpf4jnsgd1na2vs0mg"},{"bike_id":"c2fe7484-1ce8-4f47-924b-a4b2974f7130","system_id":"levelo_inurba_marseille","lat":43.26788,"lon":5.39418,"is_reserved":false,"is_disabled":false,"rental_uris":{"android":"levelo://app?vid=c2fe7484-1ce8-4f47-924b-a4b2974f7130","ios":"levelo://app?vid=c2fe7484-1ce8-4f47-924b-a4b2974f7130"},"vehicle_type_id":"4","last_reported":1726647128,"current_range_meters":24400,"station_id":"ce4bhh12rcd13ifvqfg0","pricing_plan_id":"cebpf4jnsgd1na2vs0mg"},{"bike_id":"3d8d9941-50d8-419b-82cd-e12c9b088927","system_id":"levelo_inurba_marseille","lat":43.305066,"lon":5.367223,"is_reserved":false,"is_disabled":false,"rental_uris":{"android":"levelo://app?vid=3d8d9941-50d8-419b-82cd-e12c9b088927","ios":"levelo://app?vid=3d8d9941-50d8-419b-82cd-e12c9b088927"},"vehicle_type_id":"4","last_reported":1726647128,"current_range_meters":34800,"station_id":"ce4bgrp2rcd13ifvqc9g","pricing_plan_id":"cebpf4jnsgd1na2vs0mg"},{"bike_id":"b2fd0a86-26cf-412a-82c9-7f952f88ac48","system_id":"levelo_inurba_marseille","lat":43.2862,"lon":5.35098,"is_reserved":false,"is_disabled":false,"rental_uris":{"android":"levelo://app?vid=b2fd0a86-26cf-412a-82c9-7f952f88ac48","ios":"levelo://app?vid=b2fd0a86-26cf-412a-82c9-7f952f88ac48"},"vehicle_type_id":"4","last_reported":1726647128,"current_range_meters":6000,"station_id":"ce4bhch2rcd13ifvqeug","pricing_plan_id":"cebpf4jnsgd1na2vs0mg"},{"bike_id":"35ece433-db48-49cc-9ff9-983c372b7563","system_id":"levelo_inurba_marseille","lat":43.29002,"lon":5.35605,"is_reserved":false,"is_disabled":false,"rental_uris":{"android":"levelo://app?vid=35ece433-db48-49cc-9ff9-983c372b7563","ios":"levelo://app?vid=35ece433-db48-49cc-9ff9-983c372b7563"},"vehicle_type_id":"4","last_reported":1726647128,"current_range_meters":23200,"station_id":"ce4bhb92rcd13ifvqen0","pricing_plan_id":"cebpf4jnsgd1na2vs0mg"},{"bike_id":"eedf8c35-9262-497b-9685-7aae28d24cfb","system_id":"levelo_inurba_marseille","lat":43.2408,"lon":5.37752,"is_reserved":false,"is_disabled":false,"rental_uris":{"android":"levelo://app?vid=eedf8c35-9262-497b-9685-7aae28d24cfb","ios":"levelo://app?vid=eedf8c35-9262-497b-9685-7aae28d24cfb"},"vehicle_type_id":"4","last_reported":1726647128,"current_range_meters":32400,"station_id":"ce4bhnp2rcd13ifvqgvg","pricing_plan_id":"cebpf4jnsgd1na2vs0mg"},{"bike_id":"19ef2743-6a23-4826-bc71-31286afc0df2","system_id":"levelo_inurba_marseille","lat":43.30466,"lon":5.3791,"is_reserved":false,"is_disabled":false,"rental_uris":{"android":"levelo://app?vid=19ef2743-6a23-4826-bc71-31286afc0df2","ios":"levelo://app?vid=19ef2743-6a23-4826-bc71-31286afc0df2"},"vehicle_type_id":"4","last_reported":1726647128,"current_range_meters":8400,"station_id":"ce4bgup2rcd13ifvqcn0","pricing_plan_id":"cebpf4jnsgd1na2vs0mg"},{"bike_id":"4525c2f4-e6e8-445d-a2b6-837bdeb61a00","system_id":"levelo_inurba_marseille","lat":43.28722,"lon":5.37944,"is_reserved":false,"is_disabled":false,"rental_uris":{"android":"levelo://app?vid=4525c2f4-e6e8-445d-a2b6-837bdeb61a00","ios":"levelo://app?vid=4525c2f4-e6e8-445d-a2b6-837bdeb61a00"},"vehicle_type_id":"4","last_reported":1726647128,"current_range_meters":20400,"station_id":"ce4bh9p2rcd13ifvqec0","pricing_plan_id":"cebpf4jnsgd1na2vs0mg"},{"bike_id":"b60fdd62-02a2-4187-8a87-3fd289343c2d","system_id":"levelo_inurba_marseille","lat":43.301453,"lon":5.374157,"is_reserved":false,"is_disabled":false,"rental_uris":{"android":"levelo://app?vid=b60fdd62-02a2-4187-8a87-3fd289343c2d","ios":"levelo://app?vid=b60fdd62-02a2-4187-8a87-3fd289343c2d"},"vehicle_type_id":"4","last_reported":1726647128,"current_range_meters":24000,"station_id":"ce4bgs92rcd13ifvqcc0","pricing_plan_id":"cebpf4jnsgd1na2vs0mg"},{"bike_id":"17316e6e-2da9-4d34-8d34-9011dadfbb0d","system_id":"levelo_inurba_marseille","lat":43.27071,"lon":5.42276,"is_reserved":false,"is_disabled":false,"rental_uris":{"android":"levelo://app?vid=17316e6e-2da9-4d34-8d34-9011dadfbb0d","ios":"levelo://app?vid=17316e6e-2da9-4d34-8d34-9011dadfbb0d"},"vehicle_type_id":"4","last_reported":1726647128,"current_range_meters":20000,"station_id":"ce4bhk92rcd13ifvqgb0","pricing_plan_id":"cebpf4jnsgd1na2vs0mg"},{"bike_id":"85f35905-070a-4a43-b69b-19cfcf5195a8","system_id":"levelo_inurba_marseille","lat":43.29568,"lon":5.42283,"is_reserved":false,"is_disabled":false,"rental_uris":{"android":"levelo://app?vid=85f35905-070a-4a43-b69b-19cfcf5195a8","ios":"levelo://app?vid=85f35905-070a-4a43-b69b-19cfcf5195a8"},"vehicle_type_id":"4","last_reported":1726647128,"current_range_meters":39200,"station_id":"ce4bhph2rcd13ifvqhdg","pricing_plan_id":"cebpf4jnsgd1na2vs0mg"},{"bike_id":"2b9e7024-15c5-4f59-86cb-693a4d246add","system_id":"levelo_inurba_marseille","lat":43.25939,"lon":5.40909,"is_reserved":false,"is_disabled":false,"rental_uris":{"android":"levelo://app?vid=2b9e7024-15c5-4f59-86cb-693a4d246add","ios":"levelo://app?vid=2b9e7024-15c5-4f59-86cb-693a4d246add"},"vehicle_type_id":"4","last_reported":1726647128,"current_range_meters":30800,"station_id":"ce4bhm92rcd13ifvqglg","pricing_plan_id":"cebpf4jnsgd1na2vs0mg"},{"bike_id":"ce3404c1-fd3f-433b-b9d8-fdab9c765ffe","system_id":"levelo_inurba_marseille","lat":43.25116,"lon":5.40319,"is_reserved":false,"is_disabled":false,"rental_uris":{"android":"levelo://app?vid=ce3404c1-fd3f-433b-b9d8-fdab9c765ffe","ios":"levelo://app?vid=ce3404c1-fd3f-433b-b9d8-fdab9c765ffe"},"vehicle_type_id":"4","last_reported":1726647128,"current_range_meters":38800,"station_id":"ce4bhlh2rcd13ifvqgig","pricing_plan_id":"cebpf4jnsgd1na2vs0mg"},{"bike_id":"5ad76090-8691-48ec-9040-016e70c34f7b","system_id":"levelo_inurba_marseille","lat":43.2804,"lon":5.36933,"is_reserved":false,"is_disabled":false,"rental_uris":{"android":"levelo://app?vid=5ad76090-8691-48ec-9040-016e70c34f7b","ios":"levelo://app?vid=5ad76090-8691-48ec-9040-016e70c34f7b"},"vehicle_type_id":"4","last_reported":1726647128,"current_range_meters":28400,"station_id":"ce4bha12rcd13ifvqef0","pricing_plan_id":"cebpf4jnsgd1na2vs0mg"},{"bike_id":"0aae4a21-f9b6-4ad4-8433-3a58684465d5","system_id":"levelo_inurba_marseille","lat":43.26059,"lon":5.393992,"is_reserved":false,"is_disabled":false,"rental_uris":{"android":"levelo://app?vid=0aae4a21-f9b6-4ad4-8433-3a58684465d5","ios":"levelo://app?vid=0aae4a21-f9b6-4ad4-8433-3a58684465d5"},"vehicle_type_id":"4","last_reported":1726647128,"current_range_meters":39200,"station_id":"ce4bhh92rcd13ifvqfj0","pricing_plan_id":"cebpf4jnsgd1na2vs0mg"},{"bike_id":"7231c74c-5278-429f-90a8-a50ab6504eee","system_id":"levelo_inurba_marseille","lat":43.32486,"lon":5.36565,"is_reserved":false,"is_disabled":false,"rental_uris":{"android":"levelo://app?vid=7231c74c-5278-429f-90a8-a50ab6504eee","ios":"levelo://app?vid=7231c74c-5278-429f-90a8-a50ab6504eee"},"vehicle_type_id":"4","last_reported":1726647128,"current_range_meters":28800,"station_id":"ce4bhs12rcd13ifvqhvg","pricing_plan_id":"cebpf4jnsgd1na2vs0mg"},{"bike_id":"ed7db65d-642d-4728-b788-bc708a499c76","system_id":"levelo_inurba_marseille","lat":43.30553,"lon":5.36537,"is_reserved":false,"is_disabled":false,"rental_uris":{"android":"levelo://app?vid=ed7db65d-642d-4728-b788-bc708a499c76","ios":"levelo://app?vid=ed7db65d-642d-4728-b788-bc708a499c76"},"vehicle_type_id":"4","last_reported":1726647128,"current_range_meters":22800,"station_id":"ce4bgs12rcd13ifvqcag","pricing_plan_id":"cebpf4jnsgd1na2vs0mg"},{"bike_id":"680be1dc-3a23-4c18-ae00-e69e8dd741b2","system_id":"levelo_inurba_marseille","lat":43.29304,"lon":5.37183,"is_reserved":false,"is_disabled":false,"rental_uris":{"android":"levelo://app?vid=680be1dc-3a23-4c18-ae00-e69e8dd741b2","ios":"levelo://app?vid=680be1dc-3a23-4c18-ae00-e69e8dd741b2"},"vehicle_type_id":"4","last_reported":1726647128,"current_range_meters":31200,"station_id":"ce4bgh92rcd13ifvqb40","pricing_plan_id":"cebpf4jnsgd1na2vs0mg"},{"bike_id":"ab24a954-34a3-48ed-808a-51904da89fe4","system_id":"levelo_inurba_marseille","lat":43.28091,"lon":5.39658,"is_reserved":false,"is_disabled":false,"rental_uris":{"android":"levelo://app?vid=ab24a954-34a3-48ed-808a-51904da89fe4","ios":"levelo://app?vid=ab24a954-34a3-48ed-808a-51904da89fe4"},"vehicle_type_id":"4","last_reported":1726647128,"current_range_meters":34800,"station_id":"ce4bho12rcd13ifvqh2g","pricing_plan_id":"cebpf4jnsgd1na2vs0mg"},{"bike_id":"8e41cc4c-2cbd-40c3-ade1-7adedce84308","system_id":"levelo_inurba_marseille","lat":43.30315,"lon":5.36913,"is_reserved":false,"is_disabled":false,"rental_uris":{"android":"levelo://app?vid=8e41cc4c-2cbd-40c3-ade1-7adedce84308","ios":"levelo://app?vid=8e41cc4c-2cbd-40c3-ade1-7adedce84308"},"vehicle_type_id":"4","last_reported":1726647128,"current_range_meters":38000,"station_id":"ce4bgqh2rcd13ifvqc5g","pricing_plan_id":"cebpf4jnsgd1na2vs0mg"},{"bike_id":"b187b778-7dcb-4c55-aada-f63bc08ef26d","system_id":"levelo_inurba_marseille","lat":43.33022,"lon":5.39043,"is_reserved":false,"is_disabled":false,"rental_uris":{"android":"levelo://app?vid=b187b778-7dcb-4c55-aada-f63bc08ef26d","ios":"levelo://app?vid=b187b778-7dcb-4c55-aada-f63bc08ef26d"},"vehicle_type_id":"4","last_reported":1726647128,"current_range_meters":35600,"station_id":"ce4bhr92rcd13ifvqhrg","pricing_plan_id":"cebpf4jnsgd1na2vs0mg"},{"bike_id":"a13b8302-4ea2-4c29-8731-e0e42e68149a","system_id":"levelo_inurba_marseille","lat":43.32289,"lon":5.38276,"is_reserved":false,"is_disabled":false,"rental_uris":{"android":"levelo://app?vid=a13b8302-4ea2-4c29-8731-e0e42e68149a","ios":"levelo://app?vid=a13b8302-4ea2-4c29-8731-e0e42e68149a"},"vehicle_type_id":"4","last_reported":1726647128,"current_range_meters":40000,"station_id":"ce4bhr12rcd13ifvqhqg","pricing_plan_id":"cebpf4jnsgd1na2vs0mg"},{"bike_id":"ba18b907-3678-4cbf-b957-7c6dc3cf3b56","system_id":"levelo_inurba_marseille","lat":43.27498,"lon":5.42453,"is_reserved":false,"is_disabled":false,"rental_uris":{"android":"levelo://app?vid=ba18b907-3678-4cbf-b957-7c6dc3cf3b56","ios":"levelo://app?vid=ba18b907-3678-4cbf-b957-7c6dc3cf3b56"},"vehicle_type_id":"4","last_reported":1726647128,"current_range_meters":3600,"station_id":"ce4bhn92rcd13ifvqgrg","pricing_plan_id":"cebpf4jnsgd1na2vs0mg"},{"bike_id":"90034644-4eb8-40b2-a917-64f9fcde00f7","system_id":"levelo_inurba_marseille","lat":43.30492,"lon":5.37927,"is_reserved":false,"is_disabled":false,"rental_uris":{"android":"levelo://app?vid=90034644-4eb8-40b2-a917-64f9fcde00f7","ios":"levelo://app?vid=90034644-4eb8-40b2-a917-64f9fcde00f7"},"vehicle_type_id":"4","last_reported":1726647128,"current_range_meters":39200,"station_id":"ce4bgup2rcd13ifvqcn0","pricing_plan_id":"cebpf4jnsgd1na2vs0mg"},{"bike_id":"0d4f4d36-7eb2-45af-8c4c-48c3cb8876d8","system_id":"levelo_inurba_marseille","lat":43.29376,"lon":5.37867,"is_reserved":false,"is_disabled":false,"rental_uris":{"android":"levelo://app?vid=0d4f4d36-7eb2-45af-8c4c-48c3cb8876d8","ios":"levelo://app?vid=0d4f4d36-7eb2-45af-8c4c-48c3cb8876d8"},"vehicle_type_id":"4","last_reported":1726647128,"current_range_meters":33200,"station_id":"ce4bgjh2rcd13ifvqbf0","pricing_plan_id":"cebpf4jnsgd1na2vs0mg"},{"bike_id":"cbaf03bf-0340-4293-a424-18d0ef0b595f","system_id":"levelo_inurba_marseille","lat":43.29902,"lon":5.43663,"is_reserved":false,"is_disabled":false,"rental_uris":{"android":"levelo://app?vid=cbaf03bf-0340-4293-a424-18d0ef0b595f","ios":"levelo://app?vid=cbaf03bf-0340-4293-a424-18d0ef0b595f"},"vehicle_type_id":"4","last_reported":1726647128,"current_range_meters":17200,"station_id":"ce4bhpp2rcd13ifvqhfg","pricing_plan_id":"cebpf4jnsgd1na2vs0mg"},{"bike_id":"f1118400-7748-4e25-b506-ce3a5b6cbc39","system_id":"levelo_inurba_marseille","lat":43.259181,"lon":5.39524,"is_reserved":false,"is_disabled":false,"rental_uris":{"android":"levelo://app?vid=f1118400-7748-4e25-b506-ce3a5b6cbc39","ios":"levelo://app?vid=f1118400-7748-4e25-b506-ce3a5b6cbc39"},"vehicle_type_id":"4","last_reported":1726647128,"current_range_meters":38800,"station_id":"ce4bhh12rcd13ifvqff0","pricing_plan_id":"cebpf4jnsgd1na2vs0mg"},{"bike_id":"7b658259-df67-42c8-a0c3-d096cc6551d8","system_id":"levelo_inurba_marseille","lat":43.3055,"lon":5.36535,"is_reserved":false,"is_disabled":false,"rental_uris":{"android":"levelo://app?vid=7b658259-df67-42c8-a0c3-d096cc6551d8","ios":"levelo://app?vid=7b658259-df67-42c8-a0c3-d096cc6551d8"},"vehicle_type_id":"4","last_reported":1726647128,"current_range_meters":28800,"station_id":"ce4bgs12rcd13ifvqcag","pricing_plan_id":"cebpf4jnsgd1na2vs0mg"},{"bike_id":"bbc79cb4-4676-417f-b577-5eb7912639d9","system_id":"levelo_inurba_marseille","lat":43.31355,"lon":5.36696,"is_reserved":false,"is_disabled":false,"rental_uris":{"android":"levelo://app?vid=bbc79cb4-4676-417f-b577-5eb7912639d9","ios":"levelo://app?vid=bbc79cb4-4676-417f-b577-5eb7912639d9"},"vehicle_type_id":"4","last_reported":1726647128,"current_range_meters":30800,"station_id":"ce4bgr92rcd13ifvqc6g","pricing_plan_id":"cebpf4jnsgd1na2vs0mg"},{"bike_id":"54eccf0a-626a-4c3e-a34b-2d2d03cdb4eb","system_id":"levelo_inurba_marseille","lat":43.28092,"lon":5.3966,"is_reserved":false,"is_disabled":false,"rental_uris":{"android":"levelo://app?vid=54eccf0a-626a-4c3e-a34b-2d2d03cdb4eb","ios":"levelo://app?vid=54eccf0a-626a-4c3e-a34b-2d2d03cdb4eb"},"vehicle_type_id":"4","last_reported":1726647128,"current_range_meters":6000,"station_id":"ce4bho12rcd13ifvqh2g","pricing_plan_id":"cebpf4jnsgd1na2vs0mg"},{"bike_id":"d8e751ce-68d8-4843-af31-f29be99d953d","system_id":"levelo_inurba_marseille","lat":43.2396,"lon":5.36634,"is_reserved":false,"is_disabled":false,"rental_uris":{"android":"levelo://app?vid=d8e751ce-68d8-4843-af31-f29be99d953d","ios":"levelo://app?vid=d8e751ce-68d8-4843-af31-f29be99d953d"},"vehicle_type_id":"4","last_reported":1726647128,"current_range_meters":8800,"station_id":"ce4bhi12rcd13ifvqfp0","pricing_plan_id":"cebpf4jnsgd1na2vs0mg"},{"bike_id":"29fb8db0-bc72-45e8-9718-014b21f653e2","system_id":"levelo_inurba_marseille","lat":43.30544,"lon":5.36545,"is_reserved":false,"is_disabled":false,"rental_uris":{"android":"levelo://app?vid=29fb8db0-bc72-45e8-9718-014b21f653e2","ios":"levelo://app?vid=29fb8db0-bc72-45e8-9718-014b21f653e2"},"vehicle_type_id":"4","last_reported":1726647128,"current_range_meters":36800,"station_id":"ce4bgs12rcd13ifvqcag","pricing_plan_id":"cebpf4jnsgd1na2vs0mg"},{"bike_id":"a28e2668-aa90-4c07-9a87-9b12806dcc1d","system_id":"levelo_inurba_marseille","lat":43.3091,"lon":5.36845,"is_reserved":false,"is_disabled":false,"rental_uris":{"android":"levelo://app?vid=a28e2668-aa90-4c07-9a87-9b12806dcc1d","ios":"levelo://app?vid=a28e2668-aa90-4c07-9a87-9b12806dcc1d"},"vehicle_type_id":"4","last_reported":1726647128,"current_range_meters":34000,"station_id":"ce4bgn92rcd13ifvqbvg","pricing_plan_id":"cebpf4jnsgd1na2vs0mg"},{"bike_id":"82b54b4a-eb3e-4981-8831-a339b435a1ba","system_id":"levelo_inurba_marseille","lat":43.28855,"lon":5.3586,"is_reserved":false,"is_disabled":false,"rental_uris":{"android":"levelo://app?vid=82b54b4a-eb3e-4981-8831-a339b435a1ba","ios":"levelo://app?vid=82b54b4a-eb3e-4981-8831-a339b435a1ba"},"vehicle_type_id":"4","last_reported":1726647128,"current_range_meters":39200,"station_id":"ce4bhb12rcd13ifvqem0","pricing_plan_id":"cebpf4jnsgd1na2vs0mg"},{"bike_id":"b2250297-a31a-4363-8ded-b394c9680dd9","system_id":"levelo_inurba_marseille","lat":43.30541,"lon":5.36692,"is_reserved":false,"is_disabled":false,"rental_uris":{"android":"levelo://app?vid=b2250297-a31a-4363-8ded-b394c9680dd9","ios":"levelo://app?vid=b2250297-a31a-4363-8ded-b394c9680dd9"},"vehicle_type_id":"4","last_reported":1726647128,"current_range_meters":30400,"station_id":"ce4bgrp2rcd13ifvqc9g","pricing_plan_id":"cebpf4jnsgd1na2vs0mg"},{"bike_id":"c58b33a0-2e42-4f1a-853f-2589818eb46d","system_id":"levelo_inurba_marseille","lat":43.32537,"lon":5.41449,"is_reserved":false,"is_disabled":false,"rental_uris":{"android":"levelo://app?vid=c58b33a0-2e42-4f1a-853f-2589818eb46d","ios":"levelo://app?vid=c58b33a0-2e42-4f1a-853f-2589818eb46d"},"vehicle_type_id":"4","last_reported":1726647128,"current_range_meters":30000,"station_id":"ce4bhq12rcd13ifvqhhg","pricing_plan_id":"cebpf4jnsgd1na2vs0mg"},{"bike_id":"a225e308-9f3b-4239-997c-85b47c044156","system_id":"levelo_inurba_marseille","lat":43.25935,"lon":5.40906,"is_reserved":false,"is_disabled":false,"rental_uris":{"android":"levelo://app?vid=a225e308-9f3b-4239-997c-85b47c044156","ios":"levelo://app?vid=a225e308-9f3b-4239-997c-85b47c044156"},"vehicle_type_id":"4","last_reported":1726647128,"current_range_meters":30400,"station_id":"ce4bhm92rcd13ifvqglg","pricing_plan_id":"cebpf4jnsgd1na2vs0mg"},{"bike_id":"2627c787-5dd5-4606-9b27-c6eddf762743","system_id":"levelo_inurba_marseille","lat":43.30458,"lon":5.37916,"is_reserved":false,"is_disabled":false,"rental_uris":{"android":"levelo://app?vid=2627c787-5dd5-4606-9b27-c6eddf762743","ios":"levelo://app?vid=2627c787-5dd5-4606-9b27-c6eddf762743"},"vehicle_type_id":"4","last_reported":1726647128,"current_range_meters":40000,"station_id":"ce4bgup2rcd13ifvqcn0","pricing_plan_id":"cebpf4jnsgd1na2vs0mg"},{"bike_id":"90dc9334-37c5-4c26-929b-eb58f91e7366","system_id":"levelo_inurba_marseille","lat":43.24066,"lon":5.37755,"is_reserved":false,"is_disabled":false,"rental_uris":{"android":"levelo://app?vid=90dc9334-37c5-4c26-929b-eb58f91e7366","ios":"levelo://app?vid=90dc9334-37c5-4c26-929b-eb58f91e7366"},"vehicle_type_id":"4","last_reported":1726647128,"current_range_meters":29600,"station_id":"ce4bhnp2rcd13ifvqgvg","pricing_plan_id":"cebpf4jnsgd1na2vs0mg"},{"bike_id":"c82d7f3c-afe2-4dff-9dcb-16ae1a7b7ae3","system_id":"levelo_inurba_marseille","lat":43.32285,"lon":5.38259,"is_reserved":false,"is_disabled":false,"rental_uris":{"android":"levelo://app?vid=c82d7f3c-afe2-4dff-9dcb-16ae1a7b7ae3","ios":"levelo://app?vid=c82d7f3c-afe2-4dff-9dcb-16ae1a7b7ae3"},"vehicle_type_id":"4","last_reported":1726647128,"current_range_meters":7200,"station_id":"ce4bhr12rcd13ifvqhqg","pricing_plan_id":"cebpf4jnsgd1na2vs0mg"},