{"last_updated":1756408071,"ttl":60,"version":"2.2","data":{"bikes":[{"bike_id":"2074dbdc-38dc-4ef2-9d21-3eb20743b43e","system_id":"levelo_inurba_marseille","lat":43.32336,"lon":5.36712,"is_reserved":false,"is_disabled":false,"rental_uris":{"android":"levelo://app?vid=2074dbdc-38dc-4ef2-9d21-3eb20743b43e","ios":"levelo://app?vid=2074dbdc-38dc-4ef2-9d21-3eb20743b43e"},"vehicle_type_id":"4","last_reported":1756408071,"current_range_meters":2800,"station_id":"ce4bhsh2rcd13ifvqi2g","pricing_plan_id":"cebpf4jnsgd1na2vs0mg"},{"bike_id":"df8e9bca-64b2-498a-8c98-04601e2c04aa","system_id":"levelo_inurba_marseille","lat":43.25334,"lon":5.42179,"is_reserved":false,"is_disabled":false,"rental_uris":{"android":"levelo://app?vid=df8e9bca-64b2-498a-8c98-04601e2c04aa","ios":"levelo://app?vid=df8e9bca-64b2-498a-8c98-04601e2c04aa"},"vehicle_type_id":"4","last_reported":1756408071,"current_range_meters":2800,"station_id":"st_d2m65c5bi1j21697t3ng","pricing_plan_id":"cebpf4jnsgd1na2vs0mg"},{"bike_id":"653a7776-e55e-4ff0-85c0-d89f0c8a571f","system_id":"levelo_inurba_marseille","lat":43.3117,"lon":5.38719,"is_reserved":false,"is_disabled":false,"rental_uris":{"android":"levelo://app?vid=653a7776-e55e-4ff0-85c0-d89f0c8a571f","ios":"levelo://app?vid=653a7776-e55e-4ff0-85c0-d89f0c8a571f"},"vehicle_type_id":"4","last_reported":1756408071,"current_range_meters":2800,"station_id":"ce4bgv12rcd13ifvqcp0","pricing_plan_id":"cebpf4jnsgd1na2vs0mg"},{"bike_id":"9ebbca0f-8b0f-49e0-bbc0-5934ebb0e846","system_id":"levelo_inurba_marseille","lat":43.21188,"lon":5.35064,"is_reserved":false,"is_disabled":false,"rental_uris":{"android":"levelo://app?vid=9ebbca0f-8b0f-49e0-bbc0-5934ebb0e846","ios":"levelo://app?vid=9ebbca0f-8b0f-49e0-bbc0-5934ebb0e846"},"vehicle_type_id":"4","last_reported":1756408071,"current_range_meters":3200,"station_id":"st_cvj6sg6p6f1abm77japg","pricing_plan_id":"cebpf4jnsgd1na2vs0mg"},{"bike_id":"a5da598f-f568-4d98-b87c-631e3d1e9eaa","system_id":"levelo_inurba_marseille","lat":43.288618,"lon":5.393385,"is_reserved":false,"is_disabled":false,"rental_uris":{"android":"levelo://app?vid=a5da598f-f568-4d98-b87c-631e3d1e9eaa","ios":"levelo://app?vid=a5da598f-f568-4d98-b87c-631e3d1e9eaa"},"vehicle_type_id":"4","last_reported":1756408071,"current_range_meters":3200,"station_id":"ce4bh2p2rcd13ifvqdi0","pricing_plan_id":"cebpf4jnsgd1na2vs0mg"},{"bike_id":"51842e17-ef10-4624-a23e-c8a182427991","system_id":"levelo_inurba_marseille","lat":43.3159,"lon":5.38195,"is_reserved":false,"is_disabled":false,"rental_uris":{"android":"levelo://app?vid=51842e17-ef10-4624-a23e-c8a182427991","ios":"levelo://app?vid=51842e17-ef10-4624-a23e-c8a182427991"},"vehicle_type_id":"4","last_reported":1756408071,"current_range_meters":3200,"station_id":"","pricing_plan_id":"cebpf4jnsgd1na2vs0mg"},{"bike_id":"99ad5a98-147a-4e96-b2b6-84112a5bf542","system_id":"levelo_inurba_marseille","lat":43.30126,"lon":5.3986,"is_reserved":false,"is_disabled":false,"rental_uris":{"android":"levelo://app?vid=99ad5a98-147a-4e96-b2b6-84112a5bf542","ios":"levelo://app?vid=99ad5a98-147a-4e96-b2b6-84112a5bf542"},"vehicle_type_id":"4","last_reported":1756408071,"current_range_meters":3200,"station_id":"ce4bh0h2rcd13ifvqd40","pricing_plan_id":"cebpf4jnsgd1na2vs0mg"},{"bike_id":"b937509b-3a5c-4ea0-838b-1bffb8d95da4","system_id":"levelo_inurba_marseille","lat":43.34671,"lon":5.34577,"is_reserved":false,"is_disabled":false,"rental_uris":{"android":"levelo://app?vid=b937509b-3a5c-4ea0-838b-1bffb8d95da4","ios":"levelo://app?vid=b937509b-3a5c-4ea0-838b-1bffb8d95da4"},"vehicle_type_id":"4","last_reported":1756408071,"current_range_meters":3600,"station_id":"","pricing_plan_id":"cebpf4jnsgd1na2vs0mg"},{"bike_id":"4f456c51-7c2f-4b4c-8b94-e0ceab61c84a","system_id":"levelo_inurba_marseille","lat":43.25494,"lon":5.37657,"is_reserved":false,"is_disabled":true,"rental_uris":{"android":"levelo://app?vid=4f456c51-7c2f-4b4c-8b94-e0ceab61c84a","ios":"levelo://app?vid=4f456c51-7c2f-4b4c-8b94-e0ceab61c84a"},"vehicle_type_id":"4","last_reported":1756408071,"current_range_meters":3600,"station_id":"ce4bhh12rcd13ifvqff0","pricing_plan_id":"cebpf4jnsgd1na2vs0mg"},{"bike_id":"21b84314-6c57-4e83-9296-34fe50e7b345","system_id":"levelo_inurba_marseille","lat":43.26495,"lon":5.39548,"is_reserved":false,"is_disabled":false,"rental_uris":{"android":"levelo://app?vid=21b84314-6c57-4e83-9296-34fe50e7b345","ios":"levelo://app?vid=21b84314-6c57-4e83-9296-34fe50e7b345"},"vehicle_type_id":"4","last_reported":1756408071,"current_range_meters":3600,"station_id":"ce4bhi12rcd13ifvqfq0","pricing_plan_id":"cebpf4jnsgd1na2vs0mg"},{"bike_id":"72c1da36-a565-4a4b-b752-800b61994dd4","system_id":"levelo_inurba_marseille","lat":43.30886,"lon":5.39654,"is_reserved":false,"is_disabled":false,"rental_uris":{"android":"levelo://app?vid=72c1da36-a565-4a4b-b752-800b61994dd4","ios":"levelo://app?vid=72c1da36-a565-4a4b-b752-800b61994dd4"},"vehicle_type_id":"4","last_reported":1756408071,"current_range_meters":3600,"station_id":"ce4bh012rcd13ifvqcv0","pricing_plan_id":"cebpf4jnsgd1na2vs0mg"},{"bike_id":"b7f5d4fc-8af5-442f-b471-e28f343fd67e","system_id":"levelo_inurba_marseille","lat":43.33756,"lon":5.37496,"is_reserved":false,"is_disabled":false,"rental_uris":{"android":"levelo://app?vid=b7f5d4fc-8af5-442f-b471-e28f343fd67e","ios":"levelo://app?vid=b7f5d4fc-8af5-442f-b471-e28f343fd67e"},"vehicle_type_id":"4","last_reported":1756408071,"current_range_meters":3600,"station_id":"","pricing_plan_id":"cebpf4jnsgd1na2vs0mg"},{"bike_id":"69a01144-4cb0-4f43-b8a7-d8bba1210d75","system_id":"levelo_inurba_marseille","lat":43.31578,"lon":5.37439,"is_reserved":false,"is_disabled":false,"rental_uris":{"android":"levelo://app?vid=69a01144-4cb0-4f43-b8a7-d8bba1210d75","ios":"levelo://app?vid=69a01144-4cb0-4f43-b8a7-d8bba1210d75"},"vehicle_type_id":"4","last_reported":1756408071,"current_range_meters":4000,"station_id":"","pricing_plan_id":"cebpf4jnsgd1na2vs0mg"},{"bike_id":"17ed809c-d3b9-4122-ae06-43a9880ae032","system_id":"levelo_inurba_marseille","lat":43.29623,"lon":5.3772,"is_reserved":false,"is_disabled":false,"rental_uris":{"android":"levelo://app?vid=17ed809c-d3b9-4122-ae06-43a9880ae032","ios":"levelo://app?vid=17ed809c-d3b9-4122-ae06-43a9880ae032"},"vehicle_type_id":"4","last_reported":1756408071,"current_range_meters":4000,"station_id":"ce4bgi92rcd13ifvqb90","pricing_plan_id":"cebpf4jnsgd1na2vs0mg"},{"bike_id":"4b6e022c-2665-4ab6-8e5c-39884b067dd4","system_id":"levelo_inurba_marseille","lat":43.278107,"lon":5.407134,"is_reserved":false,"is_disabled":false,"rental_uris":{"android":"levelo://app?vid=4b6e022c-2665-4ab6-8e5c-39884b067dd4","ios":"levelo://app?vid=4b6e022c-2665-4ab6-8e5c-39884b067dd4"},"vehicle_type_id":"4","last_reported":1756408071,"current_range_meters":4400,"station_id":"ce4bhnh2rcd13ifvqgtg","pricing_plan_id":"cebpf4jnsgd1na2vs0mg"},{"bike_id":"cb672ba3-24e6-49a6-8a24-127e4302a188","system_id":"levelo_inurba_marseille","lat":43.330106,"lon":5.392805,"is_reserved":false,"is_disabled":false,"rental_uris":{"android":"levelo://app?vid=cb672ba3-24e6-49a6-8a24-127e4302a188","ios":"levelo://app?vid=cb672ba3-24e6-49a6-8a24-127e4302a188"},"vehicle_type_id":"4","last_reported":1756408071,"current_range_meters":4800,"station_id":"","pricing_plan_id":"cebpf4jnsgd1na2vs0mg"},{"bike_id":"c3dcabf5-1faa-494c-81d6-ac5ebc9a866e","system_id":"levelo_inurba_marseille","lat":43.27959,"lon":5.38717,"is_reserved":false,"is_disabled":false,"rental_uris":{"android":"levelo://app?vid=c3dcabf5-1faa-494c-81d6-ac5ebc9a866e","ios":"levelo://app?vid=c3dcabf5-1faa-494c-81d6-ac5ebc9a866e"},"vehicle_type_id":"4","last_reported":1756408071,"current_range_meters":4800,"station_id":"ce4bhg12rcd13ifvqf80","pricing_plan_id":"cebpf4jnsgd1na2vs0mg"},{"bike_id":"1419129e-f0de-4052-abf1-7e5e3f2a2700","system_id":"levelo_inurba_marseille","lat":43.293691,"lon":5.378452,"is_reserved":false,"is_disabled":true,"rental_uris":{"android":"levelo://app?vid=1419129e-f0de-4052-abf1-7e5e3f2a2700","ios":"levelo://app?vid=1419129e-f0de-4052-abf1-7e5e3f2a2700"},"vehicle_type_id":"4","last_reported":1756408071,"current_range_meters":5600,"station_id":"ce4bgjh2rcd13ifvqbf0","pricing_plan_id":"cebpf4jnsgd1na2vs0mg"},{"bike_id":"a40269a8-315c-4d8d-9f6c-e12f2b1f5ae5","system_id":"levelo_inurba_marseille","lat":43.28613,"lon":5.35108,"is_reserved":false,"is_disabled":false,"rental_uris":{"android":"levelo://app?vid=a40269a8-315c-4d8d-9f6c-e12f2b1f5ae5","ios":"levelo://app?vid=a40269a8-315c-4d8d-9f6c-e12f2b1f5ae5"},"vehicle_type_id":"4","last_reported":1756408071,"current_range_meters":6000,"station_id":"ce4bhch2rcd13ifvqeug","pricing_plan_id":"cebpf4jnsgd1na2vs0mg"},{"bike_id":"5bce688b-fc81-4596-8277-b66f54be87c1","system_id":"levelo_inurba_marseille","lat":43.337645,"lon":5.374409,"is_reserved":false,"is_disabled":false,"rental_uris":{"android":"levelo://app?vid=5bce688b-fc81-4596-8277-b66f54be87c1","ios":"levelo://app?vid=5bce688b-fc81-4596-8277-b66f54be87c1"},"vehicle_type_id":"4","last_reported":1756408071,"current_range_meters":6000,"station_id":"","pricing_plan_id":"cebpf4jnsgd1na2vs0mg"},{"bike_id":"24f5aa1f-2f94-4f26-8f26-0f5d3cb057f4","system_id":"levelo_inurba_marseille","lat":43.28735,"lon":5.42653,"is_reserved":false,"is_disabled":false,"rental_uris":{"android":"levelo://app?vid=24f5aa1f-2f94-4f26-8f26-0f5d3cb057f4","ios":"levelo://app?vid=24f5aa1f-2f94-4f26-8f26-0f5d3cb057f4"},"vehicle_type_id":"4","last_reported":1756408071,"current_range_meters":6000,"station_id":"","pricing_plan_id":"cebpf4jnsgd1na2vs0mg"},{"bike_id":"2040ce20-4607-4cb3-a6f9-8b28fd247ecd","system_id":"levelo_inurba_marseille","lat":43.31164,"lon":5.38719,"is_reserved":false,"is_disabled":false,"rental_uris":{"android":"levelo://app?vid=2040ce20-4607-4cb3-a6f9-8b28fd247ecd","ios":"levelo://app?vid=2040ce20-4607-4cb3-a6f9-8b28fd247ecd"},"vehicle_type_id":"4","last_reported":1756408071,"current_range_meters":6000,"station_id":"ce4bgv12rcd13ifvqcp0","pricing_plan_id":"cebpf4jnsgd1na2vs0mg"},{"bike_id":"5d65dcbc-ee93-42f0-ac7e-066cf73464d5","system_id":"levelo_inurba_marseille","lat":43.31171,"lon":5.38725,"is_reserved":false,"is_disabled":false,"rental_uris":{"android":"levelo://app?vid=5d65dcbc-ee93-42f0-ac7e-066cf73464d5","ios":"levelo://app?vid=5d65dcbc-ee93-42f0-ac7e-066cf73464d5"},"vehicle_type_id":"4","last_reported":1756408071,"current_range_meters":6000,"station_id":"ce4bgv12rcd13ifvqcp0","pricing_plan_id":"cebpf4jnsgd1na2vs0mg"},{"bike_id":"42a68f5a-0976-423b-9658-99b70a53c92d","system_id":"levelo_inurba_marseille","lat":43.28463,"lon":5.35881,"is_reserved":false,"is_disabled":false,"rental_uris":{"android":"levelo://app?vid=42a68f5a-0976-423b-9658-99b70a53c92d","ios":"levelo://app?vid=42a68f5a-0976-423b-9658-99b70a53c92d"},"vehicle_type_id":"4","last_reported":1756408071,"current_range_meters":6000,"station_id":"ce4bhah2rcd13ifvqei0","pricing_plan_id":"cebpf4jnsgd1na2vs0mg"},{"bike_id":"abfd4e64-2469-4dfb-b790-8f1b7efde8a9","system_id":"levelo_inurba_marseille","lat":43.32111,"lon":5.36771,"is_reserved":false,"is_disabled":false,"rental_uris":{"android":"levelo://app?vid=abfd4e64-2469-4dfb-b790-8f1b7efde8a9","ios":"levelo://app?vid=abfd4e64-2469-4dfb-b790-8f1b7efde8a9"},"vehicle_type_id":"4","last_reported":1756408071,"current_range_meters":6400,"station_id":"ce4bhrh2rcd13ifvqhug","pricing_plan_id":"cebpf4jnsgd1na2vs0mg"},{"bike_id":"7f05ad8c-438d-4676-8123-9fc424f76c8a","system_id":"levelo_inurba_marseille","lat":43.26603,"lon":5.38206,"is_reserved":false,"is_disabled":false,"rental_uris":{"android":"levelo://app?vid=7f05ad8c-438d-4676-8123-9fc424f76c8a","ios":"levelo://app?vid=7f05ad8c-438d-4676-8123-9fc424f76c8a"},"vehicle_type_id":"4","last_reported":1756408071,"current_range_meters":6400,"station_id":"","pricing_plan_id":"cebpf4jnsgd1na2vs0mg"},{"bike_id":"e5eabf25-4e1c-476e-b130-9f83cdcfc80c","system_id":"levelo_inurba_marseille","lat":43.29793,"lon":5.41724,"is_reserved":false,"is_disabled":false,"rental_uris":{"android":"levelo://app?vid=e5eabf25-4e1c-476e-b130-9f83cdcfc80c","ios":"levelo://app?vid=e5eabf25-4e1c-476e-b130-9f83cdcfc80c"},"vehicle_type_id":"4","last_reported":1756408071,"current_range_meters":6800,"station_id":"","pricing_plan_id":"cebpf4jnsgd1na2vs0mg"},{"bike_id":"f08ab2bb-18fd-417a-b5fb-ae40b4971d4a","system_id":"levelo_inurba_marseille","lat":43.30788,"lon":5.38167,"is_reserved":false,"is_disabled":false,"rental_uris":{"android":"levelo://app?vid=f08ab2bb-18fd-417a-b5fb-ae40b4971d4a","ios":"levelo://app?vid=f08ab2bb-18fd-417a-b5fb-ae40b4971d4a"},"vehicle_type_id":"4","last_reported":1756408071,"current_range_meters":6800,"station_id":"ce4bgt12rcd13ifvqce0","pricing_plan_id":"cebpf4jnsgd1na2vs0mg"},{"bike_id":"a6ef8657-5b8a-423b-993f-c3df43dec0a0","system_id":"levelo_inurba_marseille","lat":43.337595,"lon":5.374806,"is_reserved":false,"is_disabled":false,"rental_uris":{"android":"levelo://app?vid=a6ef8657-5b8a-423b-993f-c3df43dec0a0","ios":"levelo://app?vid=a6ef8657-5b8a-423b-993f-c3df43dec0a0"},"vehicle_type_id":"4","last_reported":1756408071,"current_range_meters":6800,"station_id":"","pricing_plan_id":"cebpf4jnsgd1na2vs0mg"},{"bike_id":"c4723c8e-a1b3-42fe-ba37-3819ecbd263f","system_id":"levelo_inurba_marseille","lat":43.28078,"lon":5.39662,"is_reserved":false,"is_disabled":false,"rental_uris":{"android":"levelo://app?vid=c4723c8e-a1b3-42fe-ba37-3819ecbd263f","ios":"levelo://app?vid=c4723c8e-a1b3-42fe-ba37-3819ecbd263f"},"vehicle_type_id":"4","last_reported":1756408071,"current_range_meters":6800,"station_id":"ce4bho12rcd13ifvqh2g","pricing_plan_id":"cebpf4jnsgd1na2vs0mg"},{"bike_id":"02be3651-2d83-4dc9-aa24-1fd25c85c866","system_id":"levelo_inurba_marseille","lat":43.29255,"lon":5.38423,"is_reserved":false,"is_disabled":false,"rental_uris":{"android":"levelo://app?vid=02be3651-2d83-4dc9-aa24-1fd25c85c866","ios":"levelo://app?vid=02be3651-2d83-4dc9-aa24-1fd25c85c866"},"vehicle_type_id":"4","last_reported":1756408071,"current_range_meters":7200,"station_id":"ce4bh692rcd13ifvqea0","pricing_plan_id":"cebpf4jnsgd1na2vs0mg"},{"bike_id":"bf0360ab-8370-49d4-ae7c-8cfae75bc32f","system_id":"levelo_inurba_marseille","lat":43.30958,"lon":5.39044,"is_reserved":false,"is_disabled":false,"rental_uris":{"android":"levelo://app?vid=bf0360ab-8370-49d4-ae7c-8cfae75bc32f","ios":"levelo://app?vid=bf0360ab-8370-49d4-ae7c-8cfae75bc32f"},"vehicle_type_id":"4","last_reported":1756408071,"current_range_meters":7200,"station_id":"ce4bgup2rcd13ifvqco0","pricing_plan_id":"cebpf4jnsgd1na2vs0mg"},{"bike_id":"cfada518-0305-4d16-88fb-77c02c482f06","system_id":"levelo_inurba_marseille","lat":43.24388,"lon":5.37059,"is_reserved":false,"is_disabled":false,"rental_uris":{"android":"levelo://app?vid=cfada518-0305-4d16-88fb-77c02c482f06","ios":"levelo://app?vid=cfada518-0305-4d16-88fb-77c02c482f06"},"vehicle_type_id":"4","last_reported":1756408071,"current_range_meters":7200,"station_id":"ce4bhhh2rcd13ifvqfk0","pricing_plan_id":"cebpf4jnsgd1na2vs0mg"},{"bike_id":"e36ab571-6b83-4012-910d-c8ac275ef467","system_id":"levelo_inurba_marseille","lat":43.294562,"lon":5.374092,"is_reserved":false,"is_disabled":false,"rental_uris":{"android":"levelo://app?vid=e36ab571-6b83-4012-910d-c8ac275ef467","ios":"levelo://app?vid=e36ab571-6b83-4012-910d-c8ac275ef467"},"vehicle_type_id":"4","last_reported":1756408071,"current_range_meters":8000,"station_id":"","pricing_plan_id":"cebpf4jnsgd1na2vs0mg"},{"bike_id":"efe669b9-0471-4958-8171-6c8a68f13ab9","system_id":"levelo_inurba_marseille","lat":43.24657,"lon":5.38162,"is_reserved":false,"is_disabled":false,"rental_uris":{"android":"levelo://app?vid=efe669b9-0471-4958-8171-6c8a68f13ab9","ios":"levelo://app?vid=efe669b9-0471-4958-8171-6c8a68f13ab9"},"vehicle_type_id":"4","last_reported":1756408071,"current_range_meters":8000,"station_id":"ce4bhih2rcd13ifvqfr0","pricing_plan_id":"cebpf4jnsgd1na2vs0mg"},{"bike_id":"3112c5b1-5bf0-4519-9ffe-2129aab64368","system_id":"levelo_inurba_marseille","lat":43.313041,"lon":5.385252,"is_reserved":false,"is_disabled":false,"rental_uris":{"android":"levelo://app?vid=3112c5b1-5bf0-4519-9ffe-2129aab64368","ios":"levelo://app?vid=3112c5b1-5bf0-4519-9ffe-2129aab64368"},"vehicle_type_id":"4","last_reported":1756408071,"current_range_meters":8000,"station_id":"ce4bgt92rcd13ifvqcf0","pricing_plan_id":"cebpf4jnsgd1na2vs0mg"},{"bike_id":"589bb86c-e266-4d8f-ba4d-a27e09398c45","system_id":"levelo_inurba_marseille","lat":43.24543,"lon":5.39537,"is_reserved":false,"is_disabled":false,"rental_uris":{"android":"levelo://app?vid=589bb86c-e266-4d8f-ba4d-a27e09398c45","ios":"levelo://app?vid=589bb86c-e266-4d8f-ba4d-a27e09398c45"},"vehicle_type_id":"4","last_reported":1756408071,"current_range_meters":12000,"station_id":"ce4bhlp2rcd13ifvqgjg","pricing_plan_id":"cebpf4jnsgd1na2vs0mg"},{"bike_id":"3ebbe411-c9ad-41ae-9df5-ad5b7601336c","system_id":"levelo_inurba_marseille","lat":43.26023,"lon":5.37577,"is_reserved":false,"is_disabled":true,"rental_uris":{"android":"levelo://app?vid=3ebbe411-c9ad-41ae-9df5-ad5b7601336c","ios":"levelo://app?vid=3ebbe411-c9ad-41ae-9df5-ad5b7601336c"},"vehicle_type_id":"4","last_reported":1756408071,"current_range_meters":8400,"station_id":"ce4bhgh2rcd13ifvqfa0","pricing_plan_id":"cebpf4jnsgd1na2vs0mg"},{"bike_id":"5cb4ad77-acd6-4d46-b82a-44b4638409c9","system_id":"levelo_inurba_marseille","lat":43.30918,"lon":5.40159,"is_reserved":false,"is_disabled":false,"rental_uris":{"android":"levelo://app?vid=5cb4ad77-acd6-4d46-b82a-44b4638409c9","ios":"levelo://app?vid=5cb4ad77-acd6-4d46-b82a-44b4638409c9"},"vehicle_type_id":"4","last_reported":1756408071,"current_range_meters":8400,"station_id":"ce4bgvp2rcd13ifvqct0","pricing_plan_id":"cebpf4jnsgd1na2vs0mg"},{"bike_id":"fa93611a-cc05-4640-bd5f-493a514b0c76","system_id":"levelo_inurba_marseille","lat":43.32844,"lon":5.39164,"is_reserved":false,"is_disabled":false,"rental_uris":{"android":"levelo://app?vid=fa93611a-cc05-4640-bd5f-493a514b0c76","ios":"levelo://app?vid=fa93611a-cc05-4640-bd5f-493a514b0c76"},"vehicle_type_id":"4","last_reported":1756408071,"current_range_meters":8400,"station_id":"","pricing_plan_id":"cebpf4jnsgd1na2vs0mg"},{"bike_id":"d46d5cd5-a180-495d-bc45-4aced6e37227","system_id":"levelo_inurba_marseille","lat":43.31161,"lon":5.38726,"is_reserved":false,"is_disabled":false,"rental_uris":{"android":"levelo://app?vid=d46d5cd5-a180-495d-bc45-4aced6e37227","ios":"levelo://app?vid=d46d5cd5-a180-495d-bc45-4aced6e37227"},"vehicle_type_id":"4","last_reported":1756408071,"current_range_meters":8000,"station_id":"ce4bgv12rcd13ifvqcp0","pricing_plan_id":"cebpf4jnsgd1na2vs0mg"},{"bike_id":"452c64c1-c18e-429f-ac02-5f3cc7af3941","system_id":"levelo_inurba_marseille","lat":43.21736,"lon":5.3463,"is_reserved":false,"is_disabled":false,"rental_uris":{"android":"levelo://app?vid=452c64c1-c18e-429f-ac02-5f3cc7af3941","ios":"levelo://app?vid=452c64c1-c18e-429f-ac02-5f3cc7af3941"},"vehicle_type_id":"4","last_reported":1756408071,"current_range_meters":8400,"station_id":"st_cvj6r9ubvosntc0bgbag","pricing_plan_id":"cebpf4jnsgd1na2vs0mg"},{"bike_id":"0e40d996-37ff-4e7d-9f59-200bad2fb5ec","system_id":"levelo_inurba_marseille","lat":43.30958,"lon":5.38934,"is_reserved":false,"is_disabled":false,"rental_uris":{"android":"levelo://app?vid=0e40d996-37ff-4e7d-9f59-200bad2fb5ec","ios":"levelo://app?vid=0e40d996-37ff-4e7d-9f59-200bad2fb5ec"},"vehicle_type_id":"4","last_reported":1756408071,"current_range_meters":8400,"station_id":"","pricing_plan_id":"cebpf4jnsgd1na2vs0mg"},{"bike_id":"2ca5adfb-92cc-4ef8-bc3b-4f4881e97b66","system_id":"levelo_inurba_marseille","lat":43.26543,"lon":5.37301,"is_reserved":false,"is_disabled":false,"rental_uris":{"android":"levelo://app?vid=2ca5adfb-92cc-4ef8-bc3b-4f4881e97b66","ios":"levelo://app?vid=2ca5adfb-92cc-4ef8-bc3b-4f4881e97b66"},"vehicle_type_id":"4","last_reported":1756408071,"current_range_meters":8800,"station_id":"ce4bhg12rcd13ifvqf70","pricing_plan_id":"cebpf4jnsgd1na2vs0mg"},{"bike_id":"e05a46aa-fed2-4085-b039-aab1f833536d","system_id":"levelo_inurba_marseille","lat":43.27809,"lon":5.40712,"is_reserved":false,"is_disabled":false,"rental_uris":{"android":"levelo://app?vid=e05a46aa-fed2-4085-b039-aab1f833536d","ios":"levelo://app?vid=e05a46aa-fed2-4085-b039-aab1f833536d"},"vehicle_type_id":"4","last_reported":1756408071,"current_range_meters":8800,"station_id":"ce4bhnh2rcd13ifvqgtg","pricing_plan_id":"cebpf4jnsgd1na2vs0mg"},{"bike_id":"ff6c755b-4c65-4a5c-a3f0-b46f11c72c22","system_id":"levelo_inurba_marseille","lat":43.293,"lon":5.37461,"is_reserved":false,"is_disabled":false,"rental_uris":{"android":"levelo://app?vid=ff6c755b-4c65-4a5c-a3f0-b46f11c72c22","ios":"levelo://app?vid=ff6c755b-4c65-4a5c-a3f0-b46f11c72c22"},"vehicle_type_id":"4","last_reported":1756408071,"current_range_meters":8800,"station_id":"ce4bgi12rcd13ifvqb70","pricing_plan_id":"cebpf4jnsgd1na2vs0mg"},{"bike_id":"716ed592-229b-43e0-90b7-e86b511e5a79","system_id":"levelo_inurba_marseille","lat":43.26494,"lon":5.39539,"is_reserved":false,"is_disabled":false,"rental_uris":{"android":"levelo://app?vid=716ed592-229b-43e0-90b7-e86b511e5a79","ios":"levelo://app?vid=716ed592-229b-43e0-90b7-e86b511e5a79"},"vehicle_type_id":"4","last_reported":1756408071,"current_range_meters":9200,"station_id":"ce4bhi12rcd13ifvqfq0","pricing_plan_id":"cebpf4jnsgd1na2vs0mg"},{"bike_id":"891a0553-a302-4a05-88fb-1d9d6eda3df6","system_id":"levelo_inurba_marseille","lat":43.294373,"lon":5.397445,"is_reserved":false,"is_disabled":false,"rental_uris":{"android":"levelo://app?vid=891a0553-a302-4a05-88fb-1d9d6eda3df6","ios":"levelo://app?vid=891a0553-a302-4a05-88fb-1d9d6eda3df6"},"vehicle_type_id":"4","last_reported":1756408071,"current_range_meters":9200,"station_id":"ce4bh3h2rcd13ifvqdo0","pricing_plan_id":"cebpf4jnsgd1na2vs0mg"},{"bike_id":"35f1dd69-ebc0-42e4-b9b5-015deec687d1","system_id":"levelo_inurba_marseille","lat":43.29874,"lon":5.38905,"is_reserved":false,"is_disabled":false,"rental_uris":{"android":"levelo://app?vid=35f1dd69-ebc0-42e4-b9b5-015deec687d1","ios":"levelo://app?vid=35f1dd69-ebc0-42e4-b9b5-015deec687d1"},"vehicle_type_id":"4","last_reported":1756408071,"current_range_meters":9200,"station_id":"ce4bh392rcd13ifvqdl0","pricing_plan_id":"cebpf4jnsgd1na2vs0mg"},{"bike_id":"5c26a54e-1e97-4ad3-a16d-614ad930b130","system_id":"levelo_inurba_marseille","lat":43.32107,"lon":5.36769,"is_reserved":false,"is_disabled":false,"rental_uris":{"android":"levelo://app?vid=5c26a54e-1e97-4ad3-a16d-614ad930b130","ios":"levelo://app?vid=5c26a54e-1e97-4ad3-a16d-614ad930b130"},"vehicle_type_id":"4","last_reported":1756408071,"current_range_meters":9600,"station_id":"ce4bhrh2rcd13ifvqhug","pricing_plan_id":"cebpf4jnsgd1na2vs0mg"},{"bike_id":"77156377-48e3-4434-b0ee-2f71280534b9","system_id":"levelo_inurba_marseille","lat":43.27245,"lon":5.41069,"is_reserved":false,"is_disabled":false,"rental_uris":{"android":"levelo://app?vid=77156377-48e3-4434-b0ee-2f71280534b9","ios":"levelo://app?vid=77156377-48e3-4434-b0ee-2f71280534b9"},"vehicle_type_id":"4","last_reported":1756408071,"current_range_meters":9600,"station_id":"","pricing_plan_id":"cebpf4jnsgd1na2vs0mg"},{"bike_id":"d1519a34-899d-47cd-b130-36151142ec6a","system_id":"levelo_inurba_marseille","lat":43.30959,"lon":5.39036,"is_reserved":false,"is_disabled":false,"rental_uris":{"android":"levelo://app?vid=d1519a34-899d-47cd-b130-36151142ec6a","ios":"levelo://app?vid=d1519a34-899d-47cd-b130-36151142ec6a"},"vehicle_type_id":"4","last_reported":1756408071,"current_range_meters":9600,"station_id":"ce4bgup2rcd13ifvqco0","pricing_plan_id":"cebpf4jnsgd1na2vs0mg"},{"bike_id":"3091e42a-5528-4881-bef2-02a10038c1e8","system_id":"levelo_inurba_marseille","lat":43.27295,"lon":5.36287,"is_reserved":false,"is_disabled":false,"rental_uris":{"android":"levelo://app?vid=3091e42a-5528-4881-bef2-02a10038c1e8","ios":"levelo://app?vid=3091e42a-5528-4881-bef2-02a10038c1e8"},"vehicle_type_id":"4","last_reported":1756408071,"current_range_meters":9600,"station_id":"","pricing_plan_id":"cebpf4jnsgd1na2vs0mg"},{"bike_id":"ac0ea835-99bd-43af-8946-31e8413cf1fb","system_id":"levelo_inurba_marseille","lat":43.32485,"lon":5.365755,"is_reserved":false,"is_disabled":false,"rental_uris":{"android":"levelo://app?vid=ac0ea835-99bd-43af-8946-31e8413cf1fb","ios":"levelo://app?vid=ac0ea835-99bd-43af-8946-31e8413cf1fb"},"vehicle_type_id":"4","last_reported":1756408071,"current_range_meters":10000,"station_id":"ce4bhs12rcd13ifvqhvg","pricing_plan_id":"cebpf4jnsgd1na2vs0mg"},{"bike_id":"0e0f5646-80a8-4ec1-aa2c-096c20500cd1","system_id":"levelo_inurba_marseille","lat":43.2621,"lon":5.37462,"is_reserved":false,"is_disabled":false,"rental_uris":{"android":"levelo://app?vid=0e0f5646-80a8-4ec1-aa2c-096c20500cd1","ios":"levelo://app?vid=0e0f5646-80a8-4ec1-aa2c-096c20500cd1"},"vehicle_type_id":"4","last_reported":1756408071,"current_range_meters":10000,"station_id":"ce4bhgp2rcd13ifvqfc0","pricing_plan_id":"cebpf4jnsgd1na2vs0mg"},{"bike_id":"f987ed70-b6f2-4df9-b5bd-5f715fe036ba","system_id":"levelo_inurba_marseille","lat":43.30591,"lon":5.37221,"is_reserved":false,"is_disabled":true,"rental_uris":{"android":"levelo://app?vid=f987ed70-b6f2-4df9-b5bd-5f715fe036ba","ios":"levelo://app?vid=f987ed70-b6f2-4df9-b5bd-5f715fe036ba"},"vehicle_type_id":"4","last_reported":1756408071,"current_range_meters":10000,"station_id":"ce4bgqh2rcd13ifvqc4g","pricing_plan_id":"cebpf4jnsgd1na2vs0mg"},{"bike_id":"f7a2179c-cd49-45ed-8da5-3081a248002f","system_id":"levelo_inurba_marseille","lat":43.295279,"lon":5.390392,"is_reserved":false,"is_disabled":false,"rental_uris":{"android":"levelo://app?vid=f7a2179c-cd49-45ed-8da5-3081a248002f","ios":"levelo://app?vid=f7a2179c-cd49-45ed-8da5-3081a248002f"},"vehicle_type_id":"4","last_reported":1756408071,"current_range_meters":10800,"station_id":"ce4bh3p2rcd13ifvqdp0","pricing_plan_id":"cebpf4jnsgd1na2vs0mg"},{"bike_id":"e4d67059-97ed-4ebb-b162-dca3cf14c2bb","system_id":"levelo_inurba_marseille","lat":43.30925,"lon":5.40166,"is_reserved":false,"is_disabled":false,"rental_uris":{"android":"levelo://app?vid=e4d67059-97ed-4ebb-b162-dca3cf14c2bb","ios":"levelo://app?vid=e4d67059-97ed-4ebb-b162-dca3cf14c2bb"},"vehicle_type_id":"4","last_reported":1756408071,"current_range_meters":10000,"station_id":"ce4bgvp2rcd13ifvqct0","pricing_plan_id":"cebpf4jnsgd1na2vs0mg"},{"bike_id":"72ad73f8-ec78-4d1c-adef-5e4bde17ed13","system_id":"levelo_inurba_marseille","lat":43.28237,"lon":5.39067,"is_reserved":false,"is_disabled":true,"rental_uris":{"android":"levelo://app?vid=72ad73f8-ec78-4d1c-adef-5e4bde17ed13","ios":"levelo://app?vid=72ad73f8-ec78-4d1c-adef-5e4bde17ed13"},"vehicle_type_id":"4","last_reported":1756408071,"current_range_meters":10000,"station_id":"","pricing_plan_id":"cebpf4jnsgd1na2vs0mg"},{"bike_id":"eac21b68-e95f-45f0-9945-70bab5808277","system_id":"levelo_inurba_marseille","lat":43.29966,"lon":5.38503,"is_reserved":false,"is_disabled":false,"rental_uris":{"android":"levelo://app?vid=eac21b68-e95f-45f0-9945-70bab5808277","ios":"levelo://app?vid=eac21b68-e95f-45f0-9945-70bab5808277"},"vehicle_type_id":"4","last_reported":1756408071,"current_range_meters":8400,"station_id":"ce4bgj92rcd13ifvqbd0","pricing_plan_id":"cebpf4jnsgd1na2vs0mg"},{"bike_id":"2eb60852-b14a-4d52-b2f0-b983e23e2ddf","system_id":"levelo_inurba_marseille","lat":43.211785,"lon":5.350856,"is_reserved":false,"is_disabled":false,"rental_uris":{"android":"levelo://app?vid=2eb60852-b14a-4d52-b2f0-b983e23e2ddf","ios":"levelo://app?vid=2eb60852-b14a-4d52-b2f0-b983e23e2ddf"},"vehicle_type_id":"4","last_reported":1756408071,"current_range_meters":10000,"station_id":"st_cvj6sg6p6f1abm77japg","pricing_plan_id":"cebpf4jnsgd1na2vs0mg"},{"bike_id":"606ca01d-b63b-4767-8434-263dff04f5d1","system_id":"levelo_inurba_marseille","lat":43.31352,"lon":5.38519,"is_reserved":false,"is_disabled":false,"rental_uris":{"android":"levelo://app?vid=606ca01d-b63b-4767-8434-263dff04f5d1","ios":"levelo://app?vid=606ca01d-b63b-4767-8434-263dff04f5d1"},"vehicle_type_id":"4","last_reported":1756408071,"current_range_meters":10800,"station_id":"ce4bgt92rcd13ifvqcf0","pricing_plan_id":"cebpf4jnsgd1na2vs0mg"},{"bike_id":"aac9728a-5e4c-4786-b919-958f941e5c75","system_id":"levelo_inurba_marseille","lat":43.29787,"lon":5.38096,"is_reserved":false,"is_disabled":false,"rental_uris":{"android":"levelo://app?vid=aac9728a-5e4c-4786-b919-958f941e5c75","ios":"levelo://app?vid=aac9728a-5e4c-4786-b919-958f941e5c75"},"vehicle_type_id":"4","last_reported":1756408071,"current_range_meters":10800,"station_id":"ce4bgip2rcd13ifvqbb0","pricing_plan_id":"cebpf4jnsgd1na2vs0mg"},{"bike_id":"ce83596d-a3f8-4b42-b59d-f1d61cbc518e","system_id":"levelo_inurba_marseille","lat":43.30644,"lon":5.40085,"is_reserved":false,"is_disabled":false,"rental_uris":{"android":"levelo://app?vid=ce83596d-a3f8-4b42-b59d-f1d61cbc518e","ios":"levelo://app?vid=ce83596d-a3f8-4b42-b59d-f1d61cbc518e"},"vehicle_type_id":"4","last_reported":1756408071,"current_range_meters":10800,"station_id":"ce4bh112rcd13ifvqda0","pricing_plan_id":"cebpf4jnsgd1na2vs0mg"},{"bike_id":"baf23113-7082-4065-a6eb-ae0f8cc08033","system_id":"levelo_inurba_marseille","lat":43.32363,"lon":5.36727,"is_reserved":false,"is_disabled":false,"rental_uris":{"android":"levelo://app?vid=baf23113-7082-4065-a6eb-ae0f8cc08033","ios":"levelo://app?vid=baf23113-7082-4065-a6eb-ae0f8cc08033"},"vehicle_type_id":"4","last_reported":1756408071,"current_range_meters":10800,"station_id":"ce4bhsh2rcd13ifvqi2g","pricing_plan_id":"cebpf4jnsgd1na2vs0mg"},{"bike_id":"825f99ee-02a3-46e4-8dd8-870f14d345a8","system_id":"levelo_inurba_marseille","lat":43.22501,"lon":5.34759,"is_reserved":false,"is_disabled":true,"rental_uris":{"android":"levelo://app?vid=825f99ee-02a3-46e4-8dd8-870f14d345a8","ios":"levelo://app?vid=825f99ee-02a3-46e4-8dd8-870f14d345a8"},"vehicle_type_id":"4","last_reported":1756408071,"current_range_meters":11200,"station_id":"","pricing_plan_id":"cebpf4jnsgd1na2vs0mg"},{"bike_id":"23ae6fed-deff-411b-8b6e-f95e32ccd4d0","system_id":"levelo_inurba_marseille","lat":43.321304,"lon":5.367669,"is_reserved":false,"is_disabled":false,"rental_uris":{"android":"levelo://app?vid=23ae6fed-deff-411b-8b6e-f95e32ccd4d0","ios":"levelo://app?vid=23ae6fed-deff-411b-8b6e-f95e32ccd4d0"},"vehicle_type_id":"4","last_reported":1756408071,"current_range_meters":11200,"station_id":"ce4bhrh2rcd13ifvqhug","pricing_plan_id":"cebpf4jnsgd1na2vs0mg"},{"bike_id":"d810acf0-5bd2-4bf1-848d-31cd30d105e6","system_id":"levelo_inurba_marseille","lat":43.269831,"lon":5.392782,"is_reserved":false,"is_disabled":false,"rental_uris":{"android":"levelo://app?vid=d810acf0-5bd2-4bf1-848d-31cd30d105e6","ios":"levelo://app?vid=d810acf0-5bd2-4bf1-848d-31cd30d105e6"},"vehicle_type_id":"4","last_reported":1756408071,"current_range_meters":11200,"station_id":"","pricing_plan_id":"cebpf4jnsgd1na2vs0mg"},{"bike_id":"be8aa754-85f9-40a1-9e90-c9882863c890","system_id":"levelo_inurba_marseille","lat":43.26026,"lon":5.375541,"is_reserved":false,"is_disabled":false,"rental_uris":{"android":"levelo://app?vid=be8aa754-85f9-40a1-9e90-c9882863c890","ios":"levelo://app?vid=be8aa754-85f9-40a1-9e90-c9882863c890"},"vehicle_type_id":"4","last_reported":1756408071,"current_range_meters":11200,"station_id":"ce4bhgh2rcd13ifvqfa0","pricing_plan_id":"cebpf4jnsgd1na2vs0mg"},{"bike_id":"c6f61b9d-de63-4b76-9dcd-07cf4f641387","system_id":"levelo_inurba_marseille","lat":43.24812,"lon":5.37465,"is_reserved":false,"is_disabled":false,"rental_uris":{"android":"levelo://app?vid=c6f61b9d-de63-4b76-9dcd-07cf4f641387","ios":"levelo://app?vid=c6f61b9d-de63-4b76-9dcd-07cf4f641387"},"vehicle_type_id":"4","last_reported":1756408071,"current_range_meters":11200,"station_id":"ce4bhgh2rcd13ifvqfb0","pricing_plan_id":"cebpf4jnsgd1na2vs0mg"},{"bike_id":"ab9441cc-8053-4e92-8409-e2df6cea2911","system_id":"levelo_inurba_marseille","lat":43.26409,"lon":5.37861,"is_reserved":false,"is_disabled":false,"rental_uris":{"android":"levelo://app?vid=ab9441cc-8053-4e92-8409-e2df6cea2911","ios":"levelo://app?vid=ab9441cc-8053-4e92-8409-e2df6cea2911"},"vehicle_type_id":"4","last_reported":1756408071,"current_range_meters":11200,"station_id":"","pricing_plan_id":"cebpf4jnsgd1na2vs0mg"},{"bike_id":"84239937-6126-4402-8397-ac364b20f6e5","system_id":"levelo_inurba_marseille","lat":43.26027,"lon":5.37556,"is_reserved":false,"is_disabled":false,"rental_uris":{"android":"levelo://app?vid=84239937-6126-4402-8397-ac364b20f6e5","ios":"levelo://app?vid=84239937-6126-4402-8397-ac364b20f6e5"},"vehicle_type_id":"4","last_reported":1756408071,"current_range_meters":11200,"station_id":"ce4bhgh2rcd13ifvqfa0","pricing_plan_id":"cebpf4jnsgd1na2vs0mg"},{"bike_id":"90bd0e81-df96-4161-ad61-5fc35b77fbce","system_id":"levelo_inurba_marseille","lat":43.25337,"lon":5.42172,"is_reserved":false,"is_disabled":false,"rental_uris":{"android":"levelo://app?vid=90bd0e81-df96-4161-ad61-5fc35b77fbce","ios":"levelo://app?vid=90bd0e81-df96-4161-ad61-5fc35b77fbce"},"vehicle_type_id":"4","last_reported":1756408071,"current_range_meters":11600,"station_id":"st_d2m65c5bi1j21697t3ng","pricing_plan_id":"cebpf4jnsgd1na2vs0mg"},{"bike_id":"7ed71dc3-f92c-46ee-8595-134bf4f84245","system_id":"levelo_inurba_marseille","lat":43.2649,"lon":5.39541,"is_reserved":false,"is_disabled":false,"rental_uris":{"android":"levelo://app?vid=7ed71dc3-f92c-46ee-8595-134bf4f84245","ios":"levelo://app?vid=7ed71dc3-f92c-46ee-8595-134bf4f84245"},"vehicle_type_id":"4","last_reported":1756408071,"current_range_meters":11600,"station_id":"ce4bhi12rcd13ifvqfq0","pricing_plan_id":"cebpf4jnsgd1na2vs0mg"},{"bike_id":"d3463736-6f79-49f4-bb94-b7d077f27a86","system_id":"levelo_inurba_marseille","lat":43.26546,"lon":5.37288,"is_reserved":false,"is_disabled":false,"rental_uris":{"android":"levelo://app?vid=d3463736-6f79-49f4-bb94-b7d077f27a86","ios":"levelo://app?vid=d3463736-6f79-49f4-bb94-b7d077f27a86"},"vehicle_type_id":"4","last_reported":1756408071,"current_range_meters":11600,"station_id":"ce4bhg12rcd13ifvqf70","pricing_plan_id":"cebpf4jnsgd1na2vs0mg"},{"bike_id":"614d961d-149b-4f71-81e8-def5ddc72ba4","system_id":"levelo_inurba_marseille","lat":43.26548,"lon":5.37283,"is_reserved":false,"is_disabled":false,"rental_uris":{"android":"levelo://app?vid=614d961d-149b-4f71-81e8-def5ddc72ba4","ios":"levelo://app?vid=614d961d-149b-4f71-81e8-def5ddc72ba4"},"vehicle_type_id":"4","last_reported":1756408071,"current_range_meters":11600,"station_id":"ce4bhg12rcd13ifvqf70","pricing_plan_id":"cebpf4jnsgd1na2vs0mg"},{"bike_id":"ae4082ae-29ba-46e3-920a-8e56d78259ff","system_id":"levelo_inurba_marseille","lat":43.29188,"lon":5.39325,"is_reserved":false,"is_disabled":false,"rental_uris":{"android":"levelo://app?vid=ae4082ae-29ba-46e3-920a-8e56d78259ff","ios":"levelo://app?vid=ae4082ae-29ba-46e3-920a-8e56d78259ff"},"vehicle_type_id":"4","last_reported":1756408071,"current_range_meters":11600,"station_id":"ce4bh192rcd13ifvqdd0","pricing_plan_id":"cebpf4jnsgd1na2vs0mg"},{"bike_id":"ffeb5e56-4655-4746-a2a6-8fd18785a813","system_id":"levelo_inurba_marseille","lat":43.28406,"lon":5.34996,"is_reserved":false,"is_disabled":false,"rental_uris":{"android":"levelo://app?vid=ffeb5e56-4655-4746-a2a6-8fd18785a813","ios":"levelo://app?vid=ffeb5e56-4655-4746-a2a6-8fd18785a813"},"vehicle_type_id":"4","last_reported":1756408071,"current_range_meters":11600,"station_id":"ce4bhbh2rcd13ifvqepg","pricing_plan_id":"cebpf4jnsgd1na2vs0mg"},{"bike_id":"e38b56e7-df93-4b5c-baf0-78277aab0858","system_id":"levelo_inurba_marseille","lat":43.28021,"lon":5.36935,"is_reserved":false,"is_disabled":false,"rental_uris":{"android":"levelo://app?vid=e38b56e7-df93-4b5c-baf0-78277aab0858","ios":"levelo://app?vid=e38b56e7-df93-4b5c-baf0-78277aab0858"},"vehicle_type_id":"4","last_reported":1756408071,"current_range_meters":12000,"station_id":"ce4bha12rcd13ifvqef0","pricing_plan_id":"cebpf4jnsgd1na2vs0mg"},{"bike_id":"cb91c844-ac41-4e89-b839-012376694645","system_id":"levelo_inurba_marseille","lat":43.27058,"lon":5.40258,"is_reserved":false,"is_disabled":false,"rental_uris":{"android":"levelo://app?vid=cb91c844-ac41-4e89-b839-012376694645","ios":"levelo://app?vid=cb91c844-ac41-4e89-b839-012376694645"},"vehicle_type_id":"4","last_reported":1756408071,"current_range_meters":12000,"station_id":"ce4bhk92rcd13ifvqgc0","pricing_plan_id":"cebpf4jnsgd1na2vs0mg"},{"bike_id":"381ee211-9cbc-4e3b-a668-6f098f82d140","system_id":"levelo_inurba_marseille","lat":43.255102,"lon":5.376512,"is_reserved":false,"is_disabled":false,"rental_uris":{"android":"levelo://app?vid=381ee211-9cbc-4e3b-a668-6f098f82d140","ios":"levelo://app?vid=381ee211-9cbc-4e3b-a668-6f098f82d140"},"vehicle_type_id":"4","last_reported":1756408071,"current_range_meters":12000,"station_id":"ce4bhh12rcd13ifvqff0","pricing_plan_id":"cebpf4jnsgd1na2vs0mg"},{"bike_id":"895845f9-f281-4154-a5e1-9a7f811db8c8","system_id":"levelo_inurba_marseille","lat":43.29273,"lon":5.38425,"is_reserved":false,"is_disabled":false,"rental_uris":{"android":"levelo://app?vid=895845f9-f281-4154-a5e1-9a7f811db8c8","ios":"levelo://app?vid=895845f9-f281-4154-a5e1-9a7f811db8c8"},"vehicle_type_id":"4","last_reported":1756408071,"current_range_meters":12000,"station_id":"ce4bh692rcd13ifvqea0","pricing_plan_id":"cebpf4jnsgd1na2vs0mg"},{"bike_id":"8f976093-1744-4d2a-abc9-825ee1f174a3","system_id":"levelo_inurba_marseille","lat":43.29554,"lon":5.42296,"is_reserved":false,"is_disabled":false,"rental_uris":{"android":"levelo://app?vid=8f976093-1744-4d2a-abc9-825ee1f174a3","ios":"levelo://app?vid=8f976093-1744-4d2a-abc9-825ee1f174a3"},"vehicle_type_id":"4","last_reported":1756408071,"current_range_meters":12000,"station_id":"ce4bhph2rcd13ifvqhdg","pricing_plan_id":"cebpf4jnsgd1na2vs0mg"},{"bike_id":"8b8094a4-3c1a-4128-af67-1462f88377a7","system_id":"levelo_inurba_marseille","lat":43.26544,"lon":5.37304,"is_reserved":false,"is_disabled":false,"rental_uris":{"android":"levelo://app?vid=8b8094a4-3c1a-4128-af67-1462f88377a7","ios":"levelo://app?vid=8b8094a4-3c1a-4128-af67-1462f88377a7"},"vehicle_type_id":"4","last_reported":1756408071,"current_range_meters":12000,"station_id":"ce4bhg12rcd13ifvqf70","pricing_plan_id":"cebpf4jnsgd1na2vs0mg"},{"bike_id":"5f8c8bf6-e335-486a-83ce-3dfc019eea06","system_id":"levelo_inurba_marseille","lat":43.29895,"lon":5.43671,"is_reserved":false,"is_disabled":false,"rental_uris":{"android":"levelo://app?vid=5f8c8bf6-e335-486a-83ce-3dfc019eea06","ios":"levelo://app?vid=5f8c8bf6-e335-486a-83ce-3dfc019eea06"},"vehicle_type_id":"4","last_reported":1756408071,"current_range_meters":12400,"station_id":"ce4bhpp2rcd13ifvqhfg","pricing_plan_id":"cebpf4jnsgd1na2vs0mg"},{"bike_id":"b120685c-108e-4265-8cc9-bd1672ce1565","system_id":"levelo_inurba_marseille","lat":43.29903,"lon":5.38145,"is_reserved":false,"is_disabled":false,"rental_uris":{"android":"levelo://app?vid=b120685c-108e-4265-8cc9-bd1672ce1565","ios":"levelo://app?vid=b120685c-108e-4265-8cc9-bd1672ce1565"},"vehicle_type_id":"4","last_reported":1756408071,"current_range_meters":12000,"station_id":"ce4bgj12rcd13ifvqbc0","pricing_plan_id":"cebpf4jnsgd1na2vs0mg"},{"bike_id":"640385a7-adad-49b1-83fe-0ca533b94615","system_id":"levelo_inurba_marseille","lat":43.29606,"lon":5.37171,"is_reserved":false,"is_disabled":false,"rental_uris":{"android":"levelo://app?vid=640385a7-adad-49b1-83fe-0ca533b94615","ios":"levelo://app?vid=640385a7-adad-49b1-83fe-0ca533b94615"},"vehicle_type_id":"4","last_reported":1756408071,"current_range_meters":12400,"station_id":"ce4bgnh2rcd13ifvqc0g","pricing_plan_id":"cebpf4jnsgd1na2vs0mg"},{"bike_id":"1091f287-02ee-4a66-888b-59c35fd65791","system_id":"levelo_inurba_marseille","lat":43.23194,"lon":5.3556,"is_reserved":false,"is_disabled":false,"rental_uris":{"android":"levelo://app?vid=1091f287-02ee-4a66-888b-59c35fd65791","ios":"levelo://app?vid=1091f287-02ee-4a66-888b-59c35fd65791"},"vehicle_type_id":"4","last_reported":1756408071,"current_range_meters":12400,"station_id":"ce4bhu92rcd13ifvqi70","pricing_plan_id":"cebpf4jnsgd1na2vs0mg"},{"bike_id":"1a13208d-acaf-4bc5-a7c2-10d1d51a2794","system_id":"levelo_inurba_marseille","lat":43.2904,"lon":5.369365,"is_reserved":false,"is_disabled":false,"rental_uris":{"android":"levelo://app?vid=1a13208d-acaf-4bc5-a7c2-10d1d51a2794","ios":"levelo://app?vid=1a13208d-acaf-4bc5-a7c2-10d1d51a2794"},"vehicle_type_id":"4","last_reported":1756408071,"current_range_meters":12400,"station_id":"ce4bgn12rcd13ifvqbt0","pricing_plan_id":"cebpf4jnsgd1na2vs0mg"},{"bike_id":"3a1deab3-0532-4736-a2c3-92c6f56a8e38","system_id":"levelo_inurba_marseille","lat":43.28699,"lon":5.39988,"is_reserved":false,"is_disabled":false,"rental_uris":{"android":"levelo://app?vid=3a1deab3-0532-4736-a2c3-92c6f56a8e38","ios":"levelo://app?vid=3a1deab3-0532-4736-a2c3-92c6f56a8e38"},"vehicle_type_id":"4","last_reported":1756408071,"current_range_meters":12400,"station_id":"ce4bho92rcd13ifvqh3g","pricing_plan_id":"cebpf4jnsgd1na2vs0mg"},{"bike_id":"4216e33a-7dae-4583-942b-2b9da6ed76ec","system_id":"levelo_inurba_marseille","lat":43.29881,"lon":5.43659,"is_reserved":false,"is_disabled":false,"rental_uris":{"android":"levelo://app?vid=4216e33a-7dae-4583-942b-2b9da6ed76ec","ios":"levelo://app?vid=4216e33a-7dae-4583-942b-2b9da6ed76ec"},"vehicle_type_id":"4","last_reported":1756408071,"current_range_meters":12400,"station_id":"ce4bhpp2rcd13ifvqhfg","pricing_plan_id":"cebpf4jnsgd1na2vs0mg"},{"bike_id":"60fbbec4-285c-477e-a281-c23baf61881f","system_id":"levelo_inurba_marseille","lat":43.29862,"lon":5.39744,"is_reserved":false,"is_disabled":false,"rental_uris":{"android":"levelo://app?vid=60fbbec4-285c-477e-a281-c23baf61881f","ios":"levelo://app?vid=60fbbec4-285c-477e-a281-c23baf61881f"},"vehicle_type_id":"4","last_reported":1756408071,"current_range_meters":12800,"station_id":"ce4bh0h2rcd13ifvqd50","pricing_plan_id":"cebpf4jnsgd1na2vs0mg"},{"bike_id":"f3d2ebc1-fd31-4cd7-a1dc-648b1c4517fa","system_id":"levelo_inurba_marseille","lat":43.26543,"lon":5.3729,"is_reserved":false,"is_disabled":false,"rental_uris":{"android":"levelo://app?vid=f3d2ebc1-fd31-4cd7-a1dc-648b1c4517fa","ios":"levelo://app?vid=f3d2ebc1-fd31-4cd7-a1dc-648b1c4517fa"},"vehicle_type_id":"4","last_reported":1756408071,"current_range_meters":12800,"station_id":"","pricing_plan_id":"cebpf4jnsgd1na2vs0mg"},{"bike_id":"57bb0382-6c93-4539-971c-86046b9ae3e9","system_id":"levelo_inurba_marseille","lat":43.26206,"lon":5.37923,"is_reserved":false,"is_disabled":false,"rental_uris":{"android":"levelo://app?vid=57bb0382-6c93-4539-971c-86046b9ae3e9","ios":"levelo://app?vid=57bb0382-6c93-4539-971c-86046b9ae3e9"},"vehicle_type_id":"4","last_reported":1756408071,"current_range_meters":12800,"station_id":"ce4bhjp2rcd13ifvqg90","pricing_plan_id":"cebpf4jnsgd1na2vs0mg"},{"bike_id":"731ff345-1377-45e9-acf9-0825f15b172a","system_id":"levelo_inurba_marseille","lat":43.22921,"lon":5.35388,"is_reserved":false,"is_disabled":false,"rental_uris":{"android":"levelo://app?vid=731ff345-1377-45e9-acf9-0825f15b172a","ios":"levelo://app?vid=731ff345-1377-45e9-acf9-0825f15b172a"},"vehicle_type_id":"4","last_reported":1756408071,"current_range_meters":12800,"station_id":"cpo3532slgdg3j2ikp40","pricing_plan_id":"cebpf4jnsgd1na2vs0mg"},{"bike_id":"3f7000a9-1766-49c7-aeb5-5cee2b44c6ba","system_id":"levelo_inurba_marseille","lat":43.29269,"lon":5.3843,"is_reserved":false,"is_disabled":false,"rental_uris":{"android":"levelo://app?vid=3f7000a9-1766-49c7-aeb5-5cee2b44c6ba","ios":"levelo://app?vid=3f7000a9-1766-49c7-aeb5-5cee2b44c6ba"},"vehicle_type_id":"4","last_reported":1756408071,"current_range_meters":12800,"station_id":"ce4bh692rcd13ifvqea0","pricing_plan_id":"cebpf4jnsgd1na2vs0mg"},{"bike_id":"4aafde4b-f6ff-4031-847f-1d335dcb1932","system_id":"levelo_inurba_marseille","lat":43.2586,"lon":5.39896,"is_reserved":false,"is_disabled":true,"rental_uris":{"android":"levelo://app?vid=4aafde4b-f6ff-4031-847f-1d335dcb1932","ios":"levelo://app?vid=4aafde4b-f6ff-4031-847f-1d335dcb1932"},"vehicle_type_id":"4","last_reported":1756408071,"current_range_meters":12800,"station_id":"ce4bhl92rcd13ifvqghg","pricing_plan_id":"cebpf4jnsgd1na2vs0mg"},{"bike_id":"b9a2bbbb-69ac-40be-bf46-27119ee9c404","system_id":"levelo_inurba_marseille","lat":43.25345,"lon":5.42203,"is_reserved":false,"is_disabled":false,"rental_uris":{"android":"levelo://app?vid=b9a2bbbb-69ac-40be-bf46-27119ee9c404","ios":"levelo://app?vid=b9a2bbbb-69ac-40be-bf46-27119ee9c404"},"vehicle_type_id":"4","last_reported":1756408071,"current_range_meters":12800,"station_id":"st_d2m65c5bi1j21697t3ng","pricing_plan_id":"cebpf4jnsgd1na2vs0mg"},{"bike_id":"5a0289e4-1e74-4e40-947d-048d3d726641","system_id":"levelo_inurba_marseille","lat":43.31176,"lon":5.38722,"is_reserved":false,"is_disabled":false,"rental_uris":{"android":"levelo://app?vid=5a0289e4-1e74-4e40-947d-048d3d726641","ios":"levelo://app?vid=5a0289e4-1e74-4e40-947d-048d3d726641"},"vehicle_type_id":"4","last_reported":1756408071,"current_range_meters":12800,"station_id":"ce4bgv12rcd13ifvqcp0","pricing_plan_id":"cebpf4jnsgd1na2vs0mg"},{"bike_id":"34027ce4-7327-43da-9f66-bdc765f954e3","system_id":"levelo_inurba_marseille","lat":43.295294,"lon":5.375061,"is_reserved":false,"is_disabled":false,"rental_uris":{"android":"levelo://app?vid=34027ce4-7327-43da-9f66-bdc765f954e3","ios":"levelo://app?vid=34027ce4-7327-43da-9f66-bdc765f954e3"},"vehicle_type_id":"4","last_reported":1756408071,"current_range_meters":13600,"station_id":"","pricing_plan_id":"cebpf4jnsgd1na2vs0mg"},{"bike_id":"55ada8f5-b20e-4725-aaa6-0a1771a8fde0","system_id":"levelo_inurba_marseille","lat":43.28926,"lon":5.38396,"is_reserved":false,"is_disabled":false,"rental_uris":{"android":"levelo://app?vid=55ada8f5-b20e-4725-aaa6-0a1771a8fde0","ios":"levelo://app?vid=55ada8f5-b20e-4725-aaa6-0a1771a8fde0"},"vehicle_type_id":"4","last_reported":1756408071,"current_range_meters":12800,"station_id":"ce4bh612rcd13ifvqe6g","pricing_plan_id":"cebpf4jnsgd1na2vs0mg"},{"bike_id":"615f9cb4-bc08-43f1-87ef-884359fe2e39","system_id":"levelo_inurba_marseille","lat":43.323653,"lon":5.36766,"is_reserved":false,"is_disabled":false,"rental_uris":{"android":"levelo://app?vid=615f9cb4-bc08-43f1-87ef-884359fe2e39","ios":"levelo://app?vid=615f9cb4-bc08-43f1-87ef-884359fe2e39"},"vehicle_type_id":"4","last_reported":1756408071,"current_range_meters":13600,"station_id":"ce4bhsh2rcd13ifvqi2g","pricing_plan_id":"cebpf4jnsgd1na2vs0mg"},{"bike_id":"3df5d7ba-61aa-4584-9a4e-9ba0b61ed706","system_id":"levelo_inurba_marseille","lat":43.24071,"lon":5.37754,"is_reserved":false,"is_disabled":false,"rental_uris":{"android":"levelo://app?vid=3df5d7ba-61aa-4584-9a4e-9ba0b61ed706","ios":"levelo://app?vid=3df5d7ba-61aa-4584-9a4e-9ba0b61ed706"},"vehicle_type_id":"4","last_reported":1756408071,"current_range_meters":13600,"station_id":"ce4bhnp2rcd13ifvqgvg","pricing_plan_id":"cebpf4jnsgd1na2vs0mg"},{"bike_id":"ec0f9f0d-0796-42ac-9cf5-bb8596cdf342","system_id":"levelo_inurba_marseille","lat":43.21174,"lon":5.35071,"is_reserved":false,"is_disabled":false,"rental_uris":{"android":"levelo://app?vid=ec0f9f0d-0796-42ac-9cf5-bb8596cdf342","ios":"levelo://app?vid=ec0f9f0d-0796-42ac-9cf5-bb8596cdf342"},"vehicle_type_id":"4","last_reported":1756408071,"current_range_meters":13600,"station_id":"st_cvj6sg6p6f1abm77japg","pricing_plan_id":"cebpf4jnsgd1na2vs0mg"},{"bike_id":"8637e1aa-9c9a-41e1-a5d5-f0342a65118e","system_id":"levelo_inurba_marseille","lat":43.31695,"lon":5.43732,"is_reserved":false,"is_disabled":false,"rental_uris":{"android":"levelo://app?vid=8637e1aa-9c9a-41e1-a5d5-f0342a65118e","ios":"levelo://app?vid=8637e1aa-9c9a-41e1-a5d5-f0342a65118e"},"vehicle_type_id":"4","last_reported":1756408071,"current_range_meters":13600,"station_id":"ce4bhp92rcd13ifvqhcg","pricing_plan_id":"cebpf4jnsgd1na2vs0mg"},{"bike_id":"5abadfda-9b0d-4a2b-b1d6-6f8b58a11589","system_id":"levelo_inurba_marseille","lat":43.2603,"lon":5.37556,"is_reserved":false,"is_disabled":false,"rental_uris":{"android":"levelo://app?vid=5abadfda-9b0d-4a2b-b1d6-6f8b58a11589","ios":"levelo://app?vid=5abadfda-9b0d-4a2b-b1d6-6f8b58a11589"},"vehicle_type_id":"4","last_reported":1756408071,"current_range_meters":13600,"station_id":"ce4bhgh2rcd13ifvqfa0","pricing_plan_id":"cebpf4jnsgd1na2vs0mg"},{"bike_id":"3a2f5063-0ed3-4139-b50b-cacffd5db734","system_id":"levelo_inurba_marseille","lat":43.32369,"lon":5.3649,"is_reserved":false,"is_disabled":false,"rental_uris":{"android":"levelo://app?vid=3a2f5063-0ed3-4139-b50b-cacffd5db734","ios":"levelo://app?vid=3a2f5063-0ed3-4139-b50b-cacffd5db734"},"vehicle_type_id":"4","last_reported":1756408071,"current_range_meters":13600,"station_id":"ce4bhs12rcd13ifvqhvg","pricing_plan_id":"cebpf4jnsgd1na2vs0mg"},{"bike_id":"d1a4ea35-b6c5-4a45-b35b-a4b06696c8cb","system_id":"levelo_inurba_marseille","lat":43.25477,"lon":5.3766,"is_reserved":false,"is_disabled":false,"rental_uris":{"android":"levelo://app?vid=d1a4ea35-b6c5-4a45-b35b-a4b06696c8cb","ios":"levelo://app?vid=d1a4ea35-b6c5-4a45-b35b-a4b06696c8cb"},"vehicle_type_id":"4","last_reported":1756408071,"current_range_meters":14000,"station_id":"ce4bhh12rcd13ifvqff0","pricing_plan_id":"cebpf4jnsgd1na2vs0mg"},{"bike_id":"dee4462b-2fda-4454-90e6-cd671a52515c","system_id":"levelo_inurba_marseille","lat":43.25494,"lon":5.37667,"is_reserved":false,"is_disabled":false,"rental_uris":{"android":"levelo://app?vid=dee4462b-2fda-4454-90e6-cd671a52515c","ios":"levelo://app?vid=dee4462b-2fda-4454-90e6-cd671a52515c"},"vehicle_type_id":"4","last_reported":1756408071,"current_range_meters":14000,"station_id":"ce4bhh12rcd13ifvqff0","pricing_plan_id":"cebpf4jnsgd1na2vs0mg"},{"bike_id":"fc2e6540-f6c0-42d1-9c48-5eca774b396e","system_id":"levelo_inurba_marseille","lat":43.30881,"lon":5.39658,"is_reserved":false,"is_disabled":false,"rental_uris":{"android":"levelo://app?vid=fc2e6540-f6c0-42d1-9c48-5eca774b396e","ios":"levelo://app?vid=fc2e6540-f6c0-42d1-9c48-5eca774b396e"},"vehicle_type_id":"4","last_reported":1756408071,"current_range_meters":14000,"station_id":"ce4bh012rcd13ifvqcv0","pricing_plan_id":"cebpf4jnsgd1na2vs0mg"},{"bike_id":"36e48d5a-910d-47e7-b396-8876fd9af2aa","system_id":"levelo_inurba_marseille","lat":43.2749,"lon":5.42435,"is_reserved":false,"is_disabled":false,"rental_uris":{"android":"levelo://app?vid=36e48d5a-910d-47e7-b396-8876fd9af2aa","ios":"levelo://app?vid=36e48d5a-910d-47e7-b396-8876fd9af2aa"},"vehicle_type_id":"4","last_reported":1756408071,"current_range_meters":14000,"station_id":"ce4bhn92rcd13ifvqgrg","pricing_plan_id":"cebpf4jnsgd1na2vs0mg"},{"bike_id":"8eece06c-1375-46ef-a493-ad81a979139e","system_id":"levelo_inurba_marseille","lat":43.260251,"lon":5.375476,"is_reserved":false,"is_disabled":false,"rental_uris":{"android":"levelo://app?vid=8eece06c-1375-46ef-a493-ad81a979139e","ios":"levelo://app?vid=8eece06c-1375-46ef-a493-ad81a979139e"},"vehicle_type_id":"4","last_reported":1756408071,"current_range_meters":14000,"station_id":"ce4bhgh2rcd13ifvqfa0","pricing_plan_id":"cebpf4jnsgd1na2vs0mg"},{"bike_id":"d0a92e61-7122-4ad6-a0d1-9d37d94ce062","system_id":"levelo_inurba_marseille","lat":43.29715,"lon":5.3905,"is_reserved":false,"is_disabled":false,"rental_uris":{"android":"levelo://app?vid=d0a92e61-7122-4ad6-a0d1-9d37d94ce062","ios":"levelo://app?vid=d0a92e61-7122-4ad6-a0d1-9d37d94ce062"},"vehicle_type_id":"4","last_reported":1756408071,"current_range_meters":14000,"station_id":"","pricing_plan_id":"cebpf4jnsgd1na2vs0mg"},{"bike_id":"9fd26039-479c-44a3-9c11-881ded6c6048","system_id":"levelo_inurba_marseille","lat":43.29803,"lon":5.40409,"is_reserved":false,"is_disabled":false,"rental_uris":{"android":"levelo://app?vid=9fd26039-479c-44a3-9c11-881ded6c6048","ios":"levelo://app?vid=9fd26039-479c-44a3-9c11-881ded6c6048"},"vehicle_type_id":"4","last_reported":1756408071,"current_range_meters":14000,"station_id":"ce4bh112rcd13ifvqd90","pricing_plan_id":"cebpf4jnsgd1na2vs0mg"},{"bike_id":"d087a752-646a-40d9-900a-89103a2e56ce","system_id":"levelo_inurba_marseille","lat":43.28566,"lon":5.39496,"is_reserved":false,"is_disabled":false,"rental_uris":{"android":"levelo://app?vid=d087a752-646a-40d9-900a-89103a2e56ce","ios":"levelo://app?vid=d087a752-646a-40d9-900a-89103a2e56ce"},"vehicle_type_id":"4","last_reported":1756408071,"current_range_meters":14400,"station_id":"ce4bh292rcd13ifvqdg0","pricing_plan_id":"cebpf4jnsgd1na2vs0mg"},{"bike_id":"9f580077-1f31-45de-93ca-320830067964","system_id":"levelo_inurba_marseille","lat":43.29523,"lon":5.37508,"is_reserved":false,"is_disabled":false,"rental_uris":{"android":"levelo://app?vid=9f580077-1f31-45de-93ca-320830067964","ios":"levelo://app?vid=9f580077-1f31-45de-93ca-320830067964"},"vehicle_type_id":"4","last_reported":1756408071,"current_range_meters":14400,"station_id":"ce4bgkp2rcd13ifvqbmg","pricing_plan_id":"cebpf4jnsgd1na2vs0mg"},{"bike_id":"f837d271-acba-4f96-a3b8-3d0885fdf42d","system_id":"levelo_inurba_marseille","lat":43.24069,"lon":5.37761,"is_reserved":false,"is_disabled":false,"rental_uris":{"android":"levelo://app?vid=f837d271-acba-4f96-a3b8-3d0885fdf42d","ios":"levelo://app?vid=f837d271-acba-4f96-a3b8-3d0885fdf42d"},"vehicle_type_id":"4","last_reported":1756408071,"current_range_meters":14400,"station_id":"ce4bhnp2rcd13ifvqgvg","pricing_plan_id":"cebpf4jnsgd1na2vs0mg"},{"bike_id":"d005b541-909d-4c5d-bde1-94285008f478","system_id":"levelo_inurba_marseille","lat":43.32352,"lon":5.36739,"is_reserved":false,"is_disabled":false,"rental_uris":{"android":"levelo://app?vid=d005b541-909d-4c5d-bde1-94285008f478","ios":"levelo://app?vid=d005b541-909d-4c5d-bde1-94285008f478"},"vehicle_type_id":"4","last_reported":1756408071,"current_range_meters":14400,"station_id":"ce4bhsh2rcd13ifvqi2g","pricing_plan_id":"cebpf4jnsgd1na2vs0mg"},{"bike_id":"00865bff-72de-47be-acda-9cf6ec16a836","system_id":"levelo_inurba_marseille","lat":43.32085,"lon":5.36791,"is_reserved":false,"is_disabled":false,"rental_uris":{"android":"levelo://app?vid=00865bff-72de-47be-acda-9cf6ec16a836","ios":"levelo://app?vid=00865bff-72de-47be-acda-9cf6ec16a836"},"vehicle_type_id":"4","last_reported":1756408071,"current_range_meters":14400,"station_id":"ce4bhrh2rcd13ifvqhug","pricing_plan_id":"cebpf4jnsgd1na2vs0mg"},{"bike_id":"e273d1a3-8ea7-4a0f-b072-8fb7a60e2fea","system_id":"levelo_inurba_marseille","lat":43.26031,"lon":5.37547,"is_reserved":false,"is_disabled":false,"rental_uris":{"android":"levelo://app?vid=e273d1a3-8ea7-4a0f-b072-8fb7a60e2fea","ios":"levelo://app?vid=e273d1a3-8ea7-4a0f-b072-8fb7a60e2fea"},"vehicle_type_id":"4","last_reported":1756408071,"current_range_meters":14400,"station_id":"ce4bhgh2rcd13ifvqfa0","pricing_plan_id":"cebpf4jnsgd1na2vs0mg"},{"bike_id":"3d3d4ff4-8e97-421d-9de7-cb8601355549","system_id":"levelo_inurba_marseille","lat":43.29032,"lon":5.38647,"is_reserved":false,"is_disabled":false,"rental_uris":{"android":"levelo://app?vid=3d3d4ff4-8e97-421d-9de7-cb8601355549","ios":"levelo://app?vid=3d3d4ff4-8e97-421d-9de7-cb8601355549"},"vehicle_type_id":"4","last_reported":1756408071,"current_range_meters":14400,"station_id":"ce4bh4p2rcd13ifvqe0g","pricing_plan_id":"cebpf4jnsgd1na2vs0mg"},{"bike_id":"aba408de-f921-4633-8496-98ebb8befe83","system_id":"levelo_inurba_marseille","lat":43.26038,"lon":5.3756,"is_reserved":false,"is_disabled":false,"rental_uris":{"android":"levelo://app?vid=aba408de-f921-4633-8496-98ebb8befe83","ios":"levelo://app?vid=aba408de-f921-4633-8496-98ebb8befe83"},"vehicle_type_id":"4","last_reported":1756408071,"current_range_meters":14400,"station_id":"ce4bhgh2rcd13ifvqfa0","pricing_plan_id":"cebpf4jnsgd1na2vs0mg"},{"bike_id":"fe770f54-600a-47ee-8006-abae966604aa","system_id":"levelo_inurba_marseille","lat":43.29447,"lon":5.39748,"is_reserved":false,"is_disabled":false,"rental_uris":{"android":"levelo://app?vid=fe770f54-600a-47ee-8006-abae966604aa","ios":"levelo://app?vid=fe770f54-600a-47ee-8006-abae966604aa"},"vehicle_type_id":"4","last_reported":1756408071,"current_range_meters":14400,"station_id":"ce4bh3h2rcd13ifvqdo0","pricing_plan_id":"cebpf4jnsgd1na2vs0mg"},{"bike_id":"eebfbe73-f440-4706-b477-601b1f8fe6e6","system_id":"levelo_inurba_marseille","lat":43.24896,"lon":5.37522,"is_reserved":false,"is_disabled":false,"rental_uris":{"android":"levelo://app?vid=eebfbe73-f440-4706-b477-601b1f8fe6e6","ios":"levelo://app?vid=eebfbe73-f440-4706-b477-601b1f8fe6e6"},"vehicle_type_id":"4","last_reported":1756408071,"current_range_meters":14800,"station_id":"","pricing_plan_id":"cebpf4jnsgd1na2vs0mg"},{"bike_id":"e306f905-51f1-4f3b-9f6d-1f7c6ec3ec8a","system_id":"levelo_inurba_marseille","lat":43.26028,"lon":5.39415,"is_reserved":false,"is_disabled":false,"rental_uris":{"android":"levelo://app?vid=e306f905-51f1-4f3b-9f6d-1f7c6ec3ec8a","ios":"levelo://app?vid=e306f905-51f1-4f3b-9f6d-1f7c6ec3ec8a"},"vehicle_type_id":"4","last_reported":1756408071,"current_range_meters":14800,"station_id":"ce4bhh92rcd13ifvqfj0","pricing_plan_id":"cebpf4jnsgd1na2vs0mg"},{"bike_id":"5d3e7999-1302-4fbd-916e-807fee0fcb27","system_id":"levelo_inurba_marseille","lat":43.24178,"lon":5.39725,"is_reserved":false,"is_disabled":false,"rental_uris":{"android":"levelo://app?vid=5d3e7999-1302-4fbd-916e-807fee0fcb27","ios":"levelo://app?vid=5d3e7999-1302-4fbd-916e-807fee0fcb27"},"vehicle_type_id":"4","last_reported":1756408071,"current_range_meters":14800,"station_id":"ce4bhn12rcd13ifvqgpg","pricing_plan_id":"cebpf4jnsgd1na2vs0mg"},{"bike_id":"fb732470-5d35-4da3-b085-3e040cbfc33a","system_id":"levelo_inurba_marseille","lat":43.23186,"lon":5.39992,"is_reserved":false,"is_disabled":false,"rental_uris":{"android":"levelo://app?vid=fb732470-5d35-4da3-b085-3e040cbfc33a","ios":"levelo://app?vid=fb732470-5d35-4da3-b085-3e040cbfc33a"},"vehicle_type_id":"4","last_reported":1756408071,"current_range_meters":14800,"station_id":"ce4bhn12rcd13ifvqgqg","pricing_plan_id":"cebpf4jnsgd1na2vs0mg"},{"bike_id":"03413eb4-a32a-4fe8-81d7-4158e885f93f","system_id":"levelo_inurba_marseille","lat":43.26023,"lon":5.3756,"is_reserved":false,"is_disabled":false,"rental_uris":{"android":"levelo://app?vid=03413eb4-a32a-4fe8-81d7-4158e885f93f","ios":"levelo://app?vid=03413eb4-a32a-4fe8-81d7-4158e885f93f"},"vehicle_type_id":"4","last_reported":1756408071,"current_range_meters":14800,"station_id":"ce4bhgh2rcd13ifvqfa0","pricing_plan_id":"cebpf4jnsgd1na2vs0mg"},{"bike_id":"49e3e0dc-7bc3-4c21-b5e7-64678061068b","system_id":"levelo_inurba_marseille","lat":43.24164,"lon":5.39697,"is_reserved":false,"is_disabled":false,"rental_uris":{"android":"levelo://app?vid=49e3e0dc-7bc3-4c21-b5e7-64678061068b","ios":"levelo://app?vid=49e3e0dc-7bc3-4c21-b5e7-64678061068b"},"vehicle_type_id":"4","last_reported":1756408071,"current_range_meters":14800,"station_id":"ce4bhn12rcd13ifvqgpg","pricing_plan_id":"cebpf4jnsgd1na2vs0mg"},{"bike_id":"0ec9591c-51a6-4eb1-8f48-5f5e4da2120b","system_id":"levelo_inurba_marseille","lat":43.30933,"lon":5.40143,"is_reserved":false,"is_disabled":false,"rental_uris":{"android":"levelo://app?vid=0ec9591c-51a6-4eb1-8f48-5f5e4da2120b","ios":"levelo://app?vid=0ec9591c-51a6-4eb1-8f48-5f5e4da2120b"},"vehicle_type_id":"4","last_reported":1756408071,"current_range_meters":14800,"station_id":"ce4bgvp2rcd13ifvqct0","pricing_plan_id":"cebpf4jnsgd1na2vs0mg"},{"bike_id":"509a96f6-68a9-4801-8a88-d9f4333bab5d","system_id":"levelo_inurba_marseille","lat":43.25716,"lon":5.41101,"is_reserved":false,"is_disabled":false,"rental_uris":{"android":"levelo://app?vid=509a96f6-68a9-4801-8a88-d9f4333bab5d","ios":"levelo://app?vid=509a96f6-68a9-4801-8a88-d9f4333bab5d"},"vehicle_type_id":"4","last_reported":1756408071,"current_range_meters":14800,"station_id":"ce4bhkp2rcd13ifvqgd0","pricing_plan_id":"cebpf4jnsgd1na2vs0mg"},{"bike_id":"1fbcea02-8781-4a15-bf79-e3ffd6314079","system_id":"levelo_inurba_marseille","lat":43.26062,"lon":5.39399,"is_reserved":false,"is_disabled":false,"rental_uris":{"android":"levelo://app?vid=1fbcea02-8781-4a15-bf79-e3ffd6314079","ios":"levelo://app?vid=1fbcea02-8781-4a15-bf79-e3ffd6314079"},"vehicle_type_id":"4","last_reported":1756408071,"current_range_meters":15200,"station_id":"ce4bhh92rcd13ifvqfj0","pricing_plan_id":"cebpf4jnsgd1na2vs0mg"},{"bike_id":"76853953-4750-4c5e-a02d-c060c687f7f4","system_id":"levelo_inurba_marseille","lat":43.2654,"lon":5.37293,"is_reserved":false,"is_disabled":false,"rental_uris":{"android":"levelo://app?vid=76853953-4750-4c5e-a02d-c060c687f7f4","ios":"levelo://app?vid=76853953-4750-4c5e-a02d-c060c687f7f4"},"vehicle_type_id":"4","last_reported":1756408071,"current_range_meters":15200,"station_id":"ce4bhg12rcd13ifvqf70","pricing_plan_id":"cebpf4jnsgd1na2vs0mg"},{"bike_id":"44c41f73-cb4b-45bb-a093-21ef593c4372","system_id":"levelo_inurba_marseille","lat":43.309443,"lon":5.390442,"is_reserved":false,"is_disabled":false,"rental_uris":{"android":"levelo://app?vid=44c41f73-cb4b-45bb-a093-21ef593c4372","ios":"levelo://app?vid=44c41f73-cb4b-45bb-a093-21ef593c4372"},"vehicle_type_id":"4","last_reported":1756408071,"current_range_meters":15200,"station_id":"ce4bgup2rcd13ifvqco0","pricing_plan_id":"cebpf4jnsgd1na2vs0mg"},{"bike_id":"1d6d2e3d-e6be-45f3-9550-08daca30c94e","system_id":"levelo_inurba_marseille","lat":43.23126,"lon":5.43735,"is_reserved":false,"is_disabled":false,"rental_uris":{"android":"levelo://app?vid=1d6d2e3d-e6be-45f3-9550-08daca30c94e","ios":"levelo://app?vid=1d6d2e3d-e6be-45f3-9550-08daca30c94e"},"vehicle_type_id":"4","last_reported":1756408071,"current_range_meters":15200,"station_id":"ce4bhmp2rcd13ifvqgog","pricing_plan_id":"cebpf4jnsgd1na2vs0mg"},{"bike_id":"6a47a780-1076-4ee2-9e3a-c8055eede886","system_id":"levelo_inurba_marseille","lat":43.27973,"lon":5.38743,"is_reserved":false,"is_disabled":false,"rental_uris":{"android":"levelo://app?vid=6a47a780-1076-4ee2-9e3a-c8055eede886","ios":"levelo://app?vid=6a47a780-1076-4ee2-9e3a-c8055eede886"},"vehicle_type_id":"4","last_reported":1756408071,"current_range_meters":15200,"station_id":"ce4bhg12rcd13ifvqf80","pricing_plan_id":"cebpf4jnsgd1na2vs0mg"},{"bike_id":"8a3d08a4-6e22-43fc-a3af-efea32020201","system_id":"levelo_inurba_marseille","lat":43.323625,"lon":5.36772,"is_reserved":false,"is_disabled":false,"rental_uris":{"android":"levelo://app?vid=8a3d08a4-6e22-43fc-a3af-efea32020201","ios":"levelo://app?vid=8a3d08a4-6e22-43fc-a3af-efea32020201"},"vehicle_type_id":"4","last_reported":1756408071,"current_range_meters":15200,"station_id":"ce4bhsh2rcd13ifvqi2g","pricing_plan_id":"cebpf4jnsgd1na2vs0mg"},{"bike_id":"e9fc8b6e-9de1-4885-8ffc-e26149c08de1","system_id":"levelo_inurba_marseille","lat":43.26025,"lon":5.37556,"is_reserved":false,"is_disabled":false,"rental_uris":{"android":"levelo://app?vid=e9fc8b6e-9de1-4885-8ffc-e26149c08de1","ios":"levelo://app?vid=e9fc8b6e-9de1-4885-8ffc-e26149c08de1"},"vehicle_type_id":"4","last_reported":1756408071,"current_range_meters":15200,"station_id":"ce4bhgh2rcd13ifvqfa0","pricing_plan_id":"cebpf4jnsgd1na2vs0mg"},{"bike_id":"1026d2a2-f6bb-4838-a531-182cf980520d","system_id":"levelo_inurba_marseille","lat":43.29069,"lon":5.37166,"is_reserved":false,"is_disabled":false,"rental_uris":{"android":"levelo://app?vid=1026d2a2-f6bb-4838-a531-182cf980520d","ios":"levelo://app?vid=1026d2a2-f6bb-4838-a531-182cf980520d"},"vehicle_type_id":"4","last_reported":1756408071,"current_range_meters":12800,"station_id":"ce4bh5p2rcd13ifvqe4g","pricing_plan_id":"cebpf4jnsgd1na2vs0mg"},{"bike_id":"99c2afb7-d9d0-4857-89b8-56eb719a69ba","system_id":"levelo_inurba_marseille","lat":43.29538,"lon":5.3854,"is_reserved":false,"is_disabled":false,"rental_uris":{"android":"levelo://app?vid=99c2afb7-d9d0-4857-89b8-56eb719a69ba","ios":"levelo://app?vid=99c2afb7-d9d0-4857-89b8-56eb719a69ba"},"vehicle_type_id":"4","last_reported":1756408071,"current_range_meters":16000,"station_id":"ce4bgih2rcd13ifvqba0","pricing_plan_id":"cebpf4jnsgd1na2vs0mg"},{"bike_id":"83909c75-8354-4cee-9abf-5c26a22ce52c","system_id":"levelo_inurba_marseille","lat":43.31493,"lon":5.38614,"is_reserved":false,"is_disabled":false,"rental_uris":{"android":"levelo://app?vid=83909c75-8354-4cee-9abf-5c26a22ce52c","ios":"levelo://app?vid=83909c75-8354-4cee-9abf-5c26a22ce52c"},"vehicle_type_id":"4","last_reported":1756408071,"current_range_meters":16000,"station_id":"","pricing_plan_id":"cebpf4jnsgd1na2vs0mg"},{"bike_id":"58b0f458-6d83-41ca-9901-eee7b5b8a27a","system_id":"levelo_inurba_marseille","lat":43.24398,"lon":5.37059,"is_reserved":false,"is_disabled":false,"rental_uris":{"android":"levelo://app?vid=58b0f458-6d83-41ca-9901-eee7b5b8a27a","ios":"levelo://app?vid=58b0f458-6d83-41ca-9901-eee7b5b8a27a"},"vehicle_type_id":"4","last_reported":1756408071,"current_range_meters":16000,"station_id":"ce4bhhh2rcd13ifvqfk0","pricing_plan_id":"cebpf4jnsgd1na2vs0mg"},{"bike_id":"9cc0f48b-8539-432a-bff3-213adec5baae","system_id":"levelo_inurba_marseille","lat":43.30955,"lon":5.39052,"is_reserved":false,"is_disabled":false,"rental_uris":{"android":"levelo://app?vid=9cc0f48b-8539-432a-bff3-213adec5baae","ios":"levelo://app?vid=9cc0f48b-8539-432a-bff3-213adec5baae"},"vehicle_type_id":"4","last_reported":1756408071,"current_range_meters":16000,"station_id":"ce4bgup2rcd13ifvqco0","pricing_plan_id":"cebpf4jnsgd1na2vs0mg"},{"bike_id":"5570f0b7-257a-4027-903a-f894e7705a4e","system_id":"levelo_inurba_marseille","lat":43.29707,"lon":5.3661,"is_reserved":false,"is_disabled":false,"rental_uris":{"android":"levelo://app?vid=5570f0b7-257a-4027-903a-f894e7705a4e","ios":"levelo://app?vid=5570f0b7-257a-4027-903a-f894e7705a4e"},"vehicle_type_id":"4","last_reported":1756408071,"current_range_meters":16800,"station_id":"ce4bgn12rcd13ifvqbt0","pricing_plan_id":"cebpf4jnsgd1na2vs0mg"},{"bike_id":"06669016-cd47-459f-9dbc-b8f7fe75d379","system_id":"levelo_inurba_marseille","lat":43.32284,"lon":5.38275,"is_reserved":false,"is_disabled":false,"rental_uris":{"android":"levelo://app?vid=06669016-cd47-459f-9dbc-b8f7fe75d379","ios":"levelo://app?vid=06669016-cd47-459f-9dbc-b8f7fe75d379"},"vehicle_type_id":"4","last_reported":1756408071,"current_range_meters":16000,"station_id":"ce4bhr12rcd13ifvqhqg","pricing_plan_id":"cebpf4jnsgd1na2vs0mg"},{"bike_id":"9c2ea7af-e1f0-49ae-bea1-fdef9d504587","system_id":"levelo_inurba_marseille","lat":43.26034,"lon":5.37547,"is_reserved":false,"is_disabled":false,"rental_uris":{"android":"levelo://app?vid=9c2ea7af-e1f0-49ae-bea1-fdef9d504587","ios":"levelo://app?vid=9c2ea7af-e1f0-49ae-bea1-fdef9d504587"},"vehicle_type_id":"4","last_reported":1756408071,"current_range_meters":16000,"station_id":"ce4bhgh2rcd13ifvqfa0","pricing_plan_id":"cebpf4jnsgd1na2vs0mg"},{"bike_id":"2b282b6d-c25c-4ce2-975b-2a6f3bc2b9cc","system_id":"levelo_inurba_marseille","lat":43.25504,"lon":5.37624,"is_reserved":false,"is_disabled":true,"rental_uris":{"android":"levelo://app?vid=2b282b6d-c25c-4ce2-975b-2a6f3bc2b9cc","ios":"levelo://app?vid=2b282b6d-c25c-4ce2-975b-2a6f3bc2b9cc"},"vehicle_type_id":"4","last_reported":1756408071,"current_range_meters":16000,"station_id":"ce4bhh12rcd13ifvqff0","pricing_plan_id":"cebpf4jnsgd1na2vs0mg"},{"bike_id":"b4ec7b53-72a4-4e4d-8084-5a547251f927","system_id":"levelo_inurba_marseille","lat":43.31059,"lon":5.38375,"is_reserved":false,"is_disabled":false,"rental_uris":{"android":"levelo://app?vid=b4ec7b53-72a4-4e4d-8084-5a547251f927","ios":"levelo://app?vid=b4ec7b53-72a4-4e4d-8084-5a547251f927"},"vehicle_type_id":"4","last_reported":1756408071,"current_range_meters":16000,"station_id":"ce4bgv92rcd13ifvqcr0","pricing_plan_id":"cebpf4jnsgd1na2vs0mg"},{"bike_id":"e88813c3-e63a-4665-b0f4-72e6c6c89a00","system_id":"levelo_inurba_marseille","lat":43.21176,"lon":5.35103,"is_reserved":false,"is_disabled":false,"rental_uris":{"android":"levelo://app?vid=e88813c3-e63a-4665-b0f4-72e6c6c89a00","ios":"levelo://app?vid=e88813c3-e63a-4665-b0f4-72e6c6c89a00"},"vehicle_type_id":"4","last_reported":1756408071,"current_range_meters":16000,"station_id":"st_cvj6sg6p6f1abm77japg","pricing_plan_id":"cebpf4jnsgd1na2vs0mg"},{"bike_id":"42515969-df58-4bc3-81b4-d2c5b3092781","system_id":"levelo_inurba_marseille","lat":43.27724,"lon":5.42026,"is_reserved":false,"is_disabled":false,"rental_uris":{"android":"levelo://app?vid=42515969-df58-4bc3-81b4-d2c5b3092781","ios":"levelo://app?vid=42515969-df58-4bc3-81b4-d2c5b3092781"},"vehicle_type_id":"4","last_reported":1756408071,"current_range_meters":16400,"station_id":"","pricing_plan_id":"cebpf4jnsgd1na2vs0mg"},{"bike_id":"057a79ec-84e1-48be-a058-132b7c6bfe17","system_id":"levelo_inurba_marseille","lat":43.29254,"lon":5.38437,"is_reserved":false,"is_disabled":false,"rental_uris":{"android":"levelo://app?vid=057a79ec-84e1-48be-a058-132b7c6bfe17","ios":"levelo://app?vid=057a79ec-84e1-48be-a058-132b7c6bfe17"},"vehicle_type_id":"4","last_reported":1756408071,"current_range_meters":16400,"station_id":"ce4bh692rcd13ifvqea0","pricing_plan_id":"cebpf4jnsgd1na2vs0mg"},{"bike_id":"7777b5b1-80aa-4b37-bb5d-36ade627863d","system_id":"levelo_inurba_marseille","lat":43.29517,"lon":5.38588,"is_reserved":false,"is_disabled":false,"rental_uris":{"android":"levelo://app?vid=7777b5b1-80aa-4b37-bb5d-36ade627863d","ios":"levelo://app?vid=7777b5b1-80aa-4b37-bb5d-36ade627863d"},"vehicle_type_id":"4","last_reported":1756408071,"current_range_meters":16400,"station_id":"ce4bgih2rcd13ifvqba0","pricing_plan_id":"cebpf4jnsgd1na2vs0mg"},{"bike_id":"ca808d34-9391-4691-b4c5-e9180d9c16d9","system_id":"levelo_inurba_marseille","lat":43.25336,"lon":5.4217,"is_reserved":false,"is_disabled":false,"rental_uris":{"android":"levelo://app?vid=ca808d34-9391-4691-b4c5-e9180d9c16d9","ios":"levelo://app?vid=ca808d34-9391-4691-b4c5-e9180d9c16d9"},"vehicle_type_id":"4","last_reported":1756408071,"current_range_meters":16400,"station_id":"st_d2m65c5bi1j21697t3ng","pricing_plan_id":"cebpf4jnsgd1na2vs0mg"},{"bike_id":"3488fb70-6ac7-4423-9fdc-f38a0b54beeb","system_id":"levelo_inurba_marseille","lat":43.29257,"lon":5.40902,"is_reserved":false,"is_disabled":false,"rental_uris":{"android":"levelo://app?vid=3488fb70-6ac7-4423-9fdc-f38a0b54beeb","ios":"levelo://app?vid=3488fb70-6ac7-4423-9fdc-f38a0b54beeb"},"vehicle_type_id":"4","last_reported":1756408071,"current_range_meters":16400,"station_id":"ce4bh192rcd13ifvqdc0","pricing_plan_id":"cebpf4jnsgd1na2vs0mg"},{"bike_id":"c8ed8afa-4750-4d5e-b29e-7da3cd8f4dc7","system_id":"levelo_inurba_marseille","lat":43.32341,"lon":5.36741,"is_reserved":false,"is_disabled":false,"rental_uris":{"android":"levelo://app?vid=c8ed8afa-4750-4d5e-b29e-7da3cd8f4dc7","ios":"levelo://app?vid=c8ed8afa-4750-4d5e-b29e-7da3cd8f4dc7"},"vehicle_type_id":"4","last_reported":1756408071,"current_range_meters":16400,"station_id":"ce4bhsh2rcd13ifvqi2g","pricing_plan_id":"cebpf4jnsgd1na2vs0mg"},{"bike_id":"e68ad225-85c0-4ec9-a2c0-7cb7765f5195","system_id":"levelo_inurba_marseille","lat":43.24051,"lon":5.37779,"is_reserved":false,"is_disabled":false,"rental_uris":{"android":"levelo://app?vid=e68ad225-85c0-4ec9-a2c0-7cb7765f5195","ios":"levelo://app?vid=e68ad225-85c0-4ec9-a2c0-7cb7765f5195"},"vehicle_type_id":"4","last_reported":1756408071,"current_range_meters":16800,"station_id":"ce4bhnp2rcd13ifvqgvg","pricing_plan_id":"cebpf4jnsgd1na2vs0mg"},{"bike_id":"21facb37-f2df-4979-a525-418747dd4e09","system_id":"levelo_inurba_marseille","lat":43.28451,"lon":5.34965,"is_reserved":false,"is_disabled":false,"rental_uris":{"android":"levelo://app?vid=21facb37-f2df-4979-a525-418747dd4e09","ios":"levelo://app?vid=21facb37-f2df-4979-a525-418747dd4e09"},"vehicle_type_id":"4","last_reported":1756408071,"current_range_meters":16800,"station_id":"ce4bhbh2rcd13ifvqepg","pricing_plan_id":"cebpf4jnsgd1na2vs0mg"},{"bike_id":"7bc85ae6-8134-4399-ba81-b43ac329ff82","system_id":"levelo_inurba_marseille","lat":43.27805,"lon":5.40726,"is_reserved":false,"is_disabled":false,"rental_uris":{"android":"levelo://app?vid=7bc85ae6-8134-4399-ba81-b43ac329ff82","ios":"levelo://app?vid=7bc85ae6-8134-4399-ba81-b43ac329ff82"},"vehicle_type_id":"4","last_reported":1756408071,"current_range_meters":16800,"station_id":"ce4bhnh2rcd13ifvqgtg","pricing_plan_id":"cebpf4jnsgd1na2vs0mg"},{"bike_id":"0e2d808b-ad43-450e-9978-1787dc3a9ad7","system_id":"levelo_inurba_marseille","lat":43.29274,"lon":5.38443,"is_reserved":false,"is_disabled":false,"rental_uris":{"android":"levelo://app?vid=0e2d808b-ad43-450e-9978-1787dc3a9ad7","ios":"levelo://app?vid=0e2d808b-ad43-450e-9978-1787dc3a9ad7"},"vehicle_type_id":"4","last_reported":1756408071,"current_range_meters":16800,"station_id":"ce4bh692rcd13ifvqea0","pricing_plan_id":"cebpf4jnsgd1na2vs0mg"},{"bike_id":"3d6fc511-e419-41c7-9a3c-b78a5b14af25","system_id":"levelo_inurba_marseille","lat":43.2926,"lon":5.38472,"is_reserved":false,"is_disabled":false,"rental_uris":{"android":"levelo://app?vid=3d6fc511-e419-41c7-9a3c-b78a5b14af25","ios":"levelo://app?vid=3d6fc511-e419-41c7-9a3c-b78a5b14af25"},"vehicle_type_id":"4","last_reported":1756408071,"current_range_meters":16800,"station_id":"ce4bh692rcd13ifvqea0","pricing_plan_id":"cebpf4jnsgd1na2vs0mg"},{"bike_id":"f0e1e4a3-1fe8-4a58-b582-c0b4188393d1","system_id":"levelo_inurba_marseille","lat":43.29265,"lon":5.38451,"is_reserved":false,"is_disabled":true,"rental_uris":{"android":"levelo://app?vid=f0e1e4a3-1fe8-4a58-b582-c0b4188393d1","ios":"levelo://app?vid=f0e1e4a3-1fe8-4a58-b582-c0b4188393d1"},"vehicle_type_id":"4","last_reported":1756408071,"current_range_meters":16800,"station_id":"ce4bh692rcd13ifvqea0","pricing_plan_id":"cebpf4jnsgd1na2vs0mg"},{"bike_id":"7cd53612-687c-4d6e-b7b2-17b05757179c","system_id":"levelo_inurba_marseille","lat":43.30946,"lon":5.39026,"is_reserved":false,"is_disabled":false,"rental_uris":{"android":"levelo://app?vid=7cd53612-687c-4d6e-b7b2-17b05757179c","ios":"levelo://app?vid=7cd53612-687c-4d6e-b7b2-17b05757179c"},"vehicle_type_id":"4","last_reported":1756408071,"current_range_meters":16800,"station_id":"ce4bgup2rcd13ifvqco0","pricing_plan_id":"cebpf4jnsgd1na2vs0mg"},{"bike_id":"b2864fce-04dc-4678-b2f9-0967df65f00a","system_id":"levelo_inurba_marseille","lat":43.26028,"lon":5.37554,"is_reserved":false,"is_disabled":false,"rental_uris":{"android":"levelo://app?vid=b2864fce-04dc-4678-b2f9-0967df65f00a","ios":"levelo://app?vid=b2864fce-04dc-4678-b2f9-0967df65f00a"},"vehicle_type_id":"4","last_reported":1756408071,"current_range_meters":16800,"station_id":"ce4bhgh2rcd13ifvqfa0","pricing_plan_id":"cebpf4jnsgd1na2vs0mg"},{"bike_id":"79954351-1ad8-4a5b-b7cf-0dd51927f742","system_id":"levelo_inurba_marseille","lat":43.30135,"lon":5.38777,"is_reserved":false,"is_disabled":true,"rental_uris":{"android":"levelo://app?vid=79954351-1ad8-4a5b-b7cf-0dd51927f742","ios":"levelo://app?vid=79954351-1ad8-4a5b-b7cf-0dd51927f742"},"vehicle_type_id":"4","last_reported":1756408071,"current_range_meters":16800,"station_id":"ce4bghh2rcd13ifvqb60","pricing_plan_id":"cebpf4jnsgd1na2vs0mg"},{"bike_id":"71facb58-3b9f-4a1d-b147-2de71b8ca23d","system_id":"levelo_inurba_marseille","lat":43.239747,"lon":5.366865,"is_reserved":false,"is_disabled":false,"rental_uris":{"android":"levelo://app?vid=71facb58-3b9f-4a1d-b147-2de71b8ca23d","ios":"levelo://app?vid=71facb58-3b9f-4a1d-b147-2de71b8ca23d"},"vehicle_type_id":"4","last_reported":1756408071,"current_range_meters":16800,"station_id":"ce4bhi12rcd13ifvqfp0","pricing_plan_id":"cebpf4jnsgd1na2vs0mg"},{"bike_id":"a583a2d5-64ba-4a63-99f9-a273677678f2","system_id":"levelo_inurba_marseille","lat":43.28151,"lon":5.42644,"is_reserved":false,"is_disabled":false,"rental_uris":{"android":"levelo://app?vid=a583a2d5-64ba-4a63-99f9-a273677678f2","ios":"levelo://app?vid=a583a2d5-64ba-4a63-99f9-a273677678f2"},"vehicle_type_id":"4","last_reported":1756408071,"current_range_meters":16800,"station_id":"ce4bhnh2rcd13ifvqgug","pricing_plan_id":"cebpf4jnsgd1na2vs0mg"},{"bike_id":"a3e4ee41-5175-47da-ad6e-4c5ae3eb42d9","system_id":"levelo_inurba_marseille","lat":43.21212,"lon":5.35062,"is_reserved":false,"is_disabled":false,"rental_uris":{"android":"levelo://app?vid=a3e4ee41-5175-47da-ad6e-4c5ae3eb42d9","ios":"levelo://app?vid=a3e4ee41-5175-47da-ad6e-4c5ae3eb42d9"},"vehicle_type_id":"4","last_reported":1756408071,"current_range_meters":16800,"station_id":"st_cvj6sg6p6f1abm77japg","pricing_plan_id":"cebpf4jnsgd1na2vs0mg"},{"bike_id":"d7740e23-1b39-4b80-891a-ea70912bb8f4","system_id":"levelo_inurba_marseille","lat":43.27971,"lon":5.38758,"is_reserved":false,"is_disabled":false,"rental_uris":{"android":"levelo://app?vid=d7740e23-1b39-4b80-891a-ea70912bb8f4","ios":"levelo://app?vid=d7740e23-1b39-4b80-891a-ea70912bb8f4"},"vehicle_type_id":"4","last_reported":1756408071,"current_range_meters":17200,"station_id":"ce4bhg12rcd13ifvqf80","pricing_plan_id":"cebpf4jnsgd1na2vs0mg"},{"bike_id":"bd0b3a9b-47a6-4440-9f23-38e93ba205fd","system_id":"levelo_inurba_marseille","lat":43.24038,"lon":5.37778,"is_reserved":false,"is_disabled":false,"rental_uris":{"android":"levelo://app?vid=bd0b3a9b-47a6-4440-9f23-38e93ba205fd","ios":"levelo://app?vid=bd0b3a9b-47a6-4440-9f23-38e93ba205fd"},"vehicle_type_id":"4","last_reported":1756408071,"current_range_meters":17200,"station_id":"ce4bhnp2rcd13ifvqgvg","pricing_plan_id":"cebpf4jnsgd1na2vs0mg"},{"bike_id":"60536b19-3681-4cac-9359-6e29f6b12827","system_id":"levelo_inurba_marseille","lat":43.29033,"lon":5.39963,"is_reserved":false,"is_disabled":false,"rental_uris":{"android":"levelo://app?vid=60536b19-3681-4cac-9359-6e29f6b12827","ios":"levelo://app?vid=60536b19-3681-4cac-9359-6e29f6b12827"},"vehicle_type_id":"4","last_reported":1756408071,"current_range_meters":16800,"station_id":"ce4bh392rcd13ifvqdm0","pricing_plan_id":"cebpf4jnsgd1na2vs0mg"},{"bike_id":"4ec86628-ff2e-4ab9-a96b-2e0ea972365d","system_id":"levelo_inurba_marseille","lat":43.30142,"lon":5.37414,"is_reserved":false,"is_disabled":false,"rental_uris":{"android":"levelo://app?vid=4ec86628-ff2e-4ab9-a96b-2e0ea972365d","ios":"levelo://app?vid=4ec86628-ff2e-4ab9-a96b-2e0ea972365d"},"vehicle_type_id":"4","last_reported":1756408071,"current_range_meters":17200,"station_id":"ce4bgs92rcd13ifvqcc0","pricing_plan_id":"cebpf4jnsgd1na2vs0mg"},{"bike_id":"4b3588bf-ce6b-41eb-8ae4-3e157a48e1f1","system_id":"levelo_inurba_marseille","lat":43.25486,"lon":5.37663,"is_reserved":false,"is_disabled":false,"rental_uris":{"android":"levelo://app?vid=4b3588bf-ce6b-41eb-8ae4-3e157a48e1f1","ios":"levelo://app?vid=4b3588bf-ce6b-41eb-8ae4-3e157a48e1f1"},"vehicle_type_id":"4","last_reported":1756408071,"current_range_meters":17200,"station_id":"ce4bhh12rcd13ifvqff0","pricing_plan_id":"cebpf4jnsgd1na2vs0mg"},{"bike_id":"7162957e-c6ee-4440-9439-7e40f81a9081","system_id":"levelo_inurba_marseille","lat":43.31902,"lon":5.40742,"is_reserved":false,"is_disabled":true,"rental_uris":{"android":"levelo://app?vid=7162957e-c6ee-4440-9439-7e40f81a9081","ios":"levelo://app?vid=7162957e-c6ee-4440-9439-7e40f81a9081"},"vehicle_type_id":"4","last_reported":1756408071,"current_range_meters":17200,"station_id":"ce4bhq12rcd13ifvqhig","pricing_plan_id":"cebpf4jnsgd1na2vs0mg"},{"bike_id":"af0e337f-d4cf-4e28-9020-c2f2b620012b","system_id":"levelo_inurba_marseille","lat":43.22927,"lon":5.35371,"is_reserved":false,"is_disabled":false,"rental_uris":{"android":"levelo://app?vid=af0e337f-d4cf-4e28-9020-c2f2b620012b","ios":"levelo://app?vid=af0e337f-d4cf-4e28-9020-c2f2b620012b"},"vehicle_type_id":"4","last_reported":1756408071,"current_range_meters":17200,"station_id":"cpo3532slgdg3j2ikp40","pricing_plan_id":"cebpf4jnsgd1na2vs0mg"},{"bike_id":"083dca62-c227-468f-ad9d-5d65b88e5579","system_id":"levelo_inurba_marseille","lat":43.26016,"lon":5.37539,"is_reserved":false,"is_disabled":false,"rental_uris":{"android":"levelo://app?vid=083dca62-c227-468f-ad9d-5d65b88e5579","ios":"levelo://app?vid=083dca62-c227-468f-ad9d-5d65b88e5579"},"vehicle_type_id":"4","last_reported":1756408071,"current_range_meters":17200,"station_id":"","pricing_plan_id":"cebpf4jnsgd1na2vs0mg"},{"bike_id":"23ac27e1-7201-4574-ab35-1e4f37036f45","system_id":"levelo_inurba_marseille","lat":43.27188,"lon":5.40989,"is_reserved":false,"is_disabled":false,"rental_uris":{"android":"levelo://app?vid=23ac27e1-7201-4574-ab35-1e4f37036f45","ios":"levelo://app?vid=23ac27e1-7201-4574-ab35-1e4f37036f45"},"vehicle_type_id":"4","last_reported":1756408071,"current_range_meters":17200,"station_id":"ce4bhl12rcd13ifvqgf0","pricing_plan_id":"cebpf4jnsgd1na2vs0mg"},{"bike_id":"679dd2c2-03ba-464f-b4ca-d253d6e39f03","system_id":"levelo_inurba_marseille","lat":43.28417,"lon":5.34991,"is_reserved":false,"is_disabled":false,"rental_uris":{"android":"levelo://app?vid=679dd2c2-03ba-464f-b4ca-d253d6e39f03","ios":"levelo://app?vid=679dd2c2-03ba-464f-b4ca-d253d6e39f03"},"vehicle_type_id":"4","last_reported":1756408071,"current_range_meters":17200,"station_id":"ce4bhbh2rcd13ifvqepg","pricing_plan_id":"cebpf4jnsgd1na2vs0mg"},{"bike_id":"ab7c0377-9067-4f33-b6fd-8c2b4cb14a20","system_id":"levelo_inurba_marseille","lat":43.30687,"lon":5.36643,"is_reserved":false,"is_disabled":false,"rental_uris":{"android":"levelo://app?vid=ab7c0377-9067-4f33-b6fd-8c2b4cb14a20","ios":"levelo://app?vid=ab7c0377-9067-4f33-b6fd-8c2b4cb14a20"},"vehicle_type_id":"4","last_reported":1756408071,"current_range_meters":17200,"station_id":"","pricing_plan_id":"cebpf4jnsgd1na2vs0mg"},{"bike_id":"90fdb152-6a3a-41f1-a9ff-4ad922a0821f","system_id":"levelo_inurba_marseille","lat":43.24993,"lon":5.38936,"is_reserved":false,"is_disabled":false,"rental_uris":{"android":"levelo://app?vid=90fdb152-6a3a-41f1-a9ff-4ad922a0821f","ios":"levelo://app?vid=90fdb152-6a3a-41f1-a9ff-4ad922a0821f"},"vehicle_type_id":"4","last_reported":1756408071,"current_range_meters":17200,"station_id":"ce4bhgp2rcd13ifvqfd0","pricing_plan_id":"cebpf4jnsgd1na2vs0mg"},{"bike_id":"6c3f9606-3f72-4507-bdb0-acc139c19e6d","system_id":"levelo_inurba_marseille","lat":43.26556,"lon":5.37289,"is_reserved":false,"is_disabled":false,"rental_uris":{"android":"levelo://app?vid=6c3f9606-3f72-4507-bdb0-acc139c19e6d","ios":"levelo://app?vid=6c3f9606-3f72-4507-bdb0-acc139c19e6d"},"vehicle_type_id":"4","last_reported":1756408071,"current_range_meters":17200,"station_id":"ce4bhg12rcd13ifvqf70","pricing_plan_id":"cebpf4jnsgd1na2vs0mg"},{"bike_id":"b76171a9-c614-45e5-9751-7cafacfa781b","system_id":"levelo_inurba_marseille","lat":43.27995,"lon":5.4001,"is_reserved":false,"is_disabled":false,"rental_uris":{"android":"levelo://app?vid=b76171a9-c614-45e5-9751-7cafacfa781b","ios":"levelo://app?vid=b76171a9-c614-45e5-9751-7cafacfa781b"},"vehicle_type_id":"4","last_reported":1756408071,"current_range_meters":17600,"station_id":"ce4bho92rcd13ifvqh4g","pricing_plan_id":"cebpf4jnsgd1na2vs0mg"},{"bike_id":"ab2b2968-2afc-4029-82d1-f9d7f0e7846c","system_id":"levelo_inurba_marseille","lat":43.292618,"lon":5.376212,"is_reserved":false,"is_disabled":false,"rental_uris":{"android":"levelo://app?vid=ab2b2968-2afc-4029-82d1-f9d7f0e7846c","ios":"levelo://app?vid=ab2b2968-2afc-4029-82d1-f9d7f0e7846c"},"vehicle_type_id":"4","last_reported":1756408071,"current_range_meters":17600,"station_id":"ce4bgi12rcd13ifvqb80","pricing_plan_id":"cebpf4jnsgd1na2vs0mg"},{"bike_id":"dee5fc92-9d8d-42ec-97e1-996d8f5266a8","system_id":"levelo_inurba_marseille","lat":43.229364,"lon":5.353875,"is_reserved":false,"is_disabled":false,"rental_uris":{"android":"levelo://app?vid=dee5fc92-9d8d-42ec-97e1-996d8f5266a8","ios":"levelo://app?vid=dee5fc92-9d8d-42ec-97e1-996d8f5266a8"},"vehicle_type_id":"4","last_reported":1756408071,"current_range_meters":17600,"station_id":"cpo3532slgdg3j2ikp40","pricing_plan_id":"cebpf4jnsgd1na2vs0mg"},{"bike_id":"ebb132d3-3a48-4c6b-8dae-58b2e800efa9","system_id":"levelo_inurba_marseille","lat":43.301,"lon":5.39074,"is_reserved":false,"is_disabled":false,"rental_uris":{"android":"levelo://app?vid=ebb132d3-3a48-4c6b-8dae-58b2e800efa9","ios":"levelo://app?vid=ebb132d3-3a48-4c6b-8dae-58b2e800efa9"},"vehicle_type_id":"4","last_reported":1756408071,"current_range_meters":17600,"station_id":"ce4bh192rcd13ifvqdb0","pricing_plan_id":"cebpf4jnsgd1na2vs0mg"},{"bike_id":"3fb92cde-6327-48c0-a173-34dc49189698","system_id":"levelo_inurba_marseille","lat":43.26205,"lon":5.37931,"is_reserved":false,"is_disabled":false,"rental_uris":{"android":"levelo://app?vid=3fb92cde-6327-48c0-a173-34dc49189698","ios":"levelo://app?vid=3fb92cde-6327-48c0-a173-34dc49189698"},"vehicle_type_id":"4","last_reported":1756408071,"current_range_meters":18000,"station_id":"ce4bhjp2rcd13ifvqg90","pricing_plan_id":"cebpf4jnsgd1na2vs0mg"},{"bike_id":"c5a366ed-5e3f-4271-a2fb-95e15532cfd8","system_id":"levelo_inurba_marseille","lat":43.26552,"lon":5.37286,"is_reserved":false,"is_disabled":false,"rental_uris":{"android":"levelo://app?vid=c5a366ed-5e3f-4271-a2fb-95e15532cfd8","ios":"levelo://app?vid=c5a366ed-5e3f-4271-a2fb-95e15532cfd8"},"vehicle_type_id":"4","last_reported":1756408071,"current_range_meters":17600,"station_id":"ce4bhg12rcd13ifvqf70","pricing_plan_id":"cebpf4jnsgd1na2vs0mg"},{"bike_id":"60863403-b289-4c9c-b2d0-3d448abf417f","system_id":"levelo_inurba_marseille","lat":43.28271,"lon":5.35079,"is_reserved":false,"is_disabled":true,"rental_uris":{"android":"levelo://app?vid=60863403-b289-4c9c-b2d0-3d448abf417f","ios":"levelo://app?vid=60863403-b289-4c9c-b2d0-3d448abf417f"},"vehicle_type_id":"4","last_reported":1756408071,"current_range_meters":17600,"station_id":"ce4bhbp2rcd13ifvqerg","pricing_plan_id":"cebpf4jnsgd1na2vs0mg"},{"bike_id":"53482a20-bd82-47e7-85d6-718b5a06855b","system_id":"levelo_inurba_marseille","lat":43.28604,"lon":5.35113,"is_reserved":false,"is_disabled":false,"rental_uris":{"android":"levelo://app?vid=53482a20-bd82-47e7-85d6-718b5a06855b","ios":"levelo://app?vid=53482a20-bd82-47e7-85d6-718b5a06855b"},"vehicle_type_id":"4","last_reported":1756408071,"current_range_meters":17600,"station_id":"ce4bhch2rcd13ifvqeug","pricing_plan_id":"cebpf4jnsgd1na2vs0mg"},{"bike_id":"49774fcc-922a-499c-b7d4-86afe0396868","system_id":"levelo_inurba_marseille","lat":43.25504,"lon":5.37654,"is_reserved":false,"is_disabled":true,"rental_uris":{"android":"levelo://app?vid=49774fcc-922a-499c-b7d4-86afe0396868","ios":"levelo://app?vid=49774fcc-922a-499c-b7d4-86afe0396868"},"vehicle_type_id":"4","last_reported":1756408071,"current_range_meters":17600,"station_id":"ce4bhh12rcd13ifvqff0","pricing_plan_id":"cebpf4jnsgd1na2vs0mg"},{"bike_id":"4591e044-2cf9-4b05-bdbf-f2144f93eb76","system_id":"levelo_inurba_marseille","lat":43.31247,"lon":5.38558,"is_reserved":false,"is_disabled":false,"rental_uris":{"android":"levelo://app?vid=4591e044-2cf9-4b05-bdbf-f2144f93eb76","ios":"levelo://app?vid=4591e044-2cf9-4b05-bdbf-f2144f93eb76"},"vehicle_type_id":"4","last_reported":1756408071,"current_range_meters":17600,"station_id":"","pricing_plan_id":"cebpf4jnsgd1na2vs0mg"},{"bike_id":"196169a4-3222-419a-be3c-e08cc270c692","system_id":"levelo_inurba_marseille","lat":43.29329,"lon":5.37315,"is_reserved":false,"is_disabled":false,"rental_uris":{"android":"levelo://app?vid=196169a4-3222-419a-be3c-e08cc270c692","ios":"levelo://app?vid=196169a4-3222-419a-be3c-e08cc270c692"},"vehicle_type_id":"4","last_reported":1756408071,"current_range_meters":17600,"station_id":"","pricing_plan_id":"cebpf4jnsgd1na2vs0mg"},{"bike_id":"514a0b31-0626-4f2a-ac0f-c4164ec6e057","system_id":"levelo_inurba_marseille","lat":43.23181,"lon":5.39989,"is_reserved":false,"is_disabled":false,"rental_uris":{"android":"levelo://app?vid=514a0b31-0626-4f2a-ac0f-c4164ec6e057","ios":"levelo://app?vid=514a0b31-0626-4f2a-ac0f-c4164ec6e057"},"vehicle_type_id":"4","last_reported":1756408071,"current_range_meters":17600,"station_id":"ce4bhn12rcd13ifvqgqg","pricing_plan_id":"cebpf4jnsgd1na2vs0mg"},{"bike_id":"671278ec-8ac6-4a16-97ab-65c52c80c5d2","system_id":"levelo_inurba_marseille","lat":43.31264,"lon":5.40172,"is_reserved":false,"is_disabled":false,"rental_uris":{"android":"levelo://app?vid=671278ec-8ac6-4a16-97ab-65c52c80c5d2","ios":"levelo://app?vid=671278ec-8ac6-4a16-97ab-65c52c80c5d2"},"vehicle_type_id":"4","last_reported":1756408071,"current_range_meters":17600,"station_id":"ce4bh092rcd13ifvqd30","pricing_plan_id":"cebpf4jnsgd1na2vs0mg"},{"bike_id":"254f89c8-f26b-48d6-b1e9-2c5ac8a08538","system_id":"levelo_inurba_marseille","lat":43.28606,"lon":5.35108,"is_reserved":false,"is_disabled":false,"rental_uris":{"android":"levelo://app?vid=254f89c8-f26b-48d6-b1e9-2c5ac8a08538","ios":"levelo://app?vid=254f89c8-f26b-48d6-b1e9-2c5ac8a08538"},"vehicle_type_id":"4","last_reported":1756408071,"current_range_meters":17600,"station_id":"ce4bhch2rcd13ifvqeug","pricing_plan_id":"cebpf4jnsgd1na2vs0mg"},{"bike_id":"4c3e7836-c5bf-47a3-9cf8-9e54f668bb18","system_id":"levelo_inurba_marseille","lat":43.29027,"lon":5.39964,"is_reserved":false,"is_disabled":false,"rental_uris":{"android":"levelo://app?vid=4c3e7836-c5bf-47a3-9cf8-9e54f668bb18","ios":"levelo://app?vid=4c3e7836-c5bf-47a3-9cf8-9e54f668bb18"},"vehicle_type_id":"4","last_reported":1756408071,"current_range_meters":18000,"station_id":"ce4bh392rcd13ifvqdm0","pricing_plan_id":"cebpf4jnsgd1na2vs0mg"},{"bike_id":"7c3917a6-d778-4417-b679-577fcda5e1ef","system_id":"levelo_inurba_marseille","lat":43.29252,"lon":5.38452,"is_reserved":false,"is_disabled":false,"rental_uris":{"android":"levelo://app?vid=7c3917a6-d778-4417-b679-577fcda5e1ef","ios":"levelo://app?vid=7c3917a6-d778-4417-b679-577fcda5e1ef"},"vehicle_type_id":"4","last_reported":1756408071,"current_range_meters":18000,"station_id":"ce4bh692rcd13ifvqea0","pricing_plan_id":"cebpf4jnsgd1na2vs0mg"},{"bike_id":"72adf8d3-000d-462a-9b10-b49b61130129","system_id":"levelo_inurba_marseille","lat":43.28414,"lon":5.34998,"is_reserved":false,"is_disabled":false,"rental_uris":{"android":"levelo://app?vid=72adf8d3-000d-462a-9b10-b49b61130129","ios":"levelo://app?vid=72adf8d3-000d-462a-9b10-b49b61130129"},"vehicle_type_id":"4","last_reported":1756408071,"current_range_meters":18000,"station_id":"ce4bhbh2rcd13ifvqepg","pricing_plan_id":"cebpf4jnsgd1na2vs0mg"},{"bike_id":"89107e2b-bb09-40bd-8e94-b382a6b7c630","system_id":"levelo_inurba_marseille","lat":43.24661,"lon":5.38164,"is_reserved":false,"is_disabled":false,"rental_uris":{"android":"levelo://app?vid=89107e2b-bb09-40bd-8e94-b382a6b7c630","ios":"levelo://app?vid=89107e2b-bb09-40bd-8e94-b382a6b7c630"},"vehicle_type_id":"4","last_reported":1756408071,"current_range_meters":18000,"station_id":"ce4bhih2rcd13ifvqfr0","pricing_plan_id":"cebpf4jnsgd1na2vs0mg"},{"bike_id":"6dd0abf3-b4b3-4f6d-8320-aeaf8346e3b9","system_id":"levelo_inurba_marseille","lat":43.23156,"lon":5.43722,"is_reserved":false,"is_disabled":false,"rental_uris":{"android":"levelo://app?vid=6dd0abf3-b4b3-4f6d-8320-aeaf8346e3b9","ios":"levelo://app?vid=6dd0abf3-b4b3-4f6d-8320-aeaf8346e3b9"},"vehicle_type_id":"4","last_reported":1756408071,"current_range_meters":18000,"station_id":"ce4bhmp2rcd13ifvqgog","pricing_plan_id":"cebpf4jnsgd1na2vs0mg"},{"bike_id":"c76902c4-90d9-4e3f-aaec-3ea616acf395","system_id":"levelo_inurba_marseille","lat":43.262,"lon":5.37931,"is_reserved":false,"is_disabled":false,"rental_uris":{"android":"levelo://app?vid=c76902c4-90d9-4e3f-aaec-3ea616acf395","ios":"levelo://app?vid=c76902c4-90d9-4e3f-aaec-3ea616acf395"},"vehicle_type_id":"4","last_reported":1756408071,"current_range_meters":18000,"station_id":"ce4bhjp2rcd13ifvqg90","pricing_plan_id":"cebpf4jnsgd1na2vs0mg"},{"bike_id":"b63ead7d-034b-4f96-84af-cadc5295390d","system_id":"levelo_inurba_marseille","lat":43.248093,"lon":5.374589,"is_reserved":false,"is_disabled":false,"rental_uris":{"android":"levelo://app?vid=b63ead7d-034b-4f96-84af-cadc5295390d","ios":"levelo://app?vid=b63ead7d-034b-4f96-84af-cadc5295390d"},"vehicle_type_id":"4","last_reported":1756408071,"current_range_meters":18000,"station_id":"ce4bhgh2rcd13ifvqfb0","pricing_plan_id":"cebpf4jnsgd1na2vs0mg"},{"bike_id":"07761c7f-90f3-44f4-a950-f91cbca976d7","system_id":"levelo_inurba_marseille","lat":43.262239,"lon":5.374431,"is_reserved":false,"is_disabled":false,"rental_uris":{"android":"levelo://app?vid=07761c7f-90f3-44f4-a950-f91cbca976d7","ios":"levelo://app?vid=07761c7f-90f3-44f4-a950-f91cbca976d7"},"vehicle_type_id":"4","last_reported":1756408071,"current_range_meters":18000,"station_id":"ce4bhgp2rcd13ifvqfc0","pricing_plan_id":"cebpf4jnsgd1na2vs0mg"},{"bike_id":"3dd23926-ae78-488e-8f33-e0fe0712154d","system_id":"levelo_inurba_marseille","lat":43.3119,"lon":5.3779,"is_reserved":false,"is_disabled":false,"rental_uris":{"android":"levelo://app?vid=3dd23926-ae78-488e-8f33-e0fe0712154d","ios":"levelo://app?vid=3dd23926-ae78-488e-8f33-e0fe0712154d"},"vehicle_type_id":"4","last_reported":1756408071,"current_range_meters":18000,"station_id":"","pricing_plan_id":"cebpf4jnsgd1na2vs0mg"},{"bike_id":"b226851c-b8c6-4341-8132-38af96c34122","system_id":"levelo_inurba_marseille","lat":43.26014,"lon":5.3759,"is_reserved":false,"is_disabled":false,"rental_uris":{"android":"levelo://app?vid=b226851c-b8c6-4341-8132-38af96c34122","ios":"levelo://app?vid=b226851c-b8c6-4341-8132-38af96c34122"},"vehicle_type_id":"4","last_reported":1756408071,"current_range_meters":18000,"station_id":"ce4bhgh2rcd13ifvqfa0","pricing_plan_id":"cebpf4jnsgd1na2vs0mg"},{"bike_id":"e6a93fb5-0898-42b5-a0f1-0058cce3ed8f","system_id":"levelo_inurba_marseille","lat":43.25493,"lon":5.37658,"is_reserved":false,"is_disabled":false,"rental_uris":{"android":"levelo://app?vid=e6a93fb5-0898-42b5-a0f1-0058cce3ed8f","ios":"levelo://app?vid=e6a93fb5-0898-42b5-a0f1-0058cce3ed8f"},"vehicle_type_id":"4","last_reported":1756408071,"current_range_meters":18000,"station_id":"ce4bhh12rcd13ifvqff0","pricing_plan_id":"cebpf4jnsgd1na2vs0mg"},{"bike_id":"fdfe6fd8-fb0e-4713-8ecb-26f32dc5718e","system_id":"levelo_inurba_marseille","lat":43.26008,"lon":5.37573,"is_reserved":false,"is_disabled":false,"rental_uris":{"android":"levelo://app?vid=fdfe6fd8-fb0e-4713-8ecb-26f32dc5718e","ios":"levelo://app?vid=fdfe6fd8-fb0e-4713-8ecb-26f32dc5718e"},"vehicle_type_id":"4","last_reported":1756408071,"current_range_meters":18000,"station_id":"ce4bhgh2rcd13ifvqfa0","pricing_plan_id":"cebpf4jnsgd1na2vs0mg"},{"bike_id":"a6106d71-8d2e-4dc4-b530-1cd5fc2ce573","system_id":"levelo_inurba_marseille","lat":43.25566,"lon":5.3825,"is_reserved":false,"is_disabled":false,"rental_uris":{"android":"levelo://app?vid=a6106d71-8d2e-4dc4-b530-1cd5fc2ce573","ios":"levelo://app?vid=a6106d71-8d2e-4dc4-b530-1cd5fc2ce573"},"vehicle_type_id":"4","last_reported":1756408071,"current_range_meters":18800,"station_id":"ce4bhih2rcd13ifvqfs0","pricing_plan_id":"cebpf4jnsgd1na2vs0mg"},{"bike_id":"3c21ec35-b01e-498e-a021-854a45a06505","system_id":"levelo_inurba_marseille","lat":43.29924,"lon":5.38149,"is_reserved":false,"is_disabled":false,"rental_uris":{"android":"levelo://app?vid=3c21ec35-b01e-498e-a021-854a45a06505","ios":"levelo://app?vid=3c21ec35-b01e-498e-a021-854a45a06505"},"vehicle_type_id":"4","last_reported":1756408071,"current_range_meters":18800,"station_id":"ce4bgj12rcd13ifvqbc0","pricing_plan_id":"cebpf4jnsgd1na2vs0mg"},{"bike_id":"0a908185-cad3-4d92-8f51-67068ebb1335","system_id":"levelo_inurba_marseille","lat":43.27063,"lon":5.42289,"is_reserved":false,"is_disabled":false,"rental_uris":{"android":"levelo://app?vid=0a908185-cad3-4d92-8f51-67068ebb1335","ios":"levelo://app?vid=0a908185-cad3-4d92-8f51-67068ebb1335"},"vehicle_type_id":"4","last_reported":1756408071,"current_range_meters":18800,"station_id":"ce4bhk92rcd13ifvqgb0","pricing_plan_id":"cebpf4jnsgd1na2vs0mg"},{"bike_id":"93efade0-1ac5-43c0-9777-6b8d33b2a683","system_id":"levelo_inurba_marseille","lat":43.27059,"lon":5.40257,"is_reserved":false,"is_disabled":false,"rental_uris":{"android":"levelo://app?vid=93efade0-1ac5-43c0-9777-6b8d33b2a683","ios":"levelo://app?vid=93efade0-1ac5-43c0-9777-6b8d33b2a683"},"vehicle_type_id":"4","last_reported":1756408071,"current_range_meters":18800,"station_id":"ce4bhk92rcd13ifvqgc0","pricing_plan_id":"cebpf4jnsgd1na2vs0mg"},{"bike_id":"ee40a77f-52b6-47e0-b06a-8b4be9633273","system_id":"levelo_inurba_marseille","lat":43.29622,"lon":5.37716,"is_reserved":false,"is_disabled":false,"rental_uris":{"android":"levelo://app?vid=ee40a77f-52b6-47e0-b06a-8b4be9633273","ios":"levelo://app?vid=ee40a77f-52b6-47e0-b06a-8b4be9633273"},"vehicle_type_id":"4","last_reported":1756408071,"current_range_meters":18800,"station_id":"ce4bgi92rcd13ifvqb90","pricing_plan_id":"cebpf4jnsgd1na2vs0mg"},{"bike_id":"c9100edd-d513-4c16-8fb9-4655bb3bce03","system_id":"levelo_inurba_marseille","lat":43.29529,"lon":5.38539,"is_reserved":false,"is_disabled":false,"rental_uris":{"android":"levelo://app?vid=c9100edd-d513-4c16-8fb9-4655bb3bce03","ios":"levelo://app?vid=c9100edd-d513-4c16-8fb9-4655bb3bce03"},"vehicle_type_id":"4","last_reported":1756408071,"current_range_meters":18800,"station_id":"ce4bgih2rcd13ifvqba0","pricing_plan_id":"cebpf4jnsgd1na2vs0mg"},{"bike_id":"bb3f8ead-aaf6-409b-a7ab-56e59f47f87b","system_id":"levelo_inurba_marseille","lat":43.31229,"lon":5.36876,"is_reserved":false,"is_disabled":false,"rental_uris":{"android":"levelo://app?vid=bb3f8ead-aaf6-409b-a7ab-56e59f47f87b","ios":"levelo://app?vid=bb3f8ead-aaf6-409b-a7ab-56e59f47f87b"},"vehicle_type_id":"4","last_reported":1756408071,"current_range_meters":18800,"station_id":"ce4bgl92rcd13ifvqbq0","pricing_plan_id":"cebpf4jnsgd1na2vs0mg"},{"bike_id":"f91467b6-b1ab-41b6-98fa-fe783444dfb2","system_id":"levelo_inurba_marseille","lat":43.31262,"lon":5.4018,"is_reserved":false,"is_disabled":false,"rental_uris":{"android":"levelo://app?vid=f91467b6-b1ab-41b6-98fa-fe783444dfb2","ios":"levelo://app?vid=f91467b6-b1ab-41b6-98fa-fe783444dfb2"},"vehicle_type_id":"4","last_reported":1756408071,"current_range_meters":18800,"station_id":"ce4bh092rcd13ifvqd30","pricing_plan_id":"cebpf4jnsgd1na2vs0mg"},{"bike_id":"f7c72213-bc1f-4dc8-9236-f4004cdae7b1","system_id":"levelo_inurba_marseille","lat":43.21742,"lon":5.34619,"is_reserved":false,"is_disabled":false,"rental_uris":{"android":"levelo://app?vid=f7c72213-bc1f-4dc8-9236-f4004cdae7b1","ios":"levelo://app?vid=f7c72213-bc1f-4dc8-9236-f4004cdae7b1"},"vehicle_type_id":"4","last_reported":1756408071,"current_range_meters":18800,"station_id":"st_cvj6r9ubvosntc0bgbag","pricing_plan_id":"cebpf4jnsgd1na2vs0mg"},{"bike_id":"f42d5370-e3ad-4fdd-a63d-ca59d475d1ad","system_id":"levelo_inurba_marseille","lat":43.30952,"lon":5.39038,"is_reserved":false,"is_disabled":false,"rental_uris":{"android":"levelo://app?vid=f42d5370-e3ad-4fdd-a63d-ca59d475d1ad","ios":"levelo://app?vid=f42d5370-e3ad-4fdd-a63d-ca59d475d1ad"},"vehicle_type_id":"4","last_reported":1756408071,"current_range_meters":18800,"station_id":"ce4bgup2rcd13ifvqco0","pricing_plan_id":"cebpf4jnsgd1na2vs0mg"},{"bike_id":"3cc07a99-4f00-477f-a422-57e93ddf8166","system_id":"levelo_inurba_marseille","lat":43.29265,"lon":5.38433,"is_reserved":false,"is_disabled":false,"rental_uris":{"android":"levelo://app?vid=3cc07a99-4f00-477f-a422-57e93ddf8166","ios":"levelo://app?vid=3cc07a99-4f00-477f-a422-57e93ddf8166"},"vehicle_type_id":"4","last_reported":1756408071,"current_range_meters":18800,"station_id":"ce4bh692rcd13ifvqea0","pricing_plan_id":"cebpf4jnsgd1na2vs0mg"},{"bike_id":"e66b3941-edc1-47d2-a508-6af05bed5109","system_id":"levelo_inurba_marseille","lat":43.22501,"lon":5.34783,"is_reserved":false,"is_disabled":false,"rental_uris":{"android":"levelo://app?vid=e66b3941-edc1-47d2-a508-6af05bed5109","ios":"levelo://app?vid=e66b3941-edc1-47d2-a508-6af05bed5109"},"vehicle_type_id":"4","last_reported":1756408071,"current_range_meters":18800,"station_id":"st_cvj5dfep6f1abm77gieg","pricing_plan_id":"cebpf4jnsgd1na2vs0mg"},{"bike_id":"d6e1a1dc-3a89-4a0b-b330-1305dfcaaafe","system_id":"levelo_inurba_marseille","lat":43.29279,"lon":5.36849,"is_reserved":false,"is_disabled":false,"rental_uris":{"android":"levelo://app?vid=d6e1a1dc-3a89-4a0b-b330-1305dfcaaafe","ios":"levelo://app?vid=d6e1a1dc-3a89-4a0b-b330-1305dfcaaafe"},"vehicle_type_id":"4","last_reported":1756408071,"current_range_meters":19200,"station_id":"ce4bhbp2rcd13ifvqesg","pricing_plan_id":"cebpf4jnsgd1na2vs0mg"},{"bike_id":"9d9fd81e-d971-46ee-8dfa-9c0b9d16be97","system_id":"levelo_inurba_marseille","lat":43.290321,"lon":5.386468,"is_reserved":false,"is_disabled":false,"rental_uris":{"android":"levelo://app?vid=9d9fd81e-d971-46ee-8dfa-9c0b9d16be97","ios":"levelo://app?vid=9d9fd81e-d971-46ee-8dfa-9c0b9d16be97"},"vehicle_type_id":"4","last_reported":1756408071,"current_range_meters":19200,"station_id":"ce4bh4p2rcd13ifvqe0g","pricing_plan_id":"cebpf4jnsgd1na2vs0mg"},