{"last_updated":1767856577,"ttl":60,"version":"2.2","data":{"bikes":[{"bike_id":"83711c51-4aa9-4316-b9a2-195b230609d3","system_id":"levelo_inurba_marseille","lat":43.24081,"lon":5.3775,"is_reserved":false,"is_disabled":false,"rental_uris":{"android":"levelo://app?vid=83711c51-4aa9-4316-b9a2-195b230609d3","ios":"levelo://app?vid=83711c51-4aa9-4316-b9a2-195b230609d3"},"vehicle_type_id":"4","last_reported":1767856577,"current_range_meters":2800,"station_id":"ce4bhnp2rcd13ifvqgvg","pricing_plan_id":"cebpf4jnsgd1na2vs0mg"},{"bike_id":"534107b6-f133-4eeb-83ab-a3adcbf558cd","system_id":"levelo_inurba_marseille","lat":43.295811,"lon":5.362713,"is_reserved":false,"is_disabled":false,"rental_uris":{"android":"levelo://app?vid=534107b6-f133-4eeb-83ab-a3adcbf558cd","ios":"levelo://app?vid=534107b6-f133-4eeb-83ab-a3adcbf558cd"},"vehicle_type_id":"4","last_reported":1767856577,"current_range_meters":2800,"station_id":"ce4bgs12rcd13ifvqcag","pricing_plan_id":"cebpf4jnsgd1na2vs0mg"},{"bike_id":"754e4108-4c57-4763-b08c-1bdebeea8ce2","system_id":"levelo_inurba_marseille","lat":43.28688,"lon":5.38583,"is_reserved":false,"is_disabled":false,"rental_uris":{"android":"levelo://app?vid=754e4108-4c57-4763-b08c-1bdebeea8ce2","ios":"levelo://app?vid=754e4108-4c57-4763-b08c-1bdebeea8ce2"},"vehicle_type_id":"4","last_reported":1767856577,"current_range_meters":2800,"station_id":"","pricing_plan_id":"cebpf4jnsgd1na2vs0mg"},{"bike_id":"9eb913cd-2db4-48fc-a9eb-2256ba745c47","system_id":"levelo_inurba_marseille","lat":43.31704,"lon":5.437,"is_reserved":false,"is_disabled":false,"rental_uris":{"android":"levelo://app?vid=9eb913cd-2db4-48fc-a9eb-2256ba745c47","ios":"levelo://app?vid=9eb913cd-2db4-48fc-a9eb-2256ba745c47"},"vehicle_type_id":"4","last_reported":1767856577,"current_range_meters":2800,"station_id":"ce4bhp92rcd13ifvqhcg","pricing_plan_id":"cebpf4jnsgd1na2vs0mg"},{"bike_id":"42da60a7-53da-49a5-be81-2433717a40d8","system_id":"levelo_inurba_marseille","lat":43.24553,"lon":5.39477,"is_reserved":false,"is_disabled":false,"rental_uris":{"android":"levelo://app?vid=42da60a7-53da-49a5-be81-2433717a40d8","ios":"levelo://app?vid=42da60a7-53da-49a5-be81-2433717a40d8"},"vehicle_type_id":"4","last_reported":1767856577,"current_range_meters":2800,"station_id":"ce4bhlp2rcd13ifvqgjg","pricing_plan_id":"cebpf4jnsgd1na2vs0mg"},{"bike_id":"05913a82-5d97-49fd-869e-011fe384b874","system_id":"levelo_inurba_marseille","lat":43.29854,"lon":5.37832,"is_reserved":false,"is_disabled":false,"rental_uris":{"android":"levelo://app?vid=05913a82-5d97-49fd-869e-011fe384b874","ios":"levelo://app?vid=05913a82-5d97-49fd-869e-011fe384b874"},"vehicle_type_id":"4","last_reported":1767856577,"current_range_meters":2800,"station_id":"","pricing_plan_id":"cebpf4jnsgd1na2vs0mg"},{"bike_id":"a31ba797-d219-4a65-a019-17190c6343b6","system_id":"levelo_inurba_marseille","lat":43.31926,"lon":5.37619,"is_reserved":false,"is_disabled":false,"rental_uris":{"android":"levelo://app?vid=a31ba797-d219-4a65-a019-17190c6343b6","ios":"levelo://app?vid=a31ba797-d219-4a65-a019-17190c6343b6"},"vehicle_type_id":"4","last_reported":1767856577,"current_range_meters":2800,"station_id":"","pricing_plan_id":"cebpf4jnsgd1na2vs0mg"},{"bike_id":"25bcfc78-3f0b-4981-8911-91eda9adaaf9","system_id":"levelo_inurba_marseille","lat":43.28375,"lon":5.4168,"is_reserved":false,"is_disabled":false,"rental_uris":{"android":"levelo://app?vid=25bcfc78-3f0b-4981-8911-91eda9adaaf9","ios":"levelo://app?vid=25bcfc78-3f0b-4981-8911-91eda9adaaf9"},"vehicle_type_id":"4","last_reported":1767856577,"current_range_meters":2800,"station_id":"","pricing_plan_id":"cebpf4jnsgd1na2vs0mg"},{"bike_id":"d5b0c4ed-7646-45b9-b9d3-d49c57b897b7","system_id":"levelo_inurba_marseille","lat":43.2976,"lon":5.42777,"is_reserved":false,"is_disabled":false,"rental_uris":{"android":"levelo://app?vid=d5b0c4ed-7646-45b9-b9d3-d49c57b897b7","ios":"levelo://app?vid=d5b0c4ed-7646-45b9-b9d3-d49c57b897b7"},"vehicle_type_id":"4","last_reported":1767856577,"current_range_meters":2800,"station_id":"st_d3md5207bmas73dh9klg","pricing_plan_id":"cebpf4jnsgd1na2vs0mg"},{"bike_id":"1507abe9-4f0a-436c-b8ec-5c63d2b758bb","system_id":"levelo_inurba_marseille","lat":43.29615,"lon":5.38121,"is_reserved":false,"is_disabled":false,"rental_uris":{"android":"levelo://app?vid=1507abe9-4f0a-436c-b8ec-5c63d2b758bb","ios":"levelo://app?vid=1507abe9-4f0a-436c-b8ec-5c63d2b758bb"},"vehicle_type_id":"4","last_reported":1767856577,"current_range_meters":2800,"station_id":"ce4bgl12rcd13ifvqbo0","pricing_plan_id":"cebpf4jnsgd1na2vs0mg"},{"bike_id":"4a9529fe-d336-4b8c-a2d3-9ca7c4a29fbb","system_id":"levelo_inurba_marseille","lat":43.28937,"lon":5.36619,"is_reserved":false,"is_disabled":false,"rental_uris":{"android":"levelo://app?vid=4a9529fe-d336-4b8c-a2d3-9ca7c4a29fbb","ios":"levelo://app?vid=4a9529fe-d336-4b8c-a2d3-9ca7c4a29fbb"},"vehicle_type_id":"4","last_reported":1767856577,"current_range_meters":2800,"station_id":"ce4bhap2rcd13ifvqek0","pricing_plan_id":"cebpf4jnsgd1na2vs0mg"},{"bike_id":"dac72b8a-fcff-44f7-9920-6d39a27b0772","system_id":"levelo_inurba_marseille","lat":43.230672,"lon":5.364237,"is_reserved":false,"is_disabled":false,"rental_uris":{"android":"levelo://app?vid=dac72b8a-fcff-44f7-9920-6d39a27b0772","ios":"levelo://app?vid=dac72b8a-fcff-44f7-9920-6d39a27b0772"},"vehicle_type_id":"4","last_reported":1767856577,"current_range_meters":2800,"station_id":"","pricing_plan_id":"cebpf4jnsgd1na2vs0mg"},{"bike_id":"838df1d1-fbd0-4b74-b1ae-7c6d3bfbffb2","system_id":"levelo_inurba_marseille","lat":43.29269,"lon":5.38457,"is_reserved":false,"is_disabled":true,"rental_uris":{"android":"levelo://app?vid=838df1d1-fbd0-4b74-b1ae-7c6d3bfbffb2","ios":"levelo://app?vid=838df1d1-fbd0-4b74-b1ae-7c6d3bfbffb2"},"vehicle_type_id":"4","last_reported":1767856577,"current_range_meters":3200,"station_id":"ce4bh692rcd13ifvqea0","pricing_plan_id":"cebpf4jnsgd1na2vs0mg"},{"bike_id":"32cbb5dc-7f44-46b7-b0cb-ce64452f8970","system_id":"levelo_inurba_marseille","lat":43.29932,"lon":5.36549,"is_reserved":false,"is_disabled":false,"rental_uris":{"android":"levelo://app?vid=32cbb5dc-7f44-46b7-b0cb-ce64452f8970","ios":"levelo://app?vid=32cbb5dc-7f44-46b7-b0cb-ce64452f8970"},"vehicle_type_id":"4","last_reported":1767856577,"current_range_meters":3200,"station_id":"ce4bgm92rcd13ifvqbr0","pricing_plan_id":"cebpf4jnsgd1na2vs0mg"},{"bike_id":"420c46c3-b7db-4370-a801-399aeb6649b4","system_id":"levelo_inurba_marseille","lat":43.29598,"lon":5.38096,"is_reserved":false,"is_disabled":false,"rental_uris":{"android":"levelo://app?vid=420c46c3-b7db-4370-a801-399aeb6649b4","ios":"levelo://app?vid=420c46c3-b7db-4370-a801-399aeb6649b4"},"vehicle_type_id":"4","last_reported":1767856577,"current_range_meters":3200,"station_id":"ce4bgl12rcd13ifvqbo0","pricing_plan_id":"cebpf4jnsgd1na2vs0mg"},{"bike_id":"ee33983f-10d1-4d63-8bde-105556f6242d","system_id":"levelo_inurba_marseille","lat":43.26189,"lon":5.37929,"is_reserved":false,"is_disabled":false,"rental_uris":{"android":"levelo://app?vid=ee33983f-10d1-4d63-8bde-105556f6242d","ios":"levelo://app?vid=ee33983f-10d1-4d63-8bde-105556f6242d"},"vehicle_type_id":"4","last_reported":1767856577,"current_range_meters":3200,"station_id":"ce4bhjp2rcd13ifvqg90","pricing_plan_id":"cebpf4jnsgd1na2vs0mg"},{"bike_id":"d4cb7d87-6e05-4a12-a6a8-801515607d75","system_id":"levelo_inurba_marseille","lat":43.321021,"lon":5.367871,"is_reserved":false,"is_disabled":false,"rental_uris":{"android":"levelo://app?vid=d4cb7d87-6e05-4a12-a6a8-801515607d75","ios":"levelo://app?vid=d4cb7d87-6e05-4a12-a6a8-801515607d75"},"vehicle_type_id":"4","last_reported":1767856577,"current_range_meters":3200,"station_id":"ce4bhrh2rcd13ifvqhug","pricing_plan_id":"cebpf4jnsgd1na2vs0mg"},{"bike_id":"f0ee26aa-1f32-4b29-8886-d649c0662431","system_id":"levelo_inurba_marseille","lat":43.30166,"lon":5.3811,"is_reserved":false,"is_disabled":false,"rental_uris":{"android":"levelo://app?vid=f0ee26aa-1f32-4b29-8886-d649c0662431","ios":"levelo://app?vid=f0ee26aa-1f32-4b29-8886-d649c0662431"},"vehicle_type_id":"4","last_reported":1767856577,"current_range_meters":3200,"station_id":"ce4bgjp2rcd13ifvqbh0","pricing_plan_id":"cebpf4jnsgd1na2vs0mg"},{"bike_id":"402fc9ea-1e30-41d6-ac57-deb75fc5bae8","system_id":"levelo_inurba_marseille","lat":43.31889,"lon":5.40741,"is_reserved":false,"is_disabled":false,"rental_uris":{"android":"levelo://app?vid=402fc9ea-1e30-41d6-ac57-deb75fc5bae8","ios":"levelo://app?vid=402fc9ea-1e30-41d6-ac57-deb75fc5bae8"},"vehicle_type_id":"4","last_reported":1767856577,"current_range_meters":3200,"station_id":"ce4bhq12rcd13ifvqhig","pricing_plan_id":"cebpf4jnsgd1na2vs0mg"},{"bike_id":"9a666e01-0aca-43c1-915d-fc44f8e4c0b5","system_id":"levelo_inurba_marseille","lat":43.29935,"lon":5.36552,"is_reserved":false,"is_disabled":false,"rental_uris":{"android":"levelo://app?vid=9a666e01-0aca-43c1-915d-fc44f8e4c0b5","ios":"levelo://app?vid=9a666e01-0aca-43c1-915d-fc44f8e4c0b5"},"vehicle_type_id":"4","last_reported":1767856577,"current_range_meters":3200,"station_id":"ce4bgm92rcd13ifvqbr0","pricing_plan_id":"cebpf4jnsgd1na2vs0mg"},{"bike_id":"8652dec3-eb54-4fc9-83f2-a72b3a09186e","system_id":"levelo_inurba_marseille","lat":43.30879,"lon":5.39669,"is_reserved":false,"is_disabled":false,"rental_uris":{"android":"levelo://app?vid=8652dec3-eb54-4fc9-83f2-a72b3a09186e","ios":"levelo://app?vid=8652dec3-eb54-4fc9-83f2-a72b3a09186e"},"vehicle_type_id":"4","last_reported":1767856577,"current_range_meters":3200,"station_id":"ce4bh012rcd13ifvqcv0","pricing_plan_id":"cebpf4jnsgd1na2vs0mg"},{"bike_id":"ad23fdf7-5de1-46d8-84e7-377cd8e27914","system_id":"levelo_inurba_marseille","lat":43.30926,"lon":5.41539,"is_reserved":false,"is_disabled":false,"rental_uris":{"android":"levelo://app?vid=ad23fdf7-5de1-46d8-84e7-377cd8e27914","ios":"levelo://app?vid=ad23fdf7-5de1-46d8-84e7-377cd8e27914"},"vehicle_type_id":"4","last_reported":1767856577,"current_range_meters":3600,"station_id":"","pricing_plan_id":"cebpf4jnsgd1na2vs0mg"},{"bike_id":"6174981e-bed3-4bbe-a3fa-13b0fcc75de4","system_id":"levelo_inurba_marseille","lat":43.23143,"lon":5.43712,"is_reserved":false,"is_disabled":true,"rental_uris":{"android":"levelo://app?vid=6174981e-bed3-4bbe-a3fa-13b0fcc75de4","ios":"levelo://app?vid=6174981e-bed3-4bbe-a3fa-13b0fcc75de4"},"vehicle_type_id":"4","last_reported":1767856577,"current_range_meters":3600,"station_id":"","pricing_plan_id":"cebpf4jnsgd1na2vs0mg"},{"bike_id":"d9041873-a790-4ec5-9bcf-7158fa8b3b6a","system_id":"levelo_inurba_marseille","lat":43.29937,"lon":5.36518,"is_reserved":false,"is_disabled":false,"rental_uris":{"android":"levelo://app?vid=d9041873-a790-4ec5-9bcf-7158fa8b3b6a","ios":"levelo://app?vid=d9041873-a790-4ec5-9bcf-7158fa8b3b6a"},"vehicle_type_id":"4","last_reported":1767856577,"current_range_meters":3600,"station_id":"ce4bgm92rcd13ifvqbr0","pricing_plan_id":"cebpf4jnsgd1na2vs0mg"},{"bike_id":"26471476-0788-4cdb-9b4d-9f0b3e686ab5","system_id":"levelo_inurba_marseille","lat":43.31557,"lon":5.37211,"is_reserved":false,"is_disabled":false,"rental_uris":{"android":"levelo://app?vid=26471476-0788-4cdb-9b4d-9f0b3e686ab5","ios":"levelo://app?vid=26471476-0788-4cdb-9b4d-9f0b3e686ab5"},"vehicle_type_id":"4","last_reported":1767856577,"current_range_meters":3600,"station_id":"","pricing_plan_id":"cebpf4jnsgd1na2vs0mg"},{"bike_id":"be1c645e-7826-4da2-b670-ced6d8bad7a4","system_id":"levelo_inurba_marseille","lat":43.30591,"lon":5.39361,"is_reserved":false,"is_disabled":false,"rental_uris":{"android":"levelo://app?vid=be1c645e-7826-4da2-b670-ced6d8bad7a4","ios":"levelo://app?vid=be1c645e-7826-4da2-b670-ced6d8bad7a4"},"vehicle_type_id":"4","last_reported":1767856577,"current_range_meters":3600,"station_id":"ce4bh0p2rcd13ifvqd80","pricing_plan_id":"cebpf4jnsgd1na2vs0mg"},{"bike_id":"222badfd-5695-4c5f-8b12-a4274837eb6d","system_id":"levelo_inurba_marseille","lat":43.26201,"lon":5.40426,"is_reserved":false,"is_disabled":false,"rental_uris":{"android":"levelo://app?vid=222badfd-5695-4c5f-8b12-a4274837eb6d","ios":"levelo://app?vid=222badfd-5695-4c5f-8b12-a4274837eb6d"},"vehicle_type_id":"4","last_reported":1767856577,"current_range_meters":3600,"station_id":"ce4bhmh2rcd13ifvqgmg","pricing_plan_id":"cebpf4jnsgd1na2vs0mg"},{"bike_id":"8f8477b6-07ed-4fdd-aa03-c89764869fff","system_id":"levelo_inurba_marseille","lat":43.297862,"lon":5.38096,"is_reserved":false,"is_disabled":false,"rental_uris":{"android":"levelo://app?vid=8f8477b6-07ed-4fdd-aa03-c89764869fff","ios":"levelo://app?vid=8f8477b6-07ed-4fdd-aa03-c89764869fff"},"vehicle_type_id":"4","last_reported":1767856577,"current_range_meters":3600,"station_id":"ce4bgip2rcd13ifvqbb0","pricing_plan_id":"cebpf4jnsgd1na2vs0mg"},{"bike_id":"0527719c-8389-4c55-b680-f88d7ac119a0","system_id":"levelo_inurba_marseille","lat":43.27192,"lon":5.40996,"is_reserved":false,"is_disabled":false,"rental_uris":{"android":"levelo://app?vid=0527719c-8389-4c55-b680-f88d7ac119a0","ios":"levelo://app?vid=0527719c-8389-4c55-b680-f88d7ac119a0"},"vehicle_type_id":"4","last_reported":1767856577,"current_range_meters":4000,"station_id":"ce4bhl12rcd13ifvqgf0","pricing_plan_id":"cebpf4jnsgd1na2vs0mg"},{"bike_id":"392514f8-9a36-43a5-9b89-e2ab1d47c731","system_id":"levelo_inurba_marseille","lat":43.26866,"lon":5.40373,"is_reserved":false,"is_disabled":false,"rental_uris":{"android":"levelo://app?vid=392514f8-9a36-43a5-9b89-e2ab1d47c731","ios":"levelo://app?vid=392514f8-9a36-43a5-9b89-e2ab1d47c731"},"vehicle_type_id":"4","last_reported":1767856577,"current_range_meters":4000,"station_id":"","pricing_plan_id":"cebpf4jnsgd1na2vs0mg"},{"bike_id":"067ca337-309a-4444-a755-1124e864d8c9","system_id":"levelo_inurba_marseille","lat":43.29513,"lon":5.39396,"is_reserved":false,"is_disabled":true,"rental_uris":{"android":"levelo://app?vid=067ca337-309a-4444-a755-1124e864d8c9","ios":"levelo://app?vid=067ca337-309a-4444-a755-1124e864d8c9"},"vehicle_type_id":"4","last_reported":1767856577,"current_range_meters":4000,"station_id":"ce4bh292rcd13ifvqdf0","pricing_plan_id":"cebpf4jnsgd1na2vs0mg"},{"bike_id":"f323eec5-f654-4bdf-8118-8c8db52565b4","system_id":"levelo_inurba_marseille","lat":43.28497,"lon":5.38662,"is_reserved":false,"is_disabled":false,"rental_uris":{"android":"levelo://app?vid=f323eec5-f654-4bdf-8118-8c8db52565b4","ios":"levelo://app?vid=f323eec5-f654-4bdf-8118-8c8db52565b4"},"vehicle_type_id":"4","last_reported":1767856577,"current_range_meters":4000,"station_id":"","pricing_plan_id":"cebpf4jnsgd1na2vs0mg"},{"bike_id":"273d98d8-16ff-4b69-861b-0aa1773f3e40","system_id":"levelo_inurba_marseille","lat":43.31694,"lon":5.40489,"is_reserved":false,"is_disabled":true,"rental_uris":{"android":"levelo://app?vid=273d98d8-16ff-4b69-861b-0aa1773f3e40","ios":"levelo://app?vid=273d98d8-16ff-4b69-861b-0aa1773f3e40"},"vehicle_type_id":"4","last_reported":1767856577,"current_range_meters":4000,"station_id":"ce4bh012rcd13ifvqd00","pricing_plan_id":"cebpf4jnsgd1na2vs0mg"},{"bike_id":"c2776bc4-b400-48ff-86f6-b46d67e67ff8","system_id":"levelo_inurba_marseille","lat":43.30957,"lon":5.39078,"is_reserved":false,"is_disabled":false,"rental_uris":{"android":"levelo://app?vid=c2776bc4-b400-48ff-86f6-b46d67e67ff8","ios":"levelo://app?vid=c2776bc4-b400-48ff-86f6-b46d67e67ff8"},"vehicle_type_id":"4","last_reported":1767856577,"current_range_meters":4000,"station_id":"ce4bgup2rcd13ifvqco0","pricing_plan_id":"cebpf4jnsgd1na2vs0mg"},{"bike_id":"ff40f1aa-d014-44ca-a916-beb8f566d452","system_id":"levelo_inurba_marseille","lat":43.29036,"lon":5.38657,"is_reserved":false,"is_disabled":false,"rental_uris":{"android":"levelo://app?vid=ff40f1aa-d014-44ca-a916-beb8f566d452","ios":"levelo://app?vid=ff40f1aa-d014-44ca-a916-beb8f566d452"},"vehicle_type_id":"4","last_reported":1767856577,"current_range_meters":4000,"station_id":"ce4bh4p2rcd13ifvqe0g","pricing_plan_id":"cebpf4jnsgd1na2vs0mg"},{"bike_id":"7e682e36-b1ae-4a20-ac09-db20276ca875","system_id":"levelo_inurba_marseille","lat":43.2841,"lon":5.37519,"is_reserved":false,"is_disabled":false,"rental_uris":{"android":"levelo://app?vid=7e682e36-b1ae-4a20-ac09-db20276ca875","ios":"levelo://app?vid=7e682e36-b1ae-4a20-ac09-db20276ca875"},"vehicle_type_id":"4","last_reported":1767856577,"current_range_meters":4000,"station_id":"ce4bh412rcd13ifvqds0","pricing_plan_id":"cebpf4jnsgd1na2vs0mg"},{"bike_id":"def111a5-a184-45ba-a9eb-9415a8bd8b57","system_id":"levelo_inurba_marseille","lat":43.30908,"lon":5.40157,"is_reserved":false,"is_disabled":false,"rental_uris":{"android":"levelo://app?vid=def111a5-a184-45ba-a9eb-9415a8bd8b57","ios":"levelo://app?vid=def111a5-a184-45ba-a9eb-9415a8bd8b57"},"vehicle_type_id":"4","last_reported":1767856577,"current_range_meters":4000,"station_id":"ce4bgvp2rcd13ifvqct0","pricing_plan_id":"cebpf4jnsgd1na2vs0mg"},{"bike_id":"f1e16404-dd6d-4201-84dc-2e36328eb2b4","system_id":"levelo_inurba_marseille","lat":43.2894,"lon":5.39619,"is_reserved":false,"is_disabled":false,"rental_uris":{"android":"levelo://app?vid=f1e16404-dd6d-4201-84dc-2e36328eb2b4","ios":"levelo://app?vid=f1e16404-dd6d-4201-84dc-2e36328eb2b4"},"vehicle_type_id":"4","last_reported":1767856577,"current_range_meters":4000,"station_id":"ce4bh3h2rcd13ifvqdn0","pricing_plan_id":"cebpf4jnsgd1na2vs0mg"},{"bike_id":"03460ca9-8c36-47aa-af8e-812e4bde4456","system_id":"levelo_inurba_marseille","lat":43.28688,"lon":5.38659,"is_reserved":false,"is_disabled":false,"rental_uris":{"android":"levelo://app?vid=03460ca9-8c36-47aa-af8e-812e4bde4456","ios":"levelo://app?vid=03460ca9-8c36-47aa-af8e-812e4bde4456"},"vehicle_type_id":"4","last_reported":1767856577,"current_range_meters":4400,"station_id":"ce4bh492rcd13ifvqdug","pricing_plan_id":"cebpf4jnsgd1na2vs0mg"},{"bike_id":"c0c8695a-5dc1-437f-a20b-09acef88b652","system_id":"levelo_inurba_marseille","lat":43.282709,"lon":5.350498,"is_reserved":false,"is_disabled":false,"rental_uris":{"android":"levelo://app?vid=c0c8695a-5dc1-437f-a20b-09acef88b652","ios":"levelo://app?vid=c0c8695a-5dc1-437f-a20b-09acef88b652"},"vehicle_type_id":"4","last_reported":1767856577,"current_range_meters":4400,"station_id":"ce4bhbp2rcd13ifvqerg","pricing_plan_id":"cebpf4jnsgd1na2vs0mg"},{"bike_id":"772bf3b5-2fb2-4abd-a529-fdf3012df8cc","system_id":"levelo_inurba_marseille","lat":43.25191,"lon":5.40595,"is_reserved":false,"is_disabled":false,"rental_uris":{"android":"levelo://app?vid=772bf3b5-2fb2-4abd-a529-fdf3012df8cc","ios":"levelo://app?vid=772bf3b5-2fb2-4abd-a529-fdf3012df8cc"},"vehicle_type_id":"4","last_reported":1767856577,"current_range_meters":4400,"station_id":"","pricing_plan_id":"cebpf4jnsgd1na2vs0mg"},{"bike_id":"e2de6e33-136a-4b50-9bee-761873cb6ead","system_id":"levelo_inurba_marseille","lat":43.26073,"lon":5.39385,"is_reserved":false,"is_disabled":false,"rental_uris":{"android":"levelo://app?vid=e2de6e33-136a-4b50-9bee-761873cb6ead","ios":"levelo://app?vid=e2de6e33-136a-4b50-9bee-761873cb6ead"},"vehicle_type_id":"4","last_reported":1767856577,"current_range_meters":4400,"station_id":"ce4bhh92rcd13ifvqfj0","pricing_plan_id":"cebpf4jnsgd1na2vs0mg"},{"bike_id":"c611e504-3b77-4b59-aa38-47c771d39d7d","system_id":"levelo_inurba_marseille","lat":43.2838,"lon":5.37614,"is_reserved":false,"is_disabled":false,"rental_uris":{"android":"levelo://app?vid=c611e504-3b77-4b59-aa38-47c771d39d7d","ios":"levelo://app?vid=c611e504-3b77-4b59-aa38-47c771d39d7d"},"vehicle_type_id":"4","last_reported":1767856577,"current_range_meters":4400,"station_id":"","pricing_plan_id":"cebpf4jnsgd1na2vs0mg"},{"bike_id":"f96412fb-997e-42d9-b749-fc2d5aec351b","system_id":"levelo_inurba_marseille","lat":43.323693,"lon":5.38885,"is_reserved":false,"is_disabled":false,"rental_uris":{"android":"levelo://app?vid=f96412fb-997e-42d9-b749-fc2d5aec351b","ios":"levelo://app?vid=f96412fb-997e-42d9-b749-fc2d5aec351b"},"vehicle_type_id":"4","last_reported":1767856577,"current_range_meters":4400,"station_id":"ce4bhqp2rcd13ifvqhog","pricing_plan_id":"cebpf4jnsgd1na2vs0mg"},{"bike_id":"a7e8b4f8-15c7-4593-b8a1-1dc1d30ad189","system_id":"levelo_inurba_marseille","lat":43.32053,"lon":5.38408,"is_reserved":false,"is_disabled":false,"rental_uris":{"android":"levelo://app?vid=a7e8b4f8-15c7-4593-b8a1-1dc1d30ad189","ios":"levelo://app?vid=a7e8b4f8-15c7-4593-b8a1-1dc1d30ad189"},"vehicle_type_id":"4","last_reported":1767856577,"current_range_meters":4400,"station_id":"","pricing_plan_id":"cebpf4jnsgd1na2vs0mg"},{"bike_id":"80218f40-fe36-41e7-a9ea-0e24ebe75ec7","system_id":"levelo_inurba_marseille","lat":43.32063,"lon":5.415506,"is_reserved":false,"is_disabled":false,"rental_uris":{"android":"levelo://app?vid=80218f40-fe36-41e7-a9ea-0e24ebe75ec7","ios":"levelo://app?vid=80218f40-fe36-41e7-a9ea-0e24ebe75ec7"},"vehicle_type_id":"4","last_reported":1767856577,"current_range_meters":4400,"station_id":"ce4bhq92rcd13ifvqhkg","pricing_plan_id":"cebpf4jnsgd1na2vs0mg"},{"bike_id":"0adcdd55-edfd-43da-a75e-6fca26c7e1e7","system_id":"levelo_inurba_marseille","lat":43.29599,"lon":5.3811,"is_reserved":false,"is_disabled":false,"rental_uris":{"android":"levelo://app?vid=0adcdd55-edfd-43da-a75e-6fca26c7e1e7","ios":"levelo://app?vid=0adcdd55-edfd-43da-a75e-6fca26c7e1e7"},"vehicle_type_id":"4","last_reported":1767856577,"current_range_meters":4400,"station_id":"ce4bgl12rcd13ifvqbo0","pricing_plan_id":"cebpf4jnsgd1na2vs0mg"},{"bike_id":"0622f7c5-ee76-4fc8-a5df-57e2aa3c0085","system_id":"levelo_inurba_marseille","lat":43.29937,"lon":5.38064,"is_reserved":false,"is_disabled":false,"rental_uris":{"android":"levelo://app?vid=0622f7c5-ee76-4fc8-a5df-57e2aa3c0085","ios":"levelo://app?vid=0622f7c5-ee76-4fc8-a5df-57e2aa3c0085"},"vehicle_type_id":"4","last_reported":1767856577,"current_range_meters":4800,"station_id":"","pricing_plan_id":"cebpf4jnsgd1na2vs0mg"},{"bike_id":"e90f7184-cd39-4bc0-805c-9ce2c7183400","system_id":"levelo_inurba_marseille","lat":43.262,"lon":5.37909,"is_reserved":false,"is_disabled":false,"rental_uris":{"android":"levelo://app?vid=e90f7184-cd39-4bc0-805c-9ce2c7183400","ios":"levelo://app?vid=e90f7184-cd39-4bc0-805c-9ce2c7183400"},"vehicle_type_id":"4","last_reported":1767856577,"current_range_meters":4800,"station_id":"ce4bhjp2rcd13ifvqg90","pricing_plan_id":"cebpf4jnsgd1na2vs0mg"},{"bike_id":"68d31c7e-e6d4-4d41-9a2c-1845cf8d6ddb","system_id":"levelo_inurba_marseille","lat":43.2928,"lon":5.40115,"is_reserved":false,"is_disabled":false,"rental_uris":{"android":"levelo://app?vid=68d31c7e-e6d4-4d41-9a2c-1845cf8d6ddb","ios":"levelo://app?vid=68d31c7e-e6d4-4d41-9a2c-1845cf8d6ddb"},"vehicle_type_id":"4","last_reported":1767856577,"current_range_meters":4800,"station_id":"ce4bh312rcd13ifvqdk0","pricing_plan_id":"cebpf4jnsgd1na2vs0mg"},{"bike_id":"ce52b8f8-9066-45a8-8b05-34bc7d40a28f","system_id":"levelo_inurba_marseille","lat":43.284118,"lon":5.349969,"is_reserved":false,"is_disabled":false,"rental_uris":{"android":"levelo://app?vid=ce52b8f8-9066-45a8-8b05-34bc7d40a28f","ios":"levelo://app?vid=ce52b8f8-9066-45a8-8b05-34bc7d40a28f"},"vehicle_type_id":"4","last_reported":1767856577,"current_range_meters":4800,"station_id":"ce4bhbh2rcd13ifvqepg","pricing_plan_id":"cebpf4jnsgd1na2vs0mg"},{"bike_id":"35c3cbbb-0469-478d-b4da-bfb159e2f13b","system_id":"levelo_inurba_marseille","lat":43.25933,"lon":5.40923,"is_reserved":false,"is_disabled":true,"rental_uris":{"android":"levelo://app?vid=35c3cbbb-0469-478d-b4da-bfb159e2f13b","ios":"levelo://app?vid=35c3cbbb-0469-478d-b4da-bfb159e2f13b"},"vehicle_type_id":"4","last_reported":1767856577,"current_range_meters":4800,"station_id":"ce4bhm92rcd13ifvqglg","pricing_plan_id":"cebpf4jnsgd1na2vs0mg"},{"bike_id":"ffd3e781-5d7a-402d-b3cd-fe187c01f227","system_id":"levelo_inurba_marseille","lat":43.292003,"lon":5.402749,"is_reserved":false,"is_disabled":false,"rental_uris":{"android":"levelo://app?vid=ffd3e781-5d7a-402d-b3cd-fe187c01f227","ios":"levelo://app?vid=ffd3e781-5d7a-402d-b3cd-fe187c01f227"},"vehicle_type_id":"4","last_reported":1767856577,"current_range_meters":4800,"station_id":"","pricing_plan_id":"cebpf4jnsgd1na2vs0mg"},{"bike_id":"7939a134-37d8-49a1-8928-bbe64f2e032d","system_id":"levelo_inurba_marseille","lat":43.30161,"lon":5.38114,"is_reserved":false,"is_disabled":false,"rental_uris":{"android":"levelo://app?vid=7939a134-37d8-49a1-8928-bbe64f2e032d","ios":"levelo://app?vid=7939a134-37d8-49a1-8928-bbe64f2e032d"},"vehicle_type_id":"4","last_reported":1767856577,"current_range_meters":4800,"station_id":"ce4bgjp2rcd13ifvqbh0","pricing_plan_id":"cebpf4jnsgd1na2vs0mg"},{"bike_id":"95829d7f-c87b-420d-8adf-19dc54871611","system_id":"levelo_inurba_marseille","lat":43.26677,"lon":5.38258,"is_reserved":false,"is_disabled":false,"rental_uris":{"android":"levelo://app?vid=95829d7f-c87b-420d-8adf-19dc54871611","ios":"levelo://app?vid=95829d7f-c87b-420d-8adf-19dc54871611"},"vehicle_type_id":"4","last_reported":1767856577,"current_range_meters":4800,"station_id":"ce4bhg92rcd13ifvqf90","pricing_plan_id":"cebpf4jnsgd1na2vs0mg"},{"bike_id":"67d11be0-e6fc-45cf-9510-ea8c0226d011","system_id":"levelo_inurba_marseille","lat":43.29824,"lon":5.4407,"is_reserved":false,"is_disabled":true,"rental_uris":{"android":"levelo://app?vid=67d11be0-e6fc-45cf-9510-ea8c0226d011","ios":"levelo://app?vid=67d11be0-e6fc-45cf-9510-ea8c0226d011"},"vehicle_type_id":"4","last_reported":1767856577,"current_range_meters":4800,"station_id":"st_d3jp68qikq2c7381ktn0","pricing_plan_id":"cebpf4jnsgd1na2vs0mg"},{"bike_id":"98249e23-d727-42e2-bc64-1013f35aedc9","system_id":"levelo_inurba_marseille","lat":43.23048,"lon":5.35498,"is_reserved":false,"is_disabled":false,"rental_uris":{"android":"levelo://app?vid=98249e23-d727-42e2-bc64-1013f35aedc9","ios":"levelo://app?vid=98249e23-d727-42e2-bc64-1013f35aedc9"},"vehicle_type_id":"4","last_reported":1767856577,"current_range_meters":5600,"station_id":"cpo3342slgdg3j2ifvpg","pricing_plan_id":"cebpf4jnsgd1na2vs0mg"},{"bike_id":"6ff099e3-8539-492e-9132-d979c6733bdf","system_id":"levelo_inurba_marseille","lat":43.26563,"lon":5.39014,"is_reserved":false,"is_disabled":false,"rental_uris":{"android":"levelo://app?vid=6ff099e3-8539-492e-9132-d979c6733bdf","ios":"levelo://app?vid=6ff099e3-8539-492e-9132-d979c6733bdf"},"vehicle_type_id":"4","last_reported":1767856577,"current_range_meters":5600,"station_id":"ce4bhe12rcd13ifvqf30","pricing_plan_id":"cebpf4jnsgd1na2vs0mg"},{"bike_id":"6780348f-fb93-4884-95fc-676ab6258ce9","system_id":"levelo_inurba_marseille","lat":43.270568,"lon":5.38308,"is_reserved":false,"is_disabled":false,"rental_uris":{"android":"levelo://app?vid=6780348f-fb93-4884-95fc-676ab6258ce9","ios":"levelo://app?vid=6780348f-fb93-4884-95fc-676ab6258ce9"},"vehicle_type_id":"4","last_reported":1767856577,"current_range_meters":5600,"station_id":"st_d3n2fo6cfp8s73cte1j0","pricing_plan_id":"cebpf4jnsgd1na2vs0mg"},{"bike_id":"a6fa92d4-bf35-44f1-915c-71368e2bdb29","system_id":"levelo_inurba_marseille","lat":43.28438,"lon":5.39201,"is_reserved":false,"is_disabled":false,"rental_uris":{"android":"levelo://app?vid=a6fa92d4-bf35-44f1-915c-71368e2bdb29","ios":"levelo://app?vid=a6fa92d4-bf35-44f1-915c-71368e2bdb29"},"vehicle_type_id":"4","last_reported":1767856577,"current_range_meters":5600,"station_id":"ce4bhoh2rcd13ifvqh5g","pricing_plan_id":"cebpf4jnsgd1na2vs0mg"},{"bike_id":"3cab5084-314a-4ac7-8e10-1255d6e07f7a","system_id":"levelo_inurba_marseille","lat":43.297804,"lon":5.371171,"is_reserved":false,"is_disabled":true,"rental_uris":{"android":"levelo://app?vid=3cab5084-314a-4ac7-8e10-1255d6e07f7a","ios":"levelo://app?vid=3cab5084-314a-4ac7-8e10-1255d6e07f7a"},"vehicle_type_id":"4","last_reported":1767856577,"current_range_meters":5600,"station_id":"ce4bgop2rcd13ifvqc1g","pricing_plan_id":"cebpf4jnsgd1na2vs0mg"},{"bike_id":"796165dd-6233-4b3e-bc69-5c2707fdcdd0","system_id":"levelo_inurba_marseille","lat":43.25506,"lon":5.37645,"is_reserved":false,"is_disabled":false,"rental_uris":{"android":"levelo://app?vid=796165dd-6233-4b3e-bc69-5c2707fdcdd0","ios":"levelo://app?vid=796165dd-6233-4b3e-bc69-5c2707fdcdd0"},"vehicle_type_id":"4","last_reported":1767856577,"current_range_meters":5600,"station_id":"ce4bhh12rcd13ifvqff0","pricing_plan_id":"cebpf4jnsgd1na2vs0mg"},{"bike_id":"4db89cd4-c5c0-4b0d-9bc8-e5c1ff64bca0","system_id":"levelo_inurba_marseille","lat":43.29585,"lon":5.38132,"is_reserved":false,"is_disabled":true,"rental_uris":{"android":"levelo://app?vid=4db89cd4-c5c0-4b0d-9bc8-e5c1ff64bca0","ios":"levelo://app?vid=4db89cd4-c5c0-4b0d-9bc8-e5c1ff64bca0"},"vehicle_type_id":"4","last_reported":1767856577,"current_range_meters":5600,"station_id":"ce4bgl12rcd13ifvqbo0","pricing_plan_id":"cebpf4jnsgd1na2vs0mg"},{"bike_id":"d1f848a2-07f1-4d5f-9606-0c234674244b","system_id":"levelo_inurba_marseille","lat":43.31756,"lon":5.39015,"is_reserved":false,"is_disabled":false,"rental_uris":{"android":"levelo://app?vid=d1f848a2-07f1-4d5f-9606-0c234674244b","ios":"levelo://app?vid=d1f848a2-07f1-4d5f-9606-0c234674244b"},"vehicle_type_id":"4","last_reported":1767856577,"current_range_meters":5600,"station_id":"ce4bhqp2rcd13ifvqhng","pricing_plan_id":"cebpf4jnsgd1na2vs0mg"},{"bike_id":"44833d54-0e08-4546-b788-0c7150b05378","system_id":"levelo_inurba_marseille","lat":43.28479,"lon":5.48402,"is_reserved":false,"is_disabled":false,"rental_uris":{"android":"levelo://app?vid=44833d54-0e08-4546-b788-0c7150b05378","ios":"levelo://app?vid=44833d54-0e08-4546-b788-0c7150b05378"},"vehicle_type_id":"4","last_reported":1767856577,"current_range_meters":5600,"station_id":"st_d3svhcjqgbts73a3dn0g","pricing_plan_id":"cebpf4jnsgd1na2vs0mg"},{"bike_id":"dc2ed42d-4b53-4e4f-9010-8036641caedf","system_id":"levelo_inurba_marseille","lat":43.27495,"lon":5.42465,"is_reserved":false,"is_disabled":false,"rental_uris":{"android":"levelo://app?vid=dc2ed42d-4b53-4e4f-9010-8036641caedf","ios":"levelo://app?vid=dc2ed42d-4b53-4e4f-9010-8036641caedf"},"vehicle_type_id":"4","last_reported":1767856577,"current_range_meters":5600,"station_id":"ce4bhn92rcd13ifvqgrg","pricing_plan_id":"cebpf4jnsgd1na2vs0mg"},{"bike_id":"116d5bcc-aa6a-45f6-8be4-b586d88a5403","system_id":"levelo_inurba_marseille","lat":43.29561,"lon":5.39978,"is_reserved":false,"is_disabled":false,"rental_uris":{"android":"levelo://app?vid=116d5bcc-aa6a-45f6-8be4-b586d88a5403","ios":"levelo://app?vid=116d5bcc-aa6a-45f6-8be4-b586d88a5403"},"vehicle_type_id":"4","last_reported":1767856577,"current_range_meters":5600,"station_id":"ce4bh312rcd13ifvqdj0","pricing_plan_id":"cebpf4jnsgd1na2vs0mg"},{"bike_id":"f059b61f-2955-4212-a201-090e4778e418","system_id":"levelo_inurba_marseille","lat":43.27076,"lon":5.38638,"is_reserved":false,"is_disabled":false,"rental_uris":{"android":"levelo://app?vid=f059b61f-2955-4212-a201-090e4778e418","ios":"levelo://app?vid=f059b61f-2955-4212-a201-090e4778e418"},"vehicle_type_id":"4","last_reported":1767856577,"current_range_meters":5600,"station_id":"","pricing_plan_id":"cebpf4jnsgd1na2vs0mg"},{"bike_id":"d0d67774-3af3-4c86-b7b6-8109c321647b","system_id":"levelo_inurba_marseille","lat":43.22936,"lon":5.35378,"is_reserved":false,"is_disabled":false,"rental_uris":{"android":"levelo://app?vid=d0d67774-3af3-4c86-b7b6-8109c321647b","ios":"levelo://app?vid=d0d67774-3af3-4c86-b7b6-8109c321647b"},"vehicle_type_id":"4","last_reported":1767856577,"current_range_meters":5600,"station_id":"cpo3532slgdg3j2ikp40","pricing_plan_id":"cebpf4jnsgd1na2vs0mg"},{"bike_id":"cb85a0c8-91d1-4ec6-9391-cb8576a2629d","system_id":"levelo_inurba_marseille","lat":43.30537,"lon":5.36541,"is_reserved":false,"is_disabled":false,"rental_uris":{"android":"levelo://app?vid=cb85a0c8-91d1-4ec6-9391-cb8576a2629d","ios":"levelo://app?vid=cb85a0c8-91d1-4ec6-9391-cb8576a2629d"},"vehicle_type_id":"4","last_reported":1767856577,"current_range_meters":5600,"station_id":"ce4bgs12rcd13ifvqcag","pricing_plan_id":"cebpf4jnsgd1na2vs0mg"},{"bike_id":"f9694d4b-6e2f-4fc5-ae06-59dad6b1ea4d","system_id":"levelo_inurba_marseille","lat":43.25012,"lon":5.3753,"is_reserved":false,"is_disabled":false,"rental_uris":{"android":"levelo://app?vid=f9694d4b-6e2f-4fc5-ae06-59dad6b1ea4d","ios":"levelo://app?vid=f9694d4b-6e2f-4fc5-ae06-59dad6b1ea4d"},"vehicle_type_id":"4","last_reported":1767856577,"current_range_meters":6000,"station_id":"","pricing_plan_id":"cebpf4jnsgd1na2vs0mg"},{"bike_id":"948bd2ed-8fdc-4ef6-9827-a943cc835e12","system_id":"levelo_inurba_marseille","lat":43.301238,"lon":5.431087,"is_reserved":false,"is_disabled":false,"rental_uris":{"android":"levelo://app?vid=948bd2ed-8fdc-4ef6-9827-a943cc835e12","ios":"levelo://app?vid=948bd2ed-8fdc-4ef6-9827-a943cc835e12"},"vehicle_type_id":"4","last_reported":1767856577,"current_range_meters":6000,"station_id":"st_d3js3co5814s73ftftug","pricing_plan_id":"cebpf4jnsgd1na2vs0mg"},{"bike_id":"2afed3db-e2da-422b-9792-6d03f768ecc2","system_id":"levelo_inurba_marseille","lat":43.314987,"lon":5.373027,"is_reserved":false,"is_disabled":true,"rental_uris":{"android":"levelo://app?vid=2afed3db-e2da-422b-9792-6d03f768ecc2","ios":"levelo://app?vid=2afed3db-e2da-422b-9792-6d03f768ecc2"},"vehicle_type_id":"4","last_reported":1767856577,"current_range_meters":6000,"station_id":"ce4bgt12rcd13ifvqcd0","pricing_plan_id":"cebpf4jnsgd1na2vs0mg"},{"bike_id":"b149c117-98ef-4c38-aceb-298ce1f4a106","system_id":"levelo_inurba_marseille","lat":43.307832,"lon":5.376536,"is_reserved":false,"is_disabled":false,"rental_uris":{"android":"levelo://app?vid=b149c117-98ef-4c38-aceb-298ce1f4a106","ios":"levelo://app?vid=b149c117-98ef-4c38-aceb-298ce1f4a106"},"vehicle_type_id":"4","last_reported":1767856577,"current_range_meters":6000,"station_id":"ce4bgv92rcd13ifvqcq0","pricing_plan_id":"cebpf4jnsgd1na2vs0mg"},{"bike_id":"03bb26cc-5abe-463b-b42d-df12dfc80fb1","system_id":"levelo_inurba_marseille","lat":43.2799,"lon":5.40009,"is_reserved":false,"is_disabled":false,"rental_uris":{"android":"levelo://app?vid=03bb26cc-5abe-463b-b42d-df12dfc80fb1","ios":"levelo://app?vid=03bb26cc-5abe-463b-b42d-df12dfc80fb1"},"vehicle_type_id":"4","last_reported":1767856577,"current_range_meters":6000,"station_id":"ce4bho92rcd13ifvqh4g","pricing_plan_id":"cebpf4jnsgd1na2vs0mg"},{"bike_id":"0076bf2a-ba6e-491e-990e-dad36b9a258b","system_id":"levelo_inurba_marseille","lat":43.304483,"lon":5.389057,"is_reserved":false,"is_disabled":false,"rental_uris":{"android":"levelo://app?vid=0076bf2a-ba6e-491e-990e-dad36b9a258b","ios":"levelo://app?vid=0076bf2a-ba6e-491e-990e-dad36b9a258b"},"vehicle_type_id":"4","last_reported":1767856577,"current_range_meters":6000,"station_id":"ce4bgk12rcd13ifvqbi0","pricing_plan_id":"cebpf4jnsgd1na2vs0mg"},{"bike_id":"e9ea9589-73ba-4432-bac3-5d194ec52ef8","system_id":"levelo_inurba_marseille","lat":43.269448,"lon":5.386198,"is_reserved":false,"is_disabled":false,"rental_uris":{"android":"levelo://app?vid=e9ea9589-73ba-4432-bac3-5d194ec52ef8","ios":"levelo://app?vid=e9ea9589-73ba-4432-bac3-5d194ec52ef8"},"vehicle_type_id":"4","last_reported":1767856577,"current_range_meters":6000,"station_id":"ce4bhh92rcd13ifvqfh0","pricing_plan_id":"cebpf4jnsgd1na2vs0mg"},{"bike_id":"ce13b0f0-8794-4d26-9d61-e42dc27aaf84","system_id":"levelo_inurba_marseille","lat":43.30468,"lon":5.37895,"is_reserved":false,"is_disabled":false,"rental_uris":{"android":"levelo://app?vid=ce13b0f0-8794-4d26-9d61-e42dc27aaf84","ios":"levelo://app?vid=ce13b0f0-8794-4d26-9d61-e42dc27aaf84"},"vehicle_type_id":"4","last_reported":1767856577,"current_range_meters":6000,"station_id":"ce4bgup2rcd13ifvqcn0","pricing_plan_id":"cebpf4jnsgd1na2vs0mg"},{"bike_id":"ca27890e-612e-41f2-b590-56bc13733871","system_id":"levelo_inurba_marseille","lat":43.31073,"lon":5.38367,"is_reserved":false,"is_disabled":false,"rental_uris":{"android":"levelo://app?vid=ca27890e-612e-41f2-b590-56bc13733871","ios":"levelo://app?vid=ca27890e-612e-41f2-b590-56bc13733871"},"vehicle_type_id":"4","last_reported":1767856577,"current_range_meters":6000,"station_id":"ce4bgv92rcd13ifvqcr0","pricing_plan_id":"cebpf4jnsgd1na2vs0mg"},{"bike_id":"eae761f2-f1a7-4631-8e16-2a20f2149437","system_id":"levelo_inurba_marseille","lat":43.26563,"lon":5.39002,"is_reserved":false,"is_disabled":true,"rental_uris":{"android":"levelo://app?vid=eae761f2-f1a7-4631-8e16-2a20f2149437","ios":"levelo://app?vid=eae761f2-f1a7-4631-8e16-2a20f2149437"},"vehicle_type_id":"4","last_reported":1767856577,"current_range_meters":6000,"station_id":"ce4bhe12rcd13ifvqf30","pricing_plan_id":"cebpf4jnsgd1na2vs0mg"},{"bike_id":"d75a90cd-5dce-4bdd-84ef-6b9526859b57","system_id":"levelo_inurba_marseille","lat":43.32475,"lon":5.38259,"is_reserved":false,"is_disabled":false,"rental_uris":{"android":"levelo://app?vid=d75a90cd-5dce-4bdd-84ef-6b9526859b57","ios":"levelo://app?vid=d75a90cd-5dce-4bdd-84ef-6b9526859b57"},"vehicle_type_id":"4","last_reported":1767856577,"current_range_meters":6000,"station_id":"st_d4asgbiv49dc73anf9m0","pricing_plan_id":"cebpf4jnsgd1na2vs0mg"},{"bike_id":"5a68ff48-3ca4-4b8d-81f5-0545c9e06ce5","system_id":"levelo_inurba_marseille","lat":43.28867,"lon":5.42524,"is_reserved":false,"is_disabled":false,"rental_uris":{"android":"levelo://app?vid=5a68ff48-3ca4-4b8d-81f5-0545c9e06ce5","ios":"levelo://app?vid=5a68ff48-3ca4-4b8d-81f5-0545c9e06ce5"},"vehicle_type_id":"4","last_reported":1767856577,"current_range_meters":6400,"station_id":"st_d3b462108ojc7389ooeg","pricing_plan_id":"cebpf4jnsgd1na2vs0mg"},{"bike_id":"7bed6c7f-598e-48e9-bae3-214e5eee84f3","system_id":"levelo_inurba_marseille","lat":43.244676,"lon":5.425313,"is_reserved":false,"is_disabled":false,"rental_uris":{"android":"levelo://app?vid=7bed6c7f-598e-48e9-bae3-214e5eee84f3","ios":"levelo://app?vid=7bed6c7f-598e-48e9-bae3-214e5eee84f3"},"vehicle_type_id":"4","last_reported":1767856577,"current_range_meters":6400,"station_id":"st_d4a3vfp97mjs738cd8kg","pricing_plan_id":"cebpf4jnsgd1na2vs0mg"},{"bike_id":"f6c1d545-d8df-48a4-b906-098a561f57c6","system_id":"levelo_inurba_marseille","lat":43.29473,"lon":5.43321,"is_reserved":false,"is_disabled":false,"rental_uris":{"android":"levelo://app?vid=f6c1d545-d8df-48a4-b906-098a561f57c6","ios":"levelo://app?vid=f6c1d545-d8df-48a4-b906-098a561f57c6"},"vehicle_type_id":"4","last_reported":1767856577,"current_range_meters":6400,"station_id":"st_d3j5ugp08ojc73fj9d10","pricing_plan_id":"cebpf4jnsgd1na2vs0mg"},{"bike_id":"7e56ead6-0dcc-483d-86d1-d4af73c68e4a","system_id":"levelo_inurba_marseille","lat":43.29386,"lon":5.38595,"is_reserved":false,"is_disabled":true,"rental_uris":{"android":"levelo://app?vid=7e56ead6-0dcc-483d-86d1-d4af73c68e4a","ios":"levelo://app?vid=7e56ead6-0dcc-483d-86d1-d4af73c68e4a"},"vehicle_type_id":"4","last_reported":1767856577,"current_range_meters":6400,"station_id":"","pricing_plan_id":"cebpf4jnsgd1na2vs0mg"},{"bike_id":"64e41f0b-72ab-45c6-9bed-ed9fcbc13325","system_id":"levelo_inurba_marseille","lat":43.28265,"lon":5.35076,"is_reserved":false,"is_disabled":false,"rental_uris":{"android":"levelo://app?vid=64e41f0b-72ab-45c6-9bed-ed9fcbc13325","ios":"levelo://app?vid=64e41f0b-72ab-45c6-9bed-ed9fcbc13325"},"vehicle_type_id":"4","last_reported":1767856577,"current_range_meters":6400,"station_id":"ce4bhbp2rcd13ifvqerg","pricing_plan_id":"cebpf4jnsgd1na2vs0mg"},{"bike_id":"318ab7ee-cd4e-4fbb-a198-dc67360e53a7","system_id":"levelo_inurba_marseille","lat":43.229289,"lon":5.353851,"is_reserved":false,"is_disabled":false,"rental_uris":{"android":"levelo://app?vid=318ab7ee-cd4e-4fbb-a198-dc67360e53a7","ios":"levelo://app?vid=318ab7ee-cd4e-4fbb-a198-dc67360e53a7"},"vehicle_type_id":"4","last_reported":1767856577,"current_range_meters":6400,"station_id":"cpo3532slgdg3j2ikp40","pricing_plan_id":"cebpf4jnsgd1na2vs0mg"},{"bike_id":"fa85b4f1-432b-410d-9cb3-b670b39e652f","system_id":"levelo_inurba_marseille","lat":43.297128,"lon":5.365965,"is_reserved":false,"is_disabled":false,"rental_uris":{"android":"levelo://app?vid=fa85b4f1-432b-410d-9cb3-b670b39e652f","ios":"levelo://app?vid=fa85b4f1-432b-410d-9cb3-b670b39e652f"},"vehicle_type_id":"4","last_reported":1767856577,"current_range_meters":6400,"station_id":"ce4bgn12rcd13ifvqbt0","pricing_plan_id":"cebpf4jnsgd1na2vs0mg"},{"bike_id":"01d8e2c9-d4ce-48e6-afef-8bf3104cf069","system_id":"levelo_inurba_marseille","lat":43.27174,"lon":5.40999,"is_reserved":false,"is_disabled":false,"rental_uris":{"android":"levelo://app?vid=01d8e2c9-d4ce-48e6-afef-8bf3104cf069","ios":"levelo://app?vid=01d8e2c9-d4ce-48e6-afef-8bf3104cf069"},"vehicle_type_id":"4","last_reported":1767856577,"current_range_meters":6400,"station_id":"ce4bhl12rcd13ifvqgf0","pricing_plan_id":"cebpf4jnsgd1na2vs0mg"},{"bike_id":"744ac489-61c6-4987-9f57-5b6dd9811674","system_id":"levelo_inurba_marseille","lat":43.30164,"lon":5.3808,"is_reserved":false,"is_disabled":false,"rental_uris":{"android":"levelo://app?vid=744ac489-61c6-4987-9f57-5b6dd9811674","ios":"levelo://app?vid=744ac489-61c6-4987-9f57-5b6dd9811674"},"vehicle_type_id":"4","last_reported":1767856577,"current_range_meters":6400,"station_id":"ce4bgjp2rcd13ifvqbh0","pricing_plan_id":"cebpf4jnsgd1na2vs0mg"},{"bike_id":"e3ffb854-e428-4a18-904d-ea5ddd084e10","system_id":"levelo_inurba_marseille","lat":43.32371,"lon":5.36697,"is_reserved":false,"is_disabled":false,"rental_uris":{"android":"levelo://app?vid=e3ffb854-e428-4a18-904d-ea5ddd084e10","ios":"levelo://app?vid=e3ffb854-e428-4a18-904d-ea5ddd084e10"},"vehicle_type_id":"4","last_reported":1767856577,"current_range_meters":6400,"station_id":"","pricing_plan_id":"cebpf4jnsgd1na2vs0mg"},{"bike_id":"5a1d2e57-5bd8-472e-a477-c88d25152819","system_id":"levelo_inurba_marseille","lat":43.22561,"lon":5.41629,"is_reserved":false,"is_disabled":false,"rental_uris":{"android":"levelo://app?vid=5a1d2e57-5bd8-472e-a477-c88d25152819","ios":"levelo://app?vid=5a1d2e57-5bd8-472e-a477-c88d25152819"},"vehicle_type_id":"4","last_reported":1767856577,"current_range_meters":6400,"station_id":"st_d2o4gvlbi1j2169b742g","pricing_plan_id":"cebpf4jnsgd1na2vs0mg"},{"bike_id":"0953341a-7433-43d4-b24c-e3920dbfc287","system_id":"levelo_inurba_marseille","lat":43.31539,"lon":5.38024,"is_reserved":false,"is_disabled":false,"rental_uris":{"android":"levelo://app?vid=0953341a-7433-43d4-b24c-e3920dbfc287","ios":"levelo://app?vid=0953341a-7433-43d4-b24c-e3920dbfc287"},"vehicle_type_id":"4","last_reported":1767856577,"current_range_meters":6400,"station_id":"ce4bhsp2rcd13ifvqi50","pricing_plan_id":"cebpf4jnsgd1na2vs0mg"},{"bike_id":"8e9cd320-222e-4849-8f3f-db8fcd5c5954","system_id":"levelo_inurba_marseille","lat":43.31805,"lon":5.36838,"is_reserved":false,"is_disabled":false,"rental_uris":{"android":"levelo://app?vid=8e9cd320-222e-4849-8f3f-db8fcd5c5954","ios":"levelo://app?vid=8e9cd320-222e-4849-8f3f-db8fcd5c5954"},"vehicle_type_id":"4","last_reported":1767856577,"current_range_meters":6400,"station_id":"","pricing_plan_id":"cebpf4jnsgd1na2vs0mg"},{"bike_id":"247bb740-307c-4d8d-bc15-5dc3f87bcb6a","system_id":"levelo_inurba_marseille","lat":43.33152,"lon":5.37678,"is_reserved":false,"is_disabled":false,"rental_uris":{"android":"levelo://app?vid=247bb740-307c-4d8d-bc15-5dc3f87bcb6a","ios":"levelo://app?vid=247bb740-307c-4d8d-bc15-5dc3f87bcb6a"},"vehicle_type_id":"4","last_reported":1767856577,"current_range_meters":6400,"station_id":"st_d46cu089ee8s73dldbu0","pricing_plan_id":"cebpf4jnsgd1na2vs0mg"},{"bike_id":"436e2b68-b0e7-4aea-8bcc-3352b859a845","system_id":"levelo_inurba_marseille","lat":43.29789,"lon":5.38106,"is_reserved":false,"is_disabled":false,"rental_uris":{"android":"levelo://app?vid=436e2b68-b0e7-4aea-8bcc-3352b859a845","ios":"levelo://app?vid=436e2b68-b0e7-4aea-8bcc-3352b859a845"},"vehicle_type_id":"4","last_reported":1767856577,"current_range_meters":6400,"station_id":"ce4bgip2rcd13ifvqbb0","pricing_plan_id":"cebpf4jnsgd1na2vs0mg"},{"bike_id":"9b9e7c0d-8b05-4d0a-9b2e-71cd579eefc9","system_id":"levelo_inurba_marseille","lat":43.323521,"lon":5.367336,"is_reserved":false,"is_disabled":false,"rental_uris":{"android":"levelo://app?vid=9b9e7c0d-8b05-4d0a-9b2e-71cd579eefc9","ios":"levelo://app?vid=9b9e7c0d-8b05-4d0a-9b2e-71cd579eefc9"},"vehicle_type_id":"4","last_reported":1767856577,"current_range_meters":6400,"station_id":"ce4bhsh2rcd13ifvqi2g","pricing_plan_id":"cebpf4jnsgd1na2vs0mg"},{"bike_id":"32cd8bdd-5f00-4222-be95-54500c9310ff","system_id":"levelo_inurba_marseille","lat":43.28411,"lon":5.35017,"is_reserved":false,"is_disabled":false,"rental_uris":{"android":"levelo://app?vid=32cd8bdd-5f00-4222-be95-54500c9310ff","ios":"levelo://app?vid=32cd8bdd-5f00-4222-be95-54500c9310ff"},"vehicle_type_id":"4","last_reported":1767856577,"current_range_meters":6400,"station_id":"ce4bhbh2rcd13ifvqepg","pricing_plan_id":"cebpf4jnsgd1na2vs0mg"},{"bike_id":"c4684706-331d-46e5-a40c-a24eff201ff7","system_id":"levelo_inurba_marseille","lat":43.30155,"lon":5.38088,"is_reserved":false,"is_disabled":false,"rental_uris":{"android":"levelo://app?vid=c4684706-331d-46e5-a40c-a24eff201ff7","ios":"levelo://app?vid=c4684706-331d-46e5-a40c-a24eff201ff7"},"vehicle_type_id":"4","last_reported":1767856577,"current_range_meters":6400,"station_id":"ce4bgjp2rcd13ifvqbh0","pricing_plan_id":"cebpf4jnsgd1na2vs0mg"},{"bike_id":"5ddc36fe-25ae-4411-85cc-e5b7ed02f34a","system_id":"levelo_inurba_marseille","lat":43.28602,"lon":5.37079,"is_reserved":false,"is_disabled":false,"rental_uris":{"android":"levelo://app?vid=5ddc36fe-25ae-4411-85cc-e5b7ed02f34a","ios":"levelo://app?vid=5ddc36fe-25ae-4411-85cc-e5b7ed02f34a"},"vehicle_type_id":"4","last_reported":1767856577,"current_range_meters":6400,"station_id":"ce4bht12rcd13ifvqi60","pricing_plan_id":"cebpf4jnsgd1na2vs0mg"},{"bike_id":"a714f327-3325-430d-a62a-219ddf12f989","system_id":"levelo_inurba_marseille","lat":43.27374,"lon":5.36264,"is_reserved":false,"is_disabled":false,"rental_uris":{"android":"levelo://app?vid=a714f327-3325-430d-a62a-219ddf12f989","ios":"levelo://app?vid=a714f327-3325-430d-a62a-219ddf12f989"},"vehicle_type_id":"4","last_reported":1767856577,"current_range_meters":6400,"station_id":"ce4bhbh2rcd13ifvqeo0","pricing_plan_id":"cebpf4jnsgd1na2vs0mg"},{"bike_id":"32adf70f-61f9-4601-adef-7b10a2555dc1","system_id":"levelo_inurba_marseille","lat":43.30768,"lon":5.38139,"is_reserved":false,"is_disabled":true,"rental_uris":{"android":"levelo://app?vid=32adf70f-61f9-4601-adef-7b10a2555dc1","ios":"levelo://app?vid=32adf70f-61f9-4601-adef-7b10a2555dc1"},"vehicle_type_id":"4","last_reported":1767856577,"current_range_meters":6800,"station_id":"ce4bgt12rcd13ifvqce0","pricing_plan_id":"cebpf4jnsgd1na2vs0mg"},{"bike_id":"4df48156-dd6c-425a-aaac-7de4e5d50530","system_id":"levelo_inurba_marseille","lat":43.29005,"lon":5.35753,"is_reserved":false,"is_disabled":false,"rental_uris":{"android":"levelo://app?vid=4df48156-dd6c-425a-aaac-7de4e5d50530","ios":"levelo://app?vid=4df48156-dd6c-425a-aaac-7de4e5d50530"},"vehicle_type_id":"4","last_reported":1767856577,"current_range_meters":6800,"station_id":"","pricing_plan_id":"cebpf4jnsgd1na2vs0mg"},{"bike_id":"d71e68de-cd14-4ba9-a968-9ec46d820fce","system_id":"levelo_inurba_marseille","lat":43.29249,"lon":5.40911,"is_reserved":false,"is_disabled":false,"rental_uris":{"android":"levelo://app?vid=d71e68de-cd14-4ba9-a968-9ec46d820fce","ios":"levelo://app?vid=d71e68de-cd14-4ba9-a968-9ec46d820fce"},"vehicle_type_id":"4","last_reported":1767856577,"current_range_meters":6800,"station_id":"ce4bh192rcd13ifvqdc0","pricing_plan_id":"cebpf4jnsgd1na2vs0mg"},{"bike_id":"6db3e879-7db1-4265-b6c4-82a384e02e24","system_id":"levelo_inurba_marseille","lat":43.27824,"lon":5.40691,"is_reserved":false,"is_disabled":true,"rental_uris":{"android":"levelo://app?vid=6db3e879-7db1-4265-b6c4-82a384e02e24","ios":"levelo://app?vid=6db3e879-7db1-4265-b6c4-82a384e02e24"},"vehicle_type_id":"4","last_reported":1767856577,"current_range_meters":6800,"station_id":"ce4bhnh2rcd13ifvqgtg","pricing_plan_id":"cebpf4jnsgd1na2vs0mg"},{"bike_id":"d1b3cdc7-bda6-4645-bd49-fbb3124ac1cb","system_id":"levelo_inurba_marseille","lat":43.275721,"lon":5.42343,"is_reserved":false,"is_disabled":false,"rental_uris":{"android":"levelo://app?vid=d1b3cdc7-bda6-4645-bd49-fbb3124ac1cb","ios":"levelo://app?vid=d1b3cdc7-bda6-4645-bd49-fbb3124ac1cb"},"vehicle_type_id":"4","last_reported":1767856577,"current_range_meters":6800,"station_id":"ce4bhn92rcd13ifvqgrg","pricing_plan_id":"cebpf4jnsgd1na2vs0mg"},{"bike_id":"1b3450f6-a3a8-4bb0-889f-da736a8844f0","system_id":"levelo_inurba_marseille","lat":43.29788,"lon":5.39349,"is_reserved":false,"is_disabled":false,"rental_uris":{"android":"levelo://app?vid=1b3450f6-a3a8-4bb0-889f-da736a8844f0","ios":"levelo://app?vid=1b3450f6-a3a8-4bb0-889f-da736a8844f0"},"vehicle_type_id":"4","last_reported":1767856577,"current_range_meters":6800,"station_id":"chh1huq6cuj3fo74tm60","pricing_plan_id":"cebpf4jnsgd1na2vs0mg"},{"bike_id":"7ae2676e-e662-4a9a-a79a-d5011de94824","system_id":"levelo_inurba_marseille","lat":43.24149,"lon":5.36447,"is_reserved":false,"is_disabled":false,"rental_uris":{"android":"levelo://app?vid=7ae2676e-e662-4a9a-a79a-d5011de94824","ios":"levelo://app?vid=7ae2676e-e662-4a9a-a79a-d5011de94824"},"vehicle_type_id":"4","last_reported":1767856577,"current_range_meters":6800,"station_id":"cpo36qri1sfpv3e86is0","pricing_plan_id":"cebpf4jnsgd1na2vs0mg"},{"bike_id":"fe99a84f-5ce7-4cef-a997-e79fffe9bddd","system_id":"levelo_inurba_marseille","lat":43.321069,"lon":5.367635,"is_reserved":false,"is_disabled":false,"rental_uris":{"android":"levelo://app?vid=fe99a84f-5ce7-4cef-a997-e79fffe9bddd","ios":"levelo://app?vid=fe99a84f-5ce7-4cef-a997-e79fffe9bddd"},"vehicle_type_id":"4","last_reported":1767856577,"current_range_meters":6800,"station_id":"ce4bhrh2rcd13ifvqhug","pricing_plan_id":"cebpf4jnsgd1na2vs0mg"},{"bike_id":"c4cba06a-864a-42b1-807e-8aa65f9face9","system_id":"levelo_inurba_marseille","lat":43.291936,"lon":5.358,"is_reserved":false,"is_disabled":false,"rental_uris":{"android":"levelo://app?vid=c4cba06a-864a-42b1-807e-8aa65f9face9","ios":"levelo://app?vid=c4cba06a-864a-42b1-807e-8aa65f9face9"},"vehicle_type_id":"4","last_reported":1767856577,"current_range_meters":6800,"station_id":"ce4bhb12rcd13ifvqel0","pricing_plan_id":"cebpf4jnsgd1na2vs0mg"},{"bike_id":"17ffc005-fa72-4d1f-9413-b31aab6a3fd6","system_id":"levelo_inurba_marseille","lat":43.32353,"lon":5.36736,"is_reserved":false,"is_disabled":false,"rental_uris":{"android":"levelo://app?vid=17ffc005-fa72-4d1f-9413-b31aab6a3fd6","ios":"levelo://app?vid=17ffc005-fa72-4d1f-9413-b31aab6a3fd6"},"vehicle_type_id":"4","last_reported":1767856577,"current_range_meters":6800,"station_id":"ce4bhsh2rcd13ifvqi2g","pricing_plan_id":"cebpf4jnsgd1na2vs0mg"},{"bike_id":"627ad4fb-d3f7-406d-9fa6-760355e4142d","system_id":"levelo_inurba_marseille","lat":43.23194,"lon":5.3555,"is_reserved":false,"is_disabled":false,"rental_uris":{"android":"levelo://app?vid=627ad4fb-d3f7-406d-9fa6-760355e4142d","ios":"levelo://app?vid=627ad4fb-d3f7-406d-9fa6-760355e4142d"},"vehicle_type_id":"4","last_reported":1767856577,"current_range_meters":6800,"station_id":"ce4bhu92rcd13ifvqi70","pricing_plan_id":"cebpf4jnsgd1na2vs0mg"},{"bike_id":"193cd76b-9bcc-4fab-ad90-2f66f28ef687","system_id":"levelo_inurba_marseille","lat":43.240779,"lon":5.377708,"is_reserved":false,"is_disabled":false,"rental_uris":{"android":"levelo://app?vid=193cd76b-9bcc-4fab-ad90-2f66f28ef687","ios":"levelo://app?vid=193cd76b-9bcc-4fab-ad90-2f66f28ef687"},"vehicle_type_id":"4","last_reported":1767856577,"current_range_meters":6800,"station_id":"ce4bhnp2rcd13ifvqgvg","pricing_plan_id":"cebpf4jnsgd1na2vs0mg"},{"bike_id":"aa142bec-ee52-4298-ad73-29a3f7e87964","system_id":"levelo_inurba_marseille","lat":43.29036,"lon":5.39969,"is_reserved":false,"is_disabled":false,"rental_uris":{"android":"levelo://app?vid=aa142bec-ee52-4298-ad73-29a3f7e87964","ios":"levelo://app?vid=aa142bec-ee52-4298-ad73-29a3f7e87964"},"vehicle_type_id":"4","last_reported":1767856577,"current_range_meters":6800,"station_id":"ce4bh392rcd13ifvqdm0","pricing_plan_id":"cebpf4jnsgd1na2vs0mg"},{"bike_id":"16c08da6-d0d1-474a-bdd4-8cf492d8d580","system_id":"levelo_inurba_marseille","lat":43.24074,"lon":5.37761,"is_reserved":false,"is_disabled":false,"rental_uris":{"android":"levelo://app?vid=16c08da6-d0d1-474a-bdd4-8cf492d8d580","ios":"levelo://app?vid=16c08da6-d0d1-474a-bdd4-8cf492d8d580"},"vehicle_type_id":"4","last_reported":1767856577,"current_range_meters":6800,"station_id":"ce4bhnp2rcd13ifvqgvg","pricing_plan_id":"cebpf4jnsgd1na2vs0mg"},{"bike_id":"a849720c-d4f4-4440-bec4-b5b25c7aa509","system_id":"levelo_inurba_marseille","lat":43.25334,"lon":5.42165,"is_reserved":false,"is_disabled":false,"rental_uris":{"android":"levelo://app?vid=a849720c-d4f4-4440-bec4-b5b25c7aa509","ios":"levelo://app?vid=a849720c-d4f4-4440-bec4-b5b25c7aa509"},"vehicle_type_id":"4","last_reported":1767856577,"current_range_meters":6800,"station_id":"st_d2m65c5bi1j21697t3ng","pricing_plan_id":"cebpf4jnsgd1na2vs0mg"},{"bike_id":"6bddaefd-cff1-4799-8b05-460a68cec860","system_id":"levelo_inurba_marseille","lat":43.33027,"lon":5.39043,"is_reserved":false,"is_disabled":false,"rental_uris":{"android":"levelo://app?vid=6bddaefd-cff1-4799-8b05-460a68cec860","ios":"levelo://app?vid=6bddaefd-cff1-4799-8b05-460a68cec860"},"vehicle_type_id":"4","last_reported":1767856577,"current_range_meters":6800,"station_id":"ce4bhr92rcd13ifvqhrg","pricing_plan_id":"cebpf4jnsgd1na2vs0mg"},{"bike_id":"e333ef92-9481-476e-a416-b4070e2823b7","system_id":"levelo_inurba_marseille","lat":43.25489,"lon":5.37651,"is_reserved":false,"is_disabled":false,"rental_uris":{"android":"levelo://app?vid=e333ef92-9481-476e-a416-b4070e2823b7","ios":"levelo://app?vid=e333ef92-9481-476e-a416-b4070e2823b7"},"vehicle_type_id":"4","last_reported":1767856577,"current_range_meters":6800,"station_id":"ce4bhh12rcd13ifvqff0","pricing_plan_id":"cebpf4jnsgd1na2vs0mg"},{"bike_id":"f139dc33-0315-4e3b-806c-1c4763fe230a","system_id":"levelo_inurba_marseille","lat":43.32358,"lon":5.36718,"is_reserved":false,"is_disabled":false,"rental_uris":{"android":"levelo://app?vid=f139dc33-0315-4e3b-806c-1c4763fe230a","ios":"levelo://app?vid=f139dc33-0315-4e3b-806c-1c4763fe230a"},"vehicle_type_id":"4","last_reported":1767856577,"current_range_meters":6800,"station_id":"ce4bhsh2rcd13ifvqi2g","pricing_plan_id":"cebpf4jnsgd1na2vs0mg"},{"bike_id":"17f503dd-759a-4134-8ddc-62c5291e6e32","system_id":"levelo_inurba_marseille","lat":43.29035,"lon":5.37579,"is_reserved":false,"is_disabled":false,"rental_uris":{"android":"levelo://app?vid=17f503dd-759a-4134-8ddc-62c5291e6e32","ios":"levelo://app?vid=17f503dd-759a-4134-8ddc-62c5291e6e32"},"vehicle_type_id":"4","last_reported":1767856577,"current_range_meters":6800,"station_id":"ce4bh692rcd13ifvqe90","pricing_plan_id":"cebpf4jnsgd1na2vs0mg"},{"bike_id":"028756d9-bfe4-42e7-8035-4b002ff65672","system_id":"levelo_inurba_marseille","lat":43.22929,"lon":5.3537,"is_reserved":false,"is_disabled":false,"rental_uris":{"android":"levelo://app?vid=028756d9-bfe4-42e7-8035-4b002ff65672","ios":"levelo://app?vid=028756d9-bfe4-42e7-8035-4b002ff65672"},"vehicle_type_id":"4","last_reported":1767856577,"current_range_meters":6800,"station_id":"cpo3532slgdg3j2ikp40","pricing_plan_id":"cebpf4jnsgd1na2vs0mg"},{"bike_id":"654d3776-ec18-40c2-9d73-907f965f0a7a","system_id":"levelo_inurba_marseille","lat":43.276787,"lon":5.388694,"is_reserved":false,"is_disabled":false,"rental_uris":{"android":"levelo://app?vid=654d3776-ec18-40c2-9d73-907f965f0a7a","ios":"levelo://app?vid=654d3776-ec18-40c2-9d73-907f965f0a7a"},"vehicle_type_id":"4","last_reported":1767856577,"current_range_meters":6800,"station_id":"ce4bhi12rcd13ifvqfo0","pricing_plan_id":"cebpf4jnsgd1na2vs0mg"},{"bike_id":"31ef6104-524a-4758-8a5c-811acc4ab6a4","system_id":"levelo_inurba_marseille","lat":43.28479,"lon":5.48414,"is_reserved":false,"is_disabled":false,"rental_uris":{"android":"levelo://app?vid=31ef6104-524a-4758-8a5c-811acc4ab6a4","ios":"levelo://app?vid=31ef6104-524a-4758-8a5c-811acc4ab6a4"},"vehicle_type_id":"4","last_reported":1767856577,"current_range_meters":6800,"station_id":"st_d3svhcjqgbts73a3dn0g","pricing_plan_id":"cebpf4jnsgd1na2vs0mg"},{"bike_id":"c3c8d196-d779-41a4-a376-ac529e740933","system_id":"levelo_inurba_marseille","lat":43.24083,"lon":5.37698,"is_reserved":false,"is_disabled":false,"rental_uris":{"android":"levelo://app?vid=c3c8d196-d779-41a4-a376-ac529e740933","ios":"levelo://app?vid=c3c8d196-d779-41a4-a376-ac529e740933"},"vehicle_type_id":"4","last_reported":1767856577,"current_range_meters":7200,"station_id":"ce4bhnp2rcd13ifvqgvg","pricing_plan_id":"cebpf4jnsgd1na2vs0mg"},{"bike_id":"b1b1ad78-5ce6-4078-b4e3-85f1155f6618","system_id":"levelo_inurba_marseille","lat":43.29482,"lon":5.43309,"is_reserved":false,"is_disabled":false,"rental_uris":{"android":"levelo://app?vid=b1b1ad78-5ce6-4078-b4e3-85f1155f6618","ios":"levelo://app?vid=b1b1ad78-5ce6-4078-b4e3-85f1155f6618"},"vehicle_type_id":"4","last_reported":1767856577,"current_range_meters":7200,"station_id":"st_d3j5ugp08ojc73fj9d10","pricing_plan_id":"cebpf4jnsgd1na2vs0mg"},{"bike_id":"d5da1ec6-c284-4264-82ef-df878183091d","system_id":"levelo_inurba_marseille","lat":43.27209,"lon":5.39181,"is_reserved":false,"is_disabled":false,"rental_uris":{"android":"levelo://app?vid=d5da1ec6-c284-4264-82ef-df878183091d","ios":"levelo://app?vid=d5da1ec6-c284-4264-82ef-df878183091d"},"vehicle_type_id":"4","last_reported":1767856577,"current_range_meters":7200,"station_id":"ce4bhhp2rcd13ifvqfm0","pricing_plan_id":"cebpf4jnsgd1na2vs0mg"},{"bike_id":"b0fc992c-b034-4256-b199-935b86901d2f","system_id":"levelo_inurba_marseille","lat":43.229338,"lon":5.353838,"is_reserved":false,"is_disabled":false,"rental_uris":{"android":"levelo://app?vid=b0fc992c-b034-4256-b199-935b86901d2f","ios":"levelo://app?vid=b0fc992c-b034-4256-b199-935b86901d2f"},"vehicle_type_id":"4","last_reported":1767856577,"current_range_meters":7200,"station_id":"cpo3532slgdg3j2ikp40","pricing_plan_id":"cebpf4jnsgd1na2vs0mg"},{"bike_id":"19e15d06-cf4c-459d-8887-b3feaa0bcacf","system_id":"levelo_inurba_marseille","lat":43.32865,"lon":5.40543,"is_reserved":false,"is_disabled":false,"rental_uris":{"android":"levelo://app?vid=19e15d06-cf4c-459d-8887-b3feaa0bcacf","ios":"levelo://app?vid=19e15d06-cf4c-459d-8887-b3feaa0bcacf"},"vehicle_type_id":"4","last_reported":1767856577,"current_range_meters":7200,"station_id":"ce4bhq92rcd13ifvqhkg","pricing_plan_id":"cebpf4jnsgd1na2vs0mg"},{"bike_id":"aba7ea30-1026-499d-8351-ae41547f888c","system_id":"levelo_inurba_marseille","lat":43.30296,"lon":5.36904,"is_reserved":false,"is_disabled":false,"rental_uris":{"android":"levelo://app?vid=aba7ea30-1026-499d-8351-ae41547f888c","ios":"levelo://app?vid=aba7ea30-1026-499d-8351-ae41547f888c"},"vehicle_type_id":"4","last_reported":1767856577,"current_range_meters":7200,"station_id":"ce4bgqh2rcd13ifvqc5g","pricing_plan_id":"cebpf4jnsgd1na2vs0mg"},{"bike_id":"c10c03af-eba1-4f9f-a373-ad08e2aac44e","system_id":"levelo_inurba_marseille","lat":43.25944,"lon":5.40902,"is_reserved":false,"is_disabled":false,"rental_uris":{"android":"levelo://app?vid=c10c03af-eba1-4f9f-a373-ad08e2aac44e","ios":"levelo://app?vid=c10c03af-eba1-4f9f-a373-ad08e2aac44e"},"vehicle_type_id":"4","last_reported":1767856577,"current_range_meters":7200,"station_id":"ce4bhm92rcd13ifvqglg","pricing_plan_id":"cebpf4jnsgd1na2vs0mg"},{"bike_id":"686bcbac-7ffb-4bc9-afb0-a18e8a9323c9","system_id":"levelo_inurba_marseille","lat":43.29361,"lon":5.37873,"is_reserved":false,"is_disabled":true,"rental_uris":{"android":"levelo://app?vid=686bcbac-7ffb-4bc9-afb0-a18e8a9323c9","ios":"levelo://app?vid=686bcbac-7ffb-4bc9-afb0-a18e8a9323c9"},"vehicle_type_id":"4","last_reported":1767856577,"current_range_meters":7200,"station_id":"ce4bgjh2rcd13ifvqbf0","pricing_plan_id":"cebpf4jnsgd1na2vs0mg"},{"bike_id":"40f08c9f-1db3-428a-bccb-f339a21698d1","system_id":"levelo_inurba_marseille","lat":43.29931,"lon":5.38117,"is_reserved":false,"is_disabled":false,"rental_uris":{"android":"levelo://app?vid=40f08c9f-1db3-428a-bccb-f339a21698d1","ios":"levelo://app?vid=40f08c9f-1db3-428a-bccb-f339a21698d1"},"vehicle_type_id":"4","last_reported":1767856577,"current_range_meters":7200,"station_id":"ce4bgj12rcd13ifvqbc0","pricing_plan_id":"cebpf4jnsgd1na2vs0mg"},{"bike_id":"09edec60-8041-4c77-8231-9562a2ec8612","system_id":"levelo_inurba_marseille","lat":43.299579,"lon":5.37167,"is_reserved":false,"is_disabled":false,"rental_uris":{"android":"levelo://app?vid=09edec60-8041-4c77-8231-9562a2ec8612","ios":"levelo://app?vid=09edec60-8041-4c77-8231-9562a2ec8612"},"vehicle_type_id":"4","last_reported":1767856577,"current_range_meters":7200,"station_id":"ce4bgr92rcd13ifvqc7g","pricing_plan_id":"cebpf4jnsgd1na2vs0mg"},{"bike_id":"b8f0fc7d-c4cf-498c-b814-d8982d29f222","system_id":"levelo_inurba_marseille","lat":43.30121,"lon":5.39861,"is_reserved":false,"is_disabled":false,"rental_uris":{"android":"levelo://app?vid=b8f0fc7d-c4cf-498c-b814-d8982d29f222","ios":"levelo://app?vid=b8f0fc7d-c4cf-498c-b814-d8982d29f222"},"vehicle_type_id":"4","last_reported":1767856577,"current_range_meters":7200,"station_id":"ce4bh0h2rcd13ifvqd40","pricing_plan_id":"cebpf4jnsgd1na2vs0mg"},{"bike_id":"212da61f-e45f-49da-8ac8-22c9c61d8835","system_id":"levelo_inurba_marseille","lat":43.31741,"lon":5.38515,"is_reserved":false,"is_disabled":false,"rental_uris":{"android":"levelo://app?vid=212da61f-e45f-49da-8ac8-22c9c61d8835","ios":"levelo://app?vid=212da61f-e45f-49da-8ac8-22c9c61d8835"},"vehicle_type_id":"4","last_reported":1767856577,"current_range_meters":7200,"station_id":"","pricing_plan_id":"cebpf4jnsgd1na2vs0mg"},{"bike_id":"642e8dbf-2c1c-4b0c-b626-f3b7d6e11870","system_id":"levelo_inurba_marseille","lat":43.27914,"lon":5.39601,"is_reserved":false,"is_disabled":false,"rental_uris":{"android":"levelo://app?vid=642e8dbf-2c1c-4b0c-b626-f3b7d6e11870","ios":"levelo://app?vid=642e8dbf-2c1c-4b0c-b626-f3b7d6e11870"},"vehicle_type_id":"4","last_reported":1767856577,"current_range_meters":7200,"station_id":"ce4bhf92rcd13ifvqf40","pricing_plan_id":"cebpf4jnsgd1na2vs0mg"},{"bike_id":"b7aa90e6-40fe-4064-9b55-679e22478f37","system_id":"levelo_inurba_marseille","lat":43.310585,"lon":5.371819,"is_reserved":false,"is_disabled":false,"rental_uris":{"android":"levelo://app?vid=b7aa90e6-40fe-4064-9b55-679e22478f37","ios":"levelo://app?vid=b7aa90e6-40fe-4064-9b55-679e22478f37"},"vehicle_type_id":"4","last_reported":1767856577,"current_range_meters":7200,"station_id":"st_d4kl2rp97mjs73e7tdfg","pricing_plan_id":"cebpf4jnsgd1na2vs0mg"},{"bike_id":"0d814771-cb29-4914-97b5-771675c41712","system_id":"levelo_inurba_marseille","lat":43.28476,"lon":5.38391,"is_reserved":false,"is_disabled":false,"rental_uris":{"android":"levelo://app?vid=0d814771-cb29-4914-97b5-771675c41712","ios":"levelo://app?vid=0d814771-cb29-4914-97b5-771675c41712"},"vehicle_type_id":"4","last_reported":1767856577,"current_range_meters":7200,"station_id":"ce4bh512rcd13ifvqe3g","pricing_plan_id":"cebpf4jnsgd1na2vs0mg"},{"bike_id":"c733299c-cde7-442f-86b2-31e37d8f758a","system_id":"levelo_inurba_marseille","lat":43.283709,"lon":5.386251,"is_reserved":false,"is_disabled":false,"rental_uris":{"android":"levelo://app?vid=c733299c-cde7-442f-86b2-31e37d8f758a","ios":"levelo://app?vid=c733299c-cde7-442f-86b2-31e37d8f758a"},"vehicle_type_id":"4","last_reported":1767856577,"current_range_meters":7200,"station_id":"ce4bh492rcd13ifvqdvg","pricing_plan_id":"cebpf4jnsgd1na2vs0mg"},{"bike_id":"1f6bbb69-96ec-4774-a668-2cc90004d313","system_id":"levelo_inurba_marseille","lat":43.2837,"lon":5.38646,"is_reserved":false,"is_disabled":false,"rental_uris":{"android":"levelo://app?vid=1f6bbb69-96ec-4774-a668-2cc90004d313","ios":"levelo://app?vid=1f6bbb69-96ec-4774-a668-2cc90004d313"},"vehicle_type_id":"4","last_reported":1767856577,"current_range_meters":7200,"station_id":"ce4bh492rcd13ifvqdvg","pricing_plan_id":"cebpf4jnsgd1na2vs0mg"},{"bike_id":"e986fce2-0dcf-4a72-8226-b2117b200211","system_id":"levelo_inurba_marseille","lat":43.231537,"lon":5.437046,"is_reserved":false,"is_disabled":false,"rental_uris":{"android":"levelo://app?vid=e986fce2-0dcf-4a72-8226-b2117b200211","ios":"levelo://app?vid=e986fce2-0dcf-4a72-8226-b2117b200211"},"vehicle_type_id":"4","last_reported":1767856577,"current_range_meters":7200,"station_id":"ce4bhmp2rcd13ifvqgog","pricing_plan_id":"cebpf4jnsgd1na2vs0mg"},{"bike_id":"41df1897-1ad1-47fb-9319-eedfc856f702","system_id":"levelo_inurba_marseille","lat":43.25584,"lon":5.38234,"is_reserved":false,"is_disabled":false,"rental_uris":{"android":"levelo://app?vid=41df1897-1ad1-47fb-9319-eedfc856f702","ios":"levelo://app?vid=41df1897-1ad1-47fb-9319-eedfc856f702"},"vehicle_type_id":"4","last_reported":1767856577,"current_range_meters":7200,"station_id":"ce4bhih2rcd13ifvqfs0","pricing_plan_id":"cebpf4jnsgd1na2vs0mg"},{"bike_id":"80bdd1a4-b1ab-42ae-bb23-cfddeda5c12d","system_id":"levelo_inurba_marseille","lat":43.298913,"lon":5.383341,"is_reserved":false,"is_disabled":true,"rental_uris":{"android":"levelo://app?vid=80bdd1a4-b1ab-42ae-bb23-cfddeda5c12d","ios":"levelo://app?vid=80bdd1a4-b1ab-42ae-bb23-cfddeda5c12d"},"vehicle_type_id":"4","last_reported":1767856577,"current_range_meters":7200,"station_id":"","pricing_plan_id":"cebpf4jnsgd1na2vs0mg"},{"bike_id":"88c14a33-9b21-46e5-92e0-2674360d2b7d","system_id":"levelo_inurba_marseille","lat":43.2956,"lon":5.39972,"is_reserved":false,"is_disabled":false,"rental_uris":{"android":"levelo://app?vid=88c14a33-9b21-46e5-92e0-2674360d2b7d","ios":"levelo://app?vid=88c14a33-9b21-46e5-92e0-2674360d2b7d"},"vehicle_type_id":"4","last_reported":1767856577,"current_range_meters":7200,"station_id":"ce4bh312rcd13ifvqdj0","pricing_plan_id":"cebpf4jnsgd1na2vs0mg"},{"bike_id":"26251df8-74b6-4622-a854-fef4826e7216","system_id":"levelo_inurba_marseille","lat":43.29557,"lon":5.37534,"is_reserved":false,"is_disabled":false,"rental_uris":{"android":"levelo://app?vid=26251df8-74b6-4622-a854-fef4826e7216","ios":"levelo://app?vid=26251df8-74b6-4622-a854-fef4826e7216"},"vehicle_type_id":"4","last_reported":1767856577,"current_range_meters":7200,"station_id":"ce4bgh92rcd13ifvqb50","pricing_plan_id":"cebpf4jnsgd1na2vs0mg"},{"bike_id":"fe176af7-89fe-4080-9879-5358fa62f37f","system_id":"levelo_inurba_marseille","lat":43.28434,"lon":5.34999,"is_reserved":false,"is_disabled":false,"rental_uris":{"android":"levelo://app?vid=fe176af7-89fe-4080-9879-5358fa62f37f","ios":"levelo://app?vid=fe176af7-89fe-4080-9879-5358fa62f37f"},"vehicle_type_id":"4","last_reported":1767856577,"current_range_meters":7200,"station_id":"ce4bhbh2rcd13ifvqepg","pricing_plan_id":"cebpf4jnsgd1na2vs0mg"},{"bike_id":"dedacf7c-5e52-460a-8abd-ec0a3a41a54a","system_id":"levelo_inurba_marseille","lat":43.3042,"lon":5.39751,"is_reserved":false,"is_disabled":false,"rental_uris":{"android":"levelo://app?vid=dedacf7c-5e52-460a-8abd-ec0a3a41a54a","ios":"levelo://app?vid=dedacf7c-5e52-460a-8abd-ec0a3a41a54a"},"vehicle_type_id":"4","last_reported":1767856577,"current_range_meters":7200,"station_id":"ce4bh092rcd13ifvqd20","pricing_plan_id":"cebpf4jnsgd1na2vs0mg"},{"bike_id":"50658340-35f1-4f1d-b90f-08cda8fb0917","system_id":"levelo_inurba_marseille","lat":43.29764,"lon":5.37895,"is_reserved":false,"is_disabled":false,"rental_uris":{"android":"levelo://app?vid=50658340-35f1-4f1d-b90f-08cda8fb0917","ios":"levelo://app?vid=50658340-35f1-4f1d-b90f-08cda8fb0917"},"vehicle_type_id":"4","last_reported":1767856577,"current_range_meters":7200,"station_id":"","pricing_plan_id":"cebpf4jnsgd1na2vs0mg"},{"bike_id":"f49b932e-0112-4c9c-8733-75221892016c","system_id":"levelo_inurba_marseille","lat":43.31071,"lon":5.38361,"is_reserved":false,"is_disabled":false,"rental_uris":{"android":"levelo://app?vid=f49b932e-0112-4c9c-8733-75221892016c","ios":"levelo://app?vid=f49b932e-0112-4c9c-8733-75221892016c"},"vehicle_type_id":"4","last_reported":1767856577,"current_range_meters":7200,"station_id":"ce4bgv92rcd13ifvqcr0","pricing_plan_id":"cebpf4jnsgd1na2vs0mg"},{"bike_id":"ff9361eb-225f-4222-8b05-7a1bf0812443","system_id":"levelo_inurba_marseille","lat":43.30254,"lon":5.40083,"is_reserved":false,"is_disabled":false,"rental_uris":{"android":"levelo://app?vid=ff9361eb-225f-4222-8b05-7a1bf0812443","ios":"levelo://app?vid=ff9361eb-225f-4222-8b05-7a1bf0812443"},"vehicle_type_id":"4","last_reported":1767856577,"current_range_meters":7200,"station_id":"ce4bgvh2rcd13ifvqcs0","pricing_plan_id":"cebpf4jnsgd1na2vs0mg"},{"bike_id":"570f7cc1-d7d1-4d8a-8274-da6e3d2295c9","system_id":"levelo_inurba_marseille","lat":43.26234,"lon":5.40527,"is_reserved":false,"is_disabled":false,"rental_uris":{"android":"levelo://app?vid=570f7cc1-d7d1-4d8a-8274-da6e3d2295c9","ios":"levelo://app?vid=570f7cc1-d7d1-4d8a-8274-da6e3d2295c9"},"vehicle_type_id":"4","last_reported":1767856577,"current_range_meters":7200,"station_id":"","pricing_plan_id":"cebpf4jnsgd1na2vs0mg"},{"bike_id":"47d0a8b3-c4fc-4d20-befe-0d9c69ad92a9","system_id":"levelo_inurba_marseille","lat":43.23789,"lon":5.36619,"is_reserved":false,"is_disabled":false,"rental_uris":{"android":"levelo://app?vid=47d0a8b3-c4fc-4d20-befe-0d9c69ad92a9","ios":"levelo://app?vid=47d0a8b3-c4fc-4d20-befe-0d9c69ad92a9"},"vehicle_type_id":"4","last_reported":1767856577,"current_range_meters":7200,"station_id":"st_d3nk18o9ro0c73en2l3g","pricing_plan_id":"cebpf4jnsgd1na2vs0mg"},{"bike_id":"61a4f04d-dc18-4445-8cc4-5c085c66ecdc","system_id":"levelo_inurba_marseille","lat":43.27645,"lon":5.38945,"is_reserved":false,"is_disabled":false,"rental_uris":{"android":"levelo://app?vid=61a4f04d-dc18-4445-8cc4-5c085c66ecdc","ios":"levelo://app?vid=61a4f04d-dc18-4445-8cc4-5c085c66ecdc"},"vehicle_type_id":"4","last_reported":1767856577,"current_range_meters":8000,"station_id":"","pricing_plan_id":"cebpf4jnsgd1na2vs0mg"},{"bike_id":"27130211-78b0-4456-a5c1-280c4871ba1e","system_id":"levelo_inurba_marseille","lat":43.29036,"lon":5.39956,"is_reserved":false,"is_disabled":false,"rental_uris":{"android":"levelo://app?vid=27130211-78b0-4456-a5c1-280c4871ba1e","ios":"levelo://app?vid=27130211-78b0-4456-a5c1-280c4871ba1e"},"vehicle_type_id":"4","last_reported":1767856577,"current_range_meters":8000,"station_id":"ce4bh392rcd13ifvqdm0","pricing_plan_id":"cebpf4jnsgd1na2vs0mg"},{"bike_id":"1b08f614-a7af-4991-a2ca-51bd6579f7cb","system_id":"levelo_inurba_marseille","lat":43.29787,"lon":5.38083,"is_reserved":false,"is_disabled":false,"rental_uris":{"android":"levelo://app?vid=1b08f614-a7af-4991-a2ca-51bd6579f7cb","ios":"levelo://app?vid=1b08f614-a7af-4991-a2ca-51bd6579f7cb"},"vehicle_type_id":"4","last_reported":1767856577,"current_range_meters":8000,"station_id":"ce4bgip2rcd13ifvqbb0","pricing_plan_id":"cebpf4jnsgd1na2vs0mg"},{"bike_id":"79b07b5a-ec48-494b-80f5-1c129a1f1ef3","system_id":"levelo_inurba_marseille","lat":43.30173,"lon":5.38074,"is_reserved":false,"is_disabled":false,"rental_uris":{"android":"levelo://app?vid=79b07b5a-ec48-494b-80f5-1c129a1f1ef3","ios":"levelo://app?vid=79b07b5a-ec48-494b-80f5-1c129a1f1ef3"},"vehicle_type_id":"4","last_reported":1767856577,"current_range_meters":8000,"station_id":"ce4bgjp2rcd13ifvqbh0","pricing_plan_id":"cebpf4jnsgd1na2vs0mg"},{"bike_id":"b9ef6aa6-7590-46c5-a49a-18293bf99c6e","system_id":"levelo_inurba_marseille","lat":43.27333,"lon":5.3909,"is_reserved":false,"is_disabled":false,"rental_uris":{"android":"levelo://app?vid=b9ef6aa6-7590-46c5-a49a-18293bf99c6e","ios":"levelo://app?vid=b9ef6aa6-7590-46c5-a49a-18293bf99c6e"},"vehicle_type_id":"4","last_reported":1767856577,"current_range_meters":8000,"station_id":"ce4bhgp2rcd13ifvqfe0","pricing_plan_id":"cebpf4jnsgd1na2vs0mg"},{"bike_id":"e1eb0afe-fe8a-460e-bf4a-daa974bf1ad8","system_id":"levelo_inurba_marseille","lat":43.271709,"lon":5.409947,"is_reserved":false,"is_disabled":false,"rental_uris":{"android":"levelo://app?vid=e1eb0afe-fe8a-460e-bf4a-daa974bf1ad8","ios":"levelo://app?vid=e1eb0afe-fe8a-460e-bf4a-daa974bf1ad8"},"vehicle_type_id":"4","last_reported":1767856577,"current_range_meters":8000,"station_id":"ce4bhl12rcd13ifvqgf0","pricing_plan_id":"cebpf4jnsgd1na2vs0mg"},{"bike_id":"fa71c9b9-6308-4f0e-af36-eb7830be3ead","system_id":"levelo_inurba_marseille","lat":43.28538,"lon":5.44064,"is_reserved":false,"is_disabled":false,"rental_uris":{"android":"levelo://app?vid=fa71c9b9-6308-4f0e-af36-eb7830be3ead","ios":"levelo://app?vid=fa71c9b9-6308-4f0e-af36-eb7830be3ead"},"vehicle_type_id":"4","last_reported":1767856577,"current_range_meters":8000,"station_id":"st_d3j3df2ikq2c7380ej80","pricing_plan_id":"cebpf4jnsgd1na2vs0mg"},{"bike_id":"7ea42fa0-1a0d-4826-9f31-2e9280cd9711","system_id":"levelo_inurba_marseille","lat":43.28956,"lon":5.3665,"is_reserved":false,"is_disabled":false,"rental_uris":{"android":"levelo://app?vid=7ea42fa0-1a0d-4826-9f31-2e9280cd9711","ios":"levelo://app?vid=7ea42fa0-1a0d-4826-9f31-2e9280cd9711"},"vehicle_type_id":"4","last_reported":1767856577,"current_range_meters":8000,"station_id":"ce4bhap2rcd13ifvqek0","pricing_plan_id":"cebpf4jnsgd1na2vs0mg"},{"bike_id":"11bbdfdd-e727-4c65-b58c-6e751fbd7f1a","system_id":"levelo_inurba_marseille","lat":43.27924,"lon":5.39572,"is_reserved":false,"is_disabled":false,"rental_uris":{"android":"levelo://app?vid=11bbdfdd-e727-4c65-b58c-6e751fbd7f1a","ios":"levelo://app?vid=11bbdfdd-e727-4c65-b58c-6e751fbd7f1a"},"vehicle_type_id":"4","last_reported":1767856577,"current_range_meters":8000,"station_id":"ce4bhf92rcd13ifvqf40","pricing_plan_id":"cebpf4jnsgd1na2vs0mg"},{"bike_id":"a6462651-ffd6-4de0-ac89-ac14a3f92140","system_id":"levelo_inurba_marseille","lat":43.237906,"lon":5.366285,"is_reserved":false,"is_disabled":false,"rental_uris":{"android":"levelo://app?vid=a6462651-ffd6-4de0-ac89-ac14a3f92140","ios":"levelo://app?vid=a6462651-ffd6-4de0-ac89-ac14a3f92140"},"vehicle_type_id":"4","last_reported":1767856577,"current_range_meters":8000,"station_id":"st_d3nk18o9ro0c73en2l3g","pricing_plan_id":"cebpf4jnsgd1na2vs0mg"},{"bike_id":"532e030c-b000-402d-9a2b-dd103311a4fa","system_id":"levelo_inurba_marseille","lat":43.29192,"lon":5.35818,"is_reserved":false,"is_disabled":false,"rental_uris":{"android":"levelo://app?vid=532e030c-b000-402d-9a2b-dd103311a4fa","ios":"levelo://app?vid=532e030c-b000-402d-9a2b-dd103311a4fa"},"vehicle_type_id":"4","last_reported":1767856577,"current_range_meters":8000,"station_id":"ce4bhb12rcd13ifvqel0","pricing_plan_id":"cebpf4jnsgd1na2vs0mg"},{"bike_id":"e50d1c8a-4d95-4698-ad61-0373092e23a6","system_id":"levelo_inurba_marseille","lat":43.30254,"lon":5.40064,"is_reserved":false,"is_disabled":false,"rental_uris":{"android":"levelo://app?vid=e50d1c8a-4d95-4698-ad61-0373092e23a6","ios":"levelo://app?vid=e50d1c8a-4d95-4698-ad61-0373092e23a6"},"vehicle_type_id":"4","last_reported":1767856577,"current_range_meters":8000,"station_id":"ce4bgvh2rcd13ifvqcs0","pricing_plan_id":"cebpf4jnsgd1na2vs0mg"},{"bike_id":"ff3fbfb8-c45c-4999-b524-0dd05bdd14e2","system_id":"levelo_inurba_marseille","lat":43.309609,"lon":5.368385,"is_reserved":false,"is_disabled":false,"rental_uris":{"android":"levelo://app?vid=ff3fbfb8-c45c-4999-b524-0dd05bdd14e2","ios":"levelo://app?vid=ff3fbfb8-c45c-4999-b524-0dd05bdd14e2"},"vehicle_type_id":"4","last_reported":1767856577,"current_range_meters":8000,"station_id":"ce4bgn92rcd13ifvqbvg","pricing_plan_id":"cebpf4jnsgd1na2vs0mg"},{"bike_id":"d19d32de-fe7f-42ca-93fe-613a15438278","system_id":"levelo_inurba_marseille","lat":43.28429,"lon":5.35,"is_reserved":false,"is_disabled":false,"rental_uris":{"android":"levelo://app?vid=d19d32de-fe7f-42ca-93fe-613a15438278","ios":"levelo://app?vid=d19d32de-fe7f-42ca-93fe-613a15438278"},"vehicle_type_id":"4","last_reported":1767856577,"current_range_meters":8000,"station_id":"ce4bhbh2rcd13ifvqepg","pricing_plan_id":"cebpf4jnsgd1na2vs0mg"},{"bike_id":"43f3ac00-3389-451c-bcdf-6e382a79f3bb","system_id":"levelo_inurba_marseille","lat":43.2871,"lon":5.37939,"is_reserved":false,"is_disabled":false,"rental_uris":{"android":"levelo://app?vid=43f3ac00-3389-451c-bcdf-6e382a79f3bb","ios":"levelo://app?vid=43f3ac00-3389-451c-bcdf-6e382a79f3bb"},"vehicle_type_id":"4","last_reported":1767856577,"current_range_meters":8000,"station_id":"ce4bh9p2rcd13ifvqec0","pricing_plan_id":"cebpf4jnsgd1na2vs0mg"},{"bike_id":"d24d285e-9609-4a05-b62d-3c973f9ec4cd","system_id":"levelo_inurba_marseille","lat":43.27369,"lon":5.36248,"is_reserved":false,"is_disabled":false,"rental_uris":{"android":"levelo://app?vid=d24d285e-9609-4a05-b62d-3c973f9ec4cd","ios":"levelo://app?vid=d24d285e-9609-4a05-b62d-3c973f9ec4cd"},"vehicle_type_id":"4","last_reported":1767856577,"current_range_meters":8000,"station_id":"ce4bhbh2rcd13ifvqeo0","pricing_plan_id":"cebpf4jnsgd1na2vs0mg"},{"bike_id":"e87e13ae-d69b-4129-94d6-fdb38119b5d3","system_id":"levelo_inurba_marseille","lat":43.284079,"lon":5.349851,"is_reserved":false,"is_disabled":false,"rental_uris":{"android":"levelo://app?vid=e87e13ae-d69b-4129-94d6-fdb38119b5d3","ios":"levelo://app?vid=e87e13ae-d69b-4129-94d6-fdb38119b5d3"},"vehicle_type_id":"4","last_reported":1767856577,"current_range_meters":8000,"station_id":"ce4bhbh2rcd13ifvqepg","pricing_plan_id":"cebpf4jnsgd1na2vs0mg"},{"bike_id":"7401be6f-cce5-4127-bfd0-4e81a357cf0d","system_id":"levelo_inurba_marseille","lat":43.25582,"lon":5.3822,"is_reserved":false,"is_disabled":false,"rental_uris":{"android":"levelo://app?vid=7401be6f-cce5-4127-bfd0-4e81a357cf0d","ios":"levelo://app?vid=7401be6f-cce5-4127-bfd0-4e81a357cf0d"},"vehicle_type_id":"4","last_reported":1767856577,"current_range_meters":8000,"station_id":"ce4bhih2rcd13ifvqfs0","pricing_plan_id":"cebpf4jnsgd1na2vs0mg"},{"bike_id":"d732fcd7-f8ed-43d6-b6ef-d29b2b97a6d4","system_id":"levelo_inurba_marseille","lat":43.27361,"lon":5.36257,"is_reserved":false,"is_disabled":false,"rental_uris":{"android":"levelo://app?vid=d732fcd7-f8ed-43d6-b6ef-d29b2b97a6d4","ios":"levelo://app?vid=d732fcd7-f8ed-43d6-b6ef-d29b2b97a6d4"},"vehicle_type_id":"4","last_reported":1767856577,"current_range_meters":8000,"station_id":"ce4bhbh2rcd13ifvqeo0","pricing_plan_id":"cebpf4jnsgd1na2vs0mg"},{"bike_id":"0fd80f10-4304-4c12-9af3-a94a305f109a","system_id":"levelo_inurba_marseille","lat":43.26063,"lon":5.39401,"is_reserved":false,"is_disabled":false,"rental_uris":{"android":"levelo://app?vid=0fd80f10-4304-4c12-9af3-a94a305f109a","ios":"levelo://app?vid=0fd80f10-4304-4c12-9af3-a94a305f109a"},"vehicle_type_id":"4","last_reported":1767856577,"current_range_meters":8000,"station_id":"ce4bhh92rcd13ifvqfj0","pricing_plan_id":"cebpf4jnsgd1na2vs0mg"},{"bike_id":"9cfeff17-a54a-4b3c-baa8-c7ed795fc5f2","system_id":"levelo_inurba_marseille","lat":43.24164,"lon":5.363922,"is_reserved":false,"is_disabled":false,"rental_uris":{"android":"levelo://app?vid=9cfeff17-a54a-4b3c-baa8-c7ed795fc5f2","ios":"levelo://app?vid=9cfeff17-a54a-4b3c-baa8-c7ed795fc5f2"},"vehicle_type_id":"4","last_reported":1767856577,"current_range_meters":8400,"station_id":"cpo36qri1sfpv3e86is0","pricing_plan_id":"cebpf4jnsgd1na2vs0mg"},{"bike_id":"1ebedbae-928a-4b4b-9a79-d3cbb323887a","system_id":"levelo_inurba_marseille","lat":43.25331,"lon":5.42181,"is_reserved":false,"is_disabled":false,"rental_uris":{"android":"levelo://app?vid=1ebedbae-928a-4b4b-9a79-d3cbb323887a","ios":"levelo://app?vid=1ebedbae-928a-4b4b-9a79-d3cbb323887a"},"vehicle_type_id":"4","last_reported":1767856577,"current_range_meters":8400,"station_id":"st_d2m65c5bi1j21697t3ng","pricing_plan_id":"cebpf4jnsgd1na2vs0mg"},{"bike_id":"b86cdf0c-e60e-44b1-8077-42145bab1514","system_id":"levelo_inurba_marseille","lat":43.29075,"lon":5.37198,"is_reserved":false,"is_disabled":false,"rental_uris":{"android":"levelo://app?vid=b86cdf0c-e60e-44b1-8077-42145bab1514","ios":"levelo://app?vid=b86cdf0c-e60e-44b1-8077-42145bab1514"},"vehicle_type_id":"4","last_reported":1767856577,"current_range_meters":8400,"station_id":"ce4bh5p2rcd13ifvqe4g","pricing_plan_id":"cebpf4jnsgd1na2vs0mg"},{"bike_id":"873ae146-395a-40ee-8fdf-3d973ffd9442","system_id":"levelo_inurba_marseille","lat":43.25926,"lon":5.40895,"is_reserved":false,"is_disabled":false,"rental_uris":{"android":"levelo://app?vid=873ae146-395a-40ee-8fdf-3d973ffd9442","ios":"levelo://app?vid=873ae146-395a-40ee-8fdf-3d973ffd9442"},"vehicle_type_id":"4","last_reported":1767856577,"current_range_meters":8400,"station_id":"ce4bhm92rcd13ifvqglg","pricing_plan_id":"cebpf4jnsgd1na2vs0mg"},{"bike_id":"064c8191-3107-4a12-b80e-6dc34a12a072","system_id":"levelo_inurba_marseille","lat":43.24816,"lon":5.374571,"is_reserved":false,"is_disabled":false,"rental_uris":{"android":"levelo://app?vid=064c8191-3107-4a12-b80e-6dc34a12a072","ios":"levelo://app?vid=064c8191-3107-4a12-b80e-6dc34a12a072"},"vehicle_type_id":"4","last_reported":1767856577,"current_range_meters":8400,"station_id":"ce4bhgh2rcd13ifvqfb0","pricing_plan_id":"cebpf4jnsgd1na2vs0mg"},{"bike_id":"664dbd2a-2165-4321-a49a-47052a140805","system_id":"levelo_inurba_marseille","lat":43.29069,"lon":5.37222,"is_reserved":false,"is_disabled":false,"rental_uris":{"android":"levelo://app?vid=664dbd2a-2165-4321-a49a-47052a140805","ios":"levelo://app?vid=664dbd2a-2165-4321-a49a-47052a140805"},"vehicle_type_id":"4","last_reported":1767856577,"current_range_meters":8400,"station_id":"","pricing_plan_id":"cebpf4jnsgd1na2vs0mg"},{"bike_id":"1e75dc44-71fb-42b8-9a14-a948c4eaf3e2","system_id":"levelo_inurba_marseille","lat":43.309524,"lon":5.390318,"is_reserved":false,"is_disabled":true,"rental_uris":{"android":"levelo://app?vid=1e75dc44-71fb-42b8-9a14-a948c4eaf3e2","ios":"levelo://app?vid=1e75dc44-71fb-42b8-9a14-a948c4eaf3e2"},"vehicle_type_id":"4","last_reported":1767856577,"current_range_meters":8400,"station_id":"ce4bgup2rcd13ifvqco0","pricing_plan_id":"cebpf4jnsgd1na2vs0mg"},{"bike_id":"34fee4b8-3b9f-48fa-8487-e452b947e00f","system_id":"levelo_inurba_marseille","lat":43.3027,"lon":5.37697,"is_reserved":false,"is_disabled":false,"rental_uris":{"android":"levelo://app?vid=34fee4b8-3b9f-48fa-8487-e452b947e00f","ios":"levelo://app?vid=34fee4b8-3b9f-48fa-8487-e452b947e00f"},"vehicle_type_id":"4","last_reported":1767856577,"current_range_meters":8400,"station_id":"ce4bguh2rcd13ifvqcj0","pricing_plan_id":"cebpf4jnsgd1na2vs0mg"},{"bike_id":"e17b7661-f434-44b5-be8b-bc3645d075a0","system_id":"levelo_inurba_marseille","lat":43.317127,"lon":5.437009,"is_reserved":false,"is_disabled":false,"rental_uris":{"android":"levelo://app?vid=e17b7661-f434-44b5-be8b-bc3645d075a0","ios":"levelo://app?vid=e17b7661-f434-44b5-be8b-bc3645d075a0"},"vehicle_type_id":"4","last_reported":1767856577,"current_range_meters":8400,"station_id":"ce4bhp92rcd13ifvqhcg","pricing_plan_id":"cebpf4jnsgd1na2vs0mg"},{"bike_id":"cccd9c67-1ccb-4ba0-809c-3495a226e96b","system_id":"levelo_inurba_marseille","lat":43.2925,"lon":5.40907,"is_reserved":false,"is_disabled":false,"rental_uris":{"android":"levelo://app?vid=cccd9c67-1ccb-4ba0-809c-3495a226e96b","ios":"levelo://app?vid=cccd9c67-1ccb-4ba0-809c-3495a226e96b"},"vehicle_type_id":"4","last_reported":1767856577,"current_range_meters":8400,"station_id":"ce4bh192rcd13ifvqdc0","pricing_plan_id":"cebpf4jnsgd1na2vs0mg"},{"bike_id":"63e4976f-7d93-49f6-a2b3-f7ce857422dd","system_id":"levelo_inurba_marseille","lat":43.303076,"lon":5.392031,"is_reserved":false,"is_disabled":true,"rental_uris":{"android":"levelo://app?vid=63e4976f-7d93-49f6-a2b3-f7ce857422dd","ios":"levelo://app?vid=63e4976f-7d93-49f6-a2b3-f7ce857422dd"},"vehicle_type_id":"4","last_reported":1767856577,"current_range_meters":8400,"station_id":"ce4bgkh2rcd13ifvqbk0","pricing_plan_id":"cebpf4jnsgd1na2vs0mg"},{"bike_id":"6fe6c797-0844-4343-9c15-2062e14c7416","system_id":"levelo_inurba_marseille","lat":43.2863,"lon":5.35079,"is_reserved":false,"is_disabled":false,"rental_uris":{"android":"levelo://app?vid=6fe6c797-0844-4343-9c15-2062e14c7416","ios":"levelo://app?vid=6fe6c797-0844-4343-9c15-2062e14c7416"},"vehicle_type_id":"4","last_reported":1767856577,"current_range_meters":8400,"station_id":"ce4bhch2rcd13ifvqeug","pricing_plan_id":"cebpf4jnsgd1na2vs0mg"},{"bike_id":"61fff5d3-7780-4625-95c0-30ca98f35df1","system_id":"levelo_inurba_marseille","lat":43.23154,"lon":5.43722,"is_reserved":false,"is_disabled":false,"rental_uris":{"android":"levelo://app?vid=61fff5d3-7780-4625-95c0-30ca98f35df1","ios":"levelo://app?vid=61fff5d3-7780-4625-95c0-30ca98f35df1"},"vehicle_type_id":"4","last_reported":1767856577,"current_range_meters":8400,"station_id":"ce4bhmp2rcd13ifvqgog","pricing_plan_id":"cebpf4jnsgd1na2vs0mg"},{"bike_id":"c3d6c704-9746-4167-aef5-86758be7f215","system_id":"levelo_inurba_marseille","lat":43.31063,"lon":5.38362,"is_reserved":false,"is_disabled":false,"rental_uris":{"android":"levelo://app?vid=c3d6c704-9746-4167-aef5-86758be7f215","ios":"levelo://app?vid=c3d6c704-9746-4167-aef5-86758be7f215"},"vehicle_type_id":"4","last_reported":1767856577,"current_range_meters":8400,"station_id":"ce4bgv92rcd13ifvqcr0","pricing_plan_id":"cebpf4jnsgd1na2vs0mg"},{"bike_id":"582889fd-a2c5-40e7-bf70-f48d8da3a80a","system_id":"levelo_inurba_marseille","lat":43.28967,"lon":5.37824,"is_reserved":false,"is_disabled":true,"rental_uris":{"android":"levelo://app?vid=582889fd-a2c5-40e7-bf70-f48d8da3a80a","ios":"levelo://app?vid=582889fd-a2c5-40e7-bf70-f48d8da3a80a"},"vehicle_type_id":"4","last_reported":1767856577,"current_range_meters":8400,"station_id":"ce4bh9p2rcd13ifvqed0","pricing_plan_id":"cebpf4jnsgd1na2vs0mg"},{"bike_id":"804bced5-7779-4d7f-a23b-cc26efc4cdbd","system_id":"levelo_inurba_marseille","lat":43.33027,"lon":5.39043,"is_reserved":false,"is_disabled":false,"rental_uris":{"android":"levelo://app?vid=804bced5-7779-4d7f-a23b-cc26efc4cdbd","ios":"levelo://app?vid=804bced5-7779-4d7f-a23b-cc26efc4cdbd"},"vehicle_type_id":"4","last_reported":1767856577,"current_range_meters":8400,"station_id":"ce4bhr92rcd13ifvqhrg","pricing_plan_id":"cebpf4jnsgd1na2vs0mg"},{"bike_id":"b67dc3ac-fe23-4feb-939b-2de15f3d05a0","system_id":"levelo_inurba_marseille","lat":43.29601,"lon":5.381078,"is_reserved":false,"is_disabled":false,"rental_uris":{"android":"levelo://app?vid=b67dc3ac-fe23-4feb-939b-2de15f3d05a0","ios":"levelo://app?vid=b67dc3ac-fe23-4feb-939b-2de15f3d05a0"},"vehicle_type_id":"4","last_reported":1767856577,"current_range_meters":8800,"station_id":"ce4bgl12rcd13ifvqbo0","pricing_plan_id":"cebpf4jnsgd1na2vs0mg"},{"bike_id":"304d1361-767d-4fd8-9d8d-35c921fedd33","system_id":"levelo_inurba_marseille","lat":43.288395,"lon":5.358563,"is_reserved":false,"is_disabled":true,"rental_uris":{"android":"levelo://app?vid=304d1361-767d-4fd8-9d8d-35c921fedd33","ios":"levelo://app?vid=304d1361-767d-4fd8-9d8d-35c921fedd33"},"vehicle_type_id":"4","last_reported":1767856577,"current_range_meters":8800,"station_id":"ce4bhb12rcd13ifvqem0","pricing_plan_id":"cebpf4jnsgd1na2vs0mg"},{"bike_id":"716246d2-20be-47bc-bc39-93f8b99bcfd5","system_id":"levelo_inurba_marseille","lat":43.28214,"lon":5.3909,"is_reserved":false,"is_disabled":false,"rental_uris":{"android":"levelo://app?vid=716246d2-20be-47bc-bc39-93f8b99bcfd5","ios":"levelo://app?vid=716246d2-20be-47bc-bc39-93f8b99bcfd5"},"vehicle_type_id":"4","last_reported":1767856577,"current_range_meters":8800,"station_id":"ce4bhn92rcd13ifvqgsg","pricing_plan_id":"cebpf4jnsgd1na2vs0mg"},{"bike_id":"a0baeed8-1c2d-4b3d-a98c-a841d5f11ee9","system_id":"levelo_inurba_marseille","lat":43.23143,"lon":5.43708,"is_reserved":false,"is_disabled":false,"rental_uris":{"android":"levelo://app?vid=a0baeed8-1c2d-4b3d-a98c-a841d5f11ee9","ios":"levelo://app?vid=a0baeed8-1c2d-4b3d-a98c-a841d5f11ee9"},"vehicle_type_id":"4","last_reported":1767856577,"current_range_meters":8800,"station_id":"ce4bhmp2rcd13ifvqgog","pricing_plan_id":"cebpf4jnsgd1na2vs0mg"},{"bike_id":"2d9da8b4-ebdb-452a-a955-1e8367bfbaf7","system_id":"levelo_inurba_marseille","lat":43.29276,"lon":5.40116,"is_reserved":false,"is_disabled":false,"rental_uris":{"android":"levelo://app?vid=2d9da8b4-ebdb-452a-a955-1e8367bfbaf7","ios":"levelo://app?vid=2d9da8b4-ebdb-452a-a955-1e8367bfbaf7"},"vehicle_type_id":"4","last_reported":1767856577,"current_range_meters":8800,"station_id":"ce4bh312rcd13ifvqdk0","pricing_plan_id":"cebpf4jnsgd1na2vs0mg"},{"bike_id":"66a4614b-6c64-484a-972a-b33f1829fffd","system_id":"levelo_inurba_marseille","lat":43.29899,"lon":5.36493,"is_reserved":false,"is_disabled":false,"rental_uris":{"android":"levelo://app?vid=66a4614b-6c64-484a-972a-b33f1829fffd","ios":"levelo://app?vid=66a4614b-6c64-484a-972a-b33f1829fffd"},"vehicle_type_id":"4","last_reported":1767856577,"current_range_meters":8800,"station_id":"","pricing_plan_id":"cebpf4jnsgd1na2vs0mg"},{"bike_id":"50a934ac-34b8-43bc-8e6d-7f43cdfd006a","system_id":"levelo_inurba_marseille","lat":43.2918,"lon":5.37129,"is_reserved":false,"is_disabled":false,"rental_uris":{"android":"levelo://app?vid=50a934ac-34b8-43bc-8e6d-7f43cdfd006a","ios":"levelo://app?vid=50a934ac-34b8-43bc-8e6d-7f43cdfd006a"},"vehicle_type_id":"4","last_reported":1767856577,"current_range_meters":8800,"station_id":"ce4bha92rcd13ifvqeh0","pricing_plan_id":"cebpf4jnsgd1na2vs0mg"},{"bike_id":"a25ddc9f-fa7a-4f41-8e1b-1d1968399112","system_id":"levelo_inurba_marseille","lat":43.28836,"lon":5.35853,"is_reserved":false,"is_disabled":false,"rental_uris":{"android":"levelo://app?vid=a25ddc9f-fa7a-4f41-8e1b-1d1968399112","ios":"levelo://app?vid=a25ddc9f-fa7a-4f41-8e1b-1d1968399112"},"vehicle_type_id":"4","last_reported":1767856577,"current_range_meters":8800,"station_id":"ce4bhb12rcd13ifvqem0","pricing_plan_id":"cebpf4jnsgd1na2vs0mg"},{"bike_id":"8d3bcec0-12db-4ded-9c74-16c2ef743121","system_id":"levelo_inurba_marseille","lat":43.30201,"lon":5.39458,"is_reserved":false,"is_disabled":false,"rental_uris":{"android":"levelo://app?vid=8d3bcec0-12db-4ded-9c74-16c2ef743121","ios":"levelo://app?vid=8d3bcec0-12db-4ded-9c74-16c2ef743121"},"vehicle_type_id":"4","last_reported":1767856577,"current_range_meters":8800,"station_id":"ce4bh0p2rcd13ifvqd70","pricing_plan_id":"cebpf4jnsgd1na2vs0mg"},{"bike_id":"82582fec-7dfe-4668-947f-7bf0439e6b8e","system_id":"levelo_inurba_marseille","lat":43.28476,"lon":5.48385,"is_reserved":false,"is_disabled":false,"rental_uris":{"android":"levelo://app?vid=82582fec-7dfe-4668-947f-7bf0439e6b8e","ios":"levelo://app?vid=82582fec-7dfe-4668-947f-7bf0439e6b8e"},"vehicle_type_id":"4","last_reported":1767856577,"current_range_meters":8800,"station_id":"","pricing_plan_id":"cebpf4jnsgd1na2vs0mg"},{"bike_id":"c5c13b1e-4344-489e-bf05-6a079cf41d73","system_id":"levelo_inurba_marseille","lat":43.30156,"lon":5.39811,"is_reserved":false,"is_disabled":false,"rental_uris":{"android":"levelo://app?vid=c5c13b1e-4344-489e-bf05-6a079cf41d73","ios":"levelo://app?vid=c5c13b1e-4344-489e-bf05-6a079cf41d73"},"vehicle_type_id":"4","last_reported":1767856577,"current_range_meters":8800,"station_id":"","pricing_plan_id":"cebpf4jnsgd1na2vs0mg"},{"bike_id":"61e533a6-acc9-488b-a636-f42dc7ec3e94","system_id":"levelo_inurba_marseille","lat":43.23965,"lon":5.36633,"is_reserved":false,"is_disabled":false,"rental_uris":{"android":"levelo://app?vid=61e533a6-acc9-488b-a636-f42dc7ec3e94","ios":"levelo://app?vid=61e533a6-acc9-488b-a636-f42dc7ec3e94"},"vehicle_type_id":"4","last_reported":1767856577,"current_range_meters":8800,"station_id":"ce4bhi12rcd13ifvqfp0","pricing_plan_id":"cebpf4jnsgd1na2vs0mg"},{"bike_id":"8ddd903e-4b58-445b-933d-a20697560094","system_id":"levelo_inurba_marseille","lat":43.33432,"lon":5.40041,"is_reserved":false,"is_disabled":false,"rental_uris":{"android":"levelo://app?vid=8ddd903e-4b58-445b-933d-a20697560094","ios":"levelo://app?vid=8ddd903e-4b58-445b-933d-a20697560094"},"vehicle_type_id":"4","last_reported":1767856577,"current_range_meters":8800,"station_id":"","pricing_plan_id":"cebpf4jnsgd1na2vs0mg"},{"bike_id":"ca952edf-7616-4a9b-8a99-3a013bbb51d1","system_id":"levelo_inurba_marseille","lat":43.27568,"lon":5.38395,"is_reserved":false,"is_disabled":false,"rental_uris":{"android":"levelo://app?vid=ca952edf-7616-4a9b-8a99-3a013bbb51d1","ios":"levelo://app?vid=ca952edf-7616-4a9b-8a99-3a013bbb51d1"},"vehicle_type_id":"4","last_reported":1767856577,"current_range_meters":8800,"station_id":"ce4bhh92rcd13ifvqfi0","pricing_plan_id":"cebpf4jnsgd1na2vs0mg"},{"bike_id":"1ec87dc4-96ce-4c93-a5ce-3d185389cb5b","system_id":"levelo_inurba_marseille","lat":43.285303,"lon":5.440974,"is_reserved":false,"is_disabled":false,"rental_uris":{"android":"levelo://app?vid=1ec87dc4-96ce-4c93-a5ce-3d185389cb5b","ios":"levelo://app?vid=1ec87dc4-96ce-4c93-a5ce-3d185389cb5b"},"vehicle_type_id":"4","last_reported":1767856577,"current_range_meters":8800,"station_id":"st_d3j3df2ikq2c7380ej80","pricing_plan_id":"cebpf4jnsgd1na2vs0mg"},{"bike_id":"748e6a5e-97a9-489d-8fdc-20f62045411a","system_id":"levelo_inurba_marseille","lat":43.289137,"lon":5.396765,"is_reserved":false,"is_disabled":false,"rental_uris":{"android":"levelo://app?vid=748e6a5e-97a9-489d-8fdc-20f62045411a","ios":"levelo://app?vid=748e6a5e-97a9-489d-8fdc-20f62045411a"},"vehicle_type_id":"4","last_reported":1767856577,"current_range_meters":8800,"station_id":"ce4bh3h2rcd13ifvqdn0","pricing_plan_id":"cebpf4jnsgd1na2vs0mg"},{"bike_id":"ae4ea6af-ac8e-4f9d-acb8-d08926e47bb1","system_id":"levelo_inurba_marseille","lat":43.33031,"lon":5.38001,"is_reserved":false,"is_disabled":false,"rental_uris":{"android":"levelo://app?vid=ae4ea6af-ac8e-4f9d-acb8-d08926e47bb1","ios":"levelo://app?vid=ae4ea6af-ac8e-4f9d-acb8-d08926e47bb1"},"vehicle_type_id":"4","last_reported":1767856577,"current_range_meters":9200,"station_id":"","pricing_plan_id":"cebpf4jnsgd1na2vs0mg"},{"bike_id":"ba3c872d-dd47-47bd-a24b-b7095ec24b6d","system_id":"levelo_inurba_marseille","lat":43.29598,"lon":5.38096,"is_reserved":false,"is_disabled":false,"rental_uris":{"android":"levelo://app?vid=ba3c872d-dd47-47bd-a24b-b7095ec24b6d","ios":"levelo://app?vid=ba3c872d-dd47-47bd-a24b-b7095ec24b6d"},"vehicle_type_id":"4","last_reported":1767856577,"current_range_meters":9200,"station_id":"ce4bgl12rcd13ifvqbo0","pricing_plan_id":"cebpf4jnsgd1na2vs0mg"},{"bike_id":"4fc027f3-6d21-4416-b1aa-984a0cb31570","system_id":"levelo_inurba_marseille","lat":43.30149,"lon":5.38081,"is_reserved":false,"is_disabled":false,"rental_uris":{"android":"levelo://app?vid=4fc027f3-6d21-4416-b1aa-984a0cb31570","ios":"levelo://app?vid=4fc027f3-6d21-4416-b1aa-984a0cb31570"},"vehicle_type_id":"4","last_reported":1767856577,"current_range_meters":9200,"station_id":"ce4bgjp2rcd13ifvqbh0","pricing_plan_id":"cebpf4jnsgd1na2vs0mg"},{"bike_id":"7934d010-f2d3-4873-969e-5816454b4a28","system_id":"levelo_inurba_marseille","lat":43.2994,"lon":5.36525,"is_reserved":false,"is_disabled":false,"rental_uris":{"android":"levelo://app?vid=7934d010-f2d3-4873-969e-5816454b4a28","ios":"levelo://app?vid=7934d010-f2d3-4873-969e-5816454b4a28"},"vehicle_type_id":"4","last_reported":1767856577,"current_range_meters":9200,"station_id":"ce4bgm92rcd13ifvqbr0","pricing_plan_id":"cebpf4jnsgd1na2vs0mg"},{"bike_id":"9b8621cc-00fe-4c49-bba1-a268382fca58","system_id":"levelo_inurba_marseille","lat":43.28273,"lon":5.35084,"is_reserved":false,"is_disabled":false,"rental_uris":{"android":"levelo://app?vid=9b8621cc-00fe-4c49-bba1-a268382fca58","ios":"levelo://app?vid=9b8621cc-00fe-4c49-bba1-a268382fca58"},"vehicle_type_id":"4","last_reported":1767856577,"current_range_meters":9200,"station_id":"ce4bhbp2rcd13ifvqerg","pricing_plan_id":"cebpf4jnsgd1na2vs0mg"},{"bike_id":"b2a3da8f-bf56-4eb9-9359-d00614059d44","system_id":"levelo_inurba_marseille","lat":43.29086,"lon":5.38084,"is_reserved":false,"is_disabled":false,"rental_uris":{"android":"levelo://app?vid=b2a3da8f-bf56-4eb9-9359-d00614059d44","ios":"levelo://app?vid=b2a3da8f-bf56-4eb9-9359-d00614059d44"},"vehicle_type_id":"4","last_reported":1767856577,"current_range_meters":9200,"station_id":"ce4bh512rcd13ifvqe2g","pricing_plan_id":"cebpf4jnsgd1na2vs0mg"},{"bike_id":"e98dc820-6aac-4f48-9094-e49c757a1537","system_id":"levelo_inurba_marseille","lat":43.30558,"lon":5.36534,"is_reserved":false,"is_disabled":false,"rental_uris":{"android":"levelo://app?vid=e98dc820-6aac-4f48-9094-e49c757a1537","ios":"levelo://app?vid=e98dc820-6aac-4f48-9094-e49c757a1537"},"vehicle_type_id":"4","last_reported":1767856577,"current_range_meters":9200,"station_id":"ce4bgs12rcd13ifvqcag","pricing_plan_id":"cebpf4jnsgd1na2vs0mg"},{"bike_id":"e675417a-ddfa-4566-a6fd-5425688f0a21","system_id":"levelo_inurba_marseille","lat":43.337527,"lon":5.37456,"is_reserved":false,"is_disabled":false,"rental_uris":{"android":"levelo://app?vid=e675417a-ddfa-4566-a6fd-5425688f0a21","ios":"levelo://app?vid=e675417a-ddfa-4566-a6fd-5425688f0a21"},"vehicle_type_id":"4","last_reported":1767856577,"current_range_meters":9200,"station_id":"","pricing_plan_id":"cebpf4jnsgd1na2vs0mg"},{"bike_id":"e41d8bea-ffd2-440d-b446-b472b1d04e4d","system_id":"levelo_inurba_marseille","lat":43.239601,"lon":5.366232,"is_reserved":false,"is_disabled":false,"rental_uris":{"android":"levelo://app?vid=e41d8bea-ffd2-440d-b446-b472b1d04e4d","ios":"levelo://app?vid=e41d8bea-ffd2-440d-b446-b472b1d04e4d"},"vehicle_type_id":"4","last_reported":1767856577,"current_range_meters":9200,"station_id":"ce4bhi12rcd13ifvqfp0","pricing_plan_id":"cebpf4jnsgd1na2vs0mg"},{"bike_id":"08763cfa-f8a3-4140-bbe3-bb5180406344","system_id":"levelo_inurba_marseille","lat":43.232005,"lon":5.355557,"is_reserved":false,"is_disabled":false,"rental_uris":{"android":"levelo://app?vid=08763cfa-f8a3-4140-bbe3-bb5180406344","ios":"levelo://app?vid=08763cfa-f8a3-4140-bbe3-bb5180406344"},"vehicle_type_id":"4","last_reported":1767856577,"current_range_meters":9200,"station_id":"ce4bhu92rcd13ifvqi70","pricing_plan_id":"cebpf4jnsgd1na2vs0mg"},{"bike_id":"b31ff69f-1f43-45db-9dc1-859c4f09bde6","system_id":"levelo_inurba_marseille","lat":43.29585,"lon":5.36759,"is_reserved":false,"is_disabled":false,"rental_uris":{"android":"levelo://app?vid=b31ff69f-1f43-45db-9dc1-859c4f09bde6","ios":"levelo://app?vid=b31ff69f-1f43-45db-9dc1-859c4f09bde6"},"vehicle_type_id":"4","last_reported":1767856577,"current_range_meters":9200,"station_id":"ce4bgph2rcd13ifvqc2g","pricing_plan_id":"cebpf4jnsgd1na2vs0mg"},{"bike_id":"ac64f432-9ab8-4dd9-b132-5f28fccbe7fd","system_id":"levelo_inurba_marseille","lat":43.30534,"lon":5.36773,"is_reserved":false,"is_disabled":false,"rental_uris":{"android":"levelo://app?vid=ac64f432-9ab8-4dd9-b132-5f28fccbe7fd","ios":"levelo://app?vid=ac64f432-9ab8-4dd9-b132-5f28fccbe7fd"},"vehicle_type_id":"4","last_reported":1767856577,"current_range_meters":9200,"station_id":"ce4bgrp2rcd13ifvqc9g","pricing_plan_id":"cebpf4jnsgd1na2vs0mg"},{"bike_id":"ce3cc1d9-9ec8-4064-92e2-4915f0b7e6ce","system_id":"levelo_inurba_marseille","lat":43.24634,"lon":5.43146,"is_reserved":false,"is_disabled":false,"rental_uris":{"android":"levelo://app?vid=ce3cc1d9-9ec8-4064-92e2-4915f0b7e6ce","ios":"levelo://app?vid=ce3cc1d9-9ec8-4064-92e2-4915f0b7e6ce"},"vehicle_type_id":"4","last_reported":1767856577,"current_range_meters":9200,"station_id":"st_d2m6c4gdas8pm72e190g","pricing_plan_id":"cebpf4jnsgd1na2vs0mg"},{"bike_id":"97452125-5d86-4a9e-b4a3-a2dd4fe9ffac","system_id":"levelo_inurba_marseille","lat":43.25485,"lon":5.37667,"is_reserved":false,"is_disabled":false,"rental_uris":{"android":"levelo://app?vid=97452125-5d86-4a9e-b4a3-a2dd4fe9ffac","ios":"levelo://app?vid=97452125-5d86-4a9e-b4a3-a2dd4fe9ffac"},"vehicle_type_id":"4","last_reported":1767856577,"current_range_meters":9200,"station_id":"ce4bhh12rcd13ifvqff0","pricing_plan_id":"cebpf4jnsgd1na2vs0mg"},{"bike_id":"178af311-257f-430c-88ec-49a4efce74a5","system_id":"levelo_inurba_marseille","lat":43.30597,"lon":5.39366,"is_reserved":false,"is_disabled":false,"rental_uris":{"android":"levelo://app?vid=178af311-257f-430c-88ec-49a4efce74a5","ios":"levelo://app?vid=178af311-257f-430c-88ec-49a4efce74a5"},"vehicle_type_id":"4","last_reported":1767856577,"current_range_meters":9200,"station_id":"ce4bh0p2rcd13ifvqd80","pricing_plan_id":"cebpf4jnsgd1na2vs0mg"},{"bike_id":"c140eeaa-271a-4727-8be8-5915b5d901b8","system_id":"levelo_inurba_marseille","lat":43.28935,"lon":5.36639,"is_reserved":false,"is_disabled":false,"rental_uris":{"android":"levelo://app?vid=c140eeaa-271a-4727-8be8-5915b5d901b8","ios":"levelo://app?vid=c140eeaa-271a-4727-8be8-5915b5d901b8"},"vehicle_type_id":"4","last_reported":1767856577,"current_range_meters":9200,"station_id":"ce4bhap2rcd13ifvqek0","pricing_plan_id":"cebpf4jnsgd1na2vs0mg"},