{"last_updated":1722280012,"ttl":30,"version":"2.2","data":{"bikes":[{"bike_id":"def5710e-d266-4f5d-9f1f-fd3103fccbef","system_id":"levelo_inurba_marseille","lat":43.31243,"lon":5.36825,"is_reserved":false,"is_disabled":false,"rental_uris":{"android":"levelo://app?vid=def5710e-d266-4f5d-9f1f-fd3103fccbef","ios":"levelo://app?vid=def5710e-d266-4f5d-9f1f-fd3103fccbef"},"vehicle_type_id":"4","last_reported":1722280013,"current_range_meters":2000,"station_id":"","pricing_plan_id":"cebpf4jnsgd1na2vs0mg"},{"bike_id":"2a30ba82-9b4f-4cea-b69e-c88be18b525b","system_id":"levelo_inurba_marseille","lat":43.312239,"lon":5.368562,"is_reserved":false,"is_disabled":false,"rental_uris":{"android":"levelo://app?vid=2a30ba82-9b4f-4cea-b69e-c88be18b525b","ios":"levelo://app?vid=2a30ba82-9b4f-4cea-b69e-c88be18b525b"},"vehicle_type_id":"4","last_reported":1722280013,"current_range_meters":11200,"station_id":"ce4bgl92rcd13ifvqbq0","pricing_plan_id":"cebpf4jnsgd1na2vs0mg"},{"bike_id":"97319a2f-0ccd-4263-a04a-6ef72749776e","system_id":"levelo_inurba_marseille","lat":43.31227,"lon":5.36854,"is_reserved":false,"is_disabled":false,"rental_uris":{"android":"levelo://app?vid=97319a2f-0ccd-4263-a04a-6ef72749776e","ios":"levelo://app?vid=97319a2f-0ccd-4263-a04a-6ef72749776e"},"vehicle_type_id":"4","last_reported":1722280013,"current_range_meters":4000,"station_id":"ce4bgl92rcd13ifvqbq0","pricing_plan_id":"cebpf4jnsgd1na2vs0mg"},{"bike_id":"904b9d8e-7712-46a6-af50-fbf02bb1877a","system_id":"levelo_inurba_marseille","lat":43.312239,"lon":5.368562,"is_reserved":false,"is_disabled":false,"rental_uris":{"android":"levelo://app?vid=904b9d8e-7712-46a6-af50-fbf02bb1877a","ios":"levelo://app?vid=904b9d8e-7712-46a6-af50-fbf02bb1877a"},"vehicle_type_id":"4","last_reported":1722280013,"current_range_meters":2800,"station_id":"ce4bgl92rcd13ifvqbq0","pricing_plan_id":"cebpf4jnsgd1na2vs0mg"},{"bike_id":"46cfd138-e6ad-4edd-bc03-16738de8177e","system_id":"levelo_inurba_marseille","lat":43.312239,"lon":5.368562,"is_reserved":false,"is_disabled":false,"rental_uris":{"android":"levelo://app?vid=46cfd138-e6ad-4edd-bc03-16738de8177e","ios":"levelo://app?vid=46cfd138-e6ad-4edd-bc03-16738de8177e"},"vehicle_type_id":"4","last_reported":1722280013,"current_range_meters":24000,"station_id":"ce4bgl92rcd13ifvqbq0","pricing_plan_id":"cebpf4jnsgd1na2vs0mg"},{"bike_id":"eb13b83d-f798-431e-98f6-ea4aafec9191","system_id":"levelo_inurba_marseille","lat":43.312239,"lon":5.368562,"is_reserved":false,"is_disabled":false,"rental_uris":{"android":"levelo://app?vid=eb13b83d-f798-431e-98f6-ea4aafec9191","ios":"levelo://app?vid=eb13b83d-f798-431e-98f6-ea4aafec9191"},"vehicle_type_id":"4","last_reported":1722280013,"current_range_meters":0,"station_id":"ce4bgl92rcd13ifvqbq0","pricing_plan_id":"cebpf4jnsgd1na2vs0mg"},{"bike_id":"f2b5bd8d-95f0-4b21-a2da-6797bfb59d16","system_id":"levelo_inurba_marseille","lat":43.312239,"lon":5.368562,"is_reserved":false,"is_disabled":false,"rental_uris":{"android":"levelo://app?vid=f2b5bd8d-95f0-4b21-a2da-6797bfb59d16","ios":"levelo://app?vid=f2b5bd8d-95f0-4b21-a2da-6797bfb59d16"},"vehicle_type_id":"4","last_reported":1722280013,"current_range_meters":4000,"station_id":"ce4bgl92rcd13ifvqbq0","pricing_plan_id":"cebpf4jnsgd1na2vs0mg"},{"bike_id":"caed1c7b-7f81-4ab3-ac0a-92d6d9696deb","system_id":"levelo_inurba_marseille","lat":43.3122,"lon":5.36854,"is_reserved":false,"is_disabled":false,"rental_uris":{"android":"levelo://app?vid=caed1c7b-7f81-4ab3-ac0a-92d6d9696deb","ios":"levelo://app?vid=caed1c7b-7f81-4ab3-ac0a-92d6d9696deb"},"vehicle_type_id":"4","last_reported":1722280013,"current_range_meters":4800,"station_id":"ce4bgl92rcd13ifvqbq0","pricing_plan_id":"cebpf4jnsgd1na2vs0mg"},{"bike_id":"5580e4eb-c0fc-44de-9e28-1dd531af1b91","system_id":"levelo_inurba_marseille","lat":43.312239,"lon":5.368562,"is_reserved":false,"is_disabled":false,"rental_uris":{"android":"levelo://app?vid=5580e4eb-c0fc-44de-9e28-1dd531af1b91","ios":"levelo://app?vid=5580e4eb-c0fc-44de-9e28-1dd531af1b91"},"vehicle_type_id":"4","last_reported":1722280013,"current_range_meters":30000,"station_id":"ce4bgl92rcd13ifvqbq0","pricing_plan_id":"cebpf4jnsgd1na2vs0mg"},{"bike_id":"8d4fab75-7458-4afc-912b-4f9485c10ec1","system_id":"levelo_inurba_marseille","lat":43.312239,"lon":5.368562,"is_reserved":false,"is_disabled":false,"rental_uris":{"android":"levelo://app?vid=8d4fab75-7458-4afc-912b-4f9485c10ec1","ios":"levelo://app?vid=8d4fab75-7458-4afc-912b-4f9485c10ec1"},"vehicle_type_id":"4","last_reported":1722280013,"current_range_meters":27600,"station_id":"ce4bgl92rcd13ifvqbq0","pricing_plan_id":"cebpf4jnsgd1na2vs0mg"},{"bike_id":"dbac5a5d-d772-4e54-a653-ca6975342fcb","system_id":"levelo_inurba_marseille","lat":43.30907,"lon":5.36845,"is_reserved":false,"is_disabled":false,"rental_uris":{"android":"levelo://app?vid=dbac5a5d-d772-4e54-a653-ca6975342fcb","ios":"levelo://app?vid=dbac5a5d-d772-4e54-a653-ca6975342fcb"},"vehicle_type_id":"4","last_reported":1722280013,"current_range_meters":400,"station_id":"ce4bgn92rcd13ifvqbvg","pricing_plan_id":"cebpf4jnsgd1na2vs0mg"},{"bike_id":"75226221-9f29-4480-8e8e-010032b81bb0","system_id":"levelo_inurba_marseille","lat":43.314811,"lon":5.373103,"is_reserved":false,"is_disabled":false,"rental_uris":{"android":"levelo://app?vid=75226221-9f29-4480-8e8e-010032b81bb0","ios":"levelo://app?vid=75226221-9f29-4480-8e8e-010032b81bb0"},"vehicle_type_id":"4","last_reported":1722280013,"current_range_meters":27600,"station_id":"ce4bgt12rcd13ifvqcd0","pricing_plan_id":"cebpf4jnsgd1na2vs0mg"},{"bike_id":"095f1b69-dd1d-4773-9893-e26a9e180243","system_id":"levelo_inurba_marseille","lat":43.314811,"lon":5.373104,"is_reserved":false,"is_disabled":false,"rental_uris":{"android":"levelo://app?vid=095f1b69-dd1d-4773-9893-e26a9e180243","ios":"levelo://app?vid=095f1b69-dd1d-4773-9893-e26a9e180243"},"vehicle_type_id":"4","last_reported":1722280013,"current_range_meters":26800,"station_id":"ce4bgt12rcd13ifvqcd0","pricing_plan_id":"cebpf4jnsgd1na2vs0mg"},{"bike_id":"53b97e32-ebb5-4277-a61f-8811e7828b9f","system_id":"levelo_inurba_marseille","lat":43.314811,"lon":5.373103,"is_reserved":false,"is_disabled":false,"rental_uris":{"android":"levelo://app?vid=53b97e32-ebb5-4277-a61f-8811e7828b9f","ios":"levelo://app?vid=53b97e32-ebb5-4277-a61f-8811e7828b9f"},"vehicle_type_id":"4","last_reported":1722280013,"current_range_meters":2000,"station_id":"ce4bgt12rcd13ifvqcd0","pricing_plan_id":"cebpf4jnsgd1na2vs0mg"},{"bike_id":"4e6a592d-991f-469f-ac4f-c159cda96ac7","system_id":"levelo_inurba_marseille","lat":43.31452,"lon":5.37379,"is_reserved":false,"is_disabled":false,"rental_uris":{"android":"levelo://app?vid=4e6a592d-991f-469f-ac4f-c159cda96ac7","ios":"levelo://app?vid=4e6a592d-991f-469f-ac4f-c159cda96ac7"},"vehicle_type_id":"4","last_reported":1722280013,"current_range_meters":0,"station_id":"","pricing_plan_id":"cebpf4jnsgd1na2vs0mg"},{"bike_id":"071f9031-ba10-4347-a63c-37ec0b12758b","system_id":"levelo_inurba_marseille","lat":43.30537,"lon":5.367345,"is_reserved":false,"is_disabled":false,"rental_uris":{"android":"levelo://app?vid=071f9031-ba10-4347-a63c-37ec0b12758b","ios":"levelo://app?vid=071f9031-ba10-4347-a63c-37ec0b12758b"},"vehicle_type_id":"4","last_reported":1722280013,"current_range_meters":31200,"station_id":"ce4bgrp2rcd13ifvqc9g","pricing_plan_id":"cebpf4jnsgd1na2vs0mg"},{"bike_id":"7cd7bac1-7bbf-4aae-964a-1000404a2449","system_id":"levelo_inurba_marseille","lat":43.30547,"lon":5.36689,"is_reserved":false,"is_disabled":false,"rental_uris":{"android":"levelo://app?vid=7cd7bac1-7bbf-4aae-964a-1000404a2449","ios":"levelo://app?vid=7cd7bac1-7bbf-4aae-964a-1000404a2449"},"vehicle_type_id":"4","last_reported":1722280013,"current_range_meters":31200,"station_id":"ce4bgrp2rcd13ifvqc9g","pricing_plan_id":"cebpf4jnsgd1na2vs0mg"},{"bike_id":"fe87bcd2-87d4-47df-867a-2cf14d3306f5","system_id":"levelo_inurba_marseille","lat":43.30537,"lon":5.367345,"is_reserved":false,"is_disabled":false,"rental_uris":{"android":"levelo://app?vid=fe87bcd2-87d4-47df-867a-2cf14d3306f5","ios":"levelo://app?vid=fe87bcd2-87d4-47df-867a-2cf14d3306f5"},"vehicle_type_id":"4","last_reported":1722280013,"current_range_meters":20000,"station_id":"ce4bgrp2rcd13ifvqc9g","pricing_plan_id":"cebpf4jnsgd1na2vs0mg"},{"bike_id":"dd0c037f-1878-433d-a3d4-c976c87af073","system_id":"levelo_inurba_marseille","lat":43.31121,"lon":5.37751,"is_reserved":false,"is_disabled":false,"rental_uris":{"android":"levelo://app?vid=dd0c037f-1878-433d-a3d4-c976c87af073","ios":"levelo://app?vid=dd0c037f-1878-433d-a3d4-c976c87af073"},"vehicle_type_id":"4","last_reported":1722280013,"current_range_meters":0,"station_id":"ce4bgt92rcd13ifvqcg0","pricing_plan_id":"cebpf4jnsgd1na2vs0mg"},{"bike_id":"446117f3-e55d-4c5a-bc8e-70379ec1d492","system_id":"levelo_inurba_marseille","lat":43.311125,"lon":5.377624,"is_reserved":false,"is_disabled":false,"rental_uris":{"android":"levelo://app?vid=446117f3-e55d-4c5a-bc8e-70379ec1d492","ios":"levelo://app?vid=446117f3-e55d-4c5a-bc8e-70379ec1d492"},"vehicle_type_id":"4","last_reported":1722280013,"current_range_meters":2800,"station_id":"ce4bgt92rcd13ifvqcg0","pricing_plan_id":"cebpf4jnsgd1na2vs0mg"},{"bike_id":"e4232058-d31f-491a-a132-b494d3a4383e","system_id":"levelo_inurba_marseille","lat":43.311125,"lon":5.377624,"is_reserved":false,"is_disabled":false,"rental_uris":{"android":"levelo://app?vid=e4232058-d31f-491a-a132-b494d3a4383e","ios":"levelo://app?vid=e4232058-d31f-491a-a132-b494d3a4383e"},"vehicle_type_id":"4","last_reported":1722280013,"current_range_meters":28400,"station_id":"ce4bgt92rcd13ifvqcg0","pricing_plan_id":"cebpf4jnsgd1na2vs0mg"},{"bike_id":"ccbfee08-007e-40ff-adc0-a74e627a9580","system_id":"levelo_inurba_marseille","lat":43.311125,"lon":5.377624,"is_reserved":false,"is_disabled":false,"rental_uris":{"android":"levelo://app?vid=ccbfee08-007e-40ff-adc0-a74e627a9580","ios":"levelo://app?vid=ccbfee08-007e-40ff-adc0-a74e627a9580"},"vehicle_type_id":"4","last_reported":1722280013,"current_range_meters":0,"station_id":"ce4bgt92rcd13ifvqcg0","pricing_plan_id":"cebpf4jnsgd1na2vs0mg"},{"bike_id":"820557b1-5914-4ed8-8809-64f9519a04d2","system_id":"levelo_inurba_marseille","lat":43.30313,"lon":5.36896,"is_reserved":false,"is_disabled":false,"rental_uris":{"android":"levelo://app?vid=820557b1-5914-4ed8-8809-64f9519a04d2","ios":"levelo://app?vid=820557b1-5914-4ed8-8809-64f9519a04d2"},"vehicle_type_id":"4","last_reported":1722280013,"current_range_meters":0,"station_id":"ce4bgqh2rcd13ifvqc5g","pricing_plan_id":"cebpf4jnsgd1na2vs0mg"},{"bike_id":"1e871472-114c-4560-90fa-b6ba7f9ad44c","system_id":"levelo_inurba_marseille","lat":43.31534,"lon":5.3803,"is_reserved":false,"is_disabled":false,"rental_uris":{"android":"levelo://app?vid=1e871472-114c-4560-90fa-b6ba7f9ad44c","ios":"levelo://app?vid=1e871472-114c-4560-90fa-b6ba7f9ad44c"},"vehicle_type_id":"4","last_reported":1722280013,"current_range_meters":0,"station_id":"ce4bhsp2rcd13ifvqi50","pricing_plan_id":"cebpf4jnsgd1na2vs0mg"},{"bike_id":"6deec684-c982-4dbe-984d-f51442947bed","system_id":"levelo_inurba_marseille","lat":43.315289,"lon":5.380349,"is_reserved":false,"is_disabled":false,"rental_uris":{"android":"levelo://app?vid=6deec684-c982-4dbe-984d-f51442947bed","ios":"levelo://app?vid=6deec684-c982-4dbe-984d-f51442947bed"},"vehicle_type_id":"4","last_reported":1722280013,"current_range_meters":0,"station_id":"ce4bhsp2rcd13ifvqi50","pricing_plan_id":"cebpf4jnsgd1na2vs0mg"},{"bike_id":"11337172-1a4d-4988-9bbe-cc581a9cae76","system_id":"levelo_inurba_marseille","lat":43.308012,"lon":5.381511,"is_reserved":false,"is_disabled":false,"rental_uris":{"android":"levelo://app?vid=11337172-1a4d-4988-9bbe-cc581a9cae76","ios":"levelo://app?vid=11337172-1a4d-4988-9bbe-cc581a9cae76"},"vehicle_type_id":"4","last_reported":1722280013,"current_range_meters":12800,"station_id":"ce4bgt12rcd13ifvqce0","pricing_plan_id":"cebpf4jnsgd1na2vs0mg"},{"bike_id":"69fa294e-fe06-4f87-a4ae-8a310e74a935","system_id":"levelo_inurba_marseille","lat":43.308012,"lon":5.381511,"is_reserved":false,"is_disabled":false,"rental_uris":{"android":"levelo://app?vid=69fa294e-fe06-4f87-a4ae-8a310e74a935","ios":"levelo://app?vid=69fa294e-fe06-4f87-a4ae-8a310e74a935"},"vehicle_type_id":"4","last_reported":1722280013,"current_range_meters":20800,"station_id":"ce4bgt12rcd13ifvqce0","pricing_plan_id":"cebpf4jnsgd1na2vs0mg"},{"bike_id":"b111dc90-333f-41b6-b255-fd97dd969056","system_id":"levelo_inurba_marseille","lat":43.308012,"lon":5.381511,"is_reserved":false,"is_disabled":false,"rental_uris":{"android":"levelo://app?vid=b111dc90-333f-41b6-b255-fd97dd969056","ios":"levelo://app?vid=b111dc90-333f-41b6-b255-fd97dd969056"},"vehicle_type_id":"4","last_reported":1722280013,"current_range_meters":14800,"station_id":"ce4bgt12rcd13ifvqce0","pricing_plan_id":"cebpf4jnsgd1na2vs0mg"},{"bike_id":"b860bb5f-523b-4242-a573-d5de8d277743","system_id":"levelo_inurba_marseille","lat":43.306857,"lon":5.3809,"is_reserved":false,"is_disabled":false,"rental_uris":{"android":"levelo://app?vid=b860bb5f-523b-4242-a573-d5de8d277743","ios":"levelo://app?vid=b860bb5f-523b-4242-a573-d5de8d277743"},"vehicle_type_id":"4","last_reported":1722280013,"current_range_meters":800,"station_id":"","pricing_plan_id":"cebpf4jnsgd1na2vs0mg"},{"bike_id":"687f7610-c7f9-4d81-b9bd-891b8528cdae","system_id":"levelo_inurba_marseille","lat":43.304606,"lon":5.379026,"is_reserved":false,"is_disabled":false,"rental_uris":{"android":"levelo://app?vid=687f7610-c7f9-4d81-b9bd-891b8528cdae","ios":"levelo://app?vid=687f7610-c7f9-4d81-b9bd-891b8528cdae"},"vehicle_type_id":"4","last_reported":1722280013,"current_range_meters":1600,"station_id":"ce4bgup2rcd13ifvqcn0","pricing_plan_id":"cebpf4jnsgd1na2vs0mg"},{"bike_id":"8c609316-2478-42de-9eb8-bcfde38a7e37","system_id":"levelo_inurba_marseille","lat":43.304606,"lon":5.379026,"is_reserved":false,"is_disabled":false,"rental_uris":{"android":"levelo://app?vid=8c609316-2478-42de-9eb8-bcfde38a7e37","ios":"levelo://app?vid=8c609316-2478-42de-9eb8-bcfde38a7e37"},"vehicle_type_id":"4","last_reported":1722280013,"current_range_meters":9200,"station_id":"ce4bgup2rcd13ifvqcn0","pricing_plan_id":"cebpf4jnsgd1na2vs0mg"},{"bike_id":"2cea40d3-5fd0-4d75-8dd2-15c4087239df","system_id":"levelo_inurba_marseille","lat":43.324771,"lon":5.36557,"is_reserved":false,"is_disabled":false,"rental_uris":{"android":"levelo://app?vid=2cea40d3-5fd0-4d75-8dd2-15c4087239df","ios":"levelo://app?vid=2cea40d3-5fd0-4d75-8dd2-15c4087239df"},"vehicle_type_id":"4","last_reported":1722280013,"current_range_meters":25200,"station_id":"ce4bhs12rcd13ifvqhvg","pricing_plan_id":"cebpf4jnsgd1na2vs0mg"},{"bike_id":"99bd0741-5faa-4815-a2e1-13964c9aab5f","system_id":"levelo_inurba_marseille","lat":43.324771,"lon":5.36557,"is_reserved":false,"is_disabled":false,"rental_uris":{"android":"levelo://app?vid=99bd0741-5faa-4815-a2e1-13964c9aab5f","ios":"levelo://app?vid=99bd0741-5faa-4815-a2e1-13964c9aab5f"},"vehicle_type_id":"4","last_reported":1722280013,"current_range_meters":3600,"station_id":"ce4bhs12rcd13ifvqhvg","pricing_plan_id":"cebpf4jnsgd1na2vs0mg"},{"bike_id":"cf2295fe-e9a5-4fa3-992d-424feac9b7ac","system_id":"levelo_inurba_marseille","lat":43.324771,"lon":5.36557,"is_reserved":false,"is_disabled":false,"rental_uris":{"android":"levelo://app?vid=cf2295fe-e9a5-4fa3-992d-424feac9b7ac","ios":"levelo://app?vid=cf2295fe-e9a5-4fa3-992d-424feac9b7ac"},"vehicle_type_id":"4","last_reported":1722280013,"current_range_meters":6400,"station_id":"ce4bhs12rcd13ifvqhvg","pricing_plan_id":"cebpf4jnsgd1na2vs0mg"},{"bike_id":"bbc4a081-5d44-4c70-aca6-ba0be4373e40","system_id":"levelo_inurba_marseille","lat":43.324771,"lon":5.36557,"is_reserved":false,"is_disabled":false,"rental_uris":{"android":"levelo://app?vid=bbc4a081-5d44-4c70-aca6-ba0be4373e40","ios":"levelo://app?vid=bbc4a081-5d44-4c70-aca6-ba0be4373e40"},"vehicle_type_id":"4","last_reported":1722280013,"current_range_meters":27200,"station_id":"ce4bhs12rcd13ifvqhvg","pricing_plan_id":"cebpf4jnsgd1na2vs0mg"},{"bike_id":"845d3924-35d5-479e-aa86-bfb11047a1b4","system_id":"levelo_inurba_marseille","lat":43.310804,"lon":5.38359,"is_reserved":false,"is_disabled":false,"rental_uris":{"android":"levelo://app?vid=845d3924-35d5-479e-aa86-bfb11047a1b4","ios":"levelo://app?vid=845d3924-35d5-479e-aa86-bfb11047a1b4"},"vehicle_type_id":"4","last_reported":1722280013,"current_range_meters":10400,"station_id":"ce4bgv92rcd13ifvqcr0","pricing_plan_id":"cebpf4jnsgd1na2vs0mg"},{"bike_id":"09d3a50b-2571-45d0-87ee-b906b0dc7ee8","system_id":"levelo_inurba_marseille","lat":43.310804,"lon":5.38359,"is_reserved":false,"is_disabled":false,"rental_uris":{"android":"levelo://app?vid=09d3a50b-2571-45d0-87ee-b906b0dc7ee8","ios":"levelo://app?vid=09d3a50b-2571-45d0-87ee-b906b0dc7ee8"},"vehicle_type_id":"4","last_reported":1722280013,"current_range_meters":14400,"station_id":"ce4bgv92rcd13ifvqcr0","pricing_plan_id":"cebpf4jnsgd1na2vs0mg"},{"bike_id":"6b70701f-79a9-4a5f-9c8d-a3e9c6af41bf","system_id":"levelo_inurba_marseille","lat":43.310804,"lon":5.38359,"is_reserved":false,"is_disabled":false,"rental_uris":{"android":"levelo://app?vid=6b70701f-79a9-4a5f-9c8d-a3e9c6af41bf","ios":"levelo://app?vid=6b70701f-79a9-4a5f-9c8d-a3e9c6af41bf"},"vehicle_type_id":"4","last_reported":1722280013,"current_range_meters":2400,"station_id":"ce4bgv92rcd13ifvqcr0","pricing_plan_id":"cebpf4jnsgd1na2vs0mg"},{"bike_id":"b0ab0a62-46e3-47da-a0d4-b1ebd2351a57","system_id":"levelo_inurba_marseille","lat":43.304606,"lon":5.379026,"is_reserved":false,"is_disabled":false,"rental_uris":{"android":"levelo://app?vid=b0ab0a62-46e3-47da-a0d4-b1ebd2351a57","ios":"levelo://app?vid=b0ab0a62-46e3-47da-a0d4-b1ebd2351a57"},"vehicle_type_id":"4","last_reported":1722280013,"current_range_meters":24000,"station_id":"ce4bgup2rcd13ifvqcn0","pricing_plan_id":"cebpf4jnsgd1na2vs0mg"},{"bike_id":"0fecf201-101e-443b-a0aa-8037dd9bb186","system_id":"levelo_inurba_marseille","lat":43.319935,"lon":5.381699,"is_reserved":false,"is_disabled":false,"rental_uris":{"android":"levelo://app?vid=0fecf201-101e-443b-a0aa-8037dd9bb186","ios":"levelo://app?vid=0fecf201-101e-443b-a0aa-8037dd9bb186"},"vehicle_type_id":"4","last_reported":1722280013,"current_range_meters":2800,"station_id":"ce4bhr12rcd13ifvqhpg","pricing_plan_id":"cebpf4jnsgd1na2vs0mg"},{"bike_id":"b5a616d2-3697-4e60-b165-00a19cc53256","system_id":"levelo_inurba_marseille","lat":43.319935,"lon":5.381699,"is_reserved":false,"is_disabled":false,"rental_uris":{"android":"levelo://app?vid=b5a616d2-3697-4e60-b165-00a19cc53256","ios":"levelo://app?vid=b5a616d2-3697-4e60-b165-00a19cc53256"},"vehicle_type_id":"4","last_reported":1722280013,"current_range_meters":7200,"station_id":"ce4bhr12rcd13ifvqhpg","pricing_plan_id":"cebpf4jnsgd1na2vs0mg"},{"bike_id":"71c418ba-9c9e-47bf-af82-11a3bfe14db1","system_id":"levelo_inurba_marseille","lat":43.31985,"lon":5.38218,"is_reserved":false,"is_disabled":false,"rental_uris":{"android":"levelo://app?vid=71c418ba-9c9e-47bf-af82-11a3bfe14db1","ios":"levelo://app?vid=71c418ba-9c9e-47bf-af82-11a3bfe14db1"},"vehicle_type_id":"4","last_reported":1722280013,"current_range_meters":400,"station_id":"","pricing_plan_id":"cebpf4jnsgd1na2vs0mg"},{"bike_id":"ba51bcde-8add-4ec1-8a90-e5c3ea82f24b","system_id":"levelo_inurba_marseille","lat":43.301437,"lon":5.376363,"is_reserved":false,"is_disabled":false,"rental_uris":{"android":"levelo://app?vid=ba51bcde-8add-4ec1-8a90-e5c3ea82f24b","ios":"levelo://app?vid=ba51bcde-8add-4ec1-8a90-e5c3ea82f24b"},"vehicle_type_id":"4","last_reported":1722280013,"current_range_meters":2000,"station_id":"","pricing_plan_id":"cebpf4jnsgd1na2vs0mg"},{"bike_id":"13b225be-4e8f-496f-b621-dfa6195584ea","system_id":"levelo_inurba_marseille","lat":43.299222,"lon":5.365554,"is_reserved":false,"is_disabled":false,"rental_uris":{"android":"levelo://app?vid=13b225be-4e8f-496f-b621-dfa6195584ea","ios":"levelo://app?vid=13b225be-4e8f-496f-b621-dfa6195584ea"},"vehicle_type_id":"4","last_reported":1722280013,"current_range_meters":0,"station_id":"ce4bgm92rcd13ifvqbr0","pricing_plan_id":"cebpf4jnsgd1na2vs0mg"},{"bike_id":"64fbab3e-1585-4166-8d4a-d625efd0d4ec","system_id":"levelo_inurba_marseille","lat":43.298433,"lon":5.362774,"is_reserved":false,"is_disabled":false,"rental_uris":{"android":"levelo://app?vid=64fbab3e-1585-4166-8d4a-d625efd0d4ec","ios":"levelo://app?vid=64fbab3e-1585-4166-8d4a-d625efd0d4ec"},"vehicle_type_id":"4","last_reported":1722280013,"current_range_meters":3600,"station_id":"ce4bgpp2rcd13ifvqc3g","pricing_plan_id":"cebpf4jnsgd1na2vs0mg"},{"bike_id":"2b6a8c94-9a86-4eea-a755-0309c2b49069","system_id":"levelo_inurba_marseille","lat":43.298433,"lon":5.362774,"is_reserved":false,"is_disabled":false,"rental_uris":{"android":"levelo://app?vid=2b6a8c94-9a86-4eea-a755-0309c2b49069","ios":"levelo://app?vid=2b6a8c94-9a86-4eea-a755-0309c2b49069"},"vehicle_type_id":"4","last_reported":1722280013,"current_range_meters":10800,"station_id":"ce4bgpp2rcd13ifvqc3g","pricing_plan_id":"cebpf4jnsgd1na2vs0mg"},{"bike_id":"bc2fc3b8-e702-46ad-9d73-2ccb93d7989d","system_id":"levelo_inurba_marseille","lat":43.298433,"lon":5.362774,"is_reserved":false,"is_disabled":false,"rental_uris":{"android":"levelo://app?vid=bc2fc3b8-e702-46ad-9d73-2ccb93d7989d","ios":"levelo://app?vid=bc2fc3b8-e702-46ad-9d73-2ccb93d7989d"},"vehicle_type_id":"4","last_reported":1722280013,"current_range_meters":1200,"station_id":"ce4bgpp2rcd13ifvqc3g","pricing_plan_id":"cebpf4jnsgd1na2vs0mg"},{"bike_id":"b4470ea4-8872-45e2-bcc8-19058d387b60","system_id":"levelo_inurba_marseille","lat":43.31167,"lon":5.3871,"is_reserved":false,"is_disabled":false,"rental_uris":{"android":"levelo://app?vid=b4470ea4-8872-45e2-bcc8-19058d387b60","ios":"levelo://app?vid=b4470ea4-8872-45e2-bcc8-19058d387b60"},"vehicle_type_id":"4","last_reported":1722280013,"current_range_meters":0,"station_id":"ce4bgv12rcd13ifvqcp0","pricing_plan_id":"cebpf4jnsgd1na2vs0mg"},{"bike_id":"441854fa-6b18-47d1-b886-5fe62d083152","system_id":"levelo_inurba_marseille","lat":43.311722,"lon":5.387247,"is_reserved":false,"is_disabled":false,"rental_uris":{"android":"levelo://app?vid=441854fa-6b18-47d1-b886-5fe62d083152","ios":"levelo://app?vid=441854fa-6b18-47d1-b886-5fe62d083152"},"vehicle_type_id":"4","last_reported":1722280013,"current_range_meters":0,"station_id":"ce4bgv12rcd13ifvqcp0","pricing_plan_id":"cebpf4jnsgd1na2vs0mg"},{"bike_id":"8c333d3b-4e83-47ad-9168-c867fef8ec32","system_id":"levelo_inurba_marseille","lat":43.279465,"lon":5.410561,"is_reserved":false,"is_disabled":false,"rental_uris":{"android":"levelo://app?vid=8c333d3b-4e83-47ad-9168-c867fef8ec32","ios":"levelo://app?vid=8c333d3b-4e83-47ad-9168-c867fef8ec32"},"vehicle_type_id":"4","last_reported":1722280013,"current_range_meters":3600,"station_id":"ce4bhnp2rcd13ifvqh0g","pricing_plan_id":"cebpf4jnsgd1na2vs0mg"},{"bike_id":"a4d84f05-5bc4-45e9-acdb-7b21ddb0ecf6","system_id":"levelo_inurba_marseille","lat":43.30144,"lon":5.38067,"is_reserved":false,"is_disabled":false,"rental_uris":{"android":"levelo://app?vid=a4d84f05-5bc4-45e9-acdb-7b21ddb0ecf6","ios":"levelo://app?vid=a4d84f05-5bc4-45e9-acdb-7b21ddb0ecf6"},"vehicle_type_id":"4","last_reported":1722280013,"current_range_meters":2000,"station_id":"","pricing_plan_id":"cebpf4jnsgd1na2vs0mg"},{"bike_id":"2201d135-69c8-4c5a-8c7d-fb5f2753d2ad","system_id":"levelo_inurba_marseille","lat":43.32239,"lon":5.38289,"is_reserved":false,"is_disabled":false,"rental_uris":{"android":"levelo://app?vid=2201d135-69c8-4c5a-8c7d-fb5f2753d2ad","ios":"levelo://app?vid=2201d135-69c8-4c5a-8c7d-fb5f2753d2ad"},"vehicle_type_id":"4","last_reported":1722280013,"current_range_meters":4400,"station_id":"","pricing_plan_id":"cebpf4jnsgd1na2vs0mg"},{"bike_id":"890c01e4-b074-4655-b39e-1c01ff74001d","system_id":"levelo_inurba_marseille","lat":43.273613,"lon":5.362705,"is_reserved":false,"is_disabled":false,"rental_uris":{"android":"levelo://app?vid=890c01e4-b074-4655-b39e-1c01ff74001d","ios":"levelo://app?vid=890c01e4-b074-4655-b39e-1c01ff74001d"},"vehicle_type_id":"4","last_reported":1722280013,"current_range_meters":4800,"station_id":"ce4bhbh2rcd13ifvqeo0","pricing_plan_id":"cebpf4jnsgd1na2vs0mg"},{"bike_id":"700b38d9-a35a-4bc2-b485-d88b63aad723","system_id":"levelo_inurba_marseille","lat":43.297794,"lon":5.370888,"is_reserved":false,"is_disabled":false,"rental_uris":{"android":"levelo://app?vid=700b38d9-a35a-4bc2-b485-d88b63aad723","ios":"levelo://app?vid=700b38d9-a35a-4bc2-b485-d88b63aad723"},"vehicle_type_id":"4","last_reported":1722280013,"current_range_meters":20000,"station_id":"ce4bgop2rcd13ifvqc1g","pricing_plan_id":"cebpf4jnsgd1na2vs0mg"},{"bike_id":"b8876bf0-58ce-4af8-9c8b-a93719b1324d","system_id":"levelo_inurba_marseille","lat":43.297794,"lon":5.370888,"is_reserved":false,"is_disabled":false,"rental_uris":{"android":"levelo://app?vid=b8876bf0-58ce-4af8-9c8b-a93719b1324d","ios":"levelo://app?vid=b8876bf0-58ce-4af8-9c8b-a93719b1324d"},"vehicle_type_id":"4","last_reported":1722280013,"current_range_meters":13600,"station_id":"ce4bgop2rcd13ifvqc1g","pricing_plan_id":"cebpf4jnsgd1na2vs0mg"},{"bike_id":"a7af3361-0949-484d-affa-187feee57c80","system_id":"levelo_inurba_marseille","lat":43.29804,"lon":5.3727,"is_reserved":false,"is_disabled":false,"rental_uris":{"android":"levelo://app?vid=a7af3361-0949-484d-affa-187feee57c80","ios":"levelo://app?vid=a7af3361-0949-484d-affa-187feee57c80"},"vehicle_type_id":"4","last_reported":1722280013,"current_range_meters":11200,"station_id":"","pricing_plan_id":"cebpf4jnsgd1na2vs0mg"},{"bike_id":"d78bf4aa-2d0a-486c-84a5-e164728c1fd5","system_id":"levelo_inurba_marseille","lat":43.322872,"lon":5.382756,"is_reserved":false,"is_disabled":false,"rental_uris":{"android":"levelo://app?vid=d78bf4aa-2d0a-486c-84a5-e164728c1fd5","ios":"levelo://app?vid=d78bf4aa-2d0a-486c-84a5-e164728c1fd5"},"vehicle_type_id":"4","last_reported":1722280013,"current_range_meters":28400,"station_id":"ce4bhr12rcd13ifvqhqg","pricing_plan_id":"cebpf4jnsgd1na2vs0mg"},{"bike_id":"87645f95-a4b2-4434-8d1e-4bed19d781d9","system_id":"levelo_inurba_marseille","lat":43.297163,"lon":5.365866,"is_reserved":false,"is_disabled":false,"rental_uris":{"android":"levelo://app?vid=87645f95-a4b2-4434-8d1e-4bed19d781d9","ios":"levelo://app?vid=87645f95-a4b2-4434-8d1e-4bed19d781d9"},"vehicle_type_id":"4","last_reported":1722280013,"current_range_meters":22800,"station_id":"ce4bgn12rcd13ifvqbt0","pricing_plan_id":"cebpf4jnsgd1na2vs0mg"},{"bike_id":"e3ef3a4f-74b3-438a-ad83-292643b36eea","system_id":"levelo_inurba_marseille","lat":43.29711,"lon":5.36612,"is_reserved":false,"is_disabled":false,"rental_uris":{"android":"levelo://app?vid=e3ef3a4f-74b3-438a-ad83-292643b36eea","ios":"levelo://app?vid=e3ef3a4f-74b3-438a-ad83-292643b36eea"},"vehicle_type_id":"4","last_reported":1722280013,"current_range_meters":0,"station_id":"ce4bgn12rcd13ifvqbt0","pricing_plan_id":"cebpf4jnsgd1na2vs0mg"},{"bike_id":"a7f14656-7d98-489c-81c2-e78a67159a7f","system_id":"levelo_inurba_marseille","lat":43.29707,"lon":5.3661,"is_reserved":false,"is_disabled":false,"rental_uris":{"android":"levelo://app?vid=a7f14656-7d98-489c-81c2-e78a67159a7f","ios":"levelo://app?vid=a7f14656-7d98-489c-81c2-e78a67159a7f"},"vehicle_type_id":"4","last_reported":1722280013,"current_range_meters":0,"station_id":"ce4bgn12rcd13ifvqbt0","pricing_plan_id":"cebpf4jnsgd1na2vs0mg"},{"bike_id":"edcd7c95-7bda-4997-a142-fb00785e7000","system_id":"levelo_inurba_marseille","lat":43.29698,"lon":5.36606,"is_reserved":false,"is_disabled":false,"rental_uris":{"android":"levelo://app?vid=edcd7c95-7bda-4997-a142-fb00785e7000","ios":"levelo://app?vid=edcd7c95-7bda-4997-a142-fb00785e7000"},"vehicle_type_id":"4","last_reported":1722280013,"current_range_meters":0,"station_id":"ce4bgn12rcd13ifvqbt0","pricing_plan_id":"cebpf4jnsgd1na2vs0mg"},{"bike_id":"2b03c609-7a5a-4795-8af6-776b4637882a","system_id":"levelo_inurba_marseille","lat":43.29678,"lon":5.368582,"is_reserved":false,"is_disabled":false,"rental_uris":{"android":"levelo://app?vid=2b03c609-7a5a-4795-8af6-776b4637882a","ios":"levelo://app?vid=2b03c609-7a5a-4795-8af6-776b4637882a"},"vehicle_type_id":"4","last_reported":1722280013,"current_range_meters":0,"station_id":"","pricing_plan_id":"cebpf4jnsgd1na2vs0mg"},{"bike_id":"fb6712f6-e3d2-4e70-9a10-260796e0336d","system_id":"levelo_inurba_marseille","lat":43.325941,"lon":5.379713,"is_reserved":false,"is_disabled":false,"rental_uris":{"android":"levelo://app?vid=fb6712f6-e3d2-4e70-9a10-260796e0336d","ios":"levelo://app?vid=fb6712f6-e3d2-4e70-9a10-260796e0336d"},"vehicle_type_id":"4","last_reported":1722280013,"current_range_meters":11200,"station_id":"","pricing_plan_id":"cebpf4jnsgd1na2vs0mg"},{"bike_id":"18d7eb59-bf8e-47e2-858f-5ade3b9b4c59","system_id":"levelo_inurba_marseille","lat":43.32395,"lon":5.384218,"is_reserved":false,"is_disabled":false,"rental_uris":{"android":"levelo://app?vid=18d7eb59-bf8e-47e2-858f-5ade3b9b4c59","ios":"levelo://app?vid=18d7eb59-bf8e-47e2-858f-5ade3b9b4c59"},"vehicle_type_id":"4","last_reported":1722280013,"current_range_meters":1200,"station_id":"","pricing_plan_id":"cebpf4jnsgd1na2vs0mg"},{"bike_id":"f7727315-8963-4d5f-86c6-c22e4b5e58f4","system_id":"levelo_inurba_marseille","lat":43.296131,"lon":5.370773,"is_reserved":false,"is_disabled":false,"rental_uris":{"android":"levelo://app?vid=f7727315-8963-4d5f-86c6-c22e4b5e58f4","ios":"levelo://app?vid=f7727315-8963-4d5f-86c6-c22e4b5e58f4"},"vehicle_type_id":"4","last_reported":1722280013,"current_range_meters":14400,"station_id":"ce4bgnh2rcd13ifvqc0g","pricing_plan_id":"cebpf4jnsgd1na2vs0mg"},{"bike_id":"63b009a7-b63b-463f-8a94-88652b603820","system_id":"levelo_inurba_marseille","lat":43.29573,"lon":5.367355,"is_reserved":false,"is_disabled":false,"rental_uris":{"android":"levelo://app?vid=63b009a7-b63b-463f-8a94-88652b603820","ios":"levelo://app?vid=63b009a7-b63b-463f-8a94-88652b603820"},"vehicle_type_id":"4","last_reported":1722280013,"current_range_meters":28800,"station_id":"ce4bgph2rcd13ifvqc2g","pricing_plan_id":"cebpf4jnsgd1na2vs0mg"},{"bike_id":"f60eba29-9e6f-44e8-8205-552d6e0f290d","system_id":"levelo_inurba_marseille","lat":43.29573,"lon":5.367355,"is_reserved":false,"is_disabled":false,"rental_uris":{"android":"levelo://app?vid=f60eba29-9e6f-44e8-8205-552d6e0f290d","ios":"levelo://app?vid=f60eba29-9e6f-44e8-8205-552d6e0f290d"},"vehicle_type_id":"4","last_reported":1722280013,"current_range_meters":10400,"station_id":"ce4bgph2rcd13ifvqc2g","pricing_plan_id":"cebpf4jnsgd1na2vs0mg"},{"bike_id":"eae93baf-6148-4cef-b503-5bf72667185f","system_id":"levelo_inurba_marseille","lat":43.29577,"lon":5.36732,"is_reserved":false,"is_disabled":false,"rental_uris":{"android":"levelo://app?vid=eae93baf-6148-4cef-b503-5bf72667185f","ios":"levelo://app?vid=eae93baf-6148-4cef-b503-5bf72667185f"},"vehicle_type_id":"4","last_reported":1722280013,"current_range_meters":3200,"station_id":"ce4bgph2rcd13ifvqc2g","pricing_plan_id":"cebpf4jnsgd1na2vs0mg"},{"bike_id":"fe68fb59-1be4-40da-99ee-00f7cc85228a","system_id":"levelo_inurba_marseille","lat":43.29573,"lon":5.367355,"is_reserved":false,"is_disabled":false,"rental_uris":{"android":"levelo://app?vid=fe68fb59-1be4-40da-99ee-00f7cc85228a","ios":"levelo://app?vid=fe68fb59-1be4-40da-99ee-00f7cc85228a"},"vehicle_type_id":"4","last_reported":1722280013,"current_range_meters":10800,"station_id":"ce4bgph2rcd13ifvqc2g","pricing_plan_id":"cebpf4jnsgd1na2vs0mg"},{"bike_id":"727e1d98-4c23-43cc-8759-593773afa94e","system_id":"levelo_inurba_marseille","lat":43.29574,"lon":5.36743,"is_reserved":false,"is_disabled":false,"rental_uris":{"android":"levelo://app?vid=727e1d98-4c23-43cc-8759-593773afa94e","ios":"levelo://app?vid=727e1d98-4c23-43cc-8759-593773afa94e"},"vehicle_type_id":"4","last_reported":1722280013,"current_range_meters":25600,"station_id":"ce4bgph2rcd13ifvqc2g","pricing_plan_id":"cebpf4jnsgd1na2vs0mg"},{"bike_id":"7f4ed4a7-a482-4980-8446-61e46770d032","system_id":"levelo_inurba_marseille","lat":43.29715,"lon":5.37707,"is_reserved":false,"is_disabled":false,"rental_uris":{"android":"levelo://app?vid=7f4ed4a7-a482-4980-8446-61e46770d032","ios":"levelo://app?vid=7f4ed4a7-a482-4980-8446-61e46770d032"},"vehicle_type_id":"4","last_reported":1722280013,"current_range_meters":0,"station_id":"ce4bgkh2rcd13ifvqbl0","pricing_plan_id":"cebpf4jnsgd1na2vs0mg"},{"bike_id":"c617188a-2e57-461c-8d0f-372718920ef6","system_id":"levelo_inurba_marseille","lat":43.299028,"lon":5.381509,"is_reserved":false,"is_disabled":false,"rental_uris":{"android":"levelo://app?vid=c617188a-2e57-461c-8d0f-372718920ef6","ios":"levelo://app?vid=c617188a-2e57-461c-8d0f-372718920ef6"},"vehicle_type_id":"4","last_reported":1722280013,"current_range_meters":22800,"station_id":"ce4bgj12rcd13ifvqbc0","pricing_plan_id":"cebpf4jnsgd1na2vs0mg"},{"bike_id":"8d4202e5-ab9f-481c-bde3-78a07ebbbafa","system_id":"levelo_inurba_marseille","lat":43.3095,"lon":5.39024,"is_reserved":false,"is_disabled":false,"rental_uris":{"android":"levelo://app?vid=8d4202e5-ab9f-481c-bde3-78a07ebbbafa","ios":"levelo://app?vid=8d4202e5-ab9f-481c-bde3-78a07ebbbafa"},"vehicle_type_id":"4","last_reported":1722280013,"current_range_meters":0,"station_id":"ce4bgup2rcd13ifvqco0","pricing_plan_id":"cebpf4jnsgd1na2vs0mg"},{"bike_id":"73810113-260e-4726-9453-8657af8c4406","system_id":"levelo_inurba_marseille","lat":43.296935,"lon":5.376544,"is_reserved":false,"is_disabled":false,"rental_uris":{"android":"levelo://app?vid=73810113-260e-4726-9453-8657af8c4406","ios":"levelo://app?vid=73810113-260e-4726-9453-8657af8c4406"},"vehicle_type_id":"4","last_reported":1722280013,"current_range_meters":0,"station_id":"ce4bgkh2rcd13ifvqbl0","pricing_plan_id":"cebpf4jnsgd1na2vs0mg"},{"bike_id":"cd52147d-9235-43c0-9077-780de3f21607","system_id":"levelo_inurba_marseille","lat":43.309589,"lon":5.390258,"is_reserved":false,"is_disabled":false,"rental_uris":{"android":"levelo://app?vid=cd52147d-9235-43c0-9077-780de3f21607","ios":"levelo://app?vid=cd52147d-9235-43c0-9077-780de3f21607"},"vehicle_type_id":"4","last_reported":1722280013,"current_range_meters":21200,"station_id":"ce4bgup2rcd13ifvqco0","pricing_plan_id":"cebpf4jnsgd1na2vs0mg"},{"bike_id":"42c8bf5b-ca7c-428c-81f4-6a3f615417d8","system_id":"levelo_inurba_marseille","lat":43.317557,"lon":5.390173,"is_reserved":false,"is_disabled":false,"rental_uris":{"android":"levelo://app?vid=42c8bf5b-ca7c-428c-81f4-6a3f615417d8","ios":"levelo://app?vid=42c8bf5b-ca7c-428c-81f4-6a3f615417d8"},"vehicle_type_id":"4","last_reported":1722280013,"current_range_meters":7200,"station_id":"ce4bhqp2rcd13ifvqhng","pricing_plan_id":"cebpf4jnsgd1na2vs0mg"},{"bike_id":"75f998dc-c601-4a89-8f8b-fa4789532038","system_id":"levelo_inurba_marseille","lat":43.317557,"lon":5.390173,"is_reserved":false,"is_disabled":false,"rental_uris":{"android":"levelo://app?vid=75f998dc-c601-4a89-8f8b-fa4789532038","ios":"levelo://app?vid=75f998dc-c601-4a89-8f8b-fa4789532038"},"vehicle_type_id":"4","last_reported":1722280013,"current_range_meters":22000,"station_id":"ce4bhqp2rcd13ifvqhng","pricing_plan_id":"cebpf4jnsgd1na2vs0mg"},{"bike_id":"33531f9e-2941-4a51-9da7-81fb2510e870","system_id":"levelo_inurba_marseille","lat":43.317557,"lon":5.390173,"is_reserved":false,"is_disabled":false,"rental_uris":{"android":"levelo://app?vid=33531f9e-2941-4a51-9da7-81fb2510e870","ios":"levelo://app?vid=33531f9e-2941-4a51-9da7-81fb2510e870"},"vehicle_type_id":"4","last_reported":1722280013,"current_range_meters":15200,"station_id":"ce4bhqp2rcd13ifvqhng","pricing_plan_id":"cebpf4jnsgd1na2vs0mg"},{"bike_id":"ff2dd3e3-0211-4577-92b5-ac50ba95d965","system_id":"levelo_inurba_marseille","lat":43.317557,"lon":5.390173,"is_reserved":false,"is_disabled":false,"rental_uris":{"android":"levelo://app?vid=ff2dd3e3-0211-4577-92b5-ac50ba95d965","ios":"levelo://app?vid=ff2dd3e3-0211-4577-92b5-ac50ba95d965"},"vehicle_type_id":"4","last_reported":1722280013,"current_range_meters":800,"station_id":"ce4bhqp2rcd13ifvqhng","pricing_plan_id":"cebpf4jnsgd1na2vs0mg"},{"bike_id":"85994e3c-80de-4c31-a654-928afe10cc2c","system_id":"levelo_inurba_marseille","lat":43.313291,"lon":5.396838,"is_reserved":false,"is_disabled":false,"rental_uris":{"android":"levelo://app?vid=85994e3c-80de-4c31-a654-928afe10cc2c","ios":"levelo://app?vid=85994e3c-80de-4c31-a654-928afe10cc2c"},"vehicle_type_id":"4","last_reported":1722280013,"current_range_meters":8000,"station_id":"ce4bgvp2rcd13ifvqcu0","pricing_plan_id":"cebpf4jnsgd1na2vs0mg"},{"bike_id":"74039baa-864f-4aa1-921d-dd85afaf6316","system_id":"levelo_inurba_marseille","lat":43.292642,"lon":5.384254,"is_reserved":false,"is_disabled":false,"rental_uris":{"android":"levelo://app?vid=74039baa-864f-4aa1-921d-dd85afaf6316","ios":"levelo://app?vid=74039baa-864f-4aa1-921d-dd85afaf6316"},"vehicle_type_id":"4","last_reported":1722280013,"current_range_meters":0,"station_id":"ce4bh692rcd13ifvqea0","pricing_plan_id":"cebpf4jnsgd1na2vs0mg"},{"bike_id":"8d019d48-21f0-424c-a439-d002b02e7079","system_id":"levelo_inurba_marseille","lat":43.304274,"lon":5.388873,"is_reserved":false,"is_disabled":false,"rental_uris":{"android":"levelo://app?vid=8d019d48-21f0-424c-a439-d002b02e7079","ios":"levelo://app?vid=8d019d48-21f0-424c-a439-d002b02e7079"},"vehicle_type_id":"4","last_reported":1722280013,"current_range_meters":14400,"station_id":"ce4bgk12rcd13ifvqbi0","pricing_plan_id":"cebpf4jnsgd1na2vs0mg"},{"bike_id":"6675186b-9018-4937-8410-d1652a2d83d8","system_id":"levelo_inurba_marseille","lat":43.298037,"lon":5.381066,"is_reserved":false,"is_disabled":false,"rental_uris":{"android":"levelo://app?vid=6675186b-9018-4937-8410-d1652a2d83d8","ios":"levelo://app?vid=6675186b-9018-4937-8410-d1652a2d83d8"},"vehicle_type_id":"4","last_reported":1722280013,"current_range_meters":16000,"station_id":"ce4bgip2rcd13ifvqbb0","pricing_plan_id":"cebpf4jnsgd1na2vs0mg"},{"bike_id":"0e0647ed-1347-4b20-a931-b274518b300b","system_id":"levelo_inurba_marseille","lat":43.29579,"lon":5.3751,"is_reserved":false,"is_disabled":false,"rental_uris":{"android":"levelo://app?vid=0e0647ed-1347-4b20-a931-b274518b300b","ios":"levelo://app?vid=0e0647ed-1347-4b20-a931-b274518b300b"},"vehicle_type_id":"4","last_reported":1722280013,"current_range_meters":27200,"station_id":"ce4bgh92rcd13ifvqb50","pricing_plan_id":"cebpf4jnsgd1na2vs0mg"},{"bike_id":"1c59ec98-6d44-45fb-b235-fbc59c05975e","system_id":"levelo_inurba_marseille","lat":43.30427,"lon":5.38885,"is_reserved":false,"is_disabled":false,"rental_uris":{"android":"levelo://app?vid=1c59ec98-6d44-45fb-b235-fbc59c05975e","ios":"levelo://app?vid=1c59ec98-6d44-45fb-b235-fbc59c05975e"},"vehicle_type_id":"4","last_reported":1722280013,"current_range_meters":7200,"station_id":"ce4bgk12rcd13ifvqbi0","pricing_plan_id":"cebpf4jnsgd1na2vs0mg"},{"bike_id":"d3e61a78-ada5-41be-9c9a-96f981b9a24a","system_id":"levelo_inurba_marseille","lat":43.295988,"lon":5.376279,"is_reserved":false,"is_disabled":false,"rental_uris":{"android":"levelo://app?vid=d3e61a78-ada5-41be-9c9a-96f981b9a24a","ios":"levelo://app?vid=d3e61a78-ada5-41be-9c9a-96f981b9a24a"},"vehicle_type_id":"4","last_reported":1722280013,"current_range_meters":15200,"station_id":"","pricing_plan_id":"cebpf4jnsgd1na2vs0mg"},{"bike_id":"141cbc88-8b34-45d1-b97b-b396eccf163f","system_id":"levelo_inurba_marseille","lat":43.29575,"lon":5.3756,"is_reserved":false,"is_disabled":false,"rental_uris":{"android":"levelo://app?vid=141cbc88-8b34-45d1-b97b-b396eccf163f","ios":"levelo://app?vid=141cbc88-8b34-45d1-b97b-b396eccf163f"},"vehicle_type_id":"4","last_reported":1722280013,"current_range_meters":11200,"station_id":"","pricing_plan_id":"cebpf4jnsgd1na2vs0mg"},{"bike_id":"9266143a-9546-4c26-9e06-b1ecc4abae8a","system_id":"levelo_inurba_marseille","lat":43.29878,"lon":5.3836,"is_reserved":false,"is_disabled":false,"rental_uris":{"android":"levelo://app?vid=9266143a-9546-4c26-9e06-b1ecc4abae8a","ios":"levelo://app?vid=9266143a-9546-4c26-9e06-b1ecc4abae8a"},"vehicle_type_id":"4","last_reported":1722280013,"current_range_meters":10000,"station_id":"","pricing_plan_id":"cebpf4jnsgd1na2vs0mg"},{"bike_id":"c7b45c26-facf-4ff9-9aa6-6f0c77cf0452","system_id":"levelo_inurba_marseille","lat":43.299717,"lon":5.384845,"is_reserved":false,"is_disabled":false,"rental_uris":{"android":"levelo://app?vid=c7b45c26-facf-4ff9-9aa6-6f0c77cf0452","ios":"levelo://app?vid=c7b45c26-facf-4ff9-9aa6-6f0c77cf0452"},"vehicle_type_id":"4","last_reported":1722280013,"current_range_meters":0,"station_id":"ce4bgj92rcd13ifvqbd0","pricing_plan_id":"cebpf4jnsgd1na2vs0mg"},{"bike_id":"9abacb20-9e93-41c2-a054-3ddd3d971723","system_id":"levelo_inurba_marseille","lat":43.301396,"lon":5.387812,"is_reserved":false,"is_disabled":false,"rental_uris":{"android":"levelo://app?vid=9abacb20-9e93-41c2-a054-3ddd3d971723","ios":"levelo://app?vid=9abacb20-9e93-41c2-a054-3ddd3d971723"},"vehicle_type_id":"4","last_reported":1722280013,"current_range_meters":0,"station_id":"ce4bghh2rcd13ifvqb60","pricing_plan_id":"cebpf4jnsgd1na2vs0mg"},{"bike_id":"4c9b2a69-157c-4d96-9abb-2a7226d78bd9","system_id":"levelo_inurba_marseille","lat":43.32313,"lon":5.38926,"is_reserved":false,"is_disabled":false,"rental_uris":{"android":"levelo://app?vid=4c9b2a69-157c-4d96-9abb-2a7226d78bd9","ios":"levelo://app?vid=4c9b2a69-157c-4d96-9abb-2a7226d78bd9"},"vehicle_type_id":"4","last_reported":1722280013,"current_range_meters":12000,"station_id":"","pricing_plan_id":"cebpf4jnsgd1na2vs0mg"},{"bike_id":"2a8ef76a-8573-4dc5-ab80-cff87e0222cc","system_id":"levelo_inurba_marseille","lat":43.32367,"lon":5.3888,"is_reserved":false,"is_disabled":false,"rental_uris":{"android":"levelo://app?vid=2a8ef76a-8573-4dc5-ab80-cff87e0222cc","ios":"levelo://app?vid=2a8ef76a-8573-4dc5-ab80-cff87e0222cc"},"vehicle_type_id":"4","last_reported":1722280013,"current_range_meters":0,"station_id":"ce4bhqp2rcd13ifvqhog","pricing_plan_id":"cebpf4jnsgd1na2vs0mg"},{"bike_id":"56509b39-a1d2-4f00-babb-e2b6bfac4438","system_id":"levelo_inurba_marseille","lat":43.29601,"lon":5.381084,"is_reserved":false,"is_disabled":false,"rental_uris":{"android":"levelo://app?vid=56509b39-a1d2-4f00-babb-e2b6bfac4438","ios":"levelo://app?vid=56509b39-a1d2-4f00-babb-e2b6bfac4438"},"vehicle_type_id":"4","last_reported":1722280013,"current_range_meters":31200,"station_id":"ce4bgl12rcd13ifvqbo0","pricing_plan_id":"cebpf4jnsgd1na2vs0mg"},{"bike_id":"e4286b6a-bcc3-4bd5-8cff-0c3a6b8c53b2","system_id":"levelo_inurba_marseille","lat":43.29601,"lon":5.381084,"is_reserved":false,"is_disabled":false,"rental_uris":{"android":"levelo://app?vid=e4286b6a-bcc3-4bd5-8cff-0c3a6b8c53b2","ios":"levelo://app?vid=e4286b6a-bcc3-4bd5-8cff-0c3a6b8c53b2"},"vehicle_type_id":"4","last_reported":1722280013,"current_range_meters":31200,"station_id":"ce4bgl12rcd13ifvqbo0","pricing_plan_id":"cebpf4jnsgd1na2vs0mg"},{"bike_id":"70f7fe4b-5b43-4d2b-acf8-662cacb60a21","system_id":"levelo_inurba_marseille","lat":43.292749,"lon":5.368402,"is_reserved":false,"is_disabled":false,"rental_uris":{"android":"levelo://app?vid=70f7fe4b-5b43-4d2b-acf8-662cacb60a21","ios":"levelo://app?vid=70f7fe4b-5b43-4d2b-acf8-662cacb60a21"},"vehicle_type_id":"4","last_reported":1722280013,"current_range_meters":0,"station_id":"ce4bhbp2rcd13ifvqesg","pricing_plan_id":"cebpf4jnsgd1na2vs0mg"},{"bike_id":"18c3b3cd-f2cf-4f53-becf-f4706e80d4ea","system_id":"levelo_inurba_marseille","lat":43.292749,"lon":5.368402,"is_reserved":false,"is_disabled":false,"rental_uris":{"android":"levelo://app?vid=18c3b3cd-f2cf-4f53-becf-f4706e80d4ea","ios":"levelo://app?vid=18c3b3cd-f2cf-4f53-becf-f4706e80d4ea"},"vehicle_type_id":"4","last_reported":1722280013,"current_range_meters":0,"station_id":"ce4bhbp2rcd13ifvqesg","pricing_plan_id":"cebpf4jnsgd1na2vs0mg"},{"bike_id":"bc2fc776-7fb3-4f5a-81c7-e807324cf16e","system_id":"levelo_inurba_marseille","lat":43.292749,"lon":5.368398,"is_reserved":false,"is_disabled":false,"rental_uris":{"android":"levelo://app?vid=bc2fc776-7fb3-4f5a-81c7-e807324cf16e","ios":"levelo://app?vid=bc2fc776-7fb3-4f5a-81c7-e807324cf16e"},"vehicle_type_id":"4","last_reported":1722280013,"current_range_meters":0,"station_id":"ce4bhbp2rcd13ifvqesg","pricing_plan_id":"cebpf4jnsgd1na2vs0mg"},{"bike_id":"1a461864-9abd-4deb-9bf3-23c5fa5c6265","system_id":"levelo_inurba_marseille","lat":43.29302,"lon":5.3718,"is_reserved":false,"is_disabled":false,"rental_uris":{"android":"levelo://app?vid=1a461864-9abd-4deb-9bf3-23c5fa5c6265","ios":"levelo://app?vid=1a461864-9abd-4deb-9bf3-23c5fa5c6265"},"vehicle_type_id":"4","last_reported":1722280013,"current_range_meters":0,"station_id":"ce4bgh92rcd13ifvqb40","pricing_plan_id":"cebpf4jnsgd1na2vs0mg"},{"bike_id":"3455a87a-9632-4a80-987c-93b939c82390","system_id":"levelo_inurba_marseille","lat":43.292749,"lon":5.368402,"is_reserved":false,"is_disabled":false,"rental_uris":{"android":"levelo://app?vid=3455a87a-9632-4a80-987c-93b939c82390","ios":"levelo://app?vid=3455a87a-9632-4a80-987c-93b939c82390"},"vehicle_type_id":"4","last_reported":1722280013,"current_range_meters":3600,"station_id":"ce4bhbp2rcd13ifvqesg","pricing_plan_id":"cebpf4jnsgd1na2vs0mg"},{"bike_id":"aeeec97c-3ee1-4e61-998d-afa7b51c01dc","system_id":"levelo_inurba_marseille","lat":43.293,"lon":5.37169,"is_reserved":false,"is_disabled":false,"rental_uris":{"android":"levelo://app?vid=aeeec97c-3ee1-4e61-998d-afa7b51c01dc","ios":"levelo://app?vid=aeeec97c-3ee1-4e61-998d-afa7b51c01dc"},"vehicle_type_id":"4","last_reported":1722280013,"current_range_meters":0,"station_id":"ce4bgh92rcd13ifvqb40","pricing_plan_id":"cebpf4jnsgd1na2vs0mg"},{"bike_id":"b8fc08a1-f5da-460f-bf95-5eb237b6c51e","system_id":"levelo_inurba_marseille","lat":43.292749,"lon":5.368402,"is_reserved":false,"is_disabled":false,"rental_uris":{"android":"levelo://app?vid=b8fc08a1-f5da-460f-bf95-5eb237b6c51e","ios":"levelo://app?vid=b8fc08a1-f5da-460f-bf95-5eb237b6c51e"},"vehicle_type_id":"4","last_reported":1722280013,"current_range_meters":0,"station_id":"ce4bhbp2rcd13ifvqesg","pricing_plan_id":"cebpf4jnsgd1na2vs0mg"},{"bike_id":"e06ddf27-7906-482a-8d4a-39144d57a266","system_id":"levelo_inurba_marseille","lat":43.293,"lon":5.37445,"is_reserved":false,"is_disabled":false,"rental_uris":{"android":"levelo://app?vid=e06ddf27-7906-482a-8d4a-39144d57a266","ios":"levelo://app?vid=e06ddf27-7906-482a-8d4a-39144d57a266"},"vehicle_type_id":"4","last_reported":1722280013,"current_range_meters":0,"station_id":"ce4bgi12rcd13ifvqb70","pricing_plan_id":"cebpf4jnsgd1na2vs0mg"},{"bike_id":"c948aa88-a5aa-41b4-bb50-5d76ba96879a","system_id":"levelo_inurba_marseille","lat":43.293,"lon":5.37456,"is_reserved":false,"is_disabled":false,"rental_uris":{"android":"levelo://app?vid=c948aa88-a5aa-41b4-bb50-5d76ba96879a","ios":"levelo://app?vid=c948aa88-a5aa-41b4-bb50-5d76ba96879a"},"vehicle_type_id":"4","last_reported":1722280013,"current_range_meters":0,"station_id":"ce4bgi12rcd13ifvqb70","pricing_plan_id":"cebpf4jnsgd1na2vs0mg"},{"bike_id":"39b3a816-890a-4df3-a2d1-8294d8d165fb","system_id":"levelo_inurba_marseille","lat":43.29298,"lon":5.37453,"is_reserved":false,"is_disabled":false,"rental_uris":{"android":"levelo://app?vid=39b3a816-890a-4df3-a2d1-8294d8d165fb","ios":"levelo://app?vid=39b3a816-890a-4df3-a2d1-8294d8d165fb"},"vehicle_type_id":"4","last_reported":1722280013,"current_range_meters":4800,"station_id":"ce4bgi12rcd13ifvqb70","pricing_plan_id":"cebpf4jnsgd1na2vs0mg"},{"bike_id":"fa914ad9-57fc-4c5b-a2d6-80c6185f17f8","system_id":"levelo_inurba_marseille","lat":43.292183,"lon":5.364717,"is_reserved":false,"is_disabled":false,"rental_uris":{"android":"levelo://app?vid=fa914ad9-57fc-4c5b-a2d6-80c6185f17f8","ios":"levelo://app?vid=fa914ad9-57fc-4c5b-a2d6-80c6185f17f8"},"vehicle_type_id":"4","last_reported":1722280013,"current_range_meters":26800,"station_id":"","pricing_plan_id":"cebpf4jnsgd1na2vs0mg"},{"bike_id":"09b2c24a-ba44-433f-8c89-da724d5b01dd","system_id":"levelo_inurba_marseille","lat":43.32627,"lon":5.38879,"is_reserved":false,"is_disabled":false,"rental_uris":{"android":"levelo://app?vid=09b2c24a-ba44-433f-8c89-da724d5b01dd","ios":"levelo://app?vid=09b2c24a-ba44-433f-8c89-da724d5b01dd"},"vehicle_type_id":"4","last_reported":1722280013,"current_range_meters":8800,"station_id":"","pricing_plan_id":"cebpf4jnsgd1na2vs0mg"},{"bike_id":"d9974295-783e-4d34-98c9-a0cb415d84c8","system_id":"levelo_inurba_marseille","lat":43.30085,"lon":5.390856,"is_reserved":false,"is_disabled":false,"rental_uris":{"android":"levelo://app?vid=d9974295-783e-4d34-98c9-a0cb415d84c8","ios":"levelo://app?vid=d9974295-783e-4d34-98c9-a0cb415d84c8"},"vehicle_type_id":"4","last_reported":1722280013,"current_range_meters":18000,"station_id":"ce4bh192rcd13ifvqdb0","pricing_plan_id":"cebpf4jnsgd1na2vs0mg"},{"bike_id":"6c92d483-fd47-4c2d-8a3e-54de5db6cd0c","system_id":"levelo_inurba_marseille","lat":43.292172,"lon":5.360575,"is_reserved":false,"is_disabled":false,"rental_uris":{"android":"levelo://app?vid=6c92d483-fd47-4c2d-8a3e-54de5db6cd0c","ios":"levelo://app?vid=6c92d483-fd47-4c2d-8a3e-54de5db6cd0c"},"vehicle_type_id":"4","last_reported":1722280013,"current_range_meters":25200,"station_id":"","pricing_plan_id":"cebpf4jnsgd1na2vs0mg"},{"bike_id":"14d8d4f8-8ed1-45b7-ae29-67121a125c23","system_id":"levelo_inurba_marseille","lat":43.29258,"lon":5.37614,"is_reserved":false,"is_disabled":false,"rental_uris":{"android":"levelo://app?vid=14d8d4f8-8ed1-45b7-ae29-67121a125c23","ios":"levelo://app?vid=14d8d4f8-8ed1-45b7-ae29-67121a125c23"},"vehicle_type_id":"4","last_reported":1722280013,"current_range_meters":15200,"station_id":"ce4bgi12rcd13ifvqb80","pricing_plan_id":"cebpf4jnsgd1na2vs0mg"},{"bike_id":"63e6861c-e58f-42be-bcf9-51e7b54082cf","system_id":"levelo_inurba_marseille","lat":43.29254,"lon":5.376185,"is_reserved":false,"is_disabled":false,"rental_uris":{"android":"levelo://app?vid=63e6861c-e58f-42be-bcf9-51e7b54082cf","ios":"levelo://app?vid=63e6861c-e58f-42be-bcf9-51e7b54082cf"},"vehicle_type_id":"4","last_reported":1722280013,"current_range_meters":1200,"station_id":"ce4bgi12rcd13ifvqb80","pricing_plan_id":"cebpf4jnsgd1na2vs0mg"},{"bike_id":"1b2434f5-5dde-4538-85d1-b94903fc20e4","system_id":"levelo_inurba_marseille","lat":43.29875,"lon":5.38902,"is_reserved":false,"is_disabled":false,"rental_uris":{"android":"levelo://app?vid=1b2434f5-5dde-4538-85d1-b94903fc20e4","ios":"levelo://app?vid=1b2434f5-5dde-4538-85d1-b94903fc20e4"},"vehicle_type_id":"4","last_reported":1722280013,"current_range_meters":14800,"station_id":"ce4bh392rcd13ifvqdl0","pricing_plan_id":"cebpf4jnsgd1na2vs0mg"},{"bike_id":"bdadd262-7b2b-46f4-b78e-4b082952d3c4","system_id":"levelo_inurba_marseille","lat":43.313291,"lon":5.396838,"is_reserved":false,"is_disabled":false,"rental_uris":{"android":"levelo://app?vid=bdadd262-7b2b-46f4-b78e-4b082952d3c4","ios":"levelo://app?vid=bdadd262-7b2b-46f4-b78e-4b082952d3c4"},"vehicle_type_id":"4","last_reported":1722280013,"current_range_meters":800,"station_id":"ce4bgvp2rcd13ifvqcu0","pricing_plan_id":"cebpf4jnsgd1na2vs0mg"},{"bike_id":"b323fecf-09ce-4faa-b0b6-9559bfd31cf1","system_id":"levelo_inurba_marseille","lat":43.29197,"lon":5.35806,"is_reserved":false,"is_disabled":false,"rental_uris":{"android":"levelo://app?vid=b323fecf-09ce-4faa-b0b6-9559bfd31cf1","ios":"levelo://app?vid=b323fecf-09ce-4faa-b0b6-9559bfd31cf1"},"vehicle_type_id":"4","last_reported":1722280013,"current_range_meters":3600,"station_id":"ce4bhb12rcd13ifvqel0","pricing_plan_id":"cebpf4jnsgd1na2vs0mg"},{"bike_id":"0c567e36-d090-4e91-a701-c302277d10b0","system_id":"levelo_inurba_marseille","lat":43.313291,"lon":5.396838,"is_reserved":false,"is_disabled":false,"rental_uris":{"android":"levelo://app?vid=0c567e36-d090-4e91-a701-c302277d10b0","ios":"levelo://app?vid=0c567e36-d090-4e91-a701-c302277d10b0"},"vehicle_type_id":"4","last_reported":1722280013,"current_range_meters":26400,"station_id":"ce4bgvp2rcd13ifvqcu0","pricing_plan_id":"cebpf4jnsgd1na2vs0mg"},{"bike_id":"610cc1d5-f054-4db1-92a8-5ef52ca71adb","system_id":"levelo_inurba_marseille","lat":43.313291,"lon":5.396838,"is_reserved":false,"is_disabled":false,"rental_uris":{"android":"levelo://app?vid=610cc1d5-f054-4db1-92a8-5ef52ca71adb","ios":"levelo://app?vid=610cc1d5-f054-4db1-92a8-5ef52ca71adb"},"vehicle_type_id":"4","last_reported":1722280013,"current_range_meters":12800,"station_id":"ce4bgvp2rcd13ifvqcu0","pricing_plan_id":"cebpf4jnsgd1na2vs0mg"},{"bike_id":"7ea10b4c-56d8-43f4-ba0e-514e7e4dea71","system_id":"levelo_inurba_marseille","lat":43.31331,"lon":5.39695,"is_reserved":false,"is_disabled":false,"rental_uris":{"android":"levelo://app?vid=7ea10b4c-56d8-43f4-ba0e-514e7e4dea71","ios":"levelo://app?vid=7ea10b4c-56d8-43f4-ba0e-514e7e4dea71"},"vehicle_type_id":"4","last_reported":1722280013,"current_range_meters":0,"station_id":"ce4bgvp2rcd13ifvqcu0","pricing_plan_id":"cebpf4jnsgd1na2vs0mg"},{"bike_id":"ec3da71b-0bd8-404c-9ec7-83f39fd102f7","system_id":"levelo_inurba_marseille","lat":43.29529,"lon":5.385581,"is_reserved":false,"is_disabled":false,"rental_uris":{"android":"levelo://app?vid=ec3da71b-0bd8-404c-9ec7-83f39fd102f7","ios":"levelo://app?vid=ec3da71b-0bd8-404c-9ec7-83f39fd102f7"},"vehicle_type_id":"4","last_reported":1722280013,"current_range_meters":26400,"station_id":"ce4bgih2rcd13ifvqba0","pricing_plan_id":"cebpf4jnsgd1na2vs0mg"},{"bike_id":"a41701f3-72fb-45e4-a2c5-2d7b9b3acd31","system_id":"levelo_inurba_marseille","lat":43.29531,"lon":5.38549,"is_reserved":false,"is_disabled":false,"rental_uris":{"android":"levelo://app?vid=a41701f3-72fb-45e4-a2c5-2d7b9b3acd31","ios":"levelo://app?vid=a41701f3-72fb-45e4-a2c5-2d7b9b3acd31"},"vehicle_type_id":"4","last_reported":1722280013,"current_range_meters":0,"station_id":"ce4bgih2rcd13ifvqba0","pricing_plan_id":"cebpf4jnsgd1na2vs0mg"},{"bike_id":"78c71e8d-d1e4-4ed5-943d-bce8a1179f5b","system_id":"levelo_inurba_marseille","lat":43.29529,"lon":5.385581,"is_reserved":false,"is_disabled":false,"rental_uris":{"android":"levelo://app?vid=78c71e8d-d1e4-4ed5-943d-bce8a1179f5b","ios":"levelo://app?vid=78c71e8d-d1e4-4ed5-943d-bce8a1179f5b"},"vehicle_type_id":"4","last_reported":1722280013,"current_range_meters":26400,"station_id":"ce4bgih2rcd13ifvqba0","pricing_plan_id":"cebpf4jnsgd1na2vs0mg"},{"bike_id":"e4753366-2ce8-4e25-b5c4-1564e1d53cb3","system_id":"levelo_inurba_marseille","lat":43.29527,"lon":5.38546,"is_reserved":false,"is_disabled":false,"rental_uris":{"android":"levelo://app?vid=e4753366-2ce8-4e25-b5c4-1564e1d53cb3","ios":"levelo://app?vid=e4753366-2ce8-4e25-b5c4-1564e1d53cb3"},"vehicle_type_id":"4","last_reported":1722280013,"current_range_meters":12400,"station_id":"ce4bgih2rcd13ifvqba0","pricing_plan_id":"cebpf4jnsgd1na2vs0mg"},{"bike_id":"445a7bac-3757-48d1-90c1-a01091364def","system_id":"levelo_inurba_marseille","lat":43.313291,"lon":5.396838,"is_reserved":false,"is_disabled":false,"rental_uris":{"android":"levelo://app?vid=445a7bac-3757-48d1-90c1-a01091364def","ios":"levelo://app?vid=445a7bac-3757-48d1-90c1-a01091364def"},"vehicle_type_id":"4","last_reported":1722280013,"current_range_meters":12000,"station_id":"ce4bgvp2rcd13ifvqcu0","pricing_plan_id":"cebpf4jnsgd1na2vs0mg"},{"bike_id":"12b78bab-5e09-4a97-bd58-aeb34a54a172","system_id":"levelo_inurba_marseille","lat":43.29135,"lon":5.35572,"is_reserved":false,"is_disabled":false,"rental_uris":{"android":"levelo://app?vid=12b78bab-5e09-4a97-bd58-aeb34a54a172","ios":"levelo://app?vid=12b78bab-5e09-4a97-bd58-aeb34a54a172"},"vehicle_type_id":"4","last_reported":1722280013,"current_range_meters":19600,"station_id":"","pricing_plan_id":"cebpf4jnsgd1na2vs0mg"},{"bike_id":"3c2f1dcf-6b5c-4c44-93f6-9d5ce2702c5c","system_id":"levelo_inurba_marseille","lat":43.290631,"lon":5.359244,"is_reserved":false,"is_disabled":false,"rental_uris":{"android":"levelo://app?vid=3c2f1dcf-6b5c-4c44-93f6-9d5ce2702c5c","ios":"levelo://app?vid=3c2f1dcf-6b5c-4c44-93f6-9d5ce2702c5c"},"vehicle_type_id":"4","last_reported":1722280013,"current_range_meters":1200,"station_id":"ce4bha92rcd13ifvqeg0","pricing_plan_id":"cebpf4jnsgd1na2vs0mg"},{"bike_id":"03d092b2-6200-4f71-ae64-b24b8e6350f8","system_id":"levelo_inurba_marseille","lat":43.294153,"lon":5.386305,"is_reserved":false,"is_disabled":false,"rental_uris":{"android":"levelo://app?vid=03d092b2-6200-4f71-ae64-b24b8e6350f8","ios":"levelo://app?vid=03d092b2-6200-4f71-ae64-b24b8e6350f8"},"vehicle_type_id":"4","last_reported":1722280013,"current_range_meters":20400,"station_id":"ce4bh2h2rcd13ifvqdh0","pricing_plan_id":"cebpf4jnsgd1na2vs0mg"},{"bike_id":"29cafbaf-1acd-4ec2-bf72-de82d388a67d","system_id":"levelo_inurba_marseille","lat":43.29034,"lon":5.37553,"is_reserved":false,"is_disabled":false,"rental_uris":{"android":"levelo://app?vid=29cafbaf-1acd-4ec2-bf72-de82d388a67d","ios":"levelo://app?vid=29cafbaf-1acd-4ec2-bf72-de82d388a67d"},"vehicle_type_id":"4","last_reported":1722280013,"current_range_meters":0,"station_id":"ce4bh692rcd13ifvqe90","pricing_plan_id":"cebpf4jnsgd1na2vs0mg"},{"bike_id":"0ba018d3-b2d7-4032-be42-e72a3247a675","system_id":"levelo_inurba_marseille","lat":43.294162,"lon":5.386292,"is_reserved":false,"is_disabled":false,"rental_uris":{"android":"levelo://app?vid=0ba018d3-b2d7-4032-be42-e72a3247a675","ios":"levelo://app?vid=0ba018d3-b2d7-4032-be42-e72a3247a675"},"vehicle_type_id":"4","last_reported":1722280013,"current_range_meters":7200,"station_id":"ce4bh2h2rcd13ifvqdh0","pricing_plan_id":"cebpf4jnsgd1na2vs0mg"},{"bike_id":"ea4ea768-d5ed-4ccf-b625-c3e546bec482","system_id":"levelo_inurba_marseille","lat":43.289184,"lon":5.366408,"is_reserved":false,"is_disabled":false,"rental_uris":{"android":"levelo://app?vid=ea4ea768-d5ed-4ccf-b625-c3e546bec482","ios":"levelo://app?vid=ea4ea768-d5ed-4ccf-b625-c3e546bec482"},"vehicle_type_id":"4","last_reported":1722280013,"current_range_meters":1600,"station_id":"ce4bhap2rcd13ifvqek0","pricing_plan_id":"cebpf4jnsgd1na2vs0mg"},{"bike_id":"41e7bc5d-fe7f-47a6-bab6-5b8dc7620313","system_id":"levelo_inurba_marseille","lat":43.290319,"lon":5.375732,"is_reserved":false,"is_disabled":false,"rental_uris":{"android":"levelo://app?vid=41e7bc5d-fe7f-47a6-bab6-5b8dc7620313","ios":"levelo://app?vid=41e7bc5d-fe7f-47a6-bab6-5b8dc7620313"},"vehicle_type_id":"4","last_reported":1722280013,"current_range_meters":9200,"station_id":"ce4bh692rcd13ifvqe90","pricing_plan_id":"cebpf4jnsgd1na2vs0mg"},{"bike_id":"f90fa653-63eb-4d38-8975-36b39ee5d7be","system_id":"levelo_inurba_marseille","lat":43.294162,"lon":5.386292,"is_reserved":false,"is_disabled":false,"rental_uris":{"android":"levelo://app?vid=f90fa653-63eb-4d38-8975-36b39ee5d7be","ios":"levelo://app?vid=f90fa653-63eb-4d38-8975-36b39ee5d7be"},"vehicle_type_id":"4","last_reported":1722280013,"current_range_meters":22400,"station_id":"ce4bh2h2rcd13ifvqdh0","pricing_plan_id":"cebpf4jnsgd1na2vs0mg"},{"bike_id":"2efc4c48-914c-4839-8845-d9e085e7041e","system_id":"levelo_inurba_marseille","lat":43.289184,"lon":5.366408,"is_reserved":false,"is_disabled":false,"rental_uris":{"android":"levelo://app?vid=2efc4c48-914c-4839-8845-d9e085e7041e","ios":"levelo://app?vid=2efc4c48-914c-4839-8845-d9e085e7041e"},"vehicle_type_id":"4","last_reported":1722280013,"current_range_meters":0,"station_id":"ce4bhap2rcd13ifvqek0","pricing_plan_id":"cebpf4jnsgd1na2vs0mg"},{"bike_id":"b7b40cfc-71e5-4675-b85f-ad1877e50955","system_id":"levelo_inurba_marseille","lat":43.294142,"lon":5.386234,"is_reserved":false,"is_disabled":false,"rental_uris":{"android":"levelo://app?vid=b7b40cfc-71e5-4675-b85f-ad1877e50955","ios":"levelo://app?vid=b7b40cfc-71e5-4675-b85f-ad1877e50955"},"vehicle_type_id":"4","last_reported":1722280013,"current_range_meters":11600,"station_id":"ce4bh2h2rcd13ifvqdh0","pricing_plan_id":"cebpf4jnsgd1na2vs0mg"},{"bike_id":"98a71fb1-2c25-4ce0-b575-542a5efd862e","system_id":"levelo_inurba_marseille","lat":43.294162,"lon":5.386292,"is_reserved":false,"is_disabled":false,"rental_uris":{"android":"levelo://app?vid=98a71fb1-2c25-4ce0-b575-542a5efd862e","ios":"levelo://app?vid=98a71fb1-2c25-4ce0-b575-542a5efd862e"},"vehicle_type_id":"4","last_reported":1722280013,"current_range_meters":25600,"station_id":"ce4bh2h2rcd13ifvqdh0","pricing_plan_id":"cebpf4jnsgd1na2vs0mg"},{"bike_id":"63fd351f-8328-4610-a250-8d4f920a053e","system_id":"levelo_inurba_marseille","lat":43.289184,"lon":5.366408,"is_reserved":false,"is_disabled":false,"rental_uris":{"android":"levelo://app?vid=63fd351f-8328-4610-a250-8d4f920a053e","ios":"levelo://app?vid=63fd351f-8328-4610-a250-8d4f920a053e"},"vehicle_type_id":"4","last_reported":1722280013,"current_range_meters":18800,"station_id":"ce4bhap2rcd13ifvqek0","pricing_plan_id":"cebpf4jnsgd1na2vs0mg"},{"bike_id":"1fd4737c-e8be-40a4-a58a-5b87545a4522","system_id":"levelo_inurba_marseille","lat":43.294162,"lon":5.386292,"is_reserved":false,"is_disabled":false,"rental_uris":{"android":"levelo://app?vid=1fd4737c-e8be-40a4-a58a-5b87545a4522","ios":"levelo://app?vid=1fd4737c-e8be-40a4-a58a-5b87545a4522"},"vehicle_type_id":"4","last_reported":1722280013,"current_range_meters":3200,"station_id":"ce4bh2h2rcd13ifvqdh0","pricing_plan_id":"cebpf4jnsgd1na2vs0mg"},{"bike_id":"02dd62db-5efc-47f8-bcb1-6e1402595d76","system_id":"levelo_inurba_marseille","lat":43.289184,"lon":5.366408,"is_reserved":false,"is_disabled":false,"rental_uris":{"android":"levelo://app?vid=02dd62db-5efc-47f8-bcb1-6e1402595d76","ios":"levelo://app?vid=02dd62db-5efc-47f8-bcb1-6e1402595d76"},"vehicle_type_id":"4","last_reported":1722280013,"current_range_meters":0,"station_id":"ce4bhap2rcd13ifvqek0","pricing_plan_id":"cebpf4jnsgd1na2vs0mg"},{"bike_id":"23106a88-684f-4a6b-9a92-5f49f8f975af","system_id":"levelo_inurba_marseille","lat":43.289184,"lon":5.366408,"is_reserved":false,"is_disabled":false,"rental_uris":{"android":"levelo://app?vid=23106a88-684f-4a6b-9a92-5f49f8f975af","ios":"levelo://app?vid=23106a88-684f-4a6b-9a92-5f49f8f975af"},"vehicle_type_id":"4","last_reported":1722280013,"current_range_meters":16400,"station_id":"ce4bhap2rcd13ifvqek0","pricing_plan_id":"cebpf4jnsgd1na2vs0mg"},{"bike_id":"5db7c6c4-3206-4b95-b045-86b33407aae0","system_id":"levelo_inurba_marseille","lat":43.294153,"lon":5.386305,"is_reserved":false,"is_disabled":false,"rental_uris":{"android":"levelo://app?vid=5db7c6c4-3206-4b95-b045-86b33407aae0","ios":"levelo://app?vid=5db7c6c4-3206-4b95-b045-86b33407aae0"},"vehicle_type_id":"4","last_reported":1722280013,"current_range_meters":19600,"station_id":"ce4bh2h2rcd13ifvqdh0","pricing_plan_id":"cebpf4jnsgd1na2vs0mg"},{"bike_id":"7b483558-7932-4b70-ae46-9df5f5d79858","system_id":"levelo_inurba_marseille","lat":43.289184,"lon":5.366408,"is_reserved":false,"is_disabled":false,"rental_uris":{"android":"levelo://app?vid=7b483558-7932-4b70-ae46-9df5f5d79858","ios":"levelo://app?vid=7b483558-7932-4b70-ae46-9df5f5d79858"},"vehicle_type_id":"4","last_reported":1722280013,"current_range_meters":20400,"station_id":"ce4bhap2rcd13ifvqek0","pricing_plan_id":"cebpf4jnsgd1na2vs0mg"},{"bike_id":"78844f54-9626-4d14-958a-5b79f19a2cb3","system_id":"levelo_inurba_marseille","lat":43.289184,"lon":5.366408,"is_reserved":false,"is_disabled":false,"rental_uris":{"android":"levelo://app?vid=78844f54-9626-4d14-958a-5b79f19a2cb3","ios":"levelo://app?vid=78844f54-9626-4d14-958a-5b79f19a2cb3"},"vehicle_type_id":"4","last_reported":1722280013,"current_range_meters":23600,"station_id":"ce4bhap2rcd13ifvqek0","pricing_plan_id":"cebpf4jnsgd1na2vs0mg"},{"bike_id":"1ae2c704-9d73-4de9-9037-7642b131f09c","system_id":"levelo_inurba_marseille","lat":43.289184,"lon":5.366408,"is_reserved":false,"is_disabled":false,"rental_uris":{"android":"levelo://app?vid=1ae2c704-9d73-4de9-9037-7642b131f09c","ios":"levelo://app?vid=1ae2c704-9d73-4de9-9037-7642b131f09c"},"vehicle_type_id":"4","last_reported":1722280013,"current_range_meters":8800,"station_id":"ce4bhap2rcd13ifvqek0","pricing_plan_id":"cebpf4jnsgd1na2vs0mg"},{"bike_id":"9026fe2a-5323-482b-ad9c-60817332f054","system_id":"levelo_inurba_marseille","lat":43.292644,"lon":5.384257,"is_reserved":false,"is_disabled":false,"rental_uris":{"android":"levelo://app?vid=9026fe2a-5323-482b-ad9c-60817332f054","ios":"levelo://app?vid=9026fe2a-5323-482b-ad9c-60817332f054"},"vehicle_type_id":"4","last_reported":1722280013,"current_range_meters":400,"station_id":"ce4bh692rcd13ifvqea0","pricing_plan_id":"cebpf4jnsgd1na2vs0mg"},{"bike_id":"edf1bd04-025a-4bc8-bca3-9660d5971460","system_id":"levelo_inurba_marseille","lat":43.29265,"lon":5.38437,"is_reserved":false,"is_disabled":false,"rental_uris":{"android":"levelo://app?vid=edf1bd04-025a-4bc8-bca3-9660d5971460","ios":"levelo://app?vid=edf1bd04-025a-4bc8-bca3-9660d5971460"},"vehicle_type_id":"4","last_reported":1722280013,"current_range_meters":0,"station_id":"ce4bh692rcd13ifvqea0","pricing_plan_id":"cebpf4jnsgd1na2vs0mg"},{"bike_id":"3eede8a7-4bef-4f92-bc77-f056f4126147","system_id":"levelo_inurba_marseille","lat":43.29265,"lon":5.38443,"is_reserved":false,"is_disabled":false,"rental_uris":{"android":"levelo://app?vid=3eede8a7-4bef-4f92-bc77-f056f4126147","ios":"levelo://app?vid=3eede8a7-4bef-4f92-bc77-f056f4126147"},"vehicle_type_id":"4","last_reported":1722280013,"current_range_meters":16400,"station_id":"ce4bh692rcd13ifvqea0","pricing_plan_id":"cebpf4jnsgd1na2vs0mg"},{"bike_id":"b5bce02e-5485-4ba7-b5fc-a47eb012ef5c","system_id":"levelo_inurba_marseille","lat":43.29266,"lon":5.38446,"is_reserved":false,"is_disabled":false,"rental_uris":{"android":"levelo://app?vid=b5bce02e-5485-4ba7-b5fc-a47eb012ef5c","ios":"levelo://app?vid=b5bce02e-5485-4ba7-b5fc-a47eb012ef5c"},"vehicle_type_id":"4","last_reported":1722280013,"current_range_meters":22400,"station_id":"ce4bh692rcd13ifvqea0","pricing_plan_id":"cebpf4jnsgd1na2vs0mg"},{"bike_id":"66c385c9-e6e8-4c38-8f42-914399c4550c","system_id":"levelo_inurba_marseille","lat":43.29265,"lon":5.38453,"is_reserved":false,"is_disabled":false,"rental_uris":{"android":"levelo://app?vid=66c385c9-e6e8-4c38-8f42-914399c4550c","ios":"levelo://app?vid=66c385c9-e6e8-4c38-8f42-914399c4550c"},"vehicle_type_id":"4","last_reported":1722280013,"current_range_meters":23600,"station_id":"ce4bh692rcd13ifvqea0","pricing_plan_id":"cebpf4jnsgd1na2vs0mg"},{"bike_id":"5723cca1-65bc-46ff-b0cb-8f279727c4d9","system_id":"levelo_inurba_marseille","lat":43.29011,"lon":5.35595,"is_reserved":false,"is_disabled":false,"rental_uris":{"android":"levelo://app?vid=5723cca1-65bc-46ff-b0cb-8f279727c4d9","ios":"levelo://app?vid=5723cca1-65bc-46ff-b0cb-8f279727c4d9"},"vehicle_type_id":"4","last_reported":1722280013,"current_range_meters":0,"station_id":"ce4bhb92rcd13ifvqen0","pricing_plan_id":"cebpf4jnsgd1na2vs0mg"},{"bike_id":"8bbc4c84-a08a-4dee-a3eb-6fc2d797e924","system_id":"levelo_inurba_marseille","lat":43.29005,"lon":5.35617,"is_reserved":false,"is_disabled":false,"rental_uris":{"android":"levelo://app?vid=8bbc4c84-a08a-4dee-a3eb-6fc2d797e924","ios":"levelo://app?vid=8bbc4c84-a08a-4dee-a3eb-6fc2d797e924"},"vehicle_type_id":"4","last_reported":1722280013,"current_range_meters":0,"station_id":"ce4bhb92rcd13ifvqen0","pricing_plan_id":"cebpf4jnsgd1na2vs0mg"},{"bike_id":"e5cc24ff-f09c-4aec-b583-5dff8c9182ea","system_id":"levelo_inurba_marseille","lat":43.290103,"lon":5.356114,"is_reserved":false,"is_disabled":false,"rental_uris":{"android":"levelo://app?vid=e5cc24ff-f09c-4aec-b583-5dff8c9182ea","ios":"levelo://app?vid=e5cc24ff-f09c-4aec-b583-5dff8c9182ea"},"vehicle_type_id":"4","last_reported":1722280013,"current_range_meters":24400,"station_id":"ce4bhb92rcd13ifvqen0","pricing_plan_id":"cebpf4jnsgd1na2vs0mg"},{"bike_id":"8b031f5e-797d-404c-a612-2f39871d61dc","system_id":"levelo_inurba_marseille","lat":43.290103,"lon":5.356114,"is_reserved":false,"is_disabled":false,"rental_uris":{"android":"levelo://app?vid=8b031f5e-797d-404c-a612-2f39871d61dc","ios":"levelo://app?vid=8b031f5e-797d-404c-a612-2f39871d61dc"},"vehicle_type_id":"4","last_reported":1722280013,"current_range_meters":23200,"station_id":"ce4bhb92rcd13ifvqen0","pricing_plan_id":"cebpf4jnsgd1na2vs0mg"},{"bike_id":"2c4a3072-25e5-42f3-bdb5-d8c79961f024","system_id":"levelo_inurba_marseille","lat":43.330442,"lon":5.389148,"is_reserved":false,"is_disabled":false,"rental_uris":{"android":"levelo://app?vid=2c4a3072-25e5-42f3-bdb5-d8c79961f024","ios":"levelo://app?vid=2c4a3072-25e5-42f3-bdb5-d8c79961f024"},"vehicle_type_id":"4","last_reported":1722280013,"current_range_meters":21200,"station_id":"ce4bhr92rcd13ifvqhrg","pricing_plan_id":"cebpf4jnsgd1na2vs0mg"},{"bike_id":"e8ba91c6-abea-4730-b1fa-4b367aeaef7e","system_id":"levelo_inurba_marseille","lat":43.289741,"lon":5.378306,"is_reserved":false,"is_disabled":false,"rental_uris":{"android":"levelo://app?vid=e8ba91c6-abea-4730-b1fa-4b367aeaef7e","ios":"levelo://app?vid=e8ba91c6-abea-4730-b1fa-4b367aeaef7e"},"vehicle_type_id":"4","last_reported":1722280013,"current_range_meters":0,"station_id":"ce4bh9p2rcd13ifvqed0","pricing_plan_id":"cebpf4jnsgd1na2vs0mg"},{"bike_id":"4a163bdc-a1bd-4f53-b3dc-166e7ccae6d1","system_id":"levelo_inurba_marseille","lat":43.330442,"lon":5.389148,"is_reserved":false,"is_disabled":false,"rental_uris":{"android":"levelo://app?vid=4a163bdc-a1bd-4f53-b3dc-166e7ccae6d1","ios":"levelo://app?vid=4a163bdc-a1bd-4f53-b3dc-166e7ccae6d1"},"vehicle_type_id":"4","last_reported":1722280013,"current_range_meters":24400,"station_id":"ce4bhr92rcd13ifvqhrg","pricing_plan_id":"cebpf4jnsgd1na2vs0mg"},{"bike_id":"f4cdf6f8-59cc-4926-bbd3-bf830cd7e7b6","system_id":"levelo_inurba_marseille","lat":43.29019,"lon":5.38125,"is_reserved":false,"is_disabled":false,"rental_uris":{"android":"levelo://app?vid=f4cdf6f8-59cc-4926-bbd3-bf830cd7e7b6","ios":"levelo://app?vid=f4cdf6f8-59cc-4926-bbd3-bf830cd7e7b6"},"vehicle_type_id":"4","last_reported":1722280013,"current_range_meters":25600,"station_id":"ce4bh4p2rcd13ifvqe1g","pricing_plan_id":"cebpf4jnsgd1na2vs0mg"},{"bike_id":"099bd739-fd60-41a1-9743-4d1bdbfaaf94","system_id":"levelo_inurba_marseille","lat":43.29019,"lon":5.38127,"is_reserved":false,"is_disabled":false,"rental_uris":{"android":"levelo://app?vid=099bd739-fd60-41a1-9743-4d1bdbfaaf94","ios":"levelo://app?vid=099bd739-fd60-41a1-9743-4d1bdbfaaf94"},"vehicle_type_id":"4","last_reported":1722280013,"current_range_meters":0,"station_id":"ce4bh4p2rcd13ifvqe1g","pricing_plan_id":"cebpf4jnsgd1na2vs0mg"},{"bike_id":"b5ed86f7-8e8e-4c8e-bd18-856c5da7abdc","system_id":"levelo_inurba_marseille","lat":43.28854,"lon":5.35848,"is_reserved":false,"is_disabled":false,"rental_uris":{"android":"levelo://app?vid=b5ed86f7-8e8e-4c8e-bd18-856c5da7abdc","ios":"levelo://app?vid=b5ed86f7-8e8e-4c8e-bd18-856c5da7abdc"},"vehicle_type_id":"4","last_reported":1722280013,"current_range_meters":0,"station_id":"ce4bhb12rcd13ifvqem0","pricing_plan_id":"cebpf4jnsgd1na2vs0mg"},{"bike_id":"7f0dc52c-cd2c-45d5-a94a-87ba788ef313","system_id":"levelo_inurba_marseille","lat":43.28845,"lon":5.35843,"is_reserved":false,"is_disabled":false,"rental_uris":{"android":"levelo://app?vid=7f0dc52c-cd2c-45d5-a94a-87ba788ef313","ios":"levelo://app?vid=7f0dc52c-cd2c-45d5-a94a-87ba788ef313"},"vehicle_type_id":"4","last_reported":1722280013,"current_range_meters":0,"station_id":"ce4bhb12rcd13ifvqem0","pricing_plan_id":"cebpf4jnsgd1na2vs0mg"},{"bike_id":"6a1dac3a-a5f4-4836-89c1-f638b486aab4","system_id":"levelo_inurba_marseille","lat":43.28856,"lon":5.358371,"is_reserved":false,"is_disabled":false,"rental_uris":{"android":"levelo://app?vid=6a1dac3a-a5f4-4836-89c1-f638b486aab4","ios":"levelo://app?vid=6a1dac3a-a5f4-4836-89c1-f638b486aab4"},"vehicle_type_id":"4","last_reported":1722280013,"current_range_meters":14800,"station_id":"ce4bhb12rcd13ifvqem0","pricing_plan_id":"cebpf4jnsgd1na2vs0mg"},{"bike_id":"64ab59ad-1c1c-457a-a7dd-ad1ccdc9bd25","system_id":"levelo_inurba_marseille","lat":43.30278,"lon":5.39873,"is_reserved":false,"is_disabled":false,"rental_uris":{"android":"levelo://app?vid=64ab59ad-1c1c-457a-a7dd-ad1ccdc9bd25","ios":"levelo://app?vid=64ab59ad-1c1c-457a-a7dd-ad1ccdc9bd25"},"vehicle_type_id":"4","last_reported":1722280013,"current_range_meters":6800,"station_id":"","pricing_plan_id":"cebpf4jnsgd1na2vs0mg"},{"bike_id":"7c7d8d81-015f-441e-a36c-f64fd3557933","system_id":"levelo_inurba_marseille","lat":43.309371,"lon":5.401449,"is_reserved":false,"is_disabled":false,"rental_uris":{"android":"levelo://app?vid=7c7d8d81-015f-441e-a36c-f64fd3557933","ios":"levelo://app?vid=7c7d8d81-015f-441e-a36c-f64fd3557933"},"vehicle_type_id":"4","last_reported":1722280013,"current_range_meters":4800,"station_id":"ce4bgvp2rcd13ifvqct0","pricing_plan_id":"cebpf4jnsgd1na2vs0mg"},{"bike_id":"3a031b0c-bc56-43bb-b312-b03539475294","system_id":"levelo_inurba_marseille","lat":43.309371,"lon":5.401449,"is_reserved":false,"is_disabled":false,"rental_uris":{"android":"levelo://app?vid=3a031b0c-bc56-43bb-b312-b03539475294","ios":"levelo://app?vid=3a031b0c-bc56-43bb-b312-b03539475294"},"vehicle_type_id":"4","last_reported":1722280013,"current_range_meters":0,"station_id":"ce4bgvp2rcd13ifvqct0","pricing_plan_id":"cebpf4jnsgd1na2vs0mg"},{"bike_id":"06893d85-53a4-4867-afd8-82559233763e","system_id":"levelo_inurba_marseille","lat":43.287812,"lon":5.373682,"is_reserved":false,"is_disabled":false,"rental_uris":{"android":"levelo://app?vid=06893d85-53a4-4867-afd8-82559233763e","ios":"levelo://app?vid=06893d85-53a4-4867-afd8-82559233763e"},"vehicle_type_id":"4","last_reported":1722280013,"current_range_meters":22400,"station_id":"","pricing_plan_id":"cebpf4jnsgd1na2vs0mg"},{"bike_id":"0947d520-5902-43d2-9e61-47bf12ff75f9","system_id":"levelo_inurba_marseille","lat":43.337553,"lon":5.374554,"is_reserved":false,"is_disabled":false,"rental_uris":{"android":"levelo://app?vid=0947d520-5902-43d2-9e61-47bf12ff75f9","ios":"levelo://app?vid=0947d520-5902-43d2-9e61-47bf12ff75f9"},"vehicle_type_id":"4","last_reported":1722280013,"current_range_meters":21200,"station_id":"","pricing_plan_id":"cebpf4jnsgd1na2vs0mg"},{"bike_id":"3d66e4ba-d21d-4c4f-a74f-8c22411acbbd","system_id":"levelo_inurba_marseille","lat":43.33755,"lon":5.37491,"is_reserved":false,"is_disabled":false,"rental_uris":{"android":"levelo://app?vid=3d66e4ba-d21d-4c4f-a74f-8c22411acbbd","ios":"levelo://app?vid=3d66e4ba-d21d-4c4f-a74f-8c22411acbbd"},"vehicle_type_id":"4","last_reported":1722280013,"current_range_meters":17200,"station_id":"","pricing_plan_id":"cebpf4jnsgd1na2vs0mg"},{"bike_id":"5140eabd-252d-4cd4-a813-821aa812f5d7","system_id":"levelo_inurba_marseille","lat":43.306412,"lon":5.401035,"is_reserved":false,"is_disabled":false,"rental_uris":{"android":"levelo://app?vid=5140eabd-252d-4cd4-a813-821aa812f5d7","ios":"levelo://app?vid=5140eabd-252d-4cd4-a813-821aa812f5d7"},"vehicle_type_id":"4","last_reported":1722280013,"current_range_meters":30000,"station_id":"ce4bh112rcd13ifvqda0","pricing_plan_id":"cebpf4jnsgd1na2vs0mg"},{"bike_id":"401c10fc-22be-4ac9-91b7-2a73c03f1f42","system_id":"levelo_inurba_marseille","lat":43.30642,"lon":5.401031,"is_reserved":false,"is_disabled":false,"rental_uris":{"android":"levelo://app?vid=401c10fc-22be-4ac9-91b7-2a73c03f1f42","ios":"levelo://app?vid=401c10fc-22be-4ac9-91b7-2a73c03f1f42"},"vehicle_type_id":"4","last_reported":1722280013,"current_range_meters":10800,"station_id":"ce4bh112rcd13ifvqda0","pricing_plan_id":"cebpf4jnsgd1na2vs0mg"},{"bike_id":"2b823a03-fd3c-4f45-81d7-00e7f5c09161","system_id":"levelo_inurba_marseille","lat":43.30642,"lon":5.401031,"is_reserved":false,"is_disabled":false,"rental_uris":{"android":"levelo://app?vid=2b823a03-fd3c-4f45-81d7-00e7f5c09161","ios":"levelo://app?vid=2b823a03-fd3c-4f45-81d7-00e7f5c09161"},"vehicle_type_id":"4","last_reported":1722280013,"current_range_meters":6400,"station_id":"ce4bh112rcd13ifvqda0","pricing_plan_id":"cebpf4jnsgd1na2vs0mg"},{"bike_id":"235acd1b-f746-4abd-82d5-411789ccbf15","system_id":"levelo_inurba_marseille","lat":43.30135,"lon":5.39863,"is_reserved":false,"is_disabled":false,"rental_uris":{"android":"levelo://app?vid=235acd1b-f746-4abd-82d5-411789ccbf15","ios":"levelo://app?vid=235acd1b-f746-4abd-82d5-411789ccbf15"},"vehicle_type_id":"4","last_reported":1722280013,"current_range_meters":1600,"station_id":"ce4bh0h2rcd13ifvqd40","pricing_plan_id":"cebpf4jnsgd1na2vs0mg"},{"bike_id":"a1c87420-407c-4b67-81b6-9f0fa54df7df","system_id":"levelo_inurba_marseille","lat":43.30143,"lon":5.39869,"is_reserved":false,"is_disabled":false,"rental_uris":{"android":"levelo://app?vid=a1c87420-407c-4b67-81b6-9f0fa54df7df","ios":"levelo://app?vid=a1c87420-407c-4b67-81b6-9f0fa54df7df"},"vehicle_type_id":"4","last_reported":1722280013,"current_range_meters":0,"station_id":"ce4bh0h2rcd13ifvqd40","pricing_plan_id":"cebpf4jnsgd1na2vs0mg"},{"bike_id":"28304036-afe9-48c7-bceb-8dd90d2a8344","system_id":"levelo_inurba_marseille","lat":43.28727,"lon":5.36078,"is_reserved":false,"is_disabled":false,"rental_uris":{"android":"levelo://app?vid=28304036-afe9-48c7-bceb-8dd90d2a8344","ios":"levelo://app?vid=28304036-afe9-48c7-bceb-8dd90d2a8344"},"vehicle_type_id":"4","last_reported":1722280013,"current_range_meters":9600,"station_id":"cki0cbj6b192h4jlfktg","pricing_plan_id":"cebpf4jnsgd1na2vs0mg"},{"bike_id":"6355f157-abd5-45af-9257-de847194c7d2","system_id":"levelo_inurba_marseille","lat":43.286593,"lon":5.363346,"is_reserved":false,"is_disabled":false,"rental_uris":{"android":"levelo://app?vid=6355f157-abd5-45af-9257-de847194c7d2","ios":"levelo://app?vid=6355f157-abd5-45af-9257-de847194c7d2"},"vehicle_type_id":"4","last_reported":1722280013,"current_range_meters":27600,"station_id":"ce4bhah2rcd13ifvqej0","pricing_plan_id":"cebpf4jnsgd1na2vs0mg"},{"bike_id":"aa80348b-b412-4eb4-9a25-6c7f8ccdfebf","system_id":"levelo_inurba_marseille","lat":43.298681,"lon":5.397225,"is_reserved":false,"is_disabled":false,"rental_uris":{"android":"levelo://app?vid=aa80348b-b412-4eb4-9a25-6c7f8ccdfebf","ios":"levelo://app?vid=aa80348b-b412-4eb4-9a25-6c7f8ccdfebf"},"vehicle_type_id":"4","last_reported":1722280013,"current_range_meters":8000,"station_id":"ce4bh0h2rcd13ifvqd50","pricing_plan_id":"cebpf4jnsgd1na2vs0mg"},{"bike_id":"565043b8-373e-4eba-a6ef-7572bb2d5d49","system_id":"levelo_inurba_marseille","lat":43.286593,"lon":5.363346,"is_reserved":false,"is_disabled":false,"rental_uris":{"android":"levelo://app?vid=565043b8-373e-4eba-a6ef-7572bb2d5d49","ios":"levelo://app?vid=565043b8-373e-4eba-a6ef-7572bb2d5d49"},"vehicle_type_id":"4","last_reported":1722280013,"current_range_meters":13600,"station_id":"ce4bhah2rcd13ifvqej0","pricing_plan_id":"cebpf4jnsgd1na2vs0mg"},{"bike_id":"edfaa1bb-c7ac-485e-a21a-1e176b0b6381","system_id":"levelo_inurba_marseille","lat":43.286591,"lon":5.363346,"is_reserved":false,"is_disabled":false,"rental_uris":{"android":"levelo://app?vid=edfaa1bb-c7ac-485e-a21a-1e176b0b6381","ios":"levelo://app?vid=edfaa1bb-c7ac-485e-a21a-1e176b0b6381"},"vehicle_type_id":"4","last_reported":1722280013,"current_range_meters":0,"station_id":"ce4bhah2rcd13ifvqej0","pricing_plan_id":"cebpf4jnsgd1na2vs0mg"},{"bike_id":"756e9c6e-c731-4f9f-a103-ae8e6284f53e","system_id":"levelo_inurba_marseille","lat":43.286961,"lon":5.373785,"is_reserved":false,"is_disabled":false,"rental_uris":{"android":"levelo://app?vid=756e9c6e-c731-4f9f-a103-ae8e6284f53e","ios":"levelo://app?vid=756e9c6e-c731-4f9f-a103-ae8e6284f53e"},"vehicle_type_id":"4","last_reported":1722280013,"current_range_meters":0,"station_id":"ce4bh3p2rcd13ifvqdq0","pricing_plan_id":"cebpf4jnsgd1na2vs0mg"},{"bike_id":"87093373-dbec-46d1-80a8-2f5be5a02330","system_id":"levelo_inurba_marseille","lat":43.286961,"lon":5.373785,"is_reserved":false,"is_disabled":false,"rental_uris":{"android":"levelo://app?vid=87093373-dbec-46d1-80a8-2f5be5a02330","ios":"levelo://app?vid=87093373-dbec-46d1-80a8-2f5be5a02330"},"vehicle_type_id":"4","last_reported":1722280013,"current_range_meters":28800,"station_id":"ce4bh3p2rcd13ifvqdq0","pricing_plan_id":"cebpf4jnsgd1na2vs0mg"},{"bike_id":"d702eed2-58b8-436e-8108-5dedf51583bc","system_id":"levelo_inurba_marseille","lat":43.28927,"lon":5.38399,"is_reserved":false,"is_disabled":false,"rental_uris":{"android":"levelo://app?vid=d702eed2-58b8-436e-8108-5dedf51583bc","ios":"levelo://app?vid=d702eed2-58b8-436e-8108-5dedf51583bc"},"vehicle_type_id":"4","last_reported":1722280013,"current_range_meters":0,"station_id":"ce4bh612rcd13ifvqe6g","pricing_plan_id":"cebpf4jnsgd1na2vs0mg"},{"bike_id":"37245521-429f-4711-af76-cff1469a7d41","system_id":"levelo_inurba_marseille","lat":43.289307,"lon":5.38406,"is_reserved":false,"is_disabled":false,"rental_uris":{"android":"levelo://app?vid=37245521-429f-4711-af76-cff1469a7d41","ios":"levelo://app?vid=37245521-429f-4711-af76-cff1469a7d41"},"vehicle_type_id":"4","last_reported":1722280013,"current_range_meters":5600,"station_id":"ce4bh612rcd13ifvqe6g","pricing_plan_id":"cebpf4jnsgd1na2vs0mg"},{"bike_id":"0552d2eb-f2e0-41de-8f16-7987bd773187","system_id":"levelo_inurba_marseille","lat":43.290336,"lon":5.386425,"is_reserved":false,"is_disabled":false,"rental_uris":{"android":"levelo://app?vid=0552d2eb-f2e0-41de-8f16-7987bd773187","ios":"levelo://app?vid=0552d2eb-f2e0-41de-8f16-7987bd773187"},"vehicle_type_id":"4","last_reported":1722280013,"current_range_meters":20000,"station_id":"ce4bh4p2rcd13ifvqe0g","pricing_plan_id":"cebpf4jnsgd1na2vs0mg"},{"bike_id":"9815c672-45e0-4115-97dd-da8e813c685a","system_id":"levelo_inurba_marseille","lat":43.286039,"lon":5.370679,"is_reserved":false,"is_disabled":false,"rental_uris":{"android":"levelo://app?vid=9815c672-45e0-4115-97dd-da8e813c685a","ios":"levelo://app?vid=9815c672-45e0-4115-97dd-da8e813c685a"},"vehicle_type_id":"4","last_reported":1722280013,"current_range_meters":29200,"station_id":"ce4bht12rcd13ifvqi60","pricing_plan_id":"cebpf4jnsgd1na2vs0mg"},{"bike_id":"24009830-0fb9-4497-8ea9-3de804e0168d","system_id":"levelo_inurba_marseille","lat":43.286039,"lon":5.370679,"is_reserved":false,"is_disabled":false,"rental_uris":{"android":"levelo://app?vid=24009830-0fb9-4497-8ea9-3de804e0168d","ios":"levelo://app?vid=24009830-0fb9-4497-8ea9-3de804e0168d"},"vehicle_type_id":"4","last_reported":1722280013,"current_range_meters":16800,"station_id":"ce4bht12rcd13ifvqi60","pricing_plan_id":"cebpf4jnsgd1na2vs0mg"},{"bike_id":"d58cee8d-095e-45e6-ad2c-f742aff87133","system_id":"levelo_inurba_marseille","lat":43.286039,"lon":5.370681,"is_reserved":false,"is_disabled":false,"rental_uris":{"android":"levelo://app?vid=d58cee8d-095e-45e6-ad2c-f742aff87133","ios":"levelo://app?vid=d58cee8d-095e-45e6-ad2c-f742aff87133"},"vehicle_type_id":"4","last_reported":1722280013,"current_range_meters":800,"station_id":"ce4bht12rcd13ifvqi60","pricing_plan_id":"cebpf4jnsgd1na2vs0mg"},{"bike_id":"871e5461-4664-417a-8905-e33b272e3e9a","system_id":"levelo_inurba_marseille","lat":43.28608,"lon":5.37059,"is_reserved":false,"is_disabled":false,"rental_uris":{"android":"levelo://app?vid=871e5461-4664-417a-8905-e33b272e3e9a","ios":"levelo://app?vid=871e5461-4664-417a-8905-e33b272e3e9a"},"vehicle_type_id":"4","last_reported":1722280013,"current_range_meters":0,"station_id":"ce4bht12rcd13ifvqi60","pricing_plan_id":"cebpf4jnsgd1na2vs0mg"},{"bike_id":"df139fa2-e6e2-4dca-a3bd-f1dec31b54cb","system_id":"levelo_inurba_marseille","lat":43.286039,"lon":5.370681,"is_reserved":false,"is_disabled":false,"rental_uris":{"android":"levelo://app?vid=df139fa2-e6e2-4dca-a3bd-f1dec31b54cb","ios":"levelo://app?vid=df139fa2-e6e2-4dca-a3bd-f1dec31b54cb"},"vehicle_type_id":"4","last_reported":1722280013,"current_range_meters":24400,"station_id":"ce4bht12rcd13ifvqi60","pricing_plan_id":"cebpf4jnsgd1na2vs0mg"},{"bike_id":"d991c142-35e6-480e-a0fd-2f800d439c27","system_id":"levelo_inurba_marseille","lat":43.286039,"lon":5.370679,"is_reserved":false,"is_disabled":false,"rental_uris":{"android":"levelo://app?vid=d991c142-35e6-480e-a0fd-2f800d439c27","ios":"levelo://app?vid=d991c142-35e6-480e-a0fd-2f800d439c27"},"vehicle_type_id":"4","last_reported":1722280013,"current_range_meters":15600,"station_id":"ce4bht12rcd13ifvqi60","pricing_plan_id":"cebpf4jnsgd1na2vs0mg"},{"bike_id":"d7a2c7f3-cec8-4b27-a902-ed3be0e59782","system_id":"levelo_inurba_marseille","lat":43.287184,"lon":5.37937,"is_reserved":false,"is_disabled":false,"rental_uris":{"android":"levelo://app?vid=d7a2c7f3-cec8-4b27-a902-ed3be0e59782","ios":"levelo://app?vid=d7a2c7f3-cec8-4b27-a902-ed3be0e59782"},"vehicle_type_id":"4","last_reported":1722280013,"current_range_meters":30400,"station_id":"ce4bh9p2rcd13ifvqec0","pricing_plan_id":"cebpf4jnsgd1na2vs0mg"},{"bike_id":"c8947ff9-7ead-4b51-91ef-a36a65b0e8e0","system_id":"levelo_inurba_marseille","lat":43.29529,"lon":5.385581,"is_reserved":false,"is_disabled":false,"rental_uris":{"android":"levelo://app?vid=c8947ff9-7ead-4b51-91ef-a36a65b0e8e0","ios":"levelo://app?vid=c8947ff9-7ead-4b51-91ef-a36a65b0e8e0"},"vehicle_type_id":"4","last_reported":1722280013,"current_range_meters":16400,"station_id":"ce4bgih2rcd13ifvqba0","pricing_plan_id":"cebpf4jnsgd1na2vs0mg"},{"bike_id":"a44fa8dc-efdf-4a16-9c6e-5db75e62b568","system_id":"levelo_inurba_marseille","lat":43.284534,"lon":5.358662,"is_reserved":false,"is_disabled":false,"rental_uris":{"android":"levelo://app?vid=a44fa8dc-efdf-4a16-9c6e-5db75e62b568","ios":"levelo://app?vid=a44fa8dc-efdf-4a16-9c6e-5db75e62b568"},"vehicle_type_id":"4","last_reported":1722280013,"current_range_meters":14800,"station_id":"ce4bhah2rcd13ifvqei0","pricing_plan_id":"cebpf4jnsgd1na2vs0mg"},{"bike_id":"2ce7d8bc-b144-4796-87ec-91e95dce31ae","system_id":"levelo_inurba_marseille","lat":43.294314,"lon":5.397498,"is_reserved":false,"is_disabled":false,"rental_uris":{"android":"levelo://app?vid=2ce7d8bc-b144-4796-87ec-91e95dce31ae","ios":"levelo://app?vid=2ce7d8bc-b144-4796-87ec-91e95dce31ae"},"vehicle_type_id":"4","last_reported":1722280013,"current_range_meters":1200,"station_id":"ce4bh3h2rcd13ifvqdo0","pricing_plan_id":"cebpf4jnsgd1na2vs0mg"},{"bike_id":"87d31c23-1aca-4ad4-98db-5c0112d23824","system_id":"levelo_inurba_marseille","lat":43.294314,"lon":5.397498,"is_reserved":false,"is_disabled":false,"rental_uris":{"android":"levelo://app?vid=87d31c23-1aca-4ad4-98db-5c0112d23824","ios":"levelo://app?vid=87d31c23-1aca-4ad4-98db-5c0112d23824"},"vehicle_type_id":"4","last_reported":1722280013,"current_range_meters":0,"station_id":"ce4bh3h2rcd13ifvqdo0","pricing_plan_id":"cebpf4jnsgd1na2vs0mg"},{"bike_id":"ad17d3be-eb04-42c2-875f-6f70f2885e17","system_id":"levelo_inurba_marseille","lat":43.294314,"lon":5.397498,"is_reserved":false,"is_disabled":false,"rental_uris":{"android":"levelo://app?vid=ad17d3be-eb04-42c2-875f-6f70f2885e17","ios":"levelo://app?vid=ad17d3be-eb04-42c2-875f-6f70f2885e17"},"vehicle_type_id":"4","last_reported":1722280013,"current_range_meters":0,"station_id":"ce4bh3h2rcd13ifvqdo0","pricing_plan_id":"cebpf4jnsgd1na2vs0mg"},{"bike_id":"076e4c17-252a-46a4-89c4-a89f58fd5c9e","system_id":"levelo_inurba_marseille","lat":43.294314,"lon":5.397498,"is_reserved":false,"is_disabled":false,"rental_uris":{"android":"levelo://app?vid=076e4c17-252a-46a4-89c4-a89f58fd5c9e","ios":"levelo://app?vid=076e4c17-252a-46a4-89c4-a89f58fd5c9e"},"vehicle_type_id":"4","last_reported":1722280013,"current_range_meters":15600,"station_id":"ce4bh3h2rcd13ifvqdo0","pricing_plan_id":"cebpf4jnsgd1na2vs0mg"},{"bike_id":"1b263ea7-eb5b-4679-9f93-ea149dce5f17","system_id":"levelo_inurba_marseille","lat":43.28617,"lon":5.35105,"is_reserved":false,"is_disabled":false,"rental_uris":{"android":"levelo://app?vid=1b263ea7-eb5b-4679-9f93-ea149dce5f17","ios":"levelo://app?vid=1b263ea7-eb5b-4679-9f93-ea149dce5f17"},"vehicle_type_id":"4","last_reported":1722280013,"current_range_meters":0,"station_id":"ce4bhch2rcd13ifvqeug","pricing_plan_id":"cebpf4jnsgd1na2vs0mg"},{"bike_id":"55d871ab-53be-45f4-ab9d-01dff0db90b8","system_id":"levelo_inurba_marseille","lat":43.28615,"lon":5.35105,"is_reserved":false,"is_disabled":false,"rental_uris":{"android":"levelo://app?vid=55d871ab-53be-45f4-ab9d-01dff0db90b8","ios":"levelo://app?vid=55d871ab-53be-45f4-ab9d-01dff0db90b8"},"vehicle_type_id":"4","last_reported":1722280013,"current_range_meters":800,"station_id":"ce4bhch2rcd13ifvqeug","pricing_plan_id":"cebpf4jnsgd1na2vs0mg"},{"bike_id":"8ff3b3af-6fbc-425e-a769-566e63002f37","system_id":"levelo_inurba_marseille","lat":43.286155,"lon":5.351033,"is_reserved":false,"is_disabled":false,"rental_uris":{"android":"levelo://app?vid=8ff3b3af-6fbc-425e-a769-566e63002f37","ios":"levelo://app?vid=8ff3b3af-6fbc-425e-a769-566e63002f37"},"vehicle_type_id":"4","last_reported":1722280013,"current_range_meters":17200,"station_id":"","pricing_plan_id":"cebpf4jnsgd1na2vs0mg"},{"bike_id":"86fca443-17d2-4222-959c-94424c577e4f","system_id":"levelo_inurba_marseille","lat":43.285856,"lon":5.350771,"is_reserved":false,"is_disabled":false,"rental_uris":{"android":"levelo://app?vid=86fca443-17d2-4222-959c-94424c577e4f","ios":"levelo://app?vid=86fca443-17d2-4222-959c-94424c577e4f"},"vehicle_type_id":"4","last_reported":1722280013,"current_range_meters":400,"station_id":"ce4bhch2rcd13ifvqeug","pricing_plan_id":"cebpf4jnsgd1na2vs0mg"},{"bike_id":"c5b5c1f6-ca46-464b-bb49-084360f07b4f","system_id":"levelo_inurba_marseille","lat":43.284218,"lon":5.375103,"is_reserved":false,"is_disabled":false,"rental_uris":{"android":"levelo://app?vid=c5b5c1f6-ca46-464b-bb49-084360f07b4f","ios":"levelo://app?vid=c5b5c1f6-ca46-464b-bb49-084360f07b4f"},"vehicle_type_id":"4","last_reported":1722280013,"current_range_meters":31200,"station_id":"ce4bh412rcd13ifvqds0","pricing_plan_id":"cebpf4jnsgd1na2vs0mg"},{"bike_id":"696e8176-4e1d-4650-8c09-1c2f1dd4cd5b","system_id":"levelo_inurba_marseille","lat":43.283998,"lon":5.375062,"is_reserved":false,"is_disabled":false,"rental_uris":{"android":"levelo://app?vid=696e8176-4e1d-4650-8c09-1c2f1dd4cd5b","ios":"levelo://app?vid=696e8176-4e1d-4650-8c09-1c2f1dd4cd5b"},"vehicle_type_id":"4","last_reported":1722280013,"current_range_meters":7200,"station_id":"ce4bh412rcd13ifvqds0","pricing_plan_id":"cebpf4jnsgd1na2vs0mg"},{"bike_id":"de7313f3-e2d8-49c0-b56e-2bb01e94363e","system_id":"levelo_inurba_marseille","lat":43.28416,"lon":5.37514,"is_reserved":false,"is_disabled":false,"rental_uris":{"android":"levelo://app?vid=de7313f3-e2d8-49c0-b56e-2bb01e94363e","ios":"levelo://app?vid=de7313f3-e2d8-49c0-b56e-2bb01e94363e"},"vehicle_type_id":"4","last_reported":1722280013,"current_range_meters":31200,"station_id":"ce4bh412rcd13ifvqds0","pricing_plan_id":"cebpf4jnsgd1na2vs0mg"},{"bike_id":"7dc20b5c-3717-4a4c-b886-98e15b4d9d91","system_id":"levelo_inurba_marseille","lat":43.283998,"lon":5.375062,"is_reserved":false,"is_disabled":false,"rental_uris":{"android":"levelo://app?vid=7dc20b5c-3717-4a4c-b886-98e15b4d9d91","ios":"levelo://app?vid=7dc20b5c-3717-4a4c-b886-98e15b4d9d91"},"vehicle_type_id":"4","last_reported":1722280013,"current_range_meters":0,"station_id":"ce4bh412rcd13ifvqds0","pricing_plan_id":"cebpf4jnsgd1na2vs0mg"},{"bike_id":"a7ce37f7-8e80-4306-b67e-c26a4e281645","system_id":"levelo_inurba_marseille","lat":43.284135,"lon":5.375116,"is_reserved":false,"is_disabled":false,"rental_uris":{"android":"levelo://app?vid=a7ce37f7-8e80-4306-b67e-c26a4e281645","ios":"levelo://app?vid=a7ce37f7-8e80-4306-b67e-c26a4e281645"},"vehicle_type_id":"4","last_reported":1722280013,"current_range_meters":30800,"station_id":"ce4bh412rcd13ifvqds0","pricing_plan_id":"cebpf4jnsgd1na2vs0mg"},{"bike_id":"ff2d68a4-855c-4fa5-a349-7c6bd85889a6","system_id":"levelo_inurba_marseille","lat":43.283998,"lon":5.375062,"is_reserved":false,"is_disabled":false,"rental_uris":{"android":"levelo://app?vid=ff2d68a4-855c-4fa5-a349-7c6bd85889a6","ios":"levelo://app?vid=ff2d68a4-855c-4fa5-a349-7c6bd85889a6"},"vehicle_type_id":"4","last_reported":1722280013,"current_range_meters":31200,"station_id":"ce4bh412rcd13ifvqds0","pricing_plan_id":"cebpf4jnsgd1na2vs0mg"},{"bike_id":"c94c034c-11c7-4c10-ab5c-f00c2af8a29b","system_id":"levelo_inurba_marseille","lat":43.283998,"lon":5.375062,"is_reserved":false,"is_disabled":false,"rental_uris":{"android":"levelo://app?vid=c94c034c-11c7-4c10-ab5c-f00c2af8a29b","ios":"levelo://app?vid=c94c034c-11c7-4c10-ab5c-f00c2af8a29b"},"vehicle_type_id":"4","last_reported":1722280013,"current_range_meters":14400,"station_id":"ce4bh412rcd13ifvqds0","pricing_plan_id":"cebpf4jnsgd1na2vs0mg"},{"bike_id":"345a88e7-5c27-4d27-9277-0614c056dbc7","system_id":"levelo_inurba_marseille","lat":43.29933,"lon":5.40267,"is_reserved":false,"is_disabled":false,"rental_uris":{"android":"levelo://app?vid=345a88e7-5c27-4d27-9277-0614c056dbc7","ios":"levelo://app?vid=345a88e7-5c27-4d27-9277-0614c056dbc7"},"vehicle_type_id":"4","last_reported":1722280013,"current_range_meters":25200,"station_id":"","pricing_plan_id":"cebpf4jnsgd1na2vs0mg"},{"bike_id":"65ced017-f17e-454c-bb87-38a1948265cc","system_id":"levelo_inurba_marseille","lat":43.284058,"lon":5.375165,"is_reserved":false,"is_disabled":false,"rental_uris":{"android":"levelo://app?vid=65ced017-f17e-454c-bb87-38a1948265cc","ios":"levelo://app?vid=65ced017-f17e-454c-bb87-38a1948265cc"},"vehicle_type_id":"4","last_reported":1722280013,"current_range_meters":31200,"station_id":"ce4bh412rcd13ifvqds0","pricing_plan_id":"cebpf4jnsgd1na2vs0mg"},{"bike_id":"426f9d8f-ab49-4aa5-9721-7c6680641b66","system_id":"levelo_inurba_marseille","lat":43.28405,"lon":5.37512,"is_reserved":false,"is_disabled":false,"rental_uris":{"android":"levelo://app?vid=426f9d8f-ab49-4aa5-9721-7c6680641b66","ios":"levelo://app?vid=426f9d8f-ab49-4aa5-9721-7c6680641b66"},"vehicle_type_id":"4","last_reported":1722280013,"current_range_meters":31200,"station_id":"ce4bh412rcd13ifvqds0","pricing_plan_id":"cebpf4jnsgd1na2vs0mg"},{"bike_id":"352f7de6-a8cd-4fbb-b68a-9e7566e0e5a0","system_id":"levelo_inurba_marseille","lat":43.28403,"lon":5.37501,"is_reserved":false,"is_disabled":false,"rental_uris":{"android":"levelo://app?vid=352f7de6-a8cd-4fbb-b68a-9e7566e0e5a0","ios":"levelo://app?vid=352f7de6-a8cd-4fbb-b68a-9e7566e0e5a0"},"vehicle_type_id":"4","last_reported":1722280013,"current_range_meters":31200,"station_id":"ce4bh412rcd13ifvqds0","pricing_plan_id":"cebpf4jnsgd1na2vs0mg"},{"bike_id":"12513585-1b4f-4888-af5d-2834c9276388","system_id":"levelo_inurba_marseille","lat":43.283998,"lon":5.375062,"is_reserved":false,"is_disabled":false,"rental_uris":{"android":"levelo://app?vid=12513585-1b4f-4888-af5d-2834c9276388","ios":"levelo://app?vid=12513585-1b4f-4888-af5d-2834c9276388"},"vehicle_type_id":"4","last_reported":1722280013,"current_range_meters":2000,"station_id":"ce4bh412rcd13ifvqds0","pricing_plan_id":"cebpf4jnsgd1na2vs0mg"},{"bike_id":"8f63cbfd-92c0-4ed1-858a-3eae5df82dd1","system_id":"levelo_inurba_marseille","lat":43.283998,"lon":5.375062,"is_reserved":false,"is_disabled":false,"rental_uris":{"android":"levelo://app?vid=8f63cbfd-92c0-4ed1-858a-3eae5df82dd1","ios":"levelo://app?vid=8f63cbfd-92c0-4ed1-858a-3eae5df82dd1"},"vehicle_type_id":"4","last_reported":1722280013,"current_range_meters":23600,"station_id":"ce4bh412rcd13ifvqds0","pricing_plan_id":"cebpf4jnsgd1na2vs0mg"},{"bike_id":"d3b1f28f-ea9a-4dce-87eb-4b3ba8b25917","system_id":"levelo_inurba_marseille","lat":43.299511,"lon":5.403112,"is_reserved":false,"is_disabled":false,"rental_uris":{"android":"levelo://app?vid=d3b1f28f-ea9a-4dce-87eb-4b3ba8b25917","ios":"levelo://app?vid=d3b1f28f-ea9a-4dce-87eb-4b3ba8b25917"},"vehicle_type_id":"4","last_reported":1722280013,"current_range_meters":30400,"station_id":"","pricing_plan_id":"cebpf4jnsgd1na2vs0mg"},{"bike_id":"8a7f54a0-cd86-416e-81e8-500359c1d769","system_id":"levelo_inurba_marseille","lat":43.299592,"lon":5.403238,"is_reserved":false,"is_disabled":false,"rental_uris":{"android":"levelo://app?vid=8a7f54a0-cd86-416e-81e8-500359c1d769","ios":"levelo://app?vid=8a7f54a0-cd86-416e-81e8-500359c1d769"},"vehicle_type_id":"4","last_reported":1722280013,"current_range_meters":30400,"station_id":"","pricing_plan_id":"cebpf4jnsgd1na2vs0mg"},{"bike_id":"d2ea62a3-3936-46bb-a835-fec226b7b268","system_id":"levelo_inurba_marseille","lat":43.286595,"lon":5.386795,"is_reserved":false,"is_disabled":false,"rental_uris":{"android":"levelo://app?vid=d2ea62a3-3936-46bb-a835-fec226b7b268","ios":"levelo://app?vid=d2ea62a3-3936-46bb-a835-fec226b7b268"},"vehicle_type_id":"4","last_reported":1722280013,"current_range_meters":0,"station_id":"ce4bh492rcd13ifvqdug","pricing_plan_id":"cebpf4jnsgd1na2vs0mg"},{"bike_id":"7bbe1875-6dc4-422f-8b38-a5aa9ef6fd9b","system_id":"levelo_inurba_marseille","lat":43.286595,"lon":5.386795,"is_reserved":false,"is_disabled":false,"rental_uris":{"android":"levelo://app?vid=7bbe1875-6dc4-422f-8b38-a5aa9ef6fd9b","ios":"levelo://app?vid=7bbe1875-6dc4-422f-8b38-a5aa9ef6fd9b"},"vehicle_type_id":"4","last_reported":1722280013,"current_range_meters":0,"station_id":"ce4bh492rcd13ifvqdug","pricing_plan_id":"cebpf4jnsgd1na2vs0mg"},{"bike_id":"efad36af-8533-4c58-91a0-0e8fe6488851","system_id":"levelo_inurba_marseille","lat":43.286595,"lon":5.386795,"is_reserved":false,"is_disabled":false,"rental_uris":{"android":"levelo://app?vid=efad36af-8533-4c58-91a0-0e8fe6488851","ios":"levelo://app?vid=efad36af-8533-4c58-91a0-0e8fe6488851"},"vehicle_type_id":"4","last_reported":1722280013,"current_range_meters":5600,"station_id":"ce4bh492rcd13ifvqdug","pricing_plan_id":"cebpf4jnsgd1na2vs0mg"},{"bike_id":"b2036868-c483-4c87-b300-1d18f0a504ae","system_id":"levelo_inurba_marseille","lat":43.288497,"lon":5.393089,"is_reserved":false,"is_disabled":false,"rental_uris":{"android":"levelo://app?vid=b2036868-c483-4c87-b300-1d18f0a504ae","ios":"levelo://app?vid=b2036868-c483-4c87-b300-1d18f0a504ae"},"vehicle_type_id":"4","last_reported":1722280013,"current_range_meters":18800,"station_id":"ce4bh2p2rcd13ifvqdi0","pricing_plan_id":"cebpf4jnsgd1na2vs0mg"},{"bike_id":"30f24abb-a843-4571-aa18-df8148deb635","system_id":"levelo_inurba_marseille","lat":43.323464,"lon":5.406297,"is_reserved":false,"is_disabled":false,"rental_uris":{"android":"levelo://app?vid=30f24abb-a843-4571-aa18-df8148deb635","ios":"levelo://app?vid=30f24abb-a843-4571-aa18-df8148deb635"},"vehicle_type_id":"4","last_reported":1722280013,"current_range_meters":6400,"station_id":"ce4bhq92rcd13ifvqhjg","pricing_plan_id":"cebpf4jnsgd1na2vs0mg"},{"bike_id":"d7ee05f7-0a75-4a5d-837e-78ddf3a9b183","system_id":"levelo_inurba_marseille","lat":43.32341,"lon":5.40618,"is_reserved":false,"is_disabled":false,"rental_uris":{"android":"levelo://app?vid=d7ee05f7-0a75-4a5d-837e-78ddf3a9b183","ios":"levelo://app?vid=d7ee05f7-0a75-4a5d-837e-78ddf3a9b183"},"vehicle_type_id":"4","last_reported":1722280013,"current_range_meters":4800,"station_id":"ce4bhq92rcd13ifvqhjg","pricing_plan_id":"cebpf4jnsgd1na2vs0mg"},{"bike_id":"58915b66-2f44-4cc6-b049-bb0c6067e173","system_id":"levelo_inurba_marseille","lat":43.323464,"lon":5.406297,"is_reserved":false,"is_disabled":false,"rental_uris":{"android":"levelo://app?vid=58915b66-2f44-4cc6-b049-bb0c6067e173","ios":"levelo://app?vid=58915b66-2f44-4cc6-b049-bb0c6067e173"},"vehicle_type_id":"4","last_reported":1722280013,"current_range_meters":22000,"station_id":"ce4bhq92rcd13ifvqhjg","pricing_plan_id":"cebpf4jnsgd1na2vs0mg"},{"bike_id":"628359d5-8f4a-47c7-866b-5a9e1e6b9405","system_id":"levelo_inurba_marseille","lat":43.323464,"lon":5.406297,"is_reserved":false,"is_disabled":false,"rental_uris":{"android":"levelo://app?vid=628359d5-8f4a-47c7-866b-5a9e1e6b9405","ios":"levelo://app?vid=628359d5-8f4a-47c7-866b-5a9e1e6b9405"},"vehicle_type_id":"4","last_reported":1722280013,"current_range_meters":14000,"station_id":"ce4bhq92rcd13ifvqhjg","pricing_plan_id":"cebpf4jnsgd1na2vs0mg"},{"bike_id":"cc70dcab-4949-46d5-ba2d-a083eaea434f","system_id":"levelo_inurba_marseille","lat":43.28483,"lon":5.38407,"is_reserved":false,"is_disabled":false,"rental_uris":{"android":"levelo://app?vid=cc70dcab-4949-46d5-ba2d-a083eaea434f","ios":"levelo://app?vid=cc70dcab-4949-46d5-ba2d-a083eaea434f"},"vehicle_type_id":"4","last_reported":1722280013,"current_range_meters":1200,"station_id":"ce4bh512rcd13ifvqe3g","pricing_plan_id":"cebpf4jnsgd1na2vs0mg"},{"bike_id":"a8b12371-fcaa-472c-b1b4-512e2f224ddc","system_id":"levelo_inurba_marseille","lat":43.28478,"lon":5.38414,"is_reserved":false,"is_disabled":false,"rental_uris":{"android":"levelo://app?vid=a8b12371-fcaa-472c-b1b4-512e2f224ddc","ios":"levelo://app?vid=a8b12371-fcaa-472c-b1b4-512e2f224ddc"},