{"last_updated":1769700285,"ttl":60,"version":"2.2","data":{"bikes":[{"bike_id":"6edec20b-b6a1-4207-9fc9-e098766d978a","system_id":"levelo_inurba_marseille","lat":43.27616,"lon":5.36105,"is_reserved":false,"is_disabled":false,"rental_uris":{"android":"levelo://app?vid=6edec20b-b6a1-4207-9fc9-e098766d978a","ios":"levelo://app?vid=6edec20b-b6a1-4207-9fc9-e098766d978a"},"vehicle_type_id":"4","last_reported":1769700286,"current_range_meters":2800,"station_id":"ce4bgj92rcd13ifvqbe0","pricing_plan_id":"cebpf4jnsgd1na2vs0mg"},{"bike_id":"69a8705c-622c-4687-befc-0e95f406c55e","system_id":"levelo_inurba_marseille","lat":43.22575,"lon":5.41617,"is_reserved":false,"is_disabled":false,"rental_uris":{"android":"levelo://app?vid=69a8705c-622c-4687-befc-0e95f406c55e","ios":"levelo://app?vid=69a8705c-622c-4687-befc-0e95f406c55e"},"vehicle_type_id":"4","last_reported":1769700286,"current_range_meters":2800,"station_id":"st_d2o4gvlbi1j2169b742g","pricing_plan_id":"cebpf4jnsgd1na2vs0mg"},{"bike_id":"fa0512f2-4c2d-45ac-8456-0028f4c7b269","system_id":"levelo_inurba_marseille","lat":43.21746,"lon":5.34594,"is_reserved":false,"is_disabled":false,"rental_uris":{"android":"levelo://app?vid=fa0512f2-4c2d-45ac-8456-0028f4c7b269","ios":"levelo://app?vid=fa0512f2-4c2d-45ac-8456-0028f4c7b269"},"vehicle_type_id":"4","last_reported":1769700286,"current_range_meters":2800,"station_id":"","pricing_plan_id":"cebpf4jnsgd1na2vs0mg"},{"bike_id":"c00d1abe-f6f3-4677-9b5b-65f2d4348ca7","system_id":"levelo_inurba_marseille","lat":43.23208,"lon":5.35542,"is_reserved":false,"is_disabled":false,"rental_uris":{"android":"levelo://app?vid=c00d1abe-f6f3-4677-9b5b-65f2d4348ca7","ios":"levelo://app?vid=c00d1abe-f6f3-4677-9b5b-65f2d4348ca7"},"vehicle_type_id":"4","last_reported":1769700286,"current_range_meters":2800,"station_id":"ce4bhu92rcd13ifvqi70","pricing_plan_id":"cebpf4jnsgd1na2vs0mg"},{"bike_id":"039e619d-eddb-4fc9-84e0-1d927527a644","system_id":"levelo_inurba_marseille","lat":43.31113,"lon":5.37764,"is_reserved":false,"is_disabled":false,"rental_uris":{"android":"levelo://app?vid=039e619d-eddb-4fc9-84e0-1d927527a644","ios":"levelo://app?vid=039e619d-eddb-4fc9-84e0-1d927527a644"},"vehicle_type_id":"4","last_reported":1769700286,"current_range_meters":2800,"station_id":"ce4bgt92rcd13ifvqcg0","pricing_plan_id":"cebpf4jnsgd1na2vs0mg"},{"bike_id":"68c577a0-4834-449d-bc66-301ada495773","system_id":"levelo_inurba_marseille","lat":43.25921,"lon":5.40879,"is_reserved":false,"is_disabled":false,"rental_uris":{"android":"levelo://app?vid=68c577a0-4834-449d-bc66-301ada495773","ios":"levelo://app?vid=68c577a0-4834-449d-bc66-301ada495773"},"vehicle_type_id":"4","last_reported":1769700286,"current_range_meters":2800,"station_id":"ce4bhm92rcd13ifvqglg","pricing_plan_id":"cebpf4jnsgd1na2vs0mg"},{"bike_id":"8a50dd3f-0a74-4570-ab9c-f8761d1cbd4d","system_id":"levelo_inurba_marseille","lat":43.26566,"lon":5.40327,"is_reserved":false,"is_disabled":false,"rental_uris":{"android":"levelo://app?vid=8a50dd3f-0a74-4570-ab9c-f8761d1cbd4d","ios":"levelo://app?vid=8a50dd3f-0a74-4570-ab9c-f8761d1cbd4d"},"vehicle_type_id":"4","last_reported":1769700286,"current_range_meters":3200,"station_id":"ce4bhmp2rcd13ifvqgng","pricing_plan_id":"cebpf4jnsgd1na2vs0mg"},{"bike_id":"4bc51199-a3ee-4ecb-9580-99a8f9dac78b","system_id":"levelo_inurba_marseille","lat":43.31338,"lon":5.36685,"is_reserved":false,"is_disabled":false,"rental_uris":{"android":"levelo://app?vid=4bc51199-a3ee-4ecb-9580-99a8f9dac78b","ios":"levelo://app?vid=4bc51199-a3ee-4ecb-9580-99a8f9dac78b"},"vehicle_type_id":"4","last_reported":1769700286,"current_range_meters":3200,"station_id":"ce4bgr92rcd13ifvqc6g","pricing_plan_id":"cebpf4jnsgd1na2vs0mg"},{"bike_id":"91c846e3-774b-427a-a5ac-7b62ed8fa335","system_id":"levelo_inurba_marseille","lat":43.29019,"lon":5.3562,"is_reserved":false,"is_disabled":false,"rental_uris":{"android":"levelo://app?vid=91c846e3-774b-427a-a5ac-7b62ed8fa335","ios":"levelo://app?vid=91c846e3-774b-427a-a5ac-7b62ed8fa335"},"vehicle_type_id":"4","last_reported":1769700286,"current_range_meters":3200,"station_id":"ce4bhb92rcd13ifvqen0","pricing_plan_id":"cebpf4jnsgd1na2vs0mg"},{"bike_id":"797c4ce9-5ffc-4e41-899c-303e33271046","system_id":"levelo_inurba_marseille","lat":43.28847,"lon":5.39314,"is_reserved":false,"is_disabled":false,"rental_uris":{"android":"levelo://app?vid=797c4ce9-5ffc-4e41-899c-303e33271046","ios":"levelo://app?vid=797c4ce9-5ffc-4e41-899c-303e33271046"},"vehicle_type_id":"4","last_reported":1769700286,"current_range_meters":3200,"station_id":"ce4bh2p2rcd13ifvqdi0","pricing_plan_id":"cebpf4jnsgd1na2vs0mg"},{"bike_id":"2bd1f705-db9c-4955-a5c4-956b49586862","system_id":"levelo_inurba_marseille","lat":43.3093,"lon":5.40151,"is_reserved":false,"is_disabled":false,"rental_uris":{"android":"levelo://app?vid=2bd1f705-db9c-4955-a5c4-956b49586862","ios":"levelo://app?vid=2bd1f705-db9c-4955-a5c4-956b49586862"},"vehicle_type_id":"4","last_reported":1769700286,"current_range_meters":3200,"station_id":"ce4bgvp2rcd13ifvqct0","pricing_plan_id":"cebpf4jnsgd1na2vs0mg"},{"bike_id":"9618079e-2ff2-4c22-ba09-0e64f5a7d76f","system_id":"levelo_inurba_marseille","lat":43.31325,"lon":5.36876,"is_reserved":false,"is_disabled":false,"rental_uris":{"android":"levelo://app?vid=9618079e-2ff2-4c22-ba09-0e64f5a7d76f","ios":"levelo://app?vid=9618079e-2ff2-4c22-ba09-0e64f5a7d76f"},"vehicle_type_id":"4","last_reported":1769700286,"current_range_meters":3200,"station_id":"","pricing_plan_id":"cebpf4jnsgd1na2vs0mg"},{"bike_id":"c8a3924b-961d-462f-beaa-3323a63d317a","system_id":"levelo_inurba_marseille","lat":43.28005,"lon":5.40003,"is_reserved":false,"is_disabled":false,"rental_uris":{"android":"levelo://app?vid=c8a3924b-961d-462f-beaa-3323a63d317a","ios":"levelo://app?vid=c8a3924b-961d-462f-beaa-3323a63d317a"},"vehicle_type_id":"4","last_reported":1769700286,"current_range_meters":3200,"station_id":"ce4bho92rcd13ifvqh4g","pricing_plan_id":"cebpf4jnsgd1na2vs0mg"},{"bike_id":"41c91ad2-73b9-4699-b23d-1b5a65edd284","system_id":"levelo_inurba_marseille","lat":43.33536,"lon":5.37462,"is_reserved":false,"is_disabled":false,"rental_uris":{"android":"levelo://app?vid=41c91ad2-73b9-4699-b23d-1b5a65edd284","ios":"levelo://app?vid=41c91ad2-73b9-4699-b23d-1b5a65edd284"},"vehicle_type_id":"4","last_reported":1769700286,"current_range_meters":3200,"station_id":"st_d46tts09ee8s73dlu43g","pricing_plan_id":"cebpf4jnsgd1na2vs0mg"},{"bike_id":"854f742b-89d7-4a8d-b204-444ed6335ed9","system_id":"levelo_inurba_marseille","lat":43.28466,"lon":5.35887,"is_reserved":false,"is_disabled":false,"rental_uris":{"android":"levelo://app?vid=854f742b-89d7-4a8d-b204-444ed6335ed9","ios":"levelo://app?vid=854f742b-89d7-4a8d-b204-444ed6335ed9"},"vehicle_type_id":"4","last_reported":1769700286,"current_range_meters":3200,"station_id":"ce4bhah2rcd13ifvqei0","pricing_plan_id":"cebpf4jnsgd1na2vs0mg"},{"bike_id":"5db037fe-3537-4881-a26d-8c290cdead0b","system_id":"levelo_inurba_marseille","lat":43.295568,"lon":5.422925,"is_reserved":false,"is_disabled":false,"rental_uris":{"android":"levelo://app?vid=5db037fe-3537-4881-a26d-8c290cdead0b","ios":"levelo://app?vid=5db037fe-3537-4881-a26d-8c290cdead0b"},"vehicle_type_id":"4","last_reported":1769700286,"current_range_meters":3200,"station_id":"ce4bhph2rcd13ifvqhdg","pricing_plan_id":"cebpf4jnsgd1na2vs0mg"},{"bike_id":"a8f638c1-c685-4e3a-adf7-3d7a1bc3acf7","system_id":"levelo_inurba_marseille","lat":43.23152,"lon":5.43733,"is_reserved":false,"is_disabled":false,"rental_uris":{"android":"levelo://app?vid=a8f638c1-c685-4e3a-adf7-3d7a1bc3acf7","ios":"levelo://app?vid=a8f638c1-c685-4e3a-adf7-3d7a1bc3acf7"},"vehicle_type_id":"4","last_reported":1769700286,"current_range_meters":3200,"station_id":"ce4bhmp2rcd13ifvqgog","pricing_plan_id":"cebpf4jnsgd1na2vs0mg"},{"bike_id":"b45c8d2c-8d88-4cef-8b61-a19c2da1c61e","system_id":"levelo_inurba_marseille","lat":43.33545,"lon":5.3746,"is_reserved":false,"is_disabled":false,"rental_uris":{"android":"levelo://app?vid=b45c8d2c-8d88-4cef-8b61-a19c2da1c61e","ios":"levelo://app?vid=b45c8d2c-8d88-4cef-8b61-a19c2da1c61e"},"vehicle_type_id":"4","last_reported":1769700286,"current_range_meters":3600,"station_id":"","pricing_plan_id":"cebpf4jnsgd1na2vs0mg"},{"bike_id":"3f659a9e-22cf-4d2c-b5b4-44e15d4415d9","system_id":"levelo_inurba_marseille","lat":43.31877,"lon":5.39992,"is_reserved":false,"is_disabled":false,"rental_uris":{"android":"levelo://app?vid=3f659a9e-22cf-4d2c-b5b4-44e15d4415d9","ios":"levelo://app?vid=3f659a9e-22cf-4d2c-b5b4-44e15d4415d9"},"vehicle_type_id":"4","last_reported":1769700286,"current_range_meters":3600,"station_id":"","pricing_plan_id":"cebpf4jnsgd1na2vs0mg"},{"bike_id":"3e6599b3-80f5-4cb4-a947-9865a5671465","system_id":"levelo_inurba_marseille","lat":43.27621,"lon":5.36092,"is_reserved":false,"is_disabled":false,"rental_uris":{"android":"levelo://app?vid=3e6599b3-80f5-4cb4-a947-9865a5671465","ios":"levelo://app?vid=3e6599b3-80f5-4cb4-a947-9865a5671465"},"vehicle_type_id":"4","last_reported":1769700286,"current_range_meters":3600,"station_id":"ce4bgj92rcd13ifvqbe0","pricing_plan_id":"cebpf4jnsgd1na2vs0mg"},{"bike_id":"0393f1bf-344f-45c8-9042-27b39d04c542","system_id":"levelo_inurba_marseille","lat":43.29011,"lon":5.37816,"is_reserved":false,"is_disabled":false,"rental_uris":{"android":"levelo://app?vid=0393f1bf-344f-45c8-9042-27b39d04c542","ios":"levelo://app?vid=0393f1bf-344f-45c8-9042-27b39d04c542"},"vehicle_type_id":"4","last_reported":1769700286,"current_range_meters":3600,"station_id":"ce4bh9p2rcd13ifvqed0","pricing_plan_id":"cebpf4jnsgd1na2vs0mg"},{"bike_id":"af3af297-e969-4701-9c47-9f71b1ddd644","system_id":"levelo_inurba_marseille","lat":43.29705,"lon":5.37434,"is_reserved":false,"is_disabled":false,"rental_uris":{"android":"levelo://app?vid=af3af297-e969-4701-9c47-9f71b1ddd644","ios":"levelo://app?vid=af3af297-e969-4701-9c47-9f71b1ddd644"},"vehicle_type_id":"4","last_reported":1769700286,"current_range_meters":3600,"station_id":"","pricing_plan_id":"cebpf4jnsgd1na2vs0mg"},{"bike_id":"0e17a4ec-0e71-4058-9a60-773dbed12374","system_id":"levelo_inurba_marseille","lat":43.27624,"lon":5.3611,"is_reserved":false,"is_disabled":false,"rental_uris":{"android":"levelo://app?vid=0e17a4ec-0e71-4058-9a60-773dbed12374","ios":"levelo://app?vid=0e17a4ec-0e71-4058-9a60-773dbed12374"},"vehicle_type_id":"4","last_reported":1769700286,"current_range_meters":3600,"station_id":"ce4bgj92rcd13ifvqbe0","pricing_plan_id":"cebpf4jnsgd1na2vs0mg"},{"bike_id":"9328d8d0-a319-4fb2-9d4a-db2606a87040","system_id":"levelo_inurba_marseille","lat":43.24172,"lon":5.36402,"is_reserved":false,"is_disabled":false,"rental_uris":{"android":"levelo://app?vid=9328d8d0-a319-4fb2-9d4a-db2606a87040","ios":"levelo://app?vid=9328d8d0-a319-4fb2-9d4a-db2606a87040"},"vehicle_type_id":"4","last_reported":1769700286,"current_range_meters":3600,"station_id":"cpo36qri1sfpv3e86is0","pricing_plan_id":"cebpf4jnsgd1na2vs0mg"},{"bike_id":"7ccdc7ac-d32c-4a46-94c3-0ea21547aa92","system_id":"levelo_inurba_marseille","lat":43.32051,"lon":5.41525,"is_reserved":false,"is_disabled":false,"rental_uris":{"android":"levelo://app?vid=7ccdc7ac-d32c-4a46-94c3-0ea21547aa92","ios":"levelo://app?vid=7ccdc7ac-d32c-4a46-94c3-0ea21547aa92"},"vehicle_type_id":"4","last_reported":1769700286,"current_range_meters":3600,"station_id":"ce4bhq92rcd13ifvqhkg","pricing_plan_id":"cebpf4jnsgd1na2vs0mg"},{"bike_id":"53203b3a-ddca-4e30-ba41-2f38cd329b0f","system_id":"levelo_inurba_marseille","lat":43.25718,"lon":5.41112,"is_reserved":false,"is_disabled":false,"rental_uris":{"android":"levelo://app?vid=53203b3a-ddca-4e30-ba41-2f38cd329b0f","ios":"levelo://app?vid=53203b3a-ddca-4e30-ba41-2f38cd329b0f"},"vehicle_type_id":"4","last_reported":1769700286,"current_range_meters":3600,"station_id":"ce4bhkp2rcd13ifvqgd0","pricing_plan_id":"cebpf4jnsgd1na2vs0mg"},{"bike_id":"41b0b63a-6123-4c05-b089-3c2aa5c7fd1d","system_id":"levelo_inurba_marseille","lat":43.26941,"lon":5.40256,"is_reserved":false,"is_disabled":false,"rental_uris":{"android":"levelo://app?vid=41b0b63a-6123-4c05-b089-3c2aa5c7fd1d","ios":"levelo://app?vid=41b0b63a-6123-4c05-b089-3c2aa5c7fd1d"},"vehicle_type_id":"4","last_reported":1769700286,"current_range_meters":3600,"station_id":"cjm6bp8fraef2m0cb0m0","pricing_plan_id":"cebpf4jnsgd1na2vs0mg"},{"bike_id":"ad760db1-c08e-4218-880f-506e66682432","system_id":"levelo_inurba_marseille","lat":43.29251,"lon":5.37931,"is_reserved":false,"is_disabled":false,"rental_uris":{"android":"levelo://app?vid=ad760db1-c08e-4218-880f-506e66682432","ios":"levelo://app?vid=ad760db1-c08e-4218-880f-506e66682432"},"vehicle_type_id":"4","last_reported":1769700286,"current_range_meters":4000,"station_id":"","pricing_plan_id":"cebpf4jnsgd1na2vs0mg"},{"bike_id":"6b267d8e-406c-4ae5-9bcc-ac4ea68a51d2","system_id":"levelo_inurba_marseille","lat":43.26946,"lon":5.3863,"is_reserved":false,"is_disabled":false,"rental_uris":{"android":"levelo://app?vid=6b267d8e-406c-4ae5-9bcc-ac4ea68a51d2","ios":"levelo://app?vid=6b267d8e-406c-4ae5-9bcc-ac4ea68a51d2"},"vehicle_type_id":"4","last_reported":1769700286,"current_range_meters":4000,"station_id":"ce4bhh92rcd13ifvqfh0","pricing_plan_id":"cebpf4jnsgd1na2vs0mg"},{"bike_id":"f0e6741a-33da-443b-b21c-75235985ecad","system_id":"levelo_inurba_marseille","lat":43.27903,"lon":5.39625,"is_reserved":false,"is_disabled":false,"rental_uris":{"android":"levelo://app?vid=f0e6741a-33da-443b-b21c-75235985ecad","ios":"levelo://app?vid=f0e6741a-33da-443b-b21c-75235985ecad"},"vehicle_type_id":"4","last_reported":1769700286,"current_range_meters":4000,"station_id":"ce4bhf92rcd13ifvqf40","pricing_plan_id":"cebpf4jnsgd1na2vs0mg"},{"bike_id":"8b6f74d6-6a04-44c0-ad91-33076c2c042d","system_id":"levelo_inurba_marseille","lat":43.30778,"lon":5.37658,"is_reserved":false,"is_disabled":false,"rental_uris":{"android":"levelo://app?vid=8b6f74d6-6a04-44c0-ad91-33076c2c042d","ios":"levelo://app?vid=8b6f74d6-6a04-44c0-ad91-33076c2c042d"},"vehicle_type_id":"4","last_reported":1769700286,"current_range_meters":4000,"station_id":"ce4bgv92rcd13ifvqcq0","pricing_plan_id":"cebpf4jnsgd1na2vs0mg"},{"bike_id":"db53255f-8972-47d0-b519-f5e6bd233c69","system_id":"levelo_inurba_marseille","lat":43.28154,"lon":5.42623,"is_reserved":false,"is_disabled":false,"rental_uris":{"android":"levelo://app?vid=db53255f-8972-47d0-b519-f5e6bd233c69","ios":"levelo://app?vid=db53255f-8972-47d0-b519-f5e6bd233c69"},"vehicle_type_id":"4","last_reported":1769700286,"current_range_meters":4000,"station_id":"ce4bhnh2rcd13ifvqgug","pricing_plan_id":"cebpf4jnsgd1na2vs0mg"},{"bike_id":"5d8151f9-53a8-4991-93ea-d51fe257a47d","system_id":"levelo_inurba_marseille","lat":43.29263,"lon":5.40896,"is_reserved":false,"is_disabled":false,"rental_uris":{"android":"levelo://app?vid=5d8151f9-53a8-4991-93ea-d51fe257a47d","ios":"levelo://app?vid=5d8151f9-53a8-4991-93ea-d51fe257a47d"},"vehicle_type_id":"4","last_reported":1769700286,"current_range_meters":4000,"station_id":"ce4bh192rcd13ifvqdc0","pricing_plan_id":"cebpf4jnsgd1na2vs0mg"},{"bike_id":"9664ab50-fa54-4c04-9969-f7cb8bc98518","system_id":"levelo_inurba_marseille","lat":43.23967,"lon":5.36633,"is_reserved":false,"is_disabled":false,"rental_uris":{"android":"levelo://app?vid=9664ab50-fa54-4c04-9969-f7cb8bc98518","ios":"levelo://app?vid=9664ab50-fa54-4c04-9969-f7cb8bc98518"},"vehicle_type_id":"4","last_reported":1769700286,"current_range_meters":4000,"station_id":"ce4bhi12rcd13ifvqfp0","pricing_plan_id":"cebpf4jnsgd1na2vs0mg"},{"bike_id":"562d9b01-fd11-4fe6-b340-f3ad3f460522","system_id":"levelo_inurba_marseille","lat":43.29291,"lon":5.37186,"is_reserved":false,"is_disabled":false,"rental_uris":{"android":"levelo://app?vid=562d9b01-fd11-4fe6-b340-f3ad3f460522","ios":"levelo://app?vid=562d9b01-fd11-4fe6-b340-f3ad3f460522"},"vehicle_type_id":"4","last_reported":1769700286,"current_range_meters":4400,"station_id":"ce4bgh92rcd13ifvqb40","pricing_plan_id":"cebpf4jnsgd1na2vs0mg"},{"bike_id":"69bd0136-11db-4333-8ad3-8e5d55c1133c","system_id":"levelo_inurba_marseille","lat":43.26361,"lon":5.40146,"is_reserved":false,"is_disabled":false,"rental_uris":{"android":"levelo://app?vid=69bd0136-11db-4333-8ad3-8e5d55c1133c","ios":"levelo://app?vid=69bd0136-11db-4333-8ad3-8e5d55c1133c"},"vehicle_type_id":"4","last_reported":1769700286,"current_range_meters":4400,"station_id":"","pricing_plan_id":"cebpf4jnsgd1na2vs0mg"},{"bike_id":"e96b926e-85ff-4bdd-b6b9-46d104f489aa","system_id":"levelo_inurba_marseille","lat":43.29275,"lon":5.37629,"is_reserved":false,"is_disabled":false,"rental_uris":{"android":"levelo://app?vid=e96b926e-85ff-4bdd-b6b9-46d104f489aa","ios":"levelo://app?vid=e96b926e-85ff-4bdd-b6b9-46d104f489aa"},"vehicle_type_id":"4","last_reported":1769700286,"current_range_meters":4400,"station_id":"ce4bgi12rcd13ifvqb80","pricing_plan_id":"cebpf4jnsgd1na2vs0mg"},{"bike_id":"01eff4d6-445e-467a-ad8e-fbe9c1187724","system_id":"levelo_inurba_marseille","lat":43.269598,"lon":5.386228,"is_reserved":false,"is_disabled":false,"rental_uris":{"android":"levelo://app?vid=01eff4d6-445e-467a-ad8e-fbe9c1187724","ios":"levelo://app?vid=01eff4d6-445e-467a-ad8e-fbe9c1187724"},"vehicle_type_id":"4","last_reported":1769700286,"current_range_meters":4400,"station_id":"ce4bhh92rcd13ifvqfh0","pricing_plan_id":"cebpf4jnsgd1na2vs0mg"},{"bike_id":"65622596-03a1-4974-be48-8773b3d49d16","system_id":"levelo_inurba_marseille","lat":43.255798,"lon":5.382254,"is_reserved":false,"is_disabled":false,"rental_uris":{"android":"levelo://app?vid=65622596-03a1-4974-be48-8773b3d49d16","ios":"levelo://app?vid=65622596-03a1-4974-be48-8773b3d49d16"},"vehicle_type_id":"4","last_reported":1769700286,"current_range_meters":4400,"station_id":"ce4bhih2rcd13ifvqfs0","pricing_plan_id":"cebpf4jnsgd1na2vs0mg"},{"bike_id":"52c6363b-7413-4b9d-a19e-fd2102af5421","system_id":"levelo_inurba_marseille","lat":43.26564,"lon":5.40329,"is_reserved":false,"is_disabled":false,"rental_uris":{"android":"levelo://app?vid=52c6363b-7413-4b9d-a19e-fd2102af5421","ios":"levelo://app?vid=52c6363b-7413-4b9d-a19e-fd2102af5421"},"vehicle_type_id":"4","last_reported":1769700286,"current_range_meters":4400,"station_id":"ce4bhmp2rcd13ifvqgng","pricing_plan_id":"cebpf4jnsgd1na2vs0mg"},{"bike_id":"ec92a3d7-0aaf-40cf-9513-2fb7d35cc0c4","system_id":"levelo_inurba_marseille","lat":43.23055,"lon":5.35498,"is_reserved":false,"is_disabled":false,"rental_uris":{"android":"levelo://app?vid=ec92a3d7-0aaf-40cf-9513-2fb7d35cc0c4","ios":"levelo://app?vid=ec92a3d7-0aaf-40cf-9513-2fb7d35cc0c4"},"vehicle_type_id":"4","last_reported":1769700286,"current_range_meters":4400,"station_id":"cpo3342slgdg3j2ifvpg","pricing_plan_id":"cebpf4jnsgd1na2vs0mg"},{"bike_id":"94e563ee-2d52-4485-9749-42362e494182","system_id":"levelo_inurba_marseille","lat":43.22924,"lon":5.35379,"is_reserved":false,"is_disabled":false,"rental_uris":{"android":"levelo://app?vid=94e563ee-2d52-4485-9749-42362e494182","ios":"levelo://app?vid=94e563ee-2d52-4485-9749-42362e494182"},"vehicle_type_id":"4","last_reported":1769700286,"current_range_meters":4400,"station_id":"cpo3532slgdg3j2ikp40","pricing_plan_id":"cebpf4jnsgd1na2vs0mg"},{"bike_id":"3eec611c-d8cb-4b54-9748-ae62ab9ddb70","system_id":"levelo_inurba_marseille","lat":43.22932,"lon":5.35376,"is_reserved":false,"is_disabled":false,"rental_uris":{"android":"levelo://app?vid=3eec611c-d8cb-4b54-9748-ae62ab9ddb70","ios":"levelo://app?vid=3eec611c-d8cb-4b54-9748-ae62ab9ddb70"},"vehicle_type_id":"4","last_reported":1769700286,"current_range_meters":4400,"station_id":"cpo3532slgdg3j2ikp40","pricing_plan_id":"cebpf4jnsgd1na2vs0mg"},{"bike_id":"adcf69d8-1927-438e-b914-5f915ba575b2","system_id":"levelo_inurba_marseille","lat":43.25577,"lon":5.38237,"is_reserved":false,"is_disabled":false,"rental_uris":{"android":"levelo://app?vid=adcf69d8-1927-438e-b914-5f915ba575b2","ios":"levelo://app?vid=adcf69d8-1927-438e-b914-5f915ba575b2"},"vehicle_type_id":"4","last_reported":1769700286,"current_range_meters":4400,"station_id":"ce4bhih2rcd13ifvqfs0","pricing_plan_id":"cebpf4jnsgd1na2vs0mg"},{"bike_id":"22270f0b-502a-442c-b94e-561aca0c55c4","system_id":"levelo_inurba_marseille","lat":43.28576,"lon":5.39475,"is_reserved":false,"is_disabled":false,"rental_uris":{"android":"levelo://app?vid=22270f0b-502a-442c-b94e-561aca0c55c4","ios":"levelo://app?vid=22270f0b-502a-442c-b94e-561aca0c55c4"},"vehicle_type_id":"4","last_reported":1769700286,"current_range_meters":4400,"station_id":"ce4bh292rcd13ifvqdg0","pricing_plan_id":"cebpf4jnsgd1na2vs0mg"},{"bike_id":"173ab4de-d4ca-4cdb-a11e-273ba50d301a","system_id":"levelo_inurba_marseille","lat":43.27026,"lon":5.40757,"is_reserved":false,"is_disabled":false,"rental_uris":{"android":"levelo://app?vid=173ab4de-d4ca-4cdb-a11e-273ba50d301a","ios":"levelo://app?vid=173ab4de-d4ca-4cdb-a11e-273ba50d301a"},"vehicle_type_id":"4","last_reported":1769700286,"current_range_meters":4800,"station_id":"","pricing_plan_id":"cebpf4jnsgd1na2vs0mg"},{"bike_id":"2ce420f7-8d92-4b24-bd16-786d846f4c0d","system_id":"levelo_inurba_marseille","lat":43.23794,"lon":5.36634,"is_reserved":false,"is_disabled":false,"rental_uris":{"android":"levelo://app?vid=2ce420f7-8d92-4b24-bd16-786d846f4c0d","ios":"levelo://app?vid=2ce420f7-8d92-4b24-bd16-786d846f4c0d"},"vehicle_type_id":"4","last_reported":1769700286,"current_range_meters":4800,"station_id":"st_d3nk18o9ro0c73en2l3g","pricing_plan_id":"cebpf4jnsgd1na2vs0mg"},{"bike_id":"d1bb4cba-cd88-4d47-97f0-3f4bc8c8c8b2","system_id":"levelo_inurba_marseille","lat":43.3117,"lon":5.387153,"is_reserved":false,"is_disabled":false,"rental_uris":{"android":"levelo://app?vid=d1bb4cba-cd88-4d47-97f0-3f4bc8c8c8b2","ios":"levelo://app?vid=d1bb4cba-cd88-4d47-97f0-3f4bc8c8c8b2"},"vehicle_type_id":"4","last_reported":1769700286,"current_range_meters":4800,"station_id":"ce4bgv12rcd13ifvqcp0","pricing_plan_id":"cebpf4jnsgd1na2vs0mg"},{"bike_id":"96ddcdc4-3d11-47dc-91b3-e1897ae67898","system_id":"levelo_inurba_marseille","lat":43.29558,"lon":5.42261,"is_reserved":false,"is_disabled":false,"rental_uris":{"android":"levelo://app?vid=96ddcdc4-3d11-47dc-91b3-e1897ae67898","ios":"levelo://app?vid=96ddcdc4-3d11-47dc-91b3-e1897ae67898"},"vehicle_type_id":"4","last_reported":1769700286,"current_range_meters":4800,"station_id":"ce4bhph2rcd13ifvqhdg","pricing_plan_id":"cebpf4jnsgd1na2vs0mg"},{"bike_id":"c5e38a77-c9c3-4a83-b039-15a42e87c6ba","system_id":"levelo_inurba_marseille","lat":43.26199,"lon":5.37918,"is_reserved":false,"is_disabled":false,"rental_uris":{"android":"levelo://app?vid=c5e38a77-c9c3-4a83-b039-15a42e87c6ba","ios":"levelo://app?vid=c5e38a77-c9c3-4a83-b039-15a42e87c6ba"},"vehicle_type_id":"4","last_reported":1769700286,"current_range_meters":4800,"station_id":"ce4bhjp2rcd13ifvqg90","pricing_plan_id":"cebpf4jnsgd1na2vs0mg"},{"bike_id":"cec66a05-26cf-4271-b39f-d60a468d3a29","system_id":"levelo_inurba_marseille","lat":43.26196,"lon":5.37441,"is_reserved":false,"is_disabled":false,"rental_uris":{"android":"levelo://app?vid=cec66a05-26cf-4271-b39f-d60a468d3a29","ios":"levelo://app?vid=cec66a05-26cf-4271-b39f-d60a468d3a29"},"vehicle_type_id":"4","last_reported":1769700286,"current_range_meters":4800,"station_id":"ce4bhgp2rcd13ifvqfc0","pricing_plan_id":"cebpf4jnsgd1na2vs0mg"},{"bike_id":"fe999284-8f16-4d23-9dd2-cc860bec009a","system_id":"levelo_inurba_marseille","lat":43.30066,"lon":5.36975,"is_reserved":false,"is_disabled":false,"rental_uris":{"android":"levelo://app?vid=fe999284-8f16-4d23-9dd2-cc860bec009a","ios":"levelo://app?vid=fe999284-8f16-4d23-9dd2-cc860bec009a"},"vehicle_type_id":"4","last_reported":1769700286,"current_range_meters":4800,"station_id":"ce4bgop2rcd13ifvqc1g","pricing_plan_id":"cebpf4jnsgd1na2vs0mg"},{"bike_id":"4ca4f6bd-e228-45f4-840f-4090aba6d20d","system_id":"levelo_inurba_marseille","lat":43.24409,"lon":5.3703,"is_reserved":false,"is_disabled":true,"rental_uris":{"android":"levelo://app?vid=4ca4f6bd-e228-45f4-840f-4090aba6d20d","ios":"levelo://app?vid=4ca4f6bd-e228-45f4-840f-4090aba6d20d"},"vehicle_type_id":"4","last_reported":1769700286,"current_range_meters":4800,"station_id":"ce4bhhh2rcd13ifvqfk0","pricing_plan_id":"cebpf4jnsgd1na2vs0mg"},{"bike_id":"465c0a07-9b2c-463d-a28f-fb29e821c731","system_id":"levelo_inurba_marseille","lat":43.30282,"lon":5.38634,"is_reserved":false,"is_disabled":false,"rental_uris":{"android":"levelo://app?vid=465c0a07-9b2c-463d-a28f-fb29e821c731","ios":"levelo://app?vid=465c0a07-9b2c-463d-a28f-fb29e821c731"},"vehicle_type_id":"4","last_reported":1769700286,"current_range_meters":4800,"station_id":"","pricing_plan_id":"cebpf4jnsgd1na2vs0mg"},{"bike_id":"db91af1c-8610-46d2-8811-cba210a8ff4f","system_id":"levelo_inurba_marseille","lat":43.33282,"lon":5.37956,"is_reserved":false,"is_disabled":false,"rental_uris":{"android":"levelo://app?vid=db91af1c-8610-46d2-8811-cba210a8ff4f","ios":"levelo://app?vid=db91af1c-8610-46d2-8811-cba210a8ff4f"},"vehicle_type_id":"4","last_reported":1769700286,"current_range_meters":4800,"station_id":"","pricing_plan_id":"cebpf4jnsgd1na2vs0mg"},{"bike_id":"a2bc0954-7215-4623-b71d-ee007e3bcb1b","system_id":"levelo_inurba_marseille","lat":43.29381,"lon":5.37868,"is_reserved":false,"is_disabled":false,"rental_uris":{"android":"levelo://app?vid=a2bc0954-7215-4623-b71d-ee007e3bcb1b","ios":"levelo://app?vid=a2bc0954-7215-4623-b71d-ee007e3bcb1b"},"vehicle_type_id":"4","last_reported":1769700286,"current_range_meters":4800,"station_id":"ce4bgjh2rcd13ifvqbf0","pricing_plan_id":"cebpf4jnsgd1na2vs0mg"},{"bike_id":"49a5d1f5-4461-452f-a2bc-59b7d3ee719c","system_id":"levelo_inurba_marseille","lat":43.264986,"lon":5.395391,"is_reserved":false,"is_disabled":false,"rental_uris":{"android":"levelo://app?vid=49a5d1f5-4461-452f-a2bc-59b7d3ee719c","ios":"levelo://app?vid=49a5d1f5-4461-452f-a2bc-59b7d3ee719c"},"vehicle_type_id":"4","last_reported":1769700286,"current_range_meters":5600,"station_id":"ce4bhi12rcd13ifvqfq0","pricing_plan_id":"cebpf4jnsgd1na2vs0mg"},{"bike_id":"f2e56fcd-53d1-4906-836f-9a276c836675","system_id":"levelo_inurba_marseille","lat":43.260615,"lon":5.393987,"is_reserved":false,"is_disabled":false,"rental_uris":{"android":"levelo://app?vid=f2e56fcd-53d1-4906-836f-9a276c836675","ios":"levelo://app?vid=f2e56fcd-53d1-4906-836f-9a276c836675"},"vehicle_type_id":"4","last_reported":1769700286,"current_range_meters":5600,"station_id":"ce4bhh92rcd13ifvqfj0","pricing_plan_id":"cebpf4jnsgd1na2vs0mg"},{"bike_id":"703bc4e3-7d6c-4dde-a7fd-72c98ff03600","system_id":"levelo_inurba_marseille","lat":43.2804,"lon":5.36945,"is_reserved":false,"is_disabled":false,"rental_uris":{"android":"levelo://app?vid=703bc4e3-7d6c-4dde-a7fd-72c98ff03600","ios":"levelo://app?vid=703bc4e3-7d6c-4dde-a7fd-72c98ff03600"},"vehicle_type_id":"4","last_reported":1769700286,"current_range_meters":5600,"station_id":"ce4bha12rcd13ifvqef0","pricing_plan_id":"cebpf4jnsgd1na2vs0mg"},{"bike_id":"2091fd8b-82ef-4338-9ed3-42b40b6b35f0","system_id":"levelo_inurba_marseille","lat":43.30379,"lon":5.38055,"is_reserved":false,"is_disabled":false,"rental_uris":{"android":"levelo://app?vid=2091fd8b-82ef-4338-9ed3-42b40b6b35f0","ios":"levelo://app?vid=2091fd8b-82ef-4338-9ed3-42b40b6b35f0"},"vehicle_type_id":"4","last_reported":1769700286,"current_range_meters":5600,"station_id":"","pricing_plan_id":"cebpf4jnsgd1na2vs0mg"},{"bike_id":"b302b980-bc12-4ab3-af5b-a555e1671b29","system_id":"levelo_inurba_marseille","lat":43.31377,"lon":5.38487,"is_reserved":false,"is_disabled":false,"rental_uris":{"android":"levelo://app?vid=b302b980-bc12-4ab3-af5b-a555e1671b29","ios":"levelo://app?vid=b302b980-bc12-4ab3-af5b-a555e1671b29"},"vehicle_type_id":"4","last_reported":1769700286,"current_range_meters":5600,"station_id":"ce4bgt92rcd13ifvqcf0","pricing_plan_id":"cebpf4jnsgd1na2vs0mg"},{"bike_id":"6455bc49-9758-4b25-9511-aee5d974f951","system_id":"levelo_inurba_marseille","lat":43.265576,"lon":5.372864,"is_reserved":false,"is_disabled":false,"rental_uris":{"android":"levelo://app?vid=6455bc49-9758-4b25-9511-aee5d974f951","ios":"levelo://app?vid=6455bc49-9758-4b25-9511-aee5d974f951"},"vehicle_type_id":"4","last_reported":1769700286,"current_range_meters":5600,"station_id":"ce4bhg12rcd13ifvqf70","pricing_plan_id":"cebpf4jnsgd1na2vs0mg"},{"bike_id":"220b3d55-fc4f-4dba-98c1-e5f4dced2541","system_id":"levelo_inurba_marseille","lat":43.26551,"lon":5.37286,"is_reserved":false,"is_disabled":false,"rental_uris":{"android":"levelo://app?vid=220b3d55-fc4f-4dba-98c1-e5f4dced2541","ios":"levelo://app?vid=220b3d55-fc4f-4dba-98c1-e5f4dced2541"},"vehicle_type_id":"4","last_reported":1769700286,"current_range_meters":5600,"station_id":"ce4bhg12rcd13ifvqf70","pricing_plan_id":"cebpf4jnsgd1na2vs0mg"},{"bike_id":"aa2b08d0-149b-4d26-b64d-eb7948ed3e89","system_id":"levelo_inurba_marseille","lat":43.2456,"lon":5.39512,"is_reserved":false,"is_disabled":false,"rental_uris":{"android":"levelo://app?vid=aa2b08d0-149b-4d26-b64d-eb7948ed3e89","ios":"levelo://app?vid=aa2b08d0-149b-4d26-b64d-eb7948ed3e89"},"vehicle_type_id":"4","last_reported":1769700286,"current_range_meters":5600,"station_id":"ce4bhlp2rcd13ifvqgjg","pricing_plan_id":"cebpf4jnsgd1na2vs0mg"},{"bike_id":"60ebce89-9b49-41d8-b1d5-1fdb022bac99","system_id":"levelo_inurba_marseille","lat":43.33734,"lon":5.37482,"is_reserved":false,"is_disabled":false,"rental_uris":{"android":"levelo://app?vid=60ebce89-9b49-41d8-b1d5-1fdb022bac99","ios":"levelo://app?vid=60ebce89-9b49-41d8-b1d5-1fdb022bac99"},"vehicle_type_id":"4","last_reported":1769700286,"current_range_meters":6000,"station_id":"","pricing_plan_id":"cebpf4jnsgd1na2vs0mg"},{"bike_id":"be7a4d7e-1984-4b23-8b92-0f9bbe591f55","system_id":"levelo_inurba_marseille","lat":43.28878,"lon":5.42512,"is_reserved":false,"is_disabled":false,"rental_uris":{"android":"levelo://app?vid=be7a4d7e-1984-4b23-8b92-0f9bbe591f55","ios":"levelo://app?vid=be7a4d7e-1984-4b23-8b92-0f9bbe591f55"},"vehicle_type_id":"4","last_reported":1769700286,"current_range_meters":6000,"station_id":"st_d3b462108ojc7389ooeg","pricing_plan_id":"cebpf4jnsgd1na2vs0mg"},{"bike_id":"2a017501-5868-48ae-999c-1e4fbfd95aa9","system_id":"levelo_inurba_marseille","lat":43.28039,"lon":5.36945,"is_reserved":false,"is_disabled":false,"rental_uris":{"android":"levelo://app?vid=2a017501-5868-48ae-999c-1e4fbfd95aa9","ios":"levelo://app?vid=2a017501-5868-48ae-999c-1e4fbfd95aa9"},"vehicle_type_id":"4","last_reported":1769700286,"current_range_meters":6000,"station_id":"ce4bha12rcd13ifvqef0","pricing_plan_id":"cebpf4jnsgd1na2vs0mg"},{"bike_id":"85b1b1e1-c458-4711-86a6-2ddb2584b733","system_id":"levelo_inurba_marseille","lat":43.335454,"lon":5.374686,"is_reserved":false,"is_disabled":false,"rental_uris":{"android":"levelo://app?vid=85b1b1e1-c458-4711-86a6-2ddb2584b733","ios":"levelo://app?vid=85b1b1e1-c458-4711-86a6-2ddb2584b733"},"vehicle_type_id":"4","last_reported":1769700286,"current_range_meters":6000,"station_id":"st_d46tts09ee8s73dlu43g","pricing_plan_id":"cebpf4jnsgd1na2vs0mg"},{"bike_id":"3ccee4a4-a5bc-4ac1-9bdc-3455c28961e8","system_id":"levelo_inurba_marseille","lat":43.24828,"lon":5.37457,"is_reserved":false,"is_disabled":false,"rental_uris":{"android":"levelo://app?vid=3ccee4a4-a5bc-4ac1-9bdc-3455c28961e8","ios":"levelo://app?vid=3ccee4a4-a5bc-4ac1-9bdc-3455c28961e8"},"vehicle_type_id":"4","last_reported":1769700286,"current_range_meters":6000,"station_id":"ce4bhgh2rcd13ifvqfb0","pricing_plan_id":"cebpf4jnsgd1na2vs0mg"},{"bike_id":"802f6e05-7249-407a-aac4-32d2041628b8","system_id":"levelo_inurba_marseille","lat":43.23043,"lon":5.3551,"is_reserved":false,"is_disabled":false,"rental_uris":{"android":"levelo://app?vid=802f6e05-7249-407a-aac4-32d2041628b8","ios":"levelo://app?vid=802f6e05-7249-407a-aac4-32d2041628b8"},"vehicle_type_id":"4","last_reported":1769700286,"current_range_meters":6000,"station_id":"cpo3342slgdg3j2ifvpg","pricing_plan_id":"cebpf4jnsgd1na2vs0mg"},{"bike_id":"65066401-eae4-48d3-b0e7-a807fe4b8c54","system_id":"levelo_inurba_marseille","lat":43.30543,"lon":5.36695,"is_reserved":false,"is_disabled":false,"rental_uris":{"android":"levelo://app?vid=65066401-eae4-48d3-b0e7-a807fe4b8c54","ios":"levelo://app?vid=65066401-eae4-48d3-b0e7-a807fe4b8c54"},"vehicle_type_id":"4","last_reported":1769700286,"current_range_meters":6000,"station_id":"ce4bgrp2rcd13ifvqc9g","pricing_plan_id":"cebpf4jnsgd1na2vs0mg"},{"bike_id":"09586d55-d979-48a3-a25c-b7661056bca6","system_id":"levelo_inurba_marseille","lat":43.26683,"lon":5.38268,"is_reserved":false,"is_disabled":false,"rental_uris":{"android":"levelo://app?vid=09586d55-d979-48a3-a25c-b7661056bca6","ios":"levelo://app?vid=09586d55-d979-48a3-a25c-b7661056bca6"},"vehicle_type_id":"4","last_reported":1769700286,"current_range_meters":6000,"station_id":"ce4bhg92rcd13ifvqf90","pricing_plan_id":"cebpf4jnsgd1na2vs0mg"},{"bike_id":"b0eb0437-5aec-4ed8-ba2a-b2fc816a75a6","system_id":"levelo_inurba_marseille","lat":43.30425,"lon":5.39742,"is_reserved":false,"is_disabled":false,"rental_uris":{"android":"levelo://app?vid=b0eb0437-5aec-4ed8-ba2a-b2fc816a75a6","ios":"levelo://app?vid=b0eb0437-5aec-4ed8-ba2a-b2fc816a75a6"},"vehicle_type_id":"4","last_reported":1769700286,"current_range_meters":6000,"station_id":"ce4bh092rcd13ifvqd20","pricing_plan_id":"cebpf4jnsgd1na2vs0mg"},{"bike_id":"b96775b7-8954-4f94-990f-968813344c58","system_id":"levelo_inurba_marseille","lat":43.31287,"lon":5.37789,"is_reserved":false,"is_disabled":false,"rental_uris":{"android":"levelo://app?vid=b96775b7-8954-4f94-990f-968813344c58","ios":"levelo://app?vid=b96775b7-8954-4f94-990f-968813344c58"},"vehicle_type_id":"4","last_reported":1769700286,"current_range_meters":6000,"station_id":"","pricing_plan_id":"cebpf4jnsgd1na2vs0mg"},{"bike_id":"83d96df5-081e-43ee-952b-92a2b06f6540","system_id":"levelo_inurba_marseille","lat":43.24435,"lon":5.37995,"is_reserved":false,"is_disabled":false,"rental_uris":{"android":"levelo://app?vid=83d96df5-081e-43ee-952b-92a2b06f6540","ios":"levelo://app?vid=83d96df5-081e-43ee-952b-92a2b06f6540"},"vehicle_type_id":"4","last_reported":1769700286,"current_range_meters":6000,"station_id":"","pricing_plan_id":"cebpf4jnsgd1na2vs0mg"},{"bike_id":"f199aad2-9208-428d-9b2c-9b705d3e60f3","system_id":"levelo_inurba_marseille","lat":43.3138,"lon":5.38511,"is_reserved":false,"is_disabled":false,"rental_uris":{"android":"levelo://app?vid=f199aad2-9208-428d-9b2c-9b705d3e60f3","ios":"levelo://app?vid=f199aad2-9208-428d-9b2c-9b705d3e60f3"},"vehicle_type_id":"4","last_reported":1769700286,"current_range_meters":6000,"station_id":"ce4bgt92rcd13ifvqcf0","pricing_plan_id":"cebpf4jnsgd1na2vs0mg"},{"bike_id":"cb298eda-a618-4522-bebf-d8c9e7ae35a3","system_id":"levelo_inurba_marseille","lat":43.27385,"lon":5.36258,"is_reserved":false,"is_disabled":false,"rental_uris":{"android":"levelo://app?vid=cb298eda-a618-4522-bebf-d8c9e7ae35a3","ios":"levelo://app?vid=cb298eda-a618-4522-bebf-d8c9e7ae35a3"},"vehicle_type_id":"4","last_reported":1769700286,"current_range_meters":6000,"station_id":"ce4bhbh2rcd13ifvqeo0","pricing_plan_id":"cebpf4jnsgd1na2vs0mg"},{"bike_id":"97a53cf6-b1b5-40a0-8d9f-9116c93eff92","system_id":"levelo_inurba_marseille","lat":43.28489,"lon":5.38419,"is_reserved":false,"is_disabled":false,"rental_uris":{"android":"levelo://app?vid=97a53cf6-b1b5-40a0-8d9f-9116c93eff92","ios":"levelo://app?vid=97a53cf6-b1b5-40a0-8d9f-9116c93eff92"},"vehicle_type_id":"4","last_reported":1769700286,"current_range_meters":6400,"station_id":"ce4bh512rcd13ifvqe3g","pricing_plan_id":"cebpf4jnsgd1na2vs0mg"},{"bike_id":"e44d6c0d-4cdc-487c-87b1-e5cf7cd1bdd8","system_id":"levelo_inurba_marseille","lat":43.27693,"lon":5.38868,"is_reserved":false,"is_disabled":false,"rental_uris":{"android":"levelo://app?vid=e44d6c0d-4cdc-487c-87b1-e5cf7cd1bdd8","ios":"levelo://app?vid=e44d6c0d-4cdc-487c-87b1-e5cf7cd1bdd8"},"vehicle_type_id":"4","last_reported":1769700286,"current_range_meters":6400,"station_id":"ce4bhi12rcd13ifvqfo0","pricing_plan_id":"cebpf4jnsgd1na2vs0mg"},{"bike_id":"8149af61-52e5-4d83-b28d-02fb5f08306e","system_id":"levelo_inurba_marseille","lat":43.28581,"lon":5.395,"is_reserved":false,"is_disabled":false,"rental_uris":{"android":"levelo://app?vid=8149af61-52e5-4d83-b28d-02fb5f08306e","ios":"levelo://app?vid=8149af61-52e5-4d83-b28d-02fb5f08306e"},"vehicle_type_id":"4","last_reported":1769700286,"current_range_meters":6400,"station_id":"ce4bh292rcd13ifvqdg0","pricing_plan_id":"cebpf4jnsgd1na2vs0mg"},{"bike_id":"ca8aa705-78fb-4dba-a3eb-862afc625597","system_id":"levelo_inurba_marseille","lat":43.288686,"lon":5.425264,"is_reserved":false,"is_disabled":false,"rental_uris":{"android":"levelo://app?vid=ca8aa705-78fb-4dba-a3eb-862afc625597","ios":"levelo://app?vid=ca8aa705-78fb-4dba-a3eb-862afc625597"},"vehicle_type_id":"4","last_reported":1769700286,"current_range_meters":6400,"station_id":"st_d3b462108ojc7389ooeg","pricing_plan_id":"cebpf4jnsgd1na2vs0mg"},{"bike_id":"eda9c3ae-7ccd-46bc-ad2e-bc5c85d71baa","system_id":"levelo_inurba_marseille","lat":43.275,"lon":5.42438,"is_reserved":false,"is_disabled":false,"rental_uris":{"android":"levelo://app?vid=eda9c3ae-7ccd-46bc-ad2e-bc5c85d71baa","ios":"levelo://app?vid=eda9c3ae-7ccd-46bc-ad2e-bc5c85d71baa"},"vehicle_type_id":"4","last_reported":1769700286,"current_range_meters":6400,"station_id":"ce4bhn92rcd13ifvqgrg","pricing_plan_id":"cebpf4jnsgd1na2vs0mg"},{"bike_id":"3d405854-a3e9-4cc4-bcac-5ce2eff49e57","system_id":"levelo_inurba_marseille","lat":43.23193,"lon":5.39971,"is_reserved":false,"is_disabled":false,"rental_uris":{"android":"levelo://app?vid=3d405854-a3e9-4cc4-bcac-5ce2eff49e57","ios":"levelo://app?vid=3d405854-a3e9-4cc4-bcac-5ce2eff49e57"},"vehicle_type_id":"4","last_reported":1769700286,"current_range_meters":6400,"station_id":"ce4bhn12rcd13ifvqgqg","pricing_plan_id":"cebpf4jnsgd1na2vs0mg"},{"bike_id":"40bc4716-cb6f-4ad1-8f92-ec521cff2039","system_id":"levelo_inurba_marseille","lat":43.2809,"lon":5.39648,"is_reserved":false,"is_disabled":false,"rental_uris":{"android":"levelo://app?vid=40bc4716-cb6f-4ad1-8f92-ec521cff2039","ios":"levelo://app?vid=40bc4716-cb6f-4ad1-8f92-ec521cff2039"},"vehicle_type_id":"4","last_reported":1769700286,"current_range_meters":6400,"station_id":"ce4bho12rcd13ifvqh2g","pricing_plan_id":"cebpf4jnsgd1na2vs0mg"},{"bike_id":"e87dcd18-65dd-4f08-9f0f-65e784f947a7","system_id":"levelo_inurba_marseille","lat":43.28936,"lon":5.3663,"is_reserved":false,"is_disabled":false,"rental_uris":{"android":"levelo://app?vid=e87dcd18-65dd-4f08-9f0f-65e784f947a7","ios":"levelo://app?vid=e87dcd18-65dd-4f08-9f0f-65e784f947a7"},"vehicle_type_id":"4","last_reported":1769700286,"current_range_meters":6400,"station_id":"ce4bhap2rcd13ifvqek0","pricing_plan_id":"cebpf4jnsgd1na2vs0mg"},{"bike_id":"a1adbbcc-56be-41a6-a560-f4a5e4282b51","system_id":"levelo_inurba_marseille","lat":43.28423,"lon":5.34993,"is_reserved":false,"is_disabled":false,"rental_uris":{"android":"levelo://app?vid=a1adbbcc-56be-41a6-a560-f4a5e4282b51","ios":"levelo://app?vid=a1adbbcc-56be-41a6-a560-f4a5e4282b51"},"vehicle_type_id":"4","last_reported":1769700286,"current_range_meters":6400,"station_id":"ce4bhbh2rcd13ifvqepg","pricing_plan_id":"cebpf4jnsgd1na2vs0mg"},{"bike_id":"213fa758-2f29-4b24-9706-fb42722d8388","system_id":"levelo_inurba_marseille","lat":43.31276,"lon":5.40178,"is_reserved":false,"is_disabled":false,"rental_uris":{"android":"levelo://app?vid=213fa758-2f29-4b24-9706-fb42722d8388","ios":"levelo://app?vid=213fa758-2f29-4b24-9706-fb42722d8388"},"vehicle_type_id":"4","last_reported":1769700286,"current_range_meters":6400,"station_id":"ce4bh092rcd13ifvqd30","pricing_plan_id":"cebpf4jnsgd1na2vs0mg"},{"bike_id":"9cf332f9-41e8-44ae-aa15-1d9d379a94a2","system_id":"levelo_inurba_marseille","lat":43.286128,"lon":5.351013,"is_reserved":false,"is_disabled":false,"rental_uris":{"android":"levelo://app?vid=9cf332f9-41e8-44ae-aa15-1d9d379a94a2","ios":"levelo://app?vid=9cf332f9-41e8-44ae-aa15-1d9d379a94a2"},"vehicle_type_id":"4","last_reported":1769700286,"current_range_meters":6400,"station_id":"ce4bhch2rcd13ifvqeug","pricing_plan_id":"cebpf4jnsgd1na2vs0mg"},{"bike_id":"9c8f9e9c-f541-493a-b4f1-3079122a469e","system_id":"levelo_inurba_marseille","lat":43.3128,"lon":5.40146,"is_reserved":false,"is_disabled":false,"rental_uris":{"android":"levelo://app?vid=9c8f9e9c-f541-493a-b4f1-3079122a469e","ios":"levelo://app?vid=9c8f9e9c-f541-493a-b4f1-3079122a469e"},"vehicle_type_id":"4","last_reported":1769700286,"current_range_meters":6400,"station_id":"ce4bh092rcd13ifvqd30","pricing_plan_id":"cebpf4jnsgd1na2vs0mg"},{"bike_id":"ac605ac9-20fd-41ab-b16b-356ba124b9b7","system_id":"levelo_inurba_marseille","lat":43.27217,"lon":5.42782,"is_reserved":false,"is_disabled":false,"rental_uris":{"android":"levelo://app?vid=ac605ac9-20fd-41ab-b16b-356ba124b9b7","ios":"levelo://app?vid=ac605ac9-20fd-41ab-b16b-356ba124b9b7"},"vehicle_type_id":"4","last_reported":1769700286,"current_range_meters":6400,"station_id":"","pricing_plan_id":"cebpf4jnsgd1na2vs0mg"},{"bike_id":"b53890f0-0678-42e5-96be-9da0dc4860ee","system_id":"levelo_inurba_marseille","lat":43.28431,"lon":5.3583,"is_reserved":false,"is_disabled":false,"rental_uris":{"android":"levelo://app?vid=b53890f0-0678-42e5-96be-9da0dc4860ee","ios":"levelo://app?vid=b53890f0-0678-42e5-96be-9da0dc4860ee"},"vehicle_type_id":"4","last_reported":1769700286,"current_range_meters":6400,"station_id":"ce4bhah2rcd13ifvqei0","pricing_plan_id":"cebpf4jnsgd1na2vs0mg"},{"bike_id":"fe18546b-0472-42df-9a34-582a80235390","system_id":"levelo_inurba_marseille","lat":43.29538,"lon":5.39038,"is_reserved":false,"is_disabled":false,"rental_uris":{"android":"levelo://app?vid=fe18546b-0472-42df-9a34-582a80235390","ios":"levelo://app?vid=fe18546b-0472-42df-9a34-582a80235390"},"vehicle_type_id":"4","last_reported":1769700286,"current_range_meters":6400,"station_id":"ce4bh3p2rcd13ifvqdp0","pricing_plan_id":"cebpf4jnsgd1na2vs0mg"},{"bike_id":"798e1150-3e8d-4187-8fd7-30536fca11d4","system_id":"levelo_inurba_marseille","lat":43.29165,"lon":5.37154,"is_reserved":false,"is_disabled":false,"rental_uris":{"android":"levelo://app?vid=798e1150-3e8d-4187-8fd7-30536fca11d4","ios":"levelo://app?vid=798e1150-3e8d-4187-8fd7-30536fca11d4"},"vehicle_type_id":"4","last_reported":1769700286,"current_range_meters":6400,"station_id":"ce4bha92rcd13ifvqeh0","pricing_plan_id":"cebpf4jnsgd1na2vs0mg"},{"bike_id":"68499007-ff5a-40d6-ab79-d9e51af5110b","system_id":"levelo_inurba_marseille","lat":43.24383,"lon":5.3702,"is_reserved":false,"is_disabled":false,"rental_uris":{"android":"levelo://app?vid=68499007-ff5a-40d6-ab79-d9e51af5110b","ios":"levelo://app?vid=68499007-ff5a-40d6-ab79-d9e51af5110b"},"vehicle_type_id":"4","last_reported":1769700286,"current_range_meters":6400,"station_id":"ce4bhhh2rcd13ifvqfk0","pricing_plan_id":"cebpf4jnsgd1na2vs0mg"},{"bike_id":"cef89498-fbf9-4ad5-afa6-46a5eea10249","system_id":"levelo_inurba_marseille","lat":43.27338,"lon":5.40973,"is_reserved":false,"is_disabled":false,"rental_uris":{"android":"levelo://app?vid=cef89498-fbf9-4ad5-afa6-46a5eea10249","ios":"levelo://app?vid=cef89498-fbf9-4ad5-afa6-46a5eea10249"},"vehicle_type_id":"4","last_reported":1769700286,"current_range_meters":6400,"station_id":"","pricing_plan_id":"cebpf4jnsgd1na2vs0mg"},{"bike_id":"74695547-4236-4065-983f-3862194f3bbd","system_id":"levelo_inurba_marseille","lat":43.2857,"lon":5.39501,"is_reserved":false,"is_disabled":false,"rental_uris":{"android":"levelo://app?vid=74695547-4236-4065-983f-3862194f3bbd","ios":"levelo://app?vid=74695547-4236-4065-983f-3862194f3bbd"},"vehicle_type_id":"4","last_reported":1769700286,"current_range_meters":6400,"station_id":"ce4bh292rcd13ifvqdg0","pricing_plan_id":"cebpf4jnsgd1na2vs0mg"},{"bike_id":"c0f7a03c-8726-4f7e-9366-f28d8e2588b3","system_id":"levelo_inurba_marseille","lat":43.3056,"lon":5.36523,"is_reserved":false,"is_disabled":false,"rental_uris":{"android":"levelo://app?vid=c0f7a03c-8726-4f7e-9366-f28d8e2588b3","ios":"levelo://app?vid=c0f7a03c-8726-4f7e-9366-f28d8e2588b3"},"vehicle_type_id":"4","last_reported":1769700286,"current_range_meters":6800,"station_id":"ce4bgs12rcd13ifvqcag","pricing_plan_id":"cebpf4jnsgd1na2vs0mg"},{"bike_id":"b3739ae3-b277-4d99-8f04-0c02824e7530","system_id":"levelo_inurba_marseille","lat":43.33237,"lon":5.38983,"is_reserved":false,"is_disabled":false,"rental_uris":{"android":"levelo://app?vid=b3739ae3-b277-4d99-8f04-0c02824e7530","ios":"levelo://app?vid=b3739ae3-b277-4d99-8f04-0c02824e7530"},"vehicle_type_id":"4","last_reported":1769700286,"current_range_meters":6800,"station_id":"","pricing_plan_id":"cebpf4jnsgd1na2vs0mg"},{"bike_id":"65eb5cb0-a6f7-4de3-a9be-a5e0a4386045","system_id":"levelo_inurba_marseille","lat":43.33169,"lon":5.37704,"is_reserved":false,"is_disabled":false,"rental_uris":{"android":"levelo://app?vid=65eb5cb0-a6f7-4de3-a9be-a5e0a4386045","ios":"levelo://app?vid=65eb5cb0-a6f7-4de3-a9be-a5e0a4386045"},"vehicle_type_id":"4","last_reported":1769700286,"current_range_meters":6800,"station_id":"st_d46cu089ee8s73dldbu0","pricing_plan_id":"cebpf4jnsgd1na2vs0mg"},{"bike_id":"8252e483-8cd2-4e1f-8159-245c555c915e","system_id":"levelo_inurba_marseille","lat":43.229333,"lon":5.35381,"is_reserved":false,"is_disabled":false,"rental_uris":{"android":"levelo://app?vid=8252e483-8cd2-4e1f-8159-245c555c915e","ios":"levelo://app?vid=8252e483-8cd2-4e1f-8159-245c555c915e"},"vehicle_type_id":"4","last_reported":1769700286,"current_range_meters":6800,"station_id":"cpo3532slgdg3j2ikp40","pricing_plan_id":"cebpf4jnsgd1na2vs0mg"},{"bike_id":"0c16c797-5da1-4611-8918-04ef5b678d64","system_id":"levelo_inurba_marseille","lat":43.33531,"lon":5.37458,"is_reserved":false,"is_disabled":false,"rental_uris":{"android":"levelo://app?vid=0c16c797-5da1-4611-8918-04ef5b678d64","ios":"levelo://app?vid=0c16c797-5da1-4611-8918-04ef5b678d64"},"vehicle_type_id":"4","last_reported":1769700286,"current_range_meters":6800,"station_id":"","pricing_plan_id":"cebpf4jnsgd1na2vs0mg"},{"bike_id":"e236f0a6-2e87-48ed-94ce-e49f696f4842","system_id":"levelo_inurba_marseille","lat":43.26602,"lon":5.3751,"is_reserved":false,"is_disabled":false,"rental_uris":{"android":"levelo://app?vid=e236f0a6-2e87-48ed-94ce-e49f696f4842","ios":"levelo://app?vid=e236f0a6-2e87-48ed-94ce-e49f696f4842"},"vehicle_type_id":"4","last_reported":1769700286,"current_range_meters":6800,"station_id":"","pricing_plan_id":"cebpf4jnsgd1na2vs0mg"},{"bike_id":"3d61244e-0dde-42a1-8efa-05e556593c38","system_id":"levelo_inurba_marseille","lat":43.22563,"lon":5.41624,"is_reserved":false,"is_disabled":false,"rental_uris":{"android":"levelo://app?vid=3d61244e-0dde-42a1-8efa-05e556593c38","ios":"levelo://app?vid=3d61244e-0dde-42a1-8efa-05e556593c38"},"vehicle_type_id":"4","last_reported":1769700286,"current_range_meters":6800,"station_id":"st_d2o4gvlbi1j2169b742g","pricing_plan_id":"cebpf4jnsgd1na2vs0mg"},{"bike_id":"8c50cc1b-6957-4db2-9b96-76d9d37bac03","system_id":"levelo_inurba_marseille","lat":43.22577,"lon":5.41615,"is_reserved":false,"is_disabled":false,"rental_uris":{"android":"levelo://app?vid=8c50cc1b-6957-4db2-9b96-76d9d37bac03","ios":"levelo://app?vid=8c50cc1b-6957-4db2-9b96-76d9d37bac03"},"vehicle_type_id":"4","last_reported":1769700286,"current_range_meters":6800,"station_id":"st_d2o4gvlbi1j2169b742g","pricing_plan_id":"cebpf4jnsgd1na2vs0mg"},{"bike_id":"51e33b43-0b63-43c6-8dbf-365699605da8","system_id":"levelo_inurba_marseille","lat":43.26988,"lon":5.39834,"is_reserved":false,"is_disabled":false,"rental_uris":{"android":"levelo://app?vid=51e33b43-0b63-43c6-8dbf-365699605da8","ios":"levelo://app?vid=51e33b43-0b63-43c6-8dbf-365699605da8"},"vehicle_type_id":"4","last_reported":1769700286,"current_range_meters":6800,"station_id":"","pricing_plan_id":"cebpf4jnsgd1na2vs0mg"},{"bike_id":"31c14499-86de-46e6-a67f-a12efc2510dc","system_id":"levelo_inurba_marseille","lat":43.23174,"lon":5.4369,"is_reserved":false,"is_disabled":false,"rental_uris":{"android":"levelo://app?vid=31c14499-86de-46e6-a67f-a12efc2510dc","ios":"levelo://app?vid=31c14499-86de-46e6-a67f-a12efc2510dc"},"vehicle_type_id":"4","last_reported":1769700286,"current_range_meters":6800,"station_id":"ce4bhmp2rcd13ifvqgog","pricing_plan_id":"cebpf4jnsgd1na2vs0mg"},{"bike_id":"e322fbc1-ba7d-4452-9d08-bc1a4a79174e","system_id":"levelo_inurba_marseille","lat":43.23151,"lon":5.43722,"is_reserved":false,"is_disabled":false,"rental_uris":{"android":"levelo://app?vid=e322fbc1-ba7d-4452-9d08-bc1a4a79174e","ios":"levelo://app?vid=e322fbc1-ba7d-4452-9d08-bc1a4a79174e"},"vehicle_type_id":"4","last_reported":1769700286,"current_range_meters":6800,"station_id":"ce4bhmp2rcd13ifvqgog","pricing_plan_id":"cebpf4jnsgd1na2vs0mg"},{"bike_id":"626f2e49-da66-4aca-b419-36ccc5e515c3","system_id":"levelo_inurba_marseille","lat":43.24619,"lon":5.4313,"is_reserved":false,"is_disabled":false,"rental_uris":{"android":"levelo://app?vid=626f2e49-da66-4aca-b419-36ccc5e515c3","ios":"levelo://app?vid=626f2e49-da66-4aca-b419-36ccc5e515c3"},"vehicle_type_id":"4","last_reported":1769700286,"current_range_meters":6800,"station_id":"st_d2m6c4gdas8pm72e190g","pricing_plan_id":"cebpf4jnsgd1na2vs0mg"},{"bike_id":"83af030c-c281-4557-96b2-f154db28389a","system_id":"levelo_inurba_marseille","lat":43.25578,"lon":5.38211,"is_reserved":false,"is_disabled":false,"rental_uris":{"android":"levelo://app?vid=83af030c-c281-4557-96b2-f154db28389a","ios":"levelo://app?vid=83af030c-c281-4557-96b2-f154db28389a"},"vehicle_type_id":"4","last_reported":1769700286,"current_range_meters":6800,"station_id":"ce4bhih2rcd13ifvqfs0","pricing_plan_id":"cebpf4jnsgd1na2vs0mg"},{"bike_id":"932bb106-3c96-4dbf-947d-0b48571ad9e2","system_id":"levelo_inurba_marseille","lat":43.27375,"lon":5.36255,"is_reserved":false,"is_disabled":false,"rental_uris":{"android":"levelo://app?vid=932bb106-3c96-4dbf-947d-0b48571ad9e2","ios":"levelo://app?vid=932bb106-3c96-4dbf-947d-0b48571ad9e2"},"vehicle_type_id":"4","last_reported":1769700286,"current_range_meters":7200,"station_id":"ce4bhbh2rcd13ifvqeo0","pricing_plan_id":"cebpf4jnsgd1na2vs0mg"},{"bike_id":"817f3bdb-0511-4f5b-b733-d40cb9207e08","system_id":"levelo_inurba_marseille","lat":43.267855,"lon":5.394115,"is_reserved":false,"is_disabled":false,"rental_uris":{"android":"levelo://app?vid=817f3bdb-0511-4f5b-b733-d40cb9207e08","ios":"levelo://app?vid=817f3bdb-0511-4f5b-b733-d40cb9207e08"},"vehicle_type_id":"4","last_reported":1769700286,"current_range_meters":7200,"station_id":"ce4bhh12rcd13ifvqfg0","pricing_plan_id":"cebpf4jnsgd1na2vs0mg"},{"bike_id":"33dca264-fb0a-4eb7-95bb-9ae61ebc0bd2","system_id":"levelo_inurba_marseille","lat":43.28414,"lon":5.35003,"is_reserved":false,"is_disabled":false,"rental_uris":{"android":"levelo://app?vid=33dca264-fb0a-4eb7-95bb-9ae61ebc0bd2","ios":"levelo://app?vid=33dca264-fb0a-4eb7-95bb-9ae61ebc0bd2"},"vehicle_type_id":"4","last_reported":1769700286,"current_range_meters":7200,"station_id":"ce4bhbh2rcd13ifvqepg","pricing_plan_id":"cebpf4jnsgd1na2vs0mg"},{"bike_id":"41b6ea61-4e32-4971-9060-10fe0d4c5af6","system_id":"levelo_inurba_marseille","lat":43.2862,"lon":5.37031,"is_reserved":false,"is_disabled":false,"rental_uris":{"android":"levelo://app?vid=41b6ea61-4e32-4971-9060-10fe0d4c5af6","ios":"levelo://app?vid=41b6ea61-4e32-4971-9060-10fe0d4c5af6"},"vehicle_type_id":"4","last_reported":1769700286,"current_range_meters":7200,"station_id":"ce4bht12rcd13ifvqi60","pricing_plan_id":"cebpf4jnsgd1na2vs0mg"},{"bike_id":"5f7181ae-656c-4488-90fb-0ce1331b2ddd","system_id":"levelo_inurba_marseille","lat":43.279607,"lon":5.387143,"is_reserved":false,"is_disabled":false,"rental_uris":{"android":"levelo://app?vid=5f7181ae-656c-4488-90fb-0ce1331b2ddd","ios":"levelo://app?vid=5f7181ae-656c-4488-90fb-0ce1331b2ddd"},"vehicle_type_id":"4","last_reported":1769700286,"current_range_meters":7200,"station_id":"ce4bhg12rcd13ifvqf80","pricing_plan_id":"cebpf4jnsgd1na2vs0mg"},{"bike_id":"57d0a2d7-9964-4f69-af1e-4a15b0f132d1","system_id":"levelo_inurba_marseille","lat":43.28947,"lon":5.36395,"is_reserved":false,"is_disabled":false,"rental_uris":{"android":"levelo://app?vid=57d0a2d7-9964-4f69-af1e-4a15b0f132d1","ios":"levelo://app?vid=57d0a2d7-9964-4f69-af1e-4a15b0f132d1"},"vehicle_type_id":"4","last_reported":1769700286,"current_range_meters":7200,"station_id":"ce4bhc92rcd13ifvqetg","pricing_plan_id":"cebpf4jnsgd1na2vs0mg"},{"bike_id":"947b3f41-400e-4a7b-9150-c4b106fc2b3b","system_id":"levelo_inurba_marseille","lat":43.25575,"lon":5.38234,"is_reserved":false,"is_disabled":false,"rental_uris":{"android":"levelo://app?vid=947b3f41-400e-4a7b-9150-c4b106fc2b3b","ios":"levelo://app?vid=947b3f41-400e-4a7b-9150-c4b106fc2b3b"},"vehicle_type_id":"4","last_reported":1769700286,"current_range_meters":7200,"station_id":"ce4bhih2rcd13ifvqfs0","pricing_plan_id":"cebpf4jnsgd1na2vs0mg"},{"bike_id":"59d7c568-6724-480d-b1e6-ba1e4cc63559","system_id":"levelo_inurba_marseille","lat":43.29276,"lon":5.37161,"is_reserved":false,"is_disabled":false,"rental_uris":{"android":"levelo://app?vid=59d7c568-6724-480d-b1e6-ba1e4cc63559","ios":"levelo://app?vid=59d7c568-6724-480d-b1e6-ba1e4cc63559"},"vehicle_type_id":"4","last_reported":1769700286,"current_range_meters":7200,"station_id":"ce4bgh92rcd13ifvqb40","pricing_plan_id":"cebpf4jnsgd1na2vs0mg"},{"bike_id":"0dd61424-bf1e-401d-9632-d1489fb3cc66","system_id":"levelo_inurba_marseille","lat":43.3212,"lon":5.36773,"is_reserved":false,"is_disabled":false,"rental_uris":{"android":"levelo://app?vid=0dd61424-bf1e-401d-9632-d1489fb3cc66","ios":"levelo://app?vid=0dd61424-bf1e-401d-9632-d1489fb3cc66"},"vehicle_type_id":"4","last_reported":1769700286,"current_range_meters":7200,"station_id":"ce4bhrh2rcd13ifvqhug","pricing_plan_id":"cebpf4jnsgd1na2vs0mg"},{"bike_id":"6a19e15c-c3e4-46c9-a911-cafad16f2c0e","system_id":"levelo_inurba_marseille","lat":43.29253,"lon":5.39307,"is_reserved":false,"is_disabled":false,"rental_uris":{"android":"levelo://app?vid=6a19e15c-c3e4-46c9-a911-cafad16f2c0e","ios":"levelo://app?vid=6a19e15c-c3e4-46c9-a911-cafad16f2c0e"},"vehicle_type_id":"4","last_reported":1769700286,"current_range_meters":7200,"station_id":"","pricing_plan_id":"cebpf4jnsgd1na2vs0mg"},{"bike_id":"cdf2d235-ab6c-49fc-938f-5b27de4a4a39","system_id":"levelo_inurba_marseille","lat":43.27377,"lon":5.36262,"is_reserved":false,"is_disabled":false,"rental_uris":{"android":"levelo://app?vid=cdf2d235-ab6c-49fc-938f-5b27de4a4a39","ios":"levelo://app?vid=cdf2d235-ab6c-49fc-938f-5b27de4a4a39"},"vehicle_type_id":"4","last_reported":1769700286,"current_range_meters":7200,"station_id":"ce4bhbh2rcd13ifvqeo0","pricing_plan_id":"cebpf4jnsgd1na2vs0mg"},{"bike_id":"5a5070bd-16de-4246-b119-9edc6b7db571","system_id":"levelo_inurba_marseille","lat":43.31165,"lon":5.38722,"is_reserved":false,"is_disabled":false,"rental_uris":{"android":"levelo://app?vid=5a5070bd-16de-4246-b119-9edc6b7db571","ios":"levelo://app?vid=5a5070bd-16de-4246-b119-9edc6b7db571"},"vehicle_type_id":"4","last_reported":1769700286,"current_range_meters":7200,"station_id":"ce4bgv12rcd13ifvqcp0","pricing_plan_id":"cebpf4jnsgd1na2vs0mg"},{"bike_id":"89d9bbd7-56c1-47dc-a33c-3c870e84c211","system_id":"levelo_inurba_marseille","lat":43.2603,"lon":5.3755,"is_reserved":false,"is_disabled":false,"rental_uris":{"android":"levelo://app?vid=89d9bbd7-56c1-47dc-a33c-3c870e84c211","ios":"levelo://app?vid=89d9bbd7-56c1-47dc-a33c-3c870e84c211"},"vehicle_type_id":"4","last_reported":1769700286,"current_range_meters":7200,"station_id":"ce4bhgh2rcd13ifvqfa0","pricing_plan_id":"cebpf4jnsgd1na2vs0mg"},{"bike_id":"ae2bd00b-86f2-42b9-8e4e-3fa74e019d82","system_id":"levelo_inurba_marseille","lat":43.2319,"lon":5.39981,"is_reserved":false,"is_disabled":false,"rental_uris":{"android":"levelo://app?vid=ae2bd00b-86f2-42b9-8e4e-3fa74e019d82","ios":"levelo://app?vid=ae2bd00b-86f2-42b9-8e4e-3fa74e019d82"},"vehicle_type_id":"4","last_reported":1769700286,"current_range_meters":7200,"station_id":"ce4bhn12rcd13ifvqgqg","pricing_plan_id":"cebpf4jnsgd1na2vs0mg"},{"bike_id":"d56b2574-e823-4904-8133-8e4bced541bb","system_id":"levelo_inurba_marseille","lat":43.31531,"lon":5.38036,"is_reserved":false,"is_disabled":false,"rental_uris":{"android":"levelo://app?vid=d56b2574-e823-4904-8133-8e4bced541bb","ios":"levelo://app?vid=d56b2574-e823-4904-8133-8e4bced541bb"},"vehicle_type_id":"4","last_reported":1769700286,"current_range_meters":7200,"station_id":"ce4bhsp2rcd13ifvqi50","pricing_plan_id":"cebpf4jnsgd1na2vs0mg"},{"bike_id":"dc9ee814-7f33-4fbb-a1ce-2d30e8c57914","system_id":"levelo_inurba_marseille","lat":43.22558,"lon":5.41617,"is_reserved":false,"is_disabled":false,"rental_uris":{"android":"levelo://app?vid=dc9ee814-7f33-4fbb-a1ce-2d30e8c57914","ios":"levelo://app?vid=dc9ee814-7f33-4fbb-a1ce-2d30e8c57914"},"vehicle_type_id":"4","last_reported":1769700286,"current_range_meters":7200,"station_id":"st_d2o4gvlbi1j2169b742g","pricing_plan_id":"cebpf4jnsgd1na2vs0mg"},{"bike_id":"39753960-3c7e-4e4a-acb2-25c74c17dd07","system_id":"levelo_inurba_marseille","lat":43.22933,"lon":5.3538,"is_reserved":false,"is_disabled":false,"rental_uris":{"android":"levelo://app?vid=39753960-3c7e-4e4a-acb2-25c74c17dd07","ios":"levelo://app?vid=39753960-3c7e-4e4a-acb2-25c74c17dd07"},"vehicle_type_id":"4","last_reported":1769700286,"current_range_meters":7200,"station_id":"cpo3532slgdg3j2ikp40","pricing_plan_id":"cebpf4jnsgd1na2vs0mg"},{"bike_id":"81f4aa23-468c-44a8-98b9-602706d64186","system_id":"levelo_inurba_marseille","lat":43.3009,"lon":5.39067,"is_reserved":false,"is_disabled":false,"rental_uris":{"android":"levelo://app?vid=81f4aa23-468c-44a8-98b9-602706d64186","ios":"levelo://app?vid=81f4aa23-468c-44a8-98b9-602706d64186"},"vehicle_type_id":"4","last_reported":1769700286,"current_range_meters":7200,"station_id":"ce4bh192rcd13ifvqdb0","pricing_plan_id":"cebpf4jnsgd1na2vs0mg"},{"bike_id":"081fa14c-ca4a-442f-8de3-b221dffe51d8","system_id":"levelo_inurba_marseille","lat":43.27987,"lon":5.41672,"is_reserved":false,"is_disabled":false,"rental_uris":{"android":"levelo://app?vid=081fa14c-ca4a-442f-8de3-b221dffe51d8","ios":"levelo://app?vid=081fa14c-ca4a-442f-8de3-b221dffe51d8"},"vehicle_type_id":"4","last_reported":1769700286,"current_range_meters":7200,"station_id":"ce4bho12rcd13ifvqh1g","pricing_plan_id":"cebpf4jnsgd1na2vs0mg"},{"bike_id":"4bd6cb39-f26e-431f-9c48-bc9838a79167","system_id":"levelo_inurba_marseille","lat":43.29813,"lon":5.44057,"is_reserved":false,"is_disabled":false,"rental_uris":{"android":"levelo://app?vid=4bd6cb39-f26e-431f-9c48-bc9838a79167","ios":"levelo://app?vid=4bd6cb39-f26e-431f-9c48-bc9838a79167"},"vehicle_type_id":"4","last_reported":1769700286,"current_range_meters":7200,"station_id":"st_d3jp68qikq2c7381ktn0","pricing_plan_id":"cebpf4jnsgd1na2vs0mg"},{"bike_id":"8124257b-86e4-4773-9928-40b9e517b1e7","system_id":"levelo_inurba_marseille","lat":43.24477,"lon":5.42534,"is_reserved":false,"is_disabled":false,"rental_uris":{"android":"levelo://app?vid=8124257b-86e4-4773-9928-40b9e517b1e7","ios":"levelo://app?vid=8124257b-86e4-4773-9928-40b9e517b1e7"},"vehicle_type_id":"4","last_reported":1769700286,"current_range_meters":8000,"station_id":"st_d4a3vfp97mjs738cd8kg","pricing_plan_id":"cebpf4jnsgd1na2vs0mg"},{"bike_id":"15698324-3145-4547-849e-2fd8a77ba3ab","system_id":"levelo_inurba_marseille","lat":43.27386,"lon":5.36267,"is_reserved":false,"is_disabled":false,"rental_uris":{"android":"levelo://app?vid=15698324-3145-4547-849e-2fd8a77ba3ab","ios":"levelo://app?vid=15698324-3145-4547-849e-2fd8a77ba3ab"},"vehicle_type_id":"4","last_reported":1769700286,"current_range_meters":8000,"station_id":"ce4bhbh2rcd13ifvqeo0","pricing_plan_id":"cebpf4jnsgd1na2vs0mg"},{"bike_id":"83574236-eb2a-42bd-ab70-405f88783bc7","system_id":"levelo_inurba_marseille","lat":43.3057,"lon":5.36532,"is_reserved":false,"is_disabled":false,"rental_uris":{"android":"levelo://app?vid=83574236-eb2a-42bd-ab70-405f88783bc7","ios":"levelo://app?vid=83574236-eb2a-42bd-ab70-405f88783bc7"},"vehicle_type_id":"4","last_reported":1769700286,"current_range_meters":8000,"station_id":"ce4bgs12rcd13ifvqcag","pricing_plan_id":"cebpf4jnsgd1na2vs0mg"},{"bike_id":"9352a26f-52ae-4722-9964-1e4d58412b67","system_id":"levelo_inurba_marseille","lat":43.25569,"lon":5.38235,"is_reserved":false,"is_disabled":false,"rental_uris":{"android":"levelo://app?vid=9352a26f-52ae-4722-9964-1e4d58412b67","ios":"levelo://app?vid=9352a26f-52ae-4722-9964-1e4d58412b67"},"vehicle_type_id":"4","last_reported":1769700286,"current_range_meters":8000,"station_id":"ce4bhih2rcd13ifvqfs0","pricing_plan_id":"cebpf4jnsgd1na2vs0mg"},{"bike_id":"6d034f5e-7cd4-4e57-b20b-5736ea3d5256","system_id":"levelo_inurba_marseille","lat":43.29189,"lon":5.35807,"is_reserved":false,"is_disabled":false,"rental_uris":{"android":"levelo://app?vid=6d034f5e-7cd4-4e57-b20b-5736ea3d5256","ios":"levelo://app?vid=6d034f5e-7cd4-4e57-b20b-5736ea3d5256"},"vehicle_type_id":"4","last_reported":1769700286,"current_range_meters":8000,"station_id":"ce4bhb12rcd13ifvqel0","pricing_plan_id":"cebpf4jnsgd1na2vs0mg"},{"bike_id":"e9ab1c78-d16f-4493-b9ac-cfe803b5f484","system_id":"levelo_inurba_marseille","lat":43.32492,"lon":5.38308,"is_reserved":false,"is_disabled":false,"rental_uris":{"android":"levelo://app?vid=e9ab1c78-d16f-4493-b9ac-cfe803b5f484","ios":"levelo://app?vid=e9ab1c78-d16f-4493-b9ac-cfe803b5f484"},"vehicle_type_id":"4","last_reported":1769700286,"current_range_meters":8000,"station_id":"st_d4asgbiv49dc73anf9m0","pricing_plan_id":"cebpf4jnsgd1na2vs0mg"},{"bike_id":"c1e56def-2d7c-4e93-b918-3096a8beff38","system_id":"levelo_inurba_marseille","lat":43.31189,"lon":5.36829,"is_reserved":false,"is_disabled":false,"rental_uris":{"android":"levelo://app?vid=c1e56def-2d7c-4e93-b918-3096a8beff38","ios":"levelo://app?vid=c1e56def-2d7c-4e93-b918-3096a8beff38"},"vehicle_type_id":"4","last_reported":1769700286,"current_range_meters":8000,"station_id":"ce4bgl92rcd13ifvqbq0","pricing_plan_id":"cebpf4jnsgd1na2vs0mg"},{"bike_id":"15928e4e-4573-4968-8dbf-9306067a5743","system_id":"levelo_inurba_marseille","lat":43.24658,"lon":5.43126,"is_reserved":false,"is_disabled":false,"rental_uris":{"android":"levelo://app?vid=15928e4e-4573-4968-8dbf-9306067a5743","ios":"levelo://app?vid=15928e4e-4573-4968-8dbf-9306067a5743"},"vehicle_type_id":"4","last_reported":1769700286,"current_range_meters":8000,"station_id":"st_d2m6c4gdas8pm72e190g","pricing_plan_id":"cebpf4jnsgd1na2vs0mg"},{"bike_id":"cfe3a6dd-a211-4abb-80dc-8311ecf0e5e7","system_id":"levelo_inurba_marseille","lat":43.23171,"lon":5.43731,"is_reserved":false,"is_disabled":false,"rental_uris":{"android":"levelo://app?vid=cfe3a6dd-a211-4abb-80dc-8311ecf0e5e7","ios":"levelo://app?vid=cfe3a6dd-a211-4abb-80dc-8311ecf0e5e7"},"vehicle_type_id":"4","last_reported":1769700286,"current_range_meters":8000,"station_id":"ce4bhmp2rcd13ifvqgog","pricing_plan_id":"cebpf4jnsgd1na2vs0mg"},{"bike_id":"0d232691-db7f-40a9-bd56-9242c64d234b","system_id":"levelo_inurba_marseille","lat":43.28358,"lon":5.38621,"is_reserved":false,"is_disabled":false,"rental_uris":{"android":"levelo://app?vid=0d232691-db7f-40a9-bd56-9242c64d234b","ios":"levelo://app?vid=0d232691-db7f-40a9-bd56-9242c64d234b"},"vehicle_type_id":"4","last_reported":1769700286,"current_range_meters":8000,"station_id":"ce4bh492rcd13ifvqdvg","pricing_plan_id":"cebpf4jnsgd1na2vs0mg"},{"bike_id":"7996b6de-4f5a-440a-ada3-de0800bd2481","system_id":"levelo_inurba_marseille","lat":43.245533,"lon":5.395177,"is_reserved":false,"is_disabled":false,"rental_uris":{"android":"levelo://app?vid=7996b6de-4f5a-440a-ada3-de0800bd2481","ios":"levelo://app?vid=7996b6de-4f5a-440a-ada3-de0800bd2481"},"vehicle_type_id":"4","last_reported":1769700286,"current_range_meters":8000,"station_id":"ce4bhlp2rcd13ifvqgjg","pricing_plan_id":"cebpf4jnsgd1na2vs0mg"},{"bike_id":"6d463587-3df4-4665-b124-967bacab8bbe","system_id":"levelo_inurba_marseille","lat":43.2862,"lon":5.35092,"is_reserved":false,"is_disabled":false,"rental_uris":{"android":"levelo://app?vid=6d463587-3df4-4665-b124-967bacab8bbe","ios":"levelo://app?vid=6d463587-3df4-4665-b124-967bacab8bbe"},"vehicle_type_id":"4","last_reported":1769700286,"current_range_meters":8000,"station_id":"ce4bhch2rcd13ifvqeug","pricing_plan_id":"cebpf4jnsgd1na2vs0mg"},{"bike_id":"28bcb9d8-af7e-4e97-808c-cc7b21fe1431","system_id":"levelo_inurba_marseille","lat":43.22568,"lon":5.41619,"is_reserved":false,"is_disabled":false,"rental_uris":{"android":"levelo://app?vid=28bcb9d8-af7e-4e97-808c-cc7b21fe1431","ios":"levelo://app?vid=28bcb9d8-af7e-4e97-808c-cc7b21fe1431"},"vehicle_type_id":"4","last_reported":1769700286,"current_range_meters":8000,"station_id":"st_d2o4gvlbi1j2169b742g","pricing_plan_id":"cebpf4jnsgd1na2vs0mg"},{"bike_id":"71ea06b7-46c1-4fc9-a594-153d92364656","system_id":"levelo_inurba_marseille","lat":43.30724,"lon":5.40983,"is_reserved":false,"is_disabled":false,"rental_uris":{"android":"levelo://app?vid=71ea06b7-46c1-4fc9-a594-153d92364656","ios":"levelo://app?vid=71ea06b7-46c1-4fc9-a594-153d92364656"},"vehicle_type_id":"4","last_reported":1769700286,"current_range_meters":8000,"station_id":"","pricing_plan_id":"cebpf4jnsgd1na2vs0mg"},{"bike_id":"2d655a97-bd06-49e9-b2b4-efa072ca5fda","system_id":"levelo_inurba_marseille","lat":43.32116,"lon":5.36789,"is_reserved":false,"is_disabled":false,"rental_uris":{"android":"levelo://app?vid=2d655a97-bd06-49e9-b2b4-efa072ca5fda","ios":"levelo://app?vid=2d655a97-bd06-49e9-b2b4-efa072ca5fda"},"vehicle_type_id":"4","last_reported":1769700286,"current_range_meters":8000,"station_id":"ce4bhrh2rcd13ifvqhug","pricing_plan_id":"cebpf4jnsgd1na2vs0mg"},{"bike_id":"546d524a-128a-4e22-a3a9-72f5ef24036b","system_id":"levelo_inurba_marseille","lat":43.26926,"lon":5.38924,"is_reserved":false,"is_disabled":false,"rental_uris":{"android":"levelo://app?vid=546d524a-128a-4e22-a3a9-72f5ef24036b","ios":"levelo://app?vid=546d524a-128a-4e22-a3a9-72f5ef24036b"},"vehicle_type_id":"4","last_reported":1769700286,"current_range_meters":8000,"station_id":"ce4bhhh2rcd13ifvqfl0","pricing_plan_id":"cebpf4jnsgd1na2vs0mg"},{"bike_id":"284a53c0-3723-4849-a673-5dddd5bb4a3f","system_id":"levelo_inurba_marseille","lat":43.30246,"lon":5.38143,"is_reserved":false,"is_disabled":false,"rental_uris":{"android":"levelo://app?vid=284a53c0-3723-4849-a673-5dddd5bb4a3f","ios":"levelo://app?vid=284a53c0-3723-4849-a673-5dddd5bb4a3f"},"vehicle_type_id":"4","last_reported":1769700286,"current_range_meters":8000,"station_id":"","pricing_plan_id":"cebpf4jnsgd1na2vs0mg"},{"bike_id":"da545b6c-7e22-40a8-8949-bf95cdddb0fb","system_id":"levelo_inurba_marseille","lat":43.2621,"lon":5.37442,"is_reserved":false,"is_disabled":false,"rental_uris":{"android":"levelo://app?vid=da545b6c-7e22-40a8-8949-bf95cdddb0fb","ios":"levelo://app?vid=da545b6c-7e22-40a8-8949-bf95cdddb0fb"},"vehicle_type_id":"4","last_reported":1769700286,"current_range_meters":8000,"station_id":"ce4bhgp2rcd13ifvqfc0","pricing_plan_id":"cebpf4jnsgd1na2vs0mg"},{"bike_id":"2652d77c-a95c-4be5-863e-1313801b0b3e","system_id":"levelo_inurba_marseille","lat":43.2826,"lon":5.3505,"is_reserved":false,"is_disabled":false,"rental_uris":{"android":"levelo://app?vid=2652d77c-a95c-4be5-863e-1313801b0b3e","ios":"levelo://app?vid=2652d77c-a95c-4be5-863e-1313801b0b3e"},"vehicle_type_id":"4","last_reported":1769700286,"current_range_meters":8000,"station_id":"ce4bhbp2rcd13ifvqerg","pricing_plan_id":"cebpf4jnsgd1na2vs0mg"},{"bike_id":"df77d908-33b3-4cfe-810c-193b4835ca86","system_id":"levelo_inurba_marseille","lat":43.29182,"lon":5.3715,"is_reserved":false,"is_disabled":false,"rental_uris":{"android":"levelo://app?vid=df77d908-33b3-4cfe-810c-193b4835ca86","ios":"levelo://app?vid=df77d908-33b3-4cfe-810c-193b4835ca86"},"vehicle_type_id":"4","last_reported":1769700286,"current_range_meters":8400,"station_id":"ce4bha92rcd13ifvqeh0","pricing_plan_id":"cebpf4jnsgd1na2vs0mg"},{"bike_id":"ba4f6c0d-c0a8-4c21-9308-a4e81ac5d5b4","system_id":"levelo_inurba_marseille","lat":43.30909,"lon":5.36837,"is_reserved":false,"is_disabled":false,"rental_uris":{"android":"levelo://app?vid=ba4f6c0d-c0a8-4c21-9308-a4e81ac5d5b4","ios":"levelo://app?vid=ba4f6c0d-c0a8-4c21-9308-a4e81ac5d5b4"},"vehicle_type_id":"4","last_reported":1769700286,"current_range_meters":8400,"station_id":"ce4bgn92rcd13ifvqbvg","pricing_plan_id":"cebpf4jnsgd1na2vs0mg"},{"bike_id":"9922f93a-8a2c-476f-94ee-69b11da6b251","system_id":"levelo_inurba_marseille","lat":43.28462,"lon":5.35891,"is_reserved":false,"is_disabled":false,"rental_uris":{"android":"levelo://app?vid=9922f93a-8a2c-476f-94ee-69b11da6b251","ios":"levelo://app?vid=9922f93a-8a2c-476f-94ee-69b11da6b251"},"vehicle_type_id":"4","last_reported":1769700286,"current_range_meters":8400,"station_id":"ce4bhah2rcd13ifvqei0","pricing_plan_id":"cebpf4jnsgd1na2vs0mg"},{"bike_id":"7b6d8a8b-d351-4282-bf84-c6e7865bd8af","system_id":"levelo_inurba_marseille","lat":43.24643,"lon":5.38882,"is_reserved":false,"is_disabled":false,"rental_uris":{"android":"levelo://app?vid=7b6d8a8b-d351-4282-bf84-c6e7865bd8af","ios":"levelo://app?vid=7b6d8a8b-d351-4282-bf84-c6e7865bd8af"},"vehicle_type_id":"4","last_reported":1769700286,"current_range_meters":8400,"station_id":"ce4bhg12rcd13ifvqf60","pricing_plan_id":"cebpf4jnsgd1na2vs0mg"},{"bike_id":"aa753bb7-bd6b-47c5-ab34-4be181563e55","system_id":"levelo_inurba_marseille","lat":43.31027,"lon":5.37136,"is_reserved":false,"is_disabled":false,"rental_uris":{"android":"levelo://app?vid=aa753bb7-bd6b-47c5-ab34-4be181563e55","ios":"levelo://app?vid=aa753bb7-bd6b-47c5-ab34-4be181563e55"},"vehicle_type_id":"4","last_reported":1769700286,"current_range_meters":8400,"station_id":"st_d4kl2rp97mjs73e7tdfg","pricing_plan_id":"cebpf4jnsgd1na2vs0mg"},{"bike_id":"91b4377f-9462-4d73-aed4-e1f2fb73b875","system_id":"levelo_inurba_marseille","lat":43.31075,"lon":5.38365,"is_reserved":false,"is_disabled":false,"rental_uris":{"android":"levelo://app?vid=91b4377f-9462-4d73-aed4-e1f2fb73b875","ios":"levelo://app?vid=91b4377f-9462-4d73-aed4-e1f2fb73b875"},"vehicle_type_id":"4","last_reported":1769700286,"current_range_meters":8400,"station_id":"ce4bgv92rcd13ifvqcr0","pricing_plan_id":"cebpf4jnsgd1na2vs0mg"},{"bike_id":"83a4e1d2-5f71-4b5a-bd57-96f3c4c0826c","system_id":"levelo_inurba_marseille","lat":43.23144,"lon":5.43711,"is_reserved":false,"is_disabled":false,"rental_uris":{"android":"levelo://app?vid=83a4e1d2-5f71-4b5a-bd57-96f3c4c0826c","ios":"levelo://app?vid=83a4e1d2-5f71-4b5a-bd57-96f3c4c0826c"},"vehicle_type_id":"4","last_reported":1769700286,"current_range_meters":8400,"station_id":"ce4bhmp2rcd13ifvqgog","pricing_plan_id":"cebpf4jnsgd1na2vs0mg"},{"bike_id":"aaa85876-b1d7-4ce5-8f16-ed1e6e9204ba","system_id":"levelo_inurba_marseille","lat":43.29607,"lon":5.38097,"is_reserved":false,"is_disabled":false,"rental_uris":{"android":"levelo://app?vid=aaa85876-b1d7-4ce5-8f16-ed1e6e9204ba","ios":"levelo://app?vid=aaa85876-b1d7-4ce5-8f16-ed1e6e9204ba"},"vehicle_type_id":"4","last_reported":1769700286,"current_range_meters":8400,"station_id":"ce4bgl12rcd13ifvqbo0","pricing_plan_id":"cebpf4jnsgd1na2vs0mg"},{"bike_id":"d6aa7372-279e-4357-8e4e-d5789854f2da","system_id":"levelo_inurba_marseille","lat":43.28963,"lon":5.3782,"is_reserved":false,"is_disabled":false,"rental_uris":{"android":"levelo://app?vid=d6aa7372-279e-4357-8e4e-d5789854f2da","ios":"levelo://app?vid=d6aa7372-279e-4357-8e4e-d5789854f2da"},"vehicle_type_id":"4","last_reported":1769700286,"current_range_meters":8400,"station_id":"ce4bh9p2rcd13ifvqed0","pricing_plan_id":"cebpf4jnsgd1na2vs0mg"},{"bike_id":"0edb73c2-0d71-41ef-92a0-39c6197600e4","system_id":"levelo_inurba_marseille","lat":43.2707,"lon":5.38306,"is_reserved":false,"is_disabled":false,"rental_uris":{"android":"levelo://app?vid=0edb73c2-0d71-41ef-92a0-39c6197600e4","ios":"levelo://app?vid=0edb73c2-0d71-41ef-92a0-39c6197600e4"},"vehicle_type_id":"4","last_reported":1769700286,"current_range_meters":8400,"station_id":"st_d3n2fo6cfp8s73cte1j0","pricing_plan_id":"cebpf4jnsgd1na2vs0mg"},{"bike_id":"74f15e47-3367-473d-b70d-51b716edacba","system_id":"levelo_inurba_marseille","lat":43.30563,"lon":5.36502,"is_reserved":false,"is_disabled":false,"rental_uris":{"android":"levelo://app?vid=74f15e47-3367-473d-b70d-51b716edacba","ios":"levelo://app?vid=74f15e47-3367-473d-b70d-51b716edacba"},"vehicle_type_id":"4","last_reported":1769700286,"current_range_meters":8400,"station_id":"ce4bgs12rcd13ifvqcag","pricing_plan_id":"cebpf4jnsgd1na2vs0mg"},{"bike_id":"57f7675a-92c0-43a1-95d7-5f7d193cbf34","system_id":"levelo_inurba_marseille","lat":43.320536,"lon":5.414528,"is_reserved":false,"is_disabled":false,"rental_uris":{"android":"levelo://app?vid=57f7675a-92c0-43a1-95d7-5f7d193cbf34","ios":"levelo://app?vid=57f7675a-92c0-43a1-95d7-5f7d193cbf34"},"vehicle_type_id":"4","last_reported":1769700286,"current_range_meters":8400,"station_id":"ce4bhq92rcd13ifvqhkg","pricing_plan_id":"cebpf4jnsgd1na2vs0mg"},{"bike_id":"00153f95-778d-418a-84c7-7f32da51fa5b","system_id":"levelo_inurba_marseille","lat":43.27957,"lon":5.38692,"is_reserved":false,"is_disabled":false,"rental_uris":{"android":"levelo://app?vid=00153f95-778d-418a-84c7-7f32da51fa5b","ios":"levelo://app?vid=00153f95-778d-418a-84c7-7f32da51fa5b"},"vehicle_type_id":"4","last_reported":1769700286,"current_range_meters":8400,"station_id":"ce4bhg12rcd13ifvqf80","pricing_plan_id":"cebpf4jnsgd1na2vs0mg"},{"bike_id":"bd551aec-24c2-4aba-b573-e89c13f76575","system_id":"levelo_inurba_marseille","lat":43.25572,"lon":5.3823,"is_reserved":false,"is_disabled":false,"rental_uris":{"android":"levelo://app?vid=bd551aec-24c2-4aba-b573-e89c13f76575","ios":"levelo://app?vid=bd551aec-24c2-4aba-b573-e89c13f76575"},"vehicle_type_id":"4","last_reported":1769700286,"current_range_meters":8400,"station_id":"ce4bhih2rcd13ifvqfs0","pricing_plan_id":"cebpf4jnsgd1na2vs0mg"},{"bike_id":"af654c71-a67d-46af-bf40-a020e2f3bf53","system_id":"levelo_inurba_marseille","lat":43.25022,"lon":5.38916,"is_reserved":false,"is_disabled":false,"rental_uris":{"android":"levelo://app?vid=af654c71-a67d-46af-bf40-a020e2f3bf53","ios":"levelo://app?vid=af654c71-a67d-46af-bf40-a020e2f3bf53"},"vehicle_type_id":"4","last_reported":1769700286,"current_range_meters":8400,"station_id":"ce4bhgp2rcd13ifvqfd0","pricing_plan_id":"cebpf4jnsgd1na2vs0mg"},{"bike_id":"1df32dff-5611-415d-8fae-817c467a81ff","system_id":"levelo_inurba_marseille","lat":43.23057,"lon":5.35486,"is_reserved":false,"is_disabled":false,"rental_uris":{"android":"levelo://app?vid=1df32dff-5611-415d-8fae-817c467a81ff","ios":"levelo://app?vid=1df32dff-5611-415d-8fae-817c467a81ff"},"vehicle_type_id":"4","last_reported":1769700286,"current_range_meters":8400,"station_id":"cpo3342slgdg3j2ifvpg","pricing_plan_id":"cebpf4jnsgd1na2vs0mg"},{"bike_id":"33f3d384-abd0-4303-afce-4077564c5ec0","system_id":"levelo_inurba_marseille","lat":43.29791,"lon":5.42754,"is_reserved":false,"is_disabled":false,"rental_uris":{"android":"levelo://app?vid=33f3d384-abd0-4303-afce-4077564c5ec0","ios":"levelo://app?vid=33f3d384-abd0-4303-afce-4077564c5ec0"},"vehicle_type_id":"4","last_reported":1769700286,"current_range_meters":8400,"station_id":"st_d3md5207bmas73dh9klg","pricing_plan_id":"cebpf4jnsgd1na2vs0mg"},{"bike_id":"ef68bdf9-fa71-483b-bc99-7f9581830aca","system_id":"levelo_inurba_marseille","lat":43.30615,"lon":5.36747,"is_reserved":false,"is_disabled":false,"rental_uris":{"android":"levelo://app?vid=ef68bdf9-fa71-483b-bc99-7f9581830aca","ios":"levelo://app?vid=ef68bdf9-fa71-483b-bc99-7f9581830aca"},"vehicle_type_id":"4","last_reported":1769700286,"current_range_meters":8800,"station_id":"","pricing_plan_id":"cebpf4jnsgd1na2vs0mg"},{"bike_id":"83fc5387-9bd8-4dec-804d-abfa877a86a6","system_id":"levelo_inurba_marseille","lat":43.298204,"lon":5.4407,"is_reserved":false,"is_disabled":false,"rental_uris":{"android":"levelo://app?vid=83fc5387-9bd8-4dec-804d-abfa877a86a6","ios":"levelo://app?vid=83fc5387-9bd8-4dec-804d-abfa877a86a6"},"vehicle_type_id":"4","last_reported":1769700286,"current_range_meters":8800,"station_id":"","pricing_plan_id":"cebpf4jnsgd1na2vs0mg"},{"bike_id":"bd889336-68ff-4f09-8c88-588306cf9fc6","system_id":"levelo_inurba_marseille","lat":43.27058,"lon":5.40322,"is_reserved":false,"is_disabled":false,"rental_uris":{"android":"levelo://app?vid=bd889336-68ff-4f09-8c88-588306cf9fc6","ios":"levelo://app?vid=bd889336-68ff-4f09-8c88-588306cf9fc6"},"vehicle_type_id":"4","last_reported":1769700286,"current_range_meters":8800,"station_id":"","pricing_plan_id":"cebpf4jnsgd1na2vs0mg"},{"bike_id":"19d683cf-05e9-434a-b587-af5793fe2201","system_id":"levelo_inurba_marseille","lat":43.3091,"lon":5.36852,"is_reserved":false,"is_disabled":false,"rental_uris":{"android":"levelo://app?vid=19d683cf-05e9-434a-b587-af5793fe2201","ios":"levelo://app?vid=19d683cf-05e9-434a-b587-af5793fe2201"},"vehicle_type_id":"4","last_reported":1769700286,"current_range_meters":8800,"station_id":"ce4bgn92rcd13ifvqbvg","pricing_plan_id":"cebpf4jnsgd1na2vs0mg"},{"bike_id":"82693396-ff61-48ee-9772-fee51d6503d4","system_id":"levelo_inurba_marseille","lat":43.29554,"lon":5.42291,"is_reserved":false,"is_disabled":false,"rental_uris":{"android":"levelo://app?vid=82693396-ff61-48ee-9772-fee51d6503d4","ios":"levelo://app?vid=82693396-ff61-48ee-9772-fee51d6503d4"},"vehicle_type_id":"4","last_reported":1769700286,"current_range_meters":8800,"station_id":"ce4bhph2rcd13ifvqhdg","pricing_plan_id":"cebpf4jnsgd1na2vs0mg"},{"bike_id":"5417ecf1-5c28-449a-a086-27acd88e9f4e","system_id":"levelo_inurba_marseille","lat":43.21195,"lon":5.35079,"is_reserved":false,"is_disabled":false,"rental_uris":{"android":"levelo://app?vid=5417ecf1-5c28-449a-a086-27acd88e9f4e","ios":"levelo://app?vid=5417ecf1-5c28-449a-a086-27acd88e9f4e"},"vehicle_type_id":"4","last_reported":1769700286,"current_range_meters":8800,"station_id":"st_cvj6sg6p6f1abm77japg","pricing_plan_id":"cebpf4jnsgd1na2vs0mg"},{"bike_id":"6a0e40e4-3258-4516-885d-71d0968e64ad","system_id":"levelo_inurba_marseille","lat":43.23055,"lon":5.35484,"is_reserved":false,"is_disabled":false,"rental_uris":{"android":"levelo://app?vid=6a0e40e4-3258-4516-885d-71d0968e64ad","ios":"levelo://app?vid=6a0e40e4-3258-4516-885d-71d0968e64ad"},"vehicle_type_id":"4","last_reported":1769700286,"current_range_meters":8800,"station_id":"cpo3342slgdg3j2ifvpg","pricing_plan_id":"cebpf4jnsgd1na2vs0mg"},{"bike_id":"b93f36af-6012-4250-a69f-3de373ca3510","system_id":"levelo_inurba_marseille","lat":43.28265,"lon":5.35078,"is_reserved":false,"is_disabled":false,"rental_uris":{"android":"levelo://app?vid=b93f36af-6012-4250-a69f-3de373ca3510","ios":"levelo://app?vid=b93f36af-6012-4250-a69f-3de373ca3510"},"vehicle_type_id":"4","last_reported":1769700286,"current_range_meters":8800,"station_id":"ce4bhbp2rcd13ifvqerg","pricing_plan_id":"cebpf4jnsgd1na2vs0mg"},{"bike_id":"a08d99c3-7c3b-454a-985d-58cd2c6fd1f4","system_id":"levelo_inurba_marseille","lat":43.2738,"lon":5.36247,"is_reserved":false,"is_disabled":false,"rental_uris":{"android":"levelo://app?vid=a08d99c3-7c3b-454a-985d-58cd2c6fd1f4","ios":"levelo://app?vid=a08d99c3-7c3b-454a-985d-58cd2c6fd1f4"},"vehicle_type_id":"4","last_reported":1769700286,"current_range_meters":8800,"station_id":"ce4bhbh2rcd13ifvqeo0","pricing_plan_id":"cebpf4jnsgd1na2vs0mg"},{"bike_id":"2db3e4ff-a0f9-45a2-8cc0-02e9b0439c10","system_id":"levelo_inurba_marseille","lat":43.31299,"lon":5.36926,"is_reserved":false,"is_disabled":false,"rental_uris":{"android":"levelo://app?vid=2db3e4ff-a0f9-45a2-8cc0-02e9b0439c10","ios":"levelo://app?vid=2db3e4ff-a0f9-45a2-8cc0-02e9b0439c10"},"vehicle_type_id":"4","last_reported":1769700286,"current_range_meters":8800,"station_id":"","pricing_plan_id":"cebpf4jnsgd1na2vs0mg"},{"bike_id":"e04521ca-ce5b-4911-93eb-efa07b2cc503","system_id":"levelo_inurba_marseille","lat":43.29482,"lon":5.43297,"is_reserved":false,"is_disabled":false,"rental_uris":{"android":"levelo://app?vid=e04521ca-ce5b-4911-93eb-efa07b2cc503","ios":"levelo://app?vid=e04521ca-ce5b-4911-93eb-efa07b2cc503"},"vehicle_type_id":"4","last_reported":1769700286,"current_range_meters":8800,"station_id":"st_d3j5ugp08ojc73fj9d10","pricing_plan_id":"cebpf4jnsgd1na2vs0mg"},{"bike_id":"3dc504de-340a-4960-9295-e93227b46b5e","system_id":"levelo_inurba_marseille","lat":43.32105,"lon":5.36756,"is_reserved":false,"is_disabled":false,"rental_uris":{"android":"levelo://app?vid=3dc504de-340a-4960-9295-e93227b46b5e","ios":"levelo://app?vid=3dc504de-340a-4960-9295-e93227b46b5e"},"vehicle_type_id":"4","last_reported":1769700286,"current_range_meters":8800,"station_id":"ce4bhrh2rcd13ifvqhug","pricing_plan_id":"cebpf4jnsgd1na2vs0mg"},{"bike_id":"f77f11ea-c57f-4a1e-b998-1859acb2e91b","system_id":"levelo_inurba_marseille","lat":43.28612,"lon":5.351,"is_reserved":false,"is_disabled":false,"rental_uris":{"android":"levelo://app?vid=f77f11ea-c57f-4a1e-b998-1859acb2e91b","ios":"levelo://app?vid=f77f11ea-c57f-4a1e-b998-1859acb2e91b"},"vehicle_type_id":"4","last_reported":1769700286,"current_range_meters":9200,"station_id":"ce4bhch2rcd13ifvqeug","pricing_plan_id":"cebpf4jnsgd1na2vs0mg"},{"bike_id":"ec911151-785b-471f-816f-85abb26c2bab","system_id":"levelo_inurba_marseille","lat":43.32352,"lon":5.36743,"is_reserved":false,"is_disabled":false,"rental_uris":{"android":"levelo://app?vid=ec911151-785b-471f-816f-85abb26c2bab","ios":"levelo://app?vid=ec911151-785b-471f-816f-85abb26c2bab"},"vehicle_type_id":"4","last_reported":1769700286,"current_range_meters":9200,"station_id":"ce4bhsh2rcd13ifvqi2g","pricing_plan_id":"cebpf4jnsgd1na2vs0mg"},{"bike_id":"2626a307-09e6-4806-8747-64c64cf9b162","system_id":"levelo_inurba_marseille","lat":43.24475,"lon":5.42531,"is_reserved":false,"is_disabled":false,"rental_uris":{"android":"levelo://app?vid=2626a307-09e6-4806-8747-64c64cf9b162","ios":"levelo://app?vid=2626a307-09e6-4806-8747-64c64cf9b162"},"vehicle_type_id":"4","last_reported":1769700286,"current_range_meters":9200,"station_id":"st_d4a3vfp97mjs738cd8kg","pricing_plan_id":"cebpf4jnsgd1na2vs0mg"},{"bike_id":"10b424c6-99ba-423a-9370-8bef633fb2cb","system_id":"levelo_inurba_marseille","lat":43.25213,"lon":5.38048,"is_reserved":false,"is_disabled":false,"rental_uris":{"android":"levelo://app?vid=10b424c6-99ba-423a-9370-8bef633fb2cb","ios":"levelo://app?vid=10b424c6-99ba-423a-9370-8bef633fb2cb"},"vehicle_type_id":"4","last_reported":1769700286,"current_range_meters":9200,"station_id":"","pricing_plan_id":"cebpf4jnsgd1na2vs0mg"},{"bike_id":"14d042fc-e4e6-446c-9976-9a8ebf64e361","system_id":"levelo_inurba_marseille","lat":43.29602,"lon":5.37725,"is_reserved":false,"is_disabled":false,"rental_uris":{"android":"levelo://app?vid=14d042fc-e4e6-446c-9976-9a8ebf64e361","ios":"levelo://app?vid=14d042fc-e4e6-446c-9976-9a8ebf64e361"},"vehicle_type_id":"4","last_reported":1769700286,"current_range_meters":9200,"station_id":"ce4bgi92rcd13ifvqb90","pricing_plan_id":"cebpf4jnsgd1na2vs0mg"},{"bike_id":"43108044-4682-404d-830f-a43f6f0d82ce","system_id":"levelo_inurba_marseille","lat":43.23149,"lon":5.43705,"is_reserved":false,"is_disabled":false,"rental_uris":{"android":"levelo://app?vid=43108044-4682-404d-830f-a43f6f0d82ce","ios":"levelo://app?vid=43108044-4682-404d-830f-a43f6f0d82ce"},"vehicle_type_id":"4","last_reported":1769700286,"current_range_meters":9200,"station_id":"ce4bhmp2rcd13ifvqgog","pricing_plan_id":"cebpf4jnsgd1na2vs0mg"},{"bike_id":"9f7ee4e2-4919-499a-9987-bc34ae6d7bc8","system_id":"levelo_inurba_marseille","lat":43.29533,"lon":5.38546,"is_reserved":false,"is_disabled":false,"rental_uris":{"android":"levelo://app?vid=9f7ee4e2-4919-499a-9987-bc34ae6d7bc8","ios":"levelo://app?vid=9f7ee4e2-4919-499a-9987-bc34ae6d7bc8"},"vehicle_type_id":"4","last_reported":1769700286,"current_range_meters":9200,"station_id":"ce4bgih2rcd13ifvqba0","pricing_plan_id":"cebpf4jnsgd1na2vs0mg"},{"bike_id":"9a236fca-75ff-411c-bb2a-afc86c1efe94","system_id":"levelo_inurba_marseille","lat":43.29934,"lon":5.36499,"is_reserved":false,"is_disabled":false,"rental_uris":{"android":"levelo://app?vid=9a236fca-75ff-411c-bb2a-afc86c1efe94","ios":"levelo://app?vid=9a236fca-75ff-411c-bb2a-afc86c1efe94"},"vehicle_type_id":"4","last_reported":1769700286,"current_range_meters":9200,"station_id":"ce4bgm92rcd13ifvqbr0","pricing_plan_id":"cebpf4jnsgd1na2vs0mg"},{"bike_id":"5c93f9e8-2c24-42f8-a4c3-580483255d5b","system_id":"levelo_inurba_marseille","lat":43.29173,"lon":5.37146,"is_reserved":false,"is_disabled":false,"rental_uris":{"android":"levelo://app?vid=5c93f9e8-2c24-42f8-a4c3-580483255d5b","ios":"levelo://app?vid=5c93f9e8-2c24-42f8-a4c3-580483255d5b"},"vehicle_type_id":"4","last_reported":1769700286,"current_range_meters":9200,"station_id":"ce4bha92rcd13ifvqeh0","pricing_plan_id":"cebpf4jnsgd1na2vs0mg"},{"bike_id":"3632ec53-6aa1-4f66-b8bb-9f83d524d28e","system_id":"levelo_inurba_marseille","lat":43.27622,"lon":5.36097,"is_reserved":false,"is_disabled":false,"rental_uris":{"android":"levelo://app?vid=3632ec53-6aa1-4f66-b8bb-9f83d524d28e","ios":"levelo://app?vid=3632ec53-6aa1-4f66-b8bb-9f83d524d28e"},"vehicle_type_id":"4","last_reported":1769700286,"current_range_meters":9200,"station_id":"ce4bgj92rcd13ifvqbe0","pricing_plan_id":"cebpf4jnsgd1na2vs0mg"},{"bike_id":"b3808154-86af-47d0-966c-f1cc0984587d","system_id":"levelo_inurba_marseille","lat":43.33758,"lon":5.37472,"is_reserved":false,"is_disabled":false,"rental_uris":{"android":"levelo://app?vid=b3808154-86af-47d0-966c-f1cc0984587d","ios":"levelo://app?vid=b3808154-86af-47d0-966c-f1cc0984587d"},"vehicle_type_id":"4","last_reported":1769700286,"current_range_meters":9200,"station_id":"","pricing_plan_id":"cebpf4jnsgd1na2vs0mg"},{"bike_id":"456727bd-baa8-41bf-ae9f-158a99ff9411","system_id":"levelo_inurba_marseille","lat":43.22577,"lon":5.41637,"is_reserved":false,"is_disabled":false,"rental_uris":{"android":"levelo://app?vid=456727bd-baa8-41bf-ae9f-158a99ff9411","ios":"levelo://app?vid=456727bd-baa8-41bf-ae9f-158a99ff9411"},"vehicle_type_id":"4","last_reported":1769700286,"current_range_meters":9600,"station_id":"st_d2o4gvlbi1j2169b742g","pricing_plan_id":"cebpf4jnsgd1na2vs0mg"},{"bike_id":"6f2111dd-6b6a-402c-9729-62f7313dcc5e","system_id":"levelo_inurba_marseille","lat":43.323524,"lon":5.367517,"is_reserved":false,"is_disabled":false,"rental_uris":{"android":"levelo://app?vid=6f2111dd-6b6a-402c-9729-62f7313dcc5e","ios":"levelo://app?vid=6f2111dd-6b6a-402c-9729-62f7313dcc5e"},"vehicle_type_id":"4","last_reported":1769700286,"current_range_meters":9600,"station_id":"ce4bhsh2rcd13ifvqi2g","pricing_plan_id":"cebpf4jnsgd1na2vs0mg"},{"bike_id":"805015d0-c12d-4724-9c74-0106ed455fd9","system_id":"levelo_inurba_marseille","lat":43.24971,"lon":5.40471,"is_reserved":false,"is_disabled":false,"rental_uris":{"android":"levelo://app?vid=805015d0-c12d-4724-9c74-0106ed455fd9","ios":"levelo://app?vid=805015d0-c12d-4724-9c74-0106ed455fd9"},"vehicle_type_id":"4","last_reported":1769700286,"current_range_meters":9600,"station_id":"st_d2ngiaodas8pm72gd1h0","pricing_plan_id":"cebpf4jnsgd1na2vs0mg"},{"bike_id":"e858244c-580e-4a5e-a86b-9fc7e954317c","system_id":"levelo_inurba_marseille","lat":43.31246,"lon":5.37987,"is_reserved":false,"is_disabled":true,"rental_uris":{"android":"levelo://app?vid=e858244c-580e-4a5e-a86b-9fc7e954317c","ios":"levelo://app?vid=e858244c-580e-4a5e-a86b-9fc7e954317c"},"vehicle_type_id":"4","last_reported":1769700286,"current_range_meters":9600,"station_id":"","pricing_plan_id":"cebpf4jnsgd1na2vs0mg"},{"bike_id":"56df53c0-31f3-4842-81aa-260f03643809","system_id":"levelo_inurba_marseille","lat":43.29034,"lon":5.38147,"is_reserved":false,"is_disabled":false,"rental_uris":{"android":"levelo://app?vid=56df53c0-31f3-4842-81aa-260f03643809","ios":"levelo://app?vid=56df53c0-31f3-4842-81aa-260f03643809"},"vehicle_type_id":"4","last_reported":1769700286,"current_range_meters":9600,"station_id":"ce4bh4p2rcd13ifvqe1g","pricing_plan_id":"cebpf4jnsgd1na2vs0mg"},{"bike_id":"60601e53-e690-41e3-9640-0b5d8353d610","system_id":"levelo_inurba_marseille","lat":43.22934,"lon":5.35374,"is_reserved":false,"is_disabled":false,"rental_uris":{"android":"levelo://app?vid=60601e53-e690-41e3-9640-0b5d8353d610","ios":"levelo://app?vid=60601e53-e690-41e3-9640-0b5d8353d610"},"vehicle_type_id":"4","last_reported":1769700286,"current_range_meters":9600,"station_id":"cpo3532slgdg3j2ikp40","pricing_plan_id":"cebpf4jnsgd1na2vs0mg"},{"bike_id":"f7ad364f-2078-4f65-a89f-0f7244e8078d","system_id":"levelo_inurba_marseille","lat":43.26679,"lon":5.38264,"is_reserved":false,"is_disabled":false,"rental_uris":{"android":"levelo://app?vid=f7ad364f-2078-4f65-a89f-0f7244e8078d","ios":"levelo://app?vid=f7ad364f-2078-4f65-a89f-0f7244e8078d"},"vehicle_type_id":"4","last_reported":1769700286,"current_range_meters":9600,"station_id":"ce4bhg92rcd13ifvqf90","pricing_plan_id":"cebpf4jnsgd1na2vs0mg"},{"bike_id":"7008570a-4030-4a5c-bce0-6e90ab09f5fd","system_id":"levelo_inurba_marseille","lat":43.24669,"lon":5.38147,"is_reserved":false,"is_disabled":false,"rental_uris":{"android":"levelo://app?vid=7008570a-4030-4a5c-bce0-6e90ab09f5fd","ios":"levelo://app?vid=7008570a-4030-4a5c-bce0-6e90ab09f5fd"},"vehicle_type_id":"4","last_reported":1769700286,"current_range_meters":9600,"station_id":"ce4bhih2rcd13ifvqfr0","pricing_plan_id":"cebpf4jnsgd1na2vs0mg"},{"bike_id":"0f7a0478-f488-41ec-ba60-c6d95f2d536e","system_id":"levelo_inurba_marseille","lat":43.29524,"lon":5.37493,"is_reserved":false,"is_disabled":false,"rental_uris":{"android":"levelo://app?vid=0f7a0478-f488-41ec-ba60-c6d95f2d536e","ios":"levelo://app?vid=0f7a0478-f488-41ec-ba60-c6d95f2d536e"},"vehicle_type_id":"4","last_reported":1769700286,"current_range_meters":9600,"station_id":"ce4bgkp2rcd13ifvqbmg","pricing_plan_id":"cebpf4jnsgd1na2vs0mg"},{"bike_id":"7714d863-1c60-4efa-a925-44984599d482","system_id":"levelo_inurba_marseille","lat":43.297562,"lon":5.42777,"is_reserved":false,"is_disabled":false,"rental_uris":{"android":"levelo://app?vid=7714d863-1c60-4efa-a925-44984599d482","ios":"levelo://app?vid=7714d863-1c60-4efa-a925-44984599d482"},"vehicle_type_id":"4","last_reported":1769700286,"current_range_meters":9600,"station_id":"st_d3md5207bmas73dh9klg","pricing_plan_id":"cebpf4jnsgd1na2vs0mg"},{"bike_id":"373cb557-ba27-44b4-ae77-5627bb7dd352","system_id":"levelo_inurba_marseille","lat":43.21167,"lon":5.35101,"is_reserved":false,"is_disabled":true,"rental_uris":{"android":"levelo://app?vid=373cb557-ba27-44b4-ae77-5627bb7dd352","ios":"levelo://app?vid=373cb557-ba27-44b4-ae77-5627bb7dd352"},"vehicle_type_id":"4","last_reported":1769700286,"current_range_meters":9600,"station_id":"st_cvj6sg6p6f1abm77japg","pricing_plan_id":"cebpf4jnsgd1na2vs0mg"},{"bike_id":"509406a3-6237-4b52-82b7-df007473730d","system_id":"levelo_inurba_marseille","lat":43.2794,"lon":5.38299,"is_reserved":false,"is_disabled":false,"rental_uris":{"android":"levelo://app?vid=509406a3-6237-4b52-82b7-df007473730d","ios":"levelo://app?vid=509406a3-6237-4b52-82b7-df007473730d"},"vehicle_type_id":"4","last_reported":1769700286,"current_range_meters":9600,"station_id":"","pricing_plan_id":"cebpf4jnsgd1na2vs0mg"},{"bike_id":"d7aebfc7-b03c-4762-813f-bee8f904040f","system_id":"levelo_inurba_marseille","lat":43.30331,"lon":5.40422,"is_reserved":false,"is_disabled":false,"rental_uris":{"android":"levelo://app?vid=d7aebfc7-b03c-4762-813f-bee8f904040f","ios":"levelo://app?vid=d7aebfc7-b03c-4762-813f-bee8f904040f"},"vehicle_type_id":"4","last_reported":1769700286,"current_range_meters":9600,"station_id":"ce4bh012rcd13ifvqd10","pricing_plan_id":"cebpf4jnsgd1na2vs0mg"},{"bike_id":"cf8f77dc-0a59-4e31-835f-e737a9e8f4d3","system_id":"levelo_inurba_marseille","lat":43.293441,"lon":5.374481,"is_reserved":false,"is_disabled":false,"rental_uris":{"android":"levelo://app?vid=cf8f77dc-0a59-4e31-835f-e737a9e8f4d3","ios":"levelo://app?vid=cf8f77dc-0a59-4e31-835f-e737a9e8f4d3"},"vehicle_type_id":"4","last_reported":1769700286,"current_range_meters":9600,"station_id":"ce4bgi12rcd13ifvqb70","pricing_plan_id":"cebpf4jnsgd1na2vs0mg"},{"bike_id":"42a9da4c-3957-42db-8da1-7f72615cc200","system_id":"levelo_inurba_marseille","lat":43.270587,"lon":5.40266,"is_reserved":false,"is_disabled":false,"rental_uris":{"android":"levelo://app?vid=42a9da4c-3957-42db-8da1-7f72615cc200","ios":"levelo://app?vid=42a9da4c-3957-42db-8da1-7f72615cc200"},"vehicle_type_id":"4","last_reported":1769700286,"current_range_meters":9600,"station_id":"ce4bhk92rcd13ifvqgc0","pricing_plan_id":"cebpf4jnsgd1na2vs0mg"},{"bike_id":"91be1517-8430-4627-86f0-7ff7e9187df9","system_id":"levelo_inurba_marseille","lat":43.30381,"lon":5.42484,"is_reserved":false,"is_disabled":false,"rental_uris":{"android":"levelo://app?vid=91be1517-8430-4627-86f0-7ff7e9187df9","ios":"levelo://app?vid=91be1517-8430-4627-86f0-7ff7e9187df9"},"vehicle_type_id":"4","last_reported":1769700286,"current_range_meters":9600,"station_id":"ce4bhoh2rcd13ifvqh6g","pricing_plan_id":"cebpf4jnsgd1na2vs0mg"},{"bike_id":"c0b52d7c-8c92-4714-8812-1ea39556fa8b","system_id":"levelo_inurba_marseille","lat":43.31496,"lon":5.37304,"is_reserved":false,"is_disabled":false,"rental_uris":{"android":"levelo://app?vid=c0b52d7c-8c92-4714-8812-1ea39556fa8b","ios":"levelo://app?vid=c0b52d7c-8c92-4714-8812-1ea39556fa8b"},"vehicle_type_id":"4","last_reported":1769700286,"current_range_meters":9600,"station_id":"ce4bgt12rcd13ifvqcd0","pricing_plan_id":"cebpf4jnsgd1na2vs0mg"},{"bike_id":"b62bc338-8583-4efd-bdb8-920b9bd4e4dc","system_id":"levelo_inurba_marseille","lat":43.25577,"lon":5.38232,"is_reserved":false,"is_disabled":false,"rental_uris":{"android":"levelo://app?vid=b62bc338-8583-4efd-bdb8-920b9bd4e4dc","ios":"levelo://app?vid=b62bc338-8583-4efd-bdb8-920b9bd4e4dc"},"vehicle_type_id":"4","last_reported":1769700286,"current_range_meters":9600,"station_id":"ce4bhih2rcd13ifvqfs0","pricing_plan_id":"cebpf4jnsgd1na2vs0mg"},{"bike_id":"90264e01-eab1-4c64-b49c-0b83b4dd4621","system_id":"levelo_inurba_marseille","lat":43.2417,"lon":5.364,"is_reserved":false,"is_disabled":false,"rental_uris":{"android":"levelo://app?vid=90264e01-eab1-4c64-b49c-0b83b4dd4621","ios":"levelo://app?vid=90264e01-eab1-4c64-b49c-0b83b4dd4621"},"vehicle_type_id":"4","last_reported":1769700286,"current_range_meters":9600,"station_id":"cpo36qri1sfpv3e86is0","pricing_plan_id":"cebpf4jnsgd1na2vs0mg"},{"bike_id":"1bdcfa06-b603-4cf3-91e0-6d0ecfa97571","system_id":"levelo_inurba_marseille","lat":43.29059,"lon":5.39968,"is_reserved":false,"is_disabled":false,"rental_uris":{"android":"levelo://app?vid=1bdcfa06-b603-4cf3-91e0-6d0ecfa97571","ios":"levelo://app?vid=1bdcfa06-b603-4cf3-91e0-6d0ecfa97571"},"vehicle_type_id":"4","last_reported":1769700286,"current_range_meters":9600,"station_id":"ce4bh392rcd13ifvqdm0","pricing_plan_id":"cebpf4jnsgd1na2vs0mg"},{"bike_id":"69cd541c-db0a-4eeb-8903-4f3d28282f04","system_id":"levelo_inurba_marseille","lat":43.24811,"lon":5.37464,"is_reserved":false,"is_disabled":false,"rental_uris":{"android":"levelo://app?vid=69cd541c-db0a-4eeb-8903-4f3d28282f04","ios":"levelo://app?vid=69cd541c-db0a-4eeb-8903-4f3d28282f04"},"vehicle_type_id":"4","last_reported":1769700286,"current_range_meters":9600,"station_id":"ce4bhgh2rcd13ifvqfb0","pricing_plan_id":"cebpf4jnsgd1na2vs0mg"},{"bike_id":"76656029-63ad-4a62-a7cb-555cda44c48d","system_id":"levelo_inurba_marseille","lat":43.26066,"lon":5.39398,"is_reserved":false,"is_disabled":false,"rental_uris":{"android":"levelo://app?vid=76656029-63ad-4a62-a7cb-555cda44c48d","ios":"levelo://app?vid=76656029-63ad-4a62-a7cb-555cda44c48d"},"vehicle_type_id":"4","last_reported":1769700286,"current_range_meters":9600,"station_id":"ce4bhh92rcd13ifvqfj0","pricing_plan_id":"cebpf4jnsgd1na2vs0mg"},{"bike_id":"a9d5a55c-e6f8-4cac-aa21-2065b21c8b47","system_id":"levelo_inurba_marseille","lat":43.24975,"lon":5.4046,"is_reserved":false,"is_disabled":false,"rental_uris":{"android":"levelo://app?vid=a9d5a55c-e6f8-4cac-aa21-2065b21c8b47","ios":"levelo://app?vid=a9d5a55c-e6f8-4cac-aa21-2065b21c8b47"},"vehicle_type_id":"4","last_reported":1769700286,"current_range_meters":10000,"station_id":"st_d2ngiaodas8pm72gd1h0","pricing_plan_id":"cebpf4jnsgd1na2vs0mg"},{"bike_id":"82a6b099-0577-4798-9a60-21fb38c2bbb7","system_id":"levelo_inurba_marseille","lat":43.29818,"lon":5.44065,"is_reserved":false,"is_disabled":false,"rental_uris":{"android":"levelo://app?vid=82a6b099-0577-4798-9a60-21fb38c2bbb7","ios":"levelo://app?vid=82a6b099-0577-4798-9a60-21fb38c2bbb7"},"vehicle_type_id":"4","last_reported":1769700286,"current_range_meters":10000,"station_id":"st_d3jp68qikq2c7381ktn0","pricing_plan_id":"cebpf4jnsgd1na2vs0mg"},{"bike_id":"be405149-5ca4-4ebc-92a4-97894aaa4423","system_id":"levelo_inurba_marseille","lat":43.29688,"lon":5.36579,"is_reserved":false,"is_disabled":false,"rental_uris":{"android":"levelo://app?vid=be405149-5ca4-4ebc-92a4-97894aaa4423","ios":"levelo://app?vid=be405149-5ca4-4ebc-92a4-97894aaa4423"},"vehicle_type_id":"4","last_reported":1769700286,"current_range_meters":10000,"station_id":"ce4bgn12rcd13ifvqbt0","pricing_plan_id":"cebpf4jnsgd1na2vs0mg"},{"bike_id":"d9b6343b-4e87-445f-8063-2fce9657168c","system_id":"levelo_inurba_marseille","lat":43.30381,"lon":5.3759,"is_reserved":false,"is_disabled":false,"rental_uris":{"android":"levelo://app?vid=d9b6343b-4e87-445f-8063-2fce9657168c","ios":"levelo://app?vid=d9b6343b-4e87-445f-8063-2fce9657168c"},"vehicle_type_id":"4","last_reported":1769700286,"current_range_meters":10000,"station_id":"","pricing_plan_id":"cebpf4jnsgd1na2vs0mg"},{"bike_id":"a6eeddfb-d250-4cf9-af8f-13c22bb1c444","system_id":"levelo_inurba_marseille","lat":43.29594,"lon":5.37526,"is_reserved":false,"is_disabled":false,"rental_uris":{"android":"levelo://app?vid=a6eeddfb-d250-4cf9-af8f-13c22bb1c444","ios":"levelo://app?vid=a6eeddfb-d250-4cf9-af8f-13c22bb1c444"},"vehicle_type_id":"4","last_reported":1769700286,"current_range_meters":10000,"station_id":"ce4bgh92rcd13ifvqb50","pricing_plan_id":"cebpf4jnsgd1na2vs0mg"},{"bike_id":"a224862a-232e-4eae-9e87-90ad084f94a7","system_id":"levelo_inurba_marseille","lat":43.24168,"lon":5.36398,"is_reserved":false,"is_disabled":false,"rental_uris":{"android":"levelo://app?vid=a224862a-232e-4eae-9e87-90ad084f94a7","ios":"levelo://app?vid=a224862a-232e-4eae-9e87-90ad084f94a7"},"vehicle_type_id":"4","last_reported":1769700286,"current_range_meters":10000,"station_id":"cpo36qri1sfpv3e86is0","pricing_plan_id":"cebpf4jnsgd1na2vs0mg"},{"bike_id":"c78dcfbf-910d-47ce-833b-7105b81ab7d5","system_id":"levelo_inurba_marseille","lat":43.31377,"lon":5.38499,"is_reserved":false,"is_disabled":false,"rental_uris":{"android":"levelo://app?vid=c78dcfbf-910d-47ce-833b-7105b81ab7d5","ios":"levelo://app?vid=c78dcfbf-910d-47ce-833b-7105b81ab7d5"},"vehicle_type_id":"4","last_reported":1769700286,"current_range_meters":10000,"station_id":"ce4bgt92rcd13ifvqcf0","pricing_plan_id":"cebpf4jnsgd1na2vs0mg"},{"bike_id":"e7b0ca3a-399f-47c1-bc77-78a088dc6f96","system_id":"levelo_inurba_marseille","lat":43.26943,"lon":5.38667,"is_reserved":false,"is_disabled":false,"rental_uris":{"android":"levelo://app?vid=e7b0ca3a-399f-47c1-bc77-78a088dc6f96","ios":"levelo://app?vid=e7b0ca3a-399f-47c1-bc77-78a088dc6f96"},"vehicle_type_id":"4","last_reported":1769700286,"current_range_meters":10000,"station_id":"ce4bhh92rcd13ifvqfh0","pricing_plan_id":"cebpf4jnsgd1na2vs0mg"},{"bike_id":"0e79c48d-cdc7-44eb-ad7d-d24757dd50e7","system_id":"levelo_inurba_marseille","lat":43.323507,"lon":5.367457,"is_reserved":false,"is_disabled":false,"rental_uris":{"android":"levelo://app?vid=0e79c48d-cdc7-44eb-ad7d-d24757dd50e7","ios":"levelo://app?vid=0e79c48d-cdc7-44eb-ad7d-d24757dd50e7"},"vehicle_type_id":"4","last_reported":1769700286,"current_range_meters":10000,"station_id":"ce4bhsh2rcd13ifvqi2g","pricing_plan_id":"cebpf4jnsgd1na2vs0mg"},{"bike_id":"59ae0900-c855-4741-b5cf-c53827ed9733","system_id":"levelo_inurba_marseille","lat":43.24189,"lon":5.36379,"is_reserved":false,"is_disabled":false,"rental_uris":{"android":"levelo://app?vid=59ae0900-c855-4741-b5cf-c53827ed9733","ios":"levelo://app?vid=59ae0900-c855-4741-b5cf-c53827ed9733"},"vehicle_type_id":"4","last_reported":1769700286,"current_range_meters":10000,"station_id":"cpo36qri1sfpv3e86is0","pricing_plan_id":"cebpf4jnsgd1na2vs0mg"},