{"last_updated":1765898028,"ttl":60,"version":"2.2","data":{"bikes":[{"bike_id":"badd8d20-9209-4436-9c1f-a017c0e70e8a","system_id":"levelo_inurba_marseille","lat":43.3256,"lon":5.39321,"is_reserved":false,"is_disabled":false,"rental_uris":{"android":"levelo://app?vid=badd8d20-9209-4436-9c1f-a017c0e70e8a","ios":"levelo://app?vid=badd8d20-9209-4436-9c1f-a017c0e70e8a"},"vehicle_type_id":"4","last_reported":1765898028,"current_range_meters":2800,"station_id":"","pricing_plan_id":"cebpf4jnsgd1na2vs0mg"},{"bike_id":"8480a6fa-dbf5-49ce-9eba-5d312f6cddc5","system_id":"levelo_inurba_marseille","lat":43.28473,"lon":5.3844,"is_reserved":false,"is_disabled":false,"rental_uris":{"android":"levelo://app?vid=8480a6fa-dbf5-49ce-9eba-5d312f6cddc5","ios":"levelo://app?vid=8480a6fa-dbf5-49ce-9eba-5d312f6cddc5"},"vehicle_type_id":"4","last_reported":1765898028,"current_range_meters":2800,"station_id":"ce4bh512rcd13ifvqe3g","pricing_plan_id":"cebpf4jnsgd1na2vs0mg"},{"bike_id":"92ea3c94-de06-4687-a612-bad54a5b5585","system_id":"levelo_inurba_marseille","lat":43.28397,"lon":5.3863,"is_reserved":false,"is_disabled":false,"rental_uris":{"android":"levelo://app?vid=92ea3c94-de06-4687-a612-bad54a5b5585","ios":"levelo://app?vid=92ea3c94-de06-4687-a612-bad54a5b5585"},"vehicle_type_id":"4","last_reported":1765898028,"current_range_meters":2800,"station_id":"ce4bh492rcd13ifvqdvg","pricing_plan_id":"cebpf4jnsgd1na2vs0mg"},{"bike_id":"5e18826c-92d7-4ad4-882f-6f3a597c76ca","system_id":"levelo_inurba_marseille","lat":43.2379,"lon":5.36637,"is_reserved":false,"is_disabled":false,"rental_uris":{"android":"levelo://app?vid=5e18826c-92d7-4ad4-882f-6f3a597c76ca","ios":"levelo://app?vid=5e18826c-92d7-4ad4-882f-6f3a597c76ca"},"vehicle_type_id":"4","last_reported":1765898028,"current_range_meters":2800,"station_id":"st_d3nk18o9ro0c73en2l3g","pricing_plan_id":"cebpf4jnsgd1na2vs0mg"},{"bike_id":"f5f25559-d746-4be8-afc4-49941e97fed4","system_id":"levelo_inurba_marseille","lat":43.255034,"lon":5.376485,"is_reserved":false,"is_disabled":false,"rental_uris":{"android":"levelo://app?vid=f5f25559-d746-4be8-afc4-49941e97fed4","ios":"levelo://app?vid=f5f25559-d746-4be8-afc4-49941e97fed4"},"vehicle_type_id":"4","last_reported":1765898028,"current_range_meters":3200,"station_id":"ce4bhh12rcd13ifvqff0","pricing_plan_id":"cebpf4jnsgd1na2vs0mg"},{"bike_id":"a6bfd9b2-7f15-426c-b73b-e405e8711977","system_id":"levelo_inurba_marseille","lat":43.310254,"lon":5.375055,"is_reserved":false,"is_disabled":false,"rental_uris":{"android":"levelo://app?vid=a6bfd9b2-7f15-426c-b73b-e405e8711977","ios":"levelo://app?vid=a6bfd9b2-7f15-426c-b73b-e405e8711977"},"vehicle_type_id":"4","last_reported":1765898028,"current_range_meters":3600,"station_id":"","pricing_plan_id":"cebpf4jnsgd1na2vs0mg"},{"bike_id":"31ab4b60-9262-4dfc-bd74-3e2844a490f9","system_id":"levelo_inurba_marseille","lat":43.30296,"lon":5.36897,"is_reserved":false,"is_disabled":false,"rental_uris":{"android":"levelo://app?vid=31ab4b60-9262-4dfc-bd74-3e2844a490f9","ios":"levelo://app?vid=31ab4b60-9262-4dfc-bd74-3e2844a490f9"},"vehicle_type_id":"4","last_reported":1765898028,"current_range_meters":3600,"station_id":"ce4bgqh2rcd13ifvqc5g","pricing_plan_id":"cebpf4jnsgd1na2vs0mg"},{"bike_id":"6c5c7096-a36e-4475-9861-65239c39a14d","system_id":"levelo_inurba_marseille","lat":43.296,"lon":5.38096,"is_reserved":false,"is_disabled":false,"rental_uris":{"android":"levelo://app?vid=6c5c7096-a36e-4475-9861-65239c39a14d","ios":"levelo://app?vid=6c5c7096-a36e-4475-9861-65239c39a14d"},"vehicle_type_id":"4","last_reported":1765898028,"current_range_meters":4000,"station_id":"ce4bgl12rcd13ifvqbo0","pricing_plan_id":"cebpf4jnsgd1na2vs0mg"},{"bike_id":"13948e0f-5614-4a46-a865-1361c5ddd244","system_id":"levelo_inurba_marseille","lat":43.231842,"lon":5.436359,"is_reserved":false,"is_disabled":false,"rental_uris":{"android":"levelo://app?vid=13948e0f-5614-4a46-a865-1361c5ddd244","ios":"levelo://app?vid=13948e0f-5614-4a46-a865-1361c5ddd244"},"vehicle_type_id":"4","last_reported":1765898028,"current_range_meters":4000,"station_id":"ce4bhmp2rcd13ifvqgog","pricing_plan_id":"cebpf4jnsgd1na2vs0mg"},{"bike_id":"b0fe5393-fed7-4131-b477-a0f577b37311","system_id":"levelo_inurba_marseille","lat":43.2792,"lon":5.395749,"is_reserved":false,"is_disabled":false,"rental_uris":{"android":"levelo://app?vid=b0fe5393-fed7-4131-b477-a0f577b37311","ios":"levelo://app?vid=b0fe5393-fed7-4131-b477-a0f577b37311"},"vehicle_type_id":"4","last_reported":1765898028,"current_range_meters":4000,"station_id":"ce4bhf92rcd13ifvqf40","pricing_plan_id":"cebpf4jnsgd1na2vs0mg"},{"bike_id":"6a83c65e-9788-453c-baa4-91e19fcf2216","system_id":"levelo_inurba_marseille","lat":43.27918,"lon":5.395769,"is_reserved":false,"is_disabled":false,"rental_uris":{"android":"levelo://app?vid=6a83c65e-9788-453c-baa4-91e19fcf2216","ios":"levelo://app?vid=6a83c65e-9788-453c-baa4-91e19fcf2216"},"vehicle_type_id":"4","last_reported":1765898028,"current_range_meters":4000,"station_id":"ce4bhf92rcd13ifvqf40","pricing_plan_id":"cebpf4jnsgd1na2vs0mg"},{"bike_id":"8cebc640-98e5-454b-9c21-5bd82aaad1ae","system_id":"levelo_inurba_marseille","lat":43.26566,"lon":5.40332,"is_reserved":false,"is_disabled":false,"rental_uris":{"android":"levelo://app?vid=8cebc640-98e5-454b-9c21-5bd82aaad1ae","ios":"levelo://app?vid=8cebc640-98e5-454b-9c21-5bd82aaad1ae"},"vehicle_type_id":"4","last_reported":1765898028,"current_range_meters":4400,"station_id":"ce4bhmp2rcd13ifvqgng","pricing_plan_id":"cebpf4jnsgd1na2vs0mg"},{"bike_id":"d899d719-588b-4311-bdec-842da54b858f","system_id":"levelo_inurba_marseille","lat":43.28157,"lon":5.4264,"is_reserved":false,"is_disabled":false,"rental_uris":{"android":"levelo://app?vid=d899d719-588b-4311-bdec-842da54b858f","ios":"levelo://app?vid=d899d719-588b-4311-bdec-842da54b858f"},"vehicle_type_id":"4","last_reported":1765898028,"current_range_meters":4400,"station_id":"ce4bhnh2rcd13ifvqgug","pricing_plan_id":"cebpf4jnsgd1na2vs0mg"},{"bike_id":"06e04164-d3c6-47b3-a71d-f5122b44e162","system_id":"levelo_inurba_marseille","lat":43.25137,"lon":5.4032,"is_reserved":false,"is_disabled":false,"rental_uris":{"android":"levelo://app?vid=06e04164-d3c6-47b3-a71d-f5122b44e162","ios":"levelo://app?vid=06e04164-d3c6-47b3-a71d-f5122b44e162"},"vehicle_type_id":"4","last_reported":1765898028,"current_range_meters":4800,"station_id":"ce4bhlh2rcd13ifvqgig","pricing_plan_id":"cebpf4jnsgd1na2vs0mg"},{"bike_id":"4f6d8ad0-3991-4a51-b3dc-266a2ca4a7fe","system_id":"levelo_inurba_marseille","lat":43.29032,"lon":5.39983,"is_reserved":false,"is_disabled":true,"rental_uris":{"android":"levelo://app?vid=4f6d8ad0-3991-4a51-b3dc-266a2ca4a7fe","ios":"levelo://app?vid=4f6d8ad0-3991-4a51-b3dc-266a2ca4a7fe"},"vehicle_type_id":"4","last_reported":1765898028,"current_range_meters":4800,"station_id":"ce4bh392rcd13ifvqdm0","pricing_plan_id":"cebpf4jnsgd1na2vs0mg"},{"bike_id":"16e46842-5fbb-4343-aafe-a055237247e4","system_id":"levelo_inurba_marseille","lat":43.29038,"lon":5.39965,"is_reserved":false,"is_disabled":false,"rental_uris":{"android":"levelo://app?vid=16e46842-5fbb-4343-aafe-a055237247e4","ios":"levelo://app?vid=16e46842-5fbb-4343-aafe-a055237247e4"},"vehicle_type_id":"4","last_reported":1765898028,"current_range_meters":4800,"station_id":"ce4bh392rcd13ifvqdm0","pricing_plan_id":"cebpf4jnsgd1na2vs0mg"},{"bike_id":"9e86a8f6-999b-4b74-a782-0cc143493b72","system_id":"levelo_inurba_marseille","lat":43.27339,"lon":5.39105,"is_reserved":false,"is_disabled":false,"rental_uris":{"android":"levelo://app?vid=9e86a8f6-999b-4b74-a782-0cc143493b72","ios":"levelo://app?vid=9e86a8f6-999b-4b74-a782-0cc143493b72"},"vehicle_type_id":"4","last_reported":1765898028,"current_range_meters":4800,"station_id":"ce4bhgp2rcd13ifvqfe0","pricing_plan_id":"cebpf4jnsgd1na2vs0mg"},{"bike_id":"9736023b-a1cd-47de-9d9e-ff8767a259f0","system_id":"levelo_inurba_marseille","lat":43.28108,"lon":5.3784,"is_reserved":false,"is_disabled":false,"rental_uris":{"android":"levelo://app?vid=9736023b-a1cd-47de-9d9e-ff8767a259f0","ios":"levelo://app?vid=9736023b-a1cd-47de-9d9e-ff8767a259f0"},"vehicle_type_id":"4","last_reported":1765898028,"current_range_meters":4800,"station_id":"ce4bha12rcd13ifvqee0","pricing_plan_id":"cebpf4jnsgd1na2vs0mg"},{"bike_id":"46c9bf66-c507-4f70-8c05-0ca1ca119536","system_id":"levelo_inurba_marseille","lat":43.29576,"lon":5.37515,"is_reserved":false,"is_disabled":false,"rental_uris":{"android":"levelo://app?vid=46c9bf66-c507-4f70-8c05-0ca1ca119536","ios":"levelo://app?vid=46c9bf66-c507-4f70-8c05-0ca1ca119536"},"vehicle_type_id":"4","last_reported":1765898028,"current_range_meters":5600,"station_id":"ce4bgh92rcd13ifvqb50","pricing_plan_id":"cebpf4jnsgd1na2vs0mg"},{"bike_id":"66e10194-8e2d-4634-89ad-d66d649b5e60","system_id":"levelo_inurba_marseille","lat":43.28476,"lon":5.48401,"is_reserved":false,"is_disabled":false,"rental_uris":{"android":"levelo://app?vid=66e10194-8e2d-4634-89ad-d66d649b5e60","ios":"levelo://app?vid=66e10194-8e2d-4634-89ad-d66d649b5e60"},"vehicle_type_id":"4","last_reported":1765898028,"current_range_meters":5600,"station_id":"","pricing_plan_id":"cebpf4jnsgd1na2vs0mg"},{"bike_id":"af60ad45-1773-4b17-8cbf-b5714f9a120e","system_id":"levelo_inurba_marseille","lat":43.337666,"lon":5.374436,"is_reserved":false,"is_disabled":false,"rental_uris":{"android":"levelo://app?vid=af60ad45-1773-4b17-8cbf-b5714f9a120e","ios":"levelo://app?vid=af60ad45-1773-4b17-8cbf-b5714f9a120e"},"vehicle_type_id":"4","last_reported":1765898028,"current_range_meters":6000,"station_id":"","pricing_plan_id":"cebpf4jnsgd1na2vs0mg"},{"bike_id":"4f8ad109-8352-4f43-a7a6-267abdf04ef1","system_id":"levelo_inurba_marseille","lat":43.279144,"lon":5.395779,"is_reserved":false,"is_disabled":false,"rental_uris":{"android":"levelo://app?vid=4f8ad109-8352-4f43-a7a6-267abdf04ef1","ios":"levelo://app?vid=4f8ad109-8352-4f43-a7a6-267abdf04ef1"},"vehicle_type_id":"4","last_reported":1765898028,"current_range_meters":6000,"station_id":"ce4bhf92rcd13ifvqf40","pricing_plan_id":"cebpf4jnsgd1na2vs0mg"},{"bike_id":"e28c64da-3779-4876-9765-52afcddbb52c","system_id":"levelo_inurba_marseille","lat":43.31163,"lon":5.38255,"is_reserved":false,"is_disabled":true,"rental_uris":{"android":"levelo://app?vid=e28c64da-3779-4876-9765-52afcddbb52c","ios":"levelo://app?vid=e28c64da-3779-4876-9765-52afcddbb52c"},"vehicle_type_id":"4","last_reported":1765898028,"current_range_meters":6000,"station_id":"","pricing_plan_id":"cebpf4jnsgd1na2vs0mg"},{"bike_id":"6fe3060f-17ee-4243-91a2-653d74d75a11","system_id":"levelo_inurba_marseille","lat":43.22534,"lon":5.3483,"is_reserved":false,"is_disabled":false,"rental_uris":{"android":"levelo://app?vid=6fe3060f-17ee-4243-91a2-653d74d75a11","ios":"levelo://app?vid=6fe3060f-17ee-4243-91a2-653d74d75a11"},"vehicle_type_id":"4","last_reported":1765898028,"current_range_meters":6000,"station_id":"","pricing_plan_id":"cebpf4jnsgd1na2vs0mg"},{"bike_id":"4a0d3cd1-7adf-484f-a589-90c80406ab4e","system_id":"levelo_inurba_marseille","lat":43.23779,"lon":5.4358,"is_reserved":false,"is_disabled":false,"rental_uris":{"android":"levelo://app?vid=4a0d3cd1-7adf-484f-a589-90c80406ab4e","ios":"levelo://app?vid=4a0d3cd1-7adf-484f-a589-90c80406ab4e"},"vehicle_type_id":"4","last_reported":1765898028,"current_range_meters":6000,"station_id":"","pricing_plan_id":"cebpf4jnsgd1na2vs0mg"},{"bike_id":"ff05eaac-01b2-4792-b811-dfa5ce99cda0","system_id":"levelo_inurba_marseille","lat":43.25007,"lon":5.38943,"is_reserved":false,"is_disabled":false,"rental_uris":{"android":"levelo://app?vid=ff05eaac-01b2-4792-b811-dfa5ce99cda0","ios":"levelo://app?vid=ff05eaac-01b2-4792-b811-dfa5ce99cda0"},"vehicle_type_id":"4","last_reported":1765898028,"current_range_meters":6000,"station_id":"ce4bhgp2rcd13ifvqfd0","pricing_plan_id":"cebpf4jnsgd1na2vs0mg"},{"bike_id":"5cfcac19-e885-4209-96ab-a70a0192b25a","system_id":"levelo_inurba_marseille","lat":43.33768,"lon":5.37427,"is_reserved":false,"is_disabled":false,"rental_uris":{"android":"levelo://app?vid=5cfcac19-e885-4209-96ab-a70a0192b25a","ios":"levelo://app?vid=5cfcac19-e885-4209-96ab-a70a0192b25a"},"vehicle_type_id":"4","last_reported":1765898028,"current_range_meters":6000,"station_id":"","pricing_plan_id":"cebpf4jnsgd1na2vs0mg"},{"bike_id":"363739c0-fe23-4b3e-bc5a-156379e1450e","system_id":"levelo_inurba_marseille","lat":43.30962,"lon":5.39037,"is_reserved":false,"is_disabled":false,"rental_uris":{"android":"levelo://app?vid=363739c0-fe23-4b3e-bc5a-156379e1450e","ios":"levelo://app?vid=363739c0-fe23-4b3e-bc5a-156379e1450e"},"vehicle_type_id":"4","last_reported":1765898028,"current_range_meters":6000,"station_id":"ce4bgup2rcd13ifvqco0","pricing_plan_id":"cebpf4jnsgd1na2vs0mg"},{"bike_id":"9f892655-2a03-4c94-832d-34f5a43b623e","system_id":"levelo_inurba_marseille","lat":43.24386,"lon":5.37051,"is_reserved":false,"is_disabled":false,"rental_uris":{"android":"levelo://app?vid=9f892655-2a03-4c94-832d-34f5a43b623e","ios":"levelo://app?vid=9f892655-2a03-4c94-832d-34f5a43b623e"},"vehicle_type_id":"4","last_reported":1765898028,"current_range_meters":6400,"station_id":"ce4bhhh2rcd13ifvqfk0","pricing_plan_id":"cebpf4jnsgd1na2vs0mg"},{"bike_id":"0300703c-eb70-486d-8dcb-3ab8dd70d6cc","system_id":"levelo_inurba_marseille","lat":43.28536,"lon":5.44104,"is_reserved":false,"is_disabled":false,"rental_uris":{"android":"levelo://app?vid=0300703c-eb70-486d-8dcb-3ab8dd70d6cc","ios":"levelo://app?vid=0300703c-eb70-486d-8dcb-3ab8dd70d6cc"},"vehicle_type_id":"4","last_reported":1765898028,"current_range_meters":6400,"station_id":"st_d3j3df2ikq2c7380ej80","pricing_plan_id":"cebpf4jnsgd1na2vs0mg"},{"bike_id":"aac3a556-eab0-4156-bc9c-29564664e6f5","system_id":"levelo_inurba_marseille","lat":43.337725,"lon":5.374316,"is_reserved":false,"is_disabled":false,"rental_uris":{"android":"levelo://app?vid=aac3a556-eab0-4156-bc9c-29564664e6f5","ios":"levelo://app?vid=aac3a556-eab0-4156-bc9c-29564664e6f5"},"vehicle_type_id":"4","last_reported":1765898028,"current_range_meters":6400,"station_id":"","pricing_plan_id":"cebpf4jnsgd1na2vs0mg"},{"bike_id":"b5d63cab-7292-4c85-8075-cef67fadeb9d","system_id":"levelo_inurba_marseille","lat":43.28466,"lon":5.48404,"is_reserved":false,"is_disabled":false,"rental_uris":{"android":"levelo://app?vid=b5d63cab-7292-4c85-8075-cef67fadeb9d","ios":"levelo://app?vid=b5d63cab-7292-4c85-8075-cef67fadeb9d"},"vehicle_type_id":"4","last_reported":1765898028,"current_range_meters":6400,"station_id":"st_d3svhcjqgbts73a3dn0g","pricing_plan_id":"cebpf4jnsgd1na2vs0mg"},{"bike_id":"e5967918-583b-4714-bec6-e89ae6b5ee60","system_id":"levelo_inurba_marseille","lat":43.26689,"lon":5.382736,"is_reserved":false,"is_disabled":false,"rental_uris":{"android":"levelo://app?vid=e5967918-583b-4714-bec6-e89ae6b5ee60","ios":"levelo://app?vid=e5967918-583b-4714-bec6-e89ae6b5ee60"},"vehicle_type_id":"4","last_reported":1765898028,"current_range_meters":6400,"station_id":"ce4bhg92rcd13ifvqf90","pricing_plan_id":"cebpf4jnsgd1na2vs0mg"},{"bike_id":"0224f08a-bd8a-4dcc-9ae0-e6df47d6d7f2","system_id":"levelo_inurba_marseille","lat":43.337444,"lon":5.374475,"is_reserved":false,"is_disabled":false,"rental_uris":{"android":"levelo://app?vid=0224f08a-bd8a-4dcc-9ae0-e6df47d6d7f2","ios":"levelo://app?vid=0224f08a-bd8a-4dcc-9ae0-e6df47d6d7f2"},"vehicle_type_id":"4","last_reported":1765898028,"current_range_meters":6400,"station_id":"","pricing_plan_id":"cebpf4jnsgd1na2vs0mg"},{"bike_id":"d3c83fe0-d981-40bd-809a-723ce3ba3f18","system_id":"levelo_inurba_marseille","lat":43.31564,"lon":5.3667,"is_reserved":false,"is_disabled":false,"rental_uris":{"android":"levelo://app?vid=d3c83fe0-d981-40bd-809a-723ce3ba3f18","ios":"levelo://app?vid=d3c83fe0-d981-40bd-809a-723ce3ba3f18"},"vehicle_type_id":"4","last_reported":1765898028,"current_range_meters":6800,"station_id":"","pricing_plan_id":"cebpf4jnsgd1na2vs0mg"},{"bike_id":"97c1f844-b259-4f9b-b778-094fc103f4b1","system_id":"levelo_inurba_marseille","lat":43.28473,"lon":5.38419,"is_reserved":false,"is_disabled":false,"rental_uris":{"android":"levelo://app?vid=97c1f844-b259-4f9b-b778-094fc103f4b1","ios":"levelo://app?vid=97c1f844-b259-4f9b-b778-094fc103f4b1"},"vehicle_type_id":"4","last_reported":1765898028,"current_range_meters":6800,"station_id":"ce4bh512rcd13ifvqe3g","pricing_plan_id":"cebpf4jnsgd1na2vs0mg"},{"bike_id":"8e8f4fdb-c7d9-473e-a295-6cb3241e2b17","system_id":"levelo_inurba_marseille","lat":43.26226,"lon":5.404573,"is_reserved":false,"is_disabled":false,"rental_uris":{"android":"levelo://app?vid=8e8f4fdb-c7d9-473e-a295-6cb3241e2b17","ios":"levelo://app?vid=8e8f4fdb-c7d9-473e-a295-6cb3241e2b17"},"vehicle_type_id":"4","last_reported":1765898028,"current_range_meters":6800,"station_id":"ce4bhmh2rcd13ifvqgmg","pricing_plan_id":"cebpf4jnsgd1na2vs0mg"},{"bike_id":"4db0f712-4962-426c-8649-deb79e15efea","system_id":"levelo_inurba_marseille","lat":43.24067,"lon":5.37767,"is_reserved":false,"is_disabled":false,"rental_uris":{"android":"levelo://app?vid=4db0f712-4962-426c-8649-deb79e15efea","ios":"levelo://app?vid=4db0f712-4962-426c-8649-deb79e15efea"},"vehicle_type_id":"4","last_reported":1765898028,"current_range_meters":7200,"station_id":"ce4bhnp2rcd13ifvqgvg","pricing_plan_id":"cebpf4jnsgd1na2vs0mg"},{"bike_id":"9fac8b77-0871-4003-9d20-dff536bd1e8a","system_id":"levelo_inurba_marseille","lat":43.26786,"lon":5.39422,"is_reserved":false,"is_disabled":false,"rental_uris":{"android":"levelo://app?vid=9fac8b77-0871-4003-9d20-dff536bd1e8a","ios":"levelo://app?vid=9fac8b77-0871-4003-9d20-dff536bd1e8a"},"vehicle_type_id":"4","last_reported":1765898028,"current_range_meters":7200,"station_id":"ce4bhh12rcd13ifvqfg0","pricing_plan_id":"cebpf4jnsgd1na2vs0mg"},{"bike_id":"5e7e082d-c949-4efd-b442-be6d0cf3943e","system_id":"levelo_inurba_marseille","lat":43.24543,"lon":5.4001,"is_reserved":false,"is_disabled":false,"rental_uris":{"android":"levelo://app?vid=5e7e082d-c949-4efd-b442-be6d0cf3943e","ios":"levelo://app?vid=5e7e082d-c949-4efd-b442-be6d0cf3943e"},"vehicle_type_id":"4","last_reported":1765898028,"current_range_meters":7200,"station_id":"","pricing_plan_id":"cebpf4jnsgd1na2vs0mg"},{"bike_id":"9916aee8-38ee-4718-8ab5-188be146fb87","system_id":"levelo_inurba_marseille","lat":43.30176,"lon":5.36527,"is_reserved":false,"is_disabled":false,"rental_uris":{"android":"levelo://app?vid=9916aee8-38ee-4718-8ab5-188be146fb87","ios":"levelo://app?vid=9916aee8-38ee-4718-8ab5-188be146fb87"},"vehicle_type_id":"4","last_reported":1765898028,"current_range_meters":7200,"station_id":"","pricing_plan_id":"cebpf4jnsgd1na2vs0mg"},{"bike_id":"0e49c737-64fa-42df-b477-b17639740d5d","system_id":"levelo_inurba_marseille","lat":43.21195,"lon":5.35073,"is_reserved":false,"is_disabled":false,"rental_uris":{"android":"levelo://app?vid=0e49c737-64fa-42df-b477-b17639740d5d","ios":"levelo://app?vid=0e49c737-64fa-42df-b477-b17639740d5d"},"vehicle_type_id":"4","last_reported":1765898028,"current_range_meters":7200,"station_id":"","pricing_plan_id":"cebpf4jnsgd1na2vs0mg"},{"bike_id":"ccf6861c-88a3-4972-bae1-5ed511a25215","system_id":"levelo_inurba_marseille","lat":43.315394,"lon":5.380314,"is_reserved":false,"is_disabled":false,"rental_uris":{"android":"levelo://app?vid=ccf6861c-88a3-4972-bae1-5ed511a25215","ios":"levelo://app?vid=ccf6861c-88a3-4972-bae1-5ed511a25215"},"vehicle_type_id":"4","last_reported":1765898028,"current_range_meters":7200,"station_id":"ce4bhsp2rcd13ifvqi50","pricing_plan_id":"cebpf4jnsgd1na2vs0mg"},{"bike_id":"8d32a008-de5e-42e7-8f21-948802a90d87","system_id":"levelo_inurba_marseille","lat":43.30543,"lon":5.36526,"is_reserved":false,"is_disabled":false,"rental_uris":{"android":"levelo://app?vid=8d32a008-de5e-42e7-8f21-948802a90d87","ios":"levelo://app?vid=8d32a008-de5e-42e7-8f21-948802a90d87"},"vehicle_type_id":"4","last_reported":1765898028,"current_range_meters":8000,"station_id":"ce4bgs12rcd13ifvqcag","pricing_plan_id":"cebpf4jnsgd1na2vs0mg"},{"bike_id":"0194859f-d7b7-4b47-9ca7-27f88aed5ee1","system_id":"levelo_inurba_marseille","lat":43.32045,"lon":5.41567,"is_reserved":false,"is_disabled":false,"rental_uris":{"android":"levelo://app?vid=0194859f-d7b7-4b47-9ca7-27f88aed5ee1","ios":"levelo://app?vid=0194859f-d7b7-4b47-9ca7-27f88aed5ee1"},"vehicle_type_id":"4","last_reported":1765898028,"current_range_meters":8000,"station_id":"ce4bhq92rcd13ifvqhkg","pricing_plan_id":"cebpf4jnsgd1na2vs0mg"},{"bike_id":"e080d691-4951-43e9-9ffd-9277319373bb","system_id":"levelo_inurba_marseille","lat":43.316035,"lon":5.379218,"is_reserved":false,"is_disabled":false,"rental_uris":{"android":"levelo://app?vid=e080d691-4951-43e9-9ffd-9277319373bb","ios":"levelo://app?vid=e080d691-4951-43e9-9ffd-9277319373bb"},"vehicle_type_id":"4","last_reported":1765898028,"current_range_meters":8000,"station_id":"","pricing_plan_id":"cebpf4jnsgd1na2vs0mg"},{"bike_id":"58c2a2c6-d65b-4d6b-9bf0-bca61ea61886","system_id":"levelo_inurba_marseille","lat":43.29297,"lon":5.37457,"is_reserved":false,"is_disabled":false,"rental_uris":{"android":"levelo://app?vid=58c2a2c6-d65b-4d6b-9bf0-bca61ea61886","ios":"levelo://app?vid=58c2a2c6-d65b-4d6b-9bf0-bca61ea61886"},"vehicle_type_id":"4","last_reported":1765898028,"current_range_meters":8000,"station_id":"ce4bgi12rcd13ifvqb70","pricing_plan_id":"cebpf4jnsgd1na2vs0mg"},{"bike_id":"850184bc-d4cf-4521-b35e-4473cd72a028","system_id":"levelo_inurba_marseille","lat":43.29089,"lon":5.38121,"is_reserved":false,"is_disabled":false,"rental_uris":{"android":"levelo://app?vid=850184bc-d4cf-4521-b35e-4473cd72a028","ios":"levelo://app?vid=850184bc-d4cf-4521-b35e-4473cd72a028"},"vehicle_type_id":"4","last_reported":1765898028,"current_range_meters":8400,"station_id":"","pricing_plan_id":"cebpf4jnsgd1na2vs0mg"},{"bike_id":"50f7fe0f-6449-49c6-bfa0-21953aaff22f","system_id":"levelo_inurba_marseille","lat":43.31069,"lon":5.38352,"is_reserved":false,"is_disabled":false,"rental_uris":{"android":"levelo://app?vid=50f7fe0f-6449-49c6-bfa0-21953aaff22f","ios":"levelo://app?vid=50f7fe0f-6449-49c6-bfa0-21953aaff22f"},"vehicle_type_id":"4","last_reported":1765898028,"current_range_meters":8400,"station_id":"ce4bgv92rcd13ifvqcr0","pricing_plan_id":"cebpf4jnsgd1na2vs0mg"},{"bike_id":"18b80a20-c41b-4f49-9a4b-f2ba275124c6","system_id":"levelo_inurba_marseille","lat":43.29933,"lon":5.36538,"is_reserved":false,"is_disabled":false,"rental_uris":{"android":"levelo://app?vid=18b80a20-c41b-4f49-9a4b-f2ba275124c6","ios":"levelo://app?vid=18b80a20-c41b-4f49-9a4b-f2ba275124c6"},"vehicle_type_id":"4","last_reported":1765898028,"current_range_meters":8400,"station_id":"ce4bgm92rcd13ifvqbr0","pricing_plan_id":"cebpf4jnsgd1na2vs0mg"},{"bike_id":"8216a2ff-4fd2-4239-8e95-dcaef5335360","system_id":"levelo_inurba_marseille","lat":43.32096,"lon":5.36799,"is_reserved":false,"is_disabled":false,"rental_uris":{"android":"levelo://app?vid=8216a2ff-4fd2-4239-8e95-dcaef5335360","ios":"levelo://app?vid=8216a2ff-4fd2-4239-8e95-dcaef5335360"},"vehicle_type_id":"4","last_reported":1765898028,"current_range_meters":8400,"station_id":"ce4bhrh2rcd13ifvqhug","pricing_plan_id":"cebpf4jnsgd1na2vs0mg"},{"bike_id":"ae7030ab-2ef4-43fe-969b-2771e6ce928f","system_id":"levelo_inurba_marseille","lat":43.27983,"lon":5.41665,"is_reserved":false,"is_disabled":false,"rental_uris":{"android":"levelo://app?vid=ae7030ab-2ef4-43fe-969b-2771e6ce928f","ios":"levelo://app?vid=ae7030ab-2ef4-43fe-969b-2771e6ce928f"},"vehicle_type_id":"4","last_reported":1765898028,"current_range_meters":8400,"station_id":"ce4bho12rcd13ifvqh1g","pricing_plan_id":"cebpf4jnsgd1na2vs0mg"},{"bike_id":"7c36070f-bddc-40ed-a333-875a2d58c60c","system_id":"levelo_inurba_marseille","lat":43.26523,"lon":5.39488,"is_reserved":false,"is_disabled":false,"rental_uris":{"android":"levelo://app?vid=7c36070f-bddc-40ed-a333-875a2d58c60c","ios":"levelo://app?vid=7c36070f-bddc-40ed-a333-875a2d58c60c"},"vehicle_type_id":"4","last_reported":1765898028,"current_range_meters":8400,"station_id":"","pricing_plan_id":"cebpf4jnsgd1na2vs0mg"},{"bike_id":"2ae648a1-78f4-48af-8f11-69969db22a39","system_id":"levelo_inurba_marseille","lat":43.30271,"lon":5.37699,"is_reserved":false,"is_disabled":false,"rental_uris":{"android":"levelo://app?vid=2ae648a1-78f4-48af-8f11-69969db22a39","ios":"levelo://app?vid=2ae648a1-78f4-48af-8f11-69969db22a39"},"vehicle_type_id":"4","last_reported":1765898028,"current_range_meters":8400,"station_id":"ce4bguh2rcd13ifvqcj0","pricing_plan_id":"cebpf4jnsgd1na2vs0mg"},{"bike_id":"a59fef70-c689-483c-8d85-5fd358f8f5fe","system_id":"levelo_inurba_marseille","lat":43.28461,"lon":5.38754,"is_reserved":false,"is_disabled":false,"rental_uris":{"android":"levelo://app?vid=a59fef70-c689-483c-8d85-5fd358f8f5fe","ios":"levelo://app?vid=a59fef70-c689-483c-8d85-5fd358f8f5fe"},"vehicle_type_id":"4","last_reported":1765898028,"current_range_meters":8800,"station_id":"","pricing_plan_id":"cebpf4jnsgd1na2vs0mg"},{"bike_id":"fbcf4e7a-4e4a-4899-a4aa-235c78eb2647","system_id":"levelo_inurba_marseille","lat":43.31071,"lon":5.38364,"is_reserved":false,"is_disabled":false,"rental_uris":{"android":"levelo://app?vid=fbcf4e7a-4e4a-4899-a4aa-235c78eb2647","ios":"levelo://app?vid=fbcf4e7a-4e4a-4899-a4aa-235c78eb2647"},"vehicle_type_id":"4","last_reported":1765898028,"current_range_meters":8800,"station_id":"ce4bgv92rcd13ifvqcr0","pricing_plan_id":"cebpf4jnsgd1na2vs0mg"},{"bike_id":"26be2fbe-53c9-423c-a90c-c203742a25c2","system_id":"levelo_inurba_marseille","lat":43.27197,"lon":5.39156,"is_reserved":false,"is_disabled":false,"rental_uris":{"android":"levelo://app?vid=26be2fbe-53c9-423c-a90c-c203742a25c2","ios":"levelo://app?vid=26be2fbe-53c9-423c-a90c-c203742a25c2"},"vehicle_type_id":"4","last_reported":1765898028,"current_range_meters":8800,"station_id":"ce4bhhp2rcd13ifvqfm0","pricing_plan_id":"cebpf4jnsgd1na2vs0mg"},{"bike_id":"dcf86aea-2e35-4fc9-b06f-cfd052d91d73","system_id":"levelo_inurba_marseille","lat":43.21193,"lon":5.35076,"is_reserved":false,"is_disabled":false,"rental_uris":{"android":"levelo://app?vid=dcf86aea-2e35-4fc9-b06f-cfd052d91d73","ios":"levelo://app?vid=dcf86aea-2e35-4fc9-b06f-cfd052d91d73"},"vehicle_type_id":"4","last_reported":1765898028,"current_range_meters":8800,"station_id":"st_cvj6sg6p6f1abm77japg","pricing_plan_id":"cebpf4jnsgd1na2vs0mg"},{"bike_id":"5aedbbdb-5d44-48ce-b102-316ef9b1bff5","system_id":"levelo_inurba_marseille","lat":43.26553,"lon":5.37286,"is_reserved":false,"is_disabled":false,"rental_uris":{"android":"levelo://app?vid=5aedbbdb-5d44-48ce-b102-316ef9b1bff5","ios":"levelo://app?vid=5aedbbdb-5d44-48ce-b102-316ef9b1bff5"},"vehicle_type_id":"4","last_reported":1765898028,"current_range_meters":8800,"station_id":"ce4bhg12rcd13ifvqf70","pricing_plan_id":"cebpf4jnsgd1na2vs0mg"},{"bike_id":"7730bd49-0fff-473a-91e4-203afcba7989","system_id":"levelo_inurba_marseille","lat":43.27674,"lon":5.38872,"is_reserved":false,"is_disabled":false,"rental_uris":{"android":"levelo://app?vid=7730bd49-0fff-473a-91e4-203afcba7989","ios":"levelo://app?vid=7730bd49-0fff-473a-91e4-203afcba7989"},"vehicle_type_id":"4","last_reported":1765898028,"current_range_meters":8800,"station_id":"ce4bhi12rcd13ifvqfo0","pricing_plan_id":"cebpf4jnsgd1na2vs0mg"},{"bike_id":"aaa34581-67fc-4a7b-89c4-895a5d43152c","system_id":"levelo_inurba_marseille","lat":43.28074,"lon":5.3966,"is_reserved":false,"is_disabled":false,"rental_uris":{"android":"levelo://app?vid=aaa34581-67fc-4a7b-89c4-895a5d43152c","ios":"levelo://app?vid=aaa34581-67fc-4a7b-89c4-895a5d43152c"},"vehicle_type_id":"4","last_reported":1765898028,"current_range_meters":8800,"station_id":"ce4bho12rcd13ifvqh2g","pricing_plan_id":"cebpf4jnsgd1na2vs0mg"},{"bike_id":"3c636660-a4c9-44f9-a3c8-7904d76de699","system_id":"levelo_inurba_marseille","lat":43.26233,"lon":5.37441,"is_reserved":false,"is_disabled":false,"rental_uris":{"android":"levelo://app?vid=3c636660-a4c9-44f9-a3c8-7904d76de699","ios":"levelo://app?vid=3c636660-a4c9-44f9-a3c8-7904d76de699"},"vehicle_type_id":"4","last_reported":1765898028,"current_range_meters":8800,"station_id":"","pricing_plan_id":"cebpf4jnsgd1na2vs0mg"},{"bike_id":"94824701-3722-410c-9d75-e73469e53baf","system_id":"levelo_inurba_marseille","lat":43.31214,"lon":5.36845,"is_reserved":false,"is_disabled":false,"rental_uris":{"android":"levelo://app?vid=94824701-3722-410c-9d75-e73469e53baf","ios":"levelo://app?vid=94824701-3722-410c-9d75-e73469e53baf"},"vehicle_type_id":"4","last_reported":1765898028,"current_range_meters":9200,"station_id":"ce4bgl92rcd13ifvqbq0","pricing_plan_id":"cebpf4jnsgd1na2vs0mg"},{"bike_id":"a0250cd9-047b-4dcb-96a7-b1959783fdaf","system_id":"levelo_inurba_marseille","lat":43.337713,"lon":5.374268,"is_reserved":false,"is_disabled":false,"rental_uris":{"android":"levelo://app?vid=a0250cd9-047b-4dcb-96a7-b1959783fdaf","ios":"levelo://app?vid=a0250cd9-047b-4dcb-96a7-b1959783fdaf"},"vehicle_type_id":"4","last_reported":1765898028,"current_range_meters":9200,"station_id":"","pricing_plan_id":"cebpf4jnsgd1na2vs0mg"},{"bike_id":"71c6674f-8a51-476d-bbe5-276ee5eae537","system_id":"levelo_inurba_marseille","lat":43.27062,"lon":5.42268,"is_reserved":false,"is_disabled":false,"rental_uris":{"android":"levelo://app?vid=71c6674f-8a51-476d-bbe5-276ee5eae537","ios":"levelo://app?vid=71c6674f-8a51-476d-bbe5-276ee5eae537"},"vehicle_type_id":"4","last_reported":1765898028,"current_range_meters":9200,"station_id":"ce4bhk92rcd13ifvqgb0","pricing_plan_id":"cebpf4jnsgd1na2vs0mg"},{"bike_id":"9c961a04-2fff-4af7-8f35-158a719c1832","system_id":"levelo_inurba_marseille","lat":43.28463,"lon":5.35879,"is_reserved":false,"is_disabled":false,"rental_uris":{"android":"levelo://app?vid=9c961a04-2fff-4af7-8f35-158a719c1832","ios":"levelo://app?vid=9c961a04-2fff-4af7-8f35-158a719c1832"},"vehicle_type_id":"4","last_reported":1765898028,"current_range_meters":9200,"station_id":"ce4bhah2rcd13ifvqei0","pricing_plan_id":"cebpf4jnsgd1na2vs0mg"},{"bike_id":"7a3e6838-9d3e-4c76-bcee-bdbba33b8ca3","system_id":"levelo_inurba_marseille","lat":43.28471,"lon":5.48391,"is_reserved":false,"is_disabled":false,"rental_uris":{"android":"levelo://app?vid=7a3e6838-9d3e-4c76-bcee-bdbba33b8ca3","ios":"levelo://app?vid=7a3e6838-9d3e-4c76-bcee-bdbba33b8ca3"},"vehicle_type_id":"4","last_reported":1765898028,"current_range_meters":9200,"station_id":"st_d3svhcjqgbts73a3dn0g","pricing_plan_id":"cebpf4jnsgd1na2vs0mg"},{"bike_id":"c174acfe-8d28-485c-b96e-a273e37e0478","system_id":"levelo_inurba_marseille","lat":43.30452,"lon":5.37904,"is_reserved":false,"is_disabled":false,"rental_uris":{"android":"levelo://app?vid=c174acfe-8d28-485c-b96e-a273e37e0478","ios":"levelo://app?vid=c174acfe-8d28-485c-b96e-a273e37e0478"},"vehicle_type_id":"4","last_reported":1765898028,"current_range_meters":9200,"station_id":"ce4bgup2rcd13ifvqcn0","pricing_plan_id":"cebpf4jnsgd1na2vs0mg"},{"bike_id":"0885f8c9-1737-4164-895f-eab660b5352e","system_id":"levelo_inurba_marseille","lat":43.30605,"lon":5.37211,"is_reserved":false,"is_disabled":false,"rental_uris":{"android":"levelo://app?vid=0885f8c9-1737-4164-895f-eab660b5352e","ios":"levelo://app?vid=0885f8c9-1737-4164-895f-eab660b5352e"},"vehicle_type_id":"4","last_reported":1765898028,"current_range_meters":9200,"station_id":"ce4bgqh2rcd13ifvqc4g","pricing_plan_id":"cebpf4jnsgd1na2vs0mg"},{"bike_id":"40d0a755-8e74-431c-8203-de0de0993b81","system_id":"levelo_inurba_marseille","lat":43.3032,"lon":5.36895,"is_reserved":false,"is_disabled":false,"rental_uris":{"android":"levelo://app?vid=40d0a755-8e74-431c-8203-de0de0993b81","ios":"levelo://app?vid=40d0a755-8e74-431c-8203-de0de0993b81"},"vehicle_type_id":"4","last_reported":1765898028,"current_range_meters":9200,"station_id":"ce4bgqh2rcd13ifvqc5g","pricing_plan_id":"cebpf4jnsgd1na2vs0mg"},{"bike_id":"4f64636a-4d61-403f-ae25-68b8af93449b","system_id":"levelo_inurba_marseille","lat":43.28934,"lon":5.36639,"is_reserved":false,"is_disabled":false,"rental_uris":{"android":"levelo://app?vid=4f64636a-4d61-403f-ae25-68b8af93449b","ios":"levelo://app?vid=4f64636a-4d61-403f-ae25-68b8af93449b"},"vehicle_type_id":"4","last_reported":1765898028,"current_range_meters":9200,"station_id":"ce4bhap2rcd13ifvqek0","pricing_plan_id":"cebpf4jnsgd1na2vs0mg"},{"bike_id":"03f093c3-f9ed-477d-b126-6586935b5dde","system_id":"levelo_inurba_marseille","lat":43.296279,"lon":5.405975,"is_reserved":false,"is_disabled":false,"rental_uris":{"android":"levelo://app?vid=03f093c3-f9ed-477d-b126-6586935b5dde","ios":"levelo://app?vid=03f093c3-f9ed-477d-b126-6586935b5dde"},"vehicle_type_id":"4","last_reported":1765898028,"current_range_meters":9600,"station_id":"ce4bh0h2rcd13ifvqd60","pricing_plan_id":"cebpf4jnsgd1na2vs0mg"},{"bike_id":"66e62727-6a3f-43b3-a847-3dd963b5a133","system_id":"levelo_inurba_marseille","lat":43.29739,"lon":5.42792,"is_reserved":false,"is_disabled":false,"rental_uris":{"android":"levelo://app?vid=66e62727-6a3f-43b3-a847-3dd963b5a133","ios":"levelo://app?vid=66e62727-6a3f-43b3-a847-3dd963b5a133"},"vehicle_type_id":"4","last_reported":1765898028,"current_range_meters":9600,"station_id":"st_d3md5207bmas73dh9klg","pricing_plan_id":"cebpf4jnsgd1na2vs0mg"},{"bike_id":"de703928-a818-43ad-b2be-d85e3a5f72c8","system_id":"levelo_inurba_marseille","lat":43.28491,"lon":5.48388,"is_reserved":false,"is_disabled":false,"rental_uris":{"android":"levelo://app?vid=de703928-a818-43ad-b2be-d85e3a5f72c8","ios":"levelo://app?vid=de703928-a818-43ad-b2be-d85e3a5f72c8"},"vehicle_type_id":"4","last_reported":1765898028,"current_range_meters":9600,"station_id":"st_d3svhcjqgbts73a3dn0g","pricing_plan_id":"cebpf4jnsgd1na2vs0mg"},{"bike_id":"f4f8013f-0c15-4e1b-9ac9-9b433126e362","system_id":"levelo_inurba_marseille","lat":43.30953,"lon":5.36826,"is_reserved":false,"is_disabled":false,"rental_uris":{"android":"levelo://app?vid=f4f8013f-0c15-4e1b-9ac9-9b433126e362","ios":"levelo://app?vid=f4f8013f-0c15-4e1b-9ac9-9b433126e362"},"vehicle_type_id":"4","last_reported":1765898028,"current_range_meters":9600,"station_id":"ce4bgn92rcd13ifvqbvg","pricing_plan_id":"cebpf4jnsgd1na2vs0mg"},{"bike_id":"593a172c-4b80-4e03-a5ab-4eddc889b3cb","system_id":"levelo_inurba_marseille","lat":43.29022,"lon":5.38144,"is_reserved":false,"is_disabled":false,"rental_uris":{"android":"levelo://app?vid=593a172c-4b80-4e03-a5ab-4eddc889b3cb","ios":"levelo://app?vid=593a172c-4b80-4e03-a5ab-4eddc889b3cb"},"vehicle_type_id":"4","last_reported":1765898028,"current_range_meters":9600,"station_id":"ce4bh4p2rcd13ifvqe1g","pricing_plan_id":"cebpf4jnsgd1na2vs0mg"},{"bike_id":"f9e14766-119a-4cc9-814a-3510e7849c5d","system_id":"levelo_inurba_marseille","lat":43.285374,"lon":5.481999,"is_reserved":false,"is_disabled":false,"rental_uris":{"android":"levelo://app?vid=f9e14766-119a-4cc9-814a-3510e7849c5d","ios":"levelo://app?vid=f9e14766-119a-4cc9-814a-3510e7849c5d"},"vehicle_type_id":"4","last_reported":1765898028,"current_range_meters":9600,"station_id":"","pricing_plan_id":"cebpf4jnsgd1na2vs0mg"},{"bike_id":"0ac0ac50-f908-4316-9bc5-b32e97dc861e","system_id":"levelo_inurba_marseille","lat":43.28465,"lon":5.38432,"is_reserved":false,"is_disabled":false,"rental_uris":{"android":"levelo://app?vid=0ac0ac50-f908-4316-9bc5-b32e97dc861e","ios":"levelo://app?vid=0ac0ac50-f908-4316-9bc5-b32e97dc861e"},"vehicle_type_id":"4","last_reported":1765898028,"current_range_meters":10000,"station_id":"ce4bh512rcd13ifvqe3g","pricing_plan_id":"cebpf4jnsgd1na2vs0mg"},{"bike_id":"9f0f320a-9e34-4af8-8f6f-7a4152825910","system_id":"levelo_inurba_marseille","lat":43.30122,"lon":5.43114,"is_reserved":false,"is_disabled":false,"rental_uris":{"android":"levelo://app?vid=9f0f320a-9e34-4af8-8f6f-7a4152825910","ios":"levelo://app?vid=9f0f320a-9e34-4af8-8f6f-7a4152825910"},"vehicle_type_id":"4","last_reported":1765898028,"current_range_meters":10000,"station_id":"st_d3js3co5814s73ftftug","pricing_plan_id":"cebpf4jnsgd1na2vs0mg"},{"bike_id":"2a4fbe98-6818-462f-ba9c-cafb9868abc5","system_id":"levelo_inurba_marseille","lat":43.273707,"lon":5.362627,"is_reserved":false,"is_disabled":false,"rental_uris":{"android":"levelo://app?vid=2a4fbe98-6818-462f-ba9c-cafb9868abc5","ios":"levelo://app?vid=2a4fbe98-6818-462f-ba9c-cafb9868abc5"},"vehicle_type_id":"4","last_reported":1765898028,"current_range_meters":10000,"station_id":"ce4bhbh2rcd13ifvqeo0","pricing_plan_id":"cebpf4jnsgd1na2vs0mg"},{"bike_id":"e2e0caa6-70b3-4639-a99b-358a60b2d2fb","system_id":"levelo_inurba_marseille","lat":43.30784,"lon":5.37645,"is_reserved":false,"is_disabled":false,"rental_uris":{"android":"levelo://app?vid=e2e0caa6-70b3-4639-a99b-358a60b2d2fb","ios":"levelo://app?vid=e2e0caa6-70b3-4639-a99b-358a60b2d2fb"},"vehicle_type_id":"4","last_reported":1765898028,"current_range_meters":10000,"station_id":"ce4bgv92rcd13ifvqcq0","pricing_plan_id":"cebpf4jnsgd1na2vs0mg"},{"bike_id":"187e95dd-1ca0-44dd-bfaf-b9ad8a869387","system_id":"levelo_inurba_marseille","lat":43.31441,"lon":5.3743,"is_reserved":false,"is_disabled":false,"rental_uris":{"android":"levelo://app?vid=187e95dd-1ca0-44dd-bfaf-b9ad8a869387","ios":"levelo://app?vid=187e95dd-1ca0-44dd-bfaf-b9ad8a869387"},"vehicle_type_id":"4","last_reported":1765898028,"current_range_meters":10000,"station_id":"","pricing_plan_id":"cebpf4jnsgd1na2vs0mg"},{"bike_id":"0b706ce0-a46b-45d7-9b28-4125d9b01bd9","system_id":"levelo_inurba_marseille","lat":43.28343,"lon":5.38095,"is_reserved":false,"is_disabled":false,"rental_uris":{"android":"levelo://app?vid=0b706ce0-a46b-45d7-9b28-4125d9b01bd9","ios":"levelo://app?vid=0b706ce0-a46b-45d7-9b28-4125d9b01bd9"},"vehicle_type_id":"4","last_reported":1765898028,"current_range_meters":10000,"station_id":"ce4bh412rcd13ifvqdr0","pricing_plan_id":"cebpf4jnsgd1na2vs0mg"},{"bike_id":"378d0c70-77bc-4694-9df4-ac19a40ab824","system_id":"levelo_inurba_marseille","lat":43.285771,"lon":5.394981,"is_reserved":false,"is_disabled":false,"rental_uris":{"android":"levelo://app?vid=378d0c70-77bc-4694-9df4-ac19a40ab824","ios":"levelo://app?vid=378d0c70-77bc-4694-9df4-ac19a40ab824"},"vehicle_type_id":"4","last_reported":1765898028,"current_range_meters":10000,"station_id":"ce4bh292rcd13ifvqdg0","pricing_plan_id":"cebpf4jnsgd1na2vs0mg"},{"bike_id":"ae7f323e-34dc-4130-baaf-dab8d8213b63","system_id":"levelo_inurba_marseille","lat":43.28734,"lon":5.36084,"is_reserved":false,"is_disabled":false,"rental_uris":{"android":"levelo://app?vid=ae7f323e-34dc-4130-baaf-dab8d8213b63","ios":"levelo://app?vid=ae7f323e-34dc-4130-baaf-dab8d8213b63"},"vehicle_type_id":"4","last_reported":1765898028,"current_range_meters":10000,"station_id":"cki0cbj6b192h4jlfktg","pricing_plan_id":"cebpf4jnsgd1na2vs0mg"},{"bike_id":"9728bc55-a10a-455f-9772-179bdf8b8937","system_id":"levelo_inurba_marseille","lat":43.3106,"lon":5.38358,"is_reserved":false,"is_disabled":false,"rental_uris":{"android":"levelo://app?vid=9728bc55-a10a-455f-9772-179bdf8b8937","ios":"levelo://app?vid=9728bc55-a10a-455f-9772-179bdf8b8937"},"vehicle_type_id":"4","last_reported":1765898028,"current_range_meters":10000,"station_id":"ce4bgv92rcd13ifvqcr0","pricing_plan_id":"cebpf4jnsgd1na2vs0mg"},{"bike_id":"bdedb51b-c0c7-4e81-8046-2d1b2001a496","system_id":"levelo_inurba_marseille","lat":43.29533,"lon":5.385493,"is_reserved":false,"is_disabled":true,"rental_uris":{"android":"levelo://app?vid=bdedb51b-c0c7-4e81-8046-2d1b2001a496","ios":"levelo://app?vid=bdedb51b-c0c7-4e81-8046-2d1b2001a496"},"vehicle_type_id":"4","last_reported":1765898028,"current_range_meters":10000,"station_id":"ce4bgih2rcd13ifvqba0","pricing_plan_id":"cebpf4jnsgd1na2vs0mg"},{"bike_id":"5af242e8-7e04-4d52-adb3-be60671fad57","system_id":"levelo_inurba_marseille","lat":43.30126,"lon":5.43123,"is_reserved":false,"is_disabled":false,"rental_uris":{"android":"levelo://app?vid=5af242e8-7e04-4d52-adb3-be60671fad57","ios":"levelo://app?vid=5af242e8-7e04-4d52-adb3-be60671fad57"},"vehicle_type_id":"4","last_reported":1765898028,"current_range_meters":10000,"station_id":"st_d3js3co5814s73ftftug","pricing_plan_id":"cebpf4jnsgd1na2vs0mg"},{"bike_id":"9b173e86-3ede-4973-b8cb-b42ea2c91907","system_id":"levelo_inurba_marseille","lat":43.310213,"lon":5.393437,"is_reserved":false,"is_disabled":false,"rental_uris":{"android":"levelo://app?vid=9b173e86-3ede-4973-b8cb-b42ea2c91907","ios":"levelo://app?vid=9b173e86-3ede-4973-b8cb-b42ea2c91907"},"vehicle_type_id":"4","last_reported":1765898028,"current_range_meters":10000,"station_id":"","pricing_plan_id":"cebpf4jnsgd1na2vs0mg"},{"bike_id":"f913e548-dbee-48a7-bd4a-7ffd4a205909","system_id":"levelo_inurba_marseille","lat":43.31039,"lon":5.37164,"is_reserved":false,"is_disabled":false,"rental_uris":{"android":"levelo://app?vid=f913e548-dbee-48a7-bd4a-7ffd4a205909","ios":"levelo://app?vid=f913e548-dbee-48a7-bd4a-7ffd4a205909"},"vehicle_type_id":"4","last_reported":1765898028,"current_range_meters":10000,"station_id":"st_d4kl2rp97mjs73e7tdfg","pricing_plan_id":"cebpf4jnsgd1na2vs0mg"},{"bike_id":"8bb8adce-6d1f-4f38-9072-626f26f46c8b","system_id":"levelo_inurba_marseille","lat":43.27676,"lon":5.38873,"is_reserved":false,"is_disabled":false,"rental_uris":{"android":"levelo://app?vid=8bb8adce-6d1f-4f38-9072-626f26f46c8b","ios":"levelo://app?vid=8bb8adce-6d1f-4f38-9072-626f26f46c8b"},"vehicle_type_id":"4","last_reported":1765898028,"current_range_meters":10000,"station_id":"ce4bhi12rcd13ifvqfo0","pricing_plan_id":"cebpf4jnsgd1na2vs0mg"},{"bike_id":"08e06d6d-9496-4403-b8a2-10349ecf84a3","system_id":"levelo_inurba_marseille","lat":43.301,"lon":5.43149,"is_reserved":false,"is_disabled":false,"rental_uris":{"android":"levelo://app?vid=08e06d6d-9496-4403-b8a2-10349ecf84a3","ios":"levelo://app?vid=08e06d6d-9496-4403-b8a2-10349ecf84a3"},"vehicle_type_id":"4","last_reported":1765898028,"current_range_meters":10800,"station_id":"st_d3js3co5814s73ftftug","pricing_plan_id":"cebpf4jnsgd1na2vs0mg"},{"bike_id":"7c160304-8687-41a4-b13f-7f4645fcfdcd","system_id":"levelo_inurba_marseille","lat":43.27372,"lon":5.36238,"is_reserved":false,"is_disabled":false,"rental_uris":{"android":"levelo://app?vid=7c160304-8687-41a4-b13f-7f4645fcfdcd","ios":"levelo://app?vid=7c160304-8687-41a4-b13f-7f4645fcfdcd"},"vehicle_type_id":"4","last_reported":1765898028,"current_range_meters":10800,"station_id":"ce4bhbh2rcd13ifvqeo0","pricing_plan_id":"cebpf4jnsgd1na2vs0mg"},{"bike_id":"6df4c56c-c6f5-4fb1-84fc-9f50cb5ef178","system_id":"levelo_inurba_marseille","lat":43.23197,"lon":5.3555,"is_reserved":false,"is_disabled":true,"rental_uris":{"android":"levelo://app?vid=6df4c56c-c6f5-4fb1-84fc-9f50cb5ef178","ios":"levelo://app?vid=6df4c56c-c6f5-4fb1-84fc-9f50cb5ef178"},"vehicle_type_id":"4","last_reported":1765898028,"current_range_meters":10800,"station_id":"ce4bhu92rcd13ifvqi70","pricing_plan_id":"cebpf4jnsgd1na2vs0mg"},{"bike_id":"87d63464-9c1a-4501-a12c-76256622c691","system_id":"levelo_inurba_marseille","lat":43.299361,"lon":5.365656,"is_reserved":false,"is_disabled":false,"rental_uris":{"android":"levelo://app?vid=87d63464-9c1a-4501-a12c-76256622c691","ios":"levelo://app?vid=87d63464-9c1a-4501-a12c-76256622c691"},"vehicle_type_id":"4","last_reported":1765898028,"current_range_meters":10800,"station_id":"","pricing_plan_id":"cebpf4jnsgd1na2vs0mg"},{"bike_id":"cac87912-c676-4b2a-bd7b-433323e0f09c","system_id":"levelo_inurba_marseille","lat":43.28539,"lon":5.44116,"is_reserved":false,"is_disabled":false,"rental_uris":{"android":"levelo://app?vid=cac87912-c676-4b2a-bd7b-433323e0f09c","ios":"levelo://app?vid=cac87912-c676-4b2a-bd7b-433323e0f09c"},"vehicle_type_id":"4","last_reported":1765898028,"current_range_meters":10800,"station_id":"st_d3j3df2ikq2c7380ej80","pricing_plan_id":"cebpf4jnsgd1na2vs0mg"},{"bike_id":"46b9da8e-600f-4b77-a964-111e9eafd3fa","system_id":"levelo_inurba_marseille","lat":43.264564,"lon":5.373588,"is_reserved":false,"is_disabled":false,"rental_uris":{"android":"levelo://app?vid=46b9da8e-600f-4b77-a964-111e9eafd3fa","ios":"levelo://app?vid=46b9da8e-600f-4b77-a964-111e9eafd3fa"},"vehicle_type_id":"4","last_reported":1765898028,"current_range_meters":10800,"station_id":"","pricing_plan_id":"cebpf4jnsgd1na2vs0mg"},{"bike_id":"c2dbecdc-0ef9-48e5-a6d6-1106c2dfe04a","system_id":"levelo_inurba_marseille","lat":43.274902,"lon":5.424391,"is_reserved":false,"is_disabled":false,"rental_uris":{"android":"levelo://app?vid=c2dbecdc-0ef9-48e5-a6d6-1106c2dfe04a","ios":"levelo://app?vid=c2dbecdc-0ef9-48e5-a6d6-1106c2dfe04a"},"vehicle_type_id":"4","last_reported":1765898028,"current_range_meters":10800,"station_id":"ce4bhn92rcd13ifvqgrg","pricing_plan_id":"cebpf4jnsgd1na2vs0mg"},{"bike_id":"1dbaa383-1aa6-47ef-8b06-6969a979b35e","system_id":"levelo_inurba_marseille","lat":43.29932,"lon":5.36532,"is_reserved":false,"is_disabled":false,"rental_uris":{"android":"levelo://app?vid=1dbaa383-1aa6-47ef-8b06-6969a979b35e","ios":"levelo://app?vid=1dbaa383-1aa6-47ef-8b06-6969a979b35e"},"vehicle_type_id":"4","last_reported":1765898028,"current_range_meters":10800,"station_id":"ce4bgm92rcd13ifvqbr0","pricing_plan_id":"cebpf4jnsgd1na2vs0mg"},{"bike_id":"5f1c8de3-874d-422a-888b-bd9c981e4182","system_id":"levelo_inurba_marseille","lat":43.30532,"lon":5.36536,"is_reserved":false,"is_disabled":false,"rental_uris":{"android":"levelo://app?vid=5f1c8de3-874d-422a-888b-bd9c981e4182","ios":"levelo://app?vid=5f1c8de3-874d-422a-888b-bd9c981e4182"},"vehicle_type_id":"4","last_reported":1765898028,"current_range_meters":10800,"station_id":"ce4bgs12rcd13ifvqcag","pricing_plan_id":"cebpf4jnsgd1na2vs0mg"},{"bike_id":"99d32d7b-9474-4e9f-b9d7-e4507195ab5b","system_id":"levelo_inurba_marseille","lat":43.30643,"lon":5.40075,"is_reserved":false,"is_disabled":false,"rental_uris":{"android":"levelo://app?vid=99d32d7b-9474-4e9f-b9d7-e4507195ab5b","ios":"levelo://app?vid=99d32d7b-9474-4e9f-b9d7-e4507195ab5b"},"vehicle_type_id":"4","last_reported":1765898028,"current_range_meters":10800,"station_id":"ce4bh112rcd13ifvqda0","pricing_plan_id":"cebpf4jnsgd1na2vs0mg"},{"bike_id":"733f43a5-54ea-4f0a-817f-1641c11a815d","system_id":"levelo_inurba_marseille","lat":43.24166,"lon":5.3639,"is_reserved":false,"is_disabled":false,"rental_uris":{"android":"levelo://app?vid=733f43a5-54ea-4f0a-817f-1641c11a815d","ios":"levelo://app?vid=733f43a5-54ea-4f0a-817f-1641c11a815d"},"vehicle_type_id":"4","last_reported":1765898028,"current_range_meters":11200,"station_id":"cpo36qri1sfpv3e86is0","pricing_plan_id":"cebpf4jnsgd1na2vs0mg"},{"bike_id":"fd7fe341-e9e1-43e0-9282-b94a778a6675","system_id":"levelo_inurba_marseille","lat":43.337444,"lon":5.374475,"is_reserved":false,"is_disabled":false,"rental_uris":{"android":"levelo://app?vid=fd7fe341-e9e1-43e0-9282-b94a778a6675","ios":"levelo://app?vid=fd7fe341-e9e1-43e0-9282-b94a778a6675"},"vehicle_type_id":"4","last_reported":1765898028,"current_range_meters":11200,"station_id":"","pricing_plan_id":"cebpf4jnsgd1na2vs0mg"},{"bike_id":"f0607238-9fab-432e-a6c6-c5acd6257feb","system_id":"levelo_inurba_marseille","lat":43.30353,"lon":5.39294,"is_reserved":false,"is_disabled":true,"rental_uris":{"android":"levelo://app?vid=f0607238-9fab-432e-a6c6-c5acd6257feb","ios":"levelo://app?vid=f0607238-9fab-432e-a6c6-c5acd6257feb"},"vehicle_type_id":"4","last_reported":1765898028,"current_range_meters":11200,"station_id":"","pricing_plan_id":"cebpf4jnsgd1na2vs0mg"},{"bike_id":"eed80c14-6644-4e6e-a659-839fedc9ea43","system_id":"levelo_inurba_marseille","lat":43.29869,"lon":5.39727,"is_reserved":false,"is_disabled":false,"rental_uris":{"android":"levelo://app?vid=eed80c14-6644-4e6e-a659-839fedc9ea43","ios":"levelo://app?vid=eed80c14-6644-4e6e-a659-839fedc9ea43"},"vehicle_type_id":"4","last_reported":1765898028,"current_range_meters":11200,"station_id":"ce4bh0h2rcd13ifvqd50","pricing_plan_id":"cebpf4jnsgd1na2vs0mg"},{"bike_id":"dbd4ee99-e250-413d-bdce-471d46749382","system_id":"levelo_inurba_marseille","lat":43.30541,"lon":5.36725,"is_reserved":false,"is_disabled":false,"rental_uris":{"android":"levelo://app?vid=dbd4ee99-e250-413d-bdce-471d46749382","ios":"levelo://app?vid=dbd4ee99-e250-413d-bdce-471d46749382"},"vehicle_type_id":"4","last_reported":1765898028,"current_range_meters":11200,"station_id":"ce4bgrp2rcd13ifvqc9g","pricing_plan_id":"cebpf4jnsgd1na2vs0mg"},{"bike_id":"f5d9a9b3-558f-4d87-a4a3-2e93dcd5a3b9","system_id":"levelo_inurba_marseille","lat":43.28486,"lon":5.48388,"is_reserved":false,"is_disabled":false,"rental_uris":{"android":"levelo://app?vid=f5d9a9b3-558f-4d87-a4a3-2e93dcd5a3b9","ios":"levelo://app?vid=f5d9a9b3-558f-4d87-a4a3-2e93dcd5a3b9"},"vehicle_type_id":"4","last_reported":1765898028,"current_range_meters":11200,"station_id":"st_d3svhcjqgbts73a3dn0g","pricing_plan_id":"cebpf4jnsgd1na2vs0mg"},{"bike_id":"5d02573e-2aa7-4684-8622-d29060b07fc5","system_id":"levelo_inurba_marseille","lat":43.2985,"lon":5.36278,"is_reserved":false,"is_disabled":false,"rental_uris":{"android":"levelo://app?vid=5d02573e-2aa7-4684-8622-d29060b07fc5","ios":"levelo://app?vid=5d02573e-2aa7-4684-8622-d29060b07fc5"},"vehicle_type_id":"4","last_reported":1765898028,"current_range_meters":11200,"station_id":"ce4bgpp2rcd13ifvqc3g","pricing_plan_id":"cebpf4jnsgd1na2vs0mg"},{"bike_id":"b959cc19-b00a-4f78-bf9b-f737abeb0c3b","system_id":"levelo_inurba_marseille","lat":43.2948,"lon":5.38292,"is_reserved":false,"is_disabled":false,"rental_uris":{"android":"levelo://app?vid=b959cc19-b00a-4f78-bf9b-f737abeb0c3b","ios":"levelo://app?vid=b959cc19-b00a-4f78-bf9b-f737abeb0c3b"},"vehicle_type_id":"4","last_reported":1765898028,"current_range_meters":11200,"station_id":"","pricing_plan_id":"cebpf4jnsgd1na2vs0mg"},{"bike_id":"dc9b6e3f-8e79-47b2-8319-e45dd942c044","system_id":"levelo_inurba_marseille","lat":43.29571,"lon":5.37495,"is_reserved":false,"is_disabled":false,"rental_uris":{"android":"levelo://app?vid=dc9b6e3f-8e79-47b2-8319-e45dd942c044","ios":"levelo://app?vid=dc9b6e3f-8e79-47b2-8319-e45dd942c044"},"vehicle_type_id":"4","last_reported":1765898028,"current_range_meters":11600,"station_id":"ce4bgh92rcd13ifvqb50","pricing_plan_id":"cebpf4jnsgd1na2vs0mg"},{"bike_id":"985e76d9-f377-42e6-8fe2-ca92cc88db73","system_id":"levelo_inurba_marseille","lat":43.31335,"lon":5.36754,"is_reserved":false,"is_disabled":false,"rental_uris":{"android":"levelo://app?vid=985e76d9-f377-42e6-8fe2-ca92cc88db73","ios":"levelo://app?vid=985e76d9-f377-42e6-8fe2-ca92cc88db73"},"vehicle_type_id":"4","last_reported":1765898028,"current_range_meters":11600,"station_id":"ce4bgr92rcd13ifvqc6g","pricing_plan_id":"cebpf4jnsgd1na2vs0mg"},{"bike_id":"f44a7a9b-775a-4abb-955c-c256e79cccbb","system_id":"levelo_inurba_marseille","lat":43.290038,"lon":5.356149,"is_reserved":false,"is_disabled":false,"rental_uris":{"android":"levelo://app?vid=f44a7a9b-775a-4abb-955c-c256e79cccbb","ios":"levelo://app?vid=f44a7a9b-775a-4abb-955c-c256e79cccbb"},"vehicle_type_id":"4","last_reported":1765898028,"current_range_meters":11600,"station_id":"ce4bhb92rcd13ifvqen0","pricing_plan_id":"cebpf4jnsgd1na2vs0mg"},{"bike_id":"bc74ef6c-60c8-4f6c-abb8-03b7a515cf09","system_id":"levelo_inurba_marseille","lat":43.31585,"lon":5.37305,"is_reserved":false,"is_disabled":false,"rental_uris":{"android":"levelo://app?vid=bc74ef6c-60c8-4f6c-abb8-03b7a515cf09","ios":"levelo://app?vid=bc74ef6c-60c8-4f6c-abb8-03b7a515cf09"},"vehicle_type_id":"4","last_reported":1765898028,"current_range_meters":11600,"station_id":"","pricing_plan_id":"cebpf4jnsgd1na2vs0mg"},{"bike_id":"4c1c7053-1690-46ae-b248-e8260967b03f","system_id":"levelo_inurba_marseille","lat":43.316791,"lon":5.375612,"is_reserved":false,"is_disabled":false,"rental_uris":{"android":"levelo://app?vid=4c1c7053-1690-46ae-b248-e8260967b03f","ios":"levelo://app?vid=4c1c7053-1690-46ae-b248-e8260967b03f"},"vehicle_type_id":"4","last_reported":1765898028,"current_range_meters":12000,"station_id":"","pricing_plan_id":"cebpf4jnsgd1na2vs0mg"},{"bike_id":"0e92ac6e-4948-4b9c-954c-8851a977b659","system_id":"levelo_inurba_marseille","lat":43.27051,"lon":5.40264,"is_reserved":false,"is_disabled":false,"rental_uris":{"android":"levelo://app?vid=0e92ac6e-4948-4b9c-954c-8851a977b659","ios":"levelo://app?vid=0e92ac6e-4948-4b9c-954c-8851a977b659"},"vehicle_type_id":"4","last_reported":1765898028,"current_range_meters":12000,"station_id":"ce4bhk92rcd13ifvqgc0","pricing_plan_id":"cebpf4jnsgd1na2vs0mg"},{"bike_id":"2ef24484-8e4e-49c0-a3a9-f83b77f53191","system_id":"levelo_inurba_marseille","lat":43.2706,"lon":5.42285,"is_reserved":false,"is_disabled":true,"rental_uris":{"android":"levelo://app?vid=2ef24484-8e4e-49c0-a3a9-f83b77f53191","ios":"levelo://app?vid=2ef24484-8e4e-49c0-a3a9-f83b77f53191"},"vehicle_type_id":"4","last_reported":1765898028,"current_range_meters":12000,"station_id":"ce4bhk92rcd13ifvqgb0","pricing_plan_id":"cebpf4jnsgd1na2vs0mg"},{"bike_id":"2833047e-5d18-4b3c-9479-5d7320904cd9","system_id":"levelo_inurba_marseille","lat":43.28539,"lon":5.44097,"is_reserved":false,"is_disabled":false,"rental_uris":{"android":"levelo://app?vid=2833047e-5d18-4b3c-9479-5d7320904cd9","ios":"levelo://app?vid=2833047e-5d18-4b3c-9479-5d7320904cd9"},"vehicle_type_id":"4","last_reported":1765898028,"current_range_meters":12000,"station_id":"st_d3j3df2ikq2c7380ej80","pricing_plan_id":"cebpf4jnsgd1na2vs0mg"},{"bike_id":"cf37e5ea-975a-4fa1-916a-6ae150c59e82","system_id":"levelo_inurba_marseille","lat":43.3105,"lon":5.37181,"is_reserved":false,"is_disabled":false,"rental_uris":{"android":"levelo://app?vid=cf37e5ea-975a-4fa1-916a-6ae150c59e82","ios":"levelo://app?vid=cf37e5ea-975a-4fa1-916a-6ae150c59e82"},"vehicle_type_id":"4","last_reported":1765898028,"current_range_meters":12000,"station_id":"st_d4kl2rp97mjs73e7tdfg","pricing_plan_id":"cebpf4jnsgd1na2vs0mg"},{"bike_id":"1c22b3c4-3aaf-4165-8d28-f324ff00042d","system_id":"levelo_inurba_marseille","lat":43.301393,"lon":5.374173,"is_reserved":false,"is_disabled":false,"rental_uris":{"android":"levelo://app?vid=1c22b3c4-3aaf-4165-8d28-f324ff00042d","ios":"levelo://app?vid=1c22b3c4-3aaf-4165-8d28-f324ff00042d"},"vehicle_type_id":"4","last_reported":1765898028,"current_range_meters":12400,"station_id":"ce4bgs92rcd13ifvqcc0","pricing_plan_id":"cebpf4jnsgd1na2vs0mg"},{"bike_id":"0c5e2976-76dd-4171-a38b-a34f9e055774","system_id":"levelo_inurba_marseille","lat":43.298351,"lon":5.381027,"is_reserved":false,"is_disabled":false,"rental_uris":{"android":"levelo://app?vid=0c5e2976-76dd-4171-a38b-a34f9e055774","ios":"levelo://app?vid=0c5e2976-76dd-4171-a38b-a34f9e055774"},"vehicle_type_id":"4","last_reported":1765898028,"current_range_meters":12400,"station_id":"ce4bhbh2rcd13ifvqeqg","pricing_plan_id":"cebpf4jnsgd1na2vs0mg"},{"bike_id":"d6f90051-adc4-44d1-a726-3c1a90bf2e04","system_id":"levelo_inurba_marseille","lat":43.2823,"lon":5.34899,"is_reserved":false,"is_disabled":false,"rental_uris":{"android":"levelo://app?vid=d6f90051-adc4-44d1-a726-3c1a90bf2e04","ios":"levelo://app?vid=d6f90051-adc4-44d1-a726-3c1a90bf2e04"},"vehicle_type_id":"4","last_reported":1765898028,"current_range_meters":12400,"station_id":"","pricing_plan_id":"cebpf4jnsgd1na2vs0mg"},{"bike_id":"d3a2e4e7-6aac-4366-981a-52d89642477a","system_id":"levelo_inurba_marseille","lat":43.30301,"lon":5.3778,"is_reserved":false,"is_disabled":true,"rental_uris":{"android":"levelo://app?vid=d3a2e4e7-6aac-4366-981a-52d89642477a","ios":"levelo://app?vid=d3a2e4e7-6aac-4366-981a-52d89642477a"},"vehicle_type_id":"4","last_reported":1765898028,"current_range_meters":12400,"station_id":"","pricing_plan_id":"cebpf4jnsgd1na2vs0mg"},{"bike_id":"32bc8ef6-8cfa-43b6-9555-4892a986d3bd","system_id":"levelo_inurba_marseille","lat":43.32053,"lon":5.41557,"is_reserved":false,"is_disabled":false,"rental_uris":{"android":"levelo://app?vid=32bc8ef6-8cfa-43b6-9555-4892a986d3bd","ios":"levelo://app?vid=32bc8ef6-8cfa-43b6-9555-4892a986d3bd"},"vehicle_type_id":"4","last_reported":1765898028,"current_range_meters":12400,"station_id":"ce4bhq92rcd13ifvqhkg","pricing_plan_id":"cebpf4jnsgd1na2vs0mg"},{"bike_id":"6ff6765d-d0dc-4415-8860-32b6ffa548be","system_id":"levelo_inurba_marseille","lat":43.29527,"lon":5.37504,"is_reserved":false,"is_disabled":false,"rental_uris":{"android":"levelo://app?vid=6ff6765d-d0dc-4415-8860-32b6ffa548be","ios":"levelo://app?vid=6ff6765d-d0dc-4415-8860-32b6ffa548be"},"vehicle_type_id":"4","last_reported":1765898028,"current_range_meters":12400,"station_id":"ce4bgkp2rcd13ifvqbmg","pricing_plan_id":"cebpf4jnsgd1na2vs0mg"},{"bike_id":"9ebcaad2-2e19-4608-9c02-cecea313b5ae","system_id":"levelo_inurba_marseille","lat":43.24641,"lon":5.43143,"is_reserved":false,"is_disabled":false,"rental_uris":{"android":"levelo://app?vid=9ebcaad2-2e19-4608-9c02-cecea313b5ae","ios":"levelo://app?vid=9ebcaad2-2e19-4608-9c02-cecea313b5ae"},"vehicle_type_id":"4","last_reported":1765898028,"current_range_meters":12800,"station_id":"st_d2m6c4gdas8pm72e190g","pricing_plan_id":"cebpf4jnsgd1na2vs0mg"},{"bike_id":"094e6f42-8188-456e-b536-25ce771d7e44","system_id":"levelo_inurba_marseille","lat":43.241664,"lon":5.363884,"is_reserved":false,"is_disabled":false,"rental_uris":{"android":"levelo://app?vid=094e6f42-8188-456e-b536-25ce771d7e44","ios":"levelo://app?vid=094e6f42-8188-456e-b536-25ce771d7e44"},"vehicle_type_id":"4","last_reported":1765898028,"current_range_meters":12800,"station_id":"cpo36qri1sfpv3e86is0","pricing_plan_id":"cebpf4jnsgd1na2vs0mg"},{"bike_id":"dbfa29ed-adaa-4898-a755-b3379292d6b3","system_id":"levelo_inurba_marseille","lat":43.231815,"lon":5.399805,"is_reserved":false,"is_disabled":false,"rental_uris":{"android":"levelo://app?vid=dbfa29ed-adaa-4898-a755-b3379292d6b3","ios":"levelo://app?vid=dbfa29ed-adaa-4898-a755-b3379292d6b3"},"vehicle_type_id":"4","last_reported":1765898028,"current_range_meters":12800,"station_id":"ce4bhn12rcd13ifvqgqg","pricing_plan_id":"cebpf4jnsgd1na2vs0mg"},{"bike_id":"ec025ddd-e46a-46ed-b97d-7c73102604e0","system_id":"levelo_inurba_marseille","lat":43.273033,"lon":5.390861,"is_reserved":false,"is_disabled":true,"rental_uris":{"android":"levelo://app?vid=ec025ddd-e46a-46ed-b97d-7c73102604e0","ios":"levelo://app?vid=ec025ddd-e46a-46ed-b97d-7c73102604e0"},"vehicle_type_id":"4","last_reported":1765898028,"current_range_meters":12800,"station_id":"ce4bhgp2rcd13ifvqfe0","pricing_plan_id":"cebpf4jnsgd1na2vs0mg"},{"bike_id":"2baf383b-6381-419d-bee0-bdbabee5e0e0","system_id":"levelo_inurba_marseille","lat":43.22933,"lon":5.35376,"is_reserved":false,"is_disabled":false,"rental_uris":{"android":"levelo://app?vid=2baf383b-6381-419d-bee0-bdbabee5e0e0","ios":"levelo://app?vid=2baf383b-6381-419d-bee0-bdbabee5e0e0"},"vehicle_type_id":"4","last_reported":1765898028,"current_range_meters":12800,"station_id":"cpo3532slgdg3j2ikp40","pricing_plan_id":"cebpf4jnsgd1na2vs0mg"},{"bike_id":"2600d7c1-1534-4f76-aab2-bf609c047bb4","system_id":"levelo_inurba_marseille","lat":43.27684,"lon":5.38897,"is_reserved":false,"is_disabled":false,"rental_uris":{"android":"levelo://app?vid=2600d7c1-1534-4f76-aab2-bf609c047bb4","ios":"levelo://app?vid=2600d7c1-1534-4f76-aab2-bf609c047bb4"},"vehicle_type_id":"4","last_reported":1765898028,"current_range_meters":13600,"station_id":"ce4bhi12rcd13ifvqfo0","pricing_plan_id":"cebpf4jnsgd1na2vs0mg"},{"bike_id":"71508078-6838-4792-8f86-6d1edd517671","system_id":"levelo_inurba_marseille","lat":43.28532,"lon":5.44105,"is_reserved":false,"is_disabled":false,"rental_uris":{"android":"levelo://app?vid=71508078-6838-4792-8f86-6d1edd517671","ios":"levelo://app?vid=71508078-6838-4792-8f86-6d1edd517671"},"vehicle_type_id":"4","last_reported":1765898028,"current_range_meters":13600,"station_id":"st_d3j3df2ikq2c7380ej80","pricing_plan_id":"cebpf4jnsgd1na2vs0mg"},{"bike_id":"92a8a748-a152-4b5f-b8dd-2bef93ac9964","system_id":"levelo_inurba_marseille","lat":43.24075,"lon":5.3776,"is_reserved":false,"is_disabled":false,"rental_uris":{"android":"levelo://app?vid=92a8a748-a152-4b5f-b8dd-2bef93ac9964","ios":"levelo://app?vid=92a8a748-a152-4b5f-b8dd-2bef93ac9964"},"vehicle_type_id":"4","last_reported":1765898028,"current_range_meters":13600,"station_id":"ce4bhnp2rcd13ifvqgvg","pricing_plan_id":"cebpf4jnsgd1na2vs0mg"},{"bike_id":"0bd2d304-ee4f-4da2-861b-a3ef0b385397","system_id":"levelo_inurba_marseille","lat":43.25339,"lon":5.42175,"is_reserved":false,"is_disabled":false,"rental_uris":{"android":"levelo://app?vid=0bd2d304-ee4f-4da2-861b-a3ef0b385397","ios":"levelo://app?vid=0bd2d304-ee4f-4da2-861b-a3ef0b385397"},"vehicle_type_id":"4","last_reported":1765898028,"current_range_meters":13600,"station_id":"st_d2m65c5bi1j21697t3ng","pricing_plan_id":"cebpf4jnsgd1na2vs0mg"},{"bike_id":"b32e4917-4651-4915-accd-6ad72ebf913f","system_id":"levelo_inurba_marseille","lat":43.2922,"lon":5.36083,"is_reserved":false,"is_disabled":true,"rental_uris":{"android":"levelo://app?vid=b32e4917-4651-4915-accd-6ad72ebf913f","ios":"levelo://app?vid=b32e4917-4651-4915-accd-6ad72ebf913f"},"vehicle_type_id":"4","last_reported":1765898028,"current_range_meters":13600,"station_id":"ce4bhbh2rcd13ifvqeqg","pricing_plan_id":"cebpf4jnsgd1na2vs0mg"},{"bike_id":"2c70c657-7d5d-4ac5-98bf-5da201752fe5","system_id":"levelo_inurba_marseille","lat":43.26209,"lon":5.37443,"is_reserved":false,"is_disabled":false,"rental_uris":{"android":"levelo://app?vid=2c70c657-7d5d-4ac5-98bf-5da201752fe5","ios":"levelo://app?vid=2c70c657-7d5d-4ac5-98bf-5da201752fe5"},"vehicle_type_id":"4","last_reported":1765898028,"current_range_meters":13600,"station_id":"ce4bhgp2rcd13ifvqfc0","pricing_plan_id":"cebpf4jnsgd1na2vs0mg"},{"bike_id":"e7827159-0828-498f-98ed-70c8098fe92c","system_id":"levelo_inurba_marseille","lat":43.28466,"lon":5.38427,"is_reserved":false,"is_disabled":false,"rental_uris":{"android":"levelo://app?vid=e7827159-0828-498f-98ed-70c8098fe92c","ios":"levelo://app?vid=e7827159-0828-498f-98ed-70c8098fe92c"},"vehicle_type_id":"4","last_reported":1765898028,"current_range_meters":13600,"station_id":"ce4bh512rcd13ifvqe3g","pricing_plan_id":"cebpf4jnsgd1na2vs0mg"},{"bike_id":"04adae15-48bd-4411-af5b-71c3df91c0f6","system_id":"levelo_inurba_marseille","lat":43.29567,"lon":5.37521,"is_reserved":false,"is_disabled":false,"rental_uris":{"android":"levelo://app?vid=04adae15-48bd-4411-af5b-71c3df91c0f6","ios":"levelo://app?vid=04adae15-48bd-4411-af5b-71c3df91c0f6"},"vehicle_type_id":"4","last_reported":1765898028,"current_range_meters":13600,"station_id":"ce4bgh92rcd13ifvqb50","pricing_plan_id":"cebpf4jnsgd1na2vs0mg"},{"bike_id":"569be689-0fb1-4858-82c2-cd847ba21d47","system_id":"levelo_inurba_marseille","lat":43.28928,"lon":5.36398,"is_reserved":false,"is_disabled":false,"rental_uris":{"android":"levelo://app?vid=569be689-0fb1-4858-82c2-cd847ba21d47","ios":"levelo://app?vid=569be689-0fb1-4858-82c2-cd847ba21d47"},"vehicle_type_id":"4","last_reported":1765898028,"current_range_meters":13600,"station_id":"ce4bhc92rcd13ifvqetg","pricing_plan_id":"cebpf4jnsgd1na2vs0mg"},{"bike_id":"543af312-9710-4fcc-b6f9-5ea3742d67ba","system_id":"levelo_inurba_marseille","lat":43.24388,"lon":5.37056,"is_reserved":false,"is_disabled":false,"rental_uris":{"android":"levelo://app?vid=543af312-9710-4fcc-b6f9-5ea3742d67ba","ios":"levelo://app?vid=543af312-9710-4fcc-b6f9-5ea3742d67ba"},"vehicle_type_id":"4","last_reported":1765898028,"current_range_meters":13600,"station_id":"ce4bhhh2rcd13ifvqfk0","pricing_plan_id":"cebpf4jnsgd1na2vs0mg"},{"bike_id":"1e2c0e6c-016f-41c2-b331-9f6af06185a0","system_id":"levelo_inurba_marseille","lat":43.32487,"lon":5.36565,"is_reserved":false,"is_disabled":false,"rental_uris":{"android":"levelo://app?vid=1e2c0e6c-016f-41c2-b331-9f6af06185a0","ios":"levelo://app?vid=1e2c0e6c-016f-41c2-b331-9f6af06185a0"},"vehicle_type_id":"4","last_reported":1765898028,"current_range_meters":13600,"station_id":"ce4bhs12rcd13ifvqhvg","pricing_plan_id":"cebpf4jnsgd1na2vs0mg"},{"bike_id":"4970af14-b833-4a14-9fd9-0ed7d9bd9a65","system_id":"levelo_inurba_marseille","lat":43.30783,"lon":5.3765,"is_reserved":false,"is_disabled":false,"rental_uris":{"android":"levelo://app?vid=4970af14-b833-4a14-9fd9-0ed7d9bd9a65","ios":"levelo://app?vid=4970af14-b833-4a14-9fd9-0ed7d9bd9a65"},"vehicle_type_id":"4","last_reported":1765898028,"current_range_meters":14000,"station_id":"ce4bgv92rcd13ifvqcq0","pricing_plan_id":"cebpf4jnsgd1na2vs0mg"},{"bike_id":"e2cbb5e6-3f9d-4a3d-a899-57d885f29ddd","system_id":"levelo_inurba_marseille","lat":43.337444,"lon":5.374475,"is_reserved":false,"is_disabled":false,"rental_uris":{"android":"levelo://app?vid=e2cbb5e6-3f9d-4a3d-a899-57d885f29ddd","ios":"levelo://app?vid=e2cbb5e6-3f9d-4a3d-a899-57d885f29ddd"},"vehicle_type_id":"4","last_reported":1765898028,"current_range_meters":14000,"station_id":"","pricing_plan_id":"cebpf4jnsgd1na2vs0mg"},{"bike_id":"f4ef45e4-0108-4ac7-bf7b-efb212b6b57f","system_id":"levelo_inurba_marseille","lat":43.29935,"lon":5.36529,"is_reserved":false,"is_disabled":false,"rental_uris":{"android":"levelo://app?vid=f4ef45e4-0108-4ac7-bf7b-efb212b6b57f","ios":"levelo://app?vid=f4ef45e4-0108-4ac7-bf7b-efb212b6b57f"},"vehicle_type_id":"4","last_reported":1765898028,"current_range_meters":14000,"station_id":"ce4bgm92rcd13ifvqbr0","pricing_plan_id":"cebpf4jnsgd1na2vs0mg"},{"bike_id":"37c64312-bacf-418e-938c-ab682523f7de","system_id":"levelo_inurba_marseille","lat":43.28532,"lon":5.44106,"is_reserved":false,"is_disabled":false,"rental_uris":{"android":"levelo://app?vid=37c64312-bacf-418e-938c-ab682523f7de","ios":"levelo://app?vid=37c64312-bacf-418e-938c-ab682523f7de"},"vehicle_type_id":"4","last_reported":1765898028,"current_range_meters":14000,"station_id":"st_d3j3df2ikq2c7380ej80","pricing_plan_id":"cebpf4jnsgd1na2vs0mg"},{"bike_id":"2ab2710b-733d-44fe-a9f8-fe4cbf8606c7","system_id":"levelo_inurba_marseille","lat":43.33534,"lon":5.37464,"is_reserved":false,"is_disabled":false,"rental_uris":{"android":"levelo://app?vid=2ab2710b-733d-44fe-a9f8-fe4cbf8606c7","ios":"levelo://app?vid=2ab2710b-733d-44fe-a9f8-fe4cbf8606c7"},"vehicle_type_id":"4","last_reported":1765898028,"current_range_meters":14000,"station_id":"st_d46tts09ee8s73dlu43g","pricing_plan_id":"cebpf4jnsgd1na2vs0mg"},{"bike_id":"6b76abbb-a39d-4c63-9c06-8ceca7fc51d7","system_id":"levelo_inurba_marseille","lat":43.31271,"lon":5.40168,"is_reserved":false,"is_disabled":false,"rental_uris":{"android":"levelo://app?vid=6b76abbb-a39d-4c63-9c06-8ceca7fc51d7","ios":"levelo://app?vid=6b76abbb-a39d-4c63-9c06-8ceca7fc51d7"},"vehicle_type_id":"4","last_reported":1765898028,"current_range_meters":14000,"station_id":"ce4bh092rcd13ifvqd30","pricing_plan_id":"cebpf4jnsgd1na2vs0mg"},{"bike_id":"79087407-a02e-4abe-832a-2de3d85bc945","system_id":"levelo_inurba_marseille","lat":43.249969,"lon":5.389475,"is_reserved":false,"is_disabled":false,"rental_uris":{"android":"levelo://app?vid=79087407-a02e-4abe-832a-2de3d85bc945","ios":"levelo://app?vid=79087407-a02e-4abe-832a-2de3d85bc945"},"vehicle_type_id":"4","last_reported":1765898028,"current_range_meters":14000,"station_id":"ce4bhgp2rcd13ifvqfd0","pricing_plan_id":"cebpf4jnsgd1na2vs0mg"},{"bike_id":"b95f425e-be36-4ee8-8f46-f7aa48d74d6b","system_id":"levelo_inurba_marseille","lat":43.30305,"lon":5.39207,"is_reserved":false,"is_disabled":false,"rental_uris":{"android":"levelo://app?vid=b95f425e-be36-4ee8-8f46-f7aa48d74d6b","ios":"levelo://app?vid=b95f425e-be36-4ee8-8f46-f7aa48d74d6b"},"vehicle_type_id":"4","last_reported":1765898028,"current_range_meters":14400,"station_id":"ce4bgkh2rcd13ifvqbk0","pricing_plan_id":"cebpf4jnsgd1na2vs0mg"},{"bike_id":"5eabb89b-be95-4b4f-a683-fccb6531d8cd","system_id":"levelo_inurba_marseille","lat":43.30984,"lon":5.39237,"is_reserved":false,"is_disabled":false,"rental_uris":{"android":"levelo://app?vid=5eabb89b-be95-4b4f-a683-fccb6531d8cd","ios":"levelo://app?vid=5eabb89b-be95-4b4f-a683-fccb6531d8cd"},"vehicle_type_id":"4","last_reported":1765898028,"current_range_meters":14400,"station_id":"","pricing_plan_id":"cebpf4jnsgd1na2vs0mg"},{"bike_id":"0ca852c6-98da-40ff-971a-40a77e26f29b","system_id":"levelo_inurba_marseille","lat":43.27822,"lon":5.38257,"is_reserved":false,"is_disabled":false,"rental_uris":{"android":"levelo://app?vid=0ca852c6-98da-40ff-971a-40a77e26f29b","ios":"levelo://app?vid=0ca852c6-98da-40ff-971a-40a77e26f29b"},"vehicle_type_id":"4","last_reported":1765898028,"current_range_meters":14400,"station_id":"","pricing_plan_id":"cebpf4jnsgd1na2vs0mg"},{"bike_id":"a97d9f19-7be8-42cf-9e10-32d3d8060fb6","system_id":"levelo_inurba_marseille","lat":43.2621,"lon":5.37443,"is_reserved":false,"is_disabled":false,"rental_uris":{"android":"levelo://app?vid=a97d9f19-7be8-42cf-9e10-32d3d8060fb6","ios":"levelo://app?vid=a97d9f19-7be8-42cf-9e10-32d3d8060fb6"},"vehicle_type_id":"4","last_reported":1765898028,"current_range_meters":14400,"station_id":"ce4bhgp2rcd13ifvqfc0","pricing_plan_id":"cebpf4jnsgd1na2vs0mg"},{"bike_id":"651b29d3-4f51-4bd5-bf59-d7b9bcb7f108","system_id":"levelo_inurba_marseille","lat":43.25353,"lon":5.42164,"is_reserved":false,"is_disabled":true,"rental_uris":{"android":"levelo://app?vid=651b29d3-4f51-4bd5-bf59-d7b9bcb7f108","ios":"levelo://app?vid=651b29d3-4f51-4bd5-bf59-d7b9bcb7f108"},"vehicle_type_id":"4","last_reported":1765898028,"current_range_meters":14400,"station_id":"st_d2m65c5bi1j21697t3ng","pricing_plan_id":"cebpf4jnsgd1na2vs0mg"},{"bike_id":"33583a3e-eb6f-4736-a38d-d228e9cd63c0","system_id":"levelo_inurba_marseille","lat":43.29814,"lon":5.44069,"is_reserved":false,"is_disabled":false,"rental_uris":{"android":"levelo://app?vid=33583a3e-eb6f-4736-a38d-d228e9cd63c0","ios":"levelo://app?vid=33583a3e-eb6f-4736-a38d-d228e9cd63c0"},"vehicle_type_id":"4","last_reported":1765898028,"current_range_meters":14400,"station_id":"","pricing_plan_id":"cebpf4jnsgd1na2vs0mg"},{"bike_id":"73622435-c5fd-4005-8594-c94cc5b0c5e3","system_id":"levelo_inurba_marseille","lat":43.29531,"lon":5.39047,"is_reserved":false,"is_disabled":true,"rental_uris":{"android":"levelo://app?vid=73622435-c5fd-4005-8594-c94cc5b0c5e3","ios":"levelo://app?vid=73622435-c5fd-4005-8594-c94cc5b0c5e3"},"vehicle_type_id":"4","last_reported":1765898028,"current_range_meters":14400,"station_id":"ce4bh3p2rcd13ifvqdp0","pricing_plan_id":"cebpf4jnsgd1na2vs0mg"},{"bike_id":"08d96e11-fe77-4a88-b18a-f34bf2c8cd31","system_id":"levelo_inurba_marseille","lat":43.29779,"lon":5.4278,"is_reserved":false,"is_disabled":false,"rental_uris":{"android":"levelo://app?vid=08d96e11-fe77-4a88-b18a-f34bf2c8cd31","ios":"levelo://app?vid=08d96e11-fe77-4a88-b18a-f34bf2c8cd31"},"vehicle_type_id":"4","last_reported":1765898028,"current_range_meters":14400,"station_id":"st_d3md5207bmas73dh9klg","pricing_plan_id":"cebpf4jnsgd1na2vs0mg"},{"bike_id":"e0bc29e3-2a69-45fa-867a-ebd6a150b3d1","system_id":"levelo_inurba_marseille","lat":43.282284,"lon":5.390807,"is_reserved":false,"is_disabled":false,"rental_uris":{"android":"levelo://app?vid=e0bc29e3-2a69-45fa-867a-ebd6a150b3d1","ios":"levelo://app?vid=e0bc29e3-2a69-45fa-867a-ebd6a150b3d1"},"vehicle_type_id":"4","last_reported":1765898028,"current_range_meters":14400,"station_id":"ce4bhn92rcd13ifvqgsg","pricing_plan_id":"cebpf4jnsgd1na2vs0mg"},{"bike_id":"4d5ed141-070f-4241-9664-1bccf385766e","system_id":"levelo_inurba_marseille","lat":43.26499,"lon":5.39537,"is_reserved":false,"is_disabled":false,"rental_uris":{"android":"levelo://app?vid=4d5ed141-070f-4241-9664-1bccf385766e","ios":"levelo://app?vid=4d5ed141-070f-4241-9664-1bccf385766e"},"vehicle_type_id":"4","last_reported":1765898028,"current_range_meters":14400,"station_id":"ce4bhi12rcd13ifvqfq0","pricing_plan_id":"cebpf4jnsgd1na2vs0mg"},{"bike_id":"8c2c2ce3-73da-4ebf-ba92-d3797395fcb1","system_id":"levelo_inurba_marseille","lat":43.24637,"lon":5.43146,"is_reserved":false,"is_disabled":true,"rental_uris":{"android":"levelo://app?vid=8c2c2ce3-73da-4ebf-ba92-d3797395fcb1","ios":"levelo://app?vid=8c2c2ce3-73da-4ebf-ba92-d3797395fcb1"},"vehicle_type_id":"4","last_reported":1765898028,"current_range_meters":14800,"station_id":"st_d2m6c4gdas8pm72e190g","pricing_plan_id":"cebpf4jnsgd1na2vs0mg"},{"bike_id":"ddb7d15d-3f99-4d7a-aae0-1a9d45669c33","system_id":"levelo_inurba_marseille","lat":43.23156,"lon":5.43702,"is_reserved":false,"is_disabled":true,"rental_uris":{"android":"levelo://app?vid=ddb7d15d-3f99-4d7a-aae0-1a9d45669c33","ios":"levelo://app?vid=ddb7d15d-3f99-4d7a-aae0-1a9d45669c33"},"vehicle_type_id":"4","last_reported":1765898028,"current_range_meters":14800,"station_id":"ce4bhmp2rcd13ifvqgog","pricing_plan_id":"cebpf4jnsgd1na2vs0mg"},{"bike_id":"b972c994-16b3-47fe-974f-b887645957a5","system_id":"levelo_inurba_marseille","lat":43.265576,"lon":5.372854,"is_reserved":false,"is_disabled":false,"rental_uris":{"android":"levelo://app?vid=b972c994-16b3-47fe-974f-b887645957a5","ios":"levelo://app?vid=b972c994-16b3-47fe-974f-b887645957a5"},"vehicle_type_id":"4","last_reported":1765898028,"current_range_meters":14800,"station_id":"ce4bhih2rcd13ifvqfr0","pricing_plan_id":"cebpf4jnsgd1na2vs0mg"},{"bike_id":"f96d197e-d68e-4b9e-b261-84222baa54d9","system_id":"levelo_inurba_marseille","lat":43.23785,"lon":5.36631,"is_reserved":false,"is_disabled":false,"rental_uris":{"android":"levelo://app?vid=f96d197e-d68e-4b9e-b261-84222baa54d9","ios":"levelo://app?vid=f96d197e-d68e-4b9e-b261-84222baa54d9"},"vehicle_type_id":"4","last_reported":1765898028,"current_range_meters":14800,"station_id":"st_d3nk18o9ro0c73en2l3g","pricing_plan_id":"cebpf4jnsgd1na2vs0mg"},{"bike_id":"5b9b0249-af26-48bc-a6fd-72f489db67a9","system_id":"levelo_inurba_marseille","lat":43.323853,"lon":5.367356,"is_reserved":false,"is_disabled":false,"rental_uris":{"android":"levelo://app?vid=5b9b0249-af26-48bc-a6fd-72f489db67a9","ios":"levelo://app?vid=5b9b0249-af26-48bc-a6fd-72f489db67a9"},"vehicle_type_id":"4","last_reported":1765898028,"current_range_meters":14800,"station_id":"ce4bhsh2rcd13ifvqi2g","pricing_plan_id":"cebpf4jnsgd1na2vs0mg"},{"bike_id":"19b66638-3211-46a9-8beb-4f12406d7672","system_id":"levelo_inurba_marseille","lat":43.27283,"lon":5.41078,"is_reserved":false,"is_disabled":false,"rental_uris":{"android":"levelo://app?vid=19b66638-3211-46a9-8beb-4f12406d7672","ios":"levelo://app?vid=19b66638-3211-46a9-8beb-4f12406d7672"},"vehicle_type_id":"4","last_reported":1765898028,"current_range_meters":14800,"station_id":"","pricing_plan_id":"cebpf4jnsgd1na2vs0mg"},{"bike_id":"0880a096-6192-4556-aa70-0ce5fcc95822","system_id":"levelo_inurba_marseille","lat":43.30089,"lon":5.39075,"is_reserved":false,"is_disabled":false,"rental_uris":{"android":"levelo://app?vid=0880a096-6192-4556-aa70-0ce5fcc95822","ios":"levelo://app?vid=0880a096-6192-4556-aa70-0ce5fcc95822"},"vehicle_type_id":"4","last_reported":1765898028,"current_range_meters":14800,"station_id":"ce4bh192rcd13ifvqdb0","pricing_plan_id":"cebpf4jnsgd1na2vs0mg"},{"bike_id":"aa4ca263-9bf8-4e33-9522-60ebc45e5fa7","system_id":"levelo_inurba_marseille","lat":43.30358,"lon":5.41878,"is_reserved":false,"is_disabled":false,"rental_uris":{"android":"levelo://app?vid=aa4ca263-9bf8-4e33-9522-60ebc45e5fa7","ios":"levelo://app?vid=aa4ca263-9bf8-4e33-9522-60ebc45e5fa7"},"vehicle_type_id":"4","last_reported":1765898028,"current_range_meters":14800,"station_id":"ce4bhop2rcd13ifvqh7g","pricing_plan_id":"cebpf4jnsgd1na2vs0mg"},{"bike_id":"ad52f1cb-eaa3-44d8-8082-4a6e1c03d7a1","system_id":"levelo_inurba_marseille","lat":43.28269,"lon":5.35059,"is_reserved":false,"is_disabled":false,"rental_uris":{"android":"levelo://app?vid=ad52f1cb-eaa3-44d8-8082-4a6e1c03d7a1","ios":"levelo://app?vid=ad52f1cb-eaa3-44d8-8082-4a6e1c03d7a1"},"vehicle_type_id":"4","last_reported":1765898028,"current_range_meters":14800,"station_id":"ce4bhbp2rcd13ifvqerg","pricing_plan_id":"cebpf4jnsgd1na2vs0mg"},{"bike_id":"80dffd92-2b43-4de0-a6ae-9265efe4b2c2","system_id":"levelo_inurba_marseille","lat":43.292587,"lon":5.376369,"is_reserved":false,"is_disabled":false,"rental_uris":{"android":"levelo://app?vid=80dffd92-2b43-4de0-a6ae-9265efe4b2c2","ios":"levelo://app?vid=80dffd92-2b43-4de0-a6ae-9265efe4b2c2"},"vehicle_type_id":"4","last_reported":1765898028,"current_range_meters":15200,"station_id":"ce4bgi12rcd13ifvqb80","pricing_plan_id":"cebpf4jnsgd1na2vs0mg"},{"bike_id":"b87f237b-bed1-4605-8614-65c124626701","system_id":"levelo_inurba_marseille","lat":43.31334,"lon":5.36725,"is_reserved":false,"is_disabled":false,"rental_uris":{"android":"levelo://app?vid=b87f237b-bed1-4605-8614-65c124626701","ios":"levelo://app?vid=b87f237b-bed1-4605-8614-65c124626701"},"vehicle_type_id":"4","last_reported":1765898028,"current_range_meters":15200,"station_id":"ce4bgr92rcd13ifvqc6g","pricing_plan_id":"cebpf4jnsgd1na2vs0mg"},{"bike_id":"a46445b0-0e05-4854-90e8-7e9116d714dc","system_id":"levelo_inurba_marseille","lat":43.337634,"lon":5.37441,"is_reserved":false,"is_disabled":false,"rental_uris":{"android":"levelo://app?vid=a46445b0-0e05-4854-90e8-7e9116d714dc","ios":"levelo://app?vid=a46445b0-0e05-4854-90e8-7e9116d714dc"},"vehicle_type_id":"4","last_reported":1765898028,"current_range_meters":15200,"station_id":"","pricing_plan_id":"cebpf4jnsgd1na2vs0mg"},{"bike_id":"d9c5b730-3210-461a-a60f-107e50f90c34","system_id":"levelo_inurba_marseille","lat":43.28035,"lon":5.36948,"is_reserved":false,"is_disabled":false,"rental_uris":{"android":"levelo://app?vid=d9c5b730-3210-461a-a60f-107e50f90c34","ios":"levelo://app?vid=d9c5b730-3210-461a-a60f-107e50f90c34"},"vehicle_type_id":"4","last_reported":1765898028,"current_range_meters":15200,"station_id":"ce4bha12rcd13ifvqef0","pricing_plan_id":"cebpf4jnsgd1na2vs0mg"},{"bike_id":"1985a16d-974e-4764-a075-1c51a005d839","system_id":"levelo_inurba_marseille","lat":43.298149,"lon":5.440726,"is_reserved":false,"is_disabled":false,"rental_uris":{"android":"levelo://app?vid=1985a16d-974e-4764-a075-1c51a005d839","ios":"levelo://app?vid=1985a16d-974e-4764-a075-1c51a005d839"},"vehicle_type_id":"4","last_reported":1765898028,"current_range_meters":15200,"station_id":"st_d3jp68qikq2c7381ktn0","pricing_plan_id":"cebpf4jnsgd1na2vs0mg"},{"bike_id":"30e8c1d4-8f98-4f2a-9837-de8ef1192e2d","system_id":"levelo_inurba_marseille","lat":43.23191,"lon":5.39984,"is_reserved":false,"is_disabled":false,"rental_uris":{"android":"levelo://app?vid=30e8c1d4-8f98-4f2a-9837-de8ef1192e2d","ios":"levelo://app?vid=30e8c1d4-8f98-4f2a-9837-de8ef1192e2d"},"vehicle_type_id":"4","last_reported":1765898028,"current_range_meters":15200,"station_id":"ce4bhn12rcd13ifvqgqg","pricing_plan_id":"cebpf4jnsgd1na2vs0mg"},{"bike_id":"210ad219-12b3-432f-8364-de45ca9da4ac","system_id":"levelo_inurba_marseille","lat":43.25578,"lon":5.38231,"is_reserved":false,"is_disabled":false,"rental_uris":{"android":"levelo://app?vid=210ad219-12b3-432f-8364-de45ca9da4ac","ios":"levelo://app?vid=210ad219-12b3-432f-8364-de45ca9da4ac"},"vehicle_type_id":"4","last_reported":1765898028,"current_range_meters":15200,"station_id":"ce4bhih2rcd13ifvqfs0","pricing_plan_id":"cebpf4jnsgd1na2vs0mg"},{"bike_id":"499df733-f5bf-42c1-9351-5f6973a6c881","system_id":"levelo_inurba_marseille","lat":43.24623,"lon":5.38919,"is_reserved":false,"is_disabled":false,"rental_uris":{"android":"levelo://app?vid=499df733-f5bf-42c1-9351-5f6973a6c881","ios":"levelo://app?vid=499df733-f5bf-42c1-9351-5f6973a6c881"},"vehicle_type_id":"4","last_reported":1765898028,"current_range_meters":16000,"station_id":"ce4bhg12rcd13ifvqf60","pricing_plan_id":"cebpf4jnsgd1na2vs0mg"},{"bike_id":"1761dee6-2fc9-43ea-a081-e6bc83df43e8","system_id":"levelo_inurba_marseille","lat":43.31732,"lon":5.37646,"is_reserved":false,"is_disabled":false,"rental_uris":{"android":"levelo://app?vid=1761dee6-2fc9-43ea-a081-e6bc83df43e8","ios":"levelo://app?vid=1761dee6-2fc9-43ea-a081-e6bc83df43e8"},"vehicle_type_id":"4","last_reported":1765898028,"current_range_meters":16000,"station_id":"","pricing_plan_id":"cebpf4jnsgd1na2vs0mg"},{"bike_id":"e0b349a1-d5df-4d77-8074-8ffded5b73c6","system_id":"levelo_inurba_marseille","lat":43.24393,"lon":5.37061,"is_reserved":false,"is_disabled":false,"rental_uris":{"android":"levelo://app?vid=e0b349a1-d5df-4d77-8074-8ffded5b73c6","ios":"levelo://app?vid=e0b349a1-d5df-4d77-8074-8ffded5b73c6"},"vehicle_type_id":"4","last_reported":1765898028,"current_range_meters":16000,"station_id":"ce4bhhh2rcd13ifvqfk0","pricing_plan_id":"cebpf4jnsgd1na2vs0mg"},{"bike_id":"37bf9016-5239-4d3b-8135-24febfc9d4a4","system_id":"levelo_inurba_marseille","lat":43.29523,"lon":5.39037,"is_reserved":false,"is_disabled":false,"rental_uris":{"android":"levelo://app?vid=37bf9016-5239-4d3b-8135-24febfc9d4a4","ios":"levelo://app?vid=37bf9016-5239-4d3b-8135-24febfc9d4a4"},"vehicle_type_id":"4","last_reported":1765898028,"current_range_meters":16000,"station_id":"ce4bh3p2rcd13ifvqdp0","pricing_plan_id":"cebpf4jnsgd1na2vs0mg"},{"bike_id":"ac1dce53-08ba-4932-a895-f20cd6d4c7b7","system_id":"levelo_inurba_marseille","lat":43.337444,"lon":5.374475,"is_reserved":false,"is_disabled":false,"rental_uris":{"android":"levelo://app?vid=ac1dce53-08ba-4932-a895-f20cd6d4c7b7","ios":"levelo://app?vid=ac1dce53-08ba-4932-a895-f20cd6d4c7b7"},"vehicle_type_id":"4","last_reported":1765898028,"current_range_meters":16000,"station_id":"ce4bh692rcd13ifvqe90","pricing_plan_id":"cebpf4jnsgd1na2vs0mg"},{"bike_id":"4fa41bf2-a255-4eea-86fc-52affbe7875d","system_id":"levelo_inurba_marseille","lat":43.2619,"lon":5.37457,"is_reserved":false,"is_disabled":false,"rental_uris":{"android":"levelo://app?vid=4fa41bf2-a255-4eea-86fc-52affbe7875d","ios":"levelo://app?vid=4fa41bf2-a255-4eea-86fc-52affbe7875d"},"vehicle_type_id":"4","last_reported":1765898028,"current_range_meters":16000,"station_id":"ce4bhgp2rcd13ifvqfc0","pricing_plan_id":"cebpf4jnsgd1na2vs0mg"},{"bike_id":"4824a2bb-7351-4049-8fb9-1f8b55445bbe","system_id":"levelo_inurba_marseille","lat":43.24167,"lon":5.36395,"is_reserved":false,"is_disabled":false,"rental_uris":{"android":"levelo://app?vid=4824a2bb-7351-4049-8fb9-1f8b55445bbe","ios":"levelo://app?vid=4824a2bb-7351-4049-8fb9-1f8b55445bbe"},"vehicle_type_id":"4","last_reported":1765898028,"current_range_meters":16000,"station_id":"cpo36qri1sfpv3e86is0","pricing_plan_id":"cebpf4jnsgd1na2vs0mg"},{"bike_id":"aa4d0f4c-490d-4276-8d34-233cb65d14db","system_id":"levelo_inurba_marseille","lat":43.29052,"lon":5.35903,"is_reserved":false,"is_disabled":false,"rental_uris":{"android":"levelo://app?vid=aa4d0f4c-490d-4276-8d34-233cb65d14db","ios":"levelo://app?vid=aa4d0f4c-490d-4276-8d34-233cb65d14db"},"vehicle_type_id":"4","last_reported":1765898028,"current_range_meters":16000,"station_id":"ce4bha92rcd13ifvqeg0","pricing_plan_id":"cebpf4jnsgd1na2vs0mg"},{"bike_id":"64b6d9da-99fb-4f89-b300-f9a85c2b82c0","system_id":"levelo_inurba_marseille","lat":43.30131,"lon":5.37438,"is_reserved":false,"is_disabled":false,"rental_uris":{"android":"levelo://app?vid=64b6d9da-99fb-4f89-b300-f9a85c2b82c0","ios":"levelo://app?vid=64b6d9da-99fb-4f89-b300-f9a85c2b82c0"},"vehicle_type_id":"4","last_reported":1765898028,"current_range_meters":16000,"station_id":"ce4bgs92rcd13ifvqcc0","pricing_plan_id":"cebpf4jnsgd1na2vs0mg"},{"bike_id":"09e77213-af41-4957-88d3-2e951c299102","system_id":"levelo_inurba_marseille","lat":43.261767,"lon":5.394232,"is_reserved":false,"is_disabled":false,"rental_uris":{"android":"levelo://app?vid=09e77213-af41-4957-88d3-2e951c299102","ios":"levelo://app?vid=09e77213-af41-4957-88d3-2e951c299102"},"vehicle_type_id":"4","last_reported":1765898028,"current_range_meters":16000,"station_id":"ce4bh692rcd13ifvqe90","pricing_plan_id":"cebpf4jnsgd1na2vs0mg"},{"bike_id":"5a9560c9-d403-420b-837c-c440e05cc625","system_id":"levelo_inurba_marseille","lat":43.30299,"lon":5.39205,"is_reserved":false,"is_disabled":false,"rental_uris":{"android":"levelo://app?vid=5a9560c9-d403-420b-837c-c440e05cc625","ios":"levelo://app?vid=5a9560c9-d403-420b-837c-c440e05cc625"},"vehicle_type_id":"4","last_reported":1765898028,"current_range_meters":16000,"station_id":"ce4bgkh2rcd13ifvqbk0","pricing_plan_id":"cebpf4jnsgd1na2vs0mg"},{"bike_id":"ff705821-3ed5-48ee-aa9d-027c8ff11d0e","system_id":"levelo_inurba_marseille","lat":43.290402,"lon":5.377985,"is_reserved":false,"is_disabled":false,"rental_uris":{"android":"levelo://app?vid=ff705821-3ed5-48ee-aa9d-027c8ff11d0e","ios":"levelo://app?vid=ff705821-3ed5-48ee-aa9d-027c8ff11d0e"},"vehicle_type_id":"4","last_reported":1765898028,"current_range_meters":16000,"station_id":"ce4bh9p2rcd13ifvqed0","pricing_plan_id":"cebpf4jnsgd1na2vs0mg"},{"bike_id":"222b9dd7-079e-4bde-86c4-10c64fb94d5a","system_id":"levelo_inurba_marseille","lat":43.302165,"lon":5.394691,"is_reserved":false,"is_disabled":false,"rental_uris":{"android":"levelo://app?vid=222b9dd7-079e-4bde-86c4-10c64fb94d5a","ios":"levelo://app?vid=222b9dd7-079e-4bde-86c4-10c64fb94d5a"},"vehicle_type_id":"4","last_reported":1765898028,"current_range_meters":16000,"station_id":"ce4bh0p2rcd13ifvqd70","pricing_plan_id":"cebpf4jnsgd1na2vs0mg"},{"bike_id":"f2b7fd15-81c0-4d61-ac54-589cf07dc2e2","system_id":"levelo_inurba_marseille","lat":43.29883,"lon":5.38903,"is_reserved":false,"is_disabled":false,"rental_uris":{"android":"levelo://app?vid=f2b7fd15-81c0-4d61-ac54-589cf07dc2e2","ios":"levelo://app?vid=f2b7fd15-81c0-4d61-ac54-589cf07dc2e2"},"vehicle_type_id":"4","last_reported":1765898028,"current_range_meters":16400,"station_id":"ce4bh392rcd13ifvqdl0","pricing_plan_id":"cebpf4jnsgd1na2vs0mg"},{"bike_id":"a3cf6e32-8a5b-405a-8e1a-e62fc2a41c92","system_id":"levelo_inurba_marseille","lat":43.2802,"lon":5.42134,"is_reserved":false,"is_disabled":false,"rental_uris":{"android":"levelo://app?vid=a3cf6e32-8a5b-405a-8e1a-e62fc2a41c92","ios":"levelo://app?vid=a3cf6e32-8a5b-405a-8e1a-e62fc2a41c92"},"vehicle_type_id":"4","last_reported":1765898028,"current_range_meters":16400,"station_id":"","pricing_plan_id":"cebpf4jnsgd1na2vs0mg"},{"bike_id":"fbc8ea1a-b567-4ee6-a86b-bc4fe5ba24ca","system_id":"levelo_inurba_marseille","lat":43.27095,"lon":5.42271,"is_reserved":false,"is_disabled":false,"rental_uris":{"android":"levelo://app?vid=fbc8ea1a-b567-4ee6-a86b-bc4fe5ba24ca","ios":"levelo://app?vid=fbc8ea1a-b567-4ee6-a86b-bc4fe5ba24ca"},"vehicle_type_id":"4","last_reported":1765898028,"current_range_meters":16400,"station_id":"ce4bhk92rcd13ifvqgb0","pricing_plan_id":"cebpf4jnsgd1na2vs0mg"},{"bike_id":"b1983335-0d04-495e-95d6-b573965a273c","system_id":"levelo_inurba_marseille","lat":43.29253,"lon":5.40909,"is_reserved":false,"is_disabled":false,"rental_uris":{"android":"levelo://app?vid=b1983335-0d04-495e-95d6-b573965a273c","ios":"levelo://app?vid=b1983335-0d04-495e-95d6-b573965a273c"},"vehicle_type_id":"4","last_reported":1765898028,"current_range_meters":16400,"station_id":"ce4bh192rcd13ifvqdc0","pricing_plan_id":"cebpf4jnsgd1na2vs0mg"},{"bike_id":"2e2d5abd-a5ef-410b-b72e-d38d80e78f52","system_id":"levelo_inurba_marseille","lat":43.30125,"lon":5.43116,"is_reserved":false,"is_disabled":false,"rental_uris":{"android":"levelo://app?vid=2e2d5abd-a5ef-410b-b72e-d38d80e78f52","ios":"levelo://app?vid=2e2d5abd-a5ef-410b-b72e-d38d80e78f52"},"vehicle_type_id":"4","last_reported":1765898028,"current_range_meters":16400,"station_id":"st_d3js3co5814s73ftftug","pricing_plan_id":"cebpf4jnsgd1na2vs0mg"},{"bike_id":"2d5c2daf-ae43-4726-b317-34af77fcaa80","system_id":"levelo_inurba_marseille","lat":43.29034,"lon":5.38645,"is_reserved":false,"is_disabled":false,"rental_uris":{"android":"levelo://app?vid=2d5c2daf-ae43-4726-b317-34af77fcaa80","ios":"levelo://app?vid=2d5c2daf-ae43-4726-b317-34af77fcaa80"},"vehicle_type_id":"4","last_reported":1765898028,"current_range_meters":16400,"station_id":"ce4bh4p2rcd13ifvqe0g","pricing_plan_id":"cebpf4jnsgd1na2vs0mg"},{"bike_id":"2136034b-8dfe-4011-8172-d2c827b0b19c","system_id":"levelo_inurba_marseille","lat":43.29591,"lon":5.38118,"is_reserved":false,"is_disabled":false,"rental_uris":{"android":"levelo://app?vid=2136034b-8dfe-4011-8172-d2c827b0b19c","ios":"levelo://app?vid=2136034b-8dfe-4011-8172-d2c827b0b19c"},"vehicle_type_id":"4","last_reported":1765898028,"current_range_meters":16400,"station_id":"ce4bgl12rcd13ifvqbo0","pricing_plan_id":"cebpf4jnsgd1na2vs0mg"},{"bike_id":"6be4ba55-35d6-4b2f-a4ff-39f38d8e5cca","system_id":"levelo_inurba_marseille","lat":43.271071,"lon":5.391931,"is_reserved":false,"is_disabled":false,"rental_uris":{"android":"levelo://app?vid=6be4ba55-35d6-4b2f-a4ff-39f38d8e5cca","ios":"levelo://app?vid=6be4ba55-35d6-4b2f-a4ff-39f38d8e5cca"},"vehicle_type_id":"4","last_reported":1765898028,"current_range_meters":16400,"station_id":"ce4bhn12rcd13ifvqgpg","pricing_plan_id":"cebpf4jnsgd1na2vs0mg"},{"bike_id":"6c7631b2-9bb1-45d3-abcd-6fdb69c6f423","system_id":"levelo_inurba_marseille","lat":43.32459,"lon":5.36582,"is_reserved":false,"is_disabled":false,"rental_uris":{"android":"levelo://app?vid=6c7631b2-9bb1-45d3-abcd-6fdb69c6f423","ios":"levelo://app?vid=6c7631b2-9bb1-45d3-abcd-6fdb69c6f423"},"vehicle_type_id":"4","last_reported":1765898028,"current_range_meters":16400,"station_id":"ce4bhs12rcd13ifvqhvg","pricing_plan_id":"cebpf4jnsgd1na2vs0mg"},{"bike_id":"2d9be9df-3d9b-45f9-8822-775a0a71b6a1","system_id":"levelo_inurba_marseille","lat":43.2815,"lon":5.42637,"is_reserved":false,"is_disabled":false,"rental_uris":{"android":"levelo://app?vid=2d9be9df-3d9b-45f9-8822-775a0a71b6a1","ios":"levelo://app?vid=2d9be9df-3d9b-45f9-8822-775a0a71b6a1"},"vehicle_type_id":"4","last_reported":1765898028,"current_range_meters":16400,"station_id":"ce4bhnh2rcd13ifvqgug","pricing_plan_id":"cebpf4jnsgd1na2vs0mg"},{"bike_id":"1ce5e92f-ab21-4ebc-9bda-0c3d05059088","system_id":"levelo_inurba_marseille","lat":43.29065,"lon":5.37198,"is_reserved":false,"is_disabled":false,"rental_uris":{"android":"levelo://app?vid=1ce5e92f-ab21-4ebc-9bda-0c3d05059088","ios":"levelo://app?vid=1ce5e92f-ab21-4ebc-9bda-0c3d05059088"},"vehicle_type_id":"4","last_reported":1765898028,"current_range_meters":16400,"station_id":"ce4bh5p2rcd13ifvqe4g","pricing_plan_id":"cebpf4jnsgd1na2vs0mg"},{"bike_id":"282fa995-69bb-4d59-b72f-92858f4d535d","system_id":"levelo_inurba_marseille","lat":43.30185,"lon":5.36626,"is_reserved":false,"is_disabled":false,"rental_uris":{"android":"levelo://app?vid=282fa995-69bb-4d59-b72f-92858f4d535d","ios":"levelo://app?vid=282fa995-69bb-4d59-b72f-92858f4d535d"},"vehicle_type_id":"4","last_reported":1765898028,"current_range_meters":16400,"station_id":"ce4bgrh2rcd13ifvqc8g","pricing_plan_id":"cebpf4jnsgd1na2vs0mg"},{"bike_id":"0c2019ed-e611-446f-a57f-012ba86d5c9f","system_id":"levelo_inurba_marseille","lat":43.29169,"lon":5.37162,"is_reserved":false,"is_disabled":false,"rental_uris":{"android":"levelo://app?vid=0c2019ed-e611-446f-a57f-012ba86d5c9f","ios":"levelo://app?vid=0c2019ed-e611-446f-a57f-012ba86d5c9f"},"vehicle_type_id":"4","last_reported":1765898028,"current_range_meters":16400,"station_id":"ce4bha92rcd13ifvqeh0","pricing_plan_id":"cebpf4jnsgd1na2vs0mg"},{"bike_id":"18805cf7-b545-423c-985c-2c761210bd70","system_id":"levelo_inurba_marseille","lat":43.26099,"lon":5.39438,"is_reserved":false,"is_disabled":false,"rental_uris":{"android":"levelo://app?vid=18805cf7-b545-423c-985c-2c761210bd70","ios":"levelo://app?vid=18805cf7-b545-423c-985c-2c761210bd70"},"vehicle_type_id":"4","last_reported":1765898028,"current_range_meters":16400,"station_id":"ce4bhh92rcd13ifvqfj0","pricing_plan_id":"cebpf4jnsgd1na2vs0mg"},{"bike_id":"5cc9cfb4-46f8-4579-937e-6124cb2efb88","system_id":"levelo_inurba_marseille","lat":43.24078,"lon":5.37752,"is_reserved":false,"is_disabled":false,"rental_uris":{"android":"levelo://app?vid=5cc9cfb4-46f8-4579-937e-6124cb2efb88","ios":"levelo://app?vid=5cc9cfb4-46f8-4579-937e-6124cb2efb88"},"vehicle_type_id":"4","last_reported":1765898028,"current_range_meters":16400,"station_id":"ce4bhnp2rcd13ifvqgvg","pricing_plan_id":"cebpf4jnsgd1na2vs0mg"},{"bike_id":"a9bf0c5d-5a87-4d11-ab7d-9cac57769129","system_id":"levelo_inurba_marseille","lat":43.316983,"lon":5.404925,"is_reserved":false,"is_disabled":false,"rental_uris":{"android":"levelo://app?vid=a9bf0c5d-5a87-4d11-ab7d-9cac57769129","ios":"levelo://app?vid=a9bf0c5d-5a87-4d11-ab7d-9cac57769129"},"vehicle_type_id":"4","last_reported":1765898028,"current_range_meters":16400,"station_id":"ce4bh012rcd13ifvqd00","pricing_plan_id":"cebpf4jnsgd1na2vs0mg"},{"bike_id":"3810678c-d231-4afa-9600-04bee263798d","system_id":"levelo_inurba_marseille","lat":43.26193,"lon":5.41554,"is_reserved":false,"is_disabled":false,"rental_uris":{"android":"levelo://app?vid=3810678c-d231-4afa-9600-04bee263798d","ios":"levelo://app?vid=3810678c-d231-4afa-9600-04bee263798d"},"vehicle_type_id":"4","last_reported":1765898028,"current_range_meters":16400,"station_id":"","pricing_plan_id":"cebpf4jnsgd1na2vs0mg"},{"bike_id":"52d1bb98-bbbc-470d-90d2-d761e7a31206","system_id":"levelo_inurba_marseille","lat":43.29747,"lon":5.37694,"is_reserved":false,"is_disabled":false,"rental_uris":{"android":"levelo://app?vid=52d1bb98-bbbc-470d-90d2-d761e7a31206","ios":"levelo://app?vid=52d1bb98-bbbc-470d-90d2-d761e7a31206"},"vehicle_type_id":"4","last_reported":1765898028,"current_range_meters":16800,"station_id":"ce4bgkh2rcd13ifvqbl0","pricing_plan_id":"cebpf4jnsgd1na2vs0mg"},{"bike_id":"325f0ac2-d292-4c5b-acba-55502e937e17","system_id":"levelo_inurba_marseille","lat":43.29798,"lon":5.44059,"is_reserved":false,"is_disabled":false,"rental_uris":{"android":"levelo://app?vid=325f0ac2-d292-4c5b-acba-55502e937e17","ios":"levelo://app?vid=325f0ac2-d292-4c5b-acba-55502e937e17"},"vehicle_type_id":"4","last_reported":1765898028,"current_range_meters":16800,"station_id":"st_d3jp68qikq2c7381ktn0","pricing_plan_id":"cebpf4jnsgd1na2vs0mg"},{"bike_id":"63388b1a-3470-4c94-a050-28c0a98fc38d","system_id":"levelo_inurba_marseille","lat":43.29818,"lon":5.44067,"is_reserved":false,"is_disabled":false,"rental_uris":{"android":"levelo://app?vid=63388b1a-3470-4c94-a050-28c0a98fc38d","ios":"levelo://app?vid=63388b1a-3470-4c94-a050-28c0a98fc38d"},"vehicle_type_id":"4","last_reported":1765898028,"current_range_meters":16800,"station_id":"st_d3jp68qikq2c7381ktn0","pricing_plan_id":"cebpf4jnsgd1na2vs0mg"},{"bike_id":"ee49364c-3ad7-437b-9b29-c52035c6d428","system_id":"levelo_inurba_marseille","lat":43.313428,"lon":5.367464,"is_reserved":false,"is_disabled":false,"rental_uris":{"android":"levelo://app?vid=ee49364c-3ad7-437b-9b29-c52035c6d428","ios":"levelo://app?vid=ee49364c-3ad7-437b-9b29-c52035c6d428"},"vehicle_type_id":"4","last_reported":1765898028,"current_range_meters":16800,"station_id":"ce4bgr92rcd13ifvqc6g","pricing_plan_id":"cebpf4jnsgd1na2vs0mg"},{"bike_id":"03e74853-621e-4e59-8103-de48b526324d","system_id":"levelo_inurba_marseille","lat":43.259259,"lon":5.40908,"is_reserved":false,"is_disabled":false,"rental_uris":{"android":"levelo://app?vid=03e74853-621e-4e59-8103-de48b526324d","ios":"levelo://app?vid=03e74853-621e-4e59-8103-de48b526324d"},"vehicle_type_id":"4","last_reported":1765898028,"current_range_meters":16800,"station_id":"ce4bhm92rcd13ifvqglg","pricing_plan_id":"cebpf4jnsgd1na2vs0mg"},{"bike_id":"67c7e79a-224b-4b44-989d-014bf008ff29","system_id":"levelo_inurba_marseille","lat":43.33727,"lon":5.3918,"is_reserved":false,"is_disabled":false,"rental_uris":{"android":"levelo://app?vid=67c7e79a-224b-4b44-989d-014bf008ff29","ios":"levelo://app?vid=67c7e79a-224b-4b44-989d-014bf008ff29"},"vehicle_type_id":"4","last_reported":1765898028,"current_range_meters":16800,"station_id":"ce4bhr92rcd13ifvqhsg","pricing_plan_id":"cebpf4jnsgd1na2vs0mg"},{"bike_id":"8e42f5bd-0a55-4d3c-9096-d82a20a55cfc","system_id":"levelo_inurba_marseille","lat":43.286,"lon":5.38356,"is_reserved":false,"is_disabled":false,"rental_uris":{"android":"levelo://app?vid=8e42f5bd-0a55-4d3c-9096-d82a20a55cfc","ios":"levelo://app?vid=8e42f5bd-0a55-4d3c-9096-d82a20a55cfc"},"vehicle_type_id":"4","last_reported":1765898028,"current_range_meters":16800,"station_id":"","pricing_plan_id":"cebpf4jnsgd1na2vs0mg"},{"bike_id":"47386b70-d1a6-403d-bcde-2b22b9b9b4a4","system_id":"levelo_inurba_marseille","lat":43.29193,"lon":5.39353,"is_reserved":false,"is_disabled":true,"rental_uris":{"android":"levelo://app?vid=47386b70-d1a6-403d-bcde-2b22b9b9b4a4","ios":"levelo://app?vid=47386b70-d1a6-403d-bcde-2b22b9b9b4a4"},"vehicle_type_id":"4","last_reported":1765898028,"current_range_meters":16800,"station_id":"ce4bh192rcd13ifvqdd0","pricing_plan_id":"cebpf4jnsgd1na2vs0mg"},{"bike_id":"7ff35f83-1e74-47b1-b306-a75e8d53470a","system_id":"levelo_inurba_marseille","lat":43.30136,"lon":5.43168,"is_reserved":false,"is_disabled":false,"rental_uris":{"android":"levelo://app?vid=7ff35f83-1e74-47b1-b306-a75e8d53470a","ios":"levelo://app?vid=7ff35f83-1e74-47b1-b306-a75e8d53470a"},"vehicle_type_id":"4","last_reported":1765898028,"current_range_meters":16800,"station_id":"st_d3js3co5814s73ftftug","pricing_plan_id":"cebpf4jnsgd1na2vs0mg"},{"bike_id":"3559ec2a-d4fa-4a99-8ad6-95237c097e66","system_id":"levelo_inurba_marseille","lat":43.312271,"lon":5.368466,"is_reserved":false,"is_disabled":false,"rental_uris":{"android":"levelo://app?vid=3559ec2a-d4fa-4a99-8ad6-95237c097e66","ios":"levelo://app?vid=3559ec2a-d4fa-4a99-8ad6-95237c097e66"},"vehicle_type_id":"4","last_reported":1765898028,"current_range_meters":16800,"station_id":"ce4bgl92rcd13ifvqbq0","pricing_plan_id":"cebpf4jnsgd1na2vs0mg"},{"bike_id":"51cfd1e1-56ff-48fe-be68-f17b2bff7b48","system_id":"levelo_inurba_marseille","lat":43.2862,"lon":5.3511,"is_reserved":false,"is_disabled":false,"rental_uris":{"android":"levelo://app?vid=51cfd1e1-56ff-48fe-be68-f17b2bff7b48","ios":"levelo://app?vid=51cfd1e1-56ff-48fe-be68-f17b2bff7b48"},"vehicle_type_id":"4","last_reported":1765898028,"current_range_meters":16800,"station_id":"ce4bhch2rcd13ifvqeug","pricing_plan_id":"cebpf4jnsgd1na2vs0mg"},{"bike_id":"9f912395-055e-4fca-b100-36b0177abea3","system_id":"levelo_inurba_marseille","lat":43.285,"lon":5.38553,"is_reserved":false,"is_disabled":false,"rental_uris":{"android":"levelo://app?vid=9f912395-055e-4fca-b100-36b0177abea3","ios":"levelo://app?vid=9f912395-055e-4fca-b100-36b0177abea3"},"vehicle_type_id":"4","last_reported":1765898028,"current_range_meters":16800,"station_id":"ce4bh8p2rcd13ifvqeb0","pricing_plan_id":"cebpf4jnsgd1na2vs0mg"},{"bike_id":"e6a19533-9ebc-452a-95b7-735501cb297e","system_id":"levelo_inurba_marseille","lat":43.26959,"lon":5.38635,"is_reserved":false,"is_disabled":false,"rental_uris":{"android":"levelo://app?vid=e6a19533-9ebc-452a-95b7-735501cb297e","ios":"levelo://app?vid=e6a19533-9ebc-452a-95b7-735501cb297e"},"vehicle_type_id":"4","last_reported":1765898028,"current_range_meters":16800,"station_id":"ce4bhh92rcd13ifvqfh0","pricing_plan_id":"cebpf4jnsgd1na2vs0mg"},{"bike_id":"5193af94-cd08-4645-ab66-06055fe41ecc","system_id":"levelo_inurba_marseille","lat":43.26468,"lon":5.39313,"is_reserved":false,"is_disabled":false,"rental_uris":{"android":"levelo://app?vid=5193af94-cd08-4645-ab66-06055fe41ecc","ios":"levelo://app?vid=5193af94-cd08-4645-ab66-06055fe41ecc"},"vehicle_type_id":"4","last_reported":1765898028,"current_range_meters":16800,"station_id":"","pricing_plan_id":"cebpf4jnsgd1na2vs0mg"},{"bike_id":"281fcc6f-5f81-49e5-9506-090af975ab0a","system_id":"levelo_inurba_marseille","lat":43.24999,"lon":5.38923,"is_reserved":false,"is_disabled":false,"rental_uris":{"android":"levelo://app?vid=281fcc6f-5f81-49e5-9506-090af975ab0a","ios":"levelo://app?vid=281fcc6f-5f81-49e5-9506-090af975ab0a"},"vehicle_type_id":"4","last_reported":1765898028,"current_range_meters":16800,"station_id":"ce4bhgp2rcd13ifvqfd0","pricing_plan_id":"cebpf4jnsgd1na2vs0mg"},{"bike_id":"ab51e3eb-1d8d-4ebc-825c-82b35f73d191","system_id":"levelo_inurba_marseille","lat":43.301377,"lon":5.374047,"is_reserved":false,"is_disabled":false,"rental_uris":{"android":"levelo://app?vid=ab51e3eb-1d8d-4ebc-825c-82b35f73d191","ios":"levelo://app?vid=ab51e3eb-1d8d-4ebc-825c-82b35f73d191"},"vehicle_type_id":"4","last_reported":1765898028,"current_range_meters":16800,"station_id":"ce4bgs92rcd13ifvqcc0","pricing_plan_id":"cebpf4jnsgd1na2vs0mg"},{"bike_id":"d5f47dab-732d-4f2f-9c2e-2d1173dc7601","system_id":"levelo_inurba_marseille","lat":43.26227,"lon":5.40464,"is_reserved":false,"is_disabled":false,"rental_uris":{"android":"levelo://app?vid=d5f47dab-732d-4f2f-9c2e-2d1173dc7601","ios":"levelo://app?vid=d5f47dab-732d-4f2f-9c2e-2d1173dc7601"},"vehicle_type_id":"4","last_reported":1765898028,"current_range_meters":17200,"station_id":"ce4bhmh2rcd13ifvqgmg","pricing_plan_id":"cebpf4jnsgd1na2vs0mg"},