{"last_updated":1701936607,"ttl":30,"version":"2.2","data":{"bikes":[{"bike_id":"b2e1f01b-8698-4dc4-b376-e89a19298667","system_id":"levelo_inurba_marseille","lat":43.31324,"lon":5.36723,"is_reserved":false,"is_disabled":false,"rental_uris":{"android":"levelo://app?vid=b2e1f01b-8698-4dc4-b376-e89a19298667","ios":"levelo://app?vid=b2e1f01b-8698-4dc4-b376-e89a19298667"},"vehicle_type_id":"4","last_reported":1701936607,"current_range_meters":24400,"station_id":"ce4bgr92rcd13ifvqc6g","pricing_plan_id":"free"},{"bike_id":"ef49fd3a-f4d5-46d3-b8aa-0299095ac4e0","system_id":"levelo_inurba_marseille","lat":43.31341,"lon":5.367098,"is_reserved":false,"is_disabled":false,"rental_uris":{"android":"levelo://app?vid=ef49fd3a-f4d5-46d3-b8aa-0299095ac4e0","ios":"levelo://app?vid=ef49fd3a-f4d5-46d3-b8aa-0299095ac4e0"},"vehicle_type_id":"4","last_reported":1701936607,"current_range_meters":1200,"station_id":"ce4bgr92rcd13ifvqc6g","pricing_plan_id":"free"},{"bike_id":"89593d1d-a711-4736-afcc-29432430d887","system_id":"levelo_inurba_marseille","lat":43.31341,"lon":5.367098,"is_reserved":false,"is_disabled":false,"rental_uris":{"android":"levelo://app?vid=89593d1d-a711-4736-afcc-29432430d887","ios":"levelo://app?vid=89593d1d-a711-4736-afcc-29432430d887"},"vehicle_type_id":"4","last_reported":1701936607,"current_range_meters":20800,"station_id":"ce4bgr92rcd13ifvqc6g","pricing_plan_id":"free"},{"bike_id":"ef2d35ff-b354-44e0-9b74-a21269b29bbf","system_id":"levelo_inurba_marseille","lat":43.31341,"lon":5.367098,"is_reserved":false,"is_disabled":false,"rental_uris":{"android":"levelo://app?vid=ef2d35ff-b354-44e0-9b74-a21269b29bbf","ios":"levelo://app?vid=ef2d35ff-b354-44e0-9b74-a21269b29bbf"},"vehicle_type_id":"4","last_reported":1701936607,"current_range_meters":16400,"station_id":"ce4bgr92rcd13ifvqc6g","pricing_plan_id":"free"},{"bike_id":"6f08718a-8324-40bd-9496-89e7238df4ef","system_id":"levelo_inurba_marseille","lat":43.313391,"lon":5.36706,"is_reserved":false,"is_disabled":false,"rental_uris":{"android":"levelo://app?vid=6f08718a-8324-40bd-9496-89e7238df4ef","ios":"levelo://app?vid=6f08718a-8324-40bd-9496-89e7238df4ef"},"vehicle_type_id":"4","last_reported":1701936607,"current_range_meters":23200,"station_id":"ce4bgr92rcd13ifvqc6g","pricing_plan_id":"free"},{"bike_id":"6d63928c-e42d-4622-9a66-dd9b0a6791bf","system_id":"levelo_inurba_marseille","lat":43.31347,"lon":5.36723,"is_reserved":false,"is_disabled":false,"rental_uris":{"android":"levelo://app?vid=6d63928c-e42d-4622-9a66-dd9b0a6791bf","ios":"levelo://app?vid=6d63928c-e42d-4622-9a66-dd9b0a6791bf"},"vehicle_type_id":"4","last_reported":1701936607,"current_range_meters":30400,"station_id":"ce4bgr92rcd13ifvqc6g","pricing_plan_id":"free"},{"bike_id":"10c1f48e-aab4-4a07-88e5-6254c3212b74","system_id":"levelo_inurba_marseille","lat":43.31341,"lon":5.367098,"is_reserved":false,"is_disabled":false,"rental_uris":{"android":"levelo://app?vid=10c1f48e-aab4-4a07-88e5-6254c3212b74","ios":"levelo://app?vid=10c1f48e-aab4-4a07-88e5-6254c3212b74"},"vehicle_type_id":"4","last_reported":1701936607,"current_range_meters":14000,"station_id":"ce4bgr92rcd13ifvqc6g","pricing_plan_id":"free"},{"bike_id":"348c4a29-8189-4d5a-a172-8579ab2bf0aa","system_id":"levelo_inurba_marseille","lat":43.312239,"lon":5.368562,"is_reserved":false,"is_disabled":false,"rental_uris":{"android":"levelo://app?vid=348c4a29-8189-4d5a-a172-8579ab2bf0aa","ios":"levelo://app?vid=348c4a29-8189-4d5a-a172-8579ab2bf0aa"},"vehicle_type_id":"4","last_reported":1701936607,"current_range_meters":14400,"station_id":"ce4bgl92rcd13ifvqbq0","pricing_plan_id":"free"},{"bike_id":"3d137284-0d6d-47c2-b10e-cea341f5d196","system_id":"levelo_inurba_marseille","lat":43.312239,"lon":5.368562,"is_reserved":false,"is_disabled":false,"rental_uris":{"android":"levelo://app?vid=3d137284-0d6d-47c2-b10e-cea341f5d196","ios":"levelo://app?vid=3d137284-0d6d-47c2-b10e-cea341f5d196"},"vehicle_type_id":"4","last_reported":1701936607,"current_range_meters":17600,"station_id":"ce4bgl92rcd13ifvqbq0","pricing_plan_id":"free"},{"bike_id":"0d7ffa69-0a8d-4b7b-b02b-b67e52e677e6","system_id":"levelo_inurba_marseille","lat":43.312239,"lon":5.368562,"is_reserved":false,"is_disabled":false,"rental_uris":{"android":"levelo://app?vid=0d7ffa69-0a8d-4b7b-b02b-b67e52e677e6","ios":"levelo://app?vid=0d7ffa69-0a8d-4b7b-b02b-b67e52e677e6"},"vehicle_type_id":"4","last_reported":1701936607,"current_range_meters":26400,"station_id":"ce4bgl92rcd13ifvqbq0","pricing_plan_id":"free"},{"bike_id":"6581c597-a29c-4e99-b8fa-499e47e82963","system_id":"levelo_inurba_marseille","lat":43.312239,"lon":5.368562,"is_reserved":false,"is_disabled":false,"rental_uris":{"android":"levelo://app?vid=6581c597-a29c-4e99-b8fa-499e47e82963","ios":"levelo://app?vid=6581c597-a29c-4e99-b8fa-499e47e82963"},"vehicle_type_id":"4","last_reported":1701936607,"current_range_meters":4400,"station_id":"ce4bgl92rcd13ifvqbq0","pricing_plan_id":"free"},{"bike_id":"2a1d46bb-6bfb-4822-877e-ef9a34b2fc51","system_id":"levelo_inurba_marseille","lat":43.312239,"lon":5.368562,"is_reserved":false,"is_disabled":false,"rental_uris":{"android":"levelo://app?vid=2a1d46bb-6bfb-4822-877e-ef9a34b2fc51","ios":"levelo://app?vid=2a1d46bb-6bfb-4822-877e-ef9a34b2fc51"},"vehicle_type_id":"4","last_reported":1701936607,"current_range_meters":10000,"station_id":"ce4bgl92rcd13ifvqbq0","pricing_plan_id":"free"},{"bike_id":"661caae0-e23b-4296-9a24-b76d819b7b5c","system_id":"levelo_inurba_marseille","lat":43.312239,"lon":5.368562,"is_reserved":false,"is_disabled":false,"rental_uris":{"android":"levelo://app?vid=661caae0-e23b-4296-9a24-b76d819b7b5c","ios":"levelo://app?vid=661caae0-e23b-4296-9a24-b76d819b7b5c"},"vehicle_type_id":"4","last_reported":1701936607,"current_range_meters":28400,"station_id":"ce4bgl92rcd13ifvqbq0","pricing_plan_id":"free"},{"bike_id":"bdb7193e-8661-479b-ba1c-e732448ee4c3","system_id":"levelo_inurba_marseille","lat":43.312239,"lon":5.368562,"is_reserved":false,"is_disabled":false,"rental_uris":{"android":"levelo://app?vid=bdb7193e-8661-479b-ba1c-e732448ee4c3","ios":"levelo://app?vid=bdb7193e-8661-479b-ba1c-e732448ee4c3"},"vehicle_type_id":"4","last_reported":1701936607,"current_range_meters":1600,"station_id":"ce4bgl92rcd13ifvqbq0","pricing_plan_id":"free"},{"bike_id":"5c49b4d1-b8e6-4763-8fb1-b3f8819fa983","system_id":"levelo_inurba_marseille","lat":43.309076,"lon":5.368465,"is_reserved":false,"is_disabled":false,"rental_uris":{"android":"levelo://app?vid=5c49b4d1-b8e6-4763-8fb1-b3f8819fa983","ios":"levelo://app?vid=5c49b4d1-b8e6-4763-8fb1-b3f8819fa983"},"vehicle_type_id":"4","last_reported":1701936607,"current_range_meters":25600,"station_id":"ce4bgn92rcd13ifvqbvg","pricing_plan_id":"free"},{"bike_id":"8bb1cf9a-2a7d-44ad-96d1-4abef2cefa22","system_id":"levelo_inurba_marseille","lat":43.309076,"lon":5.368465,"is_reserved":false,"is_disabled":false,"rental_uris":{"android":"levelo://app?vid=8bb1cf9a-2a7d-44ad-96d1-4abef2cefa22","ios":"levelo://app?vid=8bb1cf9a-2a7d-44ad-96d1-4abef2cefa22"},"vehicle_type_id":"4","last_reported":1701936607,"current_range_meters":31600,"station_id":"ce4bgn92rcd13ifvqbvg","pricing_plan_id":"free"},{"bike_id":"e94c3050-0364-4bb9-8d86-cc49c5e2ab27","system_id":"levelo_inurba_marseille","lat":43.309076,"lon":5.368465,"is_reserved":false,"is_disabled":false,"rental_uris":{"android":"levelo://app?vid=e94c3050-0364-4bb9-8d86-cc49c5e2ab27","ios":"levelo://app?vid=e94c3050-0364-4bb9-8d86-cc49c5e2ab27"},"vehicle_type_id":"4","last_reported":1701936607,"current_range_meters":31200,"station_id":"ce4bgn92rcd13ifvqbvg","pricing_plan_id":"free"},{"bike_id":"593e9455-c518-45d7-a13b-67882c5bdda2","system_id":"levelo_inurba_marseille","lat":43.309076,"lon":5.368465,"is_reserved":false,"is_disabled":false,"rental_uris":{"android":"levelo://app?vid=593e9455-c518-45d7-a13b-67882c5bdda2","ios":"levelo://app?vid=593e9455-c518-45d7-a13b-67882c5bdda2"},"vehicle_type_id":"4","last_reported":1701936607,"current_range_meters":9200,"station_id":"ce4bgn92rcd13ifvqbvg","pricing_plan_id":"free"},{"bike_id":"a5e74075-f518-4d0d-b662-356c7cdece66","system_id":"levelo_inurba_marseille","lat":43.309076,"lon":5.368465,"is_reserved":false,"is_disabled":false,"rental_uris":{"android":"levelo://app?vid=a5e74075-f518-4d0d-b662-356c7cdece66","ios":"levelo://app?vid=a5e74075-f518-4d0d-b662-356c7cdece66"},"vehicle_type_id":"4","last_reported":1701936607,"current_range_meters":31200,"station_id":"ce4bgn92rcd13ifvqbvg","pricing_plan_id":"free"},{"bike_id":"a50ea77e-6623-4c6f-87f6-a0c366886c29","system_id":"levelo_inurba_marseille","lat":43.309076,"lon":5.368465,"is_reserved":false,"is_disabled":false,"rental_uris":{"android":"levelo://app?vid=a50ea77e-6623-4c6f-87f6-a0c366886c29","ios":"levelo://app?vid=a50ea77e-6623-4c6f-87f6-a0c366886c29"},"vehicle_type_id":"4","last_reported":1701936607,"current_range_meters":30400,"station_id":"ce4bgn92rcd13ifvqbvg","pricing_plan_id":"free"},{"bike_id":"9635cede-26cd-4f4e-8cd2-13220ef3820c","system_id":"levelo_inurba_marseille","lat":43.309076,"lon":5.368465,"is_reserved":false,"is_disabled":false,"rental_uris":{"android":"levelo://app?vid=9635cede-26cd-4f4e-8cd2-13220ef3820c","ios":"levelo://app?vid=9635cede-26cd-4f4e-8cd2-13220ef3820c"},"vehicle_type_id":"4","last_reported":1701936607,"current_range_meters":24800,"station_id":"ce4bgn92rcd13ifvqbvg","pricing_plan_id":"free"},{"bike_id":"a7925edc-ad9a-488b-b971-1364fb7a2ffd","system_id":"levelo_inurba_marseille","lat":43.309076,"lon":5.368465,"is_reserved":false,"is_disabled":false,"rental_uris":{"android":"levelo://app?vid=a7925edc-ad9a-488b-b971-1364fb7a2ffd","ios":"levelo://app?vid=a7925edc-ad9a-488b-b971-1364fb7a2ffd"},"vehicle_type_id":"4","last_reported":1701936607,"current_range_meters":31200,"station_id":"ce4bgn92rcd13ifvqbvg","pricing_plan_id":"free"},{"bike_id":"99846a07-740c-4c3e-a25c-e18bebc331e9","system_id":"levelo_inurba_marseille","lat":43.309076,"lon":5.368465,"is_reserved":false,"is_disabled":false,"rental_uris":{"android":"levelo://app?vid=99846a07-740c-4c3e-a25c-e18bebc331e9","ios":"levelo://app?vid=99846a07-740c-4c3e-a25c-e18bebc331e9"},"vehicle_type_id":"4","last_reported":1701936607,"current_range_meters":22800,"station_id":"ce4bgn92rcd13ifvqbvg","pricing_plan_id":"free"},{"bike_id":"9fa2933e-f1d9-4864-89c7-89eac782580f","system_id":"levelo_inurba_marseille","lat":43.309076,"lon":5.368465,"is_reserved":false,"is_disabled":false,"rental_uris":{"android":"levelo://app?vid=9fa2933e-f1d9-4864-89c7-89eac782580f","ios":"levelo://app?vid=9fa2933e-f1d9-4864-89c7-89eac782580f"},"vehicle_type_id":"4","last_reported":1701936607,"current_range_meters":21600,"station_id":"ce4bgn92rcd13ifvqbvg","pricing_plan_id":"free"},{"bike_id":"fe8c67d6-10dc-4a6b-8f57-fc90f858d2c9","system_id":"levelo_inurba_marseille","lat":43.309076,"lon":5.368465,"is_reserved":false,"is_disabled":false,"rental_uris":{"android":"levelo://app?vid=fe8c67d6-10dc-4a6b-8f57-fc90f858d2c9","ios":"levelo://app?vid=fe8c67d6-10dc-4a6b-8f57-fc90f858d2c9"},"vehicle_type_id":"4","last_reported":1701936607,"current_range_meters":25200,"station_id":"ce4bgn92rcd13ifvqbvg","pricing_plan_id":"free"},{"bike_id":"a4ff908c-f768-44ca-b03b-0ed7a738f283","system_id":"levelo_inurba_marseille","lat":43.328371,"lon":5.366909,"is_reserved":false,"is_disabled":false,"rental_uris":{"android":"levelo://app?vid=a4ff908c-f768-44ca-b03b-0ed7a738f283","ios":"levelo://app?vid=a4ff908c-f768-44ca-b03b-0ed7a738f283"},"vehicle_type_id":"4","last_reported":1701936607,"current_range_meters":22400,"station_id":"ce4bhs92rcd13ifvqi0g","pricing_plan_id":"free"},{"bike_id":"42793ba1-a028-4e08-acef-d751bd8eddae","system_id":"levelo_inurba_marseille","lat":43.309039,"lon":5.371797,"is_reserved":false,"is_disabled":false,"rental_uris":{"android":"levelo://app?vid=42793ba1-a028-4e08-acef-d751bd8eddae","ios":"levelo://app?vid=42793ba1-a028-4e08-acef-d751bd8eddae"},"vehicle_type_id":"4","last_reported":1701936607,"current_range_meters":0,"station_id":"ce4bguh2rcd13ifvqckg","pricing_plan_id":"free"},{"bike_id":"9d00dfd8-bd46-4a58-bcbb-5a1e84d77bf4","system_id":"levelo_inurba_marseille","lat":43.3054,"lon":5.36715,"is_reserved":false,"is_disabled":false,"rental_uris":{"android":"levelo://app?vid=9d00dfd8-bd46-4a58-bcbb-5a1e84d77bf4","ios":"levelo://app?vid=9d00dfd8-bd46-4a58-bcbb-5a1e84d77bf4"},"vehicle_type_id":"4","last_reported":1701936607,"current_range_meters":11200,"station_id":"ce4bgrp2rcd13ifvqc9g","pricing_plan_id":"free"},{"bike_id":"99904e98-6887-4e6a-89ff-b3d816ee0755","system_id":"levelo_inurba_marseille","lat":43.305706,"lon":5.365654,"is_reserved":false,"is_disabled":false,"rental_uris":{"android":"levelo://app?vid=99904e98-6887-4e6a-89ff-b3d816ee0755","ios":"levelo://app?vid=99904e98-6887-4e6a-89ff-b3d816ee0755"},"vehicle_type_id":"4","last_reported":1701936607,"current_range_meters":28800,"station_id":"ce4bgs12rcd13ifvqcag","pricing_plan_id":"free"},{"bike_id":"84b638e6-9e5a-4a36-8880-df1e0ddf08a3","system_id":"levelo_inurba_marseille","lat":43.31099,"lon":5.37765,"is_reserved":false,"is_disabled":false,"rental_uris":{"android":"levelo://app?vid=84b638e6-9e5a-4a36-8880-df1e0ddf08a3","ios":"levelo://app?vid=84b638e6-9e5a-4a36-8880-df1e0ddf08a3"},"vehicle_type_id":"4","last_reported":1701936607,"current_range_meters":23200,"station_id":"ce4bgt92rcd13ifvqcg0","pricing_plan_id":"free"},{"bike_id":"14cd0391-dcc8-443a-a923-178e412f0b41","system_id":"levelo_inurba_marseille","lat":43.317075,"lon":5.377367,"is_reserved":false,"is_disabled":false,"rental_uris":{"android":"levelo://app?vid=14cd0391-dcc8-443a-a923-178e412f0b41","ios":"levelo://app?vid=14cd0391-dcc8-443a-a923-178e412f0b41"},"vehicle_type_id":"4","last_reported":1701936607,"current_range_meters":27600,"station_id":"ce4bgth2rcd13ifvqch0","pricing_plan_id":"free"},{"bike_id":"adf146c5-e4e1-4668-9a33-042940925130","system_id":"levelo_inurba_marseille","lat":43.31351,"lon":5.37909,"is_reserved":false,"is_disabled":false,"rental_uris":{"android":"levelo://app?vid=adf146c5-e4e1-4668-9a33-042940925130","ios":"levelo://app?vid=adf146c5-e4e1-4668-9a33-042940925130"},"vehicle_type_id":"4","last_reported":1701936607,"current_range_meters":3200,"station_id":"","pricing_plan_id":"free"},{"bike_id":"7bf729ac-a019-4eef-9d48-1c83799cac71","system_id":"levelo_inurba_marseille","lat":43.31527,"lon":5.380415,"is_reserved":false,"is_disabled":false,"rental_uris":{"android":"levelo://app?vid=7bf729ac-a019-4eef-9d48-1c83799cac71","ios":"levelo://app?vid=7bf729ac-a019-4eef-9d48-1c83799cac71"},"vehicle_type_id":"4","last_reported":1701936607,"current_range_meters":27600,"station_id":"ce4bhsp2rcd13ifvqi50","pricing_plan_id":"free"},{"bike_id":"1ea60f58-75f7-4484-b705-1156df4b02ad","system_id":"levelo_inurba_marseille","lat":43.30266,"lon":5.37337,"is_reserved":false,"is_disabled":false,"rental_uris":{"android":"levelo://app?vid=1ea60f58-75f7-4484-b705-1156df4b02ad","ios":"levelo://app?vid=1ea60f58-75f7-4484-b705-1156df4b02ad"},"vehicle_type_id":"4","last_reported":1701936607,"current_range_meters":6000,"station_id":"","pricing_plan_id":"free"},{"bike_id":"e44e1301-463f-4da5-a2b6-71db5ed737e3","system_id":"levelo_inurba_marseille","lat":43.308012,"lon":5.381511,"is_reserved":false,"is_disabled":false,"rental_uris":{"android":"levelo://app?vid=e44e1301-463f-4da5-a2b6-71db5ed737e3","ios":"levelo://app?vid=e44e1301-463f-4da5-a2b6-71db5ed737e3"},"vehicle_type_id":"4","last_reported":1701936607,"current_range_meters":27200,"station_id":"ce4bgt12rcd13ifvqce0","pricing_plan_id":"free"},{"bike_id":"1c3409b6-3ef7-4201-9477-ace56ebe0ee1","system_id":"levelo_inurba_marseille","lat":43.30463,"lon":5.37896,"is_reserved":false,"is_disabled":false,"rental_uris":{"android":"levelo://app?vid=1c3409b6-3ef7-4201-9477-ace56ebe0ee1","ios":"levelo://app?vid=1c3409b6-3ef7-4201-9477-ace56ebe0ee1"},"vehicle_type_id":"4","last_reported":1701936607,"current_range_meters":0,"station_id":"ce4bgup2rcd13ifvqcn0","pricing_plan_id":"free"},{"bike_id":"e6a7946c-a7d5-4369-b254-577b631c8d1a","system_id":"levelo_inurba_marseille","lat":43.31717,"lon":5.38237,"is_reserved":false,"is_disabled":false,"rental_uris":{"android":"levelo://app?vid=e6a7946c-a7d5-4369-b254-577b631c8d1a","ios":"levelo://app?vid=e6a7946c-a7d5-4369-b254-577b631c8d1a"},"vehicle_type_id":"4","last_reported":1701936607,"current_range_meters":26000,"station_id":"","pricing_plan_id":"free"},{"bike_id":"e6df54a7-a1b0-430e-a109-0c0c937d4c13","system_id":"levelo_inurba_marseille","lat":43.303072,"lon":5.376913,"is_reserved":false,"is_disabled":false,"rental_uris":{"android":"levelo://app?vid=e6df54a7-a1b0-430e-a109-0c0c937d4c13","ios":"levelo://app?vid=e6df54a7-a1b0-430e-a109-0c0c937d4c13"},"vehicle_type_id":"4","last_reported":1701936607,"current_range_meters":5600,"station_id":"","pricing_plan_id":"free"},{"bike_id":"44b639d4-c394-49b2-9e18-6098ae373bd6","system_id":"levelo_inurba_marseille","lat":43.31923,"lon":5.38127,"is_reserved":false,"is_disabled":false,"rental_uris":{"android":"levelo://app?vid=44b639d4-c394-49b2-9e18-6098ae373bd6","ios":"levelo://app?vid=44b639d4-c394-49b2-9e18-6098ae373bd6"},"vehicle_type_id":"4","last_reported":1701936607,"current_range_meters":30400,"station_id":"","pricing_plan_id":"free"},{"bike_id":"13be63d6-8a31-4840-bac9-bedd2f0d54d5","system_id":"levelo_inurba_marseille","lat":43.301429,"lon":5.37413,"is_reserved":false,"is_disabled":false,"rental_uris":{"android":"levelo://app?vid=13be63d6-8a31-4840-bac9-bedd2f0d54d5","ios":"levelo://app?vid=13be63d6-8a31-4840-bac9-bedd2f0d54d5"},"vehicle_type_id":"4","last_reported":1701936607,"current_range_meters":8800,"station_id":"ce4bgs92rcd13ifvqcc0","pricing_plan_id":"free"},{"bike_id":"6ddf6a72-bee1-4f39-90e0-8c6e992ea399","system_id":"levelo_inurba_marseille","lat":43.30143,"lon":5.37413,"is_reserved":false,"is_disabled":false,"rental_uris":{"android":"levelo://app?vid=6ddf6a72-bee1-4f39-90e0-8c6e992ea399","ios":"levelo://app?vid=6ddf6a72-bee1-4f39-90e0-8c6e992ea399"},"vehicle_type_id":"4","last_reported":1701936607,"current_range_meters":31200,"station_id":"ce4bgs92rcd13ifvqcc0","pricing_plan_id":"free"},{"bike_id":"f4972286-e26c-4c59-a011-06950b53dae7","system_id":"levelo_inurba_marseille","lat":43.30141,"lon":5.37421,"is_reserved":false,"is_disabled":false,"rental_uris":{"android":"levelo://app?vid=f4972286-e26c-4c59-a011-06950b53dae7","ios":"levelo://app?vid=f4972286-e26c-4c59-a011-06950b53dae7"},"vehicle_type_id":"4","last_reported":1701936607,"current_range_meters":5200,"station_id":"ce4bgs92rcd13ifvqcc0","pricing_plan_id":"free"},{"bike_id":"0afbfb5c-336f-48af-9db7-72b1a5c0c0ff","system_id":"levelo_inurba_marseille","lat":43.301429,"lon":5.37413,"is_reserved":false,"is_disabled":false,"rental_uris":{"android":"levelo://app?vid=0afbfb5c-336f-48af-9db7-72b1a5c0c0ff","ios":"levelo://app?vid=0afbfb5c-336f-48af-9db7-72b1a5c0c0ff"},"vehicle_type_id":"4","last_reported":1701936607,"current_range_meters":31200,"station_id":"ce4bgs92rcd13ifvqcc0","pricing_plan_id":"free"},{"bike_id":"f45c67b3-3d69-4943-86fc-0b0a49e9b94e","system_id":"levelo_inurba_marseille","lat":43.30143,"lon":5.37413,"is_reserved":false,"is_disabled":false,"rental_uris":{"android":"levelo://app?vid=f45c67b3-3d69-4943-86fc-0b0a49e9b94e","ios":"levelo://app?vid=f45c67b3-3d69-4943-86fc-0b0a49e9b94e"},"vehicle_type_id":"4","last_reported":1701936607,"current_range_meters":12800,"station_id":"ce4bgs92rcd13ifvqcc0","pricing_plan_id":"free"},{"bike_id":"72937422-82b4-4f5a-84cf-8ca2fa6f77e0","system_id":"levelo_inurba_marseille","lat":43.30143,"lon":5.37413,"is_reserved":false,"is_disabled":false,"rental_uris":{"android":"levelo://app?vid=72937422-82b4-4f5a-84cf-8ca2fa6f77e0","ios":"levelo://app?vid=72937422-82b4-4f5a-84cf-8ca2fa6f77e0"},"vehicle_type_id":"4","last_reported":1701936607,"current_range_meters":25600,"station_id":"ce4bgs92rcd13ifvqcc0","pricing_plan_id":"free"},{"bike_id":"9ee0ef7a-8d9c-4d78-8ae5-64e12b708d26","system_id":"levelo_inurba_marseille","lat":43.319997,"lon":5.381594,"is_reserved":false,"is_disabled":false,"rental_uris":{"android":"levelo://app?vid=9ee0ef7a-8d9c-4d78-8ae5-64e12b708d26","ios":"levelo://app?vid=9ee0ef7a-8d9c-4d78-8ae5-64e12b708d26"},"vehicle_type_id":"4","last_reported":1701936607,"current_range_meters":0,"station_id":"ce4bhr12rcd13ifvqhpg","pricing_plan_id":"free"},{"bike_id":"12e06c05-8090-4bbb-8737-8009173fce82","system_id":"levelo_inurba_marseille","lat":43.313571,"lon":5.384829,"is_reserved":false,"is_disabled":false,"rental_uris":{"android":"levelo://app?vid=12e06c05-8090-4bbb-8737-8009173fce82","ios":"levelo://app?vid=12e06c05-8090-4bbb-8737-8009173fce82"},"vehicle_type_id":"4","last_reported":1701936607,"current_range_meters":12800,"station_id":"ce4bgt92rcd13ifvqcf0","pricing_plan_id":"free"},{"bike_id":"ceef4c17-6bc8-45dc-85e2-4ec045351102","system_id":"levelo_inurba_marseille","lat":43.299724,"lon":5.371829,"is_reserved":false,"is_disabled":false,"rental_uris":{"android":"levelo://app?vid=ceef4c17-6bc8-45dc-85e2-4ec045351102","ios":"levelo://app?vid=ceef4c17-6bc8-45dc-85e2-4ec045351102"},"vehicle_type_id":"4","last_reported":1701936607,"current_range_meters":19600,"station_id":"ce4bgr92rcd13ifvqc7g","pricing_plan_id":"free"},{"bike_id":"c6ef0f18-0fb9-4826-955c-a101d82fc74d","system_id":"levelo_inurba_marseille","lat":43.298433,"lon":5.362774,"is_reserved":false,"is_disabled":false,"rental_uris":{"android":"levelo://app?vid=c6ef0f18-0fb9-4826-955c-a101d82fc74d","ios":"levelo://app?vid=c6ef0f18-0fb9-4826-955c-a101d82fc74d"},"vehicle_type_id":"4","last_reported":1701936607,"current_range_meters":18800,"station_id":"ce4bgpp2rcd13ifvqc3g","pricing_plan_id":"free"},{"bike_id":"a393418a-4efa-47a5-97b2-44982789c089","system_id":"levelo_inurba_marseille","lat":43.305364,"lon":5.384119,"is_reserved":false,"is_disabled":false,"rental_uris":{"android":"levelo://app?vid=a393418a-4efa-47a5-97b2-44982789c089","ios":"levelo://app?vid=a393418a-4efa-47a5-97b2-44982789c089"},"vehicle_type_id":"4","last_reported":1701936607,"current_range_meters":14800,"station_id":"ce4bgg92rcd13ifvqb30","pricing_plan_id":"free"},{"bike_id":"6a41068a-300a-41e2-aa00-c23646a1b436","system_id":"levelo_inurba_marseille","lat":43.298433,"lon":5.362774,"is_reserved":false,"is_disabled":false,"rental_uris":{"android":"levelo://app?vid=6a41068a-300a-41e2-aa00-c23646a1b436","ios":"levelo://app?vid=6a41068a-300a-41e2-aa00-c23646a1b436"},"vehicle_type_id":"4","last_reported":1701936607,"current_range_meters":20400,"station_id":"ce4bgpp2rcd13ifvqc3g","pricing_plan_id":"free"},{"bike_id":"3fa1e145-12bd-4b72-b842-be7aafc9e95a","system_id":"levelo_inurba_marseille","lat":43.298433,"lon":5.362774,"is_reserved":false,"is_disabled":false,"rental_uris":{"android":"levelo://app?vid=3fa1e145-12bd-4b72-b842-be7aafc9e95a","ios":"levelo://app?vid=3fa1e145-12bd-4b72-b842-be7aafc9e95a"},"vehicle_type_id":"4","last_reported":1701936607,"current_range_meters":22000,"station_id":"ce4bgpp2rcd13ifvqc3g","pricing_plan_id":"free"},{"bike_id":"7d1cff4c-ccf2-4c50-90cb-2c31208e7da7","system_id":"levelo_inurba_marseille","lat":43.298433,"lon":5.362774,"is_reserved":false,"is_disabled":false,"rental_uris":{"android":"levelo://app?vid=7d1cff4c-ccf2-4c50-90cb-2c31208e7da7","ios":"levelo://app?vid=7d1cff4c-ccf2-4c50-90cb-2c31208e7da7"},"vehicle_type_id":"4","last_reported":1701936607,"current_range_meters":1200,"station_id":"ce4bgpp2rcd13ifvqc3g","pricing_plan_id":"free"},{"bike_id":"e2aa25a1-ffa2-4cd3-9f29-10ceda0444a5","system_id":"levelo_inurba_marseille","lat":43.298433,"lon":5.362774,"is_reserved":false,"is_disabled":false,"rental_uris":{"android":"levelo://app?vid=e2aa25a1-ffa2-4cd3-9f29-10ceda0444a5","ios":"levelo://app?vid=e2aa25a1-ffa2-4cd3-9f29-10ceda0444a5"},"vehicle_type_id":"4","last_reported":1701936607,"current_range_meters":21600,"station_id":"ce4bgpp2rcd13ifvqc3g","pricing_plan_id":"free"},{"bike_id":"7f9f4f8c-fd2c-484c-b27c-addd9b4c6ca3","system_id":"levelo_inurba_marseille","lat":43.32821,"lon":5.36693,"is_reserved":false,"is_disabled":false,"rental_uris":{"android":"levelo://app?vid=7f9f4f8c-fd2c-484c-b27c-addd9b4c6ca3","ios":"levelo://app?vid=7f9f4f8c-fd2c-484c-b27c-addd9b4c6ca3"},"vehicle_type_id":"4","last_reported":1701936607,"current_range_meters":4800,"station_id":"ce4bhs92rcd13ifvqi0g","pricing_plan_id":"free"},{"bike_id":"029dca2f-419c-4743-8757-a57328df9cf8","system_id":"levelo_inurba_marseille","lat":43.328371,"lon":5.366909,"is_reserved":false,"is_disabled":false,"rental_uris":{"android":"levelo://app?vid=029dca2f-419c-4743-8757-a57328df9cf8","ios":"levelo://app?vid=029dca2f-419c-4743-8757-a57328df9cf8"},"vehicle_type_id":"4","last_reported":1701936607,"current_range_meters":14800,"station_id":"ce4bhs92rcd13ifvqi0g","pricing_plan_id":"free"},{"bike_id":"55ccc96c-fa12-43da-ace3-cf5d15fb5429","system_id":"levelo_inurba_marseille","lat":43.298218,"lon":5.374416,"is_reserved":false,"is_disabled":false,"rental_uris":{"android":"levelo://app?vid=55ccc96c-fa12-43da-ace3-cf5d15fb5429","ios":"levelo://app?vid=55ccc96c-fa12-43da-ace3-cf5d15fb5429"},"vehicle_type_id":"4","last_reported":1701936607,"current_range_meters":10800,"station_id":"","pricing_plan_id":"free"},{"bike_id":"55311dec-ec61-4646-8d1a-4ddd89532043","system_id":"levelo_inurba_marseille","lat":43.328371,"lon":5.366909,"is_reserved":false,"is_disabled":false,"rental_uris":{"android":"levelo://app?vid=55311dec-ec61-4646-8d1a-4ddd89532043","ios":"levelo://app?vid=55311dec-ec61-4646-8d1a-4ddd89532043"},"vehicle_type_id":"4","last_reported":1701936607,"current_range_meters":24800,"station_id":"ce4bhs92rcd13ifvqi0g","pricing_plan_id":"free"},{"bike_id":"c9e8c329-feb8-473c-a9d8-45480099d849","system_id":"levelo_inurba_marseille","lat":43.328371,"lon":5.366909,"is_reserved":false,"is_disabled":false,"rental_uris":{"android":"levelo://app?vid=c9e8c329-feb8-473c-a9d8-45480099d849","ios":"levelo://app?vid=c9e8c329-feb8-473c-a9d8-45480099d849"},"vehicle_type_id":"4","last_reported":1701936607,"current_range_meters":0,"station_id":"ce4bhs92rcd13ifvqi0g","pricing_plan_id":"free"},{"bike_id":"9190eb99-d6ca-4501-a2a4-7ed7fc8df97e","system_id":"levelo_inurba_marseille","lat":43.32832,"lon":5.36682,"is_reserved":false,"is_disabled":false,"rental_uris":{"android":"levelo://app?vid=9190eb99-d6ca-4501-a2a4-7ed7fc8df97e","ios":"levelo://app?vid=9190eb99-d6ca-4501-a2a4-7ed7fc8df97e"},"vehicle_type_id":"4","last_reported":1701936607,"current_range_meters":20000,"station_id":"ce4bhs92rcd13ifvqi0g","pricing_plan_id":"free"},{"bike_id":"2424b203-2bfa-46d0-8b7b-b616d11edac6","system_id":"levelo_inurba_marseille","lat":43.32827,"lon":5.36246,"is_reserved":false,"is_disabled":false,"rental_uris":{"android":"levelo://app?vid=2424b203-2bfa-46d0-8b7b-b616d11edac6","ios":"levelo://app?vid=2424b203-2bfa-46d0-8b7b-b616d11edac6"},"vehicle_type_id":"4","last_reported":1701936607,"current_range_meters":7600,"station_id":"","pricing_plan_id":"free"},{"bike_id":"59708d3d-dec0-46d2-b377-d664bca60d5e","system_id":"levelo_inurba_marseille","lat":43.2968,"lon":5.37291,"is_reserved":false,"is_disabled":false,"rental_uris":{"android":"levelo://app?vid=59708d3d-dec0-46d2-b377-d664bca60d5e","ios":"levelo://app?vid=59708d3d-dec0-46d2-b377-d664bca60d5e"},"vehicle_type_id":"4","last_reported":1701936607,"current_range_meters":30400,"station_id":"ce4bgk12rcd13ifvqbj0","pricing_plan_id":"free"},{"bike_id":"92dc65d6-6823-4de3-93d4-056f738f090c","system_id":"levelo_inurba_marseille","lat":43.316538,"lon":5.38954,"is_reserved":false,"is_disabled":false,"rental_uris":{"android":"levelo://app?vid=92dc65d6-6823-4de3-93d4-056f738f090c","ios":"levelo://app?vid=92dc65d6-6823-4de3-93d4-056f738f090c"},"vehicle_type_id":"4","last_reported":1701936607,"current_range_meters":6400,"station_id":"","pricing_plan_id":"free"},{"bike_id":"3cc0fcea-5fc9-4d48-8b9b-dc8b29d2ecb7","system_id":"levelo_inurba_marseille","lat":43.309589,"lon":5.390258,"is_reserved":false,"is_disabled":false,"rental_uris":{"android":"levelo://app?vid=3cc0fcea-5fc9-4d48-8b9b-dc8b29d2ecb7","ios":"levelo://app?vid=3cc0fcea-5fc9-4d48-8b9b-dc8b29d2ecb7"},"vehicle_type_id":"4","last_reported":1701936607,"current_range_meters":20000,"station_id":"ce4bgup2rcd13ifvqco0","pricing_plan_id":"free"},{"bike_id":"265fec23-dc5e-4174-a071-302f506d004e","system_id":"levelo_inurba_marseille","lat":43.296921,"lon":5.376579,"is_reserved":false,"is_disabled":false,"rental_uris":{"android":"levelo://app?vid=265fec23-dc5e-4174-a071-302f506d004e","ios":"levelo://app?vid=265fec23-dc5e-4174-a071-302f506d004e"},"vehicle_type_id":"4","last_reported":1701936607,"current_range_meters":2400,"station_id":"ce4bgkh2rcd13ifvqbl0","pricing_plan_id":"free"},{"bike_id":"8a5d2df5-733c-4d4d-9736-1aec412cb5a0","system_id":"levelo_inurba_marseille","lat":43.295748,"lon":5.37522,"is_reserved":false,"is_disabled":false,"rental_uris":{"android":"levelo://app?vid=8a5d2df5-733c-4d4d-9736-1aec412cb5a0","ios":"levelo://app?vid=8a5d2df5-733c-4d4d-9736-1aec412cb5a0"},"vehicle_type_id":"4","last_reported":1701936607,"current_range_meters":21600,"station_id":"ce4bgh92rcd13ifvqb50","pricing_plan_id":"free"},{"bike_id":"13eaa1b1-049e-4f91-8a2e-617e6510ab79","system_id":"levelo_inurba_marseille","lat":43.295279,"lon":5.375048,"is_reserved":false,"is_disabled":false,"rental_uris":{"android":"levelo://app?vid=13eaa1b1-049e-4f91-8a2e-617e6510ab79","ios":"levelo://app?vid=13eaa1b1-049e-4f91-8a2e-617e6510ab79"},"vehicle_type_id":"4","last_reported":1701936607,"current_range_meters":19600,"station_id":"ce4bgkp2rcd13ifvqbmg","pricing_plan_id":"free"},{"bike_id":"3d3b2b58-9cf7-455d-97fd-61a82606327e","system_id":"levelo_inurba_marseille","lat":43.323652,"lon":5.388844,"is_reserved":false,"is_disabled":false,"rental_uris":{"android":"levelo://app?vid=3d3b2b58-9cf7-455d-97fd-61a82606327e","ios":"levelo://app?vid=3d3b2b58-9cf7-455d-97fd-61a82606327e"},"vehicle_type_id":"4","last_reported":1701936607,"current_range_meters":30000,"station_id":"ce4bhqp2rcd13ifvqhog","pricing_plan_id":"free"},{"bike_id":"dbdbf049-d363-48f4-962a-35e0839dda16","system_id":"levelo_inurba_marseille","lat":43.29601,"lon":5.381084,"is_reserved":false,"is_disabled":false,"rental_uris":{"android":"levelo://app?vid=dbdbf049-d363-48f4-962a-35e0839dda16","ios":"levelo://app?vid=dbdbf049-d363-48f4-962a-35e0839dda16"},"vehicle_type_id":"4","last_reported":1701936607,"current_range_meters":0,"station_id":"ce4bgl12rcd13ifvqbo0","pricing_plan_id":"free"},{"bike_id":"72714644-a730-462a-b220-6837667c5de6","system_id":"levelo_inurba_marseille","lat":43.3182,"lon":5.394113,"is_reserved":false,"is_disabled":false,"rental_uris":{"android":"levelo://app?vid=72714644-a730-462a-b220-6837667c5de6","ios":"levelo://app?vid=72714644-a730-462a-b220-6837667c5de6"},"vehicle_type_id":"4","last_reported":1701936607,"current_range_meters":14800,"station_id":"","pricing_plan_id":"free"},{"bike_id":"e51aa751-9b7c-4fcb-964a-b60a70db6875","system_id":"levelo_inurba_marseille","lat":43.291671,"lon":5.371575,"is_reserved":false,"is_disabled":false,"rental_uris":{"android":"levelo://app?vid=e51aa751-9b7c-4fcb-964a-b60a70db6875","ios":"levelo://app?vid=e51aa751-9b7c-4fcb-964a-b60a70db6875"},"vehicle_type_id":"4","last_reported":1701936607,"current_range_meters":24800,"station_id":"ce4bha92rcd13ifvqeh0","pricing_plan_id":"free"},{"bike_id":"742e6d83-db59-4174-91d3-3d691b7a4ef0","system_id":"levelo_inurba_marseille","lat":43.291675,"lon":5.371583,"is_reserved":false,"is_disabled":false,"rental_uris":{"android":"levelo://app?vid=742e6d83-db59-4174-91d3-3d691b7a4ef0","ios":"levelo://app?vid=742e6d83-db59-4174-91d3-3d691b7a4ef0"},"vehicle_type_id":"4","last_reported":1701936607,"current_range_meters":9200,"station_id":"ce4bha92rcd13ifvqeh0","pricing_plan_id":"free"},{"bike_id":"2c1986b2-b7c2-4af7-b67a-7bd61b44dc85","system_id":"levelo_inurba_marseille","lat":43.29245,"lon":5.37722,"is_reserved":false,"is_disabled":false,"rental_uris":{"android":"levelo://app?vid=2c1986b2-b7c2-4af7-b67a-7bd61b44dc85","ios":"levelo://app?vid=2c1986b2-b7c2-4af7-b67a-7bd61b44dc85"},"vehicle_type_id":"4","last_reported":1701936607,"current_range_meters":0,"station_id":"","pricing_plan_id":"free"},{"bike_id":"1243005a-0f8b-4fc2-80b8-20425aaa6a30","system_id":"levelo_inurba_marseille","lat":43.290327,"lon":5.375711,"is_reserved":false,"is_disabled":false,"rental_uris":{"android":"levelo://app?vid=1243005a-0f8b-4fc2-80b8-20425aaa6a30","ios":"levelo://app?vid=1243005a-0f8b-4fc2-80b8-20425aaa6a30"},"vehicle_type_id":"4","last_reported":1701936607,"current_range_meters":17200,"station_id":"ce4bh692rcd13ifvqe90","pricing_plan_id":"free"},{"bike_id":"a02a1b20-1fb1-4951-988a-77389649024d","system_id":"levelo_inurba_marseille","lat":43.289259,"lon":5.366364,"is_reserved":false,"is_disabled":false,"rental_uris":{"android":"levelo://app?vid=a02a1b20-1fb1-4951-988a-77389649024d","ios":"levelo://app?vid=a02a1b20-1fb1-4951-988a-77389649024d"},"vehicle_type_id":"4","last_reported":1701936607,"current_range_meters":20400,"station_id":"","pricing_plan_id":"free"},{"bike_id":"742c2c3f-d684-451f-9e5e-26e9491f7289","system_id":"levelo_inurba_marseille","lat":43.29781,"lon":5.39345,"is_reserved":false,"is_disabled":false,"rental_uris":{"android":"levelo://app?vid=742c2c3f-d684-451f-9e5e-26e9491f7289","ios":"levelo://app?vid=742c2c3f-d684-451f-9e5e-26e9491f7289"},"vehicle_type_id":"4","last_reported":1701936607,"current_range_meters":30000,"station_id":"chh1huq6cuj3fo74tm60","pricing_plan_id":"free"},{"bike_id":"70073d59-a3f4-48ea-9263-e82157bfb01c","system_id":"levelo_inurba_marseille","lat":43.2901,"lon":5.381269,"is_reserved":false,"is_disabled":false,"rental_uris":{"android":"levelo://app?vid=70073d59-a3f4-48ea-9263-e82157bfb01c","ios":"levelo://app?vid=70073d59-a3f4-48ea-9263-e82157bfb01c"},"vehicle_type_id":"4","last_reported":1701936607,"current_range_meters":16400,"station_id":"ce4bh4p2rcd13ifvqe1g","pricing_plan_id":"free"},{"bike_id":"15d9623e-a439-4943-adf9-588d831d8d2e","system_id":"levelo_inurba_marseille","lat":43.28847,"lon":5.358681,"is_reserved":false,"is_disabled":false,"rental_uris":{"android":"levelo://app?vid=15d9623e-a439-4943-adf9-588d831d8d2e","ios":"levelo://app?vid=15d9623e-a439-4943-adf9-588d831d8d2e"},"vehicle_type_id":"4","last_reported":1701936607,"current_range_meters":28800,"station_id":"ce4bhb12rcd13ifvqem0","pricing_plan_id":"free"},{"bike_id":"0f07d05c-24d9-4ac5-8ff1-8288798d954f","system_id":"levelo_inurba_marseille","lat":43.28835,"lon":5.3585,"is_reserved":false,"is_disabled":false,"rental_uris":{"android":"levelo://app?vid=0f07d05c-24d9-4ac5-8ff1-8288798d954f","ios":"levelo://app?vid=0f07d05c-24d9-4ac5-8ff1-8288798d954f"},"vehicle_type_id":"4","last_reported":1701936607,"current_range_meters":0,"station_id":"ce4bhb12rcd13ifvqem0","pricing_plan_id":"free"},{"bike_id":"ea987a1e-a560-41d3-a772-b20fe8d03c0c","system_id":"levelo_inurba_marseille","lat":43.301117,"lon":5.398795,"is_reserved":false,"is_disabled":false,"rental_uris":{"android":"levelo://app?vid=ea987a1e-a560-41d3-a772-b20fe8d03c0c","ios":"levelo://app?vid=ea987a1e-a560-41d3-a772-b20fe8d03c0c"},"vehicle_type_id":"4","last_reported":1701936607,"current_range_meters":1600,"station_id":"ce4bh0h2rcd13ifvqd40","pricing_plan_id":"free"},{"bike_id":"9fcabd0a-4b2b-4eb9-a344-00ef160e1cb5","system_id":"levelo_inurba_marseille","lat":43.295196,"lon":5.39397,"is_reserved":false,"is_disabled":false,"rental_uris":{"android":"levelo://app?vid=9fcabd0a-4b2b-4eb9-a344-00ef160e1cb5","ios":"levelo://app?vid=9fcabd0a-4b2b-4eb9-a344-00ef160e1cb5"},"vehicle_type_id":"4","last_reported":1701936607,"current_range_meters":27200,"station_id":"ce4bh292rcd13ifvqdf0","pricing_plan_id":"free"},{"bike_id":"68118953-8823-430f-9cbf-ec2cd2feb57d","system_id":"levelo_inurba_marseille","lat":43.287185,"lon":5.379373,"is_reserved":false,"is_disabled":false,"rental_uris":{"android":"levelo://app?vid=68118953-8823-430f-9cbf-ec2cd2feb57d","ios":"levelo://app?vid=68118953-8823-430f-9cbf-ec2cd2feb57d"},"vehicle_type_id":"4","last_reported":1701936607,"current_range_meters":4000,"station_id":"ce4bh9p2rcd13ifvqec0","pricing_plan_id":"free"},{"bike_id":"84f777e2-be7e-4a0b-b93b-4585656073e2","system_id":"levelo_inurba_marseille","lat":43.3165,"lon":5.40431,"is_reserved":false,"is_disabled":false,"rental_uris":{"android":"levelo://app?vid=84f777e2-be7e-4a0b-b93b-4585656073e2","ios":"levelo://app?vid=84f777e2-be7e-4a0b-b93b-4585656073e2"},"vehicle_type_id":"4","last_reported":1701936607,"current_range_meters":7600,"station_id":"ce4bh012rcd13ifvqd00","pricing_plan_id":"free"},{"bike_id":"ebbc63f1-296c-4b29-a3a1-79b1a45cd725","system_id":"levelo_inurba_marseille","lat":43.31635,"lon":5.40437,"is_reserved":false,"is_disabled":false,"rental_uris":{"android":"levelo://app?vid=ebbc63f1-296c-4b29-a3a1-79b1a45cd725","ios":"levelo://app?vid=ebbc63f1-296c-4b29-a3a1-79b1a45cd725"},"vehicle_type_id":"4","last_reported":1701936607,"current_range_meters":12800,"station_id":"ce4bh012rcd13ifvqd00","pricing_plan_id":"free"},{"bike_id":"94bcfe89-bfe0-4005-980b-fdf7951bbd00","system_id":"levelo_inurba_marseille","lat":43.291994,"lon":5.392907,"is_reserved":false,"is_disabled":false,"rental_uris":{"android":"levelo://app?vid=94bcfe89-bfe0-4005-980b-fdf7951bbd00","ios":"levelo://app?vid=94bcfe89-bfe0-4005-980b-fdf7951bbd00"},"vehicle_type_id":"4","last_reported":1701936607,"current_range_meters":22400,"station_id":"ce4bh192rcd13ifvqdd0","pricing_plan_id":"free"},{"bike_id":"d1c146d7-3279-4547-bae9-f811d6bede2a","system_id":"levelo_inurba_marseille","lat":43.284538,"lon":5.358657,"is_reserved":false,"is_disabled":false,"rental_uris":{"android":"levelo://app?vid=d1c146d7-3279-4547-bae9-f811d6bede2a","ios":"levelo://app?vid=d1c146d7-3279-4547-bae9-f811d6bede2a"},"vehicle_type_id":"4","last_reported":1701936607,"current_range_meters":8400,"station_id":"ce4bhah2rcd13ifvqei0","pricing_plan_id":"free"},{"bike_id":"d4cb2296-54f9-47e9-ba8b-2c817e6d5cb0","system_id":"levelo_inurba_marseille","lat":43.284538,"lon":5.358657,"is_reserved":false,"is_disabled":false,"rental_uris":{"android":"levelo://app?vid=d4cb2296-54f9-47e9-ba8b-2c817e6d5cb0","ios":"levelo://app?vid=d4cb2296-54f9-47e9-ba8b-2c817e6d5cb0"},"vehicle_type_id":"4","last_reported":1701936607,"current_range_meters":9600,"station_id":"ce4bhah2rcd13ifvqei0","pricing_plan_id":"free"},{"bike_id":"5807cbb2-704a-4325-ab63-2ae22087c7b9","system_id":"levelo_inurba_marseille","lat":43.285856,"lon":5.350771,"is_reserved":false,"is_disabled":false,"rental_uris":{"android":"levelo://app?vid=5807cbb2-704a-4325-ab63-2ae22087c7b9","ios":"levelo://app?vid=5807cbb2-704a-4325-ab63-2ae22087c7b9"},"vehicle_type_id":"4","last_reported":1701936607,"current_range_meters":26800,"station_id":"ce4bhch2rcd13ifvqeug","pricing_plan_id":"free"},{"bike_id":"dd14cdfa-a0ee-404b-9acd-d4986be67190","system_id":"levelo_inurba_marseille","lat":43.286595,"lon":5.386795,"is_reserved":false,"is_disabled":false,"rental_uris":{"android":"levelo://app?vid=dd14cdfa-a0ee-404b-9acd-d4986be67190","ios":"levelo://app?vid=dd14cdfa-a0ee-404b-9acd-d4986be67190"},"vehicle_type_id":"4","last_reported":1701936607,"current_range_meters":18400,"station_id":"ce4bh492rcd13ifvqdug","pricing_plan_id":"free"},{"bike_id":"caad947b-171d-4367-9652-0bec735b5d7a","system_id":"levelo_inurba_marseille","lat":43.33717,"lon":5.391857,"is_reserved":false,"is_disabled":false,"rental_uris":{"android":"levelo://app?vid=caad947b-171d-4367-9652-0bec735b5d7a","ios":"levelo://app?vid=caad947b-171d-4367-9652-0bec735b5d7a"},"vehicle_type_id":"4","last_reported":1701936607,"current_range_meters":24400,"station_id":"ce4bhr92rcd13ifvqhsg","pricing_plan_id":"free"},{"bike_id":"6db55031-df47-4fb6-8b80-a9e9fa62b66a","system_id":"levelo_inurba_marseille","lat":43.337168,"lon":5.391825,"is_reserved":false,"is_disabled":false,"rental_uris":{"android":"levelo://app?vid=6db55031-df47-4fb6-8b80-a9e9fa62b66a","ios":"levelo://app?vid=6db55031-df47-4fb6-8b80-a9e9fa62b66a"},"vehicle_type_id":"4","last_reported":1701936607,"current_range_meters":27200,"station_id":"ce4bhr92rcd13ifvqhsg","pricing_plan_id":"free"},{"bike_id":"36bcb057-d637-4054-b47f-47dfe72cd1d3","system_id":"levelo_inurba_marseille","lat":43.288497,"lon":5.393089,"is_reserved":false,"is_disabled":false,"rental_uris":{"android":"levelo://app?vid=36bcb057-d637-4054-b47f-47dfe72cd1d3","ios":"levelo://app?vid=36bcb057-d637-4054-b47f-47dfe72cd1d3"},"vehicle_type_id":"4","last_reported":1701936607,"current_range_meters":0,"station_id":"ce4bh2p2rcd13ifvqdi0","pricing_plan_id":"free"},{"bike_id":"b9e5af2e-613f-46b8-bccb-0a7367420a3e","system_id":"levelo_inurba_marseille","lat":43.283498,"lon":5.380948,"is_reserved":false,"is_disabled":false,"rental_uris":{"android":"levelo://app?vid=b9e5af2e-613f-46b8-bccb-0a7367420a3e","ios":"levelo://app?vid=b9e5af2e-613f-46b8-bccb-0a7367420a3e"},"vehicle_type_id":"4","last_reported":1701936607,"current_range_meters":400,"station_id":"ce4bh412rcd13ifvqdr0","pricing_plan_id":"free"},{"bike_id":"70a99b7f-bef6-4180-b15d-a66a635e1635","system_id":"levelo_inurba_marseille","lat":43.284793,"lon":5.384119,"is_reserved":false,"is_disabled":false,"rental_uris":{"android":"levelo://app?vid=70a99b7f-bef6-4180-b15d-a66a635e1635","ios":"levelo://app?vid=70a99b7f-bef6-4180-b15d-a66a635e1635"},"vehicle_type_id":"4","last_reported":1701936607,"current_range_meters":800,"station_id":"ce4bh512rcd13ifvqe3g","pricing_plan_id":"free"},{"bike_id":"f2878042-a276-41e3-bfe8-5402f242036a","system_id":"levelo_inurba_marseille","lat":43.292724,"lon":5.401131,"is_reserved":false,"is_disabled":false,"rental_uris":{"android":"levelo://app?vid=f2878042-a276-41e3-bfe8-5402f242036a","ios":"levelo://app?vid=f2878042-a276-41e3-bfe8-5402f242036a"},"vehicle_type_id":"4","last_reported":1701936607,"current_range_meters":18000,"station_id":"ce4bh312rcd13ifvqdk0","pricing_plan_id":"free"},{"bike_id":"0e32325b-db16-43d9-9229-835b3c07484d","system_id":"levelo_inurba_marseille","lat":43.292724,"lon":5.401131,"is_reserved":false,"is_disabled":false,"rental_uris":{"android":"levelo://app?vid=0e32325b-db16-43d9-9229-835b3c07484d","ios":"levelo://app?vid=0e32325b-db16-43d9-9229-835b3c07484d"},"vehicle_type_id":"4","last_reported":1701936607,"current_range_meters":2000,"station_id":"ce4bh312rcd13ifvqdk0","pricing_plan_id":"free"},{"bike_id":"66c0c9d9-cbbe-4056-ba57-e519f7e0a44f","system_id":"levelo_inurba_marseille","lat":43.280349,"lon":5.369588,"is_reserved":false,"is_disabled":false,"rental_uris":{"android":"levelo://app?vid=66c0c9d9-cbbe-4056-ba57-e519f7e0a44f","ios":"levelo://app?vid=66c0c9d9-cbbe-4056-ba57-e519f7e0a44f"},"vehicle_type_id":"4","last_reported":1701936607,"current_range_meters":23600,"station_id":"","pricing_plan_id":"free"},{"bike_id":"883029db-c8a3-4fa2-9837-4073fd63de76","system_id":"levelo_inurba_marseille","lat":43.290412,"lon":5.399633,"is_reserved":false,"is_disabled":false,"rental_uris":{"android":"levelo://app?vid=883029db-c8a3-4fa2-9837-4073fd63de76","ios":"levelo://app?vid=883029db-c8a3-4fa2-9837-4073fd63de76"},"vehicle_type_id":"4","last_reported":1701936607,"current_range_meters":800,"station_id":"ce4bh392rcd13ifvqdm0","pricing_plan_id":"free"},{"bike_id":"ebea9da8-d17f-4e45-a501-c4b712f4112d","system_id":"levelo_inurba_marseille","lat":43.281044,"lon":5.378308,"is_reserved":false,"is_disabled":false,"rental_uris":{"android":"levelo://app?vid=ebea9da8-d17f-4e45-a501-c4b712f4112d","ios":"levelo://app?vid=ebea9da8-d17f-4e45-a501-c4b712f4112d"},"vehicle_type_id":"4","last_reported":1701936607,"current_range_meters":15200,"station_id":"ce4bha12rcd13ifvqee0","pricing_plan_id":"free"},{"bike_id":"f2d499b8-6e62-451e-820f-5edacdec98ee","system_id":"levelo_inurba_marseille","lat":43.31681,"lon":5.412214,"is_reserved":false,"is_disabled":false,"rental_uris":{"android":"levelo://app?vid=f2d499b8-6e62-451e-820f-5edacdec98ee","ios":"levelo://app?vid=f2d499b8-6e62-451e-820f-5edacdec98ee"},"vehicle_type_id":"4","last_reported":1701936607,"current_range_meters":14400,"station_id":"","pricing_plan_id":"free"},{"bike_id":"b29c713a-aa44-4675-8739-cc12f99b0baa","system_id":"levelo_inurba_marseille","lat":43.304188,"lon":5.412904,"is_reserved":false,"is_disabled":false,"rental_uris":{"android":"levelo://app?vid=b29c713a-aa44-4675-8739-cc12f99b0baa","ios":"levelo://app?vid=b29c713a-aa44-4675-8739-cc12f99b0baa"},"vehicle_type_id":"4","last_reported":1701936607,"current_range_meters":6400,"station_id":"ce4bhop2rcd13ifvqh8g","pricing_plan_id":"free"},{"bike_id":"5dc25d30-1b5c-4d34-a5a8-cb82ff9aa72c","system_id":"levelo_inurba_marseille","lat":43.287154,"lon":5.399979,"is_reserved":false,"is_disabled":false,"rental_uris":{"android":"levelo://app?vid=5dc25d30-1b5c-4d34-a5a8-cb82ff9aa72c","ios":"levelo://app?vid=5dc25d30-1b5c-4d34-a5a8-cb82ff9aa72c"},"vehicle_type_id":"4","last_reported":1701936607,"current_range_meters":8000,"station_id":"ce4bho92rcd13ifvqh3g","pricing_plan_id":"free"},{"bike_id":"316afd53-a7a1-433e-a95b-f5f56faa9756","system_id":"levelo_inurba_marseille","lat":43.279742,"lon":5.38744,"is_reserved":false,"is_disabled":false,"rental_uris":{"android":"levelo://app?vid=316afd53-a7a1-433e-a95b-f5f56faa9756","ios":"levelo://app?vid=316afd53-a7a1-433e-a95b-f5f56faa9756"},"vehicle_type_id":"4","last_reported":1701936607,"current_range_meters":0,"station_id":"ce4bhg12rcd13ifvqf80","pricing_plan_id":"free"},{"bike_id":"769d50ca-b361-483c-a16d-ffc67960fbef","system_id":"levelo_inurba_marseille","lat":43.320045,"lon":5.415046,"is_reserved":false,"is_disabled":false,"rental_uris":{"android":"levelo://app?vid=769d50ca-b361-483c-a16d-ffc67960fbef","ios":"levelo://app?vid=769d50ca-b361-483c-a16d-ffc67960fbef"},"vehicle_type_id":"4","last_reported":1701936607,"current_range_meters":27200,"station_id":"ce4bhq92rcd13ifvqhkg","pricing_plan_id":"free"},{"bike_id":"a927bae8-eb28-42ac-9726-0d4c98e3f84d","system_id":"levelo_inurba_marseille","lat":43.325243,"lon":5.414326,"is_reserved":false,"is_disabled":false,"rental_uris":{"android":"levelo://app?vid=a927bae8-eb28-42ac-9726-0d4c98e3f84d","ios":"levelo://app?vid=a927bae8-eb28-42ac-9726-0d4c98e3f84d"},"vehicle_type_id":"4","last_reported":1701936607,"current_range_meters":22400,"station_id":"ce4bhq12rcd13ifvqhhg","pricing_plan_id":"free"},{"bike_id":"10766f05-5075-4fb4-8020-9cae00fa8be9","system_id":"levelo_inurba_marseille","lat":43.325243,"lon":5.414326,"is_reserved":false,"is_disabled":false,"rental_uris":{"android":"levelo://app?vid=10766f05-5075-4fb4-8020-9cae00fa8be9","ios":"levelo://app?vid=10766f05-5075-4fb4-8020-9cae00fa8be9"},"vehicle_type_id":"4","last_reported":1701936607,"current_range_meters":16400,"station_id":"ce4bhq12rcd13ifvqhhg","pricing_plan_id":"free"},{"bike_id":"3613dfcf-2a04-4cdb-aa23-4365366fbd3c","system_id":"levelo_inurba_marseille","lat":43.325394,"lon":5.414321,"is_reserved":false,"is_disabled":false,"rental_uris":{"android":"levelo://app?vid=3613dfcf-2a04-4cdb-aa23-4365366fbd3c","ios":"levelo://app?vid=3613dfcf-2a04-4cdb-aa23-4365366fbd3c"},"vehicle_type_id":"4","last_reported":1701936607,"current_range_meters":27600,"station_id":"ce4bhq12rcd13ifvqhhg","pricing_plan_id":"free"},{"bike_id":"45b71588-e5ca-4f32-b26d-73da4fb9347b","system_id":"levelo_inurba_marseille","lat":43.325403,"lon":5.414411,"is_reserved":false,"is_disabled":false,"rental_uris":{"android":"levelo://app?vid=45b71588-e5ca-4f32-b26d-73da4fb9347b","ios":"levelo://app?vid=45b71588-e5ca-4f32-b26d-73da4fb9347b"},"vehicle_type_id":"4","last_reported":1701936607,"current_range_meters":27200,"station_id":"ce4bhq12rcd13ifvqhhg","pricing_plan_id":"free"},{"bike_id":"f32150cc-8575-4fe8-97c1-11e164d807ed","system_id":"levelo_inurba_marseille","lat":43.325447,"lon":5.414432,"is_reserved":false,"is_disabled":false,"rental_uris":{"android":"levelo://app?vid=f32150cc-8575-4fe8-97c1-11e164d807ed","ios":"levelo://app?vid=f32150cc-8575-4fe8-97c1-11e164d807ed"},"vehicle_type_id":"4","last_reported":1701936607,"current_range_meters":28000,"station_id":"ce4bhq12rcd13ifvqhhg","pricing_plan_id":"free"},{"bike_id":"71f01728-4a51-4854-a8d6-245958cc636a","system_id":"levelo_inurba_marseille","lat":43.280784,"lon":5.396622,"is_reserved":false,"is_disabled":false,"rental_uris":{"android":"levelo://app?vid=71f01728-4a51-4854-a8d6-245958cc636a","ios":"levelo://app?vid=71f01728-4a51-4854-a8d6-245958cc636a"},"vehicle_type_id":"4","last_reported":1701936607,"current_range_meters":12000,"station_id":"ce4bho12rcd13ifvqh2g","pricing_plan_id":"free"},{"bike_id":"d58081f5-da67-48fb-9255-3bd71f704c6a","system_id":"levelo_inurba_marseille","lat":43.278399,"lon":5.392139,"is_reserved":false,"is_disabled":false,"rental_uris":{"android":"levelo://app?vid=d58081f5-da67-48fb-9255-3bd71f704c6a","ios":"levelo://app?vid=d58081f5-da67-48fb-9255-3bd71f704c6a"},"vehicle_type_id":"4","last_reported":1701936607,"current_range_meters":4000,"station_id":"ce4bhjp2rcd13ifvqga0","pricing_plan_id":"free"},{"bike_id":"22f3df7e-d704-4ca1-96c6-109270c30c9e","system_id":"levelo_inurba_marseille","lat":43.287185,"lon":5.379373,"is_reserved":false,"is_disabled":false,"rental_uris":{"android":"levelo://app?vid=22f3df7e-d704-4ca1-96c6-109270c30c9e","ios":"levelo://app?vid=22f3df7e-d704-4ca1-96c6-109270c30c9e"},"vehicle_type_id":"4","last_reported":1701936607,"current_range_meters":2000,"station_id":"ce4bh9p2rcd13ifvqec0","pricing_plan_id":"free"},{"bike_id":"d66c28e7-e863-407a-914b-1f0ae015b3e9","system_id":"levelo_inurba_marseille","lat":43.33609,"lon":5.41033,"is_reserved":false,"is_disabled":false,"rental_uris":{"android":"levelo://app?vid=d66c28e7-e863-407a-914b-1f0ae015b3e9","ios":"levelo://app?vid=d66c28e7-e863-407a-914b-1f0ae015b3e9"},"vehicle_type_id":"4","last_reported":1701936607,"current_range_meters":0,"station_id":"ce4bhqh2rcd13ifvqhmg","pricing_plan_id":"free"},{"bike_id":"7dafde9a-a1ce-4d7a-9b03-00bb6e24aeb5","system_id":"levelo_inurba_marseille","lat":43.336148,"lon":5.410349,"is_reserved":false,"is_disabled":false,"rental_uris":{"android":"levelo://app?vid=7dafde9a-a1ce-4d7a-9b03-00bb6e24aeb5","ios":"levelo://app?vid=7dafde9a-a1ce-4d7a-9b03-00bb6e24aeb5"},"vehicle_type_id":"4","last_reported":1701936607,"current_range_meters":24800,"station_id":"ce4bhqh2rcd13ifvqhmg","pricing_plan_id":"free"},{"bike_id":"283b1518-47c4-4c7a-aece-e76435d9d17e","system_id":"levelo_inurba_marseille","lat":43.27622,"lon":5.39483,"is_reserved":false,"is_disabled":false,"rental_uris":{"android":"levelo://app?vid=283b1518-47c4-4c7a-aece-e76435d9d17e","ios":"levelo://app?vid=283b1518-47c4-4c7a-aece-e76435d9d17e"},"vehicle_type_id":"4","last_reported":1701936607,"current_range_meters":5600,"station_id":"","pricing_plan_id":"free"},{"bike_id":"39030b3b-8a1b-4cc4-9243-e03b3b3b38fe","system_id":"levelo_inurba_marseille","lat":43.310785,"lon":5.424305,"is_reserved":false,"is_disabled":false,"rental_uris":{"android":"levelo://app?vid=39030b3b-8a1b-4cc4-9243-e03b3b3b38fe","ios":"levelo://app?vid=39030b3b-8a1b-4cc4-9243-e03b3b3b38fe"},"vehicle_type_id":"4","last_reported":1701936607,"current_range_meters":10000,"station_id":"ce4bhp92rcd13ifvqhag","pricing_plan_id":"free"},{"bike_id":"30356625-443d-4050-b183-09849e33c23c","system_id":"levelo_inurba_marseille","lat":43.34134,"lon":5.40908,"is_reserved":false,"is_disabled":false,"rental_uris":{"android":"levelo://app?vid=30356625-443d-4050-b183-09849e33c23c","ios":"levelo://app?vid=30356625-443d-4050-b183-09849e33c23c"},"vehicle_type_id":"4","last_reported":1701936607,"current_range_meters":23200,"station_id":"ce4bhqh2rcd13ifvqhlg","pricing_plan_id":"free"},{"bike_id":"4d0b9aa7-364c-44bf-9acf-cfe2974e4eef","system_id":"levelo_inurba_marseille","lat":43.340804,"lon":5.410219,"is_reserved":false,"is_disabled":false,"rental_uris":{"android":"levelo://app?vid=4d0b9aa7-364c-44bf-9acf-cfe2974e4eef","ios":"levelo://app?vid=4d0b9aa7-364c-44bf-9acf-cfe2974e4eef"},"vehicle_type_id":"4","last_reported":1701936607,"current_range_meters":18800,"station_id":"ce4bhqh2rcd13ifvqhlg","pricing_plan_id":"free"},{"bike_id":"cd8412f3-dfd9-46f4-bdc7-8ea525f14339","system_id":"levelo_inurba_marseille","lat":43.340804,"lon":5.410219,"is_reserved":false,"is_disabled":false,"rental_uris":{"android":"levelo://app?vid=cd8412f3-dfd9-46f4-bdc7-8ea525f14339","ios":"levelo://app?vid=cd8412f3-dfd9-46f4-bdc7-8ea525f14339"},"vehicle_type_id":"4","last_reported":1701936607,"current_range_meters":31200,"station_id":"ce4bhqh2rcd13ifvqhlg","pricing_plan_id":"free"},{"bike_id":"3e0432a5-c7e1-4b04-9752-a38feef39b38","system_id":"levelo_inurba_marseille","lat":43.340804,"lon":5.410219,"is_reserved":false,"is_disabled":false,"rental_uris":{"android":"levelo://app?vid=3e0432a5-c7e1-4b04-9752-a38feef39b38","ios":"levelo://app?vid=3e0432a5-c7e1-4b04-9752-a38feef39b38"},"vehicle_type_id":"4","last_reported":1701936607,"current_range_meters":28400,"station_id":"ce4bhqh2rcd13ifvqhlg","pricing_plan_id":"free"},{"bike_id":"8847e95d-7aef-47a6-8b85-a3799b4a8045","system_id":"levelo_inurba_marseille","lat":43.274099,"lon":5.394019,"is_reserved":false,"is_disabled":false,"rental_uris":{"android":"levelo://app?vid=8847e95d-7aef-47a6-8b85-a3799b4a8045","ios":"levelo://app?vid=8847e95d-7aef-47a6-8b85-a3799b4a8045"},"vehicle_type_id":"4","last_reported":1701936607,"current_range_meters":16400,"station_id":"ce4bhdp2rcd13ifvqf20","pricing_plan_id":"free"},{"bike_id":"fc452a7a-a221-40ab-bc47-a38b73e93524","system_id":"levelo_inurba_marseille","lat":43.304096,"lon":5.425385,"is_reserved":false,"is_disabled":false,"rental_uris":{"android":"levelo://app?vid=fc452a7a-a221-40ab-bc47-a38b73e93524","ios":"levelo://app?vid=fc452a7a-a221-40ab-bc47-a38b73e93524"},"vehicle_type_id":"4","last_reported":1701936607,"current_range_meters":0,"station_id":"ce4bhoh2rcd13ifvqh6g","pricing_plan_id":"free"},{"bike_id":"7c498e42-98b3-4dd4-98dd-8e57123eaff5","system_id":"levelo_inurba_marseille","lat":43.30407,"lon":5.42545,"is_reserved":false,"is_disabled":false,"rental_uris":{"android":"levelo://app?vid=7c498e42-98b3-4dd4-98dd-8e57123eaff5","ios":"levelo://app?vid=7c498e42-98b3-4dd4-98dd-8e57123eaff5"},"vehicle_type_id":"4","last_reported":1701936607,"current_range_meters":1200,"station_id":"ce4bhoh2rcd13ifvqh6g","pricing_plan_id":"free"},{"bike_id":"3d817b9d-cf7e-4ff6-8e25-346e6913ee9f","system_id":"levelo_inurba_marseille","lat":43.304088,"lon":5.425388,"is_reserved":false,"is_disabled":false,"rental_uris":{"android":"levelo://app?vid=3d817b9d-cf7e-4ff6-8e25-346e6913ee9f","ios":"levelo://app?vid=3d817b9d-cf7e-4ff6-8e25-346e6913ee9f"},"vehicle_type_id":"4","last_reported":1701936607,"current_range_meters":6800,"station_id":"ce4bhoh2rcd13ifvqh6g","pricing_plan_id":"free"},{"bike_id":"c8ab8492-fd4b-4163-9472-e3a41f84382c","system_id":"levelo_inurba_marseille","lat":43.272124,"lon":5.391768,"is_reserved":false,"is_disabled":false,"rental_uris":{"android":"levelo://app?vid=c8ab8492-fd4b-4163-9472-e3a41f84382c","ios":"levelo://app?vid=c8ab8492-fd4b-4163-9472-e3a41f84382c"},"vehicle_type_id":"4","last_reported":1701936607,"current_range_meters":4000,"station_id":"ce4bhhp2rcd13ifvqfm0","pricing_plan_id":"free"},{"bike_id":"e0756567-7870-49b5-9af8-73e51703da33","system_id":"levelo_inurba_marseille","lat":43.295523,"lon":5.422926,"is_reserved":false,"is_disabled":false,"rental_uris":{"android":"levelo://app?vid=e0756567-7870-49b5-9af8-73e51703da33","ios":"levelo://app?vid=e0756567-7870-49b5-9af8-73e51703da33"},"vehicle_type_id":"4","last_reported":1701936607,"current_range_meters":27600,"station_id":"ce4bhph2rcd13ifvqhdg","pricing_plan_id":"free"},{"bike_id":"77e2df1b-d75a-48fe-a6ad-744dfbe91f1d","system_id":"levelo_inurba_marseille","lat":43.27214,"lon":5.3925,"is_reserved":false,"is_disabled":false,"rental_uris":{"android":"levelo://app?vid=77e2df1b-d75a-48fe-a6ad-744dfbe91f1d","ios":"levelo://app?vid=77e2df1b-d75a-48fe-a6ad-744dfbe91f1d"},"vehicle_type_id":"4","last_reported":1701936607,"current_range_meters":10000,"station_id":"","pricing_plan_id":"free"},{"bike_id":"7ce2c329-3a90-4347-b81f-8a4339205c1b","system_id":"levelo_inurba_marseille","lat":43.26681,"lon":5.382694,"is_reserved":false,"is_disabled":false,"rental_uris":{"android":"levelo://app?vid=7ce2c329-3a90-4347-b81f-8a4339205c1b","ios":"levelo://app?vid=7ce2c329-3a90-4347-b81f-8a4339205c1b"},"vehicle_type_id":"4","last_reported":1701936607,"current_range_meters":20400,"station_id":"ce4bhg92rcd13ifvqf90","pricing_plan_id":"free"},{"bike_id":"5d8731f6-2340-4d1e-bc3a-076bdb85bcec","system_id":"levelo_inurba_marseille","lat":43.26681,"lon":5.382694,"is_reserved":false,"is_disabled":false,"rental_uris":{"android":"levelo://app?vid=5d8731f6-2340-4d1e-bc3a-076bdb85bcec","ios":"levelo://app?vid=5d8731f6-2340-4d1e-bc3a-076bdb85bcec"},"vehicle_type_id":"4","last_reported":1701936607,"current_range_meters":11200,"station_id":"ce4bhg92rcd13ifvqf90","pricing_plan_id":"free"},{"bike_id":"5c62f0fe-2a68-4f0e-8c5e-1c3be35b64ff","system_id":"levelo_inurba_marseille","lat":43.292848,"lon":5.428485,"is_reserved":false,"is_disabled":false,"rental_uris":{"android":"levelo://app?vid=5c62f0fe-2a68-4f0e-8c5e-1c3be35b64ff","ios":"levelo://app?vid=5c62f0fe-2a68-4f0e-8c5e-1c3be35b64ff"},"vehicle_type_id":"4","last_reported":1701936607,"current_range_meters":16800,"station_id":"","pricing_plan_id":"free"},{"bike_id":"ced8c606-67ba-43f3-9053-187d52df1069","system_id":"levelo_inurba_marseille","lat":43.265569,"lon":5.390047,"is_reserved":false,"is_disabled":false,"rental_uris":{"android":"levelo://app?vid=ced8c606-67ba-43f3-9053-187d52df1069","ios":"levelo://app?vid=ced8c606-67ba-43f3-9053-187d52df1069"},"vehicle_type_id":"4","last_reported":1701936607,"current_range_meters":10400,"station_id":"ce4bhe12rcd13ifvqf30","pricing_plan_id":"free"},{"bike_id":"b47635f4-21be-40e4-90de-e94e380bbef8","system_id":"levelo_inurba_marseille","lat":43.269389,"lon":5.402622,"is_reserved":false,"is_disabled":false,"rental_uris":{"android":"levelo://app?vid=b47635f4-21be-40e4-90de-e94e380bbef8","ios":"levelo://app?vid=b47635f4-21be-40e4-90de-e94e380bbef8"},"vehicle_type_id":"4","last_reported":1701936607,"current_range_meters":15600,"station_id":"cjm6bp8fraef2m0cb0m0","pricing_plan_id":"free"},{"bike_id":"42f81118-a85b-4a29-aa2e-0fbc2d581e77","system_id":"levelo_inurba_marseille","lat":43.26188,"lon":5.37448,"is_reserved":false,"is_disabled":false,"rental_uris":{"android":"levelo://app?vid=42f81118-a85b-4a29-aa2e-0fbc2d581e77","ios":"levelo://app?vid=42f81118-a85b-4a29-aa2e-0fbc2d581e77"},"vehicle_type_id":"4","last_reported":1701936607,"current_range_meters":0,"station_id":"ce4bhgp2rcd13ifvqfc0","pricing_plan_id":"free"},{"bike_id":"f06f2dfa-c30b-44cc-b60e-97c87bab3c78","system_id":"levelo_inurba_marseille","lat":43.31709,"lon":5.43701,"is_reserved":false,"is_disabled":false,"rental_uris":{"android":"levelo://app?vid=f06f2dfa-c30b-44cc-b60e-97c87bab3c78","ios":"levelo://app?vid=f06f2dfa-c30b-44cc-b60e-97c87bab3c78"},"vehicle_type_id":"4","last_reported":1701936607,"current_range_meters":3600,"station_id":"ce4bhp92rcd13ifvqhcg","pricing_plan_id":"free"},{"bike_id":"a4b526a8-3cc1-4815-b558-ad4739fe147d","system_id":"levelo_inurba_marseille","lat":43.261782,"lon":5.374515,"is_reserved":false,"is_disabled":false,"rental_uris":{"android":"levelo://app?vid=a4b526a8-3cc1-4815-b558-ad4739fe147d","ios":"levelo://app?vid=a4b526a8-3cc1-4815-b558-ad4739fe147d"},"vehicle_type_id":"4","last_reported":1701936607,"current_range_meters":13600,"station_id":"ce4bhgp2rcd13ifvqfc0","pricing_plan_id":"free"},{"bike_id":"40798d8d-e0d3-47a5-98dd-353a6b7db8ef","system_id":"levelo_inurba_marseille","lat":43.261782,"lon":5.374515,"is_reserved":false,"is_disabled":false,"rental_uris":{"android":"levelo://app?vid=40798d8d-e0d3-47a5-98dd-353a6b7db8ef","ios":"levelo://app?vid=40798d8d-e0d3-47a5-98dd-353a6b7db8ef"},"vehicle_type_id":"4","last_reported":1701936607,"current_range_meters":26800,"station_id":"ce4bhgp2rcd13ifvqfc0","pricing_plan_id":"free"},{"bike_id":"4f68f183-a711-4386-a731-e8ea8e2f115e","system_id":"levelo_inurba_marseille","lat":43.298768,"lon":5.43643,"is_reserved":false,"is_disabled":false,"rental_uris":{"android":"levelo://app?vid=4f68f183-a711-4386-a731-e8ea8e2f115e","ios":"levelo://app?vid=4f68f183-a711-4386-a731-e8ea8e2f115e"},"vehicle_type_id":"4","last_reported":1701936607,"current_range_meters":26800,"station_id":"ce4bhpp2rcd13ifvqhfg","pricing_plan_id":"free"},{"bike_id":"15516f19-6688-4602-81b1-7032ebea46f1","system_id":"levelo_inurba_marseille","lat":43.298768,"lon":5.43643,"is_reserved":false,"is_disabled":false,"rental_uris":{"android":"levelo://app?vid=15516f19-6688-4602-81b1-7032ebea46f1","ios":"levelo://app?vid=15516f19-6688-4602-81b1-7032ebea46f1"},"vehicle_type_id":"4","last_reported":1701936607,"current_range_meters":3200,"station_id":"ce4bhpp2rcd13ifvqhfg","pricing_plan_id":"free"},{"bike_id":"8c066ef0-8e33-4692-81e9-53a96288cf19","system_id":"levelo_inurba_marseille","lat":43.298768,"lon":5.43643,"is_reserved":false,"is_disabled":false,"rental_uris":{"android":"levelo://app?vid=8c066ef0-8e33-4692-81e9-53a96288cf19","ios":"levelo://app?vid=8c066ef0-8e33-4692-81e9-53a96288cf19"},"vehicle_type_id":"4","last_reported":1701936607,"current_range_meters":31200,"station_id":"ce4bhpp2rcd13ifvqhfg","pricing_plan_id":"free"},{"bike_id":"83e2018e-7127-4415-8bbf-2e347a9c6750","system_id":"levelo_inurba_marseille","lat":43.298768,"lon":5.43643,"is_reserved":false,"is_disabled":false,"rental_uris":{"android":"levelo://app?vid=83e2018e-7127-4415-8bbf-2e347a9c6750","ios":"levelo://app?vid=83e2018e-7127-4415-8bbf-2e347a9c6750"},"vehicle_type_id":"4","last_reported":1701936607,"current_range_meters":10400,"station_id":"ce4bhpp2rcd13ifvqhfg","pricing_plan_id":"free"},{"bike_id":"43d7ad5e-7fd7-45ef-ae6a-4d0d45c72d41","system_id":"levelo_inurba_marseille","lat":43.281548,"lon":5.42643,"is_reserved":false,"is_disabled":false,"rental_uris":{"android":"levelo://app?vid=43d7ad5e-7fd7-45ef-ae6a-4d0d45c72d41","ios":"levelo://app?vid=43d7ad5e-7fd7-45ef-ae6a-4d0d45c72d41"},"vehicle_type_id":"4","last_reported":1701936607,"current_range_meters":27600,"station_id":"ce4bhnh2rcd13ifvqgug","pricing_plan_id":"free"},{"bike_id":"9060f8b8-b002-4cb7-a4a4-4075d73f5a02","system_id":"levelo_inurba_marseille","lat":43.275028,"lon":5.424534,"is_reserved":false,"is_disabled":false,"rental_uris":{"android":"levelo://app?vid=9060f8b8-b002-4cb7-a4a4-4075d73f5a02","ios":"levelo://app?vid=9060f8b8-b002-4cb7-a4a4-4075d73f5a02"},"vehicle_type_id":"4","last_reported":1701936607,"current_range_meters":20800,"station_id":"ce4bhn92rcd13ifvqgrg","pricing_plan_id":"free"},{"bike_id":"a3214d6e-db70-4a57-b808-874f5b0e8055","system_id":"levelo_inurba_marseille","lat":43.275028,"lon":5.424534,"is_reserved":false,"is_disabled":false,"rental_uris":{"android":"levelo://app?vid=a3214d6e-db70-4a57-b808-874f5b0e8055","ios":"levelo://app?vid=a3214d6e-db70-4a57-b808-874f5b0e8055"},"vehicle_type_id":"4","last_reported":1701936607,"current_range_meters":11200,"station_id":"ce4bhn92rcd13ifvqgrg","pricing_plan_id":"free"},{"bike_id":"6e20df36-92d9-444e-b60f-21790aa68ee7","system_id":"levelo_inurba_marseille","lat":43.275028,"lon":5.424534,"is_reserved":false,"is_disabled":false,"rental_uris":{"android":"levelo://app?vid=6e20df36-92d9-444e-b60f-21790aa68ee7","ios":"levelo://app?vid=6e20df36-92d9-444e-b60f-21790aa68ee7"},"vehicle_type_id":"4","last_reported":1701936607,"current_range_meters":4800,"station_id":"ce4bhn92rcd13ifvqgrg","pricing_plan_id":"free"},{"bike_id":"d7c2e738-a6f0-4b41-a8b2-efe4c7597b55","system_id":"levelo_inurba_marseille","lat":43.2707,"lon":5.42282,"is_reserved":false,"is_disabled":false,"rental_uris":{"android":"levelo://app?vid=d7c2e738-a6f0-4b41-a8b2-efe4c7597b55","ios":"levelo://app?vid=d7c2e738-a6f0-4b41-a8b2-efe4c7597b55"},"vehicle_type_id":"4","last_reported":1701936607,"current_range_meters":400,"station_id":"ce4bhk92rcd13ifvqgb0","pricing_plan_id":"free"},{"bike_id":"c620a3c5-43ee-46df-8305-bf079d9285ee","system_id":"levelo_inurba_marseille","lat":43.270721,"lon":5.422764,"is_reserved":false,"is_disabled":false,"rental_uris":{"android":"levelo://app?vid=c620a3c5-43ee-46df-8305-bf079d9285ee","ios":"levelo://app?vid=c620a3c5-43ee-46df-8305-bf079d9285ee"},"vehicle_type_id":"4","last_reported":1701936607,"current_range_meters":25200,"station_id":"ce4bhk92rcd13ifvqgb0","pricing_plan_id":"free"},{"bike_id":"00f774c7-ceba-44c2-9e79-be6ff89c7822","system_id":"levelo_inurba_marseille","lat":43.258845,"lon":5.398797,"is_reserved":false,"is_disabled":false,"rental_uris":{"android":"levelo://app?vid=00f774c7-ceba-44c2-9e79-be6ff89c7822","ios":"levelo://app?vid=00f774c7-ceba-44c2-9e79-be6ff89c7822"},"vehicle_type_id":"4","last_reported":1701936607,"current_range_meters":15200,"station_id":"","pricing_plan_id":"free"},{"bike_id":"6c43caf8-828b-414a-80a3-7771ae826ae9","system_id":"levelo_inurba_marseille","lat":43.254947,"lon":5.376454,"is_reserved":false,"is_disabled":false,"rental_uris":{"android":"levelo://app?vid=6c43caf8-828b-414a-80a3-7771ae826ae9","ios":"levelo://app?vid=6c43caf8-828b-414a-80a3-7771ae826ae9"},"vehicle_type_id":"4","last_reported":1701936607,"current_range_meters":26800,"station_id":"ce4bhh12rcd13ifvqff0","pricing_plan_id":"free"},{"bike_id":"79a7b157-31de-46c9-a2f5-d13f11dc9419","system_id":"levelo_inurba_marseille","lat":43.25854,"lon":5.39907,"is_reserved":false,"is_disabled":false,"rental_uris":{"android":"levelo://app?vid=79a7b157-31de-46c9-a2f5-d13f11dc9419","ios":"levelo://app?vid=79a7b157-31de-46c9-a2f5-d13f11dc9419"},"vehicle_type_id":"4","last_reported":1701936607,"current_range_meters":16400,"station_id":"ce4bhl92rcd13ifvqghg","pricing_plan_id":"free"},{"bike_id":"6c19e235-4f38-402a-9339-e74d8c0831e1","system_id":"levelo_inurba_marseille","lat":43.25936,"lon":5.40906,"is_reserved":false,"is_disabled":false,"rental_uris":{"android":"levelo://app?vid=6c19e235-4f38-402a-9339-e74d8c0831e1","ios":"levelo://app?vid=6c19e235-4f38-402a-9339-e74d8c0831e1"},"vehicle_type_id":"4","last_reported":1701936607,"current_range_meters":23200,"station_id":"ce4bhm92rcd13ifvqglg","pricing_plan_id":"free"},{"bike_id":"cf3b722b-06f3-417f-ab6a-84d20fe16d57","system_id":"levelo_inurba_marseille","lat":43.25931,"lon":5.40912,"is_reserved":false,"is_disabled":false,"rental_uris":{"android":"levelo://app?vid=cf3b722b-06f3-417f-ab6a-84d20fe16d57","ios":"levelo://app?vid=cf3b722b-06f3-417f-ab6a-84d20fe16d57"},"vehicle_type_id":"4","last_reported":1701936607,"current_range_meters":9600,"station_id":"ce4bhm92rcd13ifvqglg","pricing_plan_id":"free"},{"bike_id":"701604ae-0478-466c-98a4-c14fbc4e27c6","system_id":"levelo_inurba_marseille","lat":43.259013,"lon":5.409301,"is_reserved":false,"is_disabled":false,"rental_uris":{"android":"levelo://app?vid=701604ae-0478-466c-98a4-c14fbc4e27c6","ios":"levelo://app?vid=701604ae-0478-466c-98a4-c14fbc4e27c6"},"vehicle_type_id":"4","last_reported":1701936607,"current_range_meters":13200,"station_id":"ce4bhm92rcd13ifvqglg","pricing_plan_id":"free"},{"bike_id":"0528e9d9-fd60-4cd0-a29a-8e7b1de708c3","system_id":"levelo_inurba_marseille","lat":43.259013,"lon":5.409301,"is_reserved":false,"is_disabled":false,"rental_uris":{"android":"levelo://app?vid=0528e9d9-fd60-4cd0-a29a-8e7b1de708c3","ios":"levelo://app?vid=0528e9d9-fd60-4cd0-a29a-8e7b1de708c3"},"vehicle_type_id":"4","last_reported":1701936607,"current_range_meters":15600,"station_id":"ce4bhm92rcd13ifvqglg","pricing_plan_id":"free"},{"bike_id":"1092a469-c999-4f1f-876c-ee8638727ace","system_id":"levelo_inurba_marseille","lat":43.259013,"lon":5.409301,"is_reserved":false,"is_disabled":false,"rental_uris":{"android":"levelo://app?vid=1092a469-c999-4f1f-876c-ee8638727ace","ios":"levelo://app?vid=1092a469-c999-4f1f-876c-ee8638727ace"},"vehicle_type_id":"4","last_reported":1701936607,"current_range_meters":22400,"station_id":"ce4bhm92rcd13ifvqglg","pricing_plan_id":"free"},{"bike_id":"ce2eacb6-82e7-4ea3-b00b-20b3ae705235","system_id":"levelo_inurba_marseille","lat":43.250009,"lon":5.389195,"is_reserved":false,"is_disabled":false,"rental_uris":{"android":"levelo://app?vid=ce2eacb6-82e7-4ea3-b00b-20b3ae705235","ios":"levelo://app?vid=ce2eacb6-82e7-4ea3-b00b-20b3ae705235"},"vehicle_type_id":"4","last_reported":1701936607,"current_range_meters":8400,"station_id":"ce4bhgp2rcd13ifvqfd0","pricing_plan_id":"free"},{"bike_id":"f2a13acd-23e0-4753-890d-e38186f79475","system_id":"levelo_inurba_marseille","lat":43.231562,"lon":5.436933,"is_reserved":false,"is_disabled":false,"rental_uris":{"android":"levelo://app?vid=f2a13acd-23e0-4753-890d-e38186f79475","ios":"levelo://app?vid=f2a13acd-23e0-4753-890d-e38186f79475"},"vehicle_type_id":"4","last_reported":1701936607,"current_range_meters":18800,"station_id":"ce4bhmp2rcd13ifvqgog","pricing_plan_id":"free"},{"bike_id":"d9a13106-3483-4ad8-b62e-dff5b757dfd6","system_id":"levelo_inurba_marseille","lat":43.24547,"lon":5.39521,"is_reserved":false,"is_disabled":false,"rental_uris":{"android":"levelo://app?vid=d9a13106-3483-4ad8-b62e-dff5b757dfd6","ios":"levelo://app?vid=d9a13106-3483-4ad8-b62e-dff5b757dfd6"},"vehicle_type_id":"4","last_reported":1701936607,"current_range_meters":1600,"station_id":"ce4bhlp2rcd13ifvqgjg","pricing_plan_id":"free"},{"bike_id":"21d64070-be5a-4b98-8cd2-4956101ead67","system_id":"levelo_inurba_marseille","lat":43.24072,"lon":5.37761,"is_reserved":false,"is_disabled":false,"rental_uris":{"android":"levelo://app?vid=21d64070-be5a-4b98-8cd2-4956101ead67","ios":"levelo://app?vid=21d64070-be5a-4b98-8cd2-4956101ead67"},"vehicle_type_id":"4","last_reported":1701936607,"current_range_meters":0,"station_id":"ce4bhnp2rcd13ifvqgvg","pricing_plan_id":"free"},{"bike_id":"5d256e14-9142-49ae-ab2b-761d85c4eedd","system_id":"levelo_inurba_marseille","lat":43.240623,"lon":5.377642,"is_reserved":false,"is_disabled":false,"rental_uris":{"android":"levelo://app?vid=5d256e14-9142-49ae-ab2b-761d85c4eedd","ios":"levelo://app?vid=5d256e14-9142-49ae-ab2b-761d85c4eedd"},"vehicle_type_id":"4","last_reported":1701936607,"current_range_meters":29200,"station_id":"ce4bhnp2rcd13ifvqgvg","pricing_plan_id":"free"},{"bike_id":"15edf42f-357e-43b5-a730-d7535bf4660b","system_id":"levelo_inurba_marseille","lat":43.240623,"lon":5.377642,"is_reserved":false,"is_disabled":false,"rental_uris":{"android":"levelo://app?vid=15edf42f-357e-43b5-a730-d7535bf4660b","ios":"levelo://app?vid=15edf42f-357e-43b5-a730-d7535bf4660b"},"vehicle_type_id":"4","last_reported":1701936607,"current_range_meters":19200,"station_id":"ce4bhnp2rcd13ifvqgvg","pricing_plan_id":"free"},{"bike_id":"8744163e-a457-4a9e-9e9c-1dcc62e6464c","system_id":"levelo_inurba_marseille","lat":43.2407,"lon":5.37766,"is_reserved":false,"is_disabled":false,"rental_uris":{"android":"levelo://app?vid=8744163e-a457-4a9e-9e9c-1dcc62e6464c","ios":"levelo://app?vid=8744163e-a457-4a9e-9e9c-1dcc62e6464c"},"vehicle_type_id":"4","last_reported":1701936607,"current_range_meters":14800,"station_id":"ce4bhnp2rcd13ifvqgvg","pricing_plan_id":"free"},{"bike_id":"c81b493d-96c8-4674-ba43-e8b2738bcac8","system_id":"levelo_inurba_marseille","lat":43.240623,"lon":5.377642,"is_reserved":false,"is_disabled":false,"rental_uris":{"android":"levelo://app?vid=c81b493d-96c8-4674-ba43-e8b2738bcac8","ios":"levelo://app?vid=c81b493d-96c8-4674-ba43-e8b2738bcac8"},"vehicle_type_id":"4","last_reported":1701936607,"current_range_meters":30800,"station_id":"ce4bhnp2rcd13ifvqgvg","pricing_plan_id":"free"},{"bike_id":"ed1ab14d-5ede-406c-9bca-39881c237494","system_id":"levelo_inurba_marseille","lat":43.24065,"lon":5.37767,"is_reserved":false,"is_disabled":false,"rental_uris":{"android":"levelo://app?vid=ed1ab14d-5ede-406c-9bca-39881c237494","ios":"levelo://app?vid=ed1ab14d-5ede-406c-9bca-39881c237494"},"vehicle_type_id":"4","last_reported":1701936607,"current_range_meters":17200,"station_id":"ce4bhnp2rcd13ifvqgvg","pricing_plan_id":"free"},{"bike_id":"8227caaf-d15f-4795-bb38-ef37a41755cf","system_id":"levelo_inurba_marseille","lat":43.24065,"lon":5.3777,"is_reserved":false,"is_disabled":false,"rental_uris":{"android":"levelo://app?vid=8227caaf-d15f-4795-bb38-ef37a41755cf","ios":"levelo://app?vid=8227caaf-d15f-4795-bb38-ef37a41755cf"},"vehicle_type_id":"4","last_reported":1701936607,"current_range_meters":18800,"station_id":"ce4bhnp2rcd13ifvqgvg","pricing_plan_id":"free"},{"bike_id":"089ec6e6-fe55-43fc-8a3a-f83c6667b4b0","system_id":"levelo_inurba_marseille","lat":43.24063,"lon":5.37775,"is_reserved":false,"is_disabled":false,"rental_uris":{"android":"levelo://app?vid=089ec6e6-fe55-43fc-8a3a-f83c6667b4b0","ios":"levelo://app?vid=089ec6e6-fe55-43fc-8a3a-f83c6667b4b0"},"vehicle_type_id":"4","last_reported":1701936607,"current_range_meters":14800,"station_id":"ce4bhnp2rcd13ifvqgvg","pricing_plan_id":"free"},{"bike_id":"33f9e81a-79f2-48f7-8a48-b3463af7f78f","system_id":"levelo_inurba_marseille","lat":43.240617,"lon":5.37761,"is_reserved":false,"is_disabled":false,"rental_uris":{"android":"levelo://app?vid=33f9e81a-79f2-48f7-8a48-b3463af7f78f","ios":"levelo://app?vid=33f9e81a-79f2-48f7-8a48-b3463af7f78f"},"vehicle_type_id":"4","last_reported":1701936607,"current_range_meters":26800,"station_id":"ce4bhnp2rcd13ifvqgvg","pricing_plan_id":"free"},{"bike_id":"5530bbff-5322-41c8-a2ad-0e35f8b3aad3","system_id":"levelo_inurba_marseille","lat":43.24176,"lon":5.39732,"is_reserved":false,"is_disabled":false,"rental_uris":{"android":"levelo://app?vid=5530bbff-5322-41c8-a2ad-0e35f8b3aad3","ios":"levelo://app?vid=5530bbff-5322-41c8-a2ad-0e35f8b3aad3"},"vehicle_type_id":"4","last_reported":1701936607,"current_range_meters":17600,"station_id":"ce4bhn12rcd13ifvqgpg","pricing_plan_id":"free"},{"bike_id":"7a322856-79ba-4174-90e9-188e9c210a06","system_id":"levelo_inurba_marseille","lat":43.231562,"lon":5.436933,"is_reserved":false,"is_disabled":false,"rental_uris":{"android":"levelo://app?vid=7a322856-79ba-4174-90e9-188e9c210a06","ios":"levelo://app?vid=7a322856-79ba-4174-90e9-188e9c210a06"},"vehicle_type_id":"4","last_reported":1701936607,"current_range_meters":1600,"station_id":"ce4bhmp2rcd13ifvqgog","pricing_plan_id":"free"},{"bike_id":"dafb76d3-48a3-4e10-8abe-6207ac6827bf","system_id":"levelo_inurba_marseille","lat":43.231562,"lon":5.436933,"is_reserved":false,"is_disabled":false,"rental_uris":{"android":"levelo://app?vid=dafb76d3-48a3-4e10-8abe-6207ac6827bf","ios":"levelo://app?vid=dafb76d3-48a3-4e10-8abe-6207ac6827bf"},"vehicle_type_id":"4","last_reported":1701936607,"current_range_meters":13200,"station_id":"ce4bhmp2rcd13ifvqgog","pricing_plan_id":"free"},{"bike_id":"c585371d-774a-418b-8733-b9524d911113","system_id":"levelo_inurba_marseille","lat":43.231562,"lon":5.436933,"is_reserved":false,"is_disabled":false,"rental_uris":{"android":"levelo://app?vid=c585371d-774a-418b-8733-b9524d911113","ios":"levelo://app?vid=c585371d-774a-418b-8733-b9524d911113"},"vehicle_type_id":"4","last_reported":1701936607,"current_range_meters":16000,"station_id":"ce4bhmp2rcd13ifvqgog","pricing_plan_id":"free"},{"bike_id":"ebb8e937-193f-4764-86cc-14f6a3f49c69","system_id":"levelo_inurba_marseille","lat":43.231562,"lon":5.436933,"is_reserved":false,"is_disabled":false,"rental_uris":{"android":"levelo://app?vid=ebb8e937-193f-4764-86cc-14f6a3f49c69","ios":"levelo://app?vid=ebb8e937-193f-4764-86cc-14f6a3f49c69"},"vehicle_type_id":"4","last_reported":1701936607,"current_range_meters":12800,"station_id":"ce4bhmp2rcd13ifvqgog","pricing_plan_id":"free"},{"bike_id":"94a2bdd4-c12a-47bc-bcad-bfc47c5a8c98","system_id":"levelo_inurba_marseille","lat":43.231562,"lon":5.436933,"is_reserved":false,"is_disabled":false,"rental_uris":{"android":"levelo://app?vid=94a2bdd4-c12a-47bc-bcad-bfc47c5a8c98","ios":"levelo://app?vid=94a2bdd4-c12a-47bc-bcad-bfc47c5a8c98"},"vehicle_type_id":"4","last_reported":1701936607,"current_range_meters":16000,"station_id":"ce4bhmp2rcd13ifvqgog","pricing_plan_id":"free"},{"bike_id":"32b30606-14b9-41e6-a49f-da3543c8206c","system_id":"levelo_inurba_marseille","lat":43.231562,"lon":5.436933,"is_reserved":false,"is_disabled":false,"rental_uris":{"android":"levelo://app?vid=32b30606-14b9-41e6-a49f-da3543c8206c","ios":"levelo://app?vid=32b30606-14b9-41e6-a49f-da3543c8206c"},"vehicle_type_id":"4","last_reported":1701936607,"current_range_meters":25600,"station_id":"ce4bhmp2rcd13ifvqgog","pricing_plan_id":"free"},{"bike_id":"167bdd97-62db-414a-9aaa-885881545e21","system_id":"levelo_inurba_marseille","lat":43.231562,"lon":5.436933,"is_reserved":false,"is_disabled":false,"rental_uris":{"android":"levelo://app?vid=167bdd97-62db-414a-9aaa-885881545e21","ios":"levelo://app?vid=167bdd97-62db-414a-9aaa-885881545e21"},"vehicle_type_id":"4","last_reported":1701936607,"current_range_meters":12000,"station_id":"ce4bhmp2rcd13ifvqgog","pricing_plan_id":"free"},{"bike_id":"0388cfcc-aee4-4b56-aaf5-4a4cb85d6319","system_id":"levelo_inurba_marseille","lat":43.231562,"lon":5.436933,"is_reserved":false,"is_disabled":false,"rental_uris":{"android":"levelo://app?vid=0388cfcc-aee4-4b56-aaf5-4a4cb85d6319","ios":"levelo://app?vid=0388cfcc-aee4-4b56-aaf5-4a4cb85d6319"},"vehicle_type_id":"4","last_reported":1701936607,"current_range_meters":20400,"station_id":"ce4bhmp2rcd13ifvqgog","pricing_plan_id":"free"},{"bike_id":"6044dcff-6eb4-461c-91be-600815014433","system_id":"levelo_inurba_marseille","lat":43.231562,"lon":5.436933,"is_reserved":false,"is_disabled":false,"rental_uris":{"android":"levelo://app?vid=6044dcff-6eb4-461c-91be-600815014433","ios":"levelo://app?vid=6044dcff-6eb4-461c-91be-600815014433"},"vehicle_type_id":"4","last_reported":1701936607,"current_range_meters":14000,"station_id":"ce4bhmp2rcd13ifvqgog","pricing_plan_id":"free"}]}}