{"last_updated":1703218133,"ttl":30,"version":"2.2","data":{"bikes":[{"bike_id":"873f9793-3a80-4b37-8809-9fb3eeec1789","system_id":"levelo_inurba_marseille","lat":43.313391,"lon":5.36706,"is_reserved":false,"is_disabled":false,"rental_uris":{"android":"levelo://app?vid=873f9793-3a80-4b37-8809-9fb3eeec1789","ios":"levelo://app?vid=873f9793-3a80-4b37-8809-9fb3eeec1789"},"vehicle_type_id":"4","last_reported":1703218134,"current_range_meters":30400,"station_id":"ce4bgr92rcd13ifvqc6g","pricing_plan_id":"free"},{"bike_id":"f8c76573-b5d6-4a5d-b16a-193fd7154f28","system_id":"levelo_inurba_marseille","lat":43.309076,"lon":5.368465,"is_reserved":false,"is_disabled":false,"rental_uris":{"android":"levelo://app?vid=f8c76573-b5d6-4a5d-b16a-193fd7154f28","ios":"levelo://app?vid=f8c76573-b5d6-4a5d-b16a-193fd7154f28"},"vehicle_type_id":"4","last_reported":1703218134,"current_range_meters":31200,"station_id":"ce4bgn92rcd13ifvqbvg","pricing_plan_id":"free"},{"bike_id":"bb5cf00c-e19b-4a69-a01a-d6ec5aa67a9c","system_id":"levelo_inurba_marseille","lat":43.314811,"lon":5.373103,"is_reserved":false,"is_disabled":false,"rental_uris":{"android":"levelo://app?vid=bb5cf00c-e19b-4a69-a01a-d6ec5aa67a9c","ios":"levelo://app?vid=bb5cf00c-e19b-4a69-a01a-d6ec5aa67a9c"},"vehicle_type_id":"4","last_reported":1703218134,"current_range_meters":14800,"station_id":"ce4bgt12rcd13ifvqcd0","pricing_plan_id":"free"},{"bike_id":"1d839858-3901-4b42-b9a0-b7da2c1dc22b","system_id":"levelo_inurba_marseille","lat":43.305989,"lon":5.37225,"is_reserved":false,"is_disabled":false,"rental_uris":{"android":"levelo://app?vid=1d839858-3901-4b42-b9a0-b7da2c1dc22b","ios":"levelo://app?vid=1d839858-3901-4b42-b9a0-b7da2c1dc22b"},"vehicle_type_id":"4","last_reported":1703218134,"current_range_meters":7600,"station_id":"ce4bgqh2rcd13ifvqc4g","pricing_plan_id":"free"},{"bike_id":"386c82fe-10d7-49c7-8d0b-ee164cbd52f7","system_id":"levelo_inurba_marseille","lat":43.305989,"lon":5.37225,"is_reserved":false,"is_disabled":false,"rental_uris":{"android":"levelo://app?vid=386c82fe-10d7-49c7-8d0b-ee164cbd52f7","ios":"levelo://app?vid=386c82fe-10d7-49c7-8d0b-ee164cbd52f7"},"vehicle_type_id":"4","last_reported":1703218134,"current_range_meters":31600,"station_id":"ce4bgqh2rcd13ifvqc4g","pricing_plan_id":"free"},{"bike_id":"a3b00ee6-46aa-4401-9ca1-14ed5c31feed","system_id":"levelo_inurba_marseille","lat":43.305989,"lon":5.37225,"is_reserved":false,"is_disabled":false,"rental_uris":{"android":"levelo://app?vid=a3b00ee6-46aa-4401-9ca1-14ed5c31feed","ios":"levelo://app?vid=a3b00ee6-46aa-4401-9ca1-14ed5c31feed"},"vehicle_type_id":"4","last_reported":1703218134,"current_range_meters":31200,"station_id":"ce4bgqh2rcd13ifvqc4g","pricing_plan_id":"free"},{"bike_id":"f52a088f-3afd-481d-b488-a8a8ff06f214","system_id":"levelo_inurba_marseille","lat":43.305989,"lon":5.37225,"is_reserved":false,"is_disabled":false,"rental_uris":{"android":"levelo://app?vid=f52a088f-3afd-481d-b488-a8a8ff06f214","ios":"levelo://app?vid=f52a088f-3afd-481d-b488-a8a8ff06f214"},"vehicle_type_id":"4","last_reported":1703218134,"current_range_meters":22000,"station_id":"ce4bgqh2rcd13ifvqc4g","pricing_plan_id":"free"},{"bike_id":"c66d9ebf-7919-4160-84b9-f352c9d60c59","system_id":"levelo_inurba_marseille","lat":43.311131,"lon":5.377651,"is_reserved":false,"is_disabled":false,"rental_uris":{"android":"levelo://app?vid=c66d9ebf-7919-4160-84b9-f352c9d60c59","ios":"levelo://app?vid=c66d9ebf-7919-4160-84b9-f352c9d60c59"},"vehicle_type_id":"4","last_reported":1703218134,"current_range_meters":19600,"station_id":"ce4bgt92rcd13ifvqcg0","pricing_plan_id":"free"},{"bike_id":"9e397218-d943-40f7-a116-96dbd5a125ee","system_id":"levelo_inurba_marseille","lat":43.311125,"lon":5.377624,"is_reserved":false,"is_disabled":false,"rental_uris":{"android":"levelo://app?vid=9e397218-d943-40f7-a116-96dbd5a125ee","ios":"levelo://app?vid=9e397218-d943-40f7-a116-96dbd5a125ee"},"vehicle_type_id":"4","last_reported":1703218134,"current_range_meters":23600,"station_id":"ce4bgt92rcd13ifvqcg0","pricing_plan_id":"free"},{"bike_id":"ffcec199-583d-48e4-bfaa-a3060aaa6a13","system_id":"levelo_inurba_marseille","lat":43.305989,"lon":5.37225,"is_reserved":false,"is_disabled":false,"rental_uris":{"android":"levelo://app?vid=ffcec199-583d-48e4-bfaa-a3060aaa6a13","ios":"levelo://app?vid=ffcec199-583d-48e4-bfaa-a3060aaa6a13"},"vehicle_type_id":"4","last_reported":1703218134,"current_range_meters":31200,"station_id":"ce4bgqh2rcd13ifvqc4g","pricing_plan_id":"free"},{"bike_id":"59c4c666-785c-4784-9ba7-1b692d233888","system_id":"levelo_inurba_marseille","lat":43.305989,"lon":5.37225,"is_reserved":false,"is_disabled":false,"rental_uris":{"android":"levelo://app?vid=59c4c666-785c-4784-9ba7-1b692d233888","ios":"levelo://app?vid=59c4c666-785c-4784-9ba7-1b692d233888"},"vehicle_type_id":"4","last_reported":1703218134,"current_range_meters":24400,"station_id":"ce4bgqh2rcd13ifvqc4g","pricing_plan_id":"free"},{"bike_id":"686b9533-494a-455a-8e4e-0e837b3b9b50","system_id":"levelo_inurba_marseille","lat":43.311125,"lon":5.377624,"is_reserved":false,"is_disabled":false,"rental_uris":{"android":"levelo://app?vid=686b9533-494a-455a-8e4e-0e837b3b9b50","ios":"levelo://app?vid=686b9533-494a-455a-8e4e-0e837b3b9b50"},"vehicle_type_id":"4","last_reported":1703218134,"current_range_meters":8000,"station_id":"ce4bgt92rcd13ifvqcg0","pricing_plan_id":"free"},{"bike_id":"dec35f9e-fbdd-4e67-833d-106215932591","system_id":"levelo_inurba_marseille","lat":43.311125,"lon":5.377624,"is_reserved":false,"is_disabled":false,"rental_uris":{"android":"levelo://app?vid=dec35f9e-fbdd-4e67-833d-106215932591","ios":"levelo://app?vid=dec35f9e-fbdd-4e67-833d-106215932591"},"vehicle_type_id":"4","last_reported":1703218134,"current_range_meters":2800,"station_id":"ce4bgt92rcd13ifvqcg0","pricing_plan_id":"free"},{"bike_id":"403e4795-6bd7-445a-ab69-54d359b5e5ea","system_id":"levelo_inurba_marseille","lat":43.311125,"lon":5.377624,"is_reserved":false,"is_disabled":false,"rental_uris":{"android":"levelo://app?vid=403e4795-6bd7-445a-ab69-54d359b5e5ea","ios":"levelo://app?vid=403e4795-6bd7-445a-ab69-54d359b5e5ea"},"vehicle_type_id":"4","last_reported":1703218134,"current_range_meters":26000,"station_id":"ce4bgt92rcd13ifvqcg0","pricing_plan_id":"free"},{"bike_id":"4da461ba-592b-4be0-845f-922b6fd75ad0","system_id":"levelo_inurba_marseille","lat":43.311152,"lon":5.377697,"is_reserved":false,"is_disabled":false,"rental_uris":{"android":"levelo://app?vid=4da461ba-592b-4be0-845f-922b6fd75ad0","ios":"levelo://app?vid=4da461ba-592b-4be0-845f-922b6fd75ad0"},"vehicle_type_id":"4","last_reported":1703218134,"current_range_meters":24800,"station_id":"ce4bgt92rcd13ifvqcg0","pricing_plan_id":"free"},{"bike_id":"31724e76-5e00-4f03-a74c-9b5776384339","system_id":"levelo_inurba_marseille","lat":43.307945,"lon":5.376487,"is_reserved":false,"is_disabled":false,"rental_uris":{"android":"levelo://app?vid=31724e76-5e00-4f03-a74c-9b5776384339","ios":"levelo://app?vid=31724e76-5e00-4f03-a74c-9b5776384339"},"vehicle_type_id":"4","last_reported":1703218134,"current_range_meters":19200,"station_id":"ce4bgv92rcd13ifvqcq0","pricing_plan_id":"free"},{"bike_id":"b242cfd7-8574-439c-811e-c24db9ef8e28","system_id":"levelo_inurba_marseille","lat":43.307945,"lon":5.376487,"is_reserved":false,"is_disabled":false,"rental_uris":{"android":"levelo://app?vid=b242cfd7-8574-439c-811e-c24db9ef8e28","ios":"levelo://app?vid=b242cfd7-8574-439c-811e-c24db9ef8e28"},"vehicle_type_id":"4","last_reported":1703218134,"current_range_meters":15200,"station_id":"ce4bgv92rcd13ifvqcq0","pricing_plan_id":"free"},{"bike_id":"5096e4c6-f9a0-45fa-8669-4e275df70f30","system_id":"levelo_inurba_marseille","lat":43.307945,"lon":5.376487,"is_reserved":false,"is_disabled":false,"rental_uris":{"android":"levelo://app?vid=5096e4c6-f9a0-45fa-8669-4e275df70f30","ios":"levelo://app?vid=5096e4c6-f9a0-45fa-8669-4e275df70f30"},"vehicle_type_id":"4","last_reported":1703218134,"current_range_meters":31200,"station_id":"ce4bgv92rcd13ifvqcq0","pricing_plan_id":"free"},{"bike_id":"1ab5529d-7299-4375-bbe2-cd7e9c1ecd52","system_id":"levelo_inurba_marseille","lat":43.307945,"lon":5.376487,"is_reserved":false,"is_disabled":false,"rental_uris":{"android":"levelo://app?vid=1ab5529d-7299-4375-bbe2-cd7e9c1ecd52","ios":"levelo://app?vid=1ab5529d-7299-4375-bbe2-cd7e9c1ecd52"},"vehicle_type_id":"4","last_reported":1703218134,"current_range_meters":26400,"station_id":"ce4bgv92rcd13ifvqcq0","pricing_plan_id":"free"},{"bike_id":"0ce7a9a9-8336-4d90-86de-077b1e444a03","system_id":"levelo_inurba_marseille","lat":43.307945,"lon":5.376487,"is_reserved":false,"is_disabled":false,"rental_uris":{"android":"levelo://app?vid=0ce7a9a9-8336-4d90-86de-077b1e444a03","ios":"levelo://app?vid=0ce7a9a9-8336-4d90-86de-077b1e444a03"},"vehicle_type_id":"4","last_reported":1703218134,"current_range_meters":0,"station_id":"ce4bgv92rcd13ifvqcq0","pricing_plan_id":"free"},{"bike_id":"d735b789-2c72-4755-af41-1a8298915b83","system_id":"levelo_inurba_marseille","lat":43.307945,"lon":5.376487,"is_reserved":false,"is_disabled":false,"rental_uris":{"android":"levelo://app?vid=d735b789-2c72-4755-af41-1a8298915b83","ios":"levelo://app?vid=d735b789-2c72-4755-af41-1a8298915b83"},"vehicle_type_id":"4","last_reported":1703218134,"current_range_meters":30000,"station_id":"ce4bgv92rcd13ifvqcq0","pricing_plan_id":"free"},{"bike_id":"6c662160-2878-403e-9cb2-748204edb49f","system_id":"levelo_inurba_marseille","lat":43.315402,"lon":5.380278,"is_reserved":false,"is_disabled":false,"rental_uris":{"android":"levelo://app?vid=6c662160-2878-403e-9cb2-748204edb49f","ios":"levelo://app?vid=6c662160-2878-403e-9cb2-748204edb49f"},"vehicle_type_id":"4","last_reported":1703218134,"current_range_meters":5600,"station_id":"ce4bhsp2rcd13ifvqi50","pricing_plan_id":"free"},{"bike_id":"26e4b55d-4243-4287-9e88-fbeda384b486","system_id":"levelo_inurba_marseille","lat":43.31091,"lon":5.381895,"is_reserved":false,"is_disabled":false,"rental_uris":{"android":"levelo://app?vid=26e4b55d-4243-4287-9e88-fbeda384b486","ios":"levelo://app?vid=26e4b55d-4243-4287-9e88-fbeda384b486"},"vehicle_type_id":"4","last_reported":1703218134,"current_range_meters":11600,"station_id":"","pricing_plan_id":"free"},{"bike_id":"45b61669-eb13-4400-9cbf-8d40e9f0e781","system_id":"levelo_inurba_marseille","lat":43.308012,"lon":5.381511,"is_reserved":false,"is_disabled":false,"rental_uris":{"android":"levelo://app?vid=45b61669-eb13-4400-9cbf-8d40e9f0e781","ios":"levelo://app?vid=45b61669-eb13-4400-9cbf-8d40e9f0e781"},"vehicle_type_id":"4","last_reported":1703218134,"current_range_meters":17600,"station_id":"ce4bgt12rcd13ifvqce0","pricing_plan_id":"free"},{"bike_id":"30bbac37-6ce5-49dd-b141-b3faba254cdf","system_id":"levelo_inurba_marseille","lat":43.308012,"lon":5.381511,"is_reserved":false,"is_disabled":false,"rental_uris":{"android":"levelo://app?vid=30bbac37-6ce5-49dd-b141-b3faba254cdf","ios":"levelo://app?vid=30bbac37-6ce5-49dd-b141-b3faba254cdf"},"vehicle_type_id":"4","last_reported":1703218134,"current_range_meters":24400,"station_id":"ce4bgt12rcd13ifvqce0","pricing_plan_id":"free"},{"bike_id":"b769182f-76cd-4abc-9fe2-1e9cf043ea14","system_id":"levelo_inurba_marseille","lat":43.304606,"lon":5.379026,"is_reserved":false,"is_disabled":false,"rental_uris":{"android":"levelo://app?vid=b769182f-76cd-4abc-9fe2-1e9cf043ea14","ios":"levelo://app?vid=b769182f-76cd-4abc-9fe2-1e9cf043ea14"},"vehicle_type_id":"4","last_reported":1703218134,"current_range_meters":25600,"station_id":"ce4bgup2rcd13ifvqcn0","pricing_plan_id":"free"},{"bike_id":"406cc0eb-2e12-42bf-a01b-24ac205660ff","system_id":"levelo_inurba_marseille","lat":43.304606,"lon":5.379026,"is_reserved":false,"is_disabled":false,"rental_uris":{"android":"levelo://app?vid=406cc0eb-2e12-42bf-a01b-24ac205660ff","ios":"levelo://app?vid=406cc0eb-2e12-42bf-a01b-24ac205660ff"},"vehicle_type_id":"4","last_reported":1703218134,"current_range_meters":8800,"station_id":"ce4bgup2rcd13ifvqcn0","pricing_plan_id":"free"},{"bike_id":"63dca49e-e7c5-4060-abde-fcd040fc8a8a","system_id":"levelo_inurba_marseille","lat":43.304606,"lon":5.379026,"is_reserved":false,"is_disabled":false,"rental_uris":{"android":"levelo://app?vid=63dca49e-e7c5-4060-abde-fcd040fc8a8a","ios":"levelo://app?vid=63dca49e-e7c5-4060-abde-fcd040fc8a8a"},"vehicle_type_id":"4","last_reported":1703218134,"current_range_meters":25200,"station_id":"ce4bgup2rcd13ifvqcn0","pricing_plan_id":"free"},{"bike_id":"ea63f5ff-ed2a-4a1c-a64b-fef4232b63de","system_id":"levelo_inurba_marseille","lat":43.324771,"lon":5.36557,"is_reserved":false,"is_disabled":false,"rental_uris":{"android":"levelo://app?vid=ea63f5ff-ed2a-4a1c-a64b-fef4232b63de","ios":"levelo://app?vid=ea63f5ff-ed2a-4a1c-a64b-fef4232b63de"},"vehicle_type_id":"4","last_reported":1703218134,"current_range_meters":3600,"station_id":"ce4bhs12rcd13ifvqhvg","pricing_plan_id":"free"},{"bike_id":"36cf4713-4fcd-49a8-93b4-d3d786aa93f4","system_id":"levelo_inurba_marseille","lat":43.302784,"lon":5.377158,"is_reserved":false,"is_disabled":false,"rental_uris":{"android":"levelo://app?vid=36cf4713-4fcd-49a8-93b4-d3d786aa93f4","ios":"levelo://app?vid=36cf4713-4fcd-49a8-93b4-d3d786aa93f4"},"vehicle_type_id":"4","last_reported":1703218134,"current_range_meters":18800,"station_id":"ce4bguh2rcd13ifvqcj0","pricing_plan_id":"free"},{"bike_id":"93572387-25a9-4a4a-bf08-e1c46c10e569","system_id":"levelo_inurba_marseille","lat":43.302784,"lon":5.377158,"is_reserved":false,"is_disabled":false,"rental_uris":{"android":"levelo://app?vid=93572387-25a9-4a4a-bf08-e1c46c10e569","ios":"levelo://app?vid=93572387-25a9-4a4a-bf08-e1c46c10e569"},"vehicle_type_id":"4","last_reported":1703218134,"current_range_meters":18000,"station_id":"ce4bguh2rcd13ifvqcj0","pricing_plan_id":"free"},{"bike_id":"500571ea-4fba-4810-9e11-0fd87d0b12b3","system_id":"levelo_inurba_marseille","lat":43.319935,"lon":5.381699,"is_reserved":false,"is_disabled":false,"rental_uris":{"android":"levelo://app?vid=500571ea-4fba-4810-9e11-0fd87d0b12b3","ios":"levelo://app?vid=500571ea-4fba-4810-9e11-0fd87d0b12b3"},"vehicle_type_id":"4","last_reported":1703218134,"current_range_meters":28000,"station_id":"ce4bhr12rcd13ifvqhpg","pricing_plan_id":"free"},{"bike_id":"51360f23-00df-4b8c-b369-faeb35be788d","system_id":"levelo_inurba_marseille","lat":43.319935,"lon":5.381699,"is_reserved":false,"is_disabled":false,"rental_uris":{"android":"levelo://app?vid=51360f23-00df-4b8c-b369-faeb35be788d","ios":"levelo://app?vid=51360f23-00df-4b8c-b369-faeb35be788d"},"vehicle_type_id":"4","last_reported":1703218134,"current_range_meters":28400,"station_id":"ce4bhr12rcd13ifvqhpg","pricing_plan_id":"free"},{"bike_id":"0effb7f6-23e5-4f02-a1eb-80bdf14a191a","system_id":"levelo_inurba_marseille","lat":43.319981,"lon":5.381469,"is_reserved":false,"is_disabled":false,"rental_uris":{"android":"levelo://app?vid=0effb7f6-23e5-4f02-a1eb-80bdf14a191a","ios":"levelo://app?vid=0effb7f6-23e5-4f02-a1eb-80bdf14a191a"},"vehicle_type_id":"4","last_reported":1703218134,"current_range_meters":30000,"station_id":"ce4bhr12rcd13ifvqhpg","pricing_plan_id":"free"},{"bike_id":"dc0f6af5-c02c-4610-baea-e5c6ca16f530","system_id":"levelo_inurba_marseille","lat":43.319979,"lon":5.381481,"is_reserved":false,"is_disabled":false,"rental_uris":{"android":"levelo://app?vid=dc0f6af5-c02c-4610-baea-e5c6ca16f530","ios":"levelo://app?vid=dc0f6af5-c02c-4610-baea-e5c6ca16f530"},"vehicle_type_id":"4","last_reported":1703218134,"current_range_meters":30000,"station_id":"ce4bhr12rcd13ifvqhpg","pricing_plan_id":"free"},{"bike_id":"af0ab532-e26f-41d4-b9ce-17ae08ae4cee","system_id":"levelo_inurba_marseille","lat":43.320005,"lon":5.381601,"is_reserved":false,"is_disabled":false,"rental_uris":{"android":"levelo://app?vid=af0ab532-e26f-41d4-b9ce-17ae08ae4cee","ios":"levelo://app?vid=af0ab532-e26f-41d4-b9ce-17ae08ae4cee"},"vehicle_type_id":"4","last_reported":1703218134,"current_range_meters":8000,"station_id":"ce4bhr12rcd13ifvqhpg","pricing_plan_id":"free"},{"bike_id":"d51e1fcb-2f47-4e85-8e2f-4e6485be8268","system_id":"levelo_inurba_marseille","lat":43.313571,"lon":5.384829,"is_reserved":false,"is_disabled":false,"rental_uris":{"android":"levelo://app?vid=d51e1fcb-2f47-4e85-8e2f-4e6485be8268","ios":"levelo://app?vid=d51e1fcb-2f47-4e85-8e2f-4e6485be8268"},"vehicle_type_id":"4","last_reported":1703218134,"current_range_meters":26800,"station_id":"ce4bgt92rcd13ifvqcf0","pricing_plan_id":"free"},{"bike_id":"c5cae810-39cc-4218-86e0-83a8342df03b","system_id":"levelo_inurba_marseille","lat":43.3258,"lon":5.36621,"is_reserved":false,"is_disabled":false,"rental_uris":{"android":"levelo://app?vid=c5cae810-39cc-4218-86e0-83a8342df03b","ios":"levelo://app?vid=c5cae810-39cc-4218-86e0-83a8342df03b"},"vehicle_type_id":"4","last_reported":1703218134,"current_range_meters":11600,"station_id":"","pricing_plan_id":"free"},{"bike_id":"c22e90bd-bd4d-41c1-bbe6-08c0fb107a4e","system_id":"levelo_inurba_marseille","lat":43.311722,"lon":5.387247,"is_reserved":false,"is_disabled":false,"rental_uris":{"android":"levelo://app?vid=c22e90bd-bd4d-41c1-bbe6-08c0fb107a4e","ios":"levelo://app?vid=c22e90bd-bd4d-41c1-bbe6-08c0fb107a4e"},"vehicle_type_id":"4","last_reported":1703218134,"current_range_meters":30400,"station_id":"ce4bgv12rcd13ifvqcp0","pricing_plan_id":"free"},{"bike_id":"f508f070-016e-40b2-a648-7943914095e0","system_id":"levelo_inurba_marseille","lat":43.311722,"lon":5.387247,"is_reserved":false,"is_disabled":false,"rental_uris":{"android":"levelo://app?vid=f508f070-016e-40b2-a648-7943914095e0","ios":"levelo://app?vid=f508f070-016e-40b2-a648-7943914095e0"},"vehicle_type_id":"4","last_reported":1703218134,"current_range_meters":14400,"station_id":"ce4bgv12rcd13ifvqcp0","pricing_plan_id":"free"},{"bike_id":"83a9dfe6-1042-42f7-b1ea-c97cfc209ede","system_id":"levelo_inurba_marseille","lat":43.311722,"lon":5.387247,"is_reserved":false,"is_disabled":false,"rental_uris":{"android":"levelo://app?vid=83a9dfe6-1042-42f7-b1ea-c97cfc209ede","ios":"levelo://app?vid=83a9dfe6-1042-42f7-b1ea-c97cfc209ede"},"vehicle_type_id":"4","last_reported":1703218134,"current_range_meters":21600,"station_id":"ce4bgv12rcd13ifvqcp0","pricing_plan_id":"free"},{"bike_id":"51af5b71-4558-4892-8a7c-9c4acfa3dd4d","system_id":"levelo_inurba_marseille","lat":43.311722,"lon":5.387247,"is_reserved":false,"is_disabled":false,"rental_uris":{"android":"levelo://app?vid=51af5b71-4558-4892-8a7c-9c4acfa3dd4d","ios":"levelo://app?vid=51af5b71-4558-4892-8a7c-9c4acfa3dd4d"},"vehicle_type_id":"4","last_reported":1703218134,"current_range_meters":26000,"station_id":"ce4bgv12rcd13ifvqcp0","pricing_plan_id":"free"},{"bike_id":"96c64805-8ac0-4f1e-96c7-03482e05d0e6","system_id":"levelo_inurba_marseille","lat":43.311722,"lon":5.387247,"is_reserved":false,"is_disabled":false,"rental_uris":{"android":"levelo://app?vid=96c64805-8ac0-4f1e-96c7-03482e05d0e6","ios":"levelo://app?vid=96c64805-8ac0-4f1e-96c7-03482e05d0e6"},"vehicle_type_id":"4","last_reported":1703218134,"current_range_meters":13600,"station_id":"ce4bgv12rcd13ifvqcp0","pricing_plan_id":"free"},{"bike_id":"734301ac-db83-4544-a6f5-9e30074001ed","system_id":"levelo_inurba_marseille","lat":43.311722,"lon":5.387247,"is_reserved":false,"is_disabled":false,"rental_uris":{"android":"levelo://app?vid=734301ac-db83-4544-a6f5-9e30074001ed","ios":"levelo://app?vid=734301ac-db83-4544-a6f5-9e30074001ed"},"vehicle_type_id":"4","last_reported":1703218134,"current_range_meters":27200,"station_id":"ce4bgv12rcd13ifvqcp0","pricing_plan_id":"free"},{"bike_id":"76f32eff-77ff-43ae-a091-dc6f022bbd1d","system_id":"levelo_inurba_marseille","lat":43.311722,"lon":5.387247,"is_reserved":false,"is_disabled":false,"rental_uris":{"android":"levelo://app?vid=76f32eff-77ff-43ae-a091-dc6f022bbd1d","ios":"levelo://app?vid=76f32eff-77ff-43ae-a091-dc6f022bbd1d"},"vehicle_type_id":"4","last_reported":1703218134,"current_range_meters":26800,"station_id":"ce4bgv12rcd13ifvqcp0","pricing_plan_id":"free"},{"bike_id":"aa26c708-c384-40e3-b40c-f93f26be9d99","system_id":"levelo_inurba_marseille","lat":43.311722,"lon":5.387247,"is_reserved":false,"is_disabled":false,"rental_uris":{"android":"levelo://app?vid=aa26c708-c384-40e3-b40c-f93f26be9d99","ios":"levelo://app?vid=aa26c708-c384-40e3-b40c-f93f26be9d99"},"vehicle_type_id":"4","last_reported":1703218134,"current_range_meters":22800,"station_id":"ce4bgv12rcd13ifvqcp0","pricing_plan_id":"free"},{"bike_id":"928fdd51-0699-4bb5-a7c6-01bef3d83e58","system_id":"levelo_inurba_marseille","lat":43.311722,"lon":5.387247,"is_reserved":false,"is_disabled":false,"rental_uris":{"android":"levelo://app?vid=928fdd51-0699-4bb5-a7c6-01bef3d83e58","ios":"levelo://app?vid=928fdd51-0699-4bb5-a7c6-01bef3d83e58"},"vehicle_type_id":"4","last_reported":1703218134,"current_range_meters":28000,"station_id":"ce4bgv12rcd13ifvqcp0","pricing_plan_id":"free"},{"bike_id":"0cdbd0f0-d3c9-4a82-8c6d-6ffa03bfbf25","system_id":"levelo_inurba_marseille","lat":43.326937,"lon":5.373183,"is_reserved":false,"is_disabled":false,"rental_uris":{"android":"levelo://app?vid=0cdbd0f0-d3c9-4a82-8c6d-6ffa03bfbf25","ios":"levelo://app?vid=0cdbd0f0-d3c9-4a82-8c6d-6ffa03bfbf25"},"vehicle_type_id":"4","last_reported":1703218134,"current_range_meters":18000,"station_id":"","pricing_plan_id":"free"},{"bike_id":"d7592f09-4877-4e0b-aefe-e164f740256a","system_id":"levelo_inurba_marseille","lat":43.297774,"lon":5.370875,"is_reserved":false,"is_disabled":false,"rental_uris":{"android":"levelo://app?vid=d7592f09-4877-4e0b-aefe-e164f740256a","ios":"levelo://app?vid=d7592f09-4877-4e0b-aefe-e164f740256a"},"vehicle_type_id":"4","last_reported":1703218134,"current_range_meters":23200,"station_id":"ce4bgop2rcd13ifvqc1g","pricing_plan_id":"free"},{"bike_id":"b58c4005-ed15-40ec-b249-38d0c39e7d3b","system_id":"levelo_inurba_marseille","lat":43.322872,"lon":5.382756,"is_reserved":false,"is_disabled":false,"rental_uris":{"android":"levelo://app?vid=b58c4005-ed15-40ec-b249-38d0c39e7d3b","ios":"levelo://app?vid=b58c4005-ed15-40ec-b249-38d0c39e7d3b"},"vehicle_type_id":"4","last_reported":1703218134,"current_range_meters":6800,"station_id":"ce4bhr12rcd13ifvqhqg","pricing_plan_id":"free"},{"bike_id":"f6678c52-8fdb-46d8-969e-3297a365c131","system_id":"levelo_inurba_marseille","lat":43.322872,"lon":5.382756,"is_reserved":false,"is_disabled":false,"rental_uris":{"android":"levelo://app?vid=f6678c52-8fdb-46d8-969e-3297a365c131","ios":"levelo://app?vid=f6678c52-8fdb-46d8-969e-3297a365c131"},"vehicle_type_id":"4","last_reported":1703218134,"current_range_meters":28000,"station_id":"ce4bhr12rcd13ifvqhqg","pricing_plan_id":"free"},{"bike_id":"2d0ccb8c-a8f7-4ee9-8463-316526ef0ad5","system_id":"levelo_inurba_marseille","lat":43.322872,"lon":5.382756,"is_reserved":false,"is_disabled":false,"rental_uris":{"android":"levelo://app?vid=2d0ccb8c-a8f7-4ee9-8463-316526ef0ad5","ios":"levelo://app?vid=2d0ccb8c-a8f7-4ee9-8463-316526ef0ad5"},"vehicle_type_id":"4","last_reported":1703218134,"current_range_meters":31200,"station_id":"ce4bhr12rcd13ifvqhqg","pricing_plan_id":"free"},{"bike_id":"e299beb3-acc1-46fa-9fec-22d2fe5e6b13","system_id":"levelo_inurba_marseille","lat":43.32828,"lon":5.36675,"is_reserved":false,"is_disabled":false,"rental_uris":{"android":"levelo://app?vid=e299beb3-acc1-46fa-9fec-22d2fe5e6b13","ios":"levelo://app?vid=e299beb3-acc1-46fa-9fec-22d2fe5e6b13"},"vehicle_type_id":"4","last_reported":1703218134,"current_range_meters":19600,"station_id":"ce4bhs92rcd13ifvqi0g","pricing_plan_id":"free"},{"bike_id":"8bf0395d-c27d-407d-bf00-1fe14b7d1f01","system_id":"levelo_inurba_marseille","lat":43.32829,"lon":5.36682,"is_reserved":false,"is_disabled":false,"rental_uris":{"android":"levelo://app?vid=8bf0395d-c27d-407d-bf00-1fe14b7d1f01","ios":"levelo://app?vid=8bf0395d-c27d-407d-bf00-1fe14b7d1f01"},"vehicle_type_id":"4","last_reported":1703218134,"current_range_meters":7200,"station_id":"ce4bhs92rcd13ifvqi0g","pricing_plan_id":"free"},{"bike_id":"e59074bb-49fe-49a4-9b5c-50c0e3847ad9","system_id":"levelo_inurba_marseille","lat":43.29573,"lon":5.367355,"is_reserved":false,"is_disabled":false,"rental_uris":{"android":"levelo://app?vid=e59074bb-49fe-49a4-9b5c-50c0e3847ad9","ios":"levelo://app?vid=e59074bb-49fe-49a4-9b5c-50c0e3847ad9"},"vehicle_type_id":"4","last_reported":1703218134,"current_range_meters":31200,"station_id":"ce4bgph2rcd13ifvqc2g","pricing_plan_id":"free"},{"bike_id":"4e5514ff-d45f-4a43-8ba5-f0a7341c5f71","system_id":"levelo_inurba_marseille","lat":43.29573,"lon":5.367355,"is_reserved":false,"is_disabled":false,"rental_uris":{"android":"levelo://app?vid=4e5514ff-d45f-4a43-8ba5-f0a7341c5f71","ios":"levelo://app?vid=4e5514ff-d45f-4a43-8ba5-f0a7341c5f71"},"vehicle_type_id":"4","last_reported":1703218134,"current_range_meters":28000,"station_id":"ce4bgph2rcd13ifvqc2g","pricing_plan_id":"free"},{"bike_id":"67ff05d2-401c-47fc-b703-1e2ed9aa9e17","system_id":"levelo_inurba_marseille","lat":43.309589,"lon":5.390258,"is_reserved":false,"is_disabled":false,"rental_uris":{"android":"levelo://app?vid=67ff05d2-401c-47fc-b703-1e2ed9aa9e17","ios":"levelo://app?vid=67ff05d2-401c-47fc-b703-1e2ed9aa9e17"},"vehicle_type_id":"4","last_reported":1703218134,"current_range_meters":31200,"station_id":"ce4bgup2rcd13ifvqco0","pricing_plan_id":"free"},{"bike_id":"31a22adf-ae1c-4867-a20d-5a18eddfe2ed","system_id":"levelo_inurba_marseille","lat":43.309589,"lon":5.390258,"is_reserved":false,"is_disabled":false,"rental_uris":{"android":"levelo://app?vid=31a22adf-ae1c-4867-a20d-5a18eddfe2ed","ios":"levelo://app?vid=31a22adf-ae1c-4867-a20d-5a18eddfe2ed"},"vehicle_type_id":"4","last_reported":1703218134,"current_range_meters":6800,"station_id":"ce4bgup2rcd13ifvqco0","pricing_plan_id":"free"},{"bike_id":"53d02047-2fc2-4d30-88b2-583fd58923ab","system_id":"levelo_inurba_marseille","lat":43.317557,"lon":5.390173,"is_reserved":false,"is_disabled":false,"rental_uris":{"android":"levelo://app?vid=53d02047-2fc2-4d30-88b2-583fd58923ab","ios":"levelo://app?vid=53d02047-2fc2-4d30-88b2-583fd58923ab"},"vehicle_type_id":"4","last_reported":1703218134,"current_range_meters":29600,"station_id":"ce4bhqp2rcd13ifvqhng","pricing_plan_id":"free"},{"bike_id":"834b9782-39e8-4602-8b8d-ea95026281ec","system_id":"levelo_inurba_marseille","lat":43.31758,"lon":5.39016,"is_reserved":false,"is_disabled":false,"rental_uris":{"android":"levelo://app?vid=834b9782-39e8-4602-8b8d-ea95026281ec","ios":"levelo://app?vid=834b9782-39e8-4602-8b8d-ea95026281ec"},"vehicle_type_id":"4","last_reported":1703218134,"current_range_meters":1600,"station_id":"ce4bhqp2rcd13ifvqhng","pricing_plan_id":"free"},{"bike_id":"7b89b0ee-9ba8-4aaf-8663-348001241aa8","system_id":"levelo_inurba_marseille","lat":43.317557,"lon":5.390173,"is_reserved":false,"is_disabled":false,"rental_uris":{"android":"levelo://app?vid=7b89b0ee-9ba8-4aaf-8663-348001241aa8","ios":"levelo://app?vid=7b89b0ee-9ba8-4aaf-8663-348001241aa8"},"vehicle_type_id":"4","last_reported":1703218134,"current_range_meters":28000,"station_id":"ce4bhqp2rcd13ifvqhng","pricing_plan_id":"free"},{"bike_id":"5b6ffe4c-11c1-4315-8f24-166cead4d7c5","system_id":"levelo_inurba_marseille","lat":43.317557,"lon":5.390173,"is_reserved":false,"is_disabled":false,"rental_uris":{"android":"levelo://app?vid=5b6ffe4c-11c1-4315-8f24-166cead4d7c5","ios":"levelo://app?vid=5b6ffe4c-11c1-4315-8f24-166cead4d7c5"},"vehicle_type_id":"4","last_reported":1703218134,"current_range_meters":28000,"station_id":"ce4bhqp2rcd13ifvqhng","pricing_plan_id":"free"},{"bike_id":"889ee6b6-8544-43ee-9dba-d664d2ee7ba4","system_id":"levelo_inurba_marseille","lat":43.317557,"lon":5.390173,"is_reserved":false,"is_disabled":false,"rental_uris":{"android":"levelo://app?vid=889ee6b6-8544-43ee-9dba-d664d2ee7ba4","ios":"levelo://app?vid=889ee6b6-8544-43ee-9dba-d664d2ee7ba4"},"vehicle_type_id":"4","last_reported":1703218134,"current_range_meters":26000,"station_id":"ce4bhqp2rcd13ifvqhng","pricing_plan_id":"free"},{"bike_id":"827bd55f-6b89-41c2-9484-3f058ac50d78","system_id":"levelo_inurba_marseille","lat":43.304274,"lon":5.388873,"is_reserved":false,"is_disabled":false,"rental_uris":{"android":"levelo://app?vid=827bd55f-6b89-41c2-9484-3f058ac50d78","ios":"levelo://app?vid=827bd55f-6b89-41c2-9484-3f058ac50d78"},"vehicle_type_id":"4","last_reported":1703218134,"current_range_meters":27600,"station_id":"ce4bgk12rcd13ifvqbi0","pricing_plan_id":"free"},{"bike_id":"a80ba20e-2b04-4096-a2a1-ac6f2cb463af","system_id":"levelo_inurba_marseille","lat":43.304274,"lon":5.388873,"is_reserved":false,"is_disabled":false,"rental_uris":{"android":"levelo://app?vid=a80ba20e-2b04-4096-a2a1-ac6f2cb463af","ios":"levelo://app?vid=a80ba20e-2b04-4096-a2a1-ac6f2cb463af"},"vehicle_type_id":"4","last_reported":1703218134,"current_range_meters":26000,"station_id":"ce4bgk12rcd13ifvqbi0","pricing_plan_id":"free"},{"bike_id":"e7ba5673-dad0-48c7-8464-a3e41177b7a8","system_id":"levelo_inurba_marseille","lat":43.295748,"lon":5.37522,"is_reserved":false,"is_disabled":false,"rental_uris":{"android":"levelo://app?vid=e7ba5673-dad0-48c7-8464-a3e41177b7a8","ios":"levelo://app?vid=e7ba5673-dad0-48c7-8464-a3e41177b7a8"},"vehicle_type_id":"4","last_reported":1703218134,"current_range_meters":26000,"station_id":"ce4bgh92rcd13ifvqb50","pricing_plan_id":"free"},{"bike_id":"1378810b-812d-44e5-847a-1b7aeb90e4c4","system_id":"levelo_inurba_marseille","lat":43.299,"lon":5.38357,"is_reserved":false,"is_disabled":false,"rental_uris":{"android":"levelo://app?vid=1378810b-812d-44e5-847a-1b7aeb90e4c4","ios":"levelo://app?vid=1378810b-812d-44e5-847a-1b7aeb90e4c4"},"vehicle_type_id":"4","last_reported":1703218134,"current_range_meters":10000,"station_id":"","pricing_plan_id":"free"},{"bike_id":"11c2f447-8c0d-4984-a762-7b23ceb5fdf6","system_id":"levelo_inurba_marseille","lat":43.29532,"lon":5.37504,"is_reserved":false,"is_disabled":false,"rental_uris":{"android":"levelo://app?vid=11c2f447-8c0d-4984-a762-7b23ceb5fdf6","ios":"levelo://app?vid=11c2f447-8c0d-4984-a762-7b23ceb5fdf6"},"vehicle_type_id":"4","last_reported":1703218134,"current_range_meters":22000,"station_id":"ce4bgkp2rcd13ifvqbmg","pricing_plan_id":"free"},{"bike_id":"7919eadd-c520-4cda-9196-5dc5695e55f6","system_id":"levelo_inurba_marseille","lat":43.298399,"lon":5.382767,"is_reserved":false,"is_disabled":false,"rental_uris":{"android":"levelo://app?vid=7919eadd-c520-4cda-9196-5dc5695e55f6","ios":"levelo://app?vid=7919eadd-c520-4cda-9196-5dc5695e55f6"},"vehicle_type_id":"4","last_reported":1703218134,"current_range_meters":7600,"station_id":"","pricing_plan_id":"free"},{"bike_id":"c811fea1-cac0-4a9c-bb8a-58baf4c7cdc0","system_id":"levelo_inurba_marseille","lat":43.299717,"lon":5.384845,"is_reserved":false,"is_disabled":false,"rental_uris":{"android":"levelo://app?vid=c811fea1-cac0-4a9c-bb8a-58baf4c7cdc0","ios":"levelo://app?vid=c811fea1-cac0-4a9c-bb8a-58baf4c7cdc0"},"vehicle_type_id":"4","last_reported":1703218134,"current_range_meters":27200,"station_id":"ce4bgj92rcd13ifvqbd0","pricing_plan_id":"free"},{"bike_id":"c6f61d62-3e1e-4542-92ec-bf7c3003fd18","system_id":"levelo_inurba_marseille","lat":43.299717,"lon":5.384845,"is_reserved":false,"is_disabled":false,"rental_uris":{"android":"levelo://app?vid=c6f61d62-3e1e-4542-92ec-bf7c3003fd18","ios":"levelo://app?vid=c6f61d62-3e1e-4542-92ec-bf7c3003fd18"},"vehicle_type_id":"4","last_reported":1703218134,"current_range_meters":28800,"station_id":"ce4bgj92rcd13ifvqbd0","pricing_plan_id":"free"},{"bike_id":"81fa8ccb-ef83-40a3-b2b1-c1681ed115b4","system_id":"levelo_inurba_marseille","lat":43.299717,"lon":5.384845,"is_reserved":false,"is_disabled":false,"rental_uris":{"android":"levelo://app?vid=81fa8ccb-ef83-40a3-b2b1-c1681ed115b4","ios":"levelo://app?vid=81fa8ccb-ef83-40a3-b2b1-c1681ed115b4"},"vehicle_type_id":"4","last_reported":1703218134,"current_range_meters":26800,"station_id":"ce4bgj92rcd13ifvqbd0","pricing_plan_id":"free"},{"bike_id":"4ec7f9ee-3059-4281-9f08-dc41f2a9f5d0","system_id":"levelo_inurba_marseille","lat":43.32363,"lon":5.38882,"is_reserved":false,"is_disabled":false,"rental_uris":{"android":"levelo://app?vid=4ec7f9ee-3059-4281-9f08-dc41f2a9f5d0","ios":"levelo://app?vid=4ec7f9ee-3059-4281-9f08-dc41f2a9f5d0"},"vehicle_type_id":"4","last_reported":1703218134,"current_range_meters":7600,"station_id":"ce4bhqp2rcd13ifvqhog","pricing_plan_id":"free"},{"bike_id":"7825f2e2-5dc0-48bf-9610-bf0be308ff43","system_id":"levelo_inurba_marseille","lat":43.32365,"lon":5.38884,"is_reserved":false,"is_disabled":false,"rental_uris":{"android":"levelo://app?vid=7825f2e2-5dc0-48bf-9610-bf0be308ff43","ios":"levelo://app?vid=7825f2e2-5dc0-48bf-9610-bf0be308ff43"},"vehicle_type_id":"4","last_reported":1703218134,"current_range_meters":0,"station_id":"ce4bhqp2rcd13ifvqhog","pricing_plan_id":"free"},{"bike_id":"6bc005d8-6c9e-4ae1-b98d-409c3cb65d81","system_id":"levelo_inurba_marseille","lat":43.32367,"lon":5.388836,"is_reserved":false,"is_disabled":false,"rental_uris":{"android":"levelo://app?vid=6bc005d8-6c9e-4ae1-b98d-409c3cb65d81","ios":"levelo://app?vid=6bc005d8-6c9e-4ae1-b98d-409c3cb65d81"},"vehicle_type_id":"4","last_reported":1703218134,"current_range_meters":13600,"station_id":"ce4bhqp2rcd13ifvqhog","pricing_plan_id":"free"},{"bike_id":"70e5ca8f-3ef7-47e6-9383-95b47d1a13c2","system_id":"levelo_inurba_marseille","lat":43.302992,"lon":5.392136,"is_reserved":false,"is_disabled":false,"rental_uris":{"android":"levelo://app?vid=70e5ca8f-3ef7-47e6-9383-95b47d1a13c2","ios":"levelo://app?vid=70e5ca8f-3ef7-47e6-9383-95b47d1a13c2"},"vehicle_type_id":"4","last_reported":1703218134,"current_range_meters":26000,"station_id":"ce4bgkh2rcd13ifvqbk0","pricing_plan_id":"free"},{"bike_id":"8a89cdb0-0f8b-4df1-a721-5d28b925e577","system_id":"levelo_inurba_marseille","lat":43.292311,"lon":5.360731,"is_reserved":false,"is_disabled":false,"rental_uris":{"android":"levelo://app?vid=8a89cdb0-0f8b-4df1-a721-5d28b925e577","ios":"levelo://app?vid=8a89cdb0-0f8b-4df1-a721-5d28b925e577"},"vehicle_type_id":"4","last_reported":1703218134,"current_range_meters":2800,"station_id":"ce4bhbh2rcd13ifvqeqg","pricing_plan_id":"free"},{"bike_id":"b92d8c08-4834-44b1-858c-d7cabc5a10f3","system_id":"levelo_inurba_marseille","lat":43.292636,"lon":5.37618,"is_reserved":false,"is_disabled":false,"rental_uris":{"android":"levelo://app?vid=b92d8c08-4834-44b1-858c-d7cabc5a10f3","ios":"levelo://app?vid=b92d8c08-4834-44b1-858c-d7cabc5a10f3"},"vehicle_type_id":"4","last_reported":1703218134,"current_range_meters":24400,"station_id":"","pricing_plan_id":"free"},{"bike_id":"429d051d-e7af-4a1d-81db-ac4f095bf4cd","system_id":"levelo_inurba_marseille","lat":43.309038,"lon":5.396546,"is_reserved":false,"is_disabled":false,"rental_uris":{"android":"levelo://app?vid=429d051d-e7af-4a1d-81db-ac4f095bf4cd","ios":"levelo://app?vid=429d051d-e7af-4a1d-81db-ac4f095bf4cd"},"vehicle_type_id":"4","last_reported":1703218134,"current_range_meters":7600,"station_id":"ce4bh012rcd13ifvqcv0","pricing_plan_id":"free"},{"bike_id":"9a72a070-340e-4e31-86ee-2eadf9466fe5","system_id":"levelo_inurba_marseille","lat":43.309038,"lon":5.396546,"is_reserved":false,"is_disabled":false,"rental_uris":{"android":"levelo://app?vid=9a72a070-340e-4e31-86ee-2eadf9466fe5","ios":"levelo://app?vid=9a72a070-340e-4e31-86ee-2eadf9466fe5"},"vehicle_type_id":"4","last_reported":1703218134,"current_range_meters":9600,"station_id":"ce4bh012rcd13ifvqcv0","pricing_plan_id":"free"},{"bike_id":"b4b912dd-25bf-44d2-98c8-dfbf78288a63","system_id":"levelo_inurba_marseille","lat":43.291994,"lon":5.357886,"is_reserved":false,"is_disabled":false,"rental_uris":{"android":"levelo://app?vid=b4b912dd-25bf-44d2-98c8-dfbf78288a63","ios":"levelo://app?vid=b4b912dd-25bf-44d2-98c8-dfbf78288a63"},"vehicle_type_id":"4","last_reported":1703218134,"current_range_meters":12800,"station_id":"ce4bhb12rcd13ifvqel0","pricing_plan_id":"free"},{"bike_id":"16349042-18f1-4e7d-97f4-7178285831ac","system_id":"levelo_inurba_marseille","lat":43.309038,"lon":5.396546,"is_reserved":false,"is_disabled":false,"rental_uris":{"android":"levelo://app?vid=16349042-18f1-4e7d-97f4-7178285831ac","ios":"levelo://app?vid=16349042-18f1-4e7d-97f4-7178285831ac"},"vehicle_type_id":"4","last_reported":1703218134,"current_range_meters":2800,"station_id":"ce4bh012rcd13ifvqcv0","pricing_plan_id":"free"},{"bike_id":"6d67199e-5b51-4ba4-94ac-430245e36f8b","system_id":"levelo_inurba_marseille","lat":43.313291,"lon":5.396838,"is_reserved":false,"is_disabled":false,"rental_uris":{"android":"levelo://app?vid=6d67199e-5b51-4ba4-94ac-430245e36f8b","ios":"levelo://app?vid=6d67199e-5b51-4ba4-94ac-430245e36f8b"},"vehicle_type_id":"4","last_reported":1703218134,"current_range_meters":14800,"station_id":"ce4bgvp2rcd13ifvqcu0","pricing_plan_id":"free"},{"bike_id":"c3948eec-28f0-4303-b549-fabdcb143893","system_id":"levelo_inurba_marseille","lat":43.313291,"lon":5.396838,"is_reserved":false,"is_disabled":false,"rental_uris":{"android":"levelo://app?vid=c3948eec-28f0-4303-b549-fabdcb143893","ios":"levelo://app?vid=c3948eec-28f0-4303-b549-fabdcb143893"},"vehicle_type_id":"4","last_reported":1703218134,"current_range_meters":17600,"station_id":"ce4bgvp2rcd13ifvqcu0","pricing_plan_id":"free"},{"bike_id":"98d32d63-4e61-4cb1-8956-26130116eb84","system_id":"levelo_inurba_marseille","lat":43.313291,"lon":5.396838,"is_reserved":false,"is_disabled":false,"rental_uris":{"android":"levelo://app?vid=98d32d63-4e61-4cb1-8956-26130116eb84","ios":"levelo://app?vid=98d32d63-4e61-4cb1-8956-26130116eb84"},"vehicle_type_id":"4","last_reported":1703218134,"current_range_meters":6400,"station_id":"ce4bgvp2rcd13ifvqcu0","pricing_plan_id":"free"},{"bike_id":"9d58efe2-96e6-4766-9ebc-c407ffa9d805","system_id":"levelo_inurba_marseille","lat":43.309038,"lon":5.396546,"is_reserved":false,"is_disabled":false,"rental_uris":{"android":"levelo://app?vid=9d58efe2-96e6-4766-9ebc-c407ffa9d805","ios":"levelo://app?vid=9d58efe2-96e6-4766-9ebc-c407ffa9d805"},"vehicle_type_id":"4","last_reported":1703218134,"current_range_meters":17600,"station_id":"ce4bh012rcd13ifvqcv0","pricing_plan_id":"free"},{"bike_id":"434d14e8-130f-405b-8158-613dd2934d56","system_id":"levelo_inurba_marseille","lat":43.313291,"lon":5.396838,"is_reserved":false,"is_disabled":false,"rental_uris":{"android":"levelo://app?vid=434d14e8-130f-405b-8158-613dd2934d56","ios":"levelo://app?vid=434d14e8-130f-405b-8158-613dd2934d56"},"vehicle_type_id":"4","last_reported":1703218134,"current_range_meters":31200,"station_id":"ce4bgvp2rcd13ifvqcu0","pricing_plan_id":"free"},{"bike_id":"569df881-44aa-4fb0-bd43-e2c14ad0998e","system_id":"levelo_inurba_marseille","lat":43.309038,"lon":5.396546,"is_reserved":false,"is_disabled":false,"rental_uris":{"android":"levelo://app?vid=569df881-44aa-4fb0-bd43-e2c14ad0998e","ios":"levelo://app?vid=569df881-44aa-4fb0-bd43-e2c14ad0998e"},"vehicle_type_id":"4","last_reported":1703218134,"current_range_meters":31200,"station_id":"ce4bh012rcd13ifvqcv0","pricing_plan_id":"free"},{"bike_id":"b7976232-6ce5-4c81-9e40-730c8c12ab68","system_id":"levelo_inurba_marseille","lat":43.313291,"lon":5.396838,"is_reserved":false,"is_disabled":false,"rental_uris":{"android":"levelo://app?vid=b7976232-6ce5-4c81-9e40-730c8c12ab68","ios":"levelo://app?vid=b7976232-6ce5-4c81-9e40-730c8c12ab68"},"vehicle_type_id":"4","last_reported":1703218134,"current_range_meters":9200,"station_id":"ce4bgvp2rcd13ifvqcu0","pricing_plan_id":"free"},{"bike_id":"2b006d69-4f76-4ed4-abec-b77aa64c31cb","system_id":"levelo_inurba_marseille","lat":43.309047,"lon":5.396551,"is_reserved":false,"is_disabled":false,"rental_uris":{"android":"levelo://app?vid=2b006d69-4f76-4ed4-abec-b77aa64c31cb","ios":"levelo://app?vid=2b006d69-4f76-4ed4-abec-b77aa64c31cb"},"vehicle_type_id":"4","last_reported":1703218134,"current_range_meters":30800,"station_id":"ce4bh012rcd13ifvqcv0","pricing_plan_id":"free"},{"bike_id":"dadec077-0df0-4e3f-a2e2-94987a23d35f","system_id":"levelo_inurba_marseille","lat":43.313291,"lon":5.396838,"is_reserved":false,"is_disabled":false,"rental_uris":{"android":"levelo://app?vid=dadec077-0df0-4e3f-a2e2-94987a23d35f","ios":"levelo://app?vid=dadec077-0df0-4e3f-a2e2-94987a23d35f"},"vehicle_type_id":"4","last_reported":1703218134,"current_range_meters":28800,"station_id":"ce4bgvp2rcd13ifvqcu0","pricing_plan_id":"free"},{"bike_id":"bbcc6ace-efe4-4a96-b15d-6a94fdc23504","system_id":"levelo_inurba_marseille","lat":43.309038,"lon":5.396546,"is_reserved":false,"is_disabled":false,"rental_uris":{"android":"levelo://app?vid=bbcc6ace-efe4-4a96-b15d-6a94fdc23504","ios":"levelo://app?vid=bbcc6ace-efe4-4a96-b15d-6a94fdc23504"},"vehicle_type_id":"4","last_reported":1703218134,"current_range_meters":0,"station_id":"ce4bh012rcd13ifvqcv0","pricing_plan_id":"free"},{"bike_id":"45f99cda-befa-42ee-a2ee-ea05b8e79130","system_id":"levelo_inurba_marseille","lat":43.313291,"lon":5.396838,"is_reserved":false,"is_disabled":false,"rental_uris":{"android":"levelo://app?vid=45f99cda-befa-42ee-a2ee-ea05b8e79130","ios":"levelo://app?vid=45f99cda-befa-42ee-a2ee-ea05b8e79130"},"vehicle_type_id":"4","last_reported":1703218134,"current_range_meters":31200,"station_id":"ce4bgvp2rcd13ifvqcu0","pricing_plan_id":"free"},{"bike_id":"e15180be-0f1e-4dc8-acdb-8d6edc541f43","system_id":"levelo_inurba_marseille","lat":43.313291,"lon":5.396838,"is_reserved":false,"is_disabled":false,"rental_uris":{"android":"levelo://app?vid=e15180be-0f1e-4dc8-acdb-8d6edc541f43","ios":"levelo://app?vid=e15180be-0f1e-4dc8-acdb-8d6edc541f43"},"vehicle_type_id":"4","last_reported":1703218134,"current_range_meters":17600,"station_id":"ce4bgvp2rcd13ifvqcu0","pricing_plan_id":"free"},{"bike_id":"69639dcb-a01c-47c8-a5f5-8d1c2f62795e","system_id":"levelo_inurba_marseille","lat":43.313291,"lon":5.396838,"is_reserved":false,"is_disabled":false,"rental_uris":{"android":"levelo://app?vid=69639dcb-a01c-47c8-a5f5-8d1c2f62795e","ios":"levelo://app?vid=69639dcb-a01c-47c8-a5f5-8d1c2f62795e"},"vehicle_type_id":"4","last_reported":1703218134,"current_range_meters":4800,"station_id":"ce4bgvp2rcd13ifvqcu0","pricing_plan_id":"free"},{"bike_id":"bcb17db0-4c96-4c3f-9c44-3da4921a3ab0","system_id":"levelo_inurba_marseille","lat":43.313291,"lon":5.396838,"is_reserved":false,"is_disabled":false,"rental_uris":{"android":"levelo://app?vid=bcb17db0-4c96-4c3f-9c44-3da4921a3ab0","ios":"levelo://app?vid=bcb17db0-4c96-4c3f-9c44-3da4921a3ab0"},"vehicle_type_id":"4","last_reported":1703218134,"current_range_meters":30800,"station_id":"ce4bgvp2rcd13ifvqcu0","pricing_plan_id":"free"},{"bike_id":"9aa2092b-8594-45d6-bf9d-bea674217465","system_id":"levelo_inurba_marseille","lat":43.309047,"lon":5.396551,"is_reserved":false,"is_disabled":false,"rental_uris":{"android":"levelo://app?vid=9aa2092b-8594-45d6-bf9d-bea674217465","ios":"levelo://app?vid=9aa2092b-8594-45d6-bf9d-bea674217465"},"vehicle_type_id":"4","last_reported":1703218134,"current_range_meters":30000,"station_id":"ce4bh012rcd13ifvqcv0","pricing_plan_id":"free"},{"bike_id":"7600b465-ae55-430f-a74a-3301103ebfcf","system_id":"levelo_inurba_marseille","lat":43.313291,"lon":5.396838,"is_reserved":false,"is_disabled":false,"rental_uris":{"android":"levelo://app?vid=7600b465-ae55-430f-a74a-3301103ebfcf","ios":"levelo://app?vid=7600b465-ae55-430f-a74a-3301103ebfcf"},"vehicle_type_id":"4","last_reported":1703218134,"current_range_meters":31200,"station_id":"ce4bgvp2rcd13ifvqcu0","pricing_plan_id":"free"},{"bike_id":"95a3e35a-3104-4144-8d27-87d5a86d65e6","system_id":"levelo_inurba_marseille","lat":43.313291,"lon":5.396838,"is_reserved":false,"is_disabled":false,"rental_uris":{"android":"levelo://app?vid=95a3e35a-3104-4144-8d27-87d5a86d65e6","ios":"levelo://app?vid=95a3e35a-3104-4144-8d27-87d5a86d65e6"},"vehicle_type_id":"4","last_reported":1703218134,"current_range_meters":21600,"station_id":"ce4bgvp2rcd13ifvqcu0","pricing_plan_id":"free"},{"bike_id":"db895390-4419-486d-8265-8334c5090090","system_id":"levelo_inurba_marseille","lat":43.290624,"lon":5.359245,"is_reserved":false,"is_disabled":false,"rental_uris":{"android":"levelo://app?vid=db895390-4419-486d-8265-8334c5090090","ios":"levelo://app?vid=db895390-4419-486d-8265-8334c5090090"},"vehicle_type_id":"4","last_reported":1703218134,"current_range_meters":26400,"station_id":"ce4bha92rcd13ifvqeg0","pricing_plan_id":"free"},{"bike_id":"8cb89f04-4f50-435d-896a-31adba6cec86","system_id":"levelo_inurba_marseille","lat":43.290631,"lon":5.359244,"is_reserved":false,"is_disabled":false,"rental_uris":{"android":"levelo://app?vid=8cb89f04-4f50-435d-896a-31adba6cec86","ios":"levelo://app?vid=8cb89f04-4f50-435d-896a-31adba6cec86"},"vehicle_type_id":"4","last_reported":1703218134,"current_range_meters":29600,"station_id":"ce4bha92rcd13ifvqeg0","pricing_plan_id":"free"},{"bike_id":"4eb255d5-3dcd-4eaf-b86c-a5f726c59d86","system_id":"levelo_inurba_marseille","lat":43.304274,"lon":5.397513,"is_reserved":false,"is_disabled":false,"rental_uris":{"android":"levelo://app?vid=4eb255d5-3dcd-4eaf-b86c-a5f726c59d86","ios":"levelo://app?vid=4eb255d5-3dcd-4eaf-b86c-a5f726c59d86"},"vehicle_type_id":"4","last_reported":1703218134,"current_range_meters":28800,"station_id":"ce4bh092rcd13ifvqd20","pricing_plan_id":"free"},{"bike_id":"172aa6bc-4bb0-4030-9da2-5dc735cbc145","system_id":"levelo_inurba_marseille","lat":43.304296,"lon":5.397513,"is_reserved":false,"is_disabled":false,"rental_uris":{"android":"levelo://app?vid=172aa6bc-4bb0-4030-9da2-5dc735cbc145","ios":"levelo://app?vid=172aa6bc-4bb0-4030-9da2-5dc735cbc145"},"vehicle_type_id":"4","last_reported":1703218134,"current_range_meters":30000,"station_id":"ce4bh092rcd13ifvqd20","pricing_plan_id":"free"},{"bike_id":"a7498a80-75e6-4538-be61-98c5a1d1b69f","system_id":"levelo_inurba_marseille","lat":43.30425,"lon":5.3975,"is_reserved":false,"is_disabled":false,"rental_uris":{"android":"levelo://app?vid=a7498a80-75e6-4538-be61-98c5a1d1b69f","ios":"levelo://app?vid=a7498a80-75e6-4538-be61-98c5a1d1b69f"},"vehicle_type_id":"4","last_reported":1703218134,"current_range_meters":2800,"station_id":"ce4bh092rcd13ifvqd20","pricing_plan_id":"free"},{"bike_id":"d4f1a6d8-14ba-46f2-a7e7-d0a7eb28b3f6","system_id":"levelo_inurba_marseille","lat":43.304274,"lon":5.397513,"is_reserved":false,"is_disabled":false,"rental_uris":{"android":"levelo://app?vid=d4f1a6d8-14ba-46f2-a7e7-d0a7eb28b3f6","ios":"levelo://app?vid=d4f1a6d8-14ba-46f2-a7e7-d0a7eb28b3f6"},"vehicle_type_id":"4","last_reported":1703218134,"current_range_meters":20000,"station_id":"ce4bh092rcd13ifvqd20","pricing_plan_id":"free"},{"bike_id":"357f07b0-6411-4f61-b846-9220853d23b1","system_id":"levelo_inurba_marseille","lat":43.304274,"lon":5.397513,"is_reserved":false,"is_disabled":false,"rental_uris":{"android":"levelo://app?vid=357f07b0-6411-4f61-b846-9220853d23b1","ios":"levelo://app?vid=357f07b0-6411-4f61-b846-9220853d23b1"},"vehicle_type_id":"4","last_reported":1703218134,"current_range_meters":30000,"station_id":"ce4bh092rcd13ifvqd20","pricing_plan_id":"free"},{"bike_id":"0eaed518-e93a-403a-aba6-e7f57c909dff","system_id":"levelo_inurba_marseille","lat":43.290104,"lon":5.356111,"is_reserved":false,"is_disabled":false,"rental_uris":{"android":"levelo://app?vid=0eaed518-e93a-403a-aba6-e7f57c909dff","ios":"levelo://app?vid=0eaed518-e93a-403a-aba6-e7f57c909dff"},"vehicle_type_id":"4","last_reported":1703218134,"current_range_meters":27200,"station_id":"ce4bhb92rcd13ifvqen0","pricing_plan_id":"free"},{"bike_id":"fe04619a-837f-4215-99fb-c7797369a2b1","system_id":"levelo_inurba_marseille","lat":43.330442,"lon":5.389148,"is_reserved":false,"is_disabled":false,"rental_uris":{"android":"levelo://app?vid=fe04619a-837f-4215-99fb-c7797369a2b1","ios":"levelo://app?vid=fe04619a-837f-4215-99fb-c7797369a2b1"},"vehicle_type_id":"4","last_reported":1703218134,"current_range_meters":19200,"station_id":"ce4bhr92rcd13ifvqhrg","pricing_plan_id":"free"},{"bike_id":"3a0e29f9-1377-4906-85be-cadf3e9324b4","system_id":"levelo_inurba_marseille","lat":43.290103,"lon":5.356114,"is_reserved":false,"is_disabled":false,"rental_uris":{"android":"levelo://app?vid=3a0e29f9-1377-4906-85be-cadf3e9324b4","ios":"levelo://app?vid=3a0e29f9-1377-4906-85be-cadf3e9324b4"},"vehicle_type_id":"4","last_reported":1703218134,"current_range_meters":28000,"station_id":"ce4bhb92rcd13ifvqen0","pricing_plan_id":"free"},{"bike_id":"5ef0ee28-fb9e-48fd-a023-c03a17a8e32c","system_id":"levelo_inurba_marseille","lat":43.297815,"lon":5.393548,"is_reserved":false,"is_disabled":false,"rental_uris":{"android":"levelo://app?vid=5ef0ee28-fb9e-48fd-a023-c03a17a8e32c","ios":"levelo://app?vid=5ef0ee28-fb9e-48fd-a023-c03a17a8e32c"},"vehicle_type_id":"4","last_reported":1703218134,"current_range_meters":26800,"station_id":"chh1huq6cuj3fo74tm60","pricing_plan_id":"free"},{"bike_id":"2d69ba61-662c-4ce0-8aea-66e66ad60cb7","system_id":"levelo_inurba_marseille","lat":43.28856,"lon":5.358371,"is_reserved":false,"is_disabled":false,"rental_uris":{"android":"levelo://app?vid=2d69ba61-662c-4ce0-8aea-66e66ad60cb7","ios":"levelo://app?vid=2d69ba61-662c-4ce0-8aea-66e66ad60cb7"},"vehicle_type_id":"4","last_reported":1703218134,"current_range_meters":30800,"station_id":"ce4bhb12rcd13ifvqem0","pricing_plan_id":"free"},{"bike_id":"0758ba9b-eec1-4a13-8fa3-d200e4b83daf","system_id":"levelo_inurba_marseille","lat":43.312609,"lon":5.401662,"is_reserved":false,"is_disabled":false,"rental_uris":{"android":"levelo://app?vid=0758ba9b-eec1-4a13-8fa3-d200e4b83daf","ios":"levelo://app?vid=0758ba9b-eec1-4a13-8fa3-d200e4b83daf"},"vehicle_type_id":"4","last_reported":1703218134,"current_range_meters":15600,"station_id":"ce4bh092rcd13ifvqd30","pricing_plan_id":"free"},{"bike_id":"284f9061-f39d-4a8d-b72d-d997729b14de","system_id":"levelo_inurba_marseille","lat":43.312609,"lon":5.401662,"is_reserved":false,"is_disabled":false,"rental_uris":{"android":"levelo://app?vid=284f9061-f39d-4a8d-b72d-d997729b14de","ios":"levelo://app?vid=284f9061-f39d-4a8d-b72d-d997729b14de"},"vehicle_type_id":"4","last_reported":1703218134,"current_range_meters":2000,"station_id":"ce4bh092rcd13ifvqd30","pricing_plan_id":"free"},{"bike_id":"1a59bbe6-4ce8-4bd7-8490-51717c6c735e","system_id":"levelo_inurba_marseille","lat":43.312609,"lon":5.401662,"is_reserved":false,"is_disabled":false,"rental_uris":{"android":"levelo://app?vid=1a59bbe6-4ce8-4bd7-8490-51717c6c735e","ios":"levelo://app?vid=1a59bbe6-4ce8-4bd7-8490-51717c6c735e"},"vehicle_type_id":"4","last_reported":1703218134,"current_range_meters":4400,"station_id":"ce4bh092rcd13ifvqd30","pricing_plan_id":"free"},{"bike_id":"67abd277-34ea-4c59-887b-fda661dbaabf","system_id":"levelo_inurba_marseille","lat":43.312609,"lon":5.401662,"is_reserved":false,"is_disabled":false,"rental_uris":{"android":"levelo://app?vid=67abd277-34ea-4c59-887b-fda661dbaabf","ios":"levelo://app?vid=67abd277-34ea-4c59-887b-fda661dbaabf"},"vehicle_type_id":"4","last_reported":1703218134,"current_range_meters":12400,"station_id":"ce4bh092rcd13ifvqd30","pricing_plan_id":"free"},{"bike_id":"e1a15999-4e71-4737-bb98-fc09469ec223","system_id":"levelo_inurba_marseille","lat":43.312609,"lon":5.401662,"is_reserved":false,"is_disabled":false,"rental_uris":{"android":"levelo://app?vid=e1a15999-4e71-4737-bb98-fc09469ec223","ios":"levelo://app?vid=e1a15999-4e71-4737-bb98-fc09469ec223"},"vehicle_type_id":"4","last_reported":1703218134,"current_range_meters":16000,"station_id":"ce4bh092rcd13ifvqd30","pricing_plan_id":"free"},{"bike_id":"41cf56c2-064a-488c-8678-1cb6b2316c86","system_id":"levelo_inurba_marseille","lat":43.312609,"lon":5.401662,"is_reserved":false,"is_disabled":false,"rental_uris":{"android":"levelo://app?vid=41cf56c2-064a-488c-8678-1cb6b2316c86","ios":"levelo://app?vid=41cf56c2-064a-488c-8678-1cb6b2316c86"},"vehicle_type_id":"4","last_reported":1703218134,"current_range_meters":16400,"station_id":"ce4bh092rcd13ifvqd30","pricing_plan_id":"free"},{"bike_id":"13f80ec5-6da7-44ef-b0b6-a7d2b087d4a9","system_id":"levelo_inurba_marseille","lat":43.30642,"lon":5.401031,"is_reserved":false,"is_disabled":false,"rental_uris":{"android":"levelo://app?vid=13f80ec5-6da7-44ef-b0b6-a7d2b087d4a9","ios":"levelo://app?vid=13f80ec5-6da7-44ef-b0b6-a7d2b087d4a9"},"vehicle_type_id":"4","last_reported":1703218134,"current_range_meters":15200,"station_id":"ce4bh112rcd13ifvqda0","pricing_plan_id":"free"},{"bike_id":"763fa1e9-ee9c-42de-8f1e-f64d2f8cdbc0","system_id":"levelo_inurba_marseille","lat":43.306412,"lon":5.401035,"is_reserved":false,"is_disabled":false,"rental_uris":{"android":"levelo://app?vid=763fa1e9-ee9c-42de-8f1e-f64d2f8cdbc0","ios":"levelo://app?vid=763fa1e9-ee9c-42de-8f1e-f64d2f8cdbc0"},"vehicle_type_id":"4","last_reported":1703218134,"current_range_meters":30000,"station_id":"ce4bh112rcd13ifvqda0","pricing_plan_id":"free"},{"bike_id":"96b8cd43-cd9d-4667-963b-7c91a4c1a999","system_id":"levelo_inurba_marseille","lat":43.309371,"lon":5.401449,"is_reserved":false,"is_disabled":false,"rental_uris":{"android":"levelo://app?vid=96b8cd43-cd9d-4667-963b-7c91a4c1a999","ios":"levelo://app?vid=96b8cd43-cd9d-4667-963b-7c91a4c1a999"},"vehicle_type_id":"4","last_reported":1703218134,"current_range_meters":9200,"station_id":"ce4bgvp2rcd13ifvqct0","pricing_plan_id":"free"},{"bike_id":"337955db-d8ba-4f5e-b077-77e188f45be6","system_id":"levelo_inurba_marseille","lat":43.306657,"lon":5.400901,"is_reserved":false,"is_disabled":false,"rental_uris":{"android":"levelo://app?vid=337955db-d8ba-4f5e-b077-77e188f45be6","ios":"levelo://app?vid=337955db-d8ba-4f5e-b077-77e188f45be6"},"vehicle_type_id":"4","last_reported":1703218134,"current_range_meters":19200,"station_id":"ce4bh112rcd13ifvqda0","pricing_plan_id":"free"},{"bike_id":"5c81a891-9f9f-45af-8799-b5e5314532fa","system_id":"levelo_inurba_marseille","lat":43.337616,"lon":5.374378,"is_reserved":false,"is_disabled":false,"rental_uris":{"android":"levelo://app?vid=5c81a891-9f9f-45af-8799-b5e5314532fa","ios":"levelo://app?vid=5c81a891-9f9f-45af-8799-b5e5314532fa"},"vehicle_type_id":"4","last_reported":1703218134,"current_range_meters":24000,"station_id":"","pricing_plan_id":"free"},{"bike_id":"02cd3d2e-5d91-429d-814d-733fccbd26b1","system_id":"levelo_inurba_marseille","lat":43.30642,"lon":5.401031,"is_reserved":false,"is_disabled":false,"rental_uris":{"android":"levelo://app?vid=02cd3d2e-5d91-429d-814d-733fccbd26b1","ios":"levelo://app?vid=02cd3d2e-5d91-429d-814d-733fccbd26b1"},"vehicle_type_id":"4","last_reported":1703218134,"current_range_meters":17200,"station_id":"ce4bh112rcd13ifvqda0","pricing_plan_id":"free"},{"bike_id":"e63c5e04-8e78-4297-b9b1-7f8e3ad98104","system_id":"levelo_inurba_marseille","lat":43.28727,"lon":5.36078,"is_reserved":false,"is_disabled":false,"rental_uris":{"android":"levelo://app?vid=e63c5e04-8e78-4297-b9b1-7f8e3ad98104","ios":"levelo://app?vid=e63c5e04-8e78-4297-b9b1-7f8e3ad98104"},"vehicle_type_id":"4","last_reported":1703218134,"current_range_meters":27200,"station_id":"cki0cbj6b192h4jlfktg","pricing_plan_id":"free"},{"bike_id":"5f147c6d-83bf-4674-b7cd-cac60e2f3776","system_id":"levelo_inurba_marseille","lat":43.28727,"lon":5.36078,"is_reserved":false,"is_disabled":false,"rental_uris":{"android":"levelo://app?vid=5f147c6d-83bf-4674-b7cd-cac60e2f3776","ios":"levelo://app?vid=5f147c6d-83bf-4674-b7cd-cac60e2f3776"},"vehicle_type_id":"4","last_reported":1703218134,"current_range_meters":22800,"station_id":"cki0cbj6b192h4jlfktg","pricing_plan_id":"free"},{"bike_id":"0305b6be-d98d-400a-8c9c-1ee60eaa0515","system_id":"levelo_inurba_marseille","lat":43.298681,"lon":5.397225,"is_reserved":false,"is_disabled":false,"rental_uris":{"android":"levelo://app?vid=0305b6be-d98d-400a-8c9c-1ee60eaa0515","ios":"levelo://app?vid=0305b6be-d98d-400a-8c9c-1ee60eaa0515"},"vehicle_type_id":"4","last_reported":1703218134,"current_range_meters":28400,"station_id":"ce4bh0h2rcd13ifvqd50","pricing_plan_id":"free"},{"bike_id":"ac9f2954-080a-4b60-9a00-d11f4b3d8f31","system_id":"levelo_inurba_marseille","lat":43.286961,"lon":5.373785,"is_reserved":false,"is_disabled":false,"rental_uris":{"android":"levelo://app?vid=ac9f2954-080a-4b60-9a00-d11f4b3d8f31","ios":"levelo://app?vid=ac9f2954-080a-4b60-9a00-d11f4b3d8f31"},"vehicle_type_id":"4","last_reported":1703218134,"current_range_meters":28800,"station_id":"ce4bh3p2rcd13ifvqdq0","pricing_plan_id":"free"},{"bike_id":"901d1908-4990-4e58-aa83-abb419e3b86b","system_id":"levelo_inurba_marseille","lat":43.286961,"lon":5.373785,"is_reserved":false,"is_disabled":false,"rental_uris":{"android":"levelo://app?vid=901d1908-4990-4e58-aa83-abb419e3b86b","ios":"levelo://app?vid=901d1908-4990-4e58-aa83-abb419e3b86b"},"vehicle_type_id":"4","last_reported":1703218134,"current_range_meters":31200,"station_id":"ce4bh3p2rcd13ifvqdq0","pricing_plan_id":"free"},{"bike_id":"a6e0fc70-eec3-40c7-8642-d0301d9a3948","system_id":"levelo_inurba_marseille","lat":43.302759,"lon":5.400793,"is_reserved":false,"is_disabled":false,"rental_uris":{"android":"levelo://app?vid=a6e0fc70-eec3-40c7-8642-d0301d9a3948","ios":"levelo://app?vid=a6e0fc70-eec3-40c7-8642-d0301d9a3948"},"vehicle_type_id":"4","last_reported":1703218134,"current_range_meters":12000,"station_id":"ce4bgvh2rcd13ifvqcs0","pricing_plan_id":"free"},{"bike_id":"430baf06-062a-4867-a119-822c567c5487","system_id":"levelo_inurba_marseille","lat":43.286039,"lon":5.370679,"is_reserved":false,"is_disabled":false,"rental_uris":{"android":"levelo://app?vid=430baf06-062a-4867-a119-822c567c5487","ios":"levelo://app?vid=430baf06-062a-4867-a119-822c567c5487"},"vehicle_type_id":"4","last_reported":1703218134,"current_range_meters":30000,"station_id":"ce4bht12rcd13ifvqi60","pricing_plan_id":"free"},{"bike_id":"657b4d30-11c4-4174-ae70-5f17e3ee8719","system_id":"levelo_inurba_marseille","lat":43.286039,"lon":5.370679,"is_reserved":false,"is_disabled":false,"rental_uris":{"android":"levelo://app?vid=657b4d30-11c4-4174-ae70-5f17e3ee8719","ios":"levelo://app?vid=657b4d30-11c4-4174-ae70-5f17e3ee8719"},"vehicle_type_id":"4","last_reported":1703218134,"current_range_meters":31200,"station_id":"ce4bht12rcd13ifvqi60","pricing_plan_id":"free"},{"bike_id":"4d882ab1-2188-4a1b-93c0-ea8a8c1f82e2","system_id":"levelo_inurba_marseille","lat":43.286039,"lon":5.370679,"is_reserved":false,"is_disabled":false,"rental_uris":{"android":"levelo://app?vid=4d882ab1-2188-4a1b-93c0-ea8a8c1f82e2","ios":"levelo://app?vid=4d882ab1-2188-4a1b-93c0-ea8a8c1f82e2"},"vehicle_type_id":"4","last_reported":1703218134,"current_range_meters":31200,"station_id":"ce4bht12rcd13ifvqi60","pricing_plan_id":"free"},{"bike_id":"b5ba4e31-c8a5-4cda-8e3b-5ca032e9d193","system_id":"levelo_inurba_marseille","lat":43.316821,"lon":5.404737,"is_reserved":false,"is_disabled":false,"rental_uris":{"android":"levelo://app?vid=b5ba4e31-c8a5-4cda-8e3b-5ca032e9d193","ios":"levelo://app?vid=b5ba4e31-c8a5-4cda-8e3b-5ca032e9d193"},"vehicle_type_id":"4","last_reported":1703218134,"current_range_meters":14000,"station_id":"ce4bh012rcd13ifvqd00","pricing_plan_id":"free"},{"bike_id":"9382ba44-52c5-40f8-a4e8-d5c089cb2a27","system_id":"levelo_inurba_marseille","lat":43.284648,"lon":5.35889,"is_reserved":false,"is_disabled":false,"rental_uris":{"android":"levelo://app?vid=9382ba44-52c5-40f8-a4e8-d5c089cb2a27","ios":"levelo://app?vid=9382ba44-52c5-40f8-a4e8-d5c089cb2a27"},"vehicle_type_id":"4","last_reported":1703218134,"current_range_meters":30000,"station_id":"ce4bhah2rcd13ifvqei0","pricing_plan_id":"free"},{"bike_id":"31e9b6ad-df70-417c-8bcb-ed5b14287a8b","system_id":"levelo_inurba_marseille","lat":43.2846,"lon":5.35895,"is_reserved":false,"is_disabled":false,"rental_uris":{"android":"levelo://app?vid=31e9b6ad-df70-417c-8bcb-ed5b14287a8b","ios":"levelo://app?vid=31e9b6ad-df70-417c-8bcb-ed5b14287a8b"},"vehicle_type_id":"4","last_reported":1703218134,"current_range_meters":30800,"station_id":"ce4bhah2rcd13ifvqei0","pricing_plan_id":"free"},{"bike_id":"511cc2b9-71fb-4afe-a125-80fe616e24e7","system_id":"levelo_inurba_marseille","lat":43.284574,"lon":5.358923,"is_reserved":false,"is_disabled":false,"rental_uris":{"android":"levelo://app?vid=511cc2b9-71fb-4afe-a125-80fe616e24e7","ios":"levelo://app?vid=511cc2b9-71fb-4afe-a125-80fe616e24e7"},"vehicle_type_id":"4","last_reported":1703218134,"current_range_meters":25200,"station_id":"ce4bhah2rcd13ifvqei0","pricing_plan_id":"free"},{"bike_id":"19554e25-1206-46b5-ad61-7ba9baa9dc30","system_id":"levelo_inurba_marseille","lat":43.294314,"lon":5.397498,"is_reserved":false,"is_disabled":false,"rental_uris":{"android":"levelo://app?vid=19554e25-1206-46b5-ad61-7ba9baa9dc30","ios":"levelo://app?vid=19554e25-1206-46b5-ad61-7ba9baa9dc30"},"vehicle_type_id":"4","last_reported":1703218134,"current_range_meters":27200,"station_id":"ce4bh3h2rcd13ifvqdo0","pricing_plan_id":"free"},{"bike_id":"c4a50198-7735-44b9-9552-17502ab2aebc","system_id":"levelo_inurba_marseille","lat":43.294314,"lon":5.397498,"is_reserved":false,"is_disabled":false,"rental_uris":{"android":"levelo://app?vid=c4a50198-7735-44b9-9552-17502ab2aebc","ios":"levelo://app?vid=c4a50198-7735-44b9-9552-17502ab2aebc"},"vehicle_type_id":"4","last_reported":1703218134,"current_range_meters":26800,"station_id":"ce4bh3h2rcd13ifvqdo0","pricing_plan_id":"free"},{"bike_id":"6681f091-8cae-40db-82be-2afedc79afec","system_id":"levelo_inurba_marseille","lat":43.297925,"lon":5.400927,"is_reserved":false,"is_disabled":false,"rental_uris":{"android":"levelo://app?vid=6681f091-8cae-40db-82be-2afedc79afec","ios":"levelo://app?vid=6681f091-8cae-40db-82be-2afedc79afec"},"vehicle_type_id":"4","last_reported":1703218134,"current_range_meters":8000,"station_id":"","pricing_plan_id":"free"},{"bike_id":"27d7a4e4-05d1-4f00-bc79-0e664efd1da6","system_id":"levelo_inurba_marseille","lat":43.294314,"lon":5.397498,"is_reserved":false,"is_disabled":false,"rental_uris":{"android":"levelo://app?vid=27d7a4e4-05d1-4f00-bc79-0e664efd1da6","ios":"levelo://app?vid=27d7a4e4-05d1-4f00-bc79-0e664efd1da6"},"vehicle_type_id":"4","last_reported":1703218134,"current_range_meters":29600,"station_id":"ce4bh3h2rcd13ifvqdo0","pricing_plan_id":"free"},{"bike_id":"8a0966e9-1067-48eb-a5f0-2075e4bd6450","system_id":"levelo_inurba_marseille","lat":43.284112,"lon":5.375157,"is_reserved":false,"is_disabled":false,"rental_uris":{"android":"levelo://app?vid=8a0966e9-1067-48eb-a5f0-2075e4bd6450","ios":"levelo://app?vid=8a0966e9-1067-48eb-a5f0-2075e4bd6450"},"vehicle_type_id":"4","last_reported":1703218134,"current_range_meters":31200,"station_id":"ce4bh412rcd13ifvqds0","pricing_plan_id":"free"},{"bike_id":"c1b54749-4929-4c4c-a3ae-c61a16f4a9f8","system_id":"levelo_inurba_marseille","lat":43.283998,"lon":5.375062,"is_reserved":false,"is_disabled":false,"rental_uris":{"android":"levelo://app?vid=c1b54749-4929-4c4c-a3ae-c61a16f4a9f8","ios":"levelo://app?vid=c1b54749-4929-4c4c-a3ae-c61a16f4a9f8"},"vehicle_type_id":"4","last_reported":1703218134,"current_range_meters":31200,"station_id":"ce4bh412rcd13ifvqds0","pricing_plan_id":"free"},{"bike_id":"6d135427-1a4a-4779-b716-ad181709ca7a","system_id":"levelo_inurba_marseille","lat":43.283998,"lon":5.375062,"is_reserved":false,"is_disabled":false,"rental_uris":{"android":"levelo://app?vid=6d135427-1a4a-4779-b716-ad181709ca7a","ios":"levelo://app?vid=6d135427-1a4a-4779-b716-ad181709ca7a"},"vehicle_type_id":"4","last_reported":1703218134,"current_range_meters":18400,"station_id":"ce4bh412rcd13ifvqds0","pricing_plan_id":"free"},{"bike_id":"b876af62-3f73-4295-9263-d892ac26c721","system_id":"levelo_inurba_marseille","lat":43.284013,"lon":5.375447,"is_reserved":false,"is_disabled":false,"rental_uris":{"android":"levelo://app?vid=b876af62-3f73-4295-9263-d892ac26c721","ios":"levelo://app?vid=b876af62-3f73-4295-9263-d892ac26c721"},"vehicle_type_id":"4","last_reported":1703218134,"current_range_meters":13600,"station_id":"ce4bh412rcd13ifvqds0","pricing_plan_id":"free"},{"bike_id":"ffcc6a5f-7738-42a7-8076-6c7b4cca66a1","system_id":"levelo_inurba_marseille","lat":43.295713,"lon":5.399639,"is_reserved":false,"is_disabled":false,"rental_uris":{"android":"levelo://app?vid=ffcc6a5f-7738-42a7-8076-6c7b4cca66a1","ios":"levelo://app?vid=ffcc6a5f-7738-42a7-8076-6c7b4cca66a1"},"vehicle_type_id":"4","last_reported":1703218134,"current_range_meters":30800,"station_id":"ce4bh312rcd13ifvqdj0","pricing_plan_id":"free"},{"bike_id":"9d6893e2-7192-4a6d-82e0-69c0a3078e44","system_id":"levelo_inurba_marseille","lat":43.319179,"lon":5.407725,"is_reserved":false,"is_disabled":false,"rental_uris":{"android":"levelo://app?vid=9d6893e2-7192-4a6d-82e0-69c0a3078e44","ios":"levelo://app?vid=9d6893e2-7192-4a6d-82e0-69c0a3078e44"},"vehicle_type_id":"4","last_reported":1703218134,"current_range_meters":31200,"station_id":"ce4bhq12rcd13ifvqhig","pricing_plan_id":"free"},{"bike_id":"31788ef6-f87b-4c1f-b5c8-a830f900d89a","system_id":"levelo_inurba_marseille","lat":43.319179,"lon":5.407725,"is_reserved":false,"is_disabled":false,"rental_uris":{"android":"levelo://app?vid=31788ef6-f87b-4c1f-b5c8-a830f900d89a","ios":"levelo://app?vid=31788ef6-f87b-4c1f-b5c8-a830f900d89a"},"vehicle_type_id":"4","last_reported":1703218134,"current_range_meters":28800,"station_id":"ce4bhq12rcd13ifvqhig","pricing_plan_id":"free"},{"bike_id":"cfca9082-0855-487b-ac51-4306eda03ffd","system_id":"levelo_inurba_marseille","lat":43.319179,"lon":5.407725,"is_reserved":false,"is_disabled":false,"rental_uris":{"android":"levelo://app?vid=cfca9082-0855-487b-ac51-4306eda03ffd","ios":"levelo://app?vid=cfca9082-0855-487b-ac51-4306eda03ffd"},"vehicle_type_id":"4","last_reported":1703218134,"current_range_meters":12400,"station_id":"ce4bhq12rcd13ifvqhig","pricing_plan_id":"free"},{"bike_id":"361799b8-0ade-4629-b104-c461534604f1","system_id":"levelo_inurba_marseille","lat":43.323464,"lon":5.406297,"is_reserved":false,"is_disabled":false,"rental_uris":{"android":"levelo://app?vid=361799b8-0ade-4629-b104-c461534604f1","ios":"levelo://app?vid=361799b8-0ade-4629-b104-c461534604f1"},"vehicle_type_id":"4","last_reported":1703218134,"current_range_meters":4400,"station_id":"ce4bhq92rcd13ifvqhjg","pricing_plan_id":"free"},{"bike_id":"687269d2-e082-4930-b7b6-db76459f0cad","system_id":"levelo_inurba_marseille","lat":43.323464,"lon":5.406297,"is_reserved":false,"is_disabled":false,"rental_uris":{"android":"levelo://app?vid=687269d2-e082-4930-b7b6-db76459f0cad","ios":"levelo://app?vid=687269d2-e082-4930-b7b6-db76459f0cad"},"vehicle_type_id":"4","last_reported":1703218134,"current_range_meters":8000,"station_id":"ce4bhq92rcd13ifvqhjg","pricing_plan_id":"free"},{"bike_id":"dfdadb00-295f-4147-bb7b-992e830130a9","system_id":"levelo_inurba_marseille","lat":43.323464,"lon":5.406297,"is_reserved":false,"is_disabled":false,"rental_uris":{"android":"levelo://app?vid=dfdadb00-295f-4147-bb7b-992e830130a9","ios":"levelo://app?vid=dfdadb00-295f-4147-bb7b-992e830130a9"},"vehicle_type_id":"4","last_reported":1703218134,"current_range_meters":31200,"station_id":"ce4bhq92rcd13ifvqhjg","pricing_plan_id":"free"},{"bike_id":"aa1bea3e-ff5f-4c49-a630-426ec3e7598d","system_id":"levelo_inurba_marseille","lat":43.323464,"lon":5.406297,"is_reserved":false,"is_disabled":false,"rental_uris":{"android":"levelo://app?vid=aa1bea3e-ff5f-4c49-a630-426ec3e7598d","ios":"levelo://app?vid=aa1bea3e-ff5f-4c49-a630-426ec3e7598d"},"vehicle_type_id":"4","last_reported":1703218134,"current_range_meters":31200,"station_id":"ce4bhq92rcd13ifvqhjg","pricing_plan_id":"free"},{"bike_id":"916bb8f9-cc67-4ec0-ba61-938bf0e7e5f3","system_id":"levelo_inurba_marseille","lat":43.288501,"lon":5.393087,"is_reserved":false,"is_disabled":false,"rental_uris":{"android":"levelo://app?vid=916bb8f9-cc67-4ec0-ba61-938bf0e7e5f3","ios":"levelo://app?vid=916bb8f9-cc67-4ec0-ba61-938bf0e7e5f3"},"vehicle_type_id":"4","last_reported":1703218134,"current_range_meters":25600,"station_id":"ce4bh2p2rcd13ifvqdi0","pricing_plan_id":"free"},{"bike_id":"184516a7-8044-4c17-afdb-1b2fcaab9723","system_id":"levelo_inurba_marseille","lat":43.288497,"lon":5.393089,"is_reserved":false,"is_disabled":false,"rental_uris":{"android":"levelo://app?vid=184516a7-8044-4c17-afdb-1b2fcaab9723","ios":"levelo://app?vid=184516a7-8044-4c17-afdb-1b2fcaab9723"},"vehicle_type_id":"4","last_reported":1703218134,"current_range_meters":30400,"station_id":"ce4bh2p2rcd13ifvqdi0","pricing_plan_id":"free"},{"bike_id":"06c8bb8e-756c-44fe-bac3-bdeaffa885c7","system_id":"levelo_inurba_marseille","lat":43.283494,"lon":5.380945,"is_reserved":false,"is_disabled":false,"rental_uris":{"android":"levelo://app?vid=06c8bb8e-756c-44fe-bac3-bdeaffa885c7","ios":"levelo://app?vid=06c8bb8e-756c-44fe-bac3-bdeaffa885c7"},"vehicle_type_id":"4","last_reported":1703218134,"current_range_meters":28400,"station_id":"ce4bh412rcd13ifvqdr0","pricing_plan_id":"free"},{"bike_id":"5b7d3c04-14dd-4b6d-9e48-647a18e2b43a","system_id":"levelo_inurba_marseille","lat":43.283498,"lon":5.380948,"is_reserved":false,"is_disabled":false,"rental_uris":{"android":"levelo://app?vid=5b7d3c04-14dd-4b6d-9e48-647a18e2b43a","ios":"levelo://app?vid=5b7d3c04-14dd-4b6d-9e48-647a18e2b43a"},"vehicle_type_id":"4","last_reported":1703218134,"current_range_meters":31200,"station_id":"ce4bh412rcd13ifvqdr0","pricing_plan_id":"free"},{"bike_id":"d56a2764-677e-4209-adfa-b8c19fb45def","system_id":"levelo_inurba_marseille","lat":43.32404,"lon":5.4066,"is_reserved":false,"is_disabled":false,"rental_uris":{"android":"levelo://app?vid=d56a2764-677e-4209-adfa-b8c19fb45def","ios":"levelo://app?vid=d56a2764-677e-4209-adfa-b8c19fb45def"},"vehicle_type_id":"4","last_reported":1703218134,"current_range_meters":15200,"station_id":"","pricing_plan_id":"free"},{"bike_id":"0f42eedd-bd33-445f-91fc-4e7504a96eb4","system_id":"levelo_inurba_marseille","lat":43.324167,"lon":5.40707,"is_reserved":false,"is_disabled":false,"rental_uris":{"android":"levelo://app?vid=0f42eedd-bd33-445f-91fc-4e7504a96eb4","ios":"levelo://app?vid=0f42eedd-bd33-445f-91fc-4e7504a96eb4"},"vehicle_type_id":"4","last_reported":1703218134,"current_range_meters":14400,"station_id":"","pricing_plan_id":"free"},{"bike_id":"1035d818-fdf3-449a-9258-0bce173637c6","system_id":"levelo_inurba_marseille","lat":43.29156,"lon":5.40043,"is_reserved":false,"is_disabled":false,"rental_uris":{"android":"levelo://app?vid=1035d818-fdf3-449a-9258-0bce173637c6","ios":"levelo://app?vid=1035d818-fdf3-449a-9258-0bce173637c6"},"vehicle_type_id":"4","last_reported":1703218134,"current_range_meters":20000,"station_id":"","pricing_plan_id":"free"},{"bike_id":"e8670786-4acd-4cb9-9469-2945e800a870","system_id":"levelo_inurba_marseille","lat":43.283502,"lon":5.386471,"is_reserved":false,"is_disabled":false,"rental_uris":{"android":"levelo://app?vid=e8670786-4acd-4cb9-9469-2945e800a870","ios":"levelo://app?vid=e8670786-4acd-4cb9-9469-2945e800a870"},"vehicle_type_id":"4","last_reported":1703218134,"current_range_meters":31200,"station_id":"ce4bh492rcd13ifvqdvg","pricing_plan_id":"free"},{"bike_id":"30eba8f1-4cfb-422c-9a92-429e5d9c1aa6","system_id":"levelo_inurba_marseille","lat":43.282744,"lon":5.350533,"is_reserved":false,"is_disabled":false,"rental_uris":{"android":"levelo://app?vid=30eba8f1-4cfb-422c-9a92-429e5d9c1aa6","ios":"levelo://app?vid=30eba8f1-4cfb-422c-9a92-429e5d9c1aa6"},"vehicle_type_id":"4","last_reported":1703218134,"current_range_meters":28000,"station_id":"ce4bhbp2rcd13ifvqerg","pricing_plan_id":"free"},{"bike_id":"90b26108-4dd8-43f2-a4e1-3cf57f5e6f6d","system_id":"levelo_inurba_marseille","lat":43.28039,"lon":5.369297,"is_reserved":false,"is_disabled":false,"rental_uris":{"android":"levelo://app?vid=90b26108-4dd8-43f2-a4e1-3cf57f5e6f6d","ios":"levelo://app?vid=90b26108-4dd8-43f2-a4e1-3cf57f5e6f6d"},"vehicle_type_id":"4","last_reported":1703218134,"current_range_meters":28800,"station_id":"ce4bha12rcd13ifvqef0","pricing_plan_id":"free"},{"bike_id":"c1072dfc-cc01-4d50-985f-746096c75bf0","system_id":"levelo_inurba_marseille","lat":43.282744,"lon":5.350533,"is_reserved":false,"is_disabled":false,"rental_uris":{"android":"levelo://app?vid=c1072dfc-cc01-4d50-985f-746096c75bf0","ios":"levelo://app?vid=c1072dfc-cc01-4d50-985f-746096c75bf0"},"vehicle_type_id":"4","last_reported":1703218134,"current_range_meters":22000,"station_id":"ce4bhbp2rcd13ifvqerg","pricing_plan_id":"free"},{"bike_id":"f24801b3-32f7-411d-9c4f-6cb0ef3fe5e7","system_id":"levelo_inurba_marseille","lat":43.28039,"lon":5.369297,"is_reserved":false,"is_disabled":false,"rental_uris":{"android":"levelo://app?vid=f24801b3-32f7-411d-9c4f-6cb0ef3fe5e7","ios":"levelo://app?vid=f24801b3-32f7-411d-9c4f-6cb0ef3fe5e7"},"vehicle_type_id":"4","last_reported":1703218134,"current_range_meters":28000,"station_id":"ce4bha12rcd13ifvqef0","pricing_plan_id":"free"},{"bike_id":"d455de63-4ee9-4350-af98-c8f411895641","system_id":"levelo_inurba_marseille","lat":43.28039,"lon":5.369297,"is_reserved":false,"is_disabled":false,"rental_uris":{"android":"levelo://app?vid=d455de63-4ee9-4350-af98-c8f411895641","ios":"levelo://app?vid=d455de63-4ee9-4350-af98-c8f411895641"},"vehicle_type_id":"4","last_reported":1703218134,"current_range_meters":31200,"station_id":"ce4bha12rcd13ifvqef0","pricing_plan_id":"free"},{"bike_id":"65cc50fe-2134-4b29-bb15-9a4245357cdd","system_id":"levelo_inurba_marseille","lat":43.280382,"lon":5.369291,"is_reserved":false,"is_disabled":false,"rental_uris":{"android":"levelo://app?vid=65cc50fe-2134-4b29-bb15-9a4245357cdd","ios":"levelo://app?vid=65cc50fe-2134-4b29-bb15-9a4245357cdd"},"vehicle_type_id":"4","last_reported":1703218134,"current_range_meters":29600,"station_id":"ce4bha12rcd13ifvqef0","pricing_plan_id":"free"},{"bike_id":"627ee24a-ccdb-420e-9d05-bfb5e49c7be0","system_id":"levelo_inurba_marseille","lat":43.29041,"lon":5.399634,"is_reserved":false,"is_disabled":false,"rental_uris":{"android":"levelo://app?vid=627ee24a-ccdb-420e-9d05-bfb5e49c7be0","ios":"levelo://app?vid=627ee24a-ccdb-420e-9d05-bfb5e49c7be0"},"vehicle_type_id":"4","last_reported":1703218134,"current_range_meters":31200,"station_id":"ce4bh392rcd13ifvqdm0","pricing_plan_id":"free"},{"bike_id":"876d1196-627e-4c5d-a394-19507e7dedc6","system_id":"levelo_inurba_marseille","lat":43.296263,"lon":5.40601,"is_reserved":false,"is_disabled":false,"rental_uris":{"android":"levelo://app?vid=876d1196-627e-4c5d-a394-19507e7dedc6","ios":"levelo://app?vid=876d1196-627e-4c5d-a394-19507e7dedc6"},"vehicle_type_id":"4","last_reported":1703218134,"current_range_meters":30400,"station_id":"ce4bh0h2rcd13ifvqd60","pricing_plan_id":"free"},{"bike_id":"3896b5b1-e378-47b2-a62d-9d7c1c9b9f3f","system_id":"levelo_inurba_marseille","lat":43.281044,"lon":5.378308,"is_reserved":false,"is_disabled":false,"rental_uris":{"android":"levelo://app?vid=3896b5b1-e378-47b2-a62d-9d7c1c9b9f3f","ios":"levelo://app?vid=3896b5b1-e378-47b2-a62d-9d7c1c9b9f3f"},"vehicle_type_id":"4","last_reported":1703218134,"current_range_meters":29200,"station_id":"ce4bha12rcd13ifvqee0","pricing_plan_id":"free"},{"bike_id":"a30705de-d6ba-47c3-830b-c32bd6ed473a","system_id":"levelo_inurba_marseille","lat":43.281217,"lon":5.381964,"is_reserved":false,"is_disabled":false,"rental_uris":{"android":"levelo://app?vid=a30705de-d6ba-47c3-830b-c32bd6ed473a","ios":"levelo://app?vid=a30705de-d6ba-47c3-830b-c32bd6ed473a"},"vehicle_type_id":"4","last_reported":1703218134,"current_range_meters":18000,"station_id":"","pricing_plan_id":"free"},{"bike_id":"d2d45f69-ec09-4579-bdf4-50d5dde712a4","system_id":"levelo_inurba_marseille","lat":43.284462,"lon":5.392121,"is_reserved":false,"is_disabled":false,"rental_uris":{"android":"levelo://app?vid=d2d45f69-ec09-4579-bdf4-50d5dde712a4","ios":"levelo://app?vid=d2d45f69-ec09-4579-bdf4-50d5dde712a4"},"vehicle_type_id":"4","last_reported":1703218134,"current_range_meters":28400,"station_id":"ce4bhoh2rcd13ifvqh5g","pricing_plan_id":"free"},{"bike_id":"4276626f-aa17-462c-9b69-7eb3b9e3b19a","system_id":"levelo_inurba_marseille","lat":43.284462,"lon":5.392121,"is_reserved":false,"is_disabled":false,"rental_uris":{"android":"levelo://app?vid=4276626f-aa17-462c-9b69-7eb3b9e3b19a","ios":"levelo://app?vid=4276626f-aa17-462c-9b69-7eb3b9e3b19a"},"vehicle_type_id":"4","last_reported":1703218134,"current_range_meters":26000,"station_id":"ce4bhoh2rcd13ifvqh5g","pricing_plan_id":"free"},{"bike_id":"10b28ae8-9e00-4d65-8d33-c37a41701599","system_id":"levelo_inurba_marseille","lat":43.285742,"lon":5.395004,"is_reserved":false,"is_disabled":false,"rental_uris":{"android":"levelo://app?vid=10b28ae8-9e00-4d65-8d33-c37a41701599","ios":"levelo://app?vid=10b28ae8-9e00-4d65-8d33-c37a41701599"},"vehicle_type_id":"4","last_reported":1703218134,"current_range_meters":9200,"station_id":"ce4bh292rcd13ifvqdg0","pricing_plan_id":"free"},{"bike_id":"447bcda2-9e3a-4e03-b434-d094598bff81","system_id":"levelo_inurba_marseille","lat":43.28573,"lon":5.394992,"is_reserved":false,"is_disabled":false,"rental_uris":{"android":"levelo://app?vid=447bcda2-9e3a-4e03-b434-d094598bff81","ios":"levelo://app?vid=447bcda2-9e3a-4e03-b434-d094598bff81"},"vehicle_type_id":"4","last_reported":1703218134,"current_range_meters":0,"station_id":"ce4bh292rcd13ifvqdg0","pricing_plan_id":"free"},{"bike_id":"8e916718-8e97-4602-92d8-836b75f84880","system_id":"levelo_inurba_marseille","lat":43.326605,"lon":5.409903,"is_reserved":false,"is_disabled":false,"rental_uris":{"android":"levelo://app?vid=8e916718-8e97-4602-92d8-836b75f84880","ios":"levelo://app?vid=8e916718-8e97-4602-92d8-836b75f84880"},"vehicle_type_id":"4","last_reported":1703218134,"current_range_meters":30400,"station_id":"ce4bhpp2rcd13ifvqhgg","pricing_plan_id":"free"},{"bike_id":"955a8226-aa7c-4529-904f-0c75bf6499b1","system_id":"levelo_inurba_marseille","lat":43.304143,"lon":5.412763,"is_reserved":false,"is_disabled":false,"rental_uris":{"android":"levelo://app?vid=955a8226-aa7c-4529-904f-0c75bf6499b1","ios":"levelo://app?vid=955a8226-aa7c-4529-904f-0c75bf6499b1"},"vehicle_type_id":"4","last_reported":1703218134,"current_range_meters":31200,"station_id":"ce4bhop2rcd13ifvqh8g","pricing_plan_id":"free"},{"bike_id":"f6aadb07-2b5c-43ee-ac41-c03e01142052","system_id":"levelo_inurba_marseille","lat":43.304188,"lon":5.412904,"is_reserved":false,"is_disabled":false,"rental_uris":{"android":"levelo://app?vid=f6aadb07-2b5c-43ee-ac41-c03e01142052","ios":"levelo://app?vid=f6aadb07-2b5c-43ee-ac41-c03e01142052"},"vehicle_type_id":"4","last_reported":1703218134,"current_range_meters":30800,"station_id":"ce4bhop2rcd13ifvqh8g","pricing_plan_id":"free"},{"bike_id":"7f302279-6c81-430d-b83b-d444e2cd8d7d","system_id":"levelo_inurba_marseille","lat":43.279145,"lon":5.380037,"is_reserved":false,"is_disabled":false,"rental_uris":{"android":"levelo://app?vid=7f302279-6c81-430d-b83b-d444e2cd8d7d","ios":"levelo://app?vid=7f302279-6c81-430d-b83b-d444e2cd8d7d"},"vehicle_type_id":"4","last_reported":1703218134,"current_range_meters":15600,"station_id":"ce4bhf92rcd13ifvqf50","pricing_plan_id":"free"},{"bike_id":"293d9a93-c09e-4c70-bb8c-3499c5a3a700","system_id":"levelo_inurba_marseille","lat":43.279087,"lon":5.380114,"is_reserved":false,"is_disabled":false,"rental_uris":{"android":"levelo://app?vid=293d9a93-c09e-4c70-bb8c-3499c5a3a700","ios":"levelo://app?vid=293d9a93-c09e-4c70-bb8c-3499c5a3a700"},"vehicle_type_id":"4","last_reported":1703218134,"current_range_meters":0,"station_id":"ce4bhf92rcd13ifvqf50","pricing_plan_id":"free"},{"bike_id":"0ebf4172-fc00-4b21-8981-ef3779a8e29c","system_id":"levelo_inurba_marseille","lat":43.279087,"lon":5.380114,"is_reserved":false,"is_disabled":false,"rental_uris":{"android":"levelo://app?vid=0ebf4172-fc00-4b21-8981-ef3779a8e29c","ios":"levelo://app?vid=0ebf4172-fc00-4b21-8981-ef3779a8e29c"},"vehicle_type_id":"4","last_reported":1703218134,"current_range_meters":31200,"station_id":"ce4bhf92rcd13ifvqf50","pricing_plan_id":"free"},{"bike_id":"7fc96cd8-fefb-411e-af0a-66be176d76cf","system_id":"levelo_inurba_marseille","lat":43.287154,"lon":5.399979,"is_reserved":false,"is_disabled":false,"rental_uris":{"android":"levelo://app?vid=7fc96cd8-fefb-411e-af0a-66be176d76cf","ios":"levelo://app?vid=7fc96cd8-fefb-411e-af0a-66be176d76cf"},"vehicle_type_id":"4","last_reported":1703218134,"current_range_meters":9200,"station_id":"ce4bho92rcd13ifvqh3g","pricing_plan_id":"free"},{"bike_id":"8cbe0d6a-8ef4-4658-8bc9-c24e9404d940","system_id":"levelo_inurba_marseille","lat":43.287154,"lon":5.399979,"is_reserved":false,"is_disabled":false,"rental_uris":{"android":"levelo://app?vid=8cbe0d6a-8ef4-4658-8bc9-c24e9404d940","ios":"levelo://app?vid=8cbe0d6a-8ef4-4658-8bc9-c24e9404d940"},"vehicle_type_id":"4","last_reported":1703218134,"current_range_meters":28400,"station_id":"ce4bho92rcd13ifvqh3g","pricing_plan_id":"free"},{"bike_id":"a8b042bc-e039-4100-8b4b-c360dfe4140d","system_id":"levelo_inurba_marseille","lat":43.287154,"lon":5.399979,"is_reserved":false,"is_disabled":false,"rental_uris":{"android":"levelo://app?vid=a8b042bc-e039-4100-8b4b-c360dfe4140d","ios":"levelo://app?vid=a8b042bc-e039-4100-8b4b-c360dfe4140d"},"vehicle_type_id":"4","last_reported":1703218134,"current_range_meters":32000,"station_id":"ce4bho92rcd13ifvqh3g","pricing_plan_id":"free"},{"bike_id":"51b476fb-84ac-4b50-9df3-addadec8e8e7","system_id":"levelo_inurba_marseille","lat":43.287154,"lon":5.399979,"is_reserved":false,"is_disabled":false,"rental_uris":{"android":"levelo://app?vid=51b476fb-84ac-4b50-9df3-addadec8e8e7","ios":"levelo://app?vid=51b476fb-84ac-4b50-9df3-addadec8e8e7"},"vehicle_type_id":"4","last_reported":1703218134,"current_range_meters":31200,"station_id":"ce4bho92rcd13ifvqh3g","pricing_plan_id":"free"},{"bike_id":"48333063-39d2-4787-9182-2e3d7215c22a","system_id":"levelo_inurba_marseille","lat":43.28702,"lon":5.399772,"is_reserved":false,"is_disabled":false,"rental_uris":{"android":"levelo://app?vid=48333063-39d2-4787-9182-2e3d7215c22a","ios":"levelo://app?vid=48333063-39d2-4787-9182-2e3d7215c22a"},"vehicle_type_id":"4","last_reported":1703218134,"current_range_meters":14000,"station_id":"ce4bho92rcd13ifvqh3g","pricing_plan_id":"free"},{"bike_id":"7c826c5f-69c1-439a-9141-8afcf495145c","system_id":"levelo_inurba_marseille","lat":43.287154,"lon":5.399979,"is_reserved":false,"is_disabled":false,"rental_uris":{"android":"levelo://app?vid=7c826c5f-69c1-439a-9141-8afcf495145c","ios":"levelo://app?vid=7c826c5f-69c1-439a-9141-8afcf495145c"},"vehicle_type_id":"4","last_reported":1703218134,"current_range_meters":16400,"station_id":"ce4bho92rcd13ifvqh3g","pricing_plan_id":"free"},{"bike_id":"170ab2bf-d29f-4d5f-982a-a6ad40f685fd","system_id":"levelo_inurba_marseille","lat":43.286053,"lon":5.399978,"is_reserved":false,"is_disabled":false,"rental_uris":{"android":"levelo://app?vid=170ab2bf-d29f-4d5f-982a-a6ad40f685fd","ios":"levelo://app?vid=170ab2bf-d29f-4d5f-982a-a6ad40f685fd"},"vehicle_type_id":"4","last_reported":1703218134,"current_range_meters":14400,"station_id":"","pricing_plan_id":"free"},{"bike_id":"d421cad1-6533-4885-9cde-5b8f0aa16d67","system_id":"levelo_inurba_marseille","lat":43.299577,"lon":5.413277,"is_reserved":false,"is_disabled":false,"rental_uris":{"android":"levelo://app?vid=d421cad1-6533-4885-9cde-5b8f0aa16d67","ios":"levelo://app?vid=d421cad1-6533-4885-9cde-5b8f0aa16d67"},"vehicle_type_id":"4","last_reported":1703218134,"current_range_meters":6800,"station_id":"ce4bhp12rcd13ifvqh9g","pricing_plan_id":"free"},{"bike_id":"a25e6b68-9275-4e50-93e5-3e1aa0cfe69d","system_id":"levelo_inurba_marseille","lat":43.292569,"lon":5.409107,"is_reserved":false,"is_disabled":false,"rental_uris":{"android":"levelo://app?vid=a25e6b68-9275-4e50-93e5-3e1aa0cfe69d","ios":"levelo://app?vid=a25e6b68-9275-4e50-93e5-3e1aa0cfe69d"},"vehicle_type_id":"4","last_reported":1703218134,"current_range_meters":21600,"station_id":"ce4bh192rcd13ifvqdc0","pricing_plan_id":"free"},{"bike_id":"420c843b-9e59-465f-a8d9-bfa04a83bde3","system_id":"levelo_inurba_marseille","lat":43.29258,"lon":5.409105,"is_reserved":false,"is_disabled":false,"rental_uris":{"android":"levelo://app?vid=420c843b-9e59-465f-a8d9-bfa04a83bde3","ios":"levelo://app?vid=420c843b-9e59-465f-a8d9-bfa04a83bde3"},"vehicle_type_id":"4","last_reported":1703218134,"current_range_meters":31200,"station_id":"ce4bh192rcd13ifvqdc0","pricing_plan_id":"free"},{"bike_id":"52313c7c-595f-4dc5-90aa-c8ada36d131c","system_id":"levelo_inurba_marseille","lat":43.292549,"lon":5.409106,"is_reserved":false,"is_disabled":false,"rental_uris":{"android":"levelo://app?vid=52313c7c-595f-4dc5-90aa-c8ada36d131c","ios":"levelo://app?vid=52313c7c-595f-4dc5-90aa-c8ada36d131c"},"vehicle_type_id":"4","last_reported":1703218134,"current_range_meters":28400,"station_id":"ce4bh192rcd13ifvqdc0","pricing_plan_id":"free"},{"bike_id":"f5c19d8f-880d-4175-8818-700dfeda495a","system_id":"levelo_inurba_marseille","lat":43.29253,"lon":5.40909,"is_reserved":false,"is_disabled":false,"rental_uris":{"android":"levelo://app?vid=f5c19d8f-880d-4175-8818-700dfeda495a","ios":"levelo://app?vid=f5c19d8f-880d-4175-8818-700dfeda495a"},"vehicle_type_id":"4","last_reported":1703218134,"current_range_meters":30800,"station_id":"ce4bh192rcd13ifvqdc0","pricing_plan_id":"free"},{"bike_id":"a13602f1-bd1c-4930-88ca-c8033fef8a2d","system_id":"levelo_inurba_marseille","lat":43.292566,"lon":5.409126,"is_reserved":false,"is_disabled":false,"rental_uris":{"android":"levelo://app?vid=a13602f1-bd1c-4930-88ca-c8033fef8a2d","ios":"levelo://app?vid=a13602f1-bd1c-4930-88ca-c8033fef8a2d"},"vehicle_type_id":"4","last_reported":1703218134,"current_range_meters":30000,"station_id":"ce4bh192rcd13ifvqdc0","pricing_plan_id":"free"},{"bike_id":"5bf02f90-6b2e-4be9-9752-58a32673d6f7","system_id":"levelo_inurba_marseille","lat":43.29259,"lon":5.40915,"is_reserved":false,"is_disabled":false,"rental_uris":{"android":"levelo://app?vid=5bf02f90-6b2e-4be9-9752-58a32673d6f7","ios":"levelo://app?vid=5bf02f90-6b2e-4be9-9752-58a32673d6f7"},"vehicle_type_id":"4","last_reported":1703218134,"current_range_meters":31200,"station_id":"ce4bh192rcd13ifvqdc0","pricing_plan_id":"free"},{"bike_id":"9f8c118c-2db2-45d9-960d-052fa3d1bccd","system_id":"levelo_inurba_marseille","lat":43.27618,"lon":5.361009,"is_reserved":false,"is_disabled":false,"rental_uris":{"android":"levelo://app?vid=9f8c118c-2db2-45d9-960d-052fa3d1bccd","ios":"levelo://app?vid=9f8c118c-2db2-45d9-960d-052fa3d1bccd"},"vehicle_type_id":"4","last_reported":1703218134,"current_range_meters":30800,"station_id":"ce4bgj92rcd13ifvqbe0","pricing_plan_id":"free"},{"bike_id":"8dd69acf-c793-447a-8783-89367ca6bd4c","system_id":"levelo_inurba_marseille","lat":43.280784,"lon":5.396622,"is_reserved":false,"is_disabled":false,"rental_uris":{"android":"levelo://app?vid=8dd69acf-c793-447a-8783-89367ca6bd4c","ios":"levelo://app?vid=8dd69acf-c793-447a-8783-89367ca6bd4c"},"vehicle_type_id":"4","last_reported":1703218134,"current_range_meters":27600,"station_id":"ce4bho12rcd13ifvqh2g","pricing_plan_id":"free"},{"bike_id":"ed47a379-ff26-4271-8a21-5d800d0ed53a","system_id":"levelo_inurba_marseille","lat":43.280784,"lon":5.396622,"is_reserved":false,"is_disabled":false,"rental_uris":{"android":"levelo://app?vid=ed47a379-ff26-4271-8a21-5d800d0ed53a","ios":"levelo://app?vid=ed47a379-ff26-4271-8a21-5d800d0ed53a"},"vehicle_type_id":"4","last_reported":1703218134,"current_range_meters":28000,"station_id":"ce4bho12rcd13ifvqh2g","pricing_plan_id":"free"},{"bike_id":"008082cd-9495-485f-a371-4910737e24d7","system_id":"levelo_inurba_marseille","lat":43.280784,"lon":5.396622,"is_reserved":false,"is_disabled":false,"rental_uris":{"android":"levelo://app?vid=008082cd-9495-485f-a371-4910737e24d7","ios":"levelo://app?vid=008082cd-9495-485f-a371-4910737e24d7"},"vehicle_type_id":"4","last_reported":1703218134,"current_range_meters":27200,"station_id":"ce4bho12rcd13ifvqh2g","pricing_plan_id":"free"},{"bike_id":"9cef12ab-b4b5-4181-96ad-1f5b5ea92799","system_id":"levelo_inurba_marseille","lat":43.278401,"lon":5.392152,"is_reserved":false,"is_disabled":false,"rental_uris":{"android":"levelo://app?vid=9cef12ab-b4b5-4181-96ad-1f5b5ea92799","ios":"levelo://app?vid=9cef12ab-b4b5-4181-96ad-1f5b5ea92799"},"vehicle_type_id":"4","last_reported":1703218134,"current_range_meters":26000,"station_id":"ce4bhjp2rcd13ifvqga0","pricing_plan_id":"free"},{"bike_id":"12b97e4b-20a8-47cb-967e-242f3287859e","system_id":"levelo_inurba_marseille","lat":43.275625,"lon":5.384392,"is_reserved":false,"is_disabled":false,"rental_uris":{"android":"levelo://app?vid=12b97e4b-20a8-47cb-967e-242f3287859e","ios":"levelo://app?vid=12b97e4b-20a8-47cb-967e-242f3287859e"},"vehicle_type_id":"4","last_reported":1703218134,"current_range_meters":15600,"station_id":"ce4bhh92rcd13ifvqfi0","pricing_plan_id":"free"},{"bike_id":"e10cc150-4041-48d5-aaa1-023406c60c29","system_id":"levelo_inurba_marseille","lat":43.273613,"lon":5.362705,"is_reserved":false,"is_disabled":false,"rental_uris":{"android":"levelo://app?vid=e10cc150-4041-48d5-aaa1-023406c60c29","ios":"levelo://app?vid=e10cc150-4041-48d5-aaa1-023406c60c29"},"vehicle_type_id":"4","last_reported":1703218134,"current_range_meters":13200,"station_id":"ce4bhbh2rcd13ifvqeo0","pricing_plan_id":"free"},{"bike_id":"f1edc802-0ccc-4821-9ca7-279093c88d45","system_id":"levelo_inurba_marseille","lat":43.336134,"lon":5.410341,"is_reserved":false,"is_disabled":false,"rental_uris":{"android":"levelo://app?vid=f1edc802-0ccc-4821-9ca7-279093c88d45","ios":"levelo://app?vid=f1edc802-0ccc-4821-9ca7-279093c88d45"},"vehicle_type_id":"4","last_reported":1703218134,"current_range_meters":31600,"station_id":"ce4bhqh2rcd13ifvqhmg","pricing_plan_id":"free"},{"bike_id":"f9931765-2f0c-4e9d-bc9b-e6001c80cafb","system_id":"levelo_inurba_marseille","lat":43.336148,"lon":5.410349,"is_reserved":false,"is_disabled":false,"rental_uris":{"android":"levelo://app?vid=f9931765-2f0c-4e9d-bc9b-e6001c80cafb","ios":"levelo://app?vid=f9931765-2f0c-4e9d-bc9b-e6001c80cafb"},"vehicle_type_id":"4","last_reported":1703218134,"current_range_meters":5200,"station_id":"ce4bhqh2rcd13ifvqhmg","pricing_plan_id":"free"},{"bike_id":"3a1ebf0f-c579-45ad-ab89-953ea01137e2","system_id":"levelo_inurba_marseille","lat":43.336134,"lon":5.410341,"is_reserved":false,"is_disabled":false,"rental_uris":{"android":"levelo://app?vid=3a1ebf0f-c579-45ad-ab89-953ea01137e2","ios":"levelo://app?vid=3a1ebf0f-c579-45ad-ab89-953ea01137e2"},"vehicle_type_id":"4","last_reported":1703218134,"current_range_meters":27200,"station_id":"ce4bhqh2rcd13ifvqhmg","pricing_plan_id":"free"},{"bike_id":"c12de7e8-a347-40e6-8797-e98d6d1cb1b5","system_id":"levelo_inurba_marseille","lat":43.336148,"lon":5.410349,"is_reserved":false,"is_disabled":false,"rental_uris":{"android":"levelo://app?vid=c12de7e8-a347-40e6-8797-e98d6d1cb1b5","ios":"levelo://app?vid=c12de7e8-a347-40e6-8797-e98d6d1cb1b5"},"vehicle_type_id":"4","last_reported":1703218134,"current_range_meters":19200,"station_id":"ce4bhqh2rcd13ifvqhmg","pricing_plan_id":"free"},{"bike_id":"b660cc7b-2c21-4cb0-9649-e4ece203b9d9","system_id":"levelo_inurba_marseille","lat":43.276769,"lon":5.388787,"is_reserved":false,"is_disabled":false,"rental_uris":{"android":"levelo://app?vid=b660cc7b-2c21-4cb0-9649-e4ece203b9d9","ios":"levelo://app?vid=b660cc7b-2c21-4cb0-9649-e4ece203b9d9"},"vehicle_type_id":"4","last_reported":1703218134,"current_range_meters":25200,"station_id":"ce4bhi12rcd13ifvqfo0","pricing_plan_id":"free"},{"bike_id":"b3b1917b-e8fd-4337-a586-ebe5889634cc","system_id":"levelo_inurba_marseille","lat":43.279952,"lon":5.400085,"is_reserved":false,"is_disabled":false,"rental_uris":{"android":"levelo://app?vid=b3b1917b-e8fd-4337-a586-ebe5889634cc","ios":"levelo://app?vid=b3b1917b-e8fd-4337-a586-ebe5889634cc"},"vehicle_type_id":"4","last_reported":1703218134,"current_range_meters":31200,"station_id":"ce4bho92rcd13ifvqh4g","pricing_plan_id":"free"},{"bike_id":"498eff31-f366-4e6d-8222-0820a528cb33","system_id":"levelo_inurba_marseille","lat":43.317121,"lon":5.423936,"is_reserved":false,"is_disabled":false,"rental_uris":{"android":"levelo://app?vid=498eff31-f366-4e6d-8222-0820a528cb33","ios":"levelo://app?vid=498eff31-f366-4e6d-8222-0820a528cb33"},"vehicle_type_id":"4","last_reported":1703218134,"current_range_meters":21600,"station_id":"ce4bhp92rcd13ifvqhbg","pricing_plan_id":"free"},{"bike_id":"db97d23b-b358-42c7-9b7c-756cec040fbb","system_id":"levelo_inurba_marseille","lat":43.317121,"lon":5.423936,"is_reserved":false,"is_disabled":false,"rental_uris":{"android":"levelo://app?vid=db97d23b-b358-42c7-9b7c-756cec040fbb","ios":"levelo://app?vid=db97d23b-b358-42c7-9b7c-756cec040fbb"},"vehicle_type_id":"4","last_reported":1703218134,"current_range_meters":31200,"station_id":"ce4bhp92rcd13ifvqhbg","pricing_plan_id":"free"},{"bike_id":"0977aaba-47ca-49df-a05c-7255a2176bee","system_id":"levelo_inurba_marseille","lat":43.317121,"lon":5.423936,"is_reserved":false,"is_disabled":false,"rental_uris":{"android":"levelo://app?vid=0977aaba-47ca-49df-a05c-7255a2176bee","ios":"levelo://app?vid=0977aaba-47ca-49df-a05c-7255a2176bee"},"vehicle_type_id":"4","last_reported":1703218134,"current_range_meters":18000,"station_id":"ce4bhp92rcd13ifvqhbg","pricing_plan_id":"free"},{"bike_id":"9dc533da-9815-4811-adf2-9fdd3dab3c79","system_id":"levelo_inurba_marseille","lat":43.310785,"lon":5.424305,"is_reserved":false,"is_disabled":false,"rental_uris":{"android":"levelo://app?vid=9dc533da-9815-4811-adf2-9fdd3dab3c79","ios":"levelo://app?vid=9dc533da-9815-4811-adf2-9fdd3dab3c79"},"vehicle_type_id":"4","last_reported":1703218134,"current_range_meters":25600,"station_id":"ce4bhp92rcd13ifvqhag","pricing_plan_id":"free"},{"bike_id":"7ada0439-e02f-43f4-a65c-6cdbad12b2d5","system_id":"levelo_inurba_marseille","lat":43.317121,"lon":5.423936,"is_reserved":false,"is_disabled":false,"rental_uris":{"android":"levelo://app?vid=7ada0439-e02f-43f4-a65c-6cdbad12b2d5","ios":"levelo://app?vid=7ada0439-e02f-43f4-a65c-6cdbad12b2d5"},"vehicle_type_id":"4","last_reported":1703218134,"current_range_meters":28800,"station_id":"ce4bhp92rcd13ifvqhbg","pricing_plan_id":"free"},{"bike_id":"67c95ba1-3b1b-4724-b685-672be7a82fce","system_id":"levelo_inurba_marseille","lat":43.317121,"lon":5.423936,"is_reserved":false,"is_disabled":false,"rental_uris":{"android":"levelo://app?vid=67c95ba1-3b1b-4724-b685-672be7a82fce","ios":"levelo://app?vid=67c95ba1-3b1b-4724-b685-672be7a82fce"},"vehicle_type_id":"4","last_reported":1703218134,"current_range_meters":3600,"station_id":"ce4bhp92rcd13ifvqhbg","pricing_plan_id":"free"},{"bike_id":"097bc4e0-b542-4537-a4e9-cb2bbc6d2077","system_id":"levelo_inurba_marseille","lat":43.340804,"lon":5.410219,"is_reserved":false,"is_disabled":false,"rental_uris":{"android":"levelo://app?vid=097bc4e0-b542-4537-a4e9-cb2bbc6d2077","ios":"levelo://app?vid=097bc4e0-b542-4537-a4e9-cb2bbc6d2077"},"vehicle_type_id":"4","last_reported":1703218134,"current_range_meters":31200,"station_id":"ce4bhqh2rcd13ifvqhlg","pricing_plan_id":"free"},{"bike_id":"8254fd32-b9d4-49df-ab7e-cfea12d046d7","system_id":"levelo_inurba_marseille","lat":43.30415,"lon":5.42535,"is_reserved":false,"is_disabled":false,"rental_uris":{"android":"levelo://app?vid=8254fd32-b9d4-49df-ab7e-cfea12d046d7","ios":"levelo://app?vid=8254fd32-b9d4-49df-ab7e-cfea12d046d7"},"vehicle_type_id":"4","last_reported":1703218134,"current_range_meters":31200,"station_id":"","pricing_plan_id":"free"},{"bike_id":"739a80e5-6a03-4cb9-93d4-25312c98e712","system_id":"levelo_inurba_marseille","lat":43.304096,"lon":5.425385,"is_reserved":false,"is_disabled":false,"rental_uris":{"android":"levelo://app?vid=739a80e5-6a03-4cb9-93d4-25312c98e712","ios":"levelo://app?vid=739a80e5-6a03-4cb9-93d4-25312c98e712"},"vehicle_type_id":"4","last_reported":1703218134,"current_range_meters":29600,"station_id":"ce4bhoh2rcd13ifvqh6g","pricing_plan_id":"free"},{"bike_id":"a80c78b0-54bd-4c06-a456-7ff9cb5fb92c","system_id":"levelo_inurba_marseille","lat":43.295637,"lon":5.422751,"is_reserved":false,"is_disabled":false,"rental_uris":{"android":"levelo://app?vid=a80c78b0-54bd-4c06-a456-7ff9cb5fb92c","ios":"levelo://app?vid=a80c78b0-54bd-4c06-a456-7ff9cb5fb92c"},"vehicle_type_id":"4","last_reported":1703218134,"current_range_meters":10000,"station_id":"ce4bhph2rcd13ifvqhdg","pricing_plan_id":"free"},{"bike_id":"bc96446b-31f5-4313-822f-625edd6d0b52","system_id":"levelo_inurba_marseille","lat":43.295523,"lon":5.422926,"is_reserved":false,"is_disabled":false,"rental_uris":{"android":"levelo://app?vid=bc96446b-31f5-4313-822f-625edd6d0b52","ios":"levelo://app?vid=bc96446b-31f5-4313-822f-625edd6d0b52"},"vehicle_type_id":"4","last_reported":1703218134,"current_range_meters":25200,"station_id":"ce4bhph2rcd13ifvqhdg","pricing_plan_id":"free"},{"bike_id":"96484c65-8dd7-4167-a438-a7d837c6b7a7","system_id":"levelo_inurba_marseille","lat":43.295523,"lon":5.422926,"is_reserved":false,"is_disabled":false,"rental_uris":{"android":"levelo://app?vid=96484c65-8dd7-4167-a438-a7d837c6b7a7","ios":"levelo://app?vid=96484c65-8dd7-4167-a438-a7d837c6b7a7"},"vehicle_type_id":"4","last_reported":1703218134,"current_range_meters":31200,"station_id":"ce4bhph2rcd13ifvqhdg","pricing_plan_id":"free"},{"bike_id":"0454933a-5656-4345-852e-0e25afae89fb","system_id":"levelo_inurba_marseille","lat":43.295523,"lon":5.422926,"is_reserved":false,"is_disabled":false,"rental_uris":{"android":"levelo://app?vid=0454933a-5656-4345-852e-0e25afae89fb","ios":"levelo://app?vid=0454933a-5656-4345-852e-0e25afae89fb"},"vehicle_type_id":"4","last_reported":1703218134,"current_range_meters":28400,"station_id":"ce4bhph2rcd13ifvqhdg","pricing_plan_id":"free"},{"bike_id":"4ceb2552-471f-4db1-a87a-1979c2ee1faf","system_id":"levelo_inurba_marseille","lat":43.295511,"lon":5.422926,"is_reserved":false,"is_disabled":false,"rental_uris":{"android":"levelo://app?vid=4ceb2552-471f-4db1-a87a-1979c2ee1faf","ios":"levelo://app?vid=4ceb2552-471f-4db1-a87a-1979c2ee1faf"},"vehicle_type_id":"4","last_reported":1703218134,"current_range_meters":8400,"station_id":"ce4bhph2rcd13ifvqhdg","pricing_plan_id":"free"},{"bike_id":"9449eb80-d18a-481d-bf00-b32c1d52c065","system_id":"levelo_inurba_marseille","lat":43.295523,"lon":5.422926,"is_reserved":false,"is_disabled":false,"rental_uris":{"android":"levelo://app?vid=9449eb80-d18a-481d-bf00-b32c1d52c065","ios":"levelo://app?vid=9449eb80-d18a-481d-bf00-b32c1d52c065"},"vehicle_type_id":"4","last_reported":1703218134,"current_range_meters":5200,"station_id":"ce4bhph2rcd13ifvqhdg","pricing_plan_id":"free"},{"bike_id":"218ca4ab-a316-43a6-87cd-acfc23cd8e62","system_id":"levelo_inurba_marseille","lat":43.295523,"lon":5.422926,"is_reserved":false,"is_disabled":false,"rental_uris":{"android":"levelo://app?vid=218ca4ab-a316-43a6-87cd-acfc23cd8e62","ios":"levelo://app?vid=218ca4ab-a316-43a6-87cd-acfc23cd8e62"},"vehicle_type_id":"4","last_reported":1703218134,"current_range_meters":20400,"station_id":"ce4bhph2rcd13ifvqhdg","pricing_plan_id":"free"},{"bike_id":"7d800ac1-1b26-47dd-97c6-49cd89d9ab11","system_id":"levelo_inurba_marseille","lat":43.295511,"lon":5.422926,"is_reserved":false,"is_disabled":false,"rental_uris":{"android":"levelo://app?vid=7d800ac1-1b26-47dd-97c6-49cd89d9ab11","ios":"levelo://app?vid=7d800ac1-1b26-47dd-97c6-49cd89d9ab11"},"vehicle_type_id":"4","last_reported":1703218134,"current_range_meters":13200,"station_id":"ce4bhph2rcd13ifvqhdg","pricing_plan_id":"free"},{"bike_id":"23d13786-8601-4dce-a424-5d4a35dea444","system_id":"levelo_inurba_marseille","lat":43.295511,"lon":5.422926,"is_reserved":false,"is_disabled":false,"rental_uris":{"android":"levelo://app?vid=23d13786-8601-4dce-a424-5d4a35dea444","ios":"levelo://app?vid=23d13786-8601-4dce-a424-5d4a35dea444"},"vehicle_type_id":"4","last_reported":1703218134,"current_range_meters":17200,"station_id":"ce4bhph2rcd13ifvqhdg","pricing_plan_id":"free"},{"bike_id":"b55db1a0-b820-479b-9929-7610c21584c5","system_id":"levelo_inurba_marseille","lat":43.295511,"lon":5.422926,"is_reserved":false,"is_disabled":false,"rental_uris":{"android":"levelo://app?vid=b55db1a0-b820-479b-9929-7610c21584c5","ios":"levelo://app?vid=b55db1a0-b820-479b-9929-7610c21584c5"},"vehicle_type_id":"4","last_reported":1703218134,"current_range_meters":25200,"station_id":"ce4bhph2rcd13ifvqhdg","pricing_plan_id":"free"},