{"last_updated":1736306025,"ttl":60,"version":"2.2","data":{"bikes":[{"bike_id":"89421f62-06fd-4b68-bcb1-b94fd7ea6d26","system_id":"levelo_inurba_marseille","lat":43.32315,"lon":5.39008,"is_reserved":false,"is_disabled":false,"rental_uris":{"android":"levelo://app?vid=89421f62-06fd-4b68-bcb1-b94fd7ea6d26","ios":"levelo://app?vid=89421f62-06fd-4b68-bcb1-b94fd7ea6d26"},"vehicle_type_id":"4","last_reported":1736306026,"current_range_meters":19600,"station_id":"ce4bhqp2rcd13ifvqhog","pricing_plan_id":"cebpf4jnsgd1na2vs0mg"},{"bike_id":"e5028c33-9f8e-4ac3-a14c-e67e8c232bdb","system_id":"levelo_inurba_marseille","lat":43.27827,"lon":5.40714,"is_reserved":false,"is_disabled":false,"rental_uris":{"android":"levelo://app?vid=e5028c33-9f8e-4ac3-a14c-e67e8c232bdb","ios":"levelo://app?vid=e5028c33-9f8e-4ac3-a14c-e67e8c232bdb"},"vehicle_type_id":"4","last_reported":1736306026,"current_range_meters":28400,"station_id":"ce4bhnh2rcd13ifvqgtg","pricing_plan_id":"cebpf4jnsgd1na2vs0mg"},{"bike_id":"2cd7da98-beb8-4895-acea-89cb723504ca","system_id":"levelo_inurba_marseille","lat":43.28279,"lon":5.35065,"is_reserved":false,"is_disabled":false,"rental_uris":{"android":"levelo://app?vid=2cd7da98-beb8-4895-acea-89cb723504ca","ios":"levelo://app?vid=2cd7da98-beb8-4895-acea-89cb723504ca"},"vehicle_type_id":"4","last_reported":1736306026,"current_range_meters":23200,"station_id":"ce4bhbp2rcd13ifvqerg","pricing_plan_id":"cebpf4jnsgd1na2vs0mg"},{"bike_id":"c9e3cba0-b8bd-49ed-8522-cc7c140a0915","system_id":"levelo_inurba_marseille","lat":43.23964,"lon":5.36643,"is_reserved":false,"is_disabled":false,"rental_uris":{"android":"levelo://app?vid=c9e3cba0-b8bd-49ed-8522-cc7c140a0915","ios":"levelo://app?vid=c9e3cba0-b8bd-49ed-8522-cc7c140a0915"},"vehicle_type_id":"4","last_reported":1736306026,"current_range_meters":22000,"station_id":"ce4bhi12rcd13ifvqfp0","pricing_plan_id":"cebpf4jnsgd1na2vs0mg"},{"bike_id":"f9aababe-afdf-4fd3-a1be-fb744037173a","system_id":"levelo_inurba_marseille","lat":43.29904,"lon":5.39748,"is_reserved":false,"is_disabled":false,"rental_uris":{"android":"levelo://app?vid=f9aababe-afdf-4fd3-a1be-fb744037173a","ios":"levelo://app?vid=f9aababe-afdf-4fd3-a1be-fb744037173a"},"vehicle_type_id":"4","last_reported":1736306026,"current_range_meters":14800,"station_id":"ce4bh0h2rcd13ifvqd50","pricing_plan_id":"cebpf4jnsgd1na2vs0mg"},{"bike_id":"62057669-5d55-43f6-974e-d2c2a9422491","system_id":"levelo_inurba_marseille","lat":43.28674,"lon":5.36312,"is_reserved":false,"is_disabled":false,"rental_uris":{"android":"levelo://app?vid=62057669-5d55-43f6-974e-d2c2a9422491","ios":"levelo://app?vid=62057669-5d55-43f6-974e-d2c2a9422491"},"vehicle_type_id":"4","last_reported":1736306026,"current_range_meters":28000,"station_id":"ce4bhah2rcd13ifvqej0","pricing_plan_id":"cebpf4jnsgd1na2vs0mg"},{"bike_id":"3f1eecaf-04c7-43f3-a2d1-52def2308045","system_id":"levelo_inurba_marseille","lat":43.30587,"lon":5.37209,"is_reserved":false,"is_disabled":false,"rental_uris":{"android":"levelo://app?vid=3f1eecaf-04c7-43f3-a2d1-52def2308045","ios":"levelo://app?vid=3f1eecaf-04c7-43f3-a2d1-52def2308045"},"vehicle_type_id":"4","last_reported":1736306026,"current_range_meters":38800,"station_id":"ce4bgqh2rcd13ifvqc4g","pricing_plan_id":"cebpf4jnsgd1na2vs0mg"},{"bike_id":"1c2c3464-8b3a-4eab-9fdd-fd6c6e2d5657","system_id":"levelo_inurba_marseille","lat":43.2867,"lon":5.38675,"is_reserved":false,"is_disabled":false,"rental_uris":{"android":"levelo://app?vid=1c2c3464-8b3a-4eab-9fdd-fd6c6e2d5657","ios":"levelo://app?vid=1c2c3464-8b3a-4eab-9fdd-fd6c6e2d5657"},"vehicle_type_id":"4","last_reported":1736306026,"current_range_meters":38400,"station_id":"ce4bh492rcd13ifvqdug","pricing_plan_id":"cebpf4jnsgd1na2vs0mg"},{"bike_id":"a289fb1b-5f21-48af-a806-ce60b8382da2","system_id":"levelo_inurba_marseille","lat":43.2293,"lon":5.35383,"is_reserved":false,"is_disabled":false,"rental_uris":{"android":"levelo://app?vid=a289fb1b-5f21-48af-a806-ce60b8382da2","ios":"levelo://app?vid=a289fb1b-5f21-48af-a806-ce60b8382da2"},"vehicle_type_id":"4","last_reported":1736306026,"current_range_meters":7200,"station_id":"cpo3532slgdg3j2ikp40","pricing_plan_id":"cebpf4jnsgd1na2vs0mg"},{"bike_id":"6a1ae31a-27ef-4a2d-9f21-f3fae30e6a70","system_id":"levelo_inurba_marseille","lat":43.308873,"lon":5.396394,"is_reserved":false,"is_disabled":false,"rental_uris":{"android":"levelo://app?vid=6a1ae31a-27ef-4a2d-9f21-f3fae30e6a70","ios":"levelo://app?vid=6a1ae31a-27ef-4a2d-9f21-f3fae30e6a70"},"vehicle_type_id":"4","last_reported":1736306026,"current_range_meters":32000,"station_id":"ce4bh012rcd13ifvqcv0","pricing_plan_id":"cebpf4jnsgd1na2vs0mg"},{"bike_id":"0c06f679-85b2-4f8b-8237-3c1bdba6d34d","system_id":"levelo_inurba_marseille","lat":43.27186,"lon":5.40982,"is_reserved":false,"is_disabled":false,"rental_uris":{"android":"levelo://app?vid=0c06f679-85b2-4f8b-8237-3c1bdba6d34d","ios":"levelo://app?vid=0c06f679-85b2-4f8b-8237-3c1bdba6d34d"},"vehicle_type_id":"4","last_reported":1736306026,"current_range_meters":38800,"station_id":"ce4bhl12rcd13ifvqgf0","pricing_plan_id":"cebpf4jnsgd1na2vs0mg"},{"bike_id":"05a2c15a-fb68-455c-8082-fdf747a62fe7","system_id":"levelo_inurba_marseille","lat":43.2783,"lon":5.40723,"is_reserved":false,"is_disabled":false,"rental_uris":{"android":"levelo://app?vid=05a2c15a-fb68-455c-8082-fdf747a62fe7","ios":"levelo://app?vid=05a2c15a-fb68-455c-8082-fdf747a62fe7"},"vehicle_type_id":"4","last_reported":1736306026,"current_range_meters":37600,"station_id":"ce4bhnh2rcd13ifvqgtg","pricing_plan_id":"cebpf4jnsgd1na2vs0mg"},{"bike_id":"d6520258-6a57-4978-9d9a-412eb886f55e","system_id":"levelo_inurba_marseille","lat":43.2408,"lon":5.37753,"is_reserved":false,"is_disabled":false,"rental_uris":{"android":"levelo://app?vid=d6520258-6a57-4978-9d9a-412eb886f55e","ios":"levelo://app?vid=d6520258-6a57-4978-9d9a-412eb886f55e"},"vehicle_type_id":"4","last_reported":1736306026,"current_range_meters":35600,"station_id":"ce4bhnp2rcd13ifvqgvg","pricing_plan_id":"cebpf4jnsgd1na2vs0mg"},{"bike_id":"2d8e34d9-b80c-45b2-a371-14e66d0ae48a","system_id":"levelo_inurba_marseille","lat":43.24181,"lon":5.39722,"is_reserved":false,"is_disabled":false,"rental_uris":{"android":"levelo://app?vid=2d8e34d9-b80c-45b2-a371-14e66d0ae48a","ios":"levelo://app?vid=2d8e34d9-b80c-45b2-a371-14e66d0ae48a"},"vehicle_type_id":"4","last_reported":1736306026,"current_range_meters":38000,"station_id":"ce4bhn12rcd13ifvqgpg","pricing_plan_id":"cebpf4jnsgd1na2vs0mg"},{"bike_id":"f357d330-5bc7-4567-8dd3-ae3b269aeff7","system_id":"levelo_inurba_marseille","lat":43.29561,"lon":5.42295,"is_reserved":false,"is_disabled":false,"rental_uris":{"android":"levelo://app?vid=f357d330-5bc7-4567-8dd3-ae3b269aeff7","ios":"levelo://app?vid=f357d330-5bc7-4567-8dd3-ae3b269aeff7"},"vehicle_type_id":"4","last_reported":1736306026,"current_range_meters":38000,"station_id":"ce4bhph2rcd13ifvqhdg","pricing_plan_id":"cebpf4jnsgd1na2vs0mg"},{"bike_id":"3fd4e529-bf86-415d-b820-50c8dbc3ecb7","system_id":"levelo_inurba_marseille","lat":43.28663,"lon":5.36351,"is_reserved":false,"is_disabled":false,"rental_uris":{"android":"levelo://app?vid=3fd4e529-bf86-415d-b820-50c8dbc3ecb7","ios":"levelo://app?vid=3fd4e529-bf86-415d-b820-50c8dbc3ecb7"},"vehicle_type_id":"4","last_reported":1736306026,"current_range_meters":38800,"station_id":"ce4bhah2rcd13ifvqej0","pricing_plan_id":"cebpf4jnsgd1na2vs0mg"},{"bike_id":"2e3020fc-739e-484f-aff1-968aa18f2ac1","system_id":"levelo_inurba_marseille","lat":43.27973,"lon":5.41663,"is_reserved":false,"is_disabled":true,"rental_uris":{"android":"levelo://app?vid=2e3020fc-739e-484f-aff1-968aa18f2ac1","ios":"levelo://app?vid=2e3020fc-739e-484f-aff1-968aa18f2ac1"},"vehicle_type_id":"4","last_reported":1736306026,"current_range_meters":32400,"station_id":"ce4bho12rcd13ifvqh1g","pricing_plan_id":"cebpf4jnsgd1na2vs0mg"},{"bike_id":"209cc1a3-67ba-4b97-9692-d53b5885fac1","system_id":"levelo_inurba_marseille","lat":43.31281,"lon":5.40171,"is_reserved":false,"is_disabled":false,"rental_uris":{"android":"levelo://app?vid=209cc1a3-67ba-4b97-9692-d53b5885fac1","ios":"levelo://app?vid=209cc1a3-67ba-4b97-9692-d53b5885fac1"},"vehicle_type_id":"4","last_reported":1736306026,"current_range_meters":27600,"station_id":"ce4bh092rcd13ifvqd30","pricing_plan_id":"cebpf4jnsgd1na2vs0mg"},{"bike_id":"508712e8-c246-4ef4-9b9e-20f18ed4e9a4","system_id":"levelo_inurba_marseille","lat":43.27486,"lon":5.42462,"is_reserved":false,"is_disabled":false,"rental_uris":{"android":"levelo://app?vid=508712e8-c246-4ef4-9b9e-20f18ed4e9a4","ios":"levelo://app?vid=508712e8-c246-4ef4-9b9e-20f18ed4e9a4"},"vehicle_type_id":"4","last_reported":1736306026,"current_range_meters":17600,"station_id":"ce4bhn92rcd13ifvqgrg","pricing_plan_id":"cebpf4jnsgd1na2vs0mg"},{"bike_id":"9399145c-d345-4bc1-ad5c-a6155238c630","system_id":"levelo_inurba_marseille","lat":43.30422,"lon":5.39757,"is_reserved":false,"is_disabled":false,"rental_uris":{"android":"levelo://app?vid=9399145c-d345-4bc1-ad5c-a6155238c630","ios":"levelo://app?vid=9399145c-d345-4bc1-ad5c-a6155238c630"},"vehicle_type_id":"4","last_reported":1736306026,"current_range_meters":8000,"station_id":"ce4bh092rcd13ifvqd20","pricing_plan_id":"cebpf4jnsgd1na2vs0mg"},{"bike_id":"e5307aff-fa65-48d7-a53d-d607ad230279","system_id":"levelo_inurba_marseille","lat":43.29869,"lon":5.3974,"is_reserved":false,"is_disabled":false,"rental_uris":{"android":"levelo://app?vid=e5307aff-fa65-48d7-a53d-d607ad230279","ios":"levelo://app?vid=e5307aff-fa65-48d7-a53d-d607ad230279"},"vehicle_type_id":"4","last_reported":1736306026,"current_range_meters":36400,"station_id":"ce4bh0h2rcd13ifvqd50","pricing_plan_id":"cebpf4jnsgd1na2vs0mg"},{"bike_id":"50cb8b02-9f7d-4746-9ad0-255349330f99","system_id":"levelo_inurba_marseille","lat":43.27507,"lon":5.42448,"is_reserved":false,"is_disabled":false,"rental_uris":{"android":"levelo://app?vid=50cb8b02-9f7d-4746-9ad0-255349330f99","ios":"levelo://app?vid=50cb8b02-9f7d-4746-9ad0-255349330f99"},"vehicle_type_id":"4","last_reported":1736306026,"current_range_meters":14400,"station_id":"ce4bhn92rcd13ifvqgrg","pricing_plan_id":"cebpf4jnsgd1na2vs0mg"},{"bike_id":"035cf11a-8c81-4ec6-98bf-06c2b39cebb8","system_id":"levelo_inurba_marseille","lat":43.28341,"lon":5.38113,"is_reserved":false,"is_disabled":false,"rental_uris":{"android":"levelo://app?vid=035cf11a-8c81-4ec6-98bf-06c2b39cebb8","ios":"levelo://app?vid=035cf11a-8c81-4ec6-98bf-06c2b39cebb8"},"vehicle_type_id":"4","last_reported":1736306026,"current_range_meters":38000,"station_id":"ce4bh412rcd13ifvqdr0","pricing_plan_id":"cebpf4jnsgd1na2vs0mg"},{"bike_id":"8b7b03a4-76c0-429d-86c4-2cba528f75db","system_id":"levelo_inurba_marseille","lat":43.32367,"lon":5.38885,"is_reserved":false,"is_disabled":true,"rental_uris":{"android":"levelo://app?vid=8b7b03a4-76c0-429d-86c4-2cba528f75db","ios":"levelo://app?vid=8b7b03a4-76c0-429d-86c4-2cba528f75db"},"vehicle_type_id":"4","last_reported":1736306026,"current_range_meters":2000,"station_id":"ce4bhqp2rcd13ifvqhog","pricing_plan_id":"cebpf4jnsgd1na2vs0mg"},{"bike_id":"07ba838a-cac9-436d-bde2-39f5016b7c20","system_id":"levelo_inurba_marseille","lat":43.27825,"lon":5.40718,"is_reserved":false,"is_disabled":false,"rental_uris":{"android":"levelo://app?vid=07ba838a-cac9-436d-bde2-39f5016b7c20","ios":"levelo://app?vid=07ba838a-cac9-436d-bde2-39f5016b7c20"},"vehicle_type_id":"4","last_reported":1736306026,"current_range_meters":36000,"station_id":"ce4bhnh2rcd13ifvqgtg","pricing_plan_id":"cebpf4jnsgd1na2vs0mg"},{"bike_id":"e1d67e76-e9ef-43a5-b307-2704c03519b0","system_id":"levelo_inurba_marseille","lat":43.28942,"lon":5.39682,"is_reserved":false,"is_disabled":false,"rental_uris":{"android":"levelo://app?vid=e1d67e76-e9ef-43a5-b307-2704c03519b0","ios":"levelo://app?vid=e1d67e76-e9ef-43a5-b307-2704c03519b0"},"vehicle_type_id":"4","last_reported":1736306026,"current_range_meters":19600,"station_id":"ce4bh3h2rcd13ifvqdn0","pricing_plan_id":"cebpf4jnsgd1na2vs0mg"},{"bike_id":"ad34d3c3-f703-46ca-92c3-8e056f95de84","system_id":"levelo_inurba_marseille","lat":43.28461,"lon":5.35885,"is_reserved":false,"is_disabled":false,"rental_uris":{"android":"levelo://app?vid=ad34d3c3-f703-46ca-92c3-8e056f95de84","ios":"levelo://app?vid=ad34d3c3-f703-46ca-92c3-8e056f95de84"},"vehicle_type_id":"4","last_reported":1736306026,"current_range_meters":10800,"station_id":"ce4bhah2rcd13ifvqei0","pricing_plan_id":"cebpf4jnsgd1na2vs0mg"},{"bike_id":"8d65b2b1-927b-45d9-8b22-6f75685ab908","system_id":"levelo_inurba_marseille","lat":43.23159,"lon":5.43711,"is_reserved":false,"is_disabled":false,"rental_uris":{"android":"levelo://app?vid=8d65b2b1-927b-45d9-8b22-6f75685ab908","ios":"levelo://app?vid=8d65b2b1-927b-45d9-8b22-6f75685ab908"},"vehicle_type_id":"4","last_reported":1736306026,"current_range_meters":37600,"station_id":"ce4bhmp2rcd13ifvqgog","pricing_plan_id":"cebpf4jnsgd1na2vs0mg"},{"bike_id":"f9af2b24-9bf6-497f-b409-d490cf2de712","system_id":"levelo_inurba_marseille","lat":43.28622,"lon":5.35101,"is_reserved":false,"is_disabled":false,"rental_uris":{"android":"levelo://app?vid=f9af2b24-9bf6-497f-b409-d490cf2de712","ios":"levelo://app?vid=f9af2b24-9bf6-497f-b409-d490cf2de712"},"vehicle_type_id":"4","last_reported":1736306026,"current_range_meters":30000,"station_id":"ce4bhch2rcd13ifvqeug","pricing_plan_id":"cebpf4jnsgd1na2vs0mg"},{"bike_id":"8a4c045a-dd75-4b08-85b8-01a9f1b5d499","system_id":"levelo_inurba_marseille","lat":43.31051,"lon":5.38364,"is_reserved":false,"is_disabled":false,"rental_uris":{"android":"levelo://app?vid=8a4c045a-dd75-4b08-85b8-01a9f1b5d499","ios":"levelo://app?vid=8a4c045a-dd75-4b08-85b8-01a9f1b5d499"},"vehicle_type_id":"4","last_reported":1736306026,"current_range_meters":19200,"station_id":"ce4bgv92rcd13ifvqcr0","pricing_plan_id":"cebpf4jnsgd1na2vs0mg"},{"bike_id":"54eaf755-04f5-4c64-a066-4250e68e487b","system_id":"levelo_inurba_marseille","lat":43.27291,"lon":5.3941,"is_reserved":false,"is_disabled":false,"rental_uris":{"android":"levelo://app?vid=54eaf755-04f5-4c64-a066-4250e68e487b","ios":"levelo://app?vid=54eaf755-04f5-4c64-a066-4250e68e487b"},"vehicle_type_id":"4","last_reported":1736306026,"current_range_meters":37600,"station_id":"ce4bhdp2rcd13ifvqf20","pricing_plan_id":"cebpf4jnsgd1na2vs0mg"},{"bike_id":"8e69fd07-fa50-4941-a1e0-41e0e871c852","system_id":"levelo_inurba_marseille","lat":43.28408,"lon":5.37516,"is_reserved":false,"is_disabled":false,"rental_uris":{"android":"levelo://app?vid=8e69fd07-fa50-4941-a1e0-41e0e871c852","ios":"levelo://app?vid=8e69fd07-fa50-4941-a1e0-41e0e871c852"},"vehicle_type_id":"4","last_reported":1736306026,"current_range_meters":38800,"station_id":"ce4bh412rcd13ifvqds0","pricing_plan_id":"cebpf4jnsgd1na2vs0mg"},{"bike_id":"e234c05e-ad7c-4a80-b77e-0f5f2642c720","system_id":"levelo_inurba_marseille","lat":43.284602,"lon":5.358869,"is_reserved":false,"is_disabled":false,"rental_uris":{"android":"levelo://app?vid=e234c05e-ad7c-4a80-b77e-0f5f2642c720","ios":"levelo://app?vid=e234c05e-ad7c-4a80-b77e-0f5f2642c720"},"vehicle_type_id":"4","last_reported":1736306026,"current_range_meters":22800,"station_id":"ce4bhah2rcd13ifvqei0","pricing_plan_id":"cebpf4jnsgd1na2vs0mg"},{"bike_id":"c023aed8-c4af-47de-bf55-7ec6cfb1c879","system_id":"levelo_inurba_marseille","lat":43.26292,"lon":5.3742,"is_reserved":false,"is_disabled":true,"rental_uris":{"android":"levelo://app?vid=c023aed8-c4af-47de-bf55-7ec6cfb1c879","ios":"levelo://app?vid=c023aed8-c4af-47de-bf55-7ec6cfb1c879"},"vehicle_type_id":"4","last_reported":1736306026,"current_range_meters":25200,"station_id":"","pricing_plan_id":"cebpf4jnsgd1na2vs0mg"},{"bike_id":"85a69695-8910-4e9b-be2e-1c4e4b65a0e7","system_id":"levelo_inurba_marseille","lat":43.24631,"lon":5.38901,"is_reserved":false,"is_disabled":false,"rental_uris":{"android":"levelo://app?vid=85a69695-8910-4e9b-be2e-1c4e4b65a0e7","ios":"levelo://app?vid=85a69695-8910-4e9b-be2e-1c4e4b65a0e7"},"vehicle_type_id":"4","last_reported":1736306026,"current_range_meters":38800,"station_id":"ce4bhg12rcd13ifvqf60","pricing_plan_id":"cebpf4jnsgd1na2vs0mg"},{"bike_id":"f5477bd9-ae2b-4f4a-90d2-43e1d2905a20","system_id":"levelo_inurba_marseille","lat":43.284309,"lon":5.349959,"is_reserved":false,"is_disabled":false,"rental_uris":{"android":"levelo://app?vid=f5477bd9-ae2b-4f4a-90d2-43e1d2905a20","ios":"levelo://app?vid=f5477bd9-ae2b-4f4a-90d2-43e1d2905a20"},"vehicle_type_id":"4","last_reported":1736306026,"current_range_meters":21600,"station_id":"ce4bhbh2rcd13ifvqepg","pricing_plan_id":"cebpf4jnsgd1na2vs0mg"},{"bike_id":"ad036647-e9f4-4246-953d-37ee6601db50","system_id":"levelo_inurba_marseille","lat":43.24669,"lon":5.3816,"is_reserved":false,"is_disabled":false,"rental_uris":{"android":"levelo://app?vid=ad036647-e9f4-4246-953d-37ee6601db50","ios":"levelo://app?vid=ad036647-e9f4-4246-953d-37ee6601db50"},"vehicle_type_id":"4","last_reported":1736306026,"current_range_meters":12400,"station_id":"ce4bhih2rcd13ifvqfr0","pricing_plan_id":"cebpf4jnsgd1na2vs0mg"},{"bike_id":"d74fc36d-2f1d-494c-b9e6-e714c99e8537","system_id":"levelo_inurba_marseille","lat":43.265598,"lon":5.372873,"is_reserved":false,"is_disabled":false,"rental_uris":{"android":"levelo://app?vid=d74fc36d-2f1d-494c-b9e6-e714c99e8537","ios":"levelo://app?vid=d74fc36d-2f1d-494c-b9e6-e714c99e8537"},"vehicle_type_id":"4","last_reported":1736306026,"current_range_meters":27200,"station_id":"ce4bhg12rcd13ifvqf70","pricing_plan_id":"cebpf4jnsgd1na2vs0mg"},{"bike_id":"dfcf855f-5812-4baf-aa89-8e83805791f7","system_id":"levelo_inurba_marseille","lat":43.275584,"lon":5.384306,"is_reserved":false,"is_disabled":false,"rental_uris":{"android":"levelo://app?vid=dfcf855f-5812-4baf-aa89-8e83805791f7","ios":"levelo://app?vid=dfcf855f-5812-4baf-aa89-8e83805791f7"},"vehicle_type_id":"4","last_reported":1736306026,"current_range_meters":20800,"station_id":"ce4bhh92rcd13ifvqfi0","pricing_plan_id":"cebpf4jnsgd1na2vs0mg"},{"bike_id":"83d61421-4a96-4675-8cf7-7779890541e6","system_id":"levelo_inurba_marseille","lat":43.31537,"lon":5.38021,"is_reserved":false,"is_disabled":false,"rental_uris":{"android":"levelo://app?vid=83d61421-4a96-4675-8cf7-7779890541e6","ios":"levelo://app?vid=83d61421-4a96-4675-8cf7-7779890541e6"},"vehicle_type_id":"4","last_reported":1736306026,"current_range_meters":38800,"station_id":"ce4bhsp2rcd13ifvqi50","pricing_plan_id":"cebpf4jnsgd1na2vs0mg"},{"bike_id":"00d350c9-c7d5-42f7-a3e1-74afb7d6252b","system_id":"levelo_inurba_marseille","lat":43.302168,"lon":5.39482,"is_reserved":false,"is_disabled":false,"rental_uris":{"android":"levelo://app?vid=00d350c9-c7d5-42f7-a3e1-74afb7d6252b","ios":"levelo://app?vid=00d350c9-c7d5-42f7-a3e1-74afb7d6252b"},"vehicle_type_id":"4","last_reported":1736306026,"current_range_meters":36800,"station_id":"ce4bh0p2rcd13ifvqd70","pricing_plan_id":"cebpf4jnsgd1na2vs0mg"},{"bike_id":"e982ff23-dca2-4001-942e-207ad01fe8da","system_id":"levelo_inurba_marseille","lat":43.28566,"lon":5.39494,"is_reserved":false,"is_disabled":false,"rental_uris":{"android":"levelo://app?vid=e982ff23-dca2-4001-942e-207ad01fe8da","ios":"levelo://app?vid=e982ff23-dca2-4001-942e-207ad01fe8da"},"vehicle_type_id":"4","last_reported":1736306026,"current_range_meters":36400,"station_id":"ce4bh292rcd13ifvqdg0","pricing_plan_id":"cebpf4jnsgd1na2vs0mg"},{"bike_id":"c736efc7-bdd4-4760-a57b-96851815e95f","system_id":"levelo_inurba_marseille","lat":43.26502,"lon":5.39548,"is_reserved":false,"is_disabled":true,"rental_uris":{"android":"levelo://app?vid=c736efc7-bdd4-4760-a57b-96851815e95f","ios":"levelo://app?vid=c736efc7-bdd4-4760-a57b-96851815e95f"},"vehicle_type_id":"4","last_reported":1736306026,"current_range_meters":38800,"station_id":"ce4bhi12rcd13ifvqfq0","pricing_plan_id":"cebpf4jnsgd1na2vs0mg"},{"bike_id":"a1ceaab5-cc98-4739-8fba-923512224dcf","system_id":"levelo_inurba_marseille","lat":43.23191,"lon":5.35556,"is_reserved":false,"is_disabled":false,"rental_uris":{"android":"levelo://app?vid=a1ceaab5-cc98-4739-8fba-923512224dcf","ios":"levelo://app?vid=a1ceaab5-cc98-4739-8fba-923512224dcf"},"vehicle_type_id":"4","last_reported":1736306026,"current_range_meters":38800,"station_id":"ce4bhu92rcd13ifvqi70","pricing_plan_id":"cebpf4jnsgd1na2vs0mg"},{"bike_id":"0071a927-f6f8-433a-a051-21a458c8608f","system_id":"levelo_inurba_marseille","lat":43.271875,"lon":5.40988,"is_reserved":false,"is_disabled":false,"rental_uris":{"android":"levelo://app?vid=0071a927-f6f8-433a-a051-21a458c8608f","ios":"levelo://app?vid=0071a927-f6f8-433a-a051-21a458c8608f"},"vehicle_type_id":"4","last_reported":1736306026,"current_range_meters":27600,"station_id":"ce4bhl12rcd13ifvqgf0","pricing_plan_id":"cebpf4jnsgd1na2vs0mg"},{"bike_id":"c3b15153-f019-432b-89af-f6657ff93fcd","system_id":"levelo_inurba_marseille","lat":43.30141,"lon":5.39871,"is_reserved":false,"is_disabled":false,"rental_uris":{"android":"levelo://app?vid=c3b15153-f019-432b-89af-f6657ff93fcd","ios":"levelo://app?vid=c3b15153-f019-432b-89af-f6657ff93fcd"},"vehicle_type_id":"4","last_reported":1736306026,"current_range_meters":20800,"station_id":"ce4bh0h2rcd13ifvqd40","pricing_plan_id":"cebpf4jnsgd1na2vs0mg"},{"bike_id":"448c8712-f610-49a8-9ae4-bbeb6e649d67","system_id":"levelo_inurba_marseille","lat":43.29884,"lon":5.3972,"is_reserved":false,"is_disabled":false,"rental_uris":{"android":"levelo://app?vid=448c8712-f610-49a8-9ae4-bbeb6e649d67","ios":"levelo://app?vid=448c8712-f610-49a8-9ae4-bbeb6e649d67"},"vehicle_type_id":"4","last_reported":1736306026,"current_range_meters":27600,"station_id":"ce4bh0h2rcd13ifvqd50","pricing_plan_id":"cebpf4jnsgd1na2vs0mg"},{"bike_id":"dbea71e0-63c7-45df-b06f-3b10cfd16937","system_id":"levelo_inurba_marseille","lat":43.28706,"lon":5.39973,"is_reserved":false,"is_disabled":false,"rental_uris":{"android":"levelo://app?vid=dbea71e0-63c7-45df-b06f-3b10cfd16937","ios":"levelo://app?vid=dbea71e0-63c7-45df-b06f-3b10cfd16937"},"vehicle_type_id":"4","last_reported":1736306026,"current_range_meters":36000,"station_id":"ce4bho92rcd13ifvqh3g","pricing_plan_id":"cebpf4jnsgd1na2vs0mg"},{"bike_id":"0d869571-702b-474e-9734-e51fa36b8db2","system_id":"levelo_inurba_marseille","lat":43.29194,"lon":5.39322,"is_reserved":false,"is_disabled":true,"rental_uris":{"android":"levelo://app?vid=0d869571-702b-474e-9734-e51fa36b8db2","ios":"levelo://app?vid=0d869571-702b-474e-9734-e51fa36b8db2"},"vehicle_type_id":"4","last_reported":1736306026,"current_range_meters":6000,"station_id":"ce4bh192rcd13ifvqdd0","pricing_plan_id":"cebpf4jnsgd1na2vs0mg"},{"bike_id":"884e5eef-e784-4e2f-b2b4-cbe24b9ec4af","system_id":"levelo_inurba_marseille","lat":43.313274,"lon":5.396933,"is_reserved":false,"is_disabled":false,"rental_uris":{"android":"levelo://app?vid=884e5eef-e784-4e2f-b2b4-cbe24b9ec4af","ios":"levelo://app?vid=884e5eef-e784-4e2f-b2b4-cbe24b9ec4af"},"vehicle_type_id":"4","last_reported":1736306026,"current_range_meters":38800,"station_id":"ce4bgvp2rcd13ifvqcu0","pricing_plan_id":"cebpf4jnsgd1na2vs0mg"},{"bike_id":"46b86b97-e7a4-473e-a5e7-7343aa64ab57","system_id":"levelo_inurba_marseille","lat":43.30262,"lon":5.40079,"is_reserved":false,"is_disabled":false,"rental_uris":{"android":"levelo://app?vid=46b86b97-e7a4-473e-a5e7-7343aa64ab57","ios":"levelo://app?vid=46b86b97-e7a4-473e-a5e7-7343aa64ab57"},"vehicle_type_id":"4","last_reported":1736306026,"current_range_meters":38800,"station_id":"ce4bgvh2rcd13ifvqcs0","pricing_plan_id":"cebpf4jnsgd1na2vs0mg"},{"bike_id":"07260173-cc3f-416f-a88a-5b965344e9ac","system_id":"levelo_inurba_marseille","lat":43.3188,"lon":5.40744,"is_reserved":false,"is_disabled":false,"rental_uris":{"android":"levelo://app?vid=07260173-cc3f-416f-a88a-5b965344e9ac","ios":"levelo://app?vid=07260173-cc3f-416f-a88a-5b965344e9ac"},"vehicle_type_id":"4","last_reported":1736306026,"current_range_meters":37600,"station_id":"ce4bhq12rcd13ifvqhig","pricing_plan_id":"cebpf4jnsgd1na2vs0mg"},{"bike_id":"ac1b97d2-d9c7-4a14-8fc5-b716f5c38a8e","system_id":"levelo_inurba_marseille","lat":43.31558,"lon":5.38033,"is_reserved":false,"is_disabled":false,"rental_uris":{"android":"levelo://app?vid=ac1b97d2-d9c7-4a14-8fc5-b716f5c38a8e","ios":"levelo://app?vid=ac1b97d2-d9c7-4a14-8fc5-b716f5c38a8e"},"vehicle_type_id":"4","last_reported":1736306026,"current_range_meters":25200,"station_id":"ce4bhsp2rcd13ifvqi50","pricing_plan_id":"cebpf4jnsgd1na2vs0mg"},{"bike_id":"da1ca4b6-d1e6-4331-b01e-d4e077ea5acb","system_id":"levelo_inurba_marseille","lat":43.280322,"lon":5.369492,"is_reserved":false,"is_disabled":false,"rental_uris":{"android":"levelo://app?vid=da1ca4b6-d1e6-4331-b01e-d4e077ea5acb","ios":"levelo://app?vid=da1ca4b6-d1e6-4331-b01e-d4e077ea5acb"},"vehicle_type_id":"4","last_reported":1736306026,"current_range_meters":28000,"station_id":"ce4bha12rcd13ifvqef0","pricing_plan_id":"cebpf4jnsgd1na2vs0mg"},{"bike_id":"89211829-6a20-497c-8e50-7e7d27e11d4c","system_id":"levelo_inurba_marseille","lat":43.28135,"lon":5.42647,"is_reserved":false,"is_disabled":false,"rental_uris":{"android":"levelo://app?vid=89211829-6a20-497c-8e50-7e7d27e11d4c","ios":"levelo://app?vid=89211829-6a20-497c-8e50-7e7d27e11d4c"},"vehicle_type_id":"4","last_reported":1736306026,"current_range_meters":8800,"station_id":"ce4bhnh2rcd13ifvqgug","pricing_plan_id":"cebpf4jnsgd1na2vs0mg"},{"bike_id":"6410b64a-2371-4d9a-b4a9-7ca2750fdfa8","system_id":"levelo_inurba_marseille","lat":43.28732,"lon":5.36088,"is_reserved":false,"is_disabled":false,"rental_uris":{"android":"levelo://app?vid=6410b64a-2371-4d9a-b4a9-7ca2750fdfa8","ios":"levelo://app?vid=6410b64a-2371-4d9a-b4a9-7ca2750fdfa8"},"vehicle_type_id":"4","last_reported":1736306026,"current_range_meters":22800,"station_id":"cki0cbj6b192h4jlfktg","pricing_plan_id":"cebpf4jnsgd1na2vs0mg"},{"bike_id":"4fc26d7d-088e-4a8b-a24d-356304cdd2e1","system_id":"levelo_inurba_marseille","lat":43.30852,"lon":5.3965,"is_reserved":false,"is_disabled":false,"rental_uris":{"android":"levelo://app?vid=4fc26d7d-088e-4a8b-a24d-356304cdd2e1","ios":"levelo://app?vid=4fc26d7d-088e-4a8b-a24d-356304cdd2e1"},"vehicle_type_id":"4","last_reported":1736306026,"current_range_meters":22400,"station_id":"","pricing_plan_id":"cebpf4jnsgd1na2vs0mg"},{"bike_id":"4f1ef750-2e4b-4992-a976-9cd83f145c67","system_id":"levelo_inurba_marseille","lat":43.302109,"lon":5.394686,"is_reserved":false,"is_disabled":false,"rental_uris":{"android":"levelo://app?vid=4f1ef750-2e4b-4992-a976-9cd83f145c67","ios":"levelo://app?vid=4f1ef750-2e4b-4992-a976-9cd83f145c67"},"vehicle_type_id":"4","last_reported":1736306026,"current_range_meters":38800,"station_id":"ce4bh0p2rcd13ifvqd70","pricing_plan_id":"cebpf4jnsgd1na2vs0mg"},{"bike_id":"0be4ff79-e283-47db-9e64-2038c717e53c","system_id":"levelo_inurba_marseille","lat":43.313292,"lon":5.396932,"is_reserved":false,"is_disabled":false,"rental_uris":{"android":"levelo://app?vid=0be4ff79-e283-47db-9e64-2038c717e53c","ios":"levelo://app?vid=0be4ff79-e283-47db-9e64-2038c717e53c"},"vehicle_type_id":"4","last_reported":1736306026,"current_range_meters":13600,"station_id":"ce4bgvp2rcd13ifvqcu0","pricing_plan_id":"cebpf4jnsgd1na2vs0mg"},{"bike_id":"5cf5d467-316b-44fa-8fb8-856da6a44a4c","system_id":"levelo_inurba_marseille","lat":43.24646,"lon":5.3779,"is_reserved":false,"is_disabled":true,"rental_uris":{"android":"levelo://app?vid=5cf5d467-316b-44fa-8fb8-856da6a44a4c","ios":"levelo://app?vid=5cf5d467-316b-44fa-8fb8-856da6a44a4c"},"vehicle_type_id":"4","last_reported":1736306026,"current_range_meters":0,"station_id":"","pricing_plan_id":"cebpf4jnsgd1na2vs0mg"},{"bike_id":"37557093-6491-4690-b370-7a12c47f238b","system_id":"levelo_inurba_marseille","lat":43.27944,"lon":5.41049,"is_reserved":false,"is_disabled":false,"rental_uris":{"android":"levelo://app?vid=37557093-6491-4690-b370-7a12c47f238b","ios":"levelo://app?vid=37557093-6491-4690-b370-7a12c47f238b"},"vehicle_type_id":"4","last_reported":1736306026,"current_range_meters":6800,"station_id":"ce4bhnp2rcd13ifvqh0g","pricing_plan_id":"cebpf4jnsgd1na2vs0mg"},{"bike_id":"535f0cc5-944d-4842-bff3-6150789eda0c","system_id":"levelo_inurba_marseille","lat":43.28394,"lon":5.34997,"is_reserved":false,"is_disabled":false,"rental_uris":{"android":"levelo://app?vid=535f0cc5-944d-4842-bff3-6150789eda0c","ios":"levelo://app?vid=535f0cc5-944d-4842-bff3-6150789eda0c"},"vehicle_type_id":"4","last_reported":1736306026,"current_range_meters":38800,"station_id":"ce4bhbh2rcd13ifvqepg","pricing_plan_id":"cebpf4jnsgd1na2vs0mg"},{"bike_id":"a8acd766-c8b6-49fa-a448-d51110da8e25","system_id":"levelo_inurba_marseille","lat":43.251175,"lon":5.403258,"is_reserved":false,"is_disabled":false,"rental_uris":{"android":"levelo://app?vid=a8acd766-c8b6-49fa-a448-d51110da8e25","ios":"levelo://app?vid=a8acd766-c8b6-49fa-a448-d51110da8e25"},"vehicle_type_id":"4","last_reported":1736306026,"current_range_meters":18800,"station_id":"ce4bhlh2rcd13ifvqgig","pricing_plan_id":"cebpf4jnsgd1na2vs0mg"},{"bike_id":"eec7a26a-363d-4616-a5da-9de2258d40f5","system_id":"levelo_inurba_marseille","lat":43.24067,"lon":5.37746,"is_reserved":false,"is_disabled":false,"rental_uris":{"android":"levelo://app?vid=eec7a26a-363d-4616-a5da-9de2258d40f5","ios":"levelo://app?vid=eec7a26a-363d-4616-a5da-9de2258d40f5"},"vehicle_type_id":"4","last_reported":1736306026,"current_range_meters":9200,"station_id":"ce4bhnp2rcd13ifvqgvg","pricing_plan_id":"cebpf4jnsgd1na2vs0mg"},{"bike_id":"f5f5c0c3-bf0d-4e89-9bff-89b492f51af6","system_id":"levelo_inurba_marseille","lat":43.240746,"lon":5.377627,"is_reserved":false,"is_disabled":false,"rental_uris":{"android":"levelo://app?vid=f5f5c0c3-bf0d-4e89-9bff-89b492f51af6","ios":"levelo://app?vid=f5f5c0c3-bf0d-4e89-9bff-89b492f51af6"},"vehicle_type_id":"4","last_reported":1736306026,"current_range_meters":38800,"station_id":"ce4bhnp2rcd13ifvqgvg","pricing_plan_id":"cebpf4jnsgd1na2vs0mg"},{"bike_id":"4c79f864-3da8-4813-a506-a9595819fe25","system_id":"levelo_inurba_marseille","lat":43.25857,"lon":5.39901,"is_reserved":false,"is_disabled":false,"rental_uris":{"android":"levelo://app?vid=4c79f864-3da8-4813-a506-a9595819fe25","ios":"levelo://app?vid=4c79f864-3da8-4813-a506-a9595819fe25"},"vehicle_type_id":"4","last_reported":1736306026,"current_range_meters":38800,"station_id":"ce4bhl92rcd13ifvqghg","pricing_plan_id":"cebpf4jnsgd1na2vs0mg"},{"bike_id":"840e3f90-17d0-4c94-88a0-c5120c40cdea","system_id":"levelo_inurba_marseille","lat":43.257261,"lon":5.411058,"is_reserved":false,"is_disabled":true,"rental_uris":{"android":"levelo://app?vid=840e3f90-17d0-4c94-88a0-c5120c40cdea","ios":"levelo://app?vid=840e3f90-17d0-4c94-88a0-c5120c40cdea"},"vehicle_type_id":"4","last_reported":1736306026,"current_range_meters":38000,"station_id":"ce4bhkp2rcd13ifvqgd0","pricing_plan_id":"cebpf4jnsgd1na2vs0mg"},{"bike_id":"18989a28-842c-4216-9b41-9977ee09c012","system_id":"levelo_inurba_marseille","lat":43.27173,"lon":5.40989,"is_reserved":false,"is_disabled":false,"rental_uris":{"android":"levelo://app?vid=18989a28-842c-4216-9b41-9977ee09c012","ios":"levelo://app?vid=18989a28-842c-4216-9b41-9977ee09c012"},"vehicle_type_id":"4","last_reported":1736306026,"current_range_meters":38800,"station_id":"ce4bhl12rcd13ifvqgf0","pricing_plan_id":"cebpf4jnsgd1na2vs0mg"},{"bike_id":"2f68cdef-bffc-4037-b844-7b9747e6cb93","system_id":"levelo_inurba_marseille","lat":43.24385,"lon":5.37071,"is_reserved":false,"is_disabled":false,"rental_uris":{"android":"levelo://app?vid=2f68cdef-bffc-4037-b844-7b9747e6cb93","ios":"levelo://app?vid=2f68cdef-bffc-4037-b844-7b9747e6cb93"},"vehicle_type_id":"4","last_reported":1736306026,"current_range_meters":36400,"station_id":"ce4bhhh2rcd13ifvqfk0","pricing_plan_id":"cebpf4jnsgd1na2vs0mg"},{"bike_id":"90f8216f-fbb9-4598-9bab-eadf2338867f","system_id":"levelo_inurba_marseille","lat":43.23958,"lon":5.36625,"is_reserved":false,"is_disabled":false,"rental_uris":{"android":"levelo://app?vid=90f8216f-fbb9-4598-9bab-eadf2338867f","ios":"levelo://app?vid=90f8216f-fbb9-4598-9bab-eadf2338867f"},"vehicle_type_id":"4","last_reported":1736306026,"current_range_meters":27600,"station_id":"ce4bhi12rcd13ifvqfp0","pricing_plan_id":"cebpf4jnsgd1na2vs0mg"},{"bike_id":"e44d3dda-01ba-45d1-96fa-c318d3377104","system_id":"levelo_inurba_marseille","lat":43.313672,"lon":5.384987,"is_reserved":false,"is_disabled":false,"rental_uris":{"android":"levelo://app?vid=e44d3dda-01ba-45d1-96fa-c318d3377104","ios":"levelo://app?vid=e44d3dda-01ba-45d1-96fa-c318d3377104"},"vehicle_type_id":"4","last_reported":1736306026,"current_range_meters":34000,"station_id":"ce4bgt92rcd13ifvqcf0","pricing_plan_id":"cebpf4jnsgd1na2vs0mg"},{"bike_id":"e17ac5d8-0dad-428c-8e18-f61456c149f3","system_id":"levelo_inurba_marseille","lat":43.28463,"lon":5.35871,"is_reserved":false,"is_disabled":false,"rental_uris":{"android":"levelo://app?vid=e17ac5d8-0dad-428c-8e18-f61456c149f3","ios":"levelo://app?vid=e17ac5d8-0dad-428c-8e18-f61456c149f3"},"vehicle_type_id":"4","last_reported":1736306026,"current_range_meters":20000,"station_id":"ce4bhah2rcd13ifvqei0","pricing_plan_id":"cebpf4jnsgd1na2vs0mg"},{"bike_id":"f315f1f6-15a6-45f1-b66d-ebc071343df0","system_id":"levelo_inurba_marseille","lat":43.2936,"lon":5.37861,"is_reserved":false,"is_disabled":true,"rental_uris":{"android":"levelo://app?vid=f315f1f6-15a6-45f1-b66d-ebc071343df0","ios":"levelo://app?vid=f315f1f6-15a6-45f1-b66d-ebc071343df0"},"vehicle_type_id":"4","last_reported":1736306026,"current_range_meters":33600,"station_id":"ce4bgjh2rcd13ifvqbf0","pricing_plan_id":"cebpf4jnsgd1na2vs0mg"},{"bike_id":"514d218d-b1d9-4d7b-9fa0-8ced26e21a3c","system_id":"levelo_inurba_marseille","lat":43.27202,"lon":5.4098,"is_reserved":false,"is_disabled":false,"rental_uris":{"android":"levelo://app?vid=514d218d-b1d9-4d7b-9fa0-8ced26e21a3c","ios":"levelo://app?vid=514d218d-b1d9-4d7b-9fa0-8ced26e21a3c"},"vehicle_type_id":"4","last_reported":1736306026,"current_range_meters":8000,"station_id":"ce4bhl12rcd13ifvqgf0","pricing_plan_id":"cebpf4jnsgd1na2vs0mg"},{"bike_id":"502b9a2d-7119-4752-a288-d02d6d3527f6","system_id":"levelo_inurba_marseille","lat":43.2845,"lon":5.35893,"is_reserved":false,"is_disabled":false,"rental_uris":{"android":"levelo://app?vid=502b9a2d-7119-4752-a288-d02d6d3527f6","ios":"levelo://app?vid=502b9a2d-7119-4752-a288-d02d6d3527f6"},"vehicle_type_id":"4","last_reported":1736306026,"current_range_meters":27600,"station_id":"ce4bhah2rcd13ifvqei0","pricing_plan_id":"cebpf4jnsgd1na2vs0mg"},{"bike_id":"98ed5aa0-7233-4b30-8496-b45d455055fb","system_id":"levelo_inurba_marseille","lat":43.27919,"lon":5.39587,"is_reserved":false,"is_disabled":false,"rental_uris":{"android":"levelo://app?vid=98ed5aa0-7233-4b30-8496-b45d455055fb","ios":"levelo://app?vid=98ed5aa0-7233-4b30-8496-b45d455055fb"},"vehicle_type_id":"4","last_reported":1736306026,"current_range_meters":8000,"station_id":"ce4bhf92rcd13ifvqf40","pricing_plan_id":"cebpf4jnsgd1na2vs0mg"},{"bike_id":"ee40f252-9538-45ff-aae1-ab84a56267b0","system_id":"levelo_inurba_marseille","lat":43.26943,"lon":5.38648,"is_reserved":false,"is_disabled":false,"rental_uris":{"android":"levelo://app?vid=ee40f252-9538-45ff-aae1-ab84a56267b0","ios":"levelo://app?vid=ee40f252-9538-45ff-aae1-ab84a56267b0"},"vehicle_type_id":"4","last_reported":1736306026,"current_range_meters":12400,"station_id":"ce4bhh92rcd13ifvqfh0","pricing_plan_id":"cebpf4jnsgd1na2vs0mg"},{"bike_id":"de77c04a-e189-4114-8dcf-0064c4147977","system_id":"levelo_inurba_marseille","lat":43.30428,"lon":5.41277,"is_reserved":false,"is_disabled":false,"rental_uris":{"android":"levelo://app?vid=de77c04a-e189-4114-8dcf-0064c4147977","ios":"levelo://app?vid=de77c04a-e189-4114-8dcf-0064c4147977"},"vehicle_type_id":"4","last_reported":1736306026,"current_range_meters":25600,"station_id":"ce4bhop2rcd13ifvqh8g","pricing_plan_id":"cebpf4jnsgd1na2vs0mg"},{"bike_id":"15bb3280-a48e-44f3-998c-09cc0aee946e","system_id":"levelo_inurba_marseille","lat":43.284547,"lon":5.358879,"is_reserved":false,"is_disabled":false,"rental_uris":{"android":"levelo://app?vid=15bb3280-a48e-44f3-998c-09cc0aee946e","ios":"levelo://app?vid=15bb3280-a48e-44f3-998c-09cc0aee946e"},"vehicle_type_id":"4","last_reported":1736306026,"current_range_meters":16800,"station_id":"ce4bhah2rcd13ifvqei0","pricing_plan_id":"cebpf4jnsgd1na2vs0mg"},{"bike_id":"be8ba3ee-cd10-4770-8f17-84a6f3106e1d","system_id":"levelo_inurba_marseille","lat":43.30145,"lon":5.39863,"is_reserved":false,"is_disabled":false,"rental_uris":{"android":"levelo://app?vid=be8ba3ee-cd10-4770-8f17-84a6f3106e1d","ios":"levelo://app?vid=be8ba3ee-cd10-4770-8f17-84a6f3106e1d"},"vehicle_type_id":"4","last_reported":1736306026,"current_range_meters":36800,"station_id":"ce4bh0h2rcd13ifvqd40","pricing_plan_id":"cebpf4jnsgd1na2vs0mg"},{"bike_id":"3f73d438-6a74-405a-8c4a-d73a9d18c64a","system_id":"levelo_inurba_marseille","lat":43.27072,"lon":5.42281,"is_reserved":false,"is_disabled":false,"rental_uris":{"android":"levelo://app?vid=3f73d438-6a74-405a-8c4a-d73a9d18c64a","ios":"levelo://app?vid=3f73d438-6a74-405a-8c4a-d73a9d18c64a"},"vehicle_type_id":"4","last_reported":1736306026,"current_range_meters":36400,"station_id":"ce4bhk92rcd13ifvqgb0","pricing_plan_id":"cebpf4jnsgd1na2vs0mg"},{"bike_id":"ccefbdf4-df27-4947-9b01-eba3707af800","system_id":"levelo_inurba_marseille","lat":43.29563,"lon":5.38539,"is_reserved":false,"is_disabled":true,"rental_uris":{"android":"levelo://app?vid=ccefbdf4-df27-4947-9b01-eba3707af800","ios":"levelo://app?vid=ccefbdf4-df27-4947-9b01-eba3707af800"},"vehicle_type_id":"4","last_reported":1736306026,"current_range_meters":17200,"station_id":"ce4bgih2rcd13ifvqba0","pricing_plan_id":"cebpf4jnsgd1na2vs0mg"},{"bike_id":"ea60edce-76ab-4155-8e79-99022a30bcac","system_id":"levelo_inurba_marseille","lat":43.295543,"lon":5.422892,"is_reserved":false,"is_disabled":false,"rental_uris":{"android":"levelo://app?vid=ea60edce-76ab-4155-8e79-99022a30bcac","ios":"levelo://app?vid=ea60edce-76ab-4155-8e79-99022a30bcac"},"vehicle_type_id":"4","last_reported":1736306026,"current_range_meters":11600,"station_id":"ce4bhph2rcd13ifvqhdg","pricing_plan_id":"cebpf4jnsgd1na2vs0mg"},{"bike_id":"735796c1-f56b-4b50-986c-e54b22e4af30","system_id":"levelo_inurba_marseille","lat":43.284495,"lon":5.358813,"is_reserved":false,"is_disabled":false,"rental_uris":{"android":"levelo://app?vid=735796c1-f56b-4b50-986c-e54b22e4af30","ios":"levelo://app?vid=735796c1-f56b-4b50-986c-e54b22e4af30"},"vehicle_type_id":"4","last_reported":1736306026,"current_range_meters":38800,"station_id":"ce4bhah2rcd13ifvqei0","pricing_plan_id":"cebpf4jnsgd1na2vs0mg"},{"bike_id":"6a7019a4-4860-4e06-a25d-454fe2550959","system_id":"levelo_inurba_marseille","lat":43.28666,"lon":5.36342,"is_reserved":false,"is_disabled":false,"rental_uris":{"android":"levelo://app?vid=6a7019a4-4860-4e06-a25d-454fe2550959","ios":"levelo://app?vid=6a7019a4-4860-4e06-a25d-454fe2550959"},"vehicle_type_id":"4","last_reported":1736306026,"current_range_meters":37600,"station_id":"ce4bhah2rcd13ifvqej0","pricing_plan_id":"cebpf4jnsgd1na2vs0mg"},{"bike_id":"cbd2e76c-881c-4903-85d5-3e956be06ddd","system_id":"levelo_inurba_marseille","lat":43.298118,"lon":5.404011,"is_reserved":false,"is_disabled":false,"rental_uris":{"android":"levelo://app?vid=cbd2e76c-881c-4903-85d5-3e956be06ddd","ios":"levelo://app?vid=cbd2e76c-881c-4903-85d5-3e956be06ddd"},"vehicle_type_id":"4","last_reported":1736306026,"current_range_meters":37600,"station_id":"ce4bh112rcd13ifvqd90","pricing_plan_id":"cebpf4jnsgd1na2vs0mg"},{"bike_id":"95cc5ce5-aaa6-4e26-9dfd-a1aa159c85df","system_id":"levelo_inurba_marseille","lat":43.2979,"lon":5.39347,"is_reserved":false,"is_disabled":false,"rental_uris":{"android":"levelo://app?vid=95cc5ce5-aaa6-4e26-9dfd-a1aa159c85df","ios":"levelo://app?vid=95cc5ce5-aaa6-4e26-9dfd-a1aa159c85df"},"vehicle_type_id":"4","last_reported":1736306026,"current_range_meters":38800,"station_id":"chh1huq6cuj3fo74tm60","pricing_plan_id":"cebpf4jnsgd1na2vs0mg"},{"bike_id":"b13965eb-7a3e-487c-8f4f-1d2936af4009","system_id":"levelo_inurba_marseille","lat":43.258249,"lon":5.394235,"is_reserved":false,"is_disabled":false,"rental_uris":{"android":"levelo://app?vid=b13965eb-7a3e-487c-8f4f-1d2936af4009","ios":"levelo://app?vid=b13965eb-7a3e-487c-8f4f-1d2936af4009"},"vehicle_type_id":"4","last_reported":1736306026,"current_range_meters":38800,"station_id":"ce4bhip2rcd13ifvqft0","pricing_plan_id":"cebpf4jnsgd1na2vs0mg"},{"bike_id":"2caa7ff0-56a0-4a66-805c-847ccd11c31b","system_id":"levelo_inurba_marseille","lat":43.31319,"lon":5.39703,"is_reserved":false,"is_disabled":false,"rental_uris":{"android":"levelo://app?vid=2caa7ff0-56a0-4a66-805c-847ccd11c31b","ios":"levelo://app?vid=2caa7ff0-56a0-4a66-805c-847ccd11c31b"},"vehicle_type_id":"4","last_reported":1736306026,"current_range_meters":38000,"station_id":"ce4bgvp2rcd13ifvqcu0","pricing_plan_id":"cebpf4jnsgd1na2vs0mg"},{"bike_id":"7ed041a4-7bdf-4f3c-bce0-af2e72da1242","system_id":"levelo_inurba_marseille","lat":43.255754,"lon":5.382401,"is_reserved":false,"is_disabled":false,"rental_uris":{"android":"levelo://app?vid=7ed041a4-7bdf-4f3c-bce0-af2e72da1242","ios":"levelo://app?vid=7ed041a4-7bdf-4f3c-bce0-af2e72da1242"},"vehicle_type_id":"4","last_reported":1736306026,"current_range_meters":6800,"station_id":"ce4bhih2rcd13ifvqfs0","pricing_plan_id":"cebpf4jnsgd1na2vs0mg"},{"bike_id":"3ad0f3ed-1061-459e-b238-515ecfd1abd9","system_id":"levelo_inurba_marseille","lat":43.307801,"lon":5.376587,"is_reserved":false,"is_disabled":false,"rental_uris":{"android":"levelo://app?vid=3ad0f3ed-1061-459e-b238-515ecfd1abd9","ios":"levelo://app?vid=3ad0f3ed-1061-459e-b238-515ecfd1abd9"},"vehicle_type_id":"4","last_reported":1736306026,"current_range_meters":38800,"station_id":"ce4bgv92rcd13ifvqcq0","pricing_plan_id":"cebpf4jnsgd1na2vs0mg"},{"bike_id":"637c9e25-6ec5-4d5c-9ec9-ed6c73dcb821","system_id":"levelo_inurba_marseille","lat":43.3169,"lon":5.37763,"is_reserved":false,"is_disabled":false,"rental_uris":{"android":"levelo://app?vid=637c9e25-6ec5-4d5c-9ec9-ed6c73dcb821","ios":"levelo://app?vid=637c9e25-6ec5-4d5c-9ec9-ed6c73dcb821"},"vehicle_type_id":"4","last_reported":1736306026,"current_range_meters":32800,"station_id":"ce4bgth2rcd13ifvqch0","pricing_plan_id":"cebpf4jnsgd1na2vs0mg"},{"bike_id":"348e1602-1bb0-4b51-9ba3-012118339c74","system_id":"levelo_inurba_marseille","lat":43.2718,"lon":5.40988,"is_reserved":false,"is_disabled":false,"rental_uris":{"android":"levelo://app?vid=348e1602-1bb0-4b51-9ba3-012118339c74","ios":"levelo://app?vid=348e1602-1bb0-4b51-9ba3-012118339c74"},"vehicle_type_id":"4","last_reported":1736306026,"current_range_meters":33600,"station_id":"ce4bhl12rcd13ifvqgf0","pricing_plan_id":"cebpf4jnsgd1na2vs0mg"},{"bike_id":"b02fab9b-85e2-4691-a949-9c3558950865","system_id":"levelo_inurba_marseille","lat":43.31323,"lon":5.39672,"is_reserved":false,"is_disabled":false,"rental_uris":{"android":"levelo://app?vid=b02fab9b-85e2-4691-a949-9c3558950865","ios":"levelo://app?vid=b02fab9b-85e2-4691-a949-9c3558950865"},"vehicle_type_id":"4","last_reported":1736306026,"current_range_meters":37600,"station_id":"ce4bgvp2rcd13ifvqcu0","pricing_plan_id":"cebpf4jnsgd1na2vs0mg"},{"bike_id":"be418997-7c9d-4737-98e3-b90706366001","system_id":"levelo_inurba_marseille","lat":43.31536,"lon":5.3804,"is_reserved":false,"is_disabled":false,"rental_uris":{"android":"levelo://app?vid=be418997-7c9d-4737-98e3-b90706366001","ios":"levelo://app?vid=be418997-7c9d-4737-98e3-b90706366001"},"vehicle_type_id":"4","last_reported":1736306026,"current_range_meters":26800,"station_id":"ce4bhsp2rcd13ifvqi50","pricing_plan_id":"cebpf4jnsgd1na2vs0mg"},{"bike_id":"5671a7cc-1094-4b46-906d-b97f733ad9e2","system_id":"levelo_inurba_marseille","lat":43.303,"lon":5.40457,"is_reserved":false,"is_disabled":true,"rental_uris":{"android":"levelo://app?vid=5671a7cc-1094-4b46-906d-b97f733ad9e2","ios":"levelo://app?vid=5671a7cc-1094-4b46-906d-b97f733ad9e2"},"vehicle_type_id":"4","last_reported":1736306026,"current_range_meters":34800,"station_id":"ce4bh012rcd13ifvqd10","pricing_plan_id":"cebpf4jnsgd1na2vs0mg"},{"bike_id":"39b43ba6-0256-4c8f-b96b-d9500d716617","system_id":"levelo_inurba_marseille","lat":43.26803,"lon":5.40268,"is_reserved":false,"is_disabled":false,"rental_uris":{"android":"levelo://app?vid=39b43ba6-0256-4c8f-b96b-d9500d716617","ios":"levelo://app?vid=39b43ba6-0256-4c8f-b96b-d9500d716617"},"vehicle_type_id":"4","last_reported":1736306026,"current_range_meters":38800,"station_id":"ce501612rcd8frsf0b60","pricing_plan_id":"cebpf4jnsgd1na2vs0mg"},{"bike_id":"beb0f8f6-6b97-4754-a562-6cc20c2e53f0","system_id":"levelo_inurba_marseille","lat":43.289326,"lon":5.363983,"is_reserved":false,"is_disabled":false,"rental_uris":{"android":"levelo://app?vid=beb0f8f6-6b97-4754-a562-6cc20c2e53f0","ios":"levelo://app?vid=beb0f8f6-6b97-4754-a562-6cc20c2e53f0"},"vehicle_type_id":"4","last_reported":1736306026,"current_range_meters":28400,"station_id":"ce4bhc92rcd13ifvqetg","pricing_plan_id":"cebpf4jnsgd1na2vs0mg"},{"bike_id":"005c2044-0c78-410b-b1cd-e1e9feaa0e05","system_id":"levelo_inurba_marseille","lat":43.239641,"lon":5.36631,"is_reserved":false,"is_disabled":false,"rental_uris":{"android":"levelo://app?vid=005c2044-0c78-410b-b1cd-e1e9feaa0e05","ios":"levelo://app?vid=005c2044-0c78-410b-b1cd-e1e9feaa0e05"},"vehicle_type_id":"4","last_reported":1736306026,"current_range_meters":16000,"station_id":"ce4bhi12rcd13ifvqfp0","pricing_plan_id":"cebpf4jnsgd1na2vs0mg"},{"bike_id":"db190856-6440-4075-89bd-6bb8e507459d","system_id":"levelo_inurba_marseille","lat":43.23962,"lon":5.36625,"is_reserved":false,"is_disabled":false,"rental_uris":{"android":"levelo://app?vid=db190856-6440-4075-89bd-6bb8e507459d","ios":"levelo://app?vid=db190856-6440-4075-89bd-6bb8e507459d"},"vehicle_type_id":"4","last_reported":1736306026,"current_range_meters":10000,"station_id":"ce4bhi12rcd13ifvqfp0","pricing_plan_id":"cebpf4jnsgd1na2vs0mg"},{"bike_id":"d9a07ef6-087e-4a9e-aa1e-dd5b0fa1016f","system_id":"levelo_inurba_marseille","lat":43.313693,"lon":5.384957,"is_reserved":false,"is_disabled":false,"rental_uris":{"android":"levelo://app?vid=d9a07ef6-087e-4a9e-aa1e-dd5b0fa1016f","ios":"levelo://app?vid=d9a07ef6-087e-4a9e-aa1e-dd5b0fa1016f"},"vehicle_type_id":"4","last_reported":1736306026,"current_range_meters":37600,"station_id":"ce4bgt92rcd13ifvqcf0","pricing_plan_id":"cebpf4jnsgd1na2vs0mg"},{"bike_id":"eb39582e-3897-4c8c-a620-02f21799f444","system_id":"levelo_inurba_marseille","lat":43.31171,"lon":5.38718,"is_reserved":false,"is_disabled":false,"rental_uris":{"android":"levelo://app?vid=eb39582e-3897-4c8c-a620-02f21799f444","ios":"levelo://app?vid=eb39582e-3897-4c8c-a620-02f21799f444"},"vehicle_type_id":"4","last_reported":1736306026,"current_range_meters":30400,"station_id":"ce4bgv12rcd13ifvqcp0","pricing_plan_id":"cebpf4jnsgd1na2vs0mg"},{"bike_id":"6e0d98cd-5570-4d77-8ebc-261cf7278b90","system_id":"levelo_inurba_marseille","lat":43.31285,"lon":5.4017,"is_reserved":false,"is_disabled":false,"rental_uris":{"android":"levelo://app?vid=6e0d98cd-5570-4d77-8ebc-261cf7278b90","ios":"levelo://app?vid=6e0d98cd-5570-4d77-8ebc-261cf7278b90"},"vehicle_type_id":"4","last_reported":1736306026,"current_range_meters":34000,"station_id":"ce4bh092rcd13ifvqd30","pricing_plan_id":"cebpf4jnsgd1na2vs0mg"},{"bike_id":"94ae9d8d-339e-41f5-bf14-1e9df4322647","system_id":"levelo_inurba_marseille","lat":43.27501,"lon":5.42456,"is_reserved":false,"is_disabled":true,"rental_uris":{"android":"levelo://app?vid=94ae9d8d-339e-41f5-bf14-1e9df4322647","ios":"levelo://app?vid=94ae9d8d-339e-41f5-bf14-1e9df4322647"},"vehicle_type_id":"4","last_reported":1736306026,"current_range_meters":33600,"station_id":"ce4bhn92rcd13ifvqgrg","pricing_plan_id":"cebpf4jnsgd1na2vs0mg"},{"bike_id":"6a595de3-0911-46a9-bdbf-4cca5437105e","system_id":"levelo_inurba_marseille","lat":43.23206,"lon":5.35553,"is_reserved":false,"is_disabled":false,"rental_uris":{"android":"levelo://app?vid=6a595de3-0911-46a9-bdbf-4cca5437105e","ios":"levelo://app?vid=6a595de3-0911-46a9-bdbf-4cca5437105e"},"vehicle_type_id":"4","last_reported":1736306026,"current_range_meters":12000,"station_id":"ce4bhu92rcd13ifvqi70","pricing_plan_id":"cebpf4jnsgd1na2vs0mg"},{"bike_id":"641d8acc-50b2-4173-ab23-c70f2a11d28e","system_id":"levelo_inurba_marseille","lat":43.281504,"lon":5.426435,"is_reserved":false,"is_disabled":true,"rental_uris":{"android":"levelo://app?vid=641d8acc-50b2-4173-ab23-c70f2a11d28e","ios":"levelo://app?vid=641d8acc-50b2-4173-ab23-c70f2a11d28e"},"vehicle_type_id":"4","last_reported":1736306026,"current_range_meters":21600,"station_id":"ce4bhnh2rcd13ifvqgug","pricing_plan_id":"cebpf4jnsgd1na2vs0mg"},{"bike_id":"71070e26-a9d7-4eae-99da-f42f1907a4db","system_id":"levelo_inurba_marseille","lat":43.27554,"lon":5.38449,"is_reserved":false,"is_disabled":false,"rental_uris":{"android":"levelo://app?vid=71070e26-a9d7-4eae-99da-f42f1907a4db","ios":"levelo://app?vid=71070e26-a9d7-4eae-99da-f42f1907a4db"},"vehicle_type_id":"4","last_reported":1736306026,"current_range_meters":38800,"station_id":"ce4bhh92rcd13ifvqfi0","pricing_plan_id":"cebpf4jnsgd1na2vs0mg"},{"bike_id":"15e503f5-1d52-42d6-a98f-33a61fd8b554","system_id":"levelo_inurba_marseille","lat":43.28465,"lon":5.35888,"is_reserved":false,"is_disabled":true,"rental_uris":{"android":"levelo://app?vid=15e503f5-1d52-42d6-a98f-33a61fd8b554","ios":"levelo://app?vid=15e503f5-1d52-42d6-a98f-33a61fd8b554"},"vehicle_type_id":"4","last_reported":1736306026,"current_range_meters":12400,"station_id":"ce4bhah2rcd13ifvqei0","pricing_plan_id":"cebpf4jnsgd1na2vs0mg"},{"bike_id":"c578da42-a8a4-4d07-bc32-1d6d6fff65b3","system_id":"levelo_inurba_marseille","lat":43.30781,"lon":5.37654,"is_reserved":false,"is_disabled":false,"rental_uris":{"android":"levelo://app?vid=c578da42-a8a4-4d07-bc32-1d6d6fff65b3","ios":"levelo://app?vid=c578da42-a8a4-4d07-bc32-1d6d6fff65b3"},"vehicle_type_id":"4","last_reported":1736306026,"current_range_meters":20400,"station_id":"ce4bgv92rcd13ifvqcq0","pricing_plan_id":"cebpf4jnsgd1na2vs0mg"},{"bike_id":"41ec9a05-f1a2-4572-a6d0-2c637b262d9a","system_id":"levelo_inurba_marseille","lat":43.31072,"lon":5.37777,"is_reserved":false,"is_disabled":false,"rental_uris":{"android":"levelo://app?vid=41ec9a05-f1a2-4572-a6d0-2c637b262d9a","ios":"levelo://app?vid=41ec9a05-f1a2-4572-a6d0-2c637b262d9a"},"vehicle_type_id":"4","last_reported":1736306026,"current_range_meters":38000,"station_id":"ce4bgt92rcd13ifvqcg0","pricing_plan_id":"cebpf4jnsgd1na2vs0mg"},{"bike_id":"2efc3d70-beec-4b72-95a6-75bd5ab3438d","system_id":"levelo_inurba_marseille","lat":43.30804,"lon":5.37632,"is_reserved":false,"is_disabled":false,"rental_uris":{"android":"levelo://app?vid=2efc3d70-beec-4b72-95a6-75bd5ab3438d","ios":"levelo://app?vid=2efc3d70-beec-4b72-95a6-75bd5ab3438d"},"vehicle_type_id":"4","last_reported":1736306026,"current_range_meters":38800,"station_id":"ce4bgv92rcd13ifvqcq0","pricing_plan_id":"cebpf4jnsgd1na2vs0mg"},{"bike_id":"44ab28fa-0b3d-469d-97ff-06319e1159ef","system_id":"levelo_inurba_marseille","lat":43.239606,"lon":5.366452,"is_reserved":false,"is_disabled":false,"rental_uris":{"android":"levelo://app?vid=44ab28fa-0b3d-469d-97ff-06319e1159ef","ios":"levelo://app?vid=44ab28fa-0b3d-469d-97ff-06319e1159ef"},"vehicle_type_id":"4","last_reported":1736306026,"current_range_meters":16800,"station_id":"ce4bhi12rcd13ifvqfp0","pricing_plan_id":"cebpf4jnsgd1na2vs0mg"},{"bike_id":"a5180145-a807-483d-a45b-ef2f16240458","system_id":"levelo_inurba_marseille","lat":43.30252,"lon":5.40064,"is_reserved":false,"is_disabled":false,"rental_uris":{"android":"levelo://app?vid=a5180145-a807-483d-a45b-ef2f16240458","ios":"levelo://app?vid=a5180145-a807-483d-a45b-ef2f16240458"},"vehicle_type_id":"4","last_reported":1736306026,"current_range_meters":38800,"station_id":"ce4bgvh2rcd13ifvqcs0","pricing_plan_id":"cebpf4jnsgd1na2vs0mg"},{"bike_id":"5da25934-6d18-47f1-9814-e42b3a4c77ef","system_id":"levelo_inurba_marseille","lat":43.25836,"lon":5.39414,"is_reserved":false,"is_disabled":false,"rental_uris":{"android":"levelo://app?vid=5da25934-6d18-47f1-9814-e42b3a4c77ef","ios":"levelo://app?vid=5da25934-6d18-47f1-9814-e42b3a4c77ef"},"vehicle_type_id":"4","last_reported":1736306026,"current_range_meters":38800,"station_id":"ce4bhip2rcd13ifvqft0","pricing_plan_id":"cebpf4jnsgd1na2vs0mg"},{"bike_id":"ac576b83-7d6b-45b8-95dc-b41cbfa5ddf9","system_id":"levelo_inurba_marseille","lat":43.30919,"lon":5.39051,"is_reserved":false,"is_disabled":false,"rental_uris":{"android":"levelo://app?vid=ac576b83-7d6b-45b8-95dc-b41cbfa5ddf9","ios":"levelo://app?vid=ac576b83-7d6b-45b8-95dc-b41cbfa5ddf9"},"vehicle_type_id":"4","last_reported":1736306026,"current_range_meters":38000,"station_id":"ce4bgup2rcd13ifvqco0","pricing_plan_id":"cebpf4jnsgd1na2vs0mg"},{"bike_id":"36d9d5ad-c9a0-4be5-b12c-deca611c49d0","system_id":"levelo_inurba_marseille","lat":43.292991,"lon":5.374633,"is_reserved":false,"is_disabled":true,"rental_uris":{"android":"levelo://app?vid=36d9d5ad-c9a0-4be5-b12c-deca611c49d0","ios":"levelo://app?vid=36d9d5ad-c9a0-4be5-b12c-deca611c49d0"},"vehicle_type_id":"4","last_reported":1736306026,"current_range_meters":33600,"station_id":"ce4bh5p2rcd13ifvqe4g","pricing_plan_id":"cebpf4jnsgd1na2vs0mg"},{"bike_id":"6d88bbf0-f428-4bd4-ab8a-2ee8d5e7c74e","system_id":"levelo_inurba_marseille","lat":43.230663,"lon":5.355049,"is_reserved":false,"is_disabled":false,"rental_uris":{"android":"levelo://app?vid=6d88bbf0-f428-4bd4-ab8a-2ee8d5e7c74e","ios":"levelo://app?vid=6d88bbf0-f428-4bd4-ab8a-2ee8d5e7c74e"},"vehicle_type_id":"4","last_reported":1736306026,"current_range_meters":36400,"station_id":"cpo3342slgdg3j2ifvpg","pricing_plan_id":"cebpf4jnsgd1na2vs0mg"},{"bike_id":"167c24b2-cea6-4450-aa93-c6475e41dac0","system_id":"levelo_inurba_marseille","lat":43.28196,"lon":5.39054,"is_reserved":false,"is_disabled":false,"rental_uris":{"android":"levelo://app?vid=167c24b2-cea6-4450-aa93-c6475e41dac0","ios":"levelo://app?vid=167c24b2-cea6-4450-aa93-c6475e41dac0"},"vehicle_type_id":"4","last_reported":1736306026,"current_range_meters":12000,"station_id":"","pricing_plan_id":"cebpf4jnsgd1na2vs0mg"},{"bike_id":"fc28be46-23fe-4f09-821c-8a3bd21ca77c","system_id":"levelo_inurba_marseille","lat":43.2558,"lon":5.38224,"is_reserved":false,"is_disabled":false,"rental_uris":{"android":"levelo://app?vid=fc28be46-23fe-4f09-821c-8a3bd21ca77c","ios":"levelo://app?vid=fc28be46-23fe-4f09-821c-8a3bd21ca77c"},"vehicle_type_id":"4","last_reported":1736306026,"current_range_meters":38400,"station_id":"ce4bhih2rcd13ifvqfs0","pricing_plan_id":"cebpf4jnsgd1na2vs0mg"},{"bike_id":"73bdb2d1-65ed-4c1b-b682-62aa4c41c7ac","system_id":"levelo_inurba_marseille","lat":43.30926,"lon":5.40161,"is_reserved":false,"is_disabled":false,"rental_uris":{"android":"levelo://app?vid=73bdb2d1-65ed-4c1b-b682-62aa4c41c7ac","ios":"levelo://app?vid=73bdb2d1-65ed-4c1b-b682-62aa4c41c7ac"},"vehicle_type_id":"4","last_reported":1736306026,"current_range_meters":31200,"station_id":"ce4bgvp2rcd13ifvqct0","pricing_plan_id":"cebpf4jnsgd1na2vs0mg"},{"bike_id":"06a8284e-b677-4fb3-943d-a46c2e71ed35","system_id":"levelo_inurba_marseille","lat":43.280309,"lon":5.369327,"is_reserved":false,"is_disabled":false,"rental_uris":{"android":"levelo://app?vid=06a8284e-b677-4fb3-943d-a46c2e71ed35","ios":"levelo://app?vid=06a8284e-b677-4fb3-943d-a46c2e71ed35"},"vehicle_type_id":"4","last_reported":1736306026,"current_range_meters":16800,"station_id":"ce4bha12rcd13ifvqef0","pricing_plan_id":"cebpf4jnsgd1na2vs0mg"},{"bike_id":"0a2f2e6c-069d-4589-8031-d2c9ffce8ecf","system_id":"levelo_inurba_marseille","lat":43.31361,"lon":5.38497,"is_reserved":false,"is_disabled":false,"rental_uris":{"android":"levelo://app?vid=0a2f2e6c-069d-4589-8031-d2c9ffce8ecf","ios":"levelo://app?vid=0a2f2e6c-069d-4589-8031-d2c9ffce8ecf"},"vehicle_type_id":"4","last_reported":1736306026,"current_range_meters":38800,"station_id":"ce4bgt92rcd13ifvqcf0","pricing_plan_id":"cebpf4jnsgd1na2vs0mg"},{"bike_id":"768e9c78-d0a3-4809-a132-8653852c97b2","system_id":"levelo_inurba_marseille","lat":43.27501,"lon":5.424509,"is_reserved":false,"is_disabled":false,"rental_uris":{"android":"levelo://app?vid=768e9c78-d0a3-4809-a132-8653852c97b2","ios":"levelo://app?vid=768e9c78-d0a3-4809-a132-8653852c97b2"},"vehicle_type_id":"4","last_reported":1736306026,"current_range_meters":22000,"station_id":"ce4bhn92rcd13ifvqgrg","pricing_plan_id":"cebpf4jnsgd1na2vs0mg"},{"bike_id":"c55ec4cf-0abd-4003-a2de-665a0c674a35","system_id":"levelo_inurba_marseille","lat":43.2807,"lon":5.39652,"is_reserved":false,"is_disabled":false,"rental_uris":{"android":"levelo://app?vid=c55ec4cf-0abd-4003-a2de-665a0c674a35","ios":"levelo://app?vid=c55ec4cf-0abd-4003-a2de-665a0c674a35"},"vehicle_type_id":"4","last_reported":1736306026,"current_range_meters":25200,"station_id":"ce4bho12rcd13ifvqh2g","pricing_plan_id":"cebpf4jnsgd1na2vs0mg"},{"bike_id":"3fb13664-6662-4481-a42c-e0f9830bd7f5","system_id":"levelo_inurba_marseille","lat":43.28102,"lon":5.37814,"is_reserved":false,"is_disabled":false,"rental_uris":{"android":"levelo://app?vid=3fb13664-6662-4481-a42c-e0f9830bd7f5","ios":"levelo://app?vid=3fb13664-6662-4481-a42c-e0f9830bd7f5"},"vehicle_type_id":"4","last_reported":1736306026,"current_range_meters":34000,"station_id":"ce4bha12rcd13ifvqee0","pricing_plan_id":"cebpf4jnsgd1na2vs0mg"},{"bike_id":"05171470-9655-4536-889b-43822d7bd8f5","system_id":"levelo_inurba_marseille","lat":43.312713,"lon":5.373787,"is_reserved":false,"is_disabled":false,"rental_uris":{"android":"levelo://app?vid=05171470-9655-4536-889b-43822d7bd8f5","ios":"levelo://app?vid=05171470-9655-4536-889b-43822d7bd8f5"},"vehicle_type_id":"4","last_reported":1736306026,"current_range_meters":10800,"station_id":"","pricing_plan_id":"cebpf4jnsgd1na2vs0mg"},{"bike_id":"ab0eca42-b414-4832-aedd-95fc9255e0e7","system_id":"levelo_inurba_marseille","lat":43.29048,"lon":5.39966,"is_reserved":false,"is_disabled":false,"rental_uris":{"android":"levelo://app?vid=ab0eca42-b414-4832-aedd-95fc9255e0e7","ios":"levelo://app?vid=ab0eca42-b414-4832-aedd-95fc9255e0e7"},"vehicle_type_id":"4","last_reported":1736306026,"current_range_meters":10800,"station_id":"ce4bh392rcd13ifvqdm0","pricing_plan_id":"cebpf4jnsgd1na2vs0mg"},{"bike_id":"f4485267-9cb2-445f-b45d-ced2f7f46376","system_id":"levelo_inurba_marseille","lat":43.28673,"lon":5.36344,"is_reserved":false,"is_disabled":false,"rental_uris":{"android":"levelo://app?vid=f4485267-9cb2-445f-b45d-ced2f7f46376","ios":"levelo://app?vid=f4485267-9cb2-445f-b45d-ced2f7f46376"},"vehicle_type_id":"4","last_reported":1736306026,"current_range_meters":38400,"station_id":"ce4bhah2rcd13ifvqej0","pricing_plan_id":"cebpf4jnsgd1na2vs0mg"},{"bike_id":"d0f7f7c9-5d11-43e5-ac3d-598fa4404ec8","system_id":"levelo_inurba_marseille","lat":43.23186,"lon":5.39978,"is_reserved":false,"is_disabled":false,"rental_uris":{"android":"levelo://app?vid=d0f7f7c9-5d11-43e5-ac3d-598fa4404ec8","ios":"levelo://app?vid=d0f7f7c9-5d11-43e5-ac3d-598fa4404ec8"},"vehicle_type_id":"4","last_reported":1736306026,"current_range_meters":20400,"station_id":"ce4bhn12rcd13ifvqgqg","pricing_plan_id":"cebpf4jnsgd1na2vs0mg"},{"bike_id":"3cd8dc7e-334e-49ea-81a0-9f0c97db9f7e","system_id":"levelo_inurba_marseille","lat":43.29231,"lon":5.40251,"is_reserved":false,"is_disabled":false,"rental_uris":{"android":"levelo://app?vid=3cd8dc7e-334e-49ea-81a0-9f0c97db9f7e","ios":"levelo://app?vid=3cd8dc7e-334e-49ea-81a0-9f0c97db9f7e"},"vehicle_type_id":"4","last_reported":1736306026,"current_range_meters":38800,"station_id":"ce4bh312rcd13ifvqdk0","pricing_plan_id":"cebpf4jnsgd1na2vs0mg"},{"bike_id":"7cb6f5cc-452f-419e-9da1-f27fcae37391","system_id":"levelo_inurba_marseille","lat":43.286616,"lon":5.363511,"is_reserved":false,"is_disabled":false,"rental_uris":{"android":"levelo://app?vid=7cb6f5cc-452f-419e-9da1-f27fcae37391","ios":"levelo://app?vid=7cb6f5cc-452f-419e-9da1-f27fcae37391"},"vehicle_type_id":"4","last_reported":1736306026,"current_range_meters":38800,"station_id":"ce4bhah2rcd13ifvqej0","pricing_plan_id":"cebpf4jnsgd1na2vs0mg"},{"bike_id":"664c9e1f-b826-49b9-9392-47dc504cd46e","system_id":"levelo_inurba_marseille","lat":43.2869,"lon":5.40008,"is_reserved":false,"is_disabled":false,"rental_uris":{"android":"levelo://app?vid=664c9e1f-b826-49b9-9392-47dc504cd46e","ios":"levelo://app?vid=664c9e1f-b826-49b9-9392-47dc504cd46e"},"vehicle_type_id":"4","last_reported":1736306026,"current_range_meters":38800,"station_id":"ce4bho92rcd13ifvqh3g","pricing_plan_id":"cebpf4jnsgd1na2vs0mg"},{"bike_id":"b3e74576-3661-44a1-9920-c9d87eb9988a","system_id":"levelo_inurba_marseille","lat":43.326544,"lon":5.409915,"is_reserved":false,"is_disabled":false,"rental_uris":{"android":"levelo://app?vid=b3e74576-3661-44a1-9920-c9d87eb9988a","ios":"levelo://app?vid=b3e74576-3661-44a1-9920-c9d87eb9988a"},"vehicle_type_id":"4","last_reported":1736306026,"current_range_meters":38000,"station_id":"ce4bhpp2rcd13ifvqhgg","pricing_plan_id":"cebpf4jnsgd1na2vs0mg"},{"bike_id":"46601624-4642-4090-b267-fe48ebb0857a","system_id":"levelo_inurba_marseille","lat":43.30242,"lon":5.40073,"is_reserved":false,"is_disabled":false,"rental_uris":{"android":"levelo://app?vid=46601624-4642-4090-b267-fe48ebb0857a","ios":"levelo://app?vid=46601624-4642-4090-b267-fe48ebb0857a"},"vehicle_type_id":"4","last_reported":1736306026,"current_range_meters":36800,"station_id":"ce4bgvh2rcd13ifvqcs0","pricing_plan_id":"cebpf4jnsgd1na2vs0mg"},{"bike_id":"257c7a47-4074-4a91-b13c-b76f6fa570cc","system_id":"levelo_inurba_marseille","lat":43.2558,"lon":5.38238,"is_reserved":false,"is_disabled":false,"rental_uris":{"android":"levelo://app?vid=257c7a47-4074-4a91-b13c-b76f6fa570cc","ios":"levelo://app?vid=257c7a47-4074-4a91-b13c-b76f6fa570cc"},"vehicle_type_id":"4","last_reported":1736306026,"current_range_meters":28800,"station_id":"ce4bhih2rcd13ifvqfs0","pricing_plan_id":"cebpf4jnsgd1na2vs0mg"},{"bike_id":"cdfea266-e5fd-4018-a292-1ba3701f72dd","system_id":"levelo_inurba_marseille","lat":43.254953,"lon":5.376503,"is_reserved":false,"is_disabled":false,"rental_uris":{"android":"levelo://app?vid=cdfea266-e5fd-4018-a292-1ba3701f72dd","ios":"levelo://app?vid=cdfea266-e5fd-4018-a292-1ba3701f72dd"},"vehicle_type_id":"4","last_reported":1736306026,"current_range_meters":29600,"station_id":"ce4bhh12rcd13ifvqff0","pricing_plan_id":"cebpf4jnsgd1na2vs0mg"},{"bike_id":"5a3d3736-8dd8-474b-9443-eccca0fd88f2","system_id":"levelo_inurba_marseille","lat":43.28466,"lon":5.35887,"is_reserved":false,"is_disabled":false,"rental_uris":{"android":"levelo://app?vid=5a3d3736-8dd8-474b-9443-eccca0fd88f2","ios":"levelo://app?vid=5a3d3736-8dd8-474b-9443-eccca0fd88f2"},"vehicle_type_id":"4","last_reported":1736306026,"current_range_meters":32400,"station_id":"ce4bhah2rcd13ifvqei0","pricing_plan_id":"cebpf4jnsgd1na2vs0mg"},{"bike_id":"d17d631b-7434-4c3f-a667-cb43ae2fd84f","system_id":"levelo_inurba_marseille","lat":43.288449,"lon":5.358582,"is_reserved":false,"is_disabled":false,"rental_uris":{"android":"levelo://app?vid=d17d631b-7434-4c3f-a667-cb43ae2fd84f","ios":"levelo://app?vid=d17d631b-7434-4c3f-a667-cb43ae2fd84f"},"vehicle_type_id":"4","last_reported":1736306026,"current_range_meters":38800,"station_id":"ce4bhb12rcd13ifvqem0","pricing_plan_id":"cebpf4jnsgd1na2vs0mg"},{"bike_id":"cf55238d-3e2d-485d-8238-c5609593f49b","system_id":"levelo_inurba_marseille","lat":43.26693,"lon":5.38277,"is_reserved":false,"is_disabled":true,"rental_uris":{"android":"levelo://app?vid=cf55238d-3e2d-485d-8238-c5609593f49b","ios":"levelo://app?vid=cf55238d-3e2d-485d-8238-c5609593f49b"},"vehicle_type_id":"4","last_reported":1736306026,"current_range_meters":24000,"station_id":"ce4bhg92rcd13ifvqf90","pricing_plan_id":"cebpf4jnsgd1na2vs0mg"},{"bike_id":"336be5b4-41be-4c93-8b79-276dcd225506","system_id":"levelo_inurba_marseille","lat":43.29203,"lon":5.36029,"is_reserved":false,"is_disabled":true,"rental_uris":{"android":"levelo://app?vid=336be5b4-41be-4c93-8b79-276dcd225506","ios":"levelo://app?vid=336be5b4-41be-4c93-8b79-276dcd225506"},"vehicle_type_id":"4","last_reported":1736306026,"current_range_meters":28000,"station_id":"ce4bhbh2rcd13ifvqeqg","pricing_plan_id":"cebpf4jnsgd1na2vs0mg"},{"bike_id":"dbaf93cd-21d1-4ac9-9cbd-196c2b40affd","system_id":"levelo_inurba_marseille","lat":43.30136,"lon":5.39883,"is_reserved":false,"is_disabled":false,"rental_uris":{"android":"levelo://app?vid=dbaf93cd-21d1-4ac9-9cbd-196c2b40affd","ios":"levelo://app?vid=dbaf93cd-21d1-4ac9-9cbd-196c2b40affd"},"vehicle_type_id":"4","last_reported":1736306026,"current_range_meters":38400,"station_id":"ce4bh0h2rcd13ifvqd40","pricing_plan_id":"cebpf4jnsgd1na2vs0mg"},{"bike_id":"f69b77cd-6d5e-4725-bf20-65ce5cc10847","system_id":"levelo_inurba_marseille","lat":43.2987,"lon":5.39736,"is_reserved":false,"is_disabled":false,"rental_uris":{"android":"levelo://app?vid=f69b77cd-6d5e-4725-bf20-65ce5cc10847","ios":"levelo://app?vid=f69b77cd-6d5e-4725-bf20-65ce5cc10847"},"vehicle_type_id":"4","last_reported":1736306026,"current_range_meters":38800,"station_id":"ce4bh0h2rcd13ifvqd50","pricing_plan_id":"cebpf4jnsgd1na2vs0mg"},{"bike_id":"a9832cae-9c90-4e32-b592-d87dfcb6ad90","system_id":"levelo_inurba_marseille","lat":43.308817,"lon":5.396419,"is_reserved":false,"is_disabled":false,"rental_uris":{"android":"levelo://app?vid=a9832cae-9c90-4e32-b592-d87dfcb6ad90","ios":"levelo://app?vid=a9832cae-9c90-4e32-b592-d87dfcb6ad90"},"vehicle_type_id":"4","last_reported":1736306026,"current_range_meters":9600,"station_id":"ce4bh012rcd13ifvqcv0","pricing_plan_id":"cebpf4jnsgd1na2vs0mg"},{"bike_id":"359c99d3-e9a6-4317-9ff6-fe07a6e6fedd","system_id":"levelo_inurba_marseille","lat":43.32064,"lon":5.41561,"is_reserved":false,"is_disabled":false,"rental_uris":{"android":"levelo://app?vid=359c99d3-e9a6-4317-9ff6-fe07a6e6fedd","ios":"levelo://app?vid=359c99d3-e9a6-4317-9ff6-fe07a6e6fedd"},"vehicle_type_id":"4","last_reported":1736306026,"current_range_meters":38800,"station_id":"ce4bhq92rcd13ifvqhkg","pricing_plan_id":"cebpf4jnsgd1na2vs0mg"},{"bike_id":"311e38b6-ab5a-4a2c-8b41-6425f4338753","system_id":"levelo_inurba_marseille","lat":43.32362,"lon":5.38886,"is_reserved":false,"is_disabled":false,"rental_uris":{"android":"levelo://app?vid=311e38b6-ab5a-4a2c-8b41-6425f4338753","ios":"levelo://app?vid=311e38b6-ab5a-4a2c-8b41-6425f4338753"},"vehicle_type_id":"4","last_reported":1736306026,"current_range_meters":32800,"station_id":"ce4bhqp2rcd13ifvqhog","pricing_plan_id":"cebpf4jnsgd1na2vs0mg"},{"bike_id":"2bc8b5be-1bd4-423a-a64a-1fb5b612c1a2","system_id":"levelo_inurba_marseille","lat":43.29032,"lon":5.35913,"is_reserved":false,"is_disabled":false,"rental_uris":{"android":"levelo://app?vid=2bc8b5be-1bd4-423a-a64a-1fb5b612c1a2","ios":"levelo://app?vid=2bc8b5be-1bd4-423a-a64a-1fb5b612c1a2"},"vehicle_type_id":"4","last_reported":1736306026,"current_range_meters":28800,"station_id":"ce4bha92rcd13ifvqeg0","pricing_plan_id":"cebpf4jnsgd1na2vs0mg"},{"bike_id":"888a8d03-e6ea-46d6-ac93-b28aafef49da","system_id":"levelo_inurba_marseille","lat":43.2843,"lon":5.35898,"is_reserved":false,"is_disabled":false,"rental_uris":{"android":"levelo://app?vid=888a8d03-e6ea-46d6-ac93-b28aafef49da","ios":"levelo://app?vid=888a8d03-e6ea-46d6-ac93-b28aafef49da"},"vehicle_type_id":"4","last_reported":1736306026,"current_range_meters":19200,"station_id":"ce4bhah2rcd13ifvqei0","pricing_plan_id":"cebpf4jnsgd1na2vs0mg"},{"bike_id":"12195799-3bdd-4f45-bf33-c82043eac899","system_id":"levelo_inurba_marseille","lat":43.31896,"lon":5.40716,"is_reserved":false,"is_disabled":false,"rental_uris":{"android":"levelo://app?vid=12195799-3bdd-4f45-bf33-c82043eac899","ios":"levelo://app?vid=12195799-3bdd-4f45-bf33-c82043eac899"},"vehicle_type_id":"4","last_reported":1736306026,"current_range_meters":38800,"station_id":"ce4bhq12rcd13ifvqhig","pricing_plan_id":"cebpf4jnsgd1na2vs0mg"},{"bike_id":"daa5c66b-3e60-4a9f-9e8f-000065cc2082","system_id":"levelo_inurba_marseille","lat":43.30857,"lon":5.39642,"is_reserved":false,"is_disabled":false,"rental_uris":{"android":"levelo://app?vid=daa5c66b-3e60-4a9f-9e8f-000065cc2082","ios":"levelo://app?vid=daa5c66b-3e60-4a9f-9e8f-000065cc2082"},"vehicle_type_id":"4","last_reported":1736306026,"current_range_meters":22800,"station_id":"","pricing_plan_id":"cebpf4jnsgd1na2vs0mg"},{"bike_id":"5403d052-f6c1-44a7-bf19-f8f8fca12ef0","system_id":"levelo_inurba_marseille","lat":43.28,"lon":5.40009,"is_reserved":false,"is_disabled":false,"rental_uris":{"android":"levelo://app?vid=5403d052-f6c1-44a7-bf19-f8f8fca12ef0","ios":"levelo://app?vid=5403d052-f6c1-44a7-bf19-f8f8fca12ef0"},"vehicle_type_id":"4","last_reported":1736306026,"current_range_meters":38000,"station_id":"ce4bho92rcd13ifvqh4g","pricing_plan_id":"cebpf4jnsgd1na2vs0mg"},{"bike_id":"a4dec33a-3574-46ab-bf07-5ce5a74a1fd6","system_id":"levelo_inurba_marseille","lat":43.28625,"lon":5.3511,"is_reserved":false,"is_disabled":false,"rental_uris":{"android":"levelo://app?vid=a4dec33a-3574-46ab-bf07-5ce5a74a1fd6","ios":"levelo://app?vid=a4dec33a-3574-46ab-bf07-5ce5a74a1fd6"},"vehicle_type_id":"4","last_reported":1736306026,"current_range_meters":28400,"station_id":"ce4bhch2rcd13ifvqeug","pricing_plan_id":"cebpf4jnsgd1na2vs0mg"},{"bike_id":"e63f1381-465a-42a4-9983-175aafc43e9d","system_id":"levelo_inurba_marseille","lat":43.2314,"lon":5.43715,"is_reserved":false,"is_disabled":false,"rental_uris":{"android":"levelo://app?vid=e63f1381-465a-42a4-9983-175aafc43e9d","ios":"levelo://app?vid=e63f1381-465a-42a4-9983-175aafc43e9d"},"vehicle_type_id":"4","last_reported":1736306026,"current_range_meters":21600,"station_id":"ce4bhmp2rcd13ifvqgog","pricing_plan_id":"cebpf4jnsgd1na2vs0mg"},{"bike_id":"f90ef00a-9373-449c-a1d6-393b17f344eb","system_id":"levelo_inurba_marseille","lat":43.30627,"lon":5.37203,"is_reserved":false,"is_disabled":false,"rental_uris":{"android":"levelo://app?vid=f90ef00a-9373-449c-a1d6-393b17f344eb","ios":"levelo://app?vid=f90ef00a-9373-449c-a1d6-393b17f344eb"},"vehicle_type_id":"4","last_reported":1736306026,"current_range_meters":28000,"station_id":"ce4bgqh2rcd13ifvqc4g","pricing_plan_id":"cebpf4jnsgd1na2vs0mg"},{"bike_id":"f3d1f244-18c3-434d-87c1-4500012e65af","system_id":"levelo_inurba_marseille","lat":43.337444,"lon":5.374475,"is_reserved":false,"is_disabled":false,"rental_uris":{"android":"levelo://app?vid=f3d1f244-18c3-434d-87c1-4500012e65af","ios":"levelo://app?vid=f3d1f244-18c3-434d-87c1-4500012e65af"},"vehicle_type_id":"4","last_reported":1736306026,"current_range_meters":25200,"station_id":"","pricing_plan_id":"cebpf4jnsgd1na2vs0mg"},{"bike_id":"1e522e28-7523-4705-8e1d-17ba87fdcdd7","system_id":"levelo_inurba_marseille","lat":43.25822,"lon":5.39426,"is_reserved":false,"is_disabled":false,"rental_uris":{"android":"levelo://app?vid=1e522e28-7523-4705-8e1d-17ba87fdcdd7","ios":"levelo://app?vid=1e522e28-7523-4705-8e1d-17ba87fdcdd7"},"vehicle_type_id":"4","last_reported":1736306026,"current_range_meters":20000,"station_id":"ce4bhip2rcd13ifvqft0","pricing_plan_id":"cebpf4jnsgd1na2vs0mg"},{"bike_id":"356dccd7-af0b-4cb6-b4d9-acfab9c357f8","system_id":"levelo_inurba_marseille","lat":43.28719,"lon":5.37953,"is_reserved":false,"is_disabled":false,"rental_uris":{"android":"levelo://app?vid=356dccd7-af0b-4cb6-b4d9-acfab9c357f8","ios":"levelo://app?vid=356dccd7-af0b-4cb6-b4d9-acfab9c357f8"},"vehicle_type_id":"4","last_reported":1736306026,"current_range_meters":38400,"station_id":"ce4bh9p2rcd13ifvqec0","pricing_plan_id":"cebpf4jnsgd1na2vs0mg"},{"bike_id":"30add41c-1c89-4c0e-8350-e2c7f794d882","system_id":"levelo_inurba_marseille","lat":43.28569,"lon":5.39503,"is_reserved":false,"is_disabled":false,"rental_uris":{"android":"levelo://app?vid=30add41c-1c89-4c0e-8350-e2c7f794d882","ios":"levelo://app?vid=30add41c-1c89-4c0e-8350-e2c7f794d882"},"vehicle_type_id":"4","last_reported":1736306026,"current_range_meters":38400,"station_id":"ce4bh292rcd13ifvqdg0","pricing_plan_id":"cebpf4jnsgd1na2vs0mg"},{"bike_id":"39a66161-6256-4a44-9ff8-9ec79f8478c8","system_id":"levelo_inurba_marseille","lat":43.2862,"lon":5.35102,"is_reserved":false,"is_disabled":false,"rental_uris":{"android":"levelo://app?vid=39a66161-6256-4a44-9ff8-9ec79f8478c8","ios":"levelo://app?vid=39a66161-6256-4a44-9ff8-9ec79f8478c8"},"vehicle_type_id":"4","last_reported":1736306026,"current_range_meters":18800,"station_id":"ce4bhch2rcd13ifvqeug","pricing_plan_id":"cebpf4jnsgd1na2vs0mg"},{"bike_id":"b39644bc-bc3d-44b9-9efd-ad39a82efd47","system_id":"levelo_inurba_marseille","lat":43.291977,"lon":5.39331,"is_reserved":false,"is_disabled":false,"rental_uris":{"android":"levelo://app?vid=b39644bc-bc3d-44b9-9efd-ad39a82efd47","ios":"levelo://app?vid=b39644bc-bc3d-44b9-9efd-ad39a82efd47"},"vehicle_type_id":"4","last_reported":1736306026,"current_range_meters":26000,"station_id":"ce4bh192rcd13ifvqdd0","pricing_plan_id":"cebpf4jnsgd1na2vs0mg"},{"bike_id":"d45d0089-5e8c-41ac-a04c-9866c8dc94cc","system_id":"levelo_inurba_marseille","lat":43.23202,"lon":5.35589,"is_reserved":false,"is_disabled":false,"rental_uris":{"android":"levelo://app?vid=d45d0089-5e8c-41ac-a04c-9866c8dc94cc","ios":"levelo://app?vid=d45d0089-5e8c-41ac-a04c-9866c8dc94cc"},"vehicle_type_id":"4","last_reported":1736306026,"current_range_meters":38000,"station_id":"ce4bhu92rcd13ifvqi70","pricing_plan_id":"cebpf4jnsgd1na2vs0mg"},{"bike_id":"da60c4cf-490b-4e60-8141-e8f05bde3cfa","system_id":"levelo_inurba_marseille","lat":43.2862,"lon":5.351,"is_reserved":false,"is_disabled":true,"rental_uris":{"android":"levelo://app?vid=da60c4cf-490b-4e60-8141-e8f05bde3cfa","ios":"levelo://app?vid=da60c4cf-490b-4e60-8141-e8f05bde3cfa"},"vehicle_type_id":"4","last_reported":1736306026,"current_range_meters":1200,"station_id":"ce4bhch2rcd13ifvqeug","pricing_plan_id":"cebpf4jnsgd1na2vs0mg"},{"bike_id":"575c7848-1f08-49bb-92f7-0460841f383d","system_id":"levelo_inurba_marseille","lat":43.28305,"lon":5.38269,"is_reserved":false,"is_disabled":false,"rental_uris":{"android":"levelo://app?vid=575c7848-1f08-49bb-92f7-0460841f383d","ios":"levelo://app?vid=575c7848-1f08-49bb-92f7-0460841f383d"},"vehicle_type_id":"4","last_reported":1736306026,"current_range_meters":16000,"station_id":"","pricing_plan_id":"cebpf4jnsgd1na2vs0mg"},{"bike_id":"aa33a53e-f806-43a8-ad7e-8e2bd9644426","system_id":"levelo_inurba_marseille","lat":43.32345,"lon":5.40629,"is_reserved":false,"is_disabled":true,"rental_uris":{"android":"levelo://app?vid=aa33a53e-f806-43a8-ad7e-8e2bd9644426","ios":"levelo://app?vid=aa33a53e-f806-43a8-ad7e-8e2bd9644426"},"vehicle_type_id":"4","last_reported":1736306026,"current_range_meters":0,"station_id":"ce4bhq92rcd13ifvqhjg","pricing_plan_id":"cebpf4jnsgd1na2vs0mg"},{"bike_id":"18dc5dd6-1988-4fc7-b581-825959a3050e","system_id":"levelo_inurba_marseille","lat":43.30878,"lon":5.37191,"is_reserved":false,"is_disabled":false,"rental_uris":{"android":"levelo://app?vid=18dc5dd6-1988-4fc7-b581-825959a3050e","ios":"levelo://app?vid=18dc5dd6-1988-4fc7-b581-825959a3050e"},"vehicle_type_id":"4","last_reported":1736306026,"current_range_meters":38800,"station_id":"ce4bguh2rcd13ifvqckg","pricing_plan_id":"cebpf4jnsgd1na2vs0mg"},{"bike_id":"28706a8a-e4d8-40e9-a34b-f308bb4cb4ca","system_id":"levelo_inurba_marseille","lat":43.31408,"lon":5.39766,"is_reserved":false,"is_disabled":false,"rental_uris":{"android":"levelo://app?vid=28706a8a-e4d8-40e9-a34b-f308bb4cb4ca","ios":"levelo://app?vid=28706a8a-e4d8-40e9-a34b-f308bb4cb4ca"},"vehicle_type_id":"4","last_reported":1736306026,"current_range_meters":38800,"station_id":"ce4bgvp2rcd13ifvqcu0","pricing_plan_id":"cebpf4jnsgd1na2vs0mg"},{"bike_id":"72e0e536-26f1-4692-9d71-00df2072ae44","system_id":"levelo_inurba_marseille","lat":43.24672,"lon":5.38195,"is_reserved":false,"is_disabled":false,"rental_uris":{"android":"levelo://app?vid=72e0e536-26f1-4692-9d71-00df2072ae44","ios":"levelo://app?vid=72e0e536-26f1-4692-9d71-00df2072ae44"},"vehicle_type_id":"4","last_reported":1736306026,"current_range_meters":17200,"station_id":"ce4bhih2rcd13ifvqfr0","pricing_plan_id":"cebpf4jnsgd1na2vs0mg"},{"bike_id":"4b7e1e60-d2fd-4d16-ab91-d577572c7207","system_id":"levelo_inurba_marseille","lat":43.284385,"lon":5.391837,"is_reserved":false,"is_disabled":false,"rental_uris":{"android":"levelo://app?vid=4b7e1e60-d2fd-4d16-ab91-d577572c7207","ios":"levelo://app?vid=4b7e1e60-d2fd-4d16-ab91-d577572c7207"},"vehicle_type_id":"4","last_reported":1736306026,"current_range_meters":17600,"station_id":"ce4bhoh2rcd13ifvqh5g","pricing_plan_id":"cebpf4jnsgd1na2vs0mg"},{"bike_id":"28a43f6a-31a7-4744-a37e-beb49c683361","system_id":"levelo_inurba_marseille","lat":43.292737,"lon":5.40119,"is_reserved":false,"is_disabled":false,"rental_uris":{"android":"levelo://app?vid=28a43f6a-31a7-4744-a37e-beb49c683361","ios":"levelo://app?vid=28a43f6a-31a7-4744-a37e-beb49c683361"},"vehicle_type_id":"4","last_reported":1736306026,"current_range_meters":37600,"station_id":"ce4bh312rcd13ifvqdk0","pricing_plan_id":"cebpf4jnsgd1na2vs0mg"},{"bike_id":"be457d0e-e951-4c20-92b5-c162743063cd","system_id":"levelo_inurba_marseille","lat":43.32979,"lon":5.39044,"is_reserved":false,"is_disabled":false,"rental_uris":{"android":"levelo://app?vid=be457d0e-e951-4c20-92b5-c162743063cd","ios":"levelo://app?vid=be457d0e-e951-4c20-92b5-c162743063cd"},"vehicle_type_id":"4","last_reported":1736306026,"current_range_meters":14000,"station_id":"ce4bhr92rcd13ifvqhrg","pricing_plan_id":"cebpf4jnsgd1na2vs0mg"},{"bike_id":"5a610a92-ec66-4c09-b8f2-d292ab86e791","system_id":"levelo_inurba_marseille","lat":43.30134,"lon":5.37391,"is_reserved":false,"is_disabled":true,"rental_uris":{"android":"levelo://app?vid=5a610a92-ec66-4c09-b8f2-d292ab86e791","ios":"levelo://app?vid=5a610a92-ec66-4c09-b8f2-d292ab86e791"},"vehicle_type_id":"4","last_reported":1736306026,"current_range_meters":38400,"station_id":"ce4bgs92rcd13ifvqcc0","pricing_plan_id":"cebpf4jnsgd1na2vs0mg"},{"bike_id":"4c6f44e8-e933-4571-8bcb-9a5f1c95109b","system_id":"levelo_inurba_marseille","lat":43.30282,"lon":5.36923,"is_reserved":false,"is_disabled":false,"rental_uris":{"android":"levelo://app?vid=4c6f44e8-e933-4571-8bcb-9a5f1c95109b","ios":"levelo://app?vid=4c6f44e8-e933-4571-8bcb-9a5f1c95109b"},"vehicle_type_id":"4","last_reported":1736306026,"current_range_meters":9600,"station_id":"ce4bgqh2rcd13ifvqc5g","pricing_plan_id":"cebpf4jnsgd1na2vs0mg"},{"bike_id":"a17bcdce-fbe1-45ba-9230-a6f804b11b05","system_id":"levelo_inurba_marseille","lat":43.284412,"lon":5.39192,"is_reserved":false,"is_disabled":false,"rental_uris":{"android":"levelo://app?vid=a17bcdce-fbe1-45ba-9230-a6f804b11b05","ios":"levelo://app?vid=a17bcdce-fbe1-45ba-9230-a6f804b11b05"},"vehicle_type_id":"4","last_reported":1736306026,"current_range_meters":12800,"station_id":"ce4bhoh2rcd13ifvqh5g","pricing_plan_id":"cebpf4jnsgd1na2vs0mg"},{"bike_id":"34c9a149-7d1b-4e58-a6b4-17edaa5a6718","system_id":"levelo_inurba_marseille","lat":43.32535,"lon":5.41454,"is_reserved":false,"is_disabled":false,"rental_uris":{"android":"levelo://app?vid=34c9a149-7d1b-4e58-a6b4-17edaa5a6718","ios":"levelo://app?vid=34c9a149-7d1b-4e58-a6b4-17edaa5a6718"},"vehicle_type_id":"4","last_reported":1736306026,"current_range_meters":37600,"station_id":"ce4bhq12rcd13ifvqhhg","pricing_plan_id":"cebpf4jnsgd1na2vs0mg"},{"bike_id":"a933aef9-3ce9-425a-a307-32d33e09657f","system_id":"levelo_inurba_marseille","lat":43.31512,"lon":5.37285,"is_reserved":false,"is_disabled":false,"rental_uris":{"android":"levelo://app?vid=a933aef9-3ce9-425a-a307-32d33e09657f","ios":"levelo://app?vid=a933aef9-3ce9-425a-a307-32d33e09657f"},"vehicle_type_id":"4","last_reported":1736306026,"current_range_meters":37600,"station_id":"ce4bgt12rcd13ifvqcd0","pricing_plan_id":"cebpf4jnsgd1na2vs0mg"},{"bike_id":"45976433-508e-4d90-a5fb-7a7f31608f71","system_id":"levelo_inurba_marseille","lat":43.26218,"lon":5.37435,"is_reserved":false,"is_disabled":false,"rental_uris":{"android":"levelo://app?vid=45976433-508e-4d90-a5fb-7a7f31608f71","ios":"levelo://app?vid=45976433-508e-4d90-a5fb-7a7f31608f71"},"vehicle_type_id":"4","last_reported":1736306026,"current_range_meters":36400,"station_id":"ce4bhgp2rcd13ifvqfc0","pricing_plan_id":"cebpf4jnsgd1na2vs0mg"},{"bike_id":"56fd3c4a-7e5b-4f71-8c2b-52b641aed0a6","system_id":"levelo_inurba_marseille","lat":43.27832,"lon":5.3921,"is_reserved":false,"is_disabled":false,"rental_uris":{"android":"levelo://app?vid=56fd3c4a-7e5b-4f71-8c2b-52b641aed0a6","ios":"levelo://app?vid=56fd3c4a-7e5b-4f71-8c2b-52b641aed0a6"},"vehicle_type_id":"4","last_reported":1736306026,"current_range_meters":38000,"station_id":"ce4bhjp2rcd13ifvqga0","pricing_plan_id":"cebpf4jnsgd1na2vs0mg"},{"bike_id":"4063b34e-f483-4c10-bdad-a759b3d89011","system_id":"levelo_inurba_marseille","lat":43.27811,"lon":5.40719,"is_reserved":false,"is_disabled":false,"rental_uris":{"android":"levelo://app?vid=4063b34e-f483-4c10-bdad-a759b3d89011","ios":"levelo://app?vid=4063b34e-f483-4c10-bdad-a759b3d89011"},"vehicle_type_id":"4","last_reported":1736306026,"current_range_meters":9600,"station_id":"ce4bhnh2rcd13ifvqgtg","pricing_plan_id":"cebpf4jnsgd1na2vs0mg"},{"bike_id":"1e4b11b9-aef6-4e3d-9c15-1a4a39f3f31a","system_id":"levelo_inurba_marseille","lat":43.29783,"lon":5.38124,"is_reserved":false,"is_disabled":true,"rental_uris":{"android":"levelo://app?vid=1e4b11b9-aef6-4e3d-9c15-1a4a39f3f31a","ios":"levelo://app?vid=1e4b11b9-aef6-4e3d-9c15-1a4a39f3f31a"},"vehicle_type_id":"4","last_reported":1736306026,"current_range_meters":36800,"station_id":"ce4bgip2rcd13ifvqbb0","pricing_plan_id":"cebpf4jnsgd1na2vs0mg"},{"bike_id":"7b786416-a15d-4888-bc83-cebc3c5143fe","system_id":"levelo_inurba_marseille","lat":43.28031,"lon":5.36944,"is_reserved":false,"is_disabled":false,"rental_uris":{"android":"levelo://app?vid=7b786416-a15d-4888-bc83-cebc3c5143fe","ios":"levelo://app?vid=7b786416-a15d-4888-bc83-cebc3c5143fe"},"vehicle_type_id":"4","last_reported":1736306026,"current_range_meters":36400,"station_id":"ce4bha12rcd13ifvqef0","pricing_plan_id":"cebpf4jnsgd1na2vs0mg"},{"bike_id":"b611d04a-68fa-4e69-89f5-f5abfb42c0c2","system_id":"levelo_inurba_marseille","lat":43.27379,"lon":5.36251,"is_reserved":false,"is_disabled":false,"rental_uris":{"android":"levelo://app?vid=b611d04a-68fa-4e69-89f5-f5abfb42c0c2","ios":"levelo://app?vid=b611d04a-68fa-4e69-89f5-f5abfb42c0c2"},"vehicle_type_id":"4","last_reported":1736306026,"current_range_meters":37600,"station_id":"ce4bhbh2rcd13ifvqeo0","pricing_plan_id":"cebpf4jnsgd1na2vs0mg"},{"bike_id":"e5bdb990-8fd8-4d6b-a4be-716d9b355fa0","system_id":"levelo_inurba_marseille","lat":43.33613,"lon":5.40988,"is_reserved":false,"is_disabled":false,"rental_uris":{"android":"levelo://app?vid=e5bdb990-8fd8-4d6b-a4be-716d9b355fa0","ios":"levelo://app?vid=e5bdb990-8fd8-4d6b-a4be-716d9b355fa0"},"vehicle_type_id":"4","last_reported":1736306026,"current_range_meters":38800,"station_id":"ce4bhqh2rcd13ifvqhmg","pricing_plan_id":"cebpf4jnsgd1na2vs0mg"},{"bike_id":"3f86cc4e-c4fd-40a8-a7f2-03738bc004c2","system_id":"levelo_inurba_marseille","lat":43.28485,"lon":5.35919,"is_reserved":false,"is_disabled":false,"rental_uris":{"android":"levelo://app?vid=3f86cc4e-c4fd-40a8-a7f2-03738bc004c2","ios":"levelo://app?vid=3f86cc4e-c4fd-40a8-a7f2-03738bc004c2"},"vehicle_type_id":"4","last_reported":1736306026,"current_range_meters":38800,"station_id":"ce4bhah2rcd13ifvqei0","pricing_plan_id":"cebpf4jnsgd1na2vs0mg"},{"bike_id":"e4c87022-2a40-4fdf-93b5-a661dc7e5356","system_id":"levelo_inurba_marseille","lat":43.297818,"lon":5.393558,"is_reserved":false,"is_disabled":false,"rental_uris":{"android":"levelo://app?vid=e4c87022-2a40-4fdf-93b5-a661dc7e5356","ios":"levelo://app?vid=e4c87022-2a40-4fdf-93b5-a661dc7e5356"},"vehicle_type_id":"4","last_reported":1736306026,"current_range_meters":36800,"station_id":"chh1huq6cuj3fo74tm60","pricing_plan_id":"cebpf4jnsgd1na2vs0mg"},{"bike_id":"c83aa1f0-f576-4ae9-bd5a-2cd21c831de7","system_id":"levelo_inurba_marseille","lat":43.28957,"lon":5.36387,"is_reserved":false,"is_disabled":false,"rental_uris":{"android":"levelo://app?vid=c83aa1f0-f576-4ae9-bd5a-2cd21c831de7","ios":"levelo://app?vid=c83aa1f0-f576-4ae9-bd5a-2cd21c831de7"},"vehicle_type_id":"4","last_reported":1736306026,"current_range_meters":38800,"station_id":"ce4bhc92rcd13ifvqetg","pricing_plan_id":"cebpf4jnsgd1na2vs0mg"},{"bike_id":"bbf998ea-d252-4590-8711-16d78ff4b07c","system_id":"levelo_inurba_marseille","lat":43.24643,"lon":5.38891,"is_reserved":false,"is_disabled":false,"rental_uris":{"android":"levelo://app?vid=bbf998ea-d252-4590-8711-16d78ff4b07c","ios":"levelo://app?vid=bbf998ea-d252-4590-8711-16d78ff4b07c"},"vehicle_type_id":"4","last_reported":1736306026,"current_range_meters":24400,"station_id":"ce4bhg12rcd13ifvqf60","pricing_plan_id":"cebpf4jnsgd1na2vs0mg"},{"bike_id":"d427a48c-6a59-4af7-8159-825bb345dc4c","system_id":"levelo_inurba_marseille","lat":43.30662,"lon":5.40078,"is_reserved":false,"is_disabled":false,"rental_uris":{"android":"levelo://app?vid=d427a48c-6a59-4af7-8159-825bb345dc4c","ios":"levelo://app?vid=d427a48c-6a59-4af7-8159-825bb345dc4c"},"vehicle_type_id":"4","last_reported":1736306026,"current_range_meters":26800,"station_id":"ce4bh112rcd13ifvqda0","pricing_plan_id":"cebpf4jnsgd1na2vs0mg"},{"bike_id":"6b25d49c-a3a9-46f5-916b-3ae4947b87d3","system_id":"levelo_inurba_marseille","lat":43.30188,"lon":5.36636,"is_reserved":false,"is_disabled":false,"rental_uris":{"android":"levelo://app?vid=6b25d49c-a3a9-46f5-916b-3ae4947b87d3","ios":"levelo://app?vid=6b25d49c-a3a9-46f5-916b-3ae4947b87d3"},"vehicle_type_id":"4","last_reported":1736306026,"current_range_meters":38800,"station_id":"ce4bgrh2rcd13ifvqc8g","pricing_plan_id":"cebpf4jnsgd1na2vs0mg"},{"bike_id":"df4aed04-2779-4c20-85ba-2e7b056d3df1","system_id":"levelo_inurba_marseille","lat":43.30144,"lon":5.39858,"is_reserved":false,"is_disabled":false,"rental_uris":{"android":"levelo://app?vid=df4aed04-2779-4c20-85ba-2e7b056d3df1","ios":"levelo://app?vid=df4aed04-2779-4c20-85ba-2e7b056d3df1"},"vehicle_type_id":"4","last_reported":1736306026,"current_range_meters":19200,"station_id":"ce4bh0h2rcd13ifvqd40","pricing_plan_id":"cebpf4jnsgd1na2vs0mg"},{"bike_id":"1f3279ad-7688-4d1e-817a-428a5253b908","system_id":"levelo_inurba_marseille","lat":43.31335,"lon":5.39702,"is_reserved":false,"is_disabled":false,"rental_uris":{"android":"levelo://app?vid=1f3279ad-7688-4d1e-817a-428a5253b908","ios":"levelo://app?vid=1f3279ad-7688-4d1e-817a-428a5253b908"},"vehicle_type_id":"4","last_reported":1736306026,"current_range_meters":34000,"station_id":"ce4bgvp2rcd13ifvqcu0","pricing_plan_id":"cebpf4jnsgd1na2vs0mg"},{"bike_id":"0ad12a04-1b4d-424f-9378-c11d7bf01c01","system_id":"levelo_inurba_marseille","lat":43.27176,"lon":5.409956,"is_reserved":false,"is_disabled":false,"rental_uris":{"android":"levelo://app?vid=0ad12a04-1b4d-424f-9378-c11d7bf01c01","ios":"levelo://app?vid=0ad12a04-1b4d-424f-9378-c11d7bf01c01"},"vehicle_type_id":"4","last_reported":1736306026,"current_range_meters":17200,"station_id":"ce4bhl12rcd13ifvqgf0","pricing_plan_id":"cebpf4jnsgd1na2vs0mg"},{"bike_id":"7501b46c-f34a-4d33-9c30-ec6840e8af9c","system_id":"levelo_inurba_marseille","lat":43.28339,"lon":5.38118,"is_reserved":false,"is_disabled":true,"rental_uris":{"android":"levelo://app?vid=7501b46c-f34a-4d33-9c30-ec6840e8af9c","ios":"levelo://app?vid=7501b46c-f34a-4d33-9c30-ec6840e8af9c"},"vehicle_type_id":"4","last_reported":1736306026,"current_range_meters":36800,"station_id":"ce4bh412rcd13ifvqdr0","pricing_plan_id":"cebpf4jnsgd1na2vs0mg"},{"bike_id":"5ad5153a-9cc7-4301-b75f-a2dded67227b","system_id":"levelo_inurba_marseille","lat":43.281078,"lon":5.37834,"is_reserved":false,"is_disabled":false,"rental_uris":{"android":"levelo://app?vid=5ad5153a-9cc7-4301-b75f-a2dded67227b","ios":"levelo://app?vid=5ad5153a-9cc7-4301-b75f-a2dded67227b"},"vehicle_type_id":"4","last_reported":1736306026,"current_range_meters":38400,"station_id":"ce4bha12rcd13ifvqee0","pricing_plan_id":"cebpf4jnsgd1na2vs0mg"},{"bike_id":"bc2873b0-9774-491c-a2de-b95e350f7bdb","system_id":"levelo_inurba_marseille","lat":43.27748,"lon":5.39906,"is_reserved":false,"is_disabled":true,"rental_uris":{"android":"levelo://app?vid=bc2873b0-9774-491c-a2de-b95e350f7bdb","ios":"levelo://app?vid=bc2873b0-9774-491c-a2de-b95e350f7bdb"},"vehicle_type_id":"4","last_reported":1736306026,"current_range_meters":0,"station_id":"","pricing_plan_id":"cebpf4jnsgd1na2vs0mg"},{"bike_id":"ed51ba85-7b11-4c4b-a800-8cef0afd22ce","system_id":"levelo_inurba_marseille","lat":43.30324,"lon":5.40443,"is_reserved":false,"is_disabled":false,"rental_uris":{"android":"levelo://app?vid=ed51ba85-7b11-4c4b-a800-8cef0afd22ce","ios":"levelo://app?vid=ed51ba85-7b11-4c4b-a800-8cef0afd22ce"},"vehicle_type_id":"4","last_reported":1736306026,"current_range_meters":37600,"station_id":"ce4bh012rcd13ifvqd10","pricing_plan_id":"cebpf4jnsgd1na2vs0mg"},{"bike_id":"74942fe7-3e6e-4a0f-84df-8d76dcc310a7","system_id":"levelo_inurba_marseille","lat":43.29555,"lon":5.422766,"is_reserved":false,"is_disabled":true,"rental_uris":{"android":"levelo://app?vid=74942fe7-3e6e-4a0f-84df-8d76dcc310a7","ios":"levelo://app?vid=74942fe7-3e6e-4a0f-84df-8d76dcc310a7"},"vehicle_type_id":"4","last_reported":1736306026,"current_range_meters":3200,"station_id":"ce4bhph2rcd13ifvqhdg","pricing_plan_id":"cebpf4jnsgd1na2vs0mg"},{"bike_id":"d66fa23c-9061-45b0-afac-bee93436838c","system_id":"levelo_inurba_marseille","lat":43.31536,"lon":5.38035,"is_reserved":false,"is_disabled":false,"rental_uris":{"android":"levelo://app?vid=d66fa23c-9061-45b0-afac-bee93436838c","ios":"levelo://app?vid=d66fa23c-9061-45b0-afac-bee93436838c"},"vehicle_type_id":"4","last_reported":1736306026,"current_range_meters":23200,"station_id":"ce4bhsp2rcd13ifvqi50","pricing_plan_id":"cebpf4jnsgd1na2vs0mg"},{"bike_id":"1e297576-65d7-4d7e-82e0-d872b833f39a","system_id":"levelo_inurba_marseille","lat":43.3086,"lon":5.36849,"is_reserved":false,"is_disabled":false,"rental_uris":{"android":"levelo://app?vid=1e297576-65d7-4d7e-82e0-d872b833f39a","ios":"levelo://app?vid=1e297576-65d7-4d7e-82e0-d872b833f39a"},"vehicle_type_id":"4","last_reported":1736306026,"current_range_meters":22400,"station_id":"","pricing_plan_id":"cebpf4jnsgd1na2vs0mg"},{"bike_id":"dc05b672-3694-44a5-80f7-8b52b23fe0ed","system_id":"levelo_inurba_marseille","lat":43.25585,"lon":5.38238,"is_reserved":false,"is_disabled":false,"rental_uris":{"android":"levelo://app?vid=dc05b672-3694-44a5-80f7-8b52b23fe0ed","ios":"levelo://app?vid=dc05b672-3694-44a5-80f7-8b52b23fe0ed"},"vehicle_type_id":"4","last_reported":1736306026,"current_range_meters":38800,"station_id":"ce4bhih2rcd13ifvqfs0","pricing_plan_id":"cebpf4jnsgd1na2vs0mg"},{"bike_id":"f3068faf-6ea3-45c0-943e-8f5eb9fecb3c","system_id":"levelo_inurba_marseille","lat":43.23969,"lon":5.36622,"is_reserved":false,"is_disabled":false,"rental_uris":{"android":"levelo://app?vid=f3068faf-6ea3-45c0-943e-8f5eb9fecb3c","ios":"levelo://app?vid=f3068faf-6ea3-45c0-943e-8f5eb9fecb3c"},"vehicle_type_id":"4","last_reported":1736306026,"current_range_meters":35600,"station_id":"ce4bhi12rcd13ifvqfp0","pricing_plan_id":"cebpf4jnsgd1na2vs0mg"},{"bike_id":"6ab3cad9-47b9-4798-a758-202f34e11792","system_id":"levelo_inurba_marseille","lat":43.23175,"lon":5.39994,"is_reserved":false,"is_disabled":false,"rental_uris":{"android":"levelo://app?vid=6ab3cad9-47b9-4798-a758-202f34e11792","ios":"levelo://app?vid=6ab3cad9-47b9-4798-a758-202f34e11792"},"vehicle_type_id":"4","last_reported":1736306026,"current_range_meters":24800,"station_id":"ce4bhn12rcd13ifvqgqg","pricing_plan_id":"cebpf4jnsgd1na2vs0mg"},{"bike_id":"23a66e3f-8e17-4ad8-b689-a42d7cb5191e","system_id":"levelo_inurba_marseille","lat":43.27845,"lon":5.39254,"is_reserved":false,"is_disabled":true,"rental_uris":{"android":"levelo://app?vid=23a66e3f-8e17-4ad8-b689-a42d7cb5191e","ios":"levelo://app?vid=23a66e3f-8e17-4ad8-b689-a42d7cb5191e"},"vehicle_type_id":"4","last_reported":1736306026,"current_range_meters":3200,"station_id":"","pricing_plan_id":"cebpf4jnsgd1na2vs0mg"},{"bike_id":"2937c8f0-6f06-4c7f-8240-41ad44bc55fa","system_id":"levelo_inurba_marseille","lat":43.23176,"lon":5.39992,"is_reserved":false,"is_disabled":false,"rental_uris":{"android":"levelo://app?vid=2937c8f0-6f06-4c7f-8240-41ad44bc55fa","ios":"levelo://app?vid=2937c8f0-6f06-4c7f-8240-41ad44bc55fa"},"vehicle_type_id":"4","last_reported":1736306026,"current_range_meters":8400,"station_id":"ce4bhn12rcd13ifvqgqg","pricing_plan_id":"cebpf4jnsgd1na2vs0mg"},{"bike_id":"80fe25c3-d7ec-4c58-bd91-b8ddab80e5ef","system_id":"levelo_inurba_marseille","lat":43.292614,"lon":5.408987,"is_reserved":false,"is_disabled":false,"rental_uris":{"android":"levelo://app?vid=80fe25c3-d7ec-4c58-bd91-b8ddab80e5ef","ios":"levelo://app?vid=80fe25c3-d7ec-4c58-bd91-b8ddab80e5ef"},"vehicle_type_id":"4","last_reported":1736306026,"current_range_meters":36400,"station_id":"ce4bh192rcd13ifvqdc0","pricing_plan_id":"cebpf4jnsgd1na2vs0mg"},{"bike_id":"c67f86a7-d1e6-4e2d-a762-5d292001711c","system_id":"levelo_inurba_marseille","lat":43.3301,"lon":5.39047,"is_reserved":false,"is_disabled":false,"rental_uris":{"android":"levelo://app?vid=c67f86a7-d1e6-4e2d-a762-5d292001711c","ios":"levelo://app?vid=c67f86a7-d1e6-4e2d-a762-5d292001711c"},"vehicle_type_id":"4","last_reported":1736306026,"current_range_meters":38800,"station_id":"ce4bhr92rcd13ifvqhrg","pricing_plan_id":"cebpf4jnsgd1na2vs0mg"},{"bike_id":"f0880013-69ba-439b-8c4f-72a3c6ec245e","system_id":"levelo_inurba_marseille","lat":43.291916,"lon":5.357984,"is_reserved":false,"is_disabled":false,"rental_uris":{"android":"levelo://app?vid=f0880013-69ba-439b-8c4f-72a3c6ec245e","ios":"levelo://app?vid=f0880013-69ba-439b-8c4f-72a3c6ec245e"},"vehicle_type_id":"4","last_reported":1736306026,"current_range_meters":30000,"station_id":"ce4bhb12rcd13ifvqel0","pricing_plan_id":"cebpf4jnsgd1na2vs0mg"},{"bike_id":"8987b459-1a43-4a6f-a8f5-94a5f8ab7612","system_id":"levelo_inurba_marseille","lat":43.29192,"lon":5.39337,"is_reserved":false,"is_disabled":false,"rental_uris":{"android":"levelo://app?vid=8987b459-1a43-4a6f-a8f5-94a5f8ab7612","ios":"levelo://app?vid=8987b459-1a43-4a6f-a8f5-94a5f8ab7612"},"vehicle_type_id":"4","last_reported":1736306026,"current_range_meters":12400,"station_id":"ce4bh192rcd13ifvqdd0","pricing_plan_id":"cebpf4jnsgd1na2vs0mg"},{"bike_id":"6cb2454f-e31a-4981-a1bc-e8425a6d5cb8","system_id":"levelo_inurba_marseille","lat":43.292513,"lon":5.409048,"is_reserved":false,"is_disabled":false,"rental_uris":{"android":"levelo://app?vid=6cb2454f-e31a-4981-a1bc-e8425a6d5cb8","ios":"levelo://app?vid=6cb2454f-e31a-4981-a1bc-e8425a6d5cb8"},"vehicle_type_id":"4","last_reported":1736306026,"current_range_meters":38400,"station_id":"ce4bh192rcd13ifvqdc0","pricing_plan_id":"cebpf4jnsgd1na2vs0mg"},{"bike_id":"1345d40d-94bc-4aa7-8376-c7823ff8552c","system_id":"levelo_inurba_marseille","lat":43.30433,"lon":5.39739,"is_reserved":false,"is_disabled":false,"rental_uris":{"android":"levelo://app?vid=1345d40d-94bc-4aa7-8376-c7823ff8552c","ios":"levelo://app?vid=1345d40d-94bc-4aa7-8376-c7823ff8552c"},"vehicle_type_id":"4","last_reported":1736306026,"current_range_meters":38800,"station_id":"ce4bh092rcd13ifvqd20","pricing_plan_id":"cebpf4jnsgd1na2vs0mg"},{"bike_id":"b4c92795-30bd-48f5-b0ae-1c8ac5115428","system_id":"levelo_inurba_marseille","lat":43.28852,"lon":5.35862,"is_reserved":false,"is_disabled":false,"rental_uris":{"android":"levelo://app?vid=b4c92795-30bd-48f5-b0ae-1c8ac5115428","ios":"levelo://app?vid=b4c92795-30bd-48f5-b0ae-1c8ac5115428"},"vehicle_type_id":"4","last_reported":1736306026,"current_range_meters":38800,"station_id":"ce4bhb12rcd13ifvqem0","pricing_plan_id":"cebpf4jnsgd1na2vs0mg"},{"bike_id":"d014f699-d84d-436b-b3bf-8c059d18ea89","system_id":"levelo_inurba_marseille","lat":43.229238,"lon":5.353736,"is_reserved":false,"is_disabled":false,"rental_uris":{"android":"levelo://app?vid=d014f699-d84d-436b-b3bf-8c059d18ea89","ios":"levelo://app?vid=d014f699-d84d-436b-b3bf-8c059d18ea89"},"vehicle_type_id":"4","last_reported":1736306026,"current_range_meters":5600,"station_id":"cpo3532slgdg3j2ikp40","pricing_plan_id":"cebpf4jnsgd1na2vs0mg"},{"bike_id":"85db0274-aa0a-4f9a-b691-02cfca5d3623","system_id":"levelo_inurba_marseille","lat":43.29846,"lon":5.36272,"is_reserved":false,"is_disabled":false,"rental_uris":{"android":"levelo://app?vid=85db0274-aa0a-4f9a-b691-02cfca5d3623","ios":"levelo://app?vid=85db0274-aa0a-4f9a-b691-02cfca5d3623"},"vehicle_type_id":"4","last_reported":1736306026,"current_range_meters":38800,"station_id":"ce4bgpp2rcd13ifvqc3g","pricing_plan_id":"cebpf4jnsgd1na2vs0mg"},{"bike_id":"3138e92f-d648-4b28-b3e2-dd71c2cf02f3","system_id":"levelo_inurba_marseille","lat":43.276606,"lon":5.389254,"is_reserved":false,"is_disabled":false,"rental_uris":{"android":"levelo://app?vid=3138e92f-d648-4b28-b3e2-dd71c2cf02f3","ios":"levelo://app?vid=3138e92f-d648-4b28-b3e2-dd71c2cf02f3"},"vehicle_type_id":"4","last_reported":1736306026,"current_range_meters":38000,"station_id":"ce4bhi12rcd13ifvqfo0","pricing_plan_id":"cebpf4jnsgd1na2vs0mg"},{"bike_id":"5ea3c41b-9c1e-41e1-8222-1a6a63d96490","system_id":"levelo_inurba_marseille","lat":43.31381,"lon":5.38513,"is_reserved":false,"is_disabled":false,"rental_uris":{"android":"levelo://app?vid=5ea3c41b-9c1e-41e1-8222-1a6a63d96490","ios":"levelo://app?vid=5ea3c41b-9c1e-41e1-8222-1a6a63d96490"},"vehicle_type_id":"4","last_reported":1736306026,"current_range_meters":38800,"station_id":"ce4bgt92rcd13ifvqcf0","pricing_plan_id":"cebpf4jnsgd1na2vs0mg"},{"bike_id":"955387a8-4a47-4691-946f-78754c88504b","system_id":"levelo_inurba_marseille","lat":43.23191,"lon":5.35553,"is_reserved":false,"is_disabled":false,"rental_uris":{"android":"levelo://app?vid=955387a8-4a47-4691-946f-78754c88504b","ios":"levelo://app?vid=955387a8-4a47-4691-946f-78754c88504b"},"vehicle_type_id":"4","last_reported":1736306026,"current_range_meters":35200,"station_id":"ce4bhu92rcd13ifvqi70","pricing_plan_id":"cebpf4jnsgd1na2vs0mg"},{"bike_id":"3dac3523-cf55-4ab2-9144-b089291c4e58","system_id":"levelo_inurba_marseille","lat":43.29253,"lon":5.40166,"is_reserved":false,"is_disabled":false,"rental_uris":{"android":"levelo://app?vid=3dac3523-cf55-4ab2-9144-b089291c4e58","ios":"levelo://app?vid=3dac3523-cf55-4ab2-9144-b089291c4e58"},"vehicle_type_id":"4","last_reported":1736306026,"current_range_meters":38000,"station_id":"ce4bh312rcd13ifvqdk0","pricing_plan_id":"cebpf4jnsgd1na2vs0mg"},{"bike_id":"85c233a5-ad6d-4af1-866c-c8c7aa0fe22f","system_id":"levelo_inurba_marseille","lat":43.279509,"lon":5.410428,"is_reserved":false,"is_disabled":false,"rental_uris":{"android":"levelo://app?vid=85c233a5-ad6d-4af1-866c-c8c7aa0fe22f","ios":"levelo://app?vid=85c233a5-ad6d-4af1-866c-c8c7aa0fe22f"},"vehicle_type_id":"4","last_reported":1736306026,"current_range_meters":18000,"station_id":"ce4bhnp2rcd13ifvqh0g","pricing_plan_id":"cebpf4jnsgd1na2vs0mg"},{"bike_id":"f949af9a-2683-4ec9-b4bf-168b31b3bcb2","system_id":"levelo_inurba_marseille","lat":43.24678,"lon":5.3894,"is_reserved":false,"is_disabled":false,"rental_uris":{"android":"levelo://app?vid=f949af9a-2683-4ec9-b4bf-168b31b3bcb2","ios":"levelo://app?vid=f949af9a-2683-4ec9-b4bf-168b31b3bcb2"},"vehicle_type_id":"4","last_reported":1736306026,"current_range_meters":14400,"station_id":"ce4bhg12rcd13ifvqf60","pricing_plan_id":"cebpf4jnsgd1na2vs0mg"},{"bike_id":"fca90e5a-922d-42ef-a0cf-05559f03df72","system_id":"levelo_inurba_marseille","lat":43.28687,"lon":5.37372,"is_reserved":false,"is_disabled":false,"rental_uris":{"android":"levelo://app?vid=fca90e5a-922d-42ef-a0cf-05559f03df72","ios":"levelo://app?vid=fca90e5a-922d-42ef-a0cf-05559f03df72"},"vehicle_type_id":"4","last_reported":1736306026,"current_range_meters":33600,"station_id":"ce4bh3p2rcd13ifvqdq0","pricing_plan_id":"cebpf4jnsgd1na2vs0mg"},{"bike_id":"6699c68e-3132-4815-93fd-766be48268a2","system_id":"levelo_inurba_marseille","lat":43.338979,"lon":5.391297,"is_reserved":false,"is_disabled":false,"rental_uris":{"android":"levelo://app?vid=6699c68e-3132-4815-93fd-766be48268a2","ios":"levelo://app?vid=6699c68e-3132-4815-93fd-766be48268a2"},"vehicle_type_id":"4","last_reported":1736306026,"current_range_meters":23200,"station_id":"","pricing_plan_id":"cebpf4jnsgd1na2vs0mg"},