{"last_updated":1741381708,"ttl":60,"version":"2.2","data":{"bikes":[{"bike_id":"f97d59cc-8a6a-4d25-a133-36a30edc393d","system_id":"levelo_inurba_marseille","lat":43.29808,"lon":5.38093,"is_reserved":false,"is_disabled":false,"rental_uris":{"android":"levelo://app?vid=f97d59cc-8a6a-4d25-a133-36a30edc393d","ios":"levelo://app?vid=f97d59cc-8a6a-4d25-a133-36a30edc393d"},"vehicle_type_id":"4","last_reported":1741381708,"current_range_meters":2800,"station_id":"ce4bgip2rcd13ifvqbb0","pricing_plan_id":"cebpf4jnsgd1na2vs0mg"},{"bike_id":"8b31be1b-6ea8-431e-855c-7acb47d3678d","system_id":"levelo_inurba_marseille","lat":43.27817,"lon":5.40725,"is_reserved":false,"is_disabled":false,"rental_uris":{"android":"levelo://app?vid=8b31be1b-6ea8-431e-855c-7acb47d3678d","ios":"levelo://app?vid=8b31be1b-6ea8-431e-855c-7acb47d3678d"},"vehicle_type_id":"4","last_reported":1741381708,"current_range_meters":3200,"station_id":"ce4bhnh2rcd13ifvqgtg","pricing_plan_id":"cebpf4jnsgd1na2vs0mg"},{"bike_id":"d572b633-d5af-4df0-87b8-0a5b1819b02b","system_id":"levelo_inurba_marseille","lat":43.24189,"lon":5.39693,"is_reserved":false,"is_disabled":true,"rental_uris":{"android":"levelo://app?vid=d572b633-d5af-4df0-87b8-0a5b1819b02b","ios":"levelo://app?vid=d572b633-d5af-4df0-87b8-0a5b1819b02b"},"vehicle_type_id":"4","last_reported":1741381708,"current_range_meters":3200,"station_id":"ce4bhn12rcd13ifvqgpg","pricing_plan_id":"cebpf4jnsgd1na2vs0mg"},{"bike_id":"84fd8a9d-d33c-4402-bbe4-001e62a7f660","system_id":"levelo_inurba_marseille","lat":43.26657,"lon":5.39885,"is_reserved":false,"is_disabled":false,"rental_uris":{"android":"levelo://app?vid=84fd8a9d-d33c-4402-bbe4-001e62a7f660","ios":"levelo://app?vid=84fd8a9d-d33c-4402-bbe4-001e62a7f660"},"vehicle_type_id":"4","last_reported":1741381708,"current_range_meters":3200,"station_id":"","pricing_plan_id":"cebpf4jnsgd1na2vs0mg"},{"bike_id":"2d82dd7d-f423-48d2-9556-6650150a3f91","system_id":"levelo_inurba_marseille","lat":43.30306,"lon":5.37693,"is_reserved":false,"is_disabled":false,"rental_uris":{"android":"levelo://app?vid=2d82dd7d-f423-48d2-9556-6650150a3f91","ios":"levelo://app?vid=2d82dd7d-f423-48d2-9556-6650150a3f91"},"vehicle_type_id":"4","last_reported":1741381708,"current_range_meters":3200,"station_id":"ce4bguh2rcd13ifvqcj0","pricing_plan_id":"cebpf4jnsgd1na2vs0mg"},{"bike_id":"3047e59d-f1cb-465b-b6cd-b5c66d974104","system_id":"levelo_inurba_marseille","lat":43.26068,"lon":5.39396,"is_reserved":false,"is_disabled":false,"rental_uris":{"android":"levelo://app?vid=3047e59d-f1cb-465b-b6cd-b5c66d974104","ios":"levelo://app?vid=3047e59d-f1cb-465b-b6cd-b5c66d974104"},"vehicle_type_id":"4","last_reported":1741381708,"current_range_meters":3200,"station_id":"ce4bhh92rcd13ifvqfj0","pricing_plan_id":"cebpf4jnsgd1na2vs0mg"},{"bike_id":"e0862a4c-1ac9-4de1-9beb-ae484a52b446","system_id":"levelo_inurba_marseille","lat":43.24441,"lon":5.4103,"is_reserved":false,"is_disabled":false,"rental_uris":{"android":"levelo://app?vid=e0862a4c-1ac9-4de1-9beb-ae484a52b446","ios":"levelo://app?vid=e0862a4c-1ac9-4de1-9beb-ae484a52b446"},"vehicle_type_id":"4","last_reported":1741381708,"current_range_meters":3600,"station_id":"","pricing_plan_id":"cebpf4jnsgd1na2vs0mg"},{"bike_id":"fa04b416-999c-4bae-a300-4b10a69d3b5a","system_id":"levelo_inurba_marseille","lat":43.29974,"lon":5.37179,"is_reserved":false,"is_disabled":false,"rental_uris":{"android":"levelo://app?vid=fa04b416-999c-4bae-a300-4b10a69d3b5a","ios":"levelo://app?vid=fa04b416-999c-4bae-a300-4b10a69d3b5a"},"vehicle_type_id":"4","last_reported":1741381708,"current_range_meters":3600,"station_id":"ce4bgr92rcd13ifvqc7g","pricing_plan_id":"cebpf4jnsgd1na2vs0mg"},{"bike_id":"e82b73a7-d1ae-43c3-a107-e0b413d5ff48","system_id":"levelo_inurba_marseille","lat":43.32657,"lon":5.40992,"is_reserved":false,"is_disabled":false,"rental_uris":{"android":"levelo://app?vid=e82b73a7-d1ae-43c3-a107-e0b413d5ff48","ios":"levelo://app?vid=e82b73a7-d1ae-43c3-a107-e0b413d5ff48"},"vehicle_type_id":"4","last_reported":1741381708,"current_range_meters":6000,"station_id":"ce4bhpp2rcd13ifvqhgg","pricing_plan_id":"cebpf4jnsgd1na2vs0mg"},{"bike_id":"cd68d1fb-79ae-474a-95d2-5f0403526d26","system_id":"levelo_inurba_marseille","lat":43.29629,"lon":5.40598,"is_reserved":false,"is_disabled":false,"rental_uris":{"android":"levelo://app?vid=cd68d1fb-79ae-474a-95d2-5f0403526d26","ios":"levelo://app?vid=cd68d1fb-79ae-474a-95d2-5f0403526d26"},"vehicle_type_id":"4","last_reported":1741381708,"current_range_meters":4000,"station_id":"ce4bh0h2rcd13ifvqd60","pricing_plan_id":"cebpf4jnsgd1na2vs0mg"},{"bike_id":"de10dad3-cc48-400a-922c-cca5bf1a3a20","system_id":"levelo_inurba_marseille","lat":43.29938,"lon":5.38831,"is_reserved":false,"is_disabled":true,"rental_uris":{"android":"levelo://app?vid=de10dad3-cc48-400a-922c-cca5bf1a3a20","ios":"levelo://app?vid=de10dad3-cc48-400a-922c-cca5bf1a3a20"},"vehicle_type_id":"4","last_reported":1741381708,"current_range_meters":4000,"station_id":"","pricing_plan_id":"cebpf4jnsgd1na2vs0mg"},{"bike_id":"74cae0c1-8d28-4bef-8967-85173913b919","system_id":"levelo_inurba_marseille","lat":43.31361,"lon":5.38499,"is_reserved":false,"is_disabled":false,"rental_uris":{"android":"levelo://app?vid=74cae0c1-8d28-4bef-8967-85173913b919","ios":"levelo://app?vid=74cae0c1-8d28-4bef-8967-85173913b919"},"vehicle_type_id":"4","last_reported":1741381708,"current_range_meters":4000,"station_id":"ce4bgt92rcd13ifvqcf0","pricing_plan_id":"cebpf4jnsgd1na2vs0mg"},{"bike_id":"b53e9f16-5927-45e7-8046-218d7fdf68eb","system_id":"levelo_inurba_marseille","lat":43.29019,"lon":5.38629,"is_reserved":false,"is_disabled":false,"rental_uris":{"android":"levelo://app?vid=b53e9f16-5927-45e7-8046-218d7fdf68eb","ios":"levelo://app?vid=b53e9f16-5927-45e7-8046-218d7fdf68eb"},"vehicle_type_id":"4","last_reported":1741381708,"current_range_meters":4000,"station_id":"ce4bh4p2rcd13ifvqe0g","pricing_plan_id":"cebpf4jnsgd1na2vs0mg"},{"bike_id":"302b9a8d-1b78-47af-8826-359fda490272","system_id":"levelo_inurba_marseille","lat":43.27814,"lon":5.40712,"is_reserved":false,"is_disabled":false,"rental_uris":{"android":"levelo://app?vid=302b9a8d-1b78-47af-8826-359fda490272","ios":"levelo://app?vid=302b9a8d-1b78-47af-8826-359fda490272"},"vehicle_type_id":"4","last_reported":1741381708,"current_range_meters":4000,"station_id":"ce4bhnh2rcd13ifvqgtg","pricing_plan_id":"cebpf4jnsgd1na2vs0mg"},{"bike_id":"692c8928-c7e2-4dee-8615-406c31ecbc56","system_id":"levelo_inurba_marseille","lat":43.29974,"lon":5.3849,"is_reserved":false,"is_disabled":false,"rental_uris":{"android":"levelo://app?vid=692c8928-c7e2-4dee-8615-406c31ecbc56","ios":"levelo://app?vid=692c8928-c7e2-4dee-8615-406c31ecbc56"},"vehicle_type_id":"4","last_reported":1741381708,"current_range_meters":2000,"station_id":"ce4bgj92rcd13ifvqbd0","pricing_plan_id":"cebpf4jnsgd1na2vs0mg"},{"bike_id":"c581605e-4ef3-4c14-b249-c41c2cd12486","system_id":"levelo_inurba_marseille","lat":43.31162,"lon":5.38719,"is_reserved":false,"is_disabled":false,"rental_uris":{"android":"levelo://app?vid=c581605e-4ef3-4c14-b249-c41c2cd12486","ios":"levelo://app?vid=c581605e-4ef3-4c14-b249-c41c2cd12486"},"vehicle_type_id":"4","last_reported":1741381708,"current_range_meters":4000,"station_id":"ce4bgv12rcd13ifvqcp0","pricing_plan_id":"cebpf4jnsgd1na2vs0mg"},{"bike_id":"ae1317cc-fe36-4c08-912e-c409e9030223","system_id":"levelo_inurba_marseille","lat":43.30892,"lon":5.37206,"is_reserved":false,"is_disabled":false,"rental_uris":{"android":"levelo://app?vid=ae1317cc-fe36-4c08-912e-c409e9030223","ios":"levelo://app?vid=ae1317cc-fe36-4c08-912e-c409e9030223"},"vehicle_type_id":"4","last_reported":1741381708,"current_range_meters":4400,"station_id":"ce4bguh2rcd13ifvqckg","pricing_plan_id":"cebpf4jnsgd1na2vs0mg"},{"bike_id":"20d4a8f5-db36-4f59-aca3-ceecf7ec512e","system_id":"levelo_inurba_marseille","lat":43.286983,"lon":5.385369,"is_reserved":false,"is_disabled":false,"rental_uris":{"android":"levelo://app?vid=20d4a8f5-db36-4f59-aca3-ceecf7ec512e","ios":"levelo://app?vid=20d4a8f5-db36-4f59-aca3-ceecf7ec512e"},"vehicle_type_id":"4","last_reported":1741381708,"current_range_meters":4400,"station_id":"","pricing_plan_id":"cebpf4jnsgd1na2vs0mg"},{"bike_id":"6a2cba80-c390-45cb-a386-17b5eb2ff411","system_id":"levelo_inurba_marseille","lat":43.23316,"lon":5.36158,"is_reserved":false,"is_disabled":false,"rental_uris":{"android":"levelo://app?vid=6a2cba80-c390-45cb-a386-17b5eb2ff411","ios":"levelo://app?vid=6a2cba80-c390-45cb-a386-17b5eb2ff411"},"vehicle_type_id":"4","last_reported":1741381708,"current_range_meters":4400,"station_id":"","pricing_plan_id":"cebpf4jnsgd1na2vs0mg"},{"bike_id":"973394dd-337e-4787-8f11-645d62f59efb","system_id":"levelo_inurba_marseille","lat":43.29038,"lon":5.35918,"is_reserved":false,"is_disabled":true,"rental_uris":{"android":"levelo://app?vid=973394dd-337e-4787-8f11-645d62f59efb","ios":"levelo://app?vid=973394dd-337e-4787-8f11-645d62f59efb"},"vehicle_type_id":"4","last_reported":1741381708,"current_range_meters":4800,"station_id":"ce4bha92rcd13ifvqeg0","pricing_plan_id":"cebpf4jnsgd1na2vs0mg"},{"bike_id":"a09b6132-3322-43b7-8796-037a4e79bc4b","system_id":"levelo_inurba_marseille","lat":43.278147,"lon":5.407263,"is_reserved":false,"is_disabled":false,"rental_uris":{"android":"levelo://app?vid=a09b6132-3322-43b7-8796-037a4e79bc4b","ios":"levelo://app?vid=a09b6132-3322-43b7-8796-037a4e79bc4b"},"vehicle_type_id":"4","last_reported":1741381708,"current_range_meters":4800,"station_id":"ce4bhnh2rcd13ifvqgtg","pricing_plan_id":"cebpf4jnsgd1na2vs0mg"},{"bike_id":"d97b34a5-4a9d-4d9c-b55f-b72c9be6ca47","system_id":"levelo_inurba_marseille","lat":43.25105,"lon":5.40323,"is_reserved":false,"is_disabled":true,"rental_uris":{"android":"levelo://app?vid=d97b34a5-4a9d-4d9c-b55f-b72c9be6ca47","ios":"levelo://app?vid=d97b34a5-4a9d-4d9c-b55f-b72c9be6ca47"},"vehicle_type_id":"4","last_reported":1741381708,"current_range_meters":4800,"station_id":"ce4bhlh2rcd13ifvqgig","pricing_plan_id":"cebpf4jnsgd1na2vs0mg"},{"bike_id":"167ca928-340b-46fa-a240-3dd823241923","system_id":"levelo_inurba_marseille","lat":43.279837,"lon":5.400088,"is_reserved":false,"is_disabled":false,"rental_uris":{"android":"levelo://app?vid=167ca928-340b-46fa-a240-3dd823241923","ios":"levelo://app?vid=167ca928-340b-46fa-a240-3dd823241923"},"vehicle_type_id":"4","last_reported":1741381708,"current_range_meters":4800,"station_id":"ce4bho92rcd13ifvqh4g","pricing_plan_id":"cebpf4jnsgd1na2vs0mg"},{"bike_id":"922965ec-ad3d-4bcd-8626-3511bd86109a","system_id":"levelo_inurba_marseille","lat":43.23191,"lon":5.40002,"is_reserved":false,"is_disabled":false,"rental_uris":{"android":"levelo://app?vid=922965ec-ad3d-4bcd-8626-3511bd86109a","ios":"levelo://app?vid=922965ec-ad3d-4bcd-8626-3511bd86109a"},"vehicle_type_id":"4","last_reported":1741381708,"current_range_meters":5600,"station_id":"ce4bhn12rcd13ifvqgqg","pricing_plan_id":"cebpf4jnsgd1na2vs0mg"},{"bike_id":"20918dd1-bb2c-4650-a03c-83eee5beae6d","system_id":"levelo_inurba_marseille","lat":43.29793,"lon":5.40411,"is_reserved":false,"is_disabled":false,"rental_uris":{"android":"levelo://app?vid=20918dd1-bb2c-4650-a03c-83eee5beae6d","ios":"levelo://app?vid=20918dd1-bb2c-4650-a03c-83eee5beae6d"},"vehicle_type_id":"4","last_reported":1741381708,"current_range_meters":1200,"station_id":"ce4bh112rcd13ifvqd90","pricing_plan_id":"cebpf4jnsgd1na2vs0mg"},{"bike_id":"9c0a4e89-04d9-4ea2-84a1-a71abd2634b0","system_id":"levelo_inurba_marseille","lat":43.30145,"lon":5.37401,"is_reserved":false,"is_disabled":false,"rental_uris":{"android":"levelo://app?vid=9c0a4e89-04d9-4ea2-84a1-a71abd2634b0","ios":"levelo://app?vid=9c0a4e89-04d9-4ea2-84a1-a71abd2634b0"},"vehicle_type_id":"4","last_reported":1741381708,"current_range_meters":5600,"station_id":"ce4bgs92rcd13ifvqcc0","pricing_plan_id":"cebpf4jnsgd1na2vs0mg"},{"bike_id":"337038bf-ee06-425b-9d6f-b9d117114e4b","system_id":"levelo_inurba_marseille","lat":43.29416,"lon":5.38639,"is_reserved":false,"is_disabled":false,"rental_uris":{"android":"levelo://app?vid=337038bf-ee06-425b-9d6f-b9d117114e4b","ios":"levelo://app?vid=337038bf-ee06-425b-9d6f-b9d117114e4b"},"vehicle_type_id":"4","last_reported":1741381708,"current_range_meters":5600,"station_id":"ce4bh2h2rcd13ifvqdh0","pricing_plan_id":"cebpf4jnsgd1na2vs0mg"},{"bike_id":"d93bdeca-d0ff-402c-a1ae-de5375476d11","system_id":"levelo_inurba_marseille","lat":43.28233,"lon":5.40316,"is_reserved":false,"is_disabled":true,"rental_uris":{"android":"levelo://app?vid=d93bdeca-d0ff-402c-a1ae-de5375476d11","ios":"levelo://app?vid=d93bdeca-d0ff-402c-a1ae-de5375476d11"},"vehicle_type_id":"4","last_reported":1741381708,"current_range_meters":5600,"station_id":"","pricing_plan_id":"cebpf4jnsgd1na2vs0mg"},{"bike_id":"cb47043e-2b36-4398-963d-22088496551a","system_id":"levelo_inurba_marseille","lat":43.31759,"lon":5.39016,"is_reserved":false,"is_disabled":true,"rental_uris":{"android":"levelo://app?vid=cb47043e-2b36-4398-963d-22088496551a","ios":"levelo://app?vid=cb47043e-2b36-4398-963d-22088496551a"},"vehicle_type_id":"4","last_reported":1741381708,"current_range_meters":5600,"station_id":"ce4bhqp2rcd13ifvqhng","pricing_plan_id":"cebpf4jnsgd1na2vs0mg"},{"bike_id":"7f1905bf-da4d-4f13-af14-c5d46804e585","system_id":"levelo_inurba_marseille","lat":43.23195,"lon":5.35549,"is_reserved":false,"is_disabled":false,"rental_uris":{"android":"levelo://app?vid=7f1905bf-da4d-4f13-af14-c5d46804e585","ios":"levelo://app?vid=7f1905bf-da4d-4f13-af14-c5d46804e585"},"vehicle_type_id":"4","last_reported":1741381708,"current_range_meters":5600,"station_id":"ce4bhu92rcd13ifvqi70","pricing_plan_id":"cebpf4jnsgd1na2vs0mg"},{"bike_id":"9bfe4e82-241b-4620-b471-d226beb88b23","system_id":"levelo_inurba_marseille","lat":43.22923,"lon":5.35372,"is_reserved":false,"is_disabled":false,"rental_uris":{"android":"levelo://app?vid=9bfe4e82-241b-4620-b471-d226beb88b23","ios":"levelo://app?vid=9bfe4e82-241b-4620-b471-d226beb88b23"},"vehicle_type_id":"4","last_reported":1741381708,"current_range_meters":5600,"station_id":"cpo3532slgdg3j2ikp40","pricing_plan_id":"cebpf4jnsgd1na2vs0mg"},{"bike_id":"f88a6cd9-f001-46b4-8023-0ed8105ce083","system_id":"levelo_inurba_marseille","lat":43.28057,"lon":5.36937,"is_reserved":false,"is_disabled":false,"rental_uris":{"android":"levelo://app?vid=f88a6cd9-f001-46b4-8023-0ed8105ce083","ios":"levelo://app?vid=f88a6cd9-f001-46b4-8023-0ed8105ce083"},"vehicle_type_id":"4","last_reported":1741381708,"current_range_meters":6000,"station_id":"ce4bha12rcd13ifvqef0","pricing_plan_id":"cebpf4jnsgd1na2vs0mg"},{"bike_id":"f3a2dd69-3da7-428c-bbff-d48de136a07b","system_id":"levelo_inurba_marseille","lat":43.31994,"lon":5.38166,"is_reserved":false,"is_disabled":false,"rental_uris":{"android":"levelo://app?vid=f3a2dd69-3da7-428c-bbff-d48de136a07b","ios":"levelo://app?vid=f3a2dd69-3da7-428c-bbff-d48de136a07b"},"vehicle_type_id":"4","last_reported":1741381708,"current_range_meters":5600,"station_id":"ce4bhr12rcd13ifvqhpg","pricing_plan_id":"cebpf4jnsgd1na2vs0mg"},{"bike_id":"7f6a407f-4128-422f-b0d9-8b66780bb5d3","system_id":"levelo_inurba_marseille","lat":43.30182,"lon":5.36624,"is_reserved":false,"is_disabled":false,"rental_uris":{"android":"levelo://app?vid=7f6a407f-4128-422f-b0d9-8b66780bb5d3","ios":"levelo://app?vid=7f6a407f-4128-422f-b0d9-8b66780bb5d3"},"vehicle_type_id":"4","last_reported":1741381708,"current_range_meters":6000,"station_id":"ce4bgrh2rcd13ifvqc8g","pricing_plan_id":"cebpf4jnsgd1na2vs0mg"},{"bike_id":"66e0b82e-2949-41ce-be05-21b7e923f0b2","system_id":"levelo_inurba_marseille","lat":43.29262,"lon":5.38448,"is_reserved":false,"is_disabled":false,"rental_uris":{"android":"levelo://app?vid=66e0b82e-2949-41ce-be05-21b7e923f0b2","ios":"levelo://app?vid=66e0b82e-2949-41ce-be05-21b7e923f0b2"},"vehicle_type_id":"4","last_reported":1741381708,"current_range_meters":6000,"station_id":"ce4bh692rcd13ifvqea0","pricing_plan_id":"cebpf4jnsgd1na2vs0mg"},{"bike_id":"6a3ca6ab-f791-4960-89a3-8f0e0c9cf5fb","system_id":"levelo_inurba_marseille","lat":43.29266,"lon":5.3843,"is_reserved":false,"is_disabled":false,"rental_uris":{"android":"levelo://app?vid=6a3ca6ab-f791-4960-89a3-8f0e0c9cf5fb","ios":"levelo://app?vid=6a3ca6ab-f791-4960-89a3-8f0e0c9cf5fb"},"vehicle_type_id":"4","last_reported":1741381708,"current_range_meters":4800,"station_id":"ce4bh692rcd13ifvqea0","pricing_plan_id":"cebpf4jnsgd1na2vs0mg"},{"bike_id":"f7a85f1b-5528-4bd4-98d9-a65f1b6b8628","system_id":"levelo_inurba_marseille","lat":43.28917,"lon":5.3544,"is_reserved":false,"is_disabled":false,"rental_uris":{"android":"levelo://app?vid=f7a85f1b-5528-4bd4-98d9-a65f1b6b8628","ios":"levelo://app?vid=f7a85f1b-5528-4bd4-98d9-a65f1b6b8628"},"vehicle_type_id":"4","last_reported":1741381708,"current_range_meters":6000,"station_id":"","pricing_plan_id":"cebpf4jnsgd1na2vs0mg"},{"bike_id":"01fd6840-d8be-4b5e-9ba7-0ed0dbe54f06","system_id":"levelo_inurba_marseille","lat":43.23193,"lon":5.35571,"is_reserved":false,"is_disabled":false,"rental_uris":{"android":"levelo://app?vid=01fd6840-d8be-4b5e-9ba7-0ed0dbe54f06","ios":"levelo://app?vid=01fd6840-d8be-4b5e-9ba7-0ed0dbe54f06"},"vehicle_type_id":"4","last_reported":1741381708,"current_range_meters":6000,"station_id":"ce4bhu92rcd13ifvqi70","pricing_plan_id":"cebpf4jnsgd1na2vs0mg"},{"bike_id":"2230c7ae-b345-4227-9753-232378ef8fea","system_id":"levelo_inurba_marseille","lat":43.30461,"lon":5.37902,"is_reserved":false,"is_disabled":false,"rental_uris":{"android":"levelo://app?vid=2230c7ae-b345-4227-9753-232378ef8fea","ios":"levelo://app?vid=2230c7ae-b345-4227-9753-232378ef8fea"},"vehicle_type_id":"4","last_reported":1741381708,"current_range_meters":6000,"station_id":"ce4bgup2rcd13ifvqcn0","pricing_plan_id":"cebpf4jnsgd1na2vs0mg"},{"bike_id":"33d87d96-ae22-4f90-9097-8ddf09ed2eeb","system_id":"levelo_inurba_marseille","lat":43.29534,"lon":5.38546,"is_reserved":false,"is_disabled":false,"rental_uris":{"android":"levelo://app?vid=33d87d96-ae22-4f90-9097-8ddf09ed2eeb","ios":"levelo://app?vid=33d87d96-ae22-4f90-9097-8ddf09ed2eeb"},"vehicle_type_id":"4","last_reported":1741381708,"current_range_meters":6000,"station_id":"ce4bgih2rcd13ifvqba0","pricing_plan_id":"cebpf4jnsgd1na2vs0mg"},{"bike_id":"04f43874-8733-4224-85d7-19f249bbb888","system_id":"levelo_inurba_marseille","lat":43.30538,"lon":5.36554,"is_reserved":false,"is_disabled":false,"rental_uris":{"android":"levelo://app?vid=04f43874-8733-4224-85d7-19f249bbb888","ios":"levelo://app?vid=04f43874-8733-4224-85d7-19f249bbb888"},"vehicle_type_id":"4","last_reported":1741381708,"current_range_meters":6400,"station_id":"ce4bgs12rcd13ifvqcag","pricing_plan_id":"cebpf4jnsgd1na2vs0mg"},{"bike_id":"77932506-a232-4d46-b36d-352ef01eaf03","system_id":"levelo_inurba_marseille","lat":43.27995,"lon":5.40025,"is_reserved":false,"is_disabled":false,"rental_uris":{"android":"levelo://app?vid=77932506-a232-4d46-b36d-352ef01eaf03","ios":"levelo://app?vid=77932506-a232-4d46-b36d-352ef01eaf03"},"vehicle_type_id":"4","last_reported":1741381708,"current_range_meters":6400,"station_id":"ce4bho92rcd13ifvqh4g","pricing_plan_id":"cebpf4jnsgd1na2vs0mg"},{"bike_id":"1b34c58c-f011-43f3-baac-47c6cf7523c0","system_id":"levelo_inurba_marseille","lat":43.29913,"lon":5.43677,"is_reserved":false,"is_disabled":false,"rental_uris":{"android":"levelo://app?vid=1b34c58c-f011-43f3-baac-47c6cf7523c0","ios":"levelo://app?vid=1b34c58c-f011-43f3-baac-47c6cf7523c0"},"vehicle_type_id":"4","last_reported":1741381708,"current_range_meters":6400,"station_id":"ce4bhpp2rcd13ifvqhfg","pricing_plan_id":"cebpf4jnsgd1na2vs0mg"},{"bike_id":"21c6b9d0-4129-48d2-9ac3-1813e3d92b6d","system_id":"levelo_inurba_marseille","lat":43.29258,"lon":5.38435,"is_reserved":false,"is_disabled":true,"rental_uris":{"android":"levelo://app?vid=21c6b9d0-4129-48d2-9ac3-1813e3d92b6d","ios":"levelo://app?vid=21c6b9d0-4129-48d2-9ac3-1813e3d92b6d"},"vehicle_type_id":"4","last_reported":1741381708,"current_range_meters":6400,"station_id":"ce4bh692rcd13ifvqea0","pricing_plan_id":"cebpf4jnsgd1na2vs0mg"},{"bike_id":"e1a3d094-fd5a-4b0e-b3fd-06c39e7f4f48","system_id":"levelo_inurba_marseille","lat":43.32858,"lon":5.39105,"is_reserved":false,"is_disabled":false,"rental_uris":{"android":"levelo://app?vid=e1a3d094-fd5a-4b0e-b3fd-06c39e7f4f48","ios":"levelo://app?vid=e1a3d094-fd5a-4b0e-b3fd-06c39e7f4f48"},"vehicle_type_id":"4","last_reported":1741381708,"current_range_meters":6400,"station_id":"","pricing_plan_id":"cebpf4jnsgd1na2vs0mg"},{"bike_id":"c5d9a748-fb84-4751-9008-dc4467d9ed9a","system_id":"levelo_inurba_marseille","lat":43.23239,"lon":5.3557,"is_reserved":false,"is_disabled":false,"rental_uris":{"android":"levelo://app?vid=c5d9a748-fb84-4751-9008-dc4467d9ed9a","ios":"levelo://app?vid=c5d9a748-fb84-4751-9008-dc4467d9ed9a"},"vehicle_type_id":"4","last_reported":1741381708,"current_range_meters":6400,"station_id":"ce4bhu92rcd13ifvqi70","pricing_plan_id":"cebpf4jnsgd1na2vs0mg"},{"bike_id":"e2b20a89-eeff-4e98-bf03-0fbf109c1848","system_id":"levelo_inurba_marseille","lat":43.292603,"lon":5.409199,"is_reserved":false,"is_disabled":false,"rental_uris":{"android":"levelo://app?vid=e2b20a89-eeff-4e98-bf03-0fbf109c1848","ios":"levelo://app?vid=e2b20a89-eeff-4e98-bf03-0fbf109c1848"},"vehicle_type_id":"4","last_reported":1741381708,"current_range_meters":12400,"station_id":"ce4bhph2rcd13ifvqheg","pricing_plan_id":"cebpf4jnsgd1na2vs0mg"},{"bike_id":"24df224d-ffa5-472e-acc0-380979001d96","system_id":"levelo_inurba_marseille","lat":43.25719,"lon":5.41119,"is_reserved":false,"is_disabled":false,"rental_uris":{"android":"levelo://app?vid=24df224d-ffa5-472e-acc0-380979001d96","ios":"levelo://app?vid=24df224d-ffa5-472e-acc0-380979001d96"},"vehicle_type_id":"4","last_reported":1741381708,"current_range_meters":6400,"station_id":"ce4bhkp2rcd13ifvqgd0","pricing_plan_id":"cebpf4jnsgd1na2vs0mg"},{"bike_id":"889d7428-72ab-4419-a062-e45cc2e946b0","system_id":"levelo_inurba_marseille","lat":43.31345,"lon":5.39707,"is_reserved":false,"is_disabled":false,"rental_uris":{"android":"levelo://app?vid=889d7428-72ab-4419-a062-e45cc2e946b0","ios":"levelo://app?vid=889d7428-72ab-4419-a062-e45cc2e946b0"},"vehicle_type_id":"4","last_reported":1741381708,"current_range_meters":6400,"station_id":"ce4bgvp2rcd13ifvqcu0","pricing_plan_id":"cebpf4jnsgd1na2vs0mg"},{"bike_id":"9c2a65ea-f853-4980-96dd-92ca8e872fcd","system_id":"levelo_inurba_marseille","lat":43.24399,"lon":5.39129,"is_reserved":false,"is_disabled":false,"rental_uris":{"android":"levelo://app?vid=9c2a65ea-f853-4980-96dd-92ca8e872fcd","ios":"levelo://app?vid=9c2a65ea-f853-4980-96dd-92ca8e872fcd"},"vehicle_type_id":"4","last_reported":1741381708,"current_range_meters":6400,"station_id":"","pricing_plan_id":"cebpf4jnsgd1na2vs0mg"},{"bike_id":"914bbafb-3768-41ed-9924-1947bd4ab869","system_id":"levelo_inurba_marseille","lat":43.3014,"lon":5.38377,"is_reserved":false,"is_disabled":false,"rental_uris":{"android":"levelo://app?vid=914bbafb-3768-41ed-9924-1947bd4ab869","ios":"levelo://app?vid=914bbafb-3768-41ed-9924-1947bd4ab869"},"vehicle_type_id":"4","last_reported":1741381708,"current_range_meters":6400,"station_id":"","pricing_plan_id":"cebpf4jnsgd1na2vs0mg"},{"bike_id":"234fd2f8-2c4d-4910-84f2-fea4e7e26a0b","system_id":"levelo_inurba_marseille","lat":43.23154,"lon":5.43706,"is_reserved":false,"is_disabled":false,"rental_uris":{"android":"levelo://app?vid=234fd2f8-2c4d-4910-84f2-fea4e7e26a0b","ios":"levelo://app?vid=234fd2f8-2c4d-4910-84f2-fea4e7e26a0b"},"vehicle_type_id":"4","last_reported":1741381708,"current_range_meters":6800,"station_id":"ce4bhmp2rcd13ifvqgog","pricing_plan_id":"cebpf4jnsgd1na2vs0mg"},{"bike_id":"b5b1df51-3ea6-41e0-ab83-97eecf286c2d","system_id":"levelo_inurba_marseille","lat":43.31274,"lon":5.40178,"is_reserved":false,"is_disabled":false,"rental_uris":{"android":"levelo://app?vid=b5b1df51-3ea6-41e0-ab83-97eecf286c2d","ios":"levelo://app?vid=b5b1df51-3ea6-41e0-ab83-97eecf286c2d"},"vehicle_type_id":"4","last_reported":1741381708,"current_range_meters":6400,"station_id":"ce4bh092rcd13ifvqd30","pricing_plan_id":"cebpf4jnsgd1na2vs0mg"},{"bike_id":"4063385e-c783-4949-95fe-8f78e6fb587b","system_id":"levelo_inurba_marseille","lat":43.30269,"lon":5.37693,"is_reserved":false,"is_disabled":false,"rental_uris":{"android":"levelo://app?vid=4063385e-c783-4949-95fe-8f78e6fb587b","ios":"levelo://app?vid=4063385e-c783-4949-95fe-8f78e6fb587b"},"vehicle_type_id":"4","last_reported":1741381708,"current_range_meters":6800,"station_id":"ce4bguh2rcd13ifvqcj0","pricing_plan_id":"cebpf4jnsgd1na2vs0mg"},{"bike_id":"2f02e730-87c2-447d-bd83-6df371af449f","system_id":"levelo_inurba_marseille","lat":43.30148,"lon":5.37428,"is_reserved":false,"is_disabled":false,"rental_uris":{"android":"levelo://app?vid=2f02e730-87c2-447d-bd83-6df371af449f","ios":"levelo://app?vid=2f02e730-87c2-447d-bd83-6df371af449f"},"vehicle_type_id":"4","last_reported":1741381708,"current_range_meters":6800,"station_id":"ce4bgs92rcd13ifvqcc0","pricing_plan_id":"cebpf4jnsgd1na2vs0mg"},{"bike_id":"50d451e5-c521-4c65-85ed-23b66e1d0381","system_id":"levelo_inurba_marseille","lat":43.30596,"lon":5.39368,"is_reserved":false,"is_disabled":false,"rental_uris":{"android":"levelo://app?vid=50d451e5-c521-4c65-85ed-23b66e1d0381","ios":"levelo://app?vid=50d451e5-c521-4c65-85ed-23b66e1d0381"},"vehicle_type_id":"4","last_reported":1741381708,"current_range_meters":6800,"station_id":"ce4bh0p2rcd13ifvqd80","pricing_plan_id":"cebpf4jnsgd1na2vs0mg"},{"bike_id":"215a01e2-9c1c-45bf-a69c-7a5458c1fe75","system_id":"levelo_inurba_marseille","lat":43.280746,"lon":5.396543,"is_reserved":false,"is_disabled":false,"rental_uris":{"android":"levelo://app?vid=215a01e2-9c1c-45bf-a69c-7a5458c1fe75","ios":"levelo://app?vid=215a01e2-9c1c-45bf-a69c-7a5458c1fe75"},"vehicle_type_id":"4","last_reported":1741381708,"current_range_meters":6800,"station_id":"ce4bho12rcd13ifvqh2g","pricing_plan_id":"cebpf4jnsgd1na2vs0mg"},{"bike_id":"b3efa482-ba88-41b4-9fa2-130aeb426a3b","system_id":"levelo_inurba_marseille","lat":43.28036,"lon":5.36943,"is_reserved":false,"is_disabled":false,"rental_uris":{"android":"levelo://app?vid=b3efa482-ba88-41b4-9fa2-130aeb426a3b","ios":"levelo://app?vid=b3efa482-ba88-41b4-9fa2-130aeb426a3b"},"vehicle_type_id":"4","last_reported":1741381708,"current_range_meters":6800,"station_id":"ce4bha12rcd13ifvqef0","pricing_plan_id":"cebpf4jnsgd1na2vs0mg"},{"bike_id":"3020d9be-27d3-47fe-a566-9923d6d0efbb","system_id":"levelo_inurba_marseille","lat":43.29091,"lon":5.38162,"is_reserved":false,"is_disabled":false,"rental_uris":{"android":"levelo://app?vid=3020d9be-27d3-47fe-a566-9923d6d0efbb","ios":"levelo://app?vid=3020d9be-27d3-47fe-a566-9923d6d0efbb"},"vehicle_type_id":"4","last_reported":1741381708,"current_range_meters":7200,"station_id":"ce4bh512rcd13ifvqe2g","pricing_plan_id":"cebpf4jnsgd1na2vs0mg"},{"bike_id":"143b74fc-ab7b-4910-8495-ffc1ad22971d","system_id":"levelo_inurba_marseille","lat":43.25025,"lon":5.38933,"is_reserved":false,"is_disabled":true,"rental_uris":{"android":"levelo://app?vid=143b74fc-ab7b-4910-8495-ffc1ad22971d","ios":"levelo://app?vid=143b74fc-ab7b-4910-8495-ffc1ad22971d"},"vehicle_type_id":"4","last_reported":1741381708,"current_range_meters":7200,"station_id":"ce4bhgp2rcd13ifvqfd0","pricing_plan_id":"cebpf4jnsgd1na2vs0mg"},{"bike_id":"e2314644-5503-4fa8-aac8-dc5f469a5439","system_id":"levelo_inurba_marseille","lat":43.29522,"lon":5.37524,"is_reserved":false,"is_disabled":false,"rental_uris":{"android":"levelo://app?vid=e2314644-5503-4fa8-aac8-dc5f469a5439","ios":"levelo://app?vid=e2314644-5503-4fa8-aac8-dc5f469a5439"},"vehicle_type_id":"4","last_reported":1741381708,"current_range_meters":7200,"station_id":"ce4bgkp2rcd13ifvqbmg","pricing_plan_id":"cebpf4jnsgd1na2vs0mg"},{"bike_id":"55f1a346-655d-4ceb-961f-e11c032b07e0","system_id":"levelo_inurba_marseille","lat":43.32694,"lon":5.40293,"is_reserved":false,"is_disabled":false,"rental_uris":{"android":"levelo://app?vid=55f1a346-655d-4ceb-961f-e11c032b07e0","ios":"levelo://app?vid=55f1a346-655d-4ceb-961f-e11c032b07e0"},"vehicle_type_id":"4","last_reported":1741381708,"current_range_meters":7200,"station_id":"","pricing_plan_id":"cebpf4jnsgd1na2vs0mg"},{"bike_id":"85245376-6ddf-4b43-a3f8-29daf8e32aba","system_id":"levelo_inurba_marseille","lat":43.28846,"lon":5.39303,"is_reserved":false,"is_disabled":false,"rental_uris":{"android":"levelo://app?vid=85245376-6ddf-4b43-a3f8-29daf8e32aba","ios":"levelo://app?vid=85245376-6ddf-4b43-a3f8-29daf8e32aba"},"vehicle_type_id":"4","last_reported":1741381708,"current_range_meters":7200,"station_id":"ce4bh2p2rcd13ifvqdi0","pricing_plan_id":"cebpf4jnsgd1na2vs0mg"},{"bike_id":"357f6b0d-7429-4870-b5b1-c540923d954d","system_id":"levelo_inurba_marseille","lat":43.23065,"lon":5.35496,"is_reserved":false,"is_disabled":false,"rental_uris":{"android":"levelo://app?vid=357f6b0d-7429-4870-b5b1-c540923d954d","ios":"levelo://app?vid=357f6b0d-7429-4870-b5b1-c540923d954d"},"vehicle_type_id":"4","last_reported":1741381708,"current_range_meters":7200,"station_id":"cpo3342slgdg3j2ifvpg","pricing_plan_id":"cebpf4jnsgd1na2vs0mg"},{"bike_id":"d6d8f87b-25ab-4e84-9c2a-1348cf230730","system_id":"levelo_inurba_marseille","lat":43.281538,"lon":5.402184,"is_reserved":false,"is_disabled":false,"rental_uris":{"android":"levelo://app?vid=d6d8f87b-25ab-4e84-9c2a-1348cf230730","ios":"levelo://app?vid=d6d8f87b-25ab-4e84-9c2a-1348cf230730"},"vehicle_type_id":"4","last_reported":1741381708,"current_range_meters":7200,"station_id":"","pricing_plan_id":"cebpf4jnsgd1na2vs0mg"},{"bike_id":"49bb524d-911e-4e57-a25a-4f733aad7f1d","system_id":"levelo_inurba_marseille","lat":43.30363,"lon":5.37077,"is_reserved":false,"is_disabled":false,"rental_uris":{"android":"levelo://app?vid=49bb524d-911e-4e57-a25a-4f733aad7f1d","ios":"levelo://app?vid=49bb524d-911e-4e57-a25a-4f733aad7f1d"},"vehicle_type_id":"4","last_reported":1741381708,"current_range_meters":7200,"station_id":"","pricing_plan_id":"cebpf4jnsgd1na2vs0mg"},{"bike_id":"5ece6216-c140-461a-8332-f5b985568faf","system_id":"levelo_inurba_marseille","lat":43.27951,"lon":5.38719,"is_reserved":false,"is_disabled":true,"rental_uris":{"android":"levelo://app?vid=5ece6216-c140-461a-8332-f5b985568faf","ios":"levelo://app?vid=5ece6216-c140-461a-8332-f5b985568faf"},"vehicle_type_id":"4","last_reported":1741381708,"current_range_meters":7200,"station_id":"ce4bhg12rcd13ifvqf80","pricing_plan_id":"cebpf4jnsgd1na2vs0mg"},{"bike_id":"a45eda30-93db-4cd6-bc29-df6c0e7b5378","system_id":"levelo_inurba_marseille","lat":43.2396,"lon":5.36644,"is_reserved":false,"is_disabled":false,"rental_uris":{"android":"levelo://app?vid=a45eda30-93db-4cd6-bc29-df6c0e7b5378","ios":"levelo://app?vid=a45eda30-93db-4cd6-bc29-df6c0e7b5378"},"vehicle_type_id":"4","last_reported":1741381708,"current_range_meters":8000,"station_id":"ce4bhi12rcd13ifvqfp0","pricing_plan_id":"cebpf4jnsgd1na2vs0mg"},{"bike_id":"72ad35d5-229e-4395-b775-8a505aad1b5e","system_id":"levelo_inurba_marseille","lat":43.27619,"lon":5.36116,"is_reserved":false,"is_disabled":false,"rental_uris":{"android":"levelo://app?vid=72ad35d5-229e-4395-b775-8a505aad1b5e","ios":"levelo://app?vid=72ad35d5-229e-4395-b775-8a505aad1b5e"},"vehicle_type_id":"4","last_reported":1741381708,"current_range_meters":8000,"station_id":"ce4bgj92rcd13ifvqbe0","pricing_plan_id":"cebpf4jnsgd1na2vs0mg"},{"bike_id":"36934e57-b2e7-4251-b39f-070cea32a76d","system_id":"levelo_inurba_marseille","lat":43.30414,"lon":5.38905,"is_reserved":false,"is_disabled":false,"rental_uris":{"android":"levelo://app?vid=36934e57-b2e7-4251-b39f-070cea32a76d","ios":"levelo://app?vid=36934e57-b2e7-4251-b39f-070cea32a76d"},"vehicle_type_id":"4","last_reported":1741381708,"current_range_meters":8000,"station_id":"ce4bgk12rcd13ifvqbi0","pricing_plan_id":"cebpf4jnsgd1na2vs0mg"},{"bike_id":"93ef08eb-88b2-44cd-a96f-6d22ce2a4fc0","system_id":"levelo_inurba_marseille","lat":43.330268,"lon":5.390387,"is_reserved":false,"is_disabled":false,"rental_uris":{"android":"levelo://app?vid=93ef08eb-88b2-44cd-a96f-6d22ce2a4fc0","ios":"levelo://app?vid=93ef08eb-88b2-44cd-a96f-6d22ce2a4fc0"},"vehicle_type_id":"4","last_reported":1741381708,"current_range_meters":8000,"station_id":"ce4bhr92rcd13ifvqhrg","pricing_plan_id":"cebpf4jnsgd1na2vs0mg"},{"bike_id":"35130f87-b313-43ca-86df-0e44026654c1","system_id":"levelo_inurba_marseille","lat":43.30826,"lon":5.38034,"is_reserved":false,"is_disabled":false,"rental_uris":{"android":"levelo://app?vid=35130f87-b313-43ca-86df-0e44026654c1","ios":"levelo://app?vid=35130f87-b313-43ca-86df-0e44026654c1"},"vehicle_type_id":"4","last_reported":1741381708,"current_range_meters":8000,"station_id":"","pricing_plan_id":"cebpf4jnsgd1na2vs0mg"},{"bike_id":"d5c1ec7d-6640-476a-9fc6-611b15ce0e46","system_id":"levelo_inurba_marseille","lat":43.29543,"lon":5.38553,"is_reserved":false,"is_disabled":false,"rental_uris":{"android":"levelo://app?vid=d5c1ec7d-6640-476a-9fc6-611b15ce0e46","ios":"levelo://app?vid=d5c1ec7d-6640-476a-9fc6-611b15ce0e46"},"vehicle_type_id":"4","last_reported":1741381708,"current_range_meters":8000,"station_id":"ce4bgih2rcd13ifvqba0","pricing_plan_id":"cebpf4jnsgd1na2vs0mg"},{"bike_id":"ba3c5def-9d88-43bb-9923-7c2a4f1f1893","system_id":"levelo_inurba_marseille","lat":43.28347,"lon":5.3811,"is_reserved":false,"is_disabled":false,"rental_uris":{"android":"levelo://app?vid=ba3c5def-9d88-43bb-9923-7c2a4f1f1893","ios":"levelo://app?vid=ba3c5def-9d88-43bb-9923-7c2a4f1f1893"},"vehicle_type_id":"4","last_reported":1741381708,"current_range_meters":8000,"station_id":"ce4bh412rcd13ifvqdr0","pricing_plan_id":"cebpf4jnsgd1na2vs0mg"},{"bike_id":"05c1f1a1-657b-46d3-a057-48b147b633f2","system_id":"levelo_inurba_marseille","lat":43.29901,"lon":5.38133,"is_reserved":false,"is_disabled":false,"rental_uris":{"android":"levelo://app?vid=05c1f1a1-657b-46d3-a057-48b147b633f2","ios":"levelo://app?vid=05c1f1a1-657b-46d3-a057-48b147b633f2"},"vehicle_type_id":"4","last_reported":1741381708,"current_range_meters":8400,"station_id":"ce4bgj12rcd13ifvqbc0","pricing_plan_id":"cebpf4jnsgd1na2vs0mg"},{"bike_id":"7639f453-e1c6-49e1-812f-7cbea6b497c1","system_id":"levelo_inurba_marseille","lat":43.32478,"lon":5.36572,"is_reserved":false,"is_disabled":false,"rental_uris":{"android":"levelo://app?vid=7639f453-e1c6-49e1-812f-7cbea6b497c1","ios":"levelo://app?vid=7639f453-e1c6-49e1-812f-7cbea6b497c1"},"vehicle_type_id":"4","last_reported":1741381708,"current_range_meters":8000,"station_id":"ce4bhs12rcd13ifvqhvg","pricing_plan_id":"cebpf4jnsgd1na2vs0mg"},{"bike_id":"35121089-03a4-4b62-8ace-46329d92db7d","system_id":"levelo_inurba_marseille","lat":43.2717,"lon":5.4099,"is_reserved":false,"is_disabled":false,"rental_uris":{"android":"levelo://app?vid=35121089-03a4-4b62-8ace-46329d92db7d","ios":"levelo://app?vid=35121089-03a4-4b62-8ace-46329d92db7d"},"vehicle_type_id":"4","last_reported":1741381708,"current_range_meters":3600,"station_id":"ce4bhl12rcd13ifvqgf0","pricing_plan_id":"cebpf4jnsgd1na2vs0mg"},{"bike_id":"62391f34-3130-43d3-9ff9-87e80b4db075","system_id":"levelo_inurba_marseille","lat":43.32111,"lon":5.3677,"is_reserved":false,"is_disabled":false,"rental_uris":{"android":"levelo://app?vid=62391f34-3130-43d3-9ff9-87e80b4db075","ios":"levelo://app?vid=62391f34-3130-43d3-9ff9-87e80b4db075"},"vehicle_type_id":"4","last_reported":1741381708,"current_range_meters":8400,"station_id":"ce4bhrh2rcd13ifvqhug","pricing_plan_id":"cebpf4jnsgd1na2vs0mg"},{"bike_id":"51510a95-54e3-4b84-9b22-bfa3391426f3","system_id":"levelo_inurba_marseille","lat":43.23203,"lon":5.3555,"is_reserved":false,"is_disabled":false,"rental_uris":{"android":"levelo://app?vid=51510a95-54e3-4b84-9b22-bfa3391426f3","ios":"levelo://app?vid=51510a95-54e3-4b84-9b22-bfa3391426f3"},"vehicle_type_id":"4","last_reported":1741381708,"current_range_meters":8400,"station_id":"ce4bhu92rcd13ifvqi70","pricing_plan_id":"cebpf4jnsgd1na2vs0mg"},{"bike_id":"a09fc79c-265d-4357-be1e-37af7323ce06","system_id":"levelo_inurba_marseille","lat":43.29266,"lon":5.38447,"is_reserved":false,"is_disabled":false,"rental_uris":{"android":"levelo://app?vid=a09fc79c-265d-4357-be1e-37af7323ce06","ios":"levelo://app?vid=a09fc79c-265d-4357-be1e-37af7323ce06"},"vehicle_type_id":"4","last_reported":1741381708,"current_range_meters":8400,"station_id":"ce4bh692rcd13ifvqea0","pricing_plan_id":"cebpf4jnsgd1na2vs0mg"},{"bike_id":"1f1b69c5-067d-4677-a02d-6299a5fc1bb9","system_id":"levelo_inurba_marseille","lat":43.23976,"lon":5.36651,"is_reserved":false,"is_disabled":false,"rental_uris":{"android":"levelo://app?vid=1f1b69c5-067d-4677-a02d-6299a5fc1bb9","ios":"levelo://app?vid=1f1b69c5-067d-4677-a02d-6299a5fc1bb9"},"vehicle_type_id":"4","last_reported":1741381708,"current_range_meters":8800,"station_id":"ce4bhi12rcd13ifvqfp0","pricing_plan_id":"cebpf4jnsgd1na2vs0mg"},{"bike_id":"51d3c799-c988-4498-99fd-69334003c643","system_id":"levelo_inurba_marseille","lat":43.29276,"lon":5.38452,"is_reserved":false,"is_disabled":true,"rental_uris":{"android":"levelo://app?vid=51d3c799-c988-4498-99fd-69334003c643","ios":"levelo://app?vid=51d3c799-c988-4498-99fd-69334003c643"},"vehicle_type_id":"4","last_reported":1741381708,"current_range_meters":8400,"station_id":"ce4bh692rcd13ifvqea0","pricing_plan_id":"cebpf4jnsgd1na2vs0mg"},{"bike_id":"b2cada68-d22d-4962-a15a-eab832155af1","system_id":"levelo_inurba_marseille","lat":43.3132,"lon":5.397,"is_reserved":false,"is_disabled":false,"rental_uris":{"android":"levelo://app?vid=b2cada68-d22d-4962-a15a-eab832155af1","ios":"levelo://app?vid=b2cada68-d22d-4962-a15a-eab832155af1"},"vehicle_type_id":"4","last_reported":1741381708,"current_range_meters":8400,"station_id":"ce4bgvp2rcd13ifvqcu0","pricing_plan_id":"cebpf4jnsgd1na2vs0mg"},{"bike_id":"c9151ceb-fd35-4b40-9877-b7757062111e","system_id":"levelo_inurba_marseille","lat":43.27813,"lon":5.40695,"is_reserved":false,"is_disabled":false,"rental_uris":{"android":"levelo://app?vid=c9151ceb-fd35-4b40-9877-b7757062111e","ios":"levelo://app?vid=c9151ceb-fd35-4b40-9877-b7757062111e"},"vehicle_type_id":"4","last_reported":1741381708,"current_range_meters":8400,"station_id":"ce4bhnh2rcd13ifvqgtg","pricing_plan_id":"cebpf4jnsgd1na2vs0mg"},{"bike_id":"d5eb48b1-2731-4b2a-93a4-5e842b0877ee","system_id":"levelo_inurba_marseille","lat":43.28941,"lon":5.39636,"is_reserved":false,"is_disabled":false,"rental_uris":{"android":"levelo://app?vid=d5eb48b1-2731-4b2a-93a4-5e842b0877ee","ios":"levelo://app?vid=d5eb48b1-2731-4b2a-93a4-5e842b0877ee"},"vehicle_type_id":"4","last_reported":1741381708,"current_range_meters":8400,"station_id":"ce4bh3h2rcd13ifvqdn0","pricing_plan_id":"cebpf4jnsgd1na2vs0mg"},{"bike_id":"f7630205-3849-413e-8696-2720e56d8ab5","system_id":"levelo_inurba_marseille","lat":43.27812,"lon":5.40713,"is_reserved":false,"is_disabled":false,"rental_uris":{"android":"levelo://app?vid=f7630205-3849-413e-8696-2720e56d8ab5","ios":"levelo://app?vid=f7630205-3849-413e-8696-2720e56d8ab5"},"vehicle_type_id":"4","last_reported":1741381708,"current_range_meters":8400,"station_id":"ce4bhnh2rcd13ifvqgtg","pricing_plan_id":"cebpf4jnsgd1na2vs0mg"},{"bike_id":"c1139505-e8aa-43fb-acfd-117938f2cd8c","system_id":"levelo_inurba_marseille","lat":43.29298,"lon":5.37172,"is_reserved":false,"is_disabled":false,"rental_uris":{"android":"levelo://app?vid=c1139505-e8aa-43fb-acfd-117938f2cd8c","ios":"levelo://app?vid=c1139505-e8aa-43fb-acfd-117938f2cd8c"},"vehicle_type_id":"4","last_reported":1741381708,"current_range_meters":8800,"station_id":"ce4bgh92rcd13ifvqb40","pricing_plan_id":"cebpf4jnsgd1na2vs0mg"},{"bike_id":"19f0d495-bec5-4789-a400-d666d391172a","system_id":"levelo_inurba_marseille","lat":43.295733,"lon":5.375074,"is_reserved":false,"is_disabled":false,"rental_uris":{"android":"levelo://app?vid=19f0d495-bec5-4789-a400-d666d391172a","ios":"levelo://app?vid=19f0d495-bec5-4789-a400-d666d391172a"},"vehicle_type_id":"4","last_reported":1741381708,"current_range_meters":8400,"station_id":"ce4bguh2rcd13ifvqckg","pricing_plan_id":"cebpf4jnsgd1na2vs0mg"},{"bike_id":"5dab8ec2-efad-4f25-9fd8-730541c1486b","system_id":"levelo_inurba_marseille","lat":43.30597,"lon":5.39363,"is_reserved":false,"is_disabled":false,"rental_uris":{"android":"levelo://app?vid=5dab8ec2-efad-4f25-9fd8-730541c1486b","ios":"levelo://app?vid=5dab8ec2-efad-4f25-9fd8-730541c1486b"},"vehicle_type_id":"4","last_reported":1741381708,"current_range_meters":8800,"station_id":"ce4bh0p2rcd13ifvqd80","pricing_plan_id":"cebpf4jnsgd1na2vs0mg"},{"bike_id":"e3057739-689d-412d-99fb-acef7a4e734f","system_id":"levelo_inurba_marseille","lat":43.293053,"lon":5.374499,"is_reserved":false,"is_disabled":false,"rental_uris":{"android":"levelo://app?vid=e3057739-689d-412d-99fb-acef7a4e734f","ios":"levelo://app?vid=e3057739-689d-412d-99fb-acef7a4e734f"},"vehicle_type_id":"4","last_reported":1741381708,"current_range_meters":8800,"station_id":"ce4bhg12rcd13ifvqf70","pricing_plan_id":"cebpf4jnsgd1na2vs0mg"},{"bike_id":"8b3f3fbd-30bc-4480-b60c-11059361c2fa","system_id":"levelo_inurba_marseille","lat":43.28441,"lon":5.39194,"is_reserved":false,"is_disabled":false,"rental_uris":{"android":"levelo://app?vid=8b3f3fbd-30bc-4480-b60c-11059361c2fa","ios":"levelo://app?vid=8b3f3fbd-30bc-4480-b60c-11059361c2fa"},"vehicle_type_id":"4","last_reported":1741381708,"current_range_meters":8800,"station_id":"ce4bhoh2rcd13ifvqh5g","pricing_plan_id":"cebpf4jnsgd1na2vs0mg"},{"bike_id":"48ce40c1-0299-44b6-af4d-acc32ba2f0c2","system_id":"levelo_inurba_marseille","lat":43.23972,"lon":5.36669,"is_reserved":false,"is_disabled":false,"rental_uris":{"android":"levelo://app?vid=48ce40c1-0299-44b6-af4d-acc32ba2f0c2","ios":"levelo://app?vid=48ce40c1-0299-44b6-af4d-acc32ba2f0c2"},"vehicle_type_id":"4","last_reported":1741381708,"current_range_meters":8800,"station_id":"ce4bhi12rcd13ifvqfp0","pricing_plan_id":"cebpf4jnsgd1na2vs0mg"},{"bike_id":"f81aeda7-ee37-4a6e-a5fa-e7b5b948a24a","system_id":"levelo_inurba_marseille","lat":43.28939,"lon":5.3964,"is_reserved":false,"is_disabled":false,"rental_uris":{"android":"levelo://app?vid=f81aeda7-ee37-4a6e-a5fa-e7b5b948a24a","ios":"levelo://app?vid=f81aeda7-ee37-4a6e-a5fa-e7b5b948a24a"},"vehicle_type_id":"4","last_reported":1741381708,"current_range_meters":8000,"station_id":"ce4bh3h2rcd13ifvqdn0","pricing_plan_id":"cebpf4jnsgd1na2vs0mg"},{"bike_id":"59ef7ab1-f072-4315-9e2a-a3482cc569d5","system_id":"levelo_inurba_marseille","lat":43.29899,"lon":5.4366,"is_reserved":false,"is_disabled":false,"rental_uris":{"android":"levelo://app?vid=59ef7ab1-f072-4315-9e2a-a3482cc569d5","ios":"levelo://app?vid=59ef7ab1-f072-4315-9e2a-a3482cc569d5"},"vehicle_type_id":"4","last_reported":1741381708,"current_range_meters":9200,"station_id":"ce4bhpp2rcd13ifvqhfg","pricing_plan_id":"cebpf4jnsgd1na2vs0mg"},{"bike_id":"276af856-4234-4b89-bd31-86c6fb074953","system_id":"levelo_inurba_marseille","lat":43.28731,"lon":5.36081,"is_reserved":false,"is_disabled":false,"rental_uris":{"android":"levelo://app?vid=276af856-4234-4b89-bd31-86c6fb074953","ios":"levelo://app?vid=276af856-4234-4b89-bd31-86c6fb074953"},"vehicle_type_id":"4","last_reported":1741381708,"current_range_meters":9200,"station_id":"cki0cbj6b192h4jlfktg","pricing_plan_id":"cebpf4jnsgd1na2vs0mg"},{"bike_id":"522cd76d-4fe4-410f-9d3a-eb63cb8f5a65","system_id":"levelo_inurba_marseille","lat":43.29412,"lon":5.38638,"is_reserved":false,"is_disabled":false,"rental_uris":{"android":"levelo://app?vid=522cd76d-4fe4-410f-9d3a-eb63cb8f5a65","ios":"levelo://app?vid=522cd76d-4fe4-410f-9d3a-eb63cb8f5a65"},"vehicle_type_id":"4","last_reported":1741381708,"current_range_meters":9200,"station_id":"ce4bh2h2rcd13ifvqdh0","pricing_plan_id":"cebpf4jnsgd1na2vs0mg"},{"bike_id":"41d04e59-5ad2-4cd7-9a8e-5732bc369ae1","system_id":"levelo_inurba_marseille","lat":43.28372,"lon":5.38645,"is_reserved":false,"is_disabled":false,"rental_uris":{"android":"levelo://app?vid=41d04e59-5ad2-4cd7-9a8e-5732bc369ae1","ios":"levelo://app?vid=41d04e59-5ad2-4cd7-9a8e-5732bc369ae1"},"vehicle_type_id":"4","last_reported":1741381708,"current_range_meters":8400,"station_id":"ce4bh492rcd13ifvqdvg","pricing_plan_id":"cebpf4jnsgd1na2vs0mg"},{"bike_id":"a5ed6be5-afc1-4509-87f4-f5da3b84f4f3","system_id":"levelo_inurba_marseille","lat":43.30463,"lon":5.37899,"is_reserved":false,"is_disabled":false,"rental_uris":{"android":"levelo://app?vid=a5ed6be5-afc1-4509-87f4-f5da3b84f4f3","ios":"levelo://app?vid=a5ed6be5-afc1-4509-87f4-f5da3b84f4f3"},"vehicle_type_id":"4","last_reported":1741381708,"current_range_meters":9200,"station_id":"ce4bgup2rcd13ifvqcn0","pricing_plan_id":"cebpf4jnsgd1na2vs0mg"},{"bike_id":"210ab889-bc18-48be-a75c-ffdae9998b79","system_id":"levelo_inurba_marseille","lat":43.32035,"lon":5.41574,"is_reserved":false,"is_disabled":false,"rental_uris":{"android":"levelo://app?vid=210ab889-bc18-48be-a75c-ffdae9998b79","ios":"levelo://app?vid=210ab889-bc18-48be-a75c-ffdae9998b79"},"vehicle_type_id":"4","last_reported":1741381708,"current_range_meters":9200,"station_id":"ce4bhq92rcd13ifvqhkg","pricing_plan_id":"cebpf4jnsgd1na2vs0mg"},{"bike_id":"431037b5-a5d3-4f7c-a082-acb5bd2f7940","system_id":"levelo_inurba_marseille","lat":43.23075,"lon":5.355,"is_reserved":false,"is_disabled":false,"rental_uris":{"android":"levelo://app?vid=431037b5-a5d3-4f7c-a082-acb5bd2f7940","ios":"levelo://app?vid=431037b5-a5d3-4f7c-a082-acb5bd2f7940"},"vehicle_type_id":"4","last_reported":1741381708,"current_range_meters":9200,"station_id":"cpo3342slgdg3j2ifvpg","pricing_plan_id":"cebpf4jnsgd1na2vs0mg"},{"bike_id":"55b9b45a-b8fc-407d-b347-42d8a095fbe8","system_id":"levelo_inurba_marseille","lat":43.29261,"lon":5.38423,"is_reserved":false,"is_disabled":false,"rental_uris":{"android":"levelo://app?vid=55b9b45a-b8fc-407d-b347-42d8a095fbe8","ios":"levelo://app?vid=55b9b45a-b8fc-407d-b347-42d8a095fbe8"},"vehicle_type_id":"4","last_reported":1741381708,"current_range_meters":9200,"station_id":"ce4bh692rcd13ifvqea0","pricing_plan_id":"cebpf4jnsgd1na2vs0mg"},{"bike_id":"9f2cf0ac-6ecb-4b51-bb76-d09b195078b7","system_id":"levelo_inurba_marseille","lat":43.26954,"lon":5.38629,"is_reserved":false,"is_disabled":false,"rental_uris":{"android":"levelo://app?vid=9f2cf0ac-6ecb-4b51-bb76-d09b195078b7","ios":"levelo://app?vid=9f2cf0ac-6ecb-4b51-bb76-d09b195078b7"},"vehicle_type_id":"4","last_reported":1741381708,"current_range_meters":9600,"station_id":"ce4bhh92rcd13ifvqfh0","pricing_plan_id":"cebpf4jnsgd1na2vs0mg"},{"bike_id":"e1df5967-8400-4d75-a43d-c994bfc39aae","system_id":"levelo_inurba_marseille","lat":43.28701,"lon":5.39989,"is_reserved":false,"is_disabled":false,"rental_uris":{"android":"levelo://app?vid=e1df5967-8400-4d75-a43d-c994bfc39aae","ios":"levelo://app?vid=e1df5967-8400-4d75-a43d-c994bfc39aae"},"vehicle_type_id":"4","last_reported":1741381708,"current_range_meters":7200,"station_id":"ce4bho92rcd13ifvqh3g","pricing_plan_id":"cebpf4jnsgd1na2vs0mg"},{"bike_id":"9da935d0-0941-44db-bb4f-7f7e582bd3d3","system_id":"levelo_inurba_marseille","lat":43.24156,"lon":5.36411,"is_reserved":false,"is_disabled":false,"rental_uris":{"android":"levelo://app?vid=9da935d0-0941-44db-bb4f-7f7e582bd3d3","ios":"levelo://app?vid=9da935d0-0941-44db-bb4f-7f7e582bd3d3"},"vehicle_type_id":"4","last_reported":1741381708,"current_range_meters":9600,"station_id":"cpo36qri1sfpv3e86is0","pricing_plan_id":"cebpf4jnsgd1na2vs0mg"},{"bike_id":"086d469f-dff5-4ec5-8e53-42a42c799cc9","system_id":"levelo_inurba_marseille","lat":43.29553,"lon":5.42287,"is_reserved":false,"is_disabled":false,"rental_uris":{"android":"levelo://app?vid=086d469f-dff5-4ec5-8e53-42a42c799cc9","ios":"levelo://app?vid=086d469f-dff5-4ec5-8e53-42a42c799cc9"},"vehicle_type_id":"4","last_reported":1741381708,"current_range_meters":9600,"station_id":"ce4bhph2rcd13ifvqhdg","pricing_plan_id":"cebpf4jnsgd1na2vs0mg"},{"bike_id":"ea6c8b12-c59d-4d00-91e1-bd0799f7873c","system_id":"levelo_inurba_marseille","lat":43.34142,"lon":5.40902,"is_reserved":false,"is_disabled":false,"rental_uris":{"android":"levelo://app?vid=ea6c8b12-c59d-4d00-91e1-bd0799f7873c","ios":"levelo://app?vid=ea6c8b12-c59d-4d00-91e1-bd0799f7873c"},"vehicle_type_id":"4","last_reported":1741381708,"current_range_meters":6400,"station_id":"ce4bhqh2rcd13ifvqhlg","pricing_plan_id":"cebpf4jnsgd1na2vs0mg"},{"bike_id":"42323b44-4776-4993-88db-08c90d643018","system_id":"levelo_inurba_marseille","lat":43.30101,"lon":5.37657,"is_reserved":false,"is_disabled":false,"rental_uris":{"android":"levelo://app?vid=42323b44-4776-4993-88db-08c90d643018","ios":"levelo://app?vid=42323b44-4776-4993-88db-08c90d643018"},"vehicle_type_id":"4","last_reported":1741381708,"current_range_meters":9600,"station_id":"","pricing_plan_id":"cebpf4jnsgd1na2vs0mg"},{"bike_id":"daa48c53-c5de-46aa-94fc-655cbd710c8c","system_id":"levelo_inurba_marseille","lat":43.229403,"lon":5.353773,"is_reserved":false,"is_disabled":false,"rental_uris":{"android":"levelo://app?vid=daa48c53-c5de-46aa-94fc-655cbd710c8c","ios":"levelo://app?vid=daa48c53-c5de-46aa-94fc-655cbd710c8c"},"vehicle_type_id":"4","last_reported":1741381708,"current_range_meters":9600,"station_id":"cpo3532slgdg3j2ikp40","pricing_plan_id":"cebpf4jnsgd1na2vs0mg"},{"bike_id":"3d70b87e-07bb-4ea5-8923-03de5a7a92a0","system_id":"levelo_inurba_marseille","lat":43.29873,"lon":5.38905,"is_reserved":false,"is_disabled":false,"rental_uris":{"android":"levelo://app?vid=3d70b87e-07bb-4ea5-8923-03de5a7a92a0","ios":"levelo://app?vid=3d70b87e-07bb-4ea5-8923-03de5a7a92a0"},"vehicle_type_id":"4","last_reported":1741381708,"current_range_meters":8800,"station_id":"ce4bh392rcd13ifvqdl0","pricing_plan_id":"cebpf4jnsgd1na2vs0mg"},{"bike_id":"3949e300-2dbd-4203-aa58-eef0b1b0c774","system_id":"levelo_inurba_marseille","lat":43.33759,"lon":5.37439,"is_reserved":false,"is_disabled":false,"rental_uris":{"android":"levelo://app?vid=3949e300-2dbd-4203-aa58-eef0b1b0c774","ios":"levelo://app?vid=3949e300-2dbd-4203-aa58-eef0b1b0c774"},"vehicle_type_id":"4","last_reported":1741381708,"current_range_meters":10000,"station_id":"","pricing_plan_id":"cebpf4jnsgd1na2vs0mg"},{"bike_id":"fd1d2190-af03-4671-944f-5a750933dd9a","system_id":"levelo_inurba_marseille","lat":43.28843,"lon":5.39312,"is_reserved":false,"is_disabled":false,"rental_uris":{"android":"levelo://app?vid=fd1d2190-af03-4671-944f-5a750933dd9a","ios":"levelo://app?vid=fd1d2190-af03-4671-944f-5a750933dd9a"},"vehicle_type_id":"4","last_reported":1741381708,"current_range_meters":10000,"station_id":"ce4bh2p2rcd13ifvqdi0","pricing_plan_id":"cebpf4jnsgd1na2vs0mg"},{"bike_id":"7b62c62b-d961-49e1-afe1-b0b21a291801","system_id":"levelo_inurba_marseille","lat":43.27854,"lon":5.4175,"is_reserved":false,"is_disabled":true,"rental_uris":{"android":"levelo://app?vid=7b62c62b-d961-49e1-afe1-b0b21a291801","ios":"levelo://app?vid=7b62c62b-d961-49e1-afe1-b0b21a291801"},"vehicle_type_id":"4","last_reported":1741381708,"current_range_meters":10000,"station_id":"","pricing_plan_id":"cebpf4jnsgd1na2vs0mg"},{"bike_id":"8d4928e0-5b6b-4c63-92e5-15dc18de6c1d","system_id":"levelo_inurba_marseille","lat":43.33023,"lon":5.39054,"is_reserved":false,"is_disabled":false,"rental_uris":{"android":"levelo://app?vid=8d4928e0-5b6b-4c63-92e5-15dc18de6c1d","ios":"levelo://app?vid=8d4928e0-5b6b-4c63-92e5-15dc18de6c1d"},"vehicle_type_id":"4","last_reported":1741381708,"current_range_meters":10000,"station_id":"ce4bhr92rcd13ifvqhrg","pricing_plan_id":"cebpf4jnsgd1na2vs0mg"},{"bike_id":"920ff55d-e722-45ea-b645-85ea1685a342","system_id":"levelo_inurba_marseille","lat":43.29295,"lon":5.3848,"is_reserved":false,"is_disabled":false,"rental_uris":{"android":"levelo://app?vid=920ff55d-e722-45ea-b645-85ea1685a342","ios":"levelo://app?vid=920ff55d-e722-45ea-b645-85ea1685a342"},"vehicle_type_id":"4","last_reported":1741381708,"current_range_meters":10000,"station_id":"","pricing_plan_id":"cebpf4jnsgd1na2vs0mg"},{"bike_id":"7939c606-ea6d-4b17-9e10-bdbd5f7d5861","system_id":"levelo_inurba_marseille","lat":43.32479,"lon":5.36575,"is_reserved":false,"is_disabled":false,"rental_uris":{"android":"levelo://app?vid=7939c606-ea6d-4b17-9e10-bdbd5f7d5861","ios":"levelo://app?vid=7939c606-ea6d-4b17-9e10-bdbd5f7d5861"},"vehicle_type_id":"4","last_reported":1741381708,"current_range_meters":9600,"station_id":"ce4bhs12rcd13ifvqhvg","pricing_plan_id":"cebpf4jnsgd1na2vs0mg"},{"bike_id":"db7cd95b-0159-457d-aa08-f78ad0493427","system_id":"levelo_inurba_marseille","lat":43.32369,"lon":5.38903,"is_reserved":false,"is_disabled":false,"rental_uris":{"android":"levelo://app?vid=db7cd95b-0159-457d-aa08-f78ad0493427","ios":"levelo://app?vid=db7cd95b-0159-457d-aa08-f78ad0493427"},"vehicle_type_id":"4","last_reported":1741381708,"current_range_meters":10800,"station_id":"ce4bhqp2rcd13ifvqhog","pricing_plan_id":"cebpf4jnsgd1na2vs0mg"},{"bike_id":"4da9eb3f-af08-4a1b-9882-77cd86d8b894","system_id":"levelo_inurba_marseille","lat":43.29412,"lon":5.38653,"is_reserved":false,"is_disabled":false,"rental_uris":{"android":"levelo://app?vid=4da9eb3f-af08-4a1b-9882-77cd86d8b894","ios":"levelo://app?vid=4da9eb3f-af08-4a1b-9882-77cd86d8b894"},"vehicle_type_id":"4","last_reported":1741381708,"current_range_meters":10800,"station_id":"ce4bh2h2rcd13ifvqdh0","pricing_plan_id":"cebpf4jnsgd1na2vs0mg"},{"bike_id":"51b85be0-0437-4b56-9622-5878be8a426d","system_id":"levelo_inurba_marseille","lat":43.32366,"lon":5.38886,"is_reserved":false,"is_disabled":false,"rental_uris":{"android":"levelo://app?vid=51b85be0-0437-4b56-9622-5878be8a426d","ios":"levelo://app?vid=51b85be0-0437-4b56-9622-5878be8a426d"},"vehicle_type_id":"4","last_reported":1741381708,"current_range_meters":10800,"station_id":"ce4bhqp2rcd13ifvqhog","pricing_plan_id":"cebpf4jnsgd1na2vs0mg"},{"bike_id":"ae99eef4-0d01-432b-b9f3-30beda5f0e73","system_id":"levelo_inurba_marseille","lat":43.29904,"lon":5.43649,"is_reserved":false,"is_disabled":false,"rental_uris":{"android":"levelo://app?vid=ae99eef4-0d01-432b-b9f3-30beda5f0e73","ios":"levelo://app?vid=ae99eef4-0d01-432b-b9f3-30beda5f0e73"},"vehicle_type_id":"4","last_reported":1741381708,"current_range_meters":11200,"station_id":"ce4bhpp2rcd13ifvqhfg","pricing_plan_id":"cebpf4jnsgd1na2vs0mg"},{"bike_id":"9e78d4d1-9b06-43cc-a076-04916442e1d5","system_id":"levelo_inurba_marseille","lat":43.29875,"lon":5.3891,"is_reserved":false,"is_disabled":false,"rental_uris":{"android":"levelo://app?vid=9e78d4d1-9b06-43cc-a076-04916442e1d5","ios":"levelo://app?vid=9e78d4d1-9b06-43cc-a076-04916442e1d5"},"vehicle_type_id":"4","last_reported":1741381708,"current_range_meters":11200,"station_id":"ce4bh392rcd13ifvqdl0","pricing_plan_id":"cebpf4jnsgd1na2vs0mg"},{"bike_id":"0d69526c-0636-45e2-8b3d-8165db0f2267","system_id":"levelo_inurba_marseille","lat":43.2846,"lon":5.35889,"is_reserved":false,"is_disabled":false,"rental_uris":{"android":"levelo://app?vid=0d69526c-0636-45e2-8b3d-8165db0f2267","ios":"levelo://app?vid=0d69526c-0636-45e2-8b3d-8165db0f2267"},"vehicle_type_id":"4","last_reported":1741381708,"current_range_meters":11200,"station_id":"ce4bhah2rcd13ifvqei0","pricing_plan_id":"cebpf4jnsgd1na2vs0mg"},{"bike_id":"47162960-ec0e-4429-9619-06f37c3ae3b1","system_id":"levelo_inurba_marseille","lat":43.28698,"lon":5.37398,"is_reserved":false,"is_disabled":false,"rental_uris":{"android":"levelo://app?vid=47162960-ec0e-4429-9619-06f37c3ae3b1","ios":"levelo://app?vid=47162960-ec0e-4429-9619-06f37c3ae3b1"},"vehicle_type_id":"4","last_reported":1741381708,"current_range_meters":11200,"station_id":"ce4bh3p2rcd13ifvqdq0","pricing_plan_id":"cebpf4jnsgd1na2vs0mg"},{"bike_id":"b1e189d2-cc2d-4bbc-9210-3d18e5683801","system_id":"levelo_inurba_marseille","lat":43.26948,"lon":5.40271,"is_reserved":false,"is_disabled":true,"rental_uris":{"android":"levelo://app?vid=b1e189d2-cc2d-4bbc-9210-3d18e5683801","ios":"levelo://app?vid=b1e189d2-cc2d-4bbc-9210-3d18e5683801"},"vehicle_type_id":"4","last_reported":1741381708,"current_range_meters":11600,"station_id":"cjm6bp8fraef2m0cb0m0","pricing_plan_id":"cebpf4jnsgd1na2vs0mg"},{"bike_id":"24b68d00-fbed-40d6-949a-cc14ad86d65f","system_id":"levelo_inurba_marseille","lat":43.297211,"lon":5.377023,"is_reserved":false,"is_disabled":false,"rental_uris":{"android":"levelo://app?vid=24b68d00-fbed-40d6-949a-cc14ad86d65f","ios":"levelo://app?vid=24b68d00-fbed-40d6-949a-cc14ad86d65f"},"vehicle_type_id":"4","last_reported":1741381708,"current_range_meters":10000,"station_id":"ce4bgjh2rcd13ifvqbg0","pricing_plan_id":"cebpf4jnsgd1na2vs0mg"},{"bike_id":"f84dac07-aebc-4c91-86d5-a770501ab7d9","system_id":"levelo_inurba_marseille","lat":43.295299,"lon":5.390435,"is_reserved":false,"is_disabled":false,"rental_uris":{"android":"levelo://app?vid=f84dac07-aebc-4c91-86d5-a770501ab7d9","ios":"levelo://app?vid=f84dac07-aebc-4c91-86d5-a770501ab7d9"},"vehicle_type_id":"4","last_reported":1741381708,"current_range_meters":11600,"station_id":"ce4bh3p2rcd13ifvqdp0","pricing_plan_id":"cebpf4jnsgd1na2vs0mg"},{"bike_id":"8ed261d4-7d66-4b68-8c03-85d405931046","system_id":"levelo_inurba_marseille","lat":43.24386,"lon":5.37065,"is_reserved":false,"is_disabled":false,"rental_uris":{"android":"levelo://app?vid=8ed261d4-7d66-4b68-8c03-85d405931046","ios":"levelo://app?vid=8ed261d4-7d66-4b68-8c03-85d405931046"},"vehicle_type_id":"4","last_reported":1741381708,"current_range_meters":10800,"station_id":"ce4bhhh2rcd13ifvqfk0","pricing_plan_id":"cebpf4jnsgd1na2vs0mg"},{"bike_id":"42168c6f-35a5-43f2-8ef8-61a75051262d","system_id":"levelo_inurba_marseille","lat":43.28167,"lon":5.42643,"is_reserved":false,"is_disabled":true,"rental_uris":{"android":"levelo://app?vid=42168c6f-35a5-43f2-8ef8-61a75051262d","ios":"levelo://app?vid=42168c6f-35a5-43f2-8ef8-61a75051262d"},"vehicle_type_id":"4","last_reported":1741381708,"current_range_meters":11600,"station_id":"ce4bhnh2rcd13ifvqgug","pricing_plan_id":"cebpf4jnsgd1na2vs0mg"},{"bike_id":"0e674cb4-f37d-4bd5-aaff-7ec953d386c6","system_id":"levelo_inurba_marseille","lat":43.24142,"lon":5.36408,"is_reserved":false,"is_disabled":false,"rental_uris":{"android":"levelo://app?vid=0e674cb4-f37d-4bd5-aaff-7ec953d386c6","ios":"levelo://app?vid=0e674cb4-f37d-4bd5-aaff-7ec953d386c6"},"vehicle_type_id":"4","last_reported":1741381708,"current_range_meters":11600,"station_id":"cpo36qri1sfpv3e86is0","pricing_plan_id":"cebpf4jnsgd1na2vs0mg"},{"bike_id":"eefe66a8-9b10-4ded-8e0a-619e66601e02","system_id":"levelo_inurba_marseille","lat":43.2963,"lon":5.42596,"is_reserved":false,"is_disabled":false,"rental_uris":{"android":"levelo://app?vid=eefe66a8-9b10-4ded-8e0a-619e66601e02","ios":"levelo://app?vid=eefe66a8-9b10-4ded-8e0a-619e66601e02"},"vehicle_type_id":"4","last_reported":1741381708,"current_range_meters":11600,"station_id":"","pricing_plan_id":"cebpf4jnsgd1na2vs0mg"},{"bike_id":"3af5260e-2818-4b81-a7fe-0a94159c04c6","system_id":"levelo_inurba_marseille","lat":43.29628,"lon":5.37705,"is_reserved":false,"is_disabled":false,"rental_uris":{"android":"levelo://app?vid=3af5260e-2818-4b81-a7fe-0a94159c04c6","ios":"levelo://app?vid=3af5260e-2818-4b81-a7fe-0a94159c04c6"},"vehicle_type_id":"4","last_reported":1741381708,"current_range_meters":12000,"station_id":"ce4bgi92rcd13ifvqb90","pricing_plan_id":"cebpf4jnsgd1na2vs0mg"},{"bike_id":"81de7748-b1b5-421f-9e0b-234976ce22d5","system_id":"levelo_inurba_marseille","lat":43.29437,"lon":5.38655,"is_reserved":false,"is_disabled":false,"rental_uris":{"android":"levelo://app?vid=81de7748-b1b5-421f-9e0b-234976ce22d5","ios":"levelo://app?vid=81de7748-b1b5-421f-9e0b-234976ce22d5"},"vehicle_type_id":"4","last_reported":1741381708,"current_range_meters":12000,"station_id":"ce4bh2h2rcd13ifvqdh0","pricing_plan_id":"cebpf4jnsgd1na2vs0mg"},{"bike_id":"e524bcef-a391-41b2-bad2-673eae53ea51","system_id":"levelo_inurba_marseille","lat":43.31717,"lon":5.43698,"is_reserved":false,"is_disabled":false,"rental_uris":{"android":"levelo://app?vid=e524bcef-a391-41b2-bad2-673eae53ea51","ios":"levelo://app?vid=e524bcef-a391-41b2-bad2-673eae53ea51"},"vehicle_type_id":"4","last_reported":1741381708,"current_range_meters":12000,"station_id":"ce4bhp92rcd13ifvqhcg","pricing_plan_id":"cebpf4jnsgd1na2vs0mg"},{"bike_id":"285ce5bc-dfe2-4020-8ca4-6a42a42147d9","system_id":"levelo_inurba_marseille","lat":43.28559,"lon":5.39504,"is_reserved":false,"is_disabled":false,"rental_uris":{"android":"levelo://app?vid=285ce5bc-dfe2-4020-8ca4-6a42a42147d9","ios":"levelo://app?vid=285ce5bc-dfe2-4020-8ca4-6a42a42147d9"},"vehicle_type_id":"4","last_reported":1741381708,"current_range_meters":12000,"station_id":"ce4bh292rcd13ifvqdg0","pricing_plan_id":"cebpf4jnsgd1na2vs0mg"},{"bike_id":"dac09d9e-9ab6-4c54-8fe2-7fcfc9203869","system_id":"levelo_inurba_marseille","lat":43.26548,"lon":5.37283,"is_reserved":false,"is_disabled":true,"rental_uris":{"android":"levelo://app?vid=dac09d9e-9ab6-4c54-8fe2-7fcfc9203869","ios":"levelo://app?vid=dac09d9e-9ab6-4c54-8fe2-7fcfc9203869"},"vehicle_type_id":"4","last_reported":1741381708,"current_range_meters":12000,"station_id":"ce4bhg12rcd13ifvqf70","pricing_plan_id":"cebpf4jnsgd1na2vs0mg"},{"bike_id":"54954614-0ac5-41d2-8a16-307c508cf4e1","system_id":"levelo_inurba_marseille","lat":43.3302,"lon":5.39043,"is_reserved":false,"is_disabled":false,"rental_uris":{"android":"levelo://app?vid=54954614-0ac5-41d2-8a16-307c508cf4e1","ios":"levelo://app?vid=54954614-0ac5-41d2-8a16-307c508cf4e1"},"vehicle_type_id":"4","last_reported":1741381708,"current_range_meters":12000,"station_id":"ce4bhr92rcd13ifvqhrg","pricing_plan_id":"cebpf4jnsgd1na2vs0mg"},{"bike_id":"28571235-cfaf-4ba4-b977-861c77895ce9","system_id":"levelo_inurba_marseille","lat":43.29263,"lon":5.38432,"is_reserved":false,"is_disabled":false,"rental_uris":{"android":"levelo://app?vid=28571235-cfaf-4ba4-b977-861c77895ce9","ios":"levelo://app?vid=28571235-cfaf-4ba4-b977-861c77895ce9"},"vehicle_type_id":"4","last_reported":1741381708,"current_range_meters":12000,"station_id":"ce4bh692rcd13ifvqea0","pricing_plan_id":"cebpf4jnsgd1na2vs0mg"},{"bike_id":"82814b92-b2a8-4924-9ee2-01202f685690","system_id":"levelo_inurba_marseille","lat":43.3065,"lon":5.40093,"is_reserved":false,"is_disabled":false,"rental_uris":{"android":"levelo://app?vid=82814b92-b2a8-4924-9ee2-01202f685690","ios":"levelo://app?vid=82814b92-b2a8-4924-9ee2-01202f685690"},"vehicle_type_id":"4","last_reported":1741381708,"current_range_meters":10800,"station_id":"ce4bh112rcd13ifvqda0","pricing_plan_id":"cebpf4jnsgd1na2vs0mg"},{"bike_id":"7372ba19-4949-453e-a20c-490c28817add","system_id":"levelo_inurba_marseille","lat":43.337718,"lon":5.37433,"is_reserved":false,"is_disabled":false,"rental_uris":{"android":"levelo://app?vid=7372ba19-4949-453e-a20c-490c28817add","ios":"levelo://app?vid=7372ba19-4949-453e-a20c-490c28817add"},"vehicle_type_id":"4","last_reported":1741381708,"current_range_meters":12400,"station_id":"","pricing_plan_id":"cebpf4jnsgd1na2vs0mg"},{"bike_id":"84a7bf9b-de64-4e0b-ab59-21f7de9b944a","system_id":"levelo_inurba_marseille","lat":43.29429,"lon":5.38626,"is_reserved":false,"is_disabled":false,"rental_uris":{"android":"levelo://app?vid=84a7bf9b-de64-4e0b-ab59-21f7de9b944a","ios":"levelo://app?vid=84a7bf9b-de64-4e0b-ab59-21f7de9b944a"},"vehicle_type_id":"4","last_reported":1741381708,"current_range_meters":12400,"station_id":"ce4bh2h2rcd13ifvqdh0","pricing_plan_id":"cebpf4jnsgd1na2vs0mg"},{"bike_id":"5cabd61c-7a18-4a82-b4ff-b4d869db70af","system_id":"levelo_inurba_marseille","lat":43.25108,"lon":5.40322,"is_reserved":false,"is_disabled":false,"rental_uris":{"android":"levelo://app?vid=5cabd61c-7a18-4a82-b4ff-b4d869db70af","ios":"levelo://app?vid=5cabd61c-7a18-4a82-b4ff-b4d869db70af"},"vehicle_type_id":"4","last_reported":1741381708,"current_range_meters":12400,"station_id":"ce4bhlh2rcd13ifvqgig","pricing_plan_id":"cebpf4jnsgd1na2vs0mg"},{"bike_id":"af727367-3bb1-4e28-bf7e-f3b81de5470f","system_id":"levelo_inurba_marseille","lat":43.29527,"lon":5.385508,"is_reserved":false,"is_disabled":false,"rental_uris":{"android":"levelo://app?vid=af727367-3bb1-4e28-bf7e-f3b81de5470f","ios":"levelo://app?vid=af727367-3bb1-4e28-bf7e-f3b81de5470f"},"vehicle_type_id":"4","last_reported":1741381708,"current_range_meters":12400,"station_id":"ce4bgih2rcd13ifvqba0","pricing_plan_id":"cebpf4jnsgd1na2vs0mg"},{"bike_id":"f0f073b8-3a3a-4841-a660-7c86c96fde81","system_id":"levelo_inurba_marseille","lat":43.31317,"lon":5.37352,"is_reserved":false,"is_disabled":false,"rental_uris":{"android":"levelo://app?vid=f0f073b8-3a3a-4841-a660-7c86c96fde81","ios":"levelo://app?vid=f0f073b8-3a3a-4841-a660-7c86c96fde81"},"vehicle_type_id":"4","last_reported":1741381708,"current_range_meters":12400,"station_id":"","pricing_plan_id":"cebpf4jnsgd1na2vs0mg"},{"bike_id":"b9876437-5323-42b3-bbc9-af08b04085db","system_id":"levelo_inurba_marseille","lat":43.29325,"lon":5.39034,"is_reserved":false,"is_disabled":false,"rental_uris":{"android":"levelo://app?vid=b9876437-5323-42b3-bbc9-af08b04085db","ios":"levelo://app?vid=b9876437-5323-42b3-bbc9-af08b04085db"},"vehicle_type_id":"4","last_reported":1741381708,"current_range_meters":12400,"station_id":"","pricing_plan_id":"cebpf4jnsgd1na2vs0mg"},{"bike_id":"9616f66c-e954-4d36-9352-5ba9de5e8e62","system_id":"levelo_inurba_marseille","lat":43.27817,"lon":5.40722,"is_reserved":false,"is_disabled":false,"rental_uris":{"android":"levelo://app?vid=9616f66c-e954-4d36-9352-5ba9de5e8e62","ios":"levelo://app?vid=9616f66c-e954-4d36-9352-5ba9de5e8e62"},"vehicle_type_id":"4","last_reported":1741381708,"current_range_meters":12400,"station_id":"ce4bhnh2rcd13ifvqgtg","pricing_plan_id":"cebpf4jnsgd1na2vs0mg"},{"bike_id":"4048f4cb-c79a-4e84-a8e6-068b2a53463d","system_id":"levelo_inurba_marseille","lat":43.29674,"lon":5.39373,"is_reserved":false,"is_disabled":false,"rental_uris":{"android":"levelo://app?vid=4048f4cb-c79a-4e84-a8e6-068b2a53463d","ios":"levelo://app?vid=4048f4cb-c79a-4e84-a8e6-068b2a53463d"},"vehicle_type_id":"4","last_reported":1741381708,"current_range_meters":12400,"station_id":"","pricing_plan_id":"cebpf4jnsgd1na2vs0mg"},{"bike_id":"8a17f1eb-77b6-4176-9a0b-34b4860df9c1","system_id":"levelo_inurba_marseille","lat":43.29262,"lon":5.4091,"is_reserved":false,"is_disabled":false,"rental_uris":{"android":"levelo://app?vid=8a17f1eb-77b6-4176-9a0b-34b4860df9c1","ios":"levelo://app?vid=8a17f1eb-77b6-4176-9a0b-34b4860df9c1"},"vehicle_type_id":"4","last_reported":1741381708,"current_range_meters":12000,"station_id":"ce4bh192rcd13ifvqdc0","pricing_plan_id":"cebpf4jnsgd1na2vs0mg"},{"bike_id":"ca139617-9374-4268-888c-8db46d229f2d","system_id":"levelo_inurba_marseille","lat":43.32369,"lon":5.38897,"is_reserved":false,"is_disabled":false,"rental_uris":{"android":"levelo://app?vid=ca139617-9374-4268-888c-8db46d229f2d","ios":"levelo://app?vid=ca139617-9374-4268-888c-8db46d229f2d"},"vehicle_type_id":"4","last_reported":1741381708,"current_range_meters":12800,"station_id":"ce4bhqp2rcd13ifvqhog","pricing_plan_id":"cebpf4jnsgd1na2vs0mg"},{"bike_id":"4f508b50-1e3d-40c5-be77-1e6495edbe07","system_id":"levelo_inurba_marseille","lat":43.25747,"lon":5.41089,"is_reserved":false,"is_disabled":false,"rental_uris":{"android":"levelo://app?vid=4f508b50-1e3d-40c5-be77-1e6495edbe07","ios":"levelo://app?vid=4f508b50-1e3d-40c5-be77-1e6495edbe07"},"vehicle_type_id":"4","last_reported":1741381708,"current_range_meters":12800,"station_id":"ce4bhkp2rcd13ifvqgd0","pricing_plan_id":"cebpf4jnsgd1na2vs0mg"},{"bike_id":"117576de-ea7a-4e20-89ce-191a1398e64d","system_id":"levelo_inurba_marseille","lat":43.23197,"lon":5.39979,"is_reserved":false,"is_disabled":false,"rental_uris":{"android":"levelo://app?vid=117576de-ea7a-4e20-89ce-191a1398e64d","ios":"levelo://app?vid=117576de-ea7a-4e20-89ce-191a1398e64d"},"vehicle_type_id":"4","last_reported":1741381708,"current_range_meters":12800,"station_id":"ce4bhn12rcd13ifvqgqg","pricing_plan_id":"cebpf4jnsgd1na2vs0mg"},{"bike_id":"7e60b09d-959c-4d55-a820-f3270555724f","system_id":"levelo_inurba_marseille","lat":43.28633,"lon":5.35112,"is_reserved":false,"is_disabled":false,"rental_uris":{"android":"levelo://app?vid=7e60b09d-959c-4d55-a820-f3270555724f","ios":"levelo://app?vid=7e60b09d-959c-4d55-a820-f3270555724f"},"vehicle_type_id":"4","last_reported":1741381708,"current_range_meters":12800,"station_id":"ce4bhch2rcd13ifvqeug","pricing_plan_id":"cebpf4jnsgd1na2vs0mg"},{"bike_id":"2722d816-5447-4469-a413-653f3f27b554","system_id":"levelo_inurba_marseille","lat":43.292759,"lon":5.384524,"is_reserved":false,"is_disabled":false,"rental_uris":{"android":"levelo://app?vid=2722d816-5447-4469-a413-653f3f27b554","ios":"levelo://app?vid=2722d816-5447-4469-a413-653f3f27b554"},"vehicle_type_id":"4","last_reported":1741381708,"current_range_meters":12800,"station_id":"ce4bh692rcd13ifvqea0","pricing_plan_id":"cebpf4jnsgd1na2vs0mg"},{"bike_id":"b54292f7-ba5a-4ca2-851d-b34190bdf4a8","system_id":"levelo_inurba_marseille","lat":43.33023,"lon":5.39045,"is_reserved":false,"is_disabled":false,"rental_uris":{"android":"levelo://app?vid=b54292f7-ba5a-4ca2-851d-b34190bdf4a8","ios":"levelo://app?vid=b54292f7-ba5a-4ca2-851d-b34190bdf4a8"},"vehicle_type_id":"4","last_reported":1741381708,"current_range_meters":12800,"station_id":"ce4bhr92rcd13ifvqhrg","pricing_plan_id":"cebpf4jnsgd1na2vs0mg"},{"bike_id":"511e2f05-65ee-4fb0-a196-f7a9f5acc31e","system_id":"levelo_inurba_marseille","lat":43.28721,"lon":5.37933,"is_reserved":false,"is_disabled":false,"rental_uris":{"android":"levelo://app?vid=511e2f05-65ee-4fb0-a196-f7a9f5acc31e","ios":"levelo://app?vid=511e2f05-65ee-4fb0-a196-f7a9f5acc31e"},"vehicle_type_id":"4","last_reported":1741381708,"current_range_meters":12400,"station_id":"ce4bh9p2rcd13ifvqec0","pricing_plan_id":"cebpf4jnsgd1na2vs0mg"},{"bike_id":"d6479751-91ce-4618-9bb1-c8c9b62c03f5","system_id":"levelo_inurba_marseille","lat":43.29254,"lon":5.40906,"is_reserved":false,"is_disabled":false,"rental_uris":{"android":"levelo://app?vid=d6479751-91ce-4618-9bb1-c8c9b62c03f5","ios":"levelo://app?vid=d6479751-91ce-4618-9bb1-c8c9b62c03f5"},"vehicle_type_id":"4","last_reported":1741381708,"current_range_meters":12800,"station_id":"ce4bh192rcd13ifvqdc0","pricing_plan_id":"cebpf4jnsgd1na2vs0mg"},{"bike_id":"2a7c1b6f-9655-4ab4-94ce-a7bc61149203","system_id":"levelo_inurba_marseille","lat":43.29427,"lon":5.38639,"is_reserved":false,"is_disabled":false,"rental_uris":{"android":"levelo://app?vid=2a7c1b6f-9655-4ab4-94ce-a7bc61149203","ios":"levelo://app?vid=2a7c1b6f-9655-4ab4-94ce-a7bc61149203"},"vehicle_type_id":"4","last_reported":1741381708,"current_range_meters":12800,"station_id":"ce4bh2h2rcd13ifvqdh0","pricing_plan_id":"cebpf4jnsgd1na2vs0mg"},{"bike_id":"9b8789be-c150-4679-b8ba-e1d5e4639da2","system_id":"levelo_inurba_marseille","lat":43.25706,"lon":5.41112,"is_reserved":false,"is_disabled":false,"rental_uris":{"android":"levelo://app?vid=9b8789be-c150-4679-b8ba-e1d5e4639da2","ios":"levelo://app?vid=9b8789be-c150-4679-b8ba-e1d5e4639da2"},"vehicle_type_id":"4","last_reported":1741381708,"current_range_meters":12800,"station_id":"ce4bhkp2rcd13ifvqgd0","pricing_plan_id":"cebpf4jnsgd1na2vs0mg"},{"bike_id":"d47b3569-7f92-439b-94f1-38239ac778f1","system_id":"levelo_inurba_marseille","lat":43.29414,"lon":5.38641,"is_reserved":false,"is_disabled":false,"rental_uris":{"android":"levelo://app?vid=d47b3569-7f92-439b-94f1-38239ac778f1","ios":"levelo://app?vid=d47b3569-7f92-439b-94f1-38239ac778f1"},"vehicle_type_id":"4","last_reported":1741381708,"current_range_meters":12800,"station_id":"ce4bh2h2rcd13ifvqdh0","pricing_plan_id":"cebpf4jnsgd1na2vs0mg"},{"bike_id":"bef8b1e1-1f3f-4f03-8b78-608ec9a93267","system_id":"levelo_inurba_marseille","lat":43.23963,"lon":5.3665,"is_reserved":false,"is_disabled":false,"rental_uris":{"android":"levelo://app?vid=bef8b1e1-1f3f-4f03-8b78-608ec9a93267","ios":"levelo://app?vid=bef8b1e1-1f3f-4f03-8b78-608ec9a93267"},"vehicle_type_id":"4","last_reported":1741381708,"current_range_meters":12800,"station_id":"ce4bhi12rcd13ifvqfp0","pricing_plan_id":"cebpf4jnsgd1na2vs0mg"},{"bike_id":"69ee786d-580d-43d3-af33-fb79760094d6","system_id":"levelo_inurba_marseille","lat":43.27616,"lon":5.36109,"is_reserved":false,"is_disabled":false,"rental_uris":{"android":"levelo://app?vid=69ee786d-580d-43d3-af33-fb79760094d6","ios":"levelo://app?vid=69ee786d-580d-43d3-af33-fb79760094d6"},"vehicle_type_id":"4","last_reported":1741381708,"current_range_meters":13600,"station_id":"ce4bgj92rcd13ifvqbe0","pricing_plan_id":"cebpf4jnsgd1na2vs0mg"},{"bike_id":"7fffa7d5-d173-4ef9-968a-3384c9362fb9","system_id":"levelo_inurba_marseille","lat":43.28871,"lon":5.39334,"is_reserved":false,"is_disabled":false,"rental_uris":{"android":"levelo://app?vid=7fffa7d5-d173-4ef9-968a-3384c9362fb9","ios":"levelo://app?vid=7fffa7d5-d173-4ef9-968a-3384c9362fb9"},"vehicle_type_id":"4","last_reported":1741381708,"current_range_meters":13600,"station_id":"ce4bh2p2rcd13ifvqdi0","pricing_plan_id":"cebpf4jnsgd1na2vs0mg"},{"bike_id":"7a6390d5-30f1-42a9-81f6-77c4114cf172","system_id":"levelo_inurba_marseille","lat":43.27821,"lon":5.40696,"is_reserved":false,"is_disabled":false,"rental_uris":{"android":"levelo://app?vid=7a6390d5-30f1-42a9-81f6-77c4114cf172","ios":"levelo://app?vid=7a6390d5-30f1-42a9-81f6-77c4114cf172"},"vehicle_type_id":"4","last_reported":1741381708,"current_range_meters":13600,"station_id":"ce4bhnh2rcd13ifvqgtg","pricing_plan_id":"cebpf4jnsgd1na2vs0mg"},{"bike_id":"21f56f9f-b828-4d8d-a451-b373578c53ea","system_id":"levelo_inurba_marseille","lat":43.294179,"lon":5.386324,"is_reserved":false,"is_disabled":false,"rental_uris":{"android":"levelo://app?vid=21f56f9f-b828-4d8d-a451-b373578c53ea","ios":"levelo://app?vid=21f56f9f-b828-4d8d-a451-b373578c53ea"},"vehicle_type_id":"4","last_reported":1741381708,"current_range_meters":13600,"station_id":"ce4bh2h2rcd13ifvqdh0","pricing_plan_id":"cebpf4jnsgd1na2vs0mg"},{"bike_id":"b533f38f-df9a-4e01-86fb-08f4b9bfcdfb","system_id":"levelo_inurba_marseille","lat":43.26237,"lon":5.42125,"is_reserved":false,"is_disabled":false,"rental_uris":{"android":"levelo://app?vid=b533f38f-df9a-4e01-86fb-08f4b9bfcdfb","ios":"levelo://app?vid=b533f38f-df9a-4e01-86fb-08f4b9bfcdfb"},"vehicle_type_id":"4","last_reported":1741381708,"current_range_meters":13600,"station_id":"","pricing_plan_id":"cebpf4jnsgd1na2vs0mg"},{"bike_id":"2527c36f-1bc1-41d1-b384-f5a075952c29","system_id":"levelo_inurba_marseille","lat":43.28848,"lon":5.35855,"is_reserved":false,"is_disabled":false,"rental_uris":{"android":"levelo://app?vid=2527c36f-1bc1-41d1-b384-f5a075952c29","ios":"levelo://app?vid=2527c36f-1bc1-41d1-b384-f5a075952c29"},"vehicle_type_id":"4","last_reported":1741381708,"current_range_meters":13600,"station_id":"ce4bhb12rcd13ifvqem0","pricing_plan_id":"cebpf4jnsgd1na2vs0mg"},{"bike_id":"201e16e9-1f9c-45a3-8dec-2d516ef1efcb","system_id":"levelo_inurba_marseille","lat":43.23962,"lon":5.36629,"is_reserved":false,"is_disabled":false,"rental_uris":{"android":"levelo://app?vid=201e16e9-1f9c-45a3-8dec-2d516ef1efcb","ios":"levelo://app?vid=201e16e9-1f9c-45a3-8dec-2d516ef1efcb"},"vehicle_type_id":"4","last_reported":1741381708,"current_range_meters":13600,"station_id":"ce4bhi12rcd13ifvqfp0","pricing_plan_id":"cebpf4jnsgd1na2vs0mg"},{"bike_id":"f479a6d1-3cb4-4f96-b97e-51428b8374e3","system_id":"levelo_inurba_marseille","lat":43.28488,"lon":5.35909,"is_reserved":false,"is_disabled":false,"rental_uris":{"android":"levelo://app?vid=f479a6d1-3cb4-4f96-b97e-51428b8374e3","ios":"levelo://app?vid=f479a6d1-3cb4-4f96-b97e-51428b8374e3"},"vehicle_type_id":"4","last_reported":1741381708,"current_range_meters":13600,"station_id":"","pricing_plan_id":"cebpf4jnsgd1na2vs0mg"},{"bike_id":"11e7fc3b-ed5a-4401-a0af-6e80583f87e8","system_id":"levelo_inurba_marseille","lat":43.27821,"lon":5.40727,"is_reserved":false,"is_disabled":false,"rental_uris":{"android":"levelo://app?vid=11e7fc3b-ed5a-4401-a0af-6e80583f87e8","ios":"levelo://app?vid=11e7fc3b-ed5a-4401-a0af-6e80583f87e8"},"vehicle_type_id":"4","last_reported":1741381708,"current_range_meters":13600,"station_id":"ce4bhnh2rcd13ifvqgtg","pricing_plan_id":"cebpf4jnsgd1na2vs0mg"},{"bike_id":"75bdcf83-5140-440b-9e92-976e7b768fc9","system_id":"levelo_inurba_marseille","lat":43.29783,"lon":5.3701,"is_reserved":false,"is_disabled":false,"rental_uris":{"android":"levelo://app?vid=75bdcf83-5140-440b-9e92-976e7b768fc9","ios":"levelo://app?vid=75bdcf83-5140-440b-9e92-976e7b768fc9"},"vehicle_type_id":"4","last_reported":1741381708,"current_range_meters":13600,"station_id":"","pricing_plan_id":"cebpf4jnsgd1na2vs0mg"},{"bike_id":"4ce8573c-aa30-4bd2-8437-3910852f6716","system_id":"levelo_inurba_marseille","lat":43.30424,"lon":5.38888,"is_reserved":false,"is_disabled":false,"rental_uris":{"android":"levelo://app?vid=4ce8573c-aa30-4bd2-8437-3910852f6716","ios":"levelo://app?vid=4ce8573c-aa30-4bd2-8437-3910852f6716"},"vehicle_type_id":"4","last_reported":1741381708,"current_range_meters":12000,"station_id":"ce4bgk12rcd13ifvqbi0","pricing_plan_id":"cebpf4jnsgd1na2vs0mg"},{"bike_id":"7fd1ba5e-4a24-4909-9ab3-6deeeb0fded7","system_id":"levelo_inurba_marseille","lat":43.24802,"lon":5.37454,"is_reserved":false,"is_disabled":false,"rental_uris":{"android":"levelo://app?vid=7fd1ba5e-4a24-4909-9ab3-6deeeb0fded7","ios":"levelo://app?vid=7fd1ba5e-4a24-4909-9ab3-6deeeb0fded7"},"vehicle_type_id":"4","last_reported":1741381708,"current_range_meters":12000,"station_id":"ce4bhgh2rcd13ifvqfb0","pricing_plan_id":"cebpf4jnsgd1na2vs0mg"},{"bike_id":"afd3745f-2980-403a-a6ef-0c035551bdb9","system_id":"levelo_inurba_marseille","lat":43.32955,"lon":5.40065,"is_reserved":false,"is_disabled":false,"rental_uris":{"android":"levelo://app?vid=afd3745f-2980-403a-a6ef-0c035551bdb9","ios":"levelo://app?vid=afd3745f-2980-403a-a6ef-0c035551bdb9"},"vehicle_type_id":"4","last_reported":1741381708,"current_range_meters":14000,"station_id":"","pricing_plan_id":"cebpf4jnsgd1na2vs0mg"},{"bike_id":"28516e47-b2b6-41de-8bb8-d6649b6b1c7b","system_id":"levelo_inurba_marseille","lat":43.29011,"lon":5.38618,"is_reserved":false,"is_disabled":false,"rental_uris":{"android":"levelo://app?vid=28516e47-b2b6-41de-8bb8-d6649b6b1c7b","ios":"levelo://app?vid=28516e47-b2b6-41de-8bb8-d6649b6b1c7b"},"vehicle_type_id":"4","last_reported":1741381708,"current_range_meters":14000,"station_id":"ce4bh4p2rcd13ifvqe0g","pricing_plan_id":"cebpf4jnsgd1na2vs0mg"},{"bike_id":"1faa81a2-a8bc-4577-98dd-3b0ba35543ad","system_id":"levelo_inurba_marseille","lat":43.29254,"lon":5.40907,"is_reserved":false,"is_disabled":false,"rental_uris":{"android":"levelo://app?vid=1faa81a2-a8bc-4577-98dd-3b0ba35543ad","ios":"levelo://app?vid=1faa81a2-a8bc-4577-98dd-3b0ba35543ad"},"vehicle_type_id":"4","last_reported":1741381708,"current_range_meters":14000,"station_id":"ce4bh192rcd13ifvqdc0","pricing_plan_id":"cebpf4jnsgd1na2vs0mg"},{"bike_id":"ba29655d-3175-41c7-9237-139176677113","system_id":"levelo_inurba_marseille","lat":43.28265,"lon":5.35069,"is_reserved":false,"is_disabled":false,"rental_uris":{"android":"levelo://app?vid=ba29655d-3175-41c7-9237-139176677113","ios":"levelo://app?vid=ba29655d-3175-41c7-9237-139176677113"},"vehicle_type_id":"4","last_reported":1741381708,"current_range_meters":13600,"station_id":"ce4bhbp2rcd13ifvqerg","pricing_plan_id":"cebpf4jnsgd1na2vs0mg"},{"bike_id":"7b67bc2f-3a0e-4975-a763-28e44cad944c","system_id":"levelo_inurba_marseille","lat":43.29022,"lon":5.38635,"is_reserved":false,"is_disabled":false,"rental_uris":{"android":"levelo://app?vid=7b67bc2f-3a0e-4975-a763-28e44cad944c","ios":"levelo://app?vid=7b67bc2f-3a0e-4975-a763-28e44cad944c"},"vehicle_type_id":"4","last_reported":1741381708,"current_range_meters":14400,"station_id":"ce4bh4p2rcd13ifvqe0g","pricing_plan_id":"cebpf4jnsgd1na2vs0mg"},{"bike_id":"9b9912a1-cda6-4b6e-8236-6c79e235b387","system_id":"levelo_inurba_marseille","lat":43.32364,"lon":5.38893,"is_reserved":false,"is_disabled":false,"rental_uris":{"android":"levelo://app?vid=9b9912a1-cda6-4b6e-8236-6c79e235b387","ios":"levelo://app?vid=9b9912a1-cda6-4b6e-8236-6c79e235b387"},"vehicle_type_id":"4","last_reported":1741381708,"current_range_meters":14400,"station_id":"ce4bhqp2rcd13ifvqhog","pricing_plan_id":"cebpf4jnsgd1na2vs0mg"},{"bike_id":"7a8959cf-cba4-472b-a67f-21d9d3e5e3a1","system_id":"levelo_inurba_marseille","lat":43.24402,"lon":5.43804,"is_reserved":false,"is_disabled":false,"rental_uris":{"android":"levelo://app?vid=7a8959cf-cba4-472b-a67f-21d9d3e5e3a1","ios":"levelo://app?vid=7a8959cf-cba4-472b-a67f-21d9d3e5e3a1"},"vehicle_type_id":"4","last_reported":1741381708,"current_range_meters":14400,"station_id":"","pricing_plan_id":"cebpf4jnsgd1na2vs0mg"},{"bike_id":"5832083a-af6c-455b-9dbd-d8b68bd79a1e","system_id":"levelo_inurba_marseille","lat":43.29901,"lon":5.43666,"is_reserved":false,"is_disabled":false,"rental_uris":{"android":"levelo://app?vid=5832083a-af6c-455b-9dbd-d8b68bd79a1e","ios":"levelo://app?vid=5832083a-af6c-455b-9dbd-d8b68bd79a1e"},"vehicle_type_id":"4","last_reported":1741381708,"current_range_meters":14400,"station_id":"ce4bhpp2rcd13ifvqhfg","pricing_plan_id":"cebpf4jnsgd1na2vs0mg"},{"bike_id":"d15888b3-84cd-42f5-8973-07174fa936f9","system_id":"levelo_inurba_marseille","lat":43.31439,"lon":5.37368,"is_reserved":false,"is_disabled":false,"rental_uris":{"android":"levelo://app?vid=d15888b3-84cd-42f5-8973-07174fa936f9","ios":"levelo://app?vid=d15888b3-84cd-42f5-8973-07174fa936f9"},"vehicle_type_id":"4","last_reported":1741381708,"current_range_meters":14400,"station_id":"","pricing_plan_id":"cebpf4jnsgd1na2vs0mg"},{"bike_id":"92247f88-f7d8-4513-b7ab-d0a5f75ad2a8","system_id":"levelo_inurba_marseille","lat":43.30545,"lon":5.38426,"is_reserved":false,"is_disabled":false,"rental_uris":{"android":"levelo://app?vid=92247f88-f7d8-4513-b7ab-d0a5f75ad2a8","ios":"levelo://app?vid=92247f88-f7d8-4513-b7ab-d0a5f75ad2a8"},"vehicle_type_id":"4","last_reported":1741381708,"current_range_meters":14400,"station_id":"ce4bgg92rcd13ifvqb30","pricing_plan_id":"cebpf4jnsgd1na2vs0mg"},{"bike_id":"e2b1e4cb-1c13-497a-a6a7-97096f32c977","system_id":"levelo_inurba_marseille","lat":43.293062,"lon":5.371841,"is_reserved":false,"is_disabled":false,"rental_uris":{"android":"levelo://app?vid=e2b1e4cb-1c13-497a-a6a7-97096f32c977","ios":"levelo://app?vid=e2b1e4cb-1c13-497a-a6a7-97096f32c977"},"vehicle_type_id":"4","last_reported":1741381708,"current_range_meters":14400,"station_id":"ce4bgrh2rcd13ifvqc8g","pricing_plan_id":"cebpf4jnsgd1na2vs0mg"},{"bike_id":"fda084db-472f-4319-bfe8-2f3d998cebd0","system_id":"levelo_inurba_marseille","lat":43.29265,"lon":5.37632,"is_reserved":false,"is_disabled":false,"rental_uris":{"android":"levelo://app?vid=fda084db-472f-4319-bfe8-2f3d998cebd0","ios":"levelo://app?vid=fda084db-472f-4319-bfe8-2f3d998cebd0"},"vehicle_type_id":"4","last_reported":1741381708,"current_range_meters":14400,"station_id":"ce4bgi12rcd13ifvqb80","pricing_plan_id":"cebpf4jnsgd1na2vs0mg"},{"bike_id":"d1af1c64-45b6-4d17-9d6d-0f29e2231eaa","system_id":"levelo_inurba_marseille","lat":43.23964,"lon":5.36634,"is_reserved":false,"is_disabled":false,"rental_uris":{"android":"levelo://app?vid=d1af1c64-45b6-4d17-9d6d-0f29e2231eaa","ios":"levelo://app?vid=d1af1c64-45b6-4d17-9d6d-0f29e2231eaa"},"vehicle_type_id":"4","last_reported":1741381708,"current_range_meters":14800,"station_id":"ce4bhi12rcd13ifvqfp0","pricing_plan_id":"cebpf4jnsgd1na2vs0mg"},{"bike_id":"b2f2cca1-8975-43c9-81d3-bd0b59d9fe3a","system_id":"levelo_inurba_marseille","lat":43.2962,"lon":5.37169,"is_reserved":false,"is_disabled":false,"rental_uris":{"android":"levelo://app?vid=b2f2cca1-8975-43c9-81d3-bd0b59d9fe3a","ios":"levelo://app?vid=b2f2cca1-8975-43c9-81d3-bd0b59d9fe3a"},"vehicle_type_id":"4","last_reported":1741381708,"current_range_meters":14800,"station_id":"ce4bgnh2rcd13ifvqc0g","pricing_plan_id":"cebpf4jnsgd1na2vs0mg"},{"bike_id":"b2c2514d-58df-4080-9acc-0a3325c87525","system_id":"levelo_inurba_marseille","lat":43.32366,"lon":5.36761,"is_reserved":false,"is_disabled":false,"rental_uris":{"android":"levelo://app?vid=b2c2514d-58df-4080-9acc-0a3325c87525","ios":"levelo://app?vid=b2c2514d-58df-4080-9acc-0a3325c87525"},"vehicle_type_id":"4","last_reported":1741381708,"current_range_meters":14800,"station_id":"ce4bhsh2rcd13ifvqi2g","pricing_plan_id":"cebpf4jnsgd1na2vs0mg"},{"bike_id":"8e43052e-86ee-431c-a3c5-7b2cafc0c661","system_id":"levelo_inurba_marseille","lat":43.27332,"lon":5.39099,"is_reserved":false,"is_disabled":true,"rental_uris":{"android":"levelo://app?vid=8e43052e-86ee-431c-a3c5-7b2cafc0c661","ios":"levelo://app?vid=8e43052e-86ee-431c-a3c5-7b2cafc0c661"},"vehicle_type_id":"4","last_reported":1741381708,"current_range_meters":15200,"station_id":"ce4bhgp2rcd13ifvqfe0","pricing_plan_id":"cebpf4jnsgd1na2vs0mg"},{"bike_id":"8bba91e8-74ef-441e-ae44-7d88c376d46c","system_id":"levelo_inurba_marseille","lat":43.29921,"lon":5.37486,"is_reserved":false,"is_disabled":false,"rental_uris":{"android":"levelo://app?vid=8bba91e8-74ef-441e-ae44-7d88c376d46c","ios":"levelo://app?vid=8bba91e8-74ef-441e-ae44-7d88c376d46c"},"vehicle_type_id":"4","last_reported":1741381708,"current_range_meters":15200,"station_id":"ce4bgjh2rcd13ifvqbg0","pricing_plan_id":"cebpf4jnsgd1na2vs0mg"},{"bike_id":"2505078b-21fb-462a-a46e-71e54af1bfb5","system_id":"levelo_inurba_marseille","lat":43.30882,"lon":5.3964,"is_reserved":false,"is_disabled":false,"rental_uris":{"android":"levelo://app?vid=2505078b-21fb-462a-a46e-71e54af1bfb5","ios":"levelo://app?vid=2505078b-21fb-462a-a46e-71e54af1bfb5"},"vehicle_type_id":"4","last_reported":1741381708,"current_range_meters":15200,"station_id":"ce4bh012rcd13ifvqcv0","pricing_plan_id":"cebpf4jnsgd1na2vs0mg"},{"bike_id":"bfbfb8b2-951b-41e3-9abb-8ec2115a8df8","system_id":"levelo_inurba_marseille","lat":43.28485,"lon":5.35924,"is_reserved":false,"is_disabled":false,"rental_uris":{"android":"levelo://app?vid=bfbfb8b2-951b-41e3-9abb-8ec2115a8df8","ios":"levelo://app?vid=bfbfb8b2-951b-41e3-9abb-8ec2115a8df8"},"vehicle_type_id":"4","last_reported":1741381708,"current_range_meters":15200,"station_id":"","pricing_plan_id":"cebpf4jnsgd1na2vs0mg"},{"bike_id":"1ff664cb-f378-4a6c-b3c1-b47ee25a2174","system_id":"levelo_inurba_marseille","lat":43.32357,"lon":5.38871,"is_reserved":false,"is_disabled":false,"rental_uris":{"android":"levelo://app?vid=1ff664cb-f378-4a6c-b3c1-b47ee25a2174","ios":"levelo://app?vid=1ff664cb-f378-4a6c-b3c1-b47ee25a2174"},"vehicle_type_id":"4","last_reported":1741381708,"current_range_meters":15200,"station_id":"ce4bhqp2rcd13ifvqhog","pricing_plan_id":"cebpf4jnsgd1na2vs0mg"},{"bike_id":"7146a334-4497-4541-9cbb-90747c6db82f","system_id":"levelo_inurba_marseille","lat":43.29608,"lon":5.40449,"is_reserved":false,"is_disabled":false,"rental_uris":{"android":"levelo://app?vid=7146a334-4497-4541-9cbb-90747c6db82f","ios":"levelo://app?vid=7146a334-4497-4541-9cbb-90747c6db82f"},"vehicle_type_id":"4","last_reported":1741381708,"current_range_meters":15200,"station_id":"","pricing_plan_id":"cebpf4jnsgd1na2vs0mg"},{"bike_id":"7991943c-3173-44ed-b277-8ba33e4e1f7a","system_id":"levelo_inurba_marseille","lat":43.31352,"lon":5.38493,"is_reserved":false,"is_disabled":false,"rental_uris":{"android":"levelo://app?vid=7991943c-3173-44ed-b277-8ba33e4e1f7a","ios":"levelo://app?vid=7991943c-3173-44ed-b277-8ba33e4e1f7a"},"vehicle_type_id":"4","last_reported":1741381708,"current_range_meters":13600,"station_id":"ce4bgt92rcd13ifvqcf0","pricing_plan_id":"cebpf4jnsgd1na2vs0mg"},{"bike_id":"a9aed5c4-e6ae-4e83-836e-9f2653d0ba68","system_id":"levelo_inurba_marseille","lat":43.31492,"lon":5.37307,"is_reserved":false,"is_disabled":false,"rental_uris":{"android":"levelo://app?vid=a9aed5c4-e6ae-4e83-836e-9f2653d0ba68","ios":"levelo://app?vid=a9aed5c4-e6ae-4e83-836e-9f2653d0ba68"},"vehicle_type_id":"4","last_reported":1741381708,"current_range_meters":14800,"station_id":"ce4bgt12rcd13ifvqcd0","pricing_plan_id":"cebpf4jnsgd1na2vs0mg"},{"bike_id":"fbf804d7-6c73-46e9-abdb-acb74deb6dc4","system_id":"levelo_inurba_marseille","lat":43.23068,"lon":5.3551,"is_reserved":false,"is_disabled":false,"rental_uris":{"android":"levelo://app?vid=fbf804d7-6c73-46e9-abdb-acb74deb6dc4","ios":"levelo://app?vid=fbf804d7-6c73-46e9-abdb-acb74deb6dc4"},"vehicle_type_id":"4","last_reported":1741381708,"current_range_meters":16000,"station_id":"cpo3342slgdg3j2ifvpg","pricing_plan_id":"cebpf4jnsgd1na2vs0mg"},{"bike_id":"976044b2-6c39-4029-b0bf-0814a0d0e543","system_id":"levelo_inurba_marseille","lat":43.28848,"lon":5.35847,"is_reserved":false,"is_disabled":false,"rental_uris":{"android":"levelo://app?vid=976044b2-6c39-4029-b0bf-0814a0d0e543","ios":"levelo://app?vid=976044b2-6c39-4029-b0bf-0814a0d0e543"},"vehicle_type_id":"4","last_reported":1741381708,"current_range_meters":16000,"station_id":"ce4bhb12rcd13ifvqem0","pricing_plan_id":"cebpf4jnsgd1na2vs0mg"},{"bike_id":"388ea826-f5fa-4632-a530-45d13cc0a769","system_id":"levelo_inurba_marseille","lat":43.23187,"lon":5.39996,"is_reserved":false,"is_disabled":false,"rental_uris":{"android":"levelo://app?vid=388ea826-f5fa-4632-a530-45d13cc0a769","ios":"levelo://app?vid=388ea826-f5fa-4632-a530-45d13cc0a769"},"vehicle_type_id":"4","last_reported":1741381708,"current_range_meters":16000,"station_id":"ce4bhn12rcd13ifvqgqg","pricing_plan_id":"cebpf4jnsgd1na2vs0mg"},{"bike_id":"6a180215-6cf1-4b66-951b-6c4325a94ffa","system_id":"levelo_inurba_marseille","lat":43.30313,"lon":5.36877,"is_reserved":false,"is_disabled":false,"rental_uris":{"android":"levelo://app?vid=6a180215-6cf1-4b66-951b-6c4325a94ffa","ios":"levelo://app?vid=6a180215-6cf1-4b66-951b-6c4325a94ffa"},"vehicle_type_id":"4","last_reported":1741381708,"current_range_meters":16000,"station_id":"ce4bgqh2rcd13ifvqc5g","pricing_plan_id":"cebpf4jnsgd1na2vs0mg"},{"bike_id":"2713c23c-3cb2-4abb-9de2-07459d6b186f","system_id":"levelo_inurba_marseille","lat":43.28614,"lon":5.35102,"is_reserved":false,"is_disabled":false,"rental_uris":{"android":"levelo://app?vid=2713c23c-3cb2-4abb-9de2-07459d6b186f","ios":"levelo://app?vid=2713c23c-3cb2-4abb-9de2-07459d6b186f"},"vehicle_type_id":"4","last_reported":1741381708,"current_range_meters":16000,"station_id":"ce4bhch2rcd13ifvqeug","pricing_plan_id":"cebpf4jnsgd1na2vs0mg"},{"bike_id":"c4440271-3fcf-4ba1-a76e-05e2a3eefe6d","system_id":"levelo_inurba_marseille","lat":43.29904,"lon":5.381353,"is_reserved":false,"is_disabled":true,"rental_uris":{"android":"levelo://app?vid=c4440271-3fcf-4ba1-a76e-05e2a3eefe6d","ios":"levelo://app?vid=c4440271-3fcf-4ba1-a76e-05e2a3eefe6d"},"vehicle_type_id":"4","last_reported":1741381708,"current_range_meters":16000,"station_id":"ce4bgj12rcd13ifvqbc0","pricing_plan_id":"cebpf4jnsgd1na2vs0mg"},{"bike_id":"089ae237-bd34-4548-aa61-cf4fde45e8a8","system_id":"levelo_inurba_marseille","lat":43.30587,"lon":5.39356,"is_reserved":false,"is_disabled":false,"rental_uris":{"android":"levelo://app?vid=089ae237-bd34-4548-aa61-cf4fde45e8a8","ios":"levelo://app?vid=089ae237-bd34-4548-aa61-cf4fde45e8a8"},"vehicle_type_id":"4","last_reported":1741381708,"current_range_meters":16000,"station_id":"ce4bh0p2rcd13ifvqd80","pricing_plan_id":"cebpf4jnsgd1na2vs0mg"},{"bike_id":"65d2271a-97b5-4913-95aa-cf77a293f0eb","system_id":"levelo_inurba_marseille","lat":43.26055,"lon":5.37549,"is_reserved":false,"is_disabled":false,"rental_uris":{"android":"levelo://app?vid=65d2271a-97b5-4913-95aa-cf77a293f0eb","ios":"levelo://app?vid=65d2271a-97b5-4913-95aa-cf77a293f0eb"},"vehicle_type_id":"4","last_reported":1741381708,"current_range_meters":16000,"station_id":"ce4bhgh2rcd13ifvqfa0","pricing_plan_id":"cebpf4jnsgd1na2vs0mg"},{"bike_id":"20f4aa14-1d12-4b03-a00b-115a66bb3d61","system_id":"levelo_inurba_marseille","lat":43.3079,"lon":5.37646,"is_reserved":false,"is_disabled":false,"rental_uris":{"android":"levelo://app?vid=20f4aa14-1d12-4b03-a00b-115a66bb3d61","ios":"levelo://app?vid=20f4aa14-1d12-4b03-a00b-115a66bb3d61"},"vehicle_type_id":"4","last_reported":1741381708,"current_range_meters":15200,"station_id":"ce4bgv92rcd13ifvqcq0","pricing_plan_id":"cebpf4jnsgd1na2vs0mg"},{"bike_id":"c3821921-6f0e-4522-ac7a-982a8ffe12d7","system_id":"levelo_inurba_marseille","lat":43.28853,"lon":5.35898,"is_reserved":false,"is_disabled":false,"rental_uris":{"android":"levelo://app?vid=c3821921-6f0e-4522-ac7a-982a8ffe12d7","ios":"levelo://app?vid=c3821921-6f0e-4522-ac7a-982a8ffe12d7"},"vehicle_type_id":"4","last_reported":1741381708,"current_range_meters":16000,"station_id":"ce4bhb12rcd13ifvqem0","pricing_plan_id":"cebpf4jnsgd1na2vs0mg"},{"bike_id":"d59b4b46-c416-4e22-8dd2-c7008b7d1d1f","system_id":"levelo_inurba_marseille","lat":43.29259,"lon":5.40912,"is_reserved":false,"is_disabled":false,"rental_uris":{"android":"levelo://app?vid=d59b4b46-c416-4e22-8dd2-c7008b7d1d1f","ios":"levelo://app?vid=d59b4b46-c416-4e22-8dd2-c7008b7d1d1f"},"vehicle_type_id":"4","last_reported":1741381708,"current_range_meters":14000,"station_id":"ce4bh192rcd13ifvqdc0","pricing_plan_id":"cebpf4jnsgd1na2vs0mg"},{"bike_id":"1a6961c1-a7c7-4cee-b787-067673b426f8","system_id":"levelo_inurba_marseille","lat":43.295823,"lon":5.375197,"is_reserved":false,"is_disabled":false,"rental_uris":{"android":"levelo://app?vid=1a6961c1-a7c7-4cee-b787-067673b426f8","ios":"levelo://app?vid=1a6961c1-a7c7-4cee-b787-067673b426f8"},"vehicle_type_id":"4","last_reported":1741381708,"current_range_meters":16400,"station_id":"ce4bguh2rcd13ifvqckg","pricing_plan_id":"cebpf4jnsgd1na2vs0mg"},{"bike_id":"cbc52a4d-b1a3-4bdf-8ed7-d851e16ba8f2","system_id":"levelo_inurba_marseille","lat":43.2768,"lon":5.38937,"is_reserved":false,"is_disabled":true,"rental_uris":{"android":"levelo://app?vid=cbc52a4d-b1a3-4bdf-8ed7-d851e16ba8f2","ios":"levelo://app?vid=cbc52a4d-b1a3-4bdf-8ed7-d851e16ba8f2"},"vehicle_type_id":"4","last_reported":1741381708,"current_range_meters":16400,"station_id":"ce4bhi12rcd13ifvqfo0","pricing_plan_id":"cebpf4jnsgd1na2vs0mg"},{"bike_id":"d6ac7c48-26ac-46ac-b391-ece0e8eac8a7","system_id":"levelo_inurba_marseille","lat":43.3065,"lon":5.40087,"is_reserved":false,"is_disabled":false,"rental_uris":{"android":"levelo://app?vid=d6ac7c48-26ac-46ac-b391-ece0e8eac8a7","ios":"levelo://app?vid=d6ac7c48-26ac-46ac-b391-ece0e8eac8a7"},"vehicle_type_id":"4","last_reported":1741381708,"current_range_meters":16000,"station_id":"ce4bh112rcd13ifvqda0","pricing_plan_id":"cebpf4jnsgd1na2vs0mg"},{"bike_id":"ca1ac6f9-8304-441d-b17f-201bcc008dae","system_id":"levelo_inurba_marseille","lat":43.34361,"lon":5.39968,"is_reserved":false,"is_disabled":false,"rental_uris":{"android":"levelo://app?vid=ca1ac6f9-8304-441d-b17f-201bcc008dae","ios":"levelo://app?vid=ca1ac6f9-8304-441d-b17f-201bcc008dae"},"vehicle_type_id":"4","last_reported":1741381708,"current_range_meters":16400,"station_id":"","pricing_plan_id":"cebpf4jnsgd1na2vs0mg"},{"bike_id":"cdc6fa71-b8c0-46e7-902c-4e18b52385d2","system_id":"levelo_inurba_marseille","lat":43.28845,"lon":5.40029,"is_reserved":false,"is_disabled":false,"rental_uris":{"android":"levelo://app?vid=cdc6fa71-b8c0-46e7-902c-4e18b52385d2","ios":"levelo://app?vid=cdc6fa71-b8c0-46e7-902c-4e18b52385d2"},"vehicle_type_id":"4","last_reported":1741381708,"current_range_meters":16400,"station_id":"","pricing_plan_id":"cebpf4jnsgd1na2vs0mg"},{"bike_id":"827eb150-bf3b-443b-b9c7-c45f52c84440","system_id":"levelo_inurba_marseille","lat":43.27991,"lon":5.40001,"is_reserved":false,"is_disabled":false,"rental_uris":{"android":"levelo://app?vid=827eb150-bf3b-443b-b9c7-c45f52c84440","ios":"levelo://app?vid=827eb150-bf3b-443b-b9c7-c45f52c84440"},"vehicle_type_id":"4","last_reported":1741381708,"current_range_meters":16400,"station_id":"ce4bho92rcd13ifvqh4g","pricing_plan_id":"cebpf4jnsgd1na2vs0mg"},{"bike_id":"e785969c-8172-4986-b3d6-12315abcd52f","system_id":"levelo_inurba_marseille","lat":43.29312,"lon":5.37159,"is_reserved":false,"is_disabled":false,"rental_uris":{"android":"levelo://app?vid=e785969c-8172-4986-b3d6-12315abcd52f","ios":"levelo://app?vid=e785969c-8172-4986-b3d6-12315abcd52f"},"vehicle_type_id":"4","last_reported":1741381708,"current_range_meters":16400,"station_id":"ce4bgh92rcd13ifvqb40","pricing_plan_id":"cebpf4jnsgd1na2vs0mg"},{"bike_id":"c1c412b3-ae23-45ab-894a-fe5b494cc9e6","system_id":"levelo_inurba_marseille","lat":43.23188,"lon":5.35554,"is_reserved":false,"is_disabled":false,"rental_uris":{"android":"levelo://app?vid=c1c412b3-ae23-45ab-894a-fe5b494cc9e6","ios":"levelo://app?vid=c1c412b3-ae23-45ab-894a-fe5b494cc9e6"},"vehicle_type_id":"4","last_reported":1741381708,"current_range_meters":16400,"station_id":"ce4bhu92rcd13ifvqi70","pricing_plan_id":"cebpf4jnsgd1na2vs0mg"},{"bike_id":"21a97c5e-42a1-42dc-8f0b-c09a56ace1b8","system_id":"levelo_inurba_marseille","lat":43.30394,"lon":5.42489,"is_reserved":false,"is_disabled":true,"rental_uris":{"android":"levelo://app?vid=21a97c5e-42a1-42dc-8f0b-c09a56ace1b8","ios":"levelo://app?vid=21a97c5e-42a1-42dc-8f0b-c09a56ace1b8"},"vehicle_type_id":"4","last_reported":1741381708,"current_range_meters":16400,"station_id":"","pricing_plan_id":"cebpf4jnsgd1na2vs0mg"},{"bike_id":"95936caa-1f4e-46e1-af83-370d03622e59","system_id":"levelo_inurba_marseille","lat":43.30107,"lon":5.39062,"is_reserved":false,"is_disabled":true,"rental_uris":{"android":"levelo://app?vid=95936caa-1f4e-46e1-af83-370d03622e59","ios":"levelo://app?vid=95936caa-1f4e-46e1-af83-370d03622e59"},"vehicle_type_id":"4","last_reported":1741381708,"current_range_meters":16400,"station_id":"ce4bh192rcd13ifvqdb0","pricing_plan_id":"cebpf4jnsgd1na2vs0mg"},{"bike_id":"a48864e3-c209-4f94-91fd-112eeb50b1c5","system_id":"levelo_inurba_marseille","lat":43.30642,"lon":5.40064,"is_reserved":false,"is_disabled":false,"rental_uris":{"android":"levelo://app?vid=a48864e3-c209-4f94-91fd-112eeb50b1c5","ios":"levelo://app?vid=a48864e3-c209-4f94-91fd-112eeb50b1c5"},"vehicle_type_id":"4","last_reported":1741381708,"current_range_meters":16400,"station_id":"ce4bh112rcd13ifvqda0","pricing_plan_id":"cebpf4jnsgd1na2vs0mg"},{"bike_id":"3801b843-ae15-4b52-8be7-36dafb7ddf6b","system_id":"levelo_inurba_marseille","lat":43.29419,"lon":5.38616,"is_reserved":false,"is_disabled":false,"rental_uris":{"android":"levelo://app?vid=3801b843-ae15-4b52-8be7-36dafb7ddf6b","ios":"levelo://app?vid=3801b843-ae15-4b52-8be7-36dafb7ddf6b"},"vehicle_type_id":"4","last_reported":1741381708,"current_range_meters":16800,"station_id":"ce4bh2h2rcd13ifvqdh0","pricing_plan_id":"cebpf4jnsgd1na2vs0mg"},{"bike_id":"4f1fbe06-c888-4110-9ec3-e0a460c28691","system_id":"levelo_inurba_marseille","lat":43.290477,"lon":5.359207,"is_reserved":false,"is_disabled":false,"rental_uris":{"android":"levelo://app?vid=4f1fbe06-c888-4110-9ec3-e0a460c28691","ios":"levelo://app?vid=4f1fbe06-c888-4110-9ec3-e0a460c28691"},"vehicle_type_id":"4","last_reported":1741381708,"current_range_meters":16000,"station_id":"ce4bha92rcd13ifvqeg0","pricing_plan_id":"cebpf4jnsgd1na2vs0mg"},{"bike_id":"bb28e1a5-f346-4ea6-aced-14ee9ec77e95","system_id":"levelo_inurba_marseille","lat":43.29283,"lon":5.38463,"is_reserved":false,"is_disabled":false,"rental_uris":{"android":"levelo://app?vid=bb28e1a5-f346-4ea6-aced-14ee9ec77e95","ios":"levelo://app?vid=bb28e1a5-f346-4ea6-aced-14ee9ec77e95"},"vehicle_type_id":"4","last_reported":1741381708,"current_range_meters":16800,"station_id":"ce4bh692rcd13ifvqea0","pricing_plan_id":"cebpf4jnsgd1na2vs0mg"},{"bike_id":"eaa11e71-3adb-4f3e-bee9-835c4e6d9c69","system_id":"levelo_inurba_marseille","lat":43.26213,"lon":5.37472,"is_reserved":false,"is_disabled":false,"rental_uris":{"android":"levelo://app?vid=eaa11e71-3adb-4f3e-bee9-835c4e6d9c69","ios":"levelo://app?vid=eaa11e71-3adb-4f3e-bee9-835c4e6d9c69"},"vehicle_type_id":"4","last_reported":1741381708,"current_range_meters":17200,"station_id":"ce4bhgp2rcd13ifvqfc0","pricing_plan_id":"cebpf4jnsgd1na2vs0mg"},{"bike_id":"ca1ba0b8-b8b8-4138-9a53-150b46de62cf","system_id":"levelo_inurba_marseille","lat":43.29304,"lon":5.37172,"is_reserved":false,"is_disabled":false,"rental_uris":{"android":"levelo://app?vid=ca1ba0b8-b8b8-4138-9a53-150b46de62cf","ios":"levelo://app?vid=ca1ba0b8-b8b8-4138-9a53-150b46de62cf"},"vehicle_type_id":"4","last_reported":1741381708,"current_range_meters":17200,"station_id":"ce4bgh92rcd13ifvqb40","pricing_plan_id":"cebpf4jnsgd1na2vs0mg"},