{"last_updated":1690391146,"ttl":30,"version":"2.2","data":{"bikes":[{"bike_id":"e0319697-2cce-41fb-be87-d18c84ac2d9b","system_id":"levelo_inurba_marseille","lat":43.312239,"lon":5.368562,"is_reserved":false,"is_disabled":false,"rental_uris":{"android":"levelo://app?vid=e0319697-2cce-41fb-be87-d18c84ac2d9b","ios":"levelo://app?vid=e0319697-2cce-41fb-be87-d18c84ac2d9b"},"vehicle_type_id":"4","last_reported":1690391147,"current_range_meters":13200,"station_id":"ce4bgl92rcd13ifvqbq0","pricing_plan_id":"free"},{"bike_id":"e526d4e2-849c-44ae-a0d7-5572a62df909","system_id":"levelo_inurba_marseille","lat":43.312239,"lon":5.368562,"is_reserved":false,"is_disabled":false,"rental_uris":{"android":"levelo://app?vid=e526d4e2-849c-44ae-a0d7-5572a62df909","ios":"levelo://app?vid=e526d4e2-849c-44ae-a0d7-5572a62df909"},"vehicle_type_id":"4","last_reported":1690391147,"current_range_meters":31600,"station_id":"ce4bgl92rcd13ifvqbq0","pricing_plan_id":"free"},{"bike_id":"b40f0e1d-46da-44c5-8992-c8748992000a","system_id":"levelo_inurba_marseille","lat":43.312239,"lon":5.368562,"is_reserved":false,"is_disabled":false,"rental_uris":{"android":"levelo://app?vid=b40f0e1d-46da-44c5-8992-c8748992000a","ios":"levelo://app?vid=b40f0e1d-46da-44c5-8992-c8748992000a"},"vehicle_type_id":"4","last_reported":1690391147,"current_range_meters":10000,"station_id":"ce4bgl92rcd13ifvqbq0","pricing_plan_id":"free"},{"bike_id":"f48de34b-498a-4f87-9029-b3778bb9ec67","system_id":"levelo_inurba_marseille","lat":43.314811,"lon":5.373103,"is_reserved":false,"is_disabled":false,"rental_uris":{"android":"levelo://app?vid=f48de34b-498a-4f87-9029-b3778bb9ec67","ios":"levelo://app?vid=f48de34b-498a-4f87-9029-b3778bb9ec67"},"vehicle_type_id":"4","last_reported":1690391147,"current_range_meters":31200,"station_id":"ce4bgt12rcd13ifvqcd0","pricing_plan_id":"free"},{"bike_id":"fac9895c-3e69-4b6a-9c1f-8e7cb5549bb6","system_id":"levelo_inurba_marseille","lat":43.314811,"lon":5.373103,"is_reserved":false,"is_disabled":false,"rental_uris":{"android":"levelo://app?vid=fac9895c-3e69-4b6a-9c1f-8e7cb5549bb6","ios":"levelo://app?vid=fac9895c-3e69-4b6a-9c1f-8e7cb5549bb6"},"vehicle_type_id":"4","last_reported":1690391147,"current_range_meters":30400,"station_id":"ce4bgt12rcd13ifvqcd0","pricing_plan_id":"free"},{"bike_id":"2d03556e-9858-405b-b392-a2789c8268f0","system_id":"levelo_inurba_marseille","lat":43.31575,"lon":5.37313,"is_reserved":false,"is_disabled":false,"rental_uris":{"android":"levelo://app?vid=2d03556e-9858-405b-b392-a2789c8268f0","ios":"levelo://app?vid=2d03556e-9858-405b-b392-a2789c8268f0"},"vehicle_type_id":"4","last_reported":1690391147,"current_range_meters":24400,"station_id":"","pricing_plan_id":"free"},{"bike_id":"737e36f8-b3bd-4e07-8acd-81d5a4bc85a0","system_id":"levelo_inurba_marseille","lat":43.30697,"lon":5.3655,"is_reserved":false,"is_disabled":false,"rental_uris":{"android":"levelo://app?vid=737e36f8-b3bd-4e07-8acd-81d5a4bc85a0","ios":"levelo://app?vid=737e36f8-b3bd-4e07-8acd-81d5a4bc85a0"},"vehicle_type_id":"4","last_reported":1690391147,"current_range_meters":16000,"station_id":"","pricing_plan_id":"free"},{"bike_id":"607f7da1-dcb7-4916-8614-93aa4190932a","system_id":"levelo_inurba_marseille","lat":43.3167,"lon":5.37462,"is_reserved":false,"is_disabled":false,"rental_uris":{"android":"levelo://app?vid=607f7da1-dcb7-4916-8614-93aa4190932a","ios":"levelo://app?vid=607f7da1-dcb7-4916-8614-93aa4190932a"},"vehicle_type_id":"4","last_reported":1690391147,"current_range_meters":3200,"station_id":"","pricing_plan_id":"free"},{"bike_id":"f029b643-fc21-4203-a37f-6660c7c2725d","system_id":"levelo_inurba_marseille","lat":43.305712,"lon":5.365641,"is_reserved":false,"is_disabled":false,"rental_uris":{"android":"levelo://app?vid=f029b643-fc21-4203-a37f-6660c7c2725d","ios":"levelo://app?vid=f029b643-fc21-4203-a37f-6660c7c2725d"},"vehicle_type_id":"4","last_reported":1690391147,"current_range_meters":17200,"station_id":"ce4bgs12rcd13ifvqcag","pricing_plan_id":"free"},{"bike_id":"d6ab8684-ec8c-4da4-a532-9ff47654c3c4","system_id":"levelo_inurba_marseille","lat":43.30463,"lon":5.36689,"is_reserved":false,"is_disabled":false,"rental_uris":{"android":"levelo://app?vid=d6ab8684-ec8c-4da4-a532-9ff47654c3c4","ios":"levelo://app?vid=d6ab8684-ec8c-4da4-a532-9ff47654c3c4"},"vehicle_type_id":"4","last_reported":1690391147,"current_range_meters":24400,"station_id":"","pricing_plan_id":"free"},{"bike_id":"047babe1-62d0-40b8-b6d7-6d0c1df3eb37","system_id":"levelo_inurba_marseille","lat":43.307945,"lon":5.376487,"is_reserved":false,"is_disabled":false,"rental_uris":{"android":"levelo://app?vid=047babe1-62d0-40b8-b6d7-6d0c1df3eb37","ios":"levelo://app?vid=047babe1-62d0-40b8-b6d7-6d0c1df3eb37"},"vehicle_type_id":"4","last_reported":1690391147,"current_range_meters":15600,"station_id":"ce4bgv92rcd13ifvqcq0","pricing_plan_id":"free"},{"bike_id":"1cdb8a72-7ee8-4bc8-a7c4-62c2dbdd4f21","system_id":"levelo_inurba_marseille","lat":43.30789,"lon":5.3765,"is_reserved":false,"is_disabled":false,"rental_uris":{"android":"levelo://app?vid=1cdb8a72-7ee8-4bc8-a7c4-62c2dbdd4f21","ios":"levelo://app?vid=1cdb8a72-7ee8-4bc8-a7c4-62c2dbdd4f21"},"vehicle_type_id":"4","last_reported":1690391147,"current_range_meters":28000,"station_id":"ce4bgv92rcd13ifvqcq0","pricing_plan_id":"free"},{"bike_id":"61031a22-6ad4-4f2a-9ce0-1574a82bb89a","system_id":"levelo_inurba_marseille","lat":43.317075,"lon":5.377367,"is_reserved":false,"is_disabled":false,"rental_uris":{"android":"levelo://app?vid=61031a22-6ad4-4f2a-9ce0-1574a82bb89a","ios":"levelo://app?vid=61031a22-6ad4-4f2a-9ce0-1574a82bb89a"},"vehicle_type_id":"4","last_reported":1690391147,"current_range_meters":27600,"station_id":"ce4bgth2rcd13ifvqch0","pricing_plan_id":"free"},{"bike_id":"7adb652a-f9fd-44cc-93b1-1afa58394305","system_id":"levelo_inurba_marseille","lat":43.303046,"lon":5.368981,"is_reserved":false,"is_disabled":false,"rental_uris":{"android":"levelo://app?vid=7adb652a-f9fd-44cc-93b1-1afa58394305","ios":"levelo://app?vid=7adb652a-f9fd-44cc-93b1-1afa58394305"},"vehicle_type_id":"4","last_reported":1690391147,"current_range_meters":30800,"station_id":"ce4bgqh2rcd13ifvqc5g","pricing_plan_id":"free"},{"bike_id":"c8b22f17-e38a-4294-84c3-8cb3fc94121b","system_id":"levelo_inurba_marseille","lat":43.315353,"lon":5.380314,"is_reserved":false,"is_disabled":false,"rental_uris":{"android":"levelo://app?vid=c8b22f17-e38a-4294-84c3-8cb3fc94121b","ios":"levelo://app?vid=c8b22f17-e38a-4294-84c3-8cb3fc94121b"},"vehicle_type_id":"4","last_reported":1690391147,"current_range_meters":14800,"station_id":"ce4bhsp2rcd13ifvqi50","pricing_plan_id":"free"},{"bike_id":"323b63b8-445b-4c1c-b888-4b16fdf1bdef","system_id":"levelo_inurba_marseille","lat":43.30143,"lon":5.37413,"is_reserved":false,"is_disabled":false,"rental_uris":{"android":"levelo://app?vid=323b63b8-445b-4c1c-b888-4b16fdf1bdef","ios":"levelo://app?vid=323b63b8-445b-4c1c-b888-4b16fdf1bdef"},"vehicle_type_id":"4","last_reported":1690391147,"current_range_meters":7200,"station_id":"ce4bgs92rcd13ifvqcc0","pricing_plan_id":"free"},{"bike_id":"b25041cd-cf00-49f6-857a-7e4cb81e50f3","system_id":"levelo_inurba_marseille","lat":43.319298,"lon":5.381568,"is_reserved":false,"is_disabled":false,"rental_uris":{"android":"levelo://app?vid=b25041cd-cf00-49f6-857a-7e4cb81e50f3","ios":"levelo://app?vid=b25041cd-cf00-49f6-857a-7e4cb81e50f3"},"vehicle_type_id":"4","last_reported":1690391147,"current_range_meters":22000,"station_id":"ce4bhr12rcd13ifvqhpg","pricing_plan_id":"free"},{"bike_id":"90a54f04-309f-4beb-8f56-a4bbaad38641","system_id":"levelo_inurba_marseille","lat":43.3199,"lon":5.38176,"is_reserved":false,"is_disabled":false,"rental_uris":{"android":"levelo://app?vid=90a54f04-309f-4beb-8f56-a4bbaad38641","ios":"levelo://app?vid=90a54f04-309f-4beb-8f56-a4bbaad38641"},"vehicle_type_id":"4","last_reported":1690391147,"current_range_meters":18000,"station_id":"ce4bhr12rcd13ifvqhpg","pricing_plan_id":"free"},{"bike_id":"39768b2a-bf64-440b-8140-e3577cb3f0b9","system_id":"levelo_inurba_marseille","lat":43.313571,"lon":5.384829,"is_reserved":false,"is_disabled":false,"rental_uris":{"android":"levelo://app?vid=39768b2a-bf64-440b-8140-e3577cb3f0b9","ios":"levelo://app?vid=39768b2a-bf64-440b-8140-e3577cb3f0b9"},"vehicle_type_id":"4","last_reported":1690391147,"current_range_meters":31600,"station_id":"ce4bgt92rcd13ifvqcf0","pricing_plan_id":"free"},{"bike_id":"423ad064-7e59-4a9a-9451-ac991113e1e9","system_id":"levelo_inurba_marseille","lat":43.313571,"lon":5.384829,"is_reserved":false,"is_disabled":false,"rental_uris":{"android":"levelo://app?vid=423ad064-7e59-4a9a-9451-ac991113e1e9","ios":"levelo://app?vid=423ad064-7e59-4a9a-9451-ac991113e1e9"},"vehicle_type_id":"4","last_reported":1690391147,"current_range_meters":25600,"station_id":"ce4bgt92rcd13ifvqcf0","pricing_plan_id":"free"},{"bike_id":"acfc1db5-4a8b-46bf-9003-aa8534270d74","system_id":"levelo_inurba_marseille","lat":43.29936,"lon":5.36555,"is_reserved":false,"is_disabled":false,"rental_uris":{"android":"levelo://app?vid=acfc1db5-4a8b-46bf-9003-aa8534270d74","ios":"levelo://app?vid=acfc1db5-4a8b-46bf-9003-aa8534270d74"},"vehicle_type_id":"4","last_reported":1690391147,"current_range_meters":14800,"station_id":"ce4bgm92rcd13ifvqbr0","pricing_plan_id":"free"},{"bike_id":"fbdf5521-8843-4870-9172-bc64d21fdbfe","system_id":"levelo_inurba_marseille","lat":43.299222,"lon":5.365554,"is_reserved":false,"is_disabled":false,"rental_uris":{"android":"levelo://app?vid=fbdf5521-8843-4870-9172-bc64d21fdbfe","ios":"levelo://app?vid=fbdf5521-8843-4870-9172-bc64d21fdbfe"},"vehicle_type_id":"4","last_reported":1690391147,"current_range_meters":0,"station_id":"ce4bgm92rcd13ifvqbr0","pricing_plan_id":"free"},{"bike_id":"8b4f6f3c-f439-435d-a24a-5993c11fd798","system_id":"levelo_inurba_marseille","lat":43.30033,"lon":5.37423,"is_reserved":false,"is_disabled":false,"rental_uris":{"android":"levelo://app?vid=8b4f6f3c-f439-435d-a24a-5993c11fd798","ios":"levelo://app?vid=8b4f6f3c-f439-435d-a24a-5993c11fd798"},"vehicle_type_id":"4","last_reported":1690391147,"current_range_meters":10000,"station_id":"","pricing_plan_id":"free"},{"bike_id":"5db7d3f2-07d9-4817-b304-5f1586252e4c","system_id":"levelo_inurba_marseille","lat":43.298433,"lon":5.362774,"is_reserved":false,"is_disabled":false,"rental_uris":{"android":"levelo://app?vid=5db7d3f2-07d9-4817-b304-5f1586252e4c","ios":"levelo://app?vid=5db7d3f2-07d9-4817-b304-5f1586252e4c"},"vehicle_type_id":"4","last_reported":1690391147,"current_range_meters":18000,"station_id":"ce4bgpp2rcd13ifvqc3g","pricing_plan_id":"free"},{"bike_id":"3deb5f9c-4ca5-4396-a2d1-3f530a40ffe3","system_id":"levelo_inurba_marseille","lat":43.311722,"lon":5.387247,"is_reserved":false,"is_disabled":false,"rental_uris":{"android":"levelo://app?vid=3deb5f9c-4ca5-4396-a2d1-3f530a40ffe3","ios":"levelo://app?vid=3deb5f9c-4ca5-4396-a2d1-3f530a40ffe3"},"vehicle_type_id":"4","last_reported":1690391147,"current_range_meters":24400,"station_id":"ce4bgv12rcd13ifvqcp0","pricing_plan_id":"free"},{"bike_id":"3e8ef0cd-a22a-4d15-895c-9372b436ccc5","system_id":"levelo_inurba_marseille","lat":43.311722,"lon":5.387247,"is_reserved":false,"is_disabled":false,"rental_uris":{"android":"levelo://app?vid=3e8ef0cd-a22a-4d15-895c-9372b436ccc5","ios":"levelo://app?vid=3e8ef0cd-a22a-4d15-895c-9372b436ccc5"},"vehicle_type_id":"4","last_reported":1690391147,"current_range_meters":800,"station_id":"ce4bgv12rcd13ifvqcp0","pricing_plan_id":"free"},{"bike_id":"cce47f54-795a-455b-bc38-bc1eb9d02f03","system_id":"levelo_inurba_marseille","lat":43.322872,"lon":5.382756,"is_reserved":false,"is_disabled":false,"rental_uris":{"android":"levelo://app?vid=cce47f54-795a-455b-bc38-bc1eb9d02f03","ios":"levelo://app?vid=cce47f54-795a-455b-bc38-bc1eb9d02f03"},"vehicle_type_id":"4","last_reported":1690391147,"current_range_meters":12800,"station_id":"ce4bhr12rcd13ifvqhqg","pricing_plan_id":"free"},{"bike_id":"380450d1-caae-4d16-a1c2-e35cd322b58c","system_id":"levelo_inurba_marseille","lat":43.322872,"lon":5.382756,"is_reserved":false,"is_disabled":false,"rental_uris":{"android":"levelo://app?vid=380450d1-caae-4d16-a1c2-e35cd322b58c","ios":"levelo://app?vid=380450d1-caae-4d16-a1c2-e35cd322b58c"},"vehicle_type_id":"4","last_reported":1690391147,"current_range_meters":15600,"station_id":"ce4bhr12rcd13ifvqhqg","pricing_plan_id":"free"},{"bike_id":"316e88fb-cba0-48b8-840b-7e1881569755","system_id":"levelo_inurba_marseille","lat":43.322872,"lon":5.382756,"is_reserved":false,"is_disabled":false,"rental_uris":{"android":"levelo://app?vid=316e88fb-cba0-48b8-840b-7e1881569755","ios":"levelo://app?vid=316e88fb-cba0-48b8-840b-7e1881569755"},"vehicle_type_id":"4","last_reported":1690391147,"current_range_meters":20800,"station_id":"ce4bhr12rcd13ifvqhqg","pricing_plan_id":"free"},{"bike_id":"0152df97-6f5b-423a-983e-b5c5759143c2","system_id":"levelo_inurba_marseille","lat":43.32825,"lon":5.36676,"is_reserved":false,"is_disabled":false,"rental_uris":{"android":"levelo://app?vid=0152df97-6f5b-423a-983e-b5c5759143c2","ios":"levelo://app?vid=0152df97-6f5b-423a-983e-b5c5759143c2"},"vehicle_type_id":"4","last_reported":1690391147,"current_range_meters":18800,"station_id":"ce4bhs92rcd13ifvqi0g","pricing_plan_id":"free"},{"bike_id":"6d2d67d0-9e72-4e99-87d2-530132902e7b","system_id":"levelo_inurba_marseille","lat":43.32827,"lon":5.36686,"is_reserved":false,"is_disabled":false,"rental_uris":{"android":"levelo://app?vid=6d2d67d0-9e72-4e99-87d2-530132902e7b","ios":"levelo://app?vid=6d2d67d0-9e72-4e99-87d2-530132902e7b"},"vehicle_type_id":"4","last_reported":1690391147,"current_range_meters":29600,"station_id":"ce4bhs92rcd13ifvqi0g","pricing_plan_id":"free"},{"bike_id":"6d5aded8-6c7a-420f-a7d1-0bdb269e329f","system_id":"levelo_inurba_marseille","lat":43.32827,"lon":5.3668,"is_reserved":false,"is_disabled":false,"rental_uris":{"android":"levelo://app?vid=6d5aded8-6c7a-420f-a7d1-0bdb269e329f","ios":"levelo://app?vid=6d5aded8-6c7a-420f-a7d1-0bdb269e329f"},"vehicle_type_id":"4","last_reported":1690391147,"current_range_meters":20000,"station_id":"ce4bhs92rcd13ifvqi0g","pricing_plan_id":"free"},{"bike_id":"df87d501-5ab3-473c-89b3-a784852638b8","system_id":"levelo_inurba_marseille","lat":43.328371,"lon":5.366909,"is_reserved":false,"is_disabled":false,"rental_uris":{"android":"levelo://app?vid=df87d501-5ab3-473c-89b3-a784852638b8","ios":"levelo://app?vid=df87d501-5ab3-473c-89b3-a784852638b8"},"vehicle_type_id":"4","last_reported":1690391147,"current_range_meters":12000,"station_id":"ce4bhs92rcd13ifvqi0g","pricing_plan_id":"free"},{"bike_id":"dd789220-e7b5-42c1-b9dc-dc4243148021","system_id":"levelo_inurba_marseille","lat":43.297163,"lon":5.365866,"is_reserved":false,"is_disabled":false,"rental_uris":{"android":"levelo://app?vid=dd789220-e7b5-42c1-b9dc-dc4243148021","ios":"levelo://app?vid=dd789220-e7b5-42c1-b9dc-dc4243148021"},"vehicle_type_id":"4","last_reported":1690391147,"current_range_meters":31200,"station_id":"ce4bgn12rcd13ifvqbt0","pricing_plan_id":"free"},{"bike_id":"1ddfe248-918b-4110-9c81-ca8a913d4717","system_id":"levelo_inurba_marseille","lat":43.32832,"lon":5.36689,"is_reserved":false,"is_disabled":false,"rental_uris":{"android":"levelo://app?vid=1ddfe248-918b-4110-9c81-ca8a913d4717","ios":"levelo://app?vid=1ddfe248-918b-4110-9c81-ca8a913d4717"},"vehicle_type_id":"4","last_reported":1690391147,"current_range_meters":30000,"station_id":"ce4bhs92rcd13ifvqi0g","pricing_plan_id":"free"},{"bike_id":"f0aa9365-f8de-4a00-a5ed-32d30ea68b1a","system_id":"levelo_inurba_marseille","lat":43.328371,"lon":5.366909,"is_reserved":false,"is_disabled":false,"rental_uris":{"android":"levelo://app?vid=f0aa9365-f8de-4a00-a5ed-32d30ea68b1a","ios":"levelo://app?vid=f0aa9365-f8de-4a00-a5ed-32d30ea68b1a"},"vehicle_type_id":"4","last_reported":1690391147,"current_range_meters":4400,"station_id":"ce4bhs92rcd13ifvqi0g","pricing_plan_id":"free"},{"bike_id":"251b628d-6d17-4376-a5af-e53fec683c7b","system_id":"levelo_inurba_marseille","lat":43.297163,"lon":5.365866,"is_reserved":false,"is_disabled":false,"rental_uris":{"android":"levelo://app?vid=251b628d-6d17-4376-a5af-e53fec683c7b","ios":"levelo://app?vid=251b628d-6d17-4376-a5af-e53fec683c7b"},"vehicle_type_id":"4","last_reported":1690391147,"current_range_meters":0,"station_id":"ce4bgn12rcd13ifvqbt0","pricing_plan_id":"free"},{"bike_id":"15f4d32c-d2fe-4ab2-b274-a9ca17836087","system_id":"levelo_inurba_marseille","lat":43.297043,"lon":5.366069,"is_reserved":false,"is_disabled":false,"rental_uris":{"android":"levelo://app?vid=15f4d32c-d2fe-4ab2-b274-a9ca17836087","ios":"levelo://app?vid=15f4d32c-d2fe-4ab2-b274-a9ca17836087"},"vehicle_type_id":"4","last_reported":1690391147,"current_range_meters":10000,"station_id":"","pricing_plan_id":"free"},{"bike_id":"b22efe4f-cea7-409a-9362-d7596d191988","system_id":"levelo_inurba_marseille","lat":43.2968,"lon":5.37291,"is_reserved":false,"is_disabled":false,"rental_uris":{"android":"levelo://app?vid=b22efe4f-cea7-409a-9362-d7596d191988","ios":"levelo://app?vid=b22efe4f-cea7-409a-9362-d7596d191988"},"vehicle_type_id":"4","last_reported":1690391147,"current_range_meters":0,"station_id":"ce4bgk12rcd13ifvqbj0","pricing_plan_id":"free"},{"bike_id":"80c66ce2-5505-4e00-bb12-e9d35c8c8bb2","system_id":"levelo_inurba_marseille","lat":43.29591,"lon":5.36727,"is_reserved":false,"is_disabled":false,"rental_uris":{"android":"levelo://app?vid=80c66ce2-5505-4e00-bb12-e9d35c8c8bb2","ios":"levelo://app?vid=80c66ce2-5505-4e00-bb12-e9d35c8c8bb2"},"vehicle_type_id":"4","last_reported":1690391147,"current_range_meters":26000,"station_id":"ce4bgph2rcd13ifvqc2g","pricing_plan_id":"free"},{"bike_id":"954bd311-766d-4705-8305-1dbaedf73b8e","system_id":"levelo_inurba_marseille","lat":43.299028,"lon":5.381509,"is_reserved":false,"is_disabled":false,"rental_uris":{"android":"levelo://app?vid=954bd311-766d-4705-8305-1dbaedf73b8e","ios":"levelo://app?vid=954bd311-766d-4705-8305-1dbaedf73b8e"},"vehicle_type_id":"4","last_reported":1690391147,"current_range_meters":18400,"station_id":"ce4bgj12rcd13ifvqbc0","pricing_plan_id":"free"},{"bike_id":"77ac3f46-208e-403c-a969-aedd538ef17f","system_id":"levelo_inurba_marseille","lat":43.309589,"lon":5.390258,"is_reserved":false,"is_disabled":false,"rental_uris":{"android":"levelo://app?vid=77ac3f46-208e-403c-a969-aedd538ef17f","ios":"levelo://app?vid=77ac3f46-208e-403c-a969-aedd538ef17f"},"vehicle_type_id":"4","last_reported":1690391147,"current_range_meters":20800,"station_id":"ce4bgup2rcd13ifvqco0","pricing_plan_id":"free"},{"bike_id":"80996baf-8597-4552-b66a-a0139bedf903","system_id":"levelo_inurba_marseille","lat":43.309502,"lon":5.390365,"is_reserved":false,"is_disabled":false,"rental_uris":{"android":"levelo://app?vid=80996baf-8597-4552-b66a-a0139bedf903","ios":"levelo://app?vid=80996baf-8597-4552-b66a-a0139bedf903"},"vehicle_type_id":"4","last_reported":1690391147,"current_range_meters":13200,"station_id":"","pricing_plan_id":"free"},{"bike_id":"f0b1921d-8fc5-42f6-8214-26455e772ce5","system_id":"levelo_inurba_marseille","lat":43.309589,"lon":5.390258,"is_reserved":false,"is_disabled":false,"rental_uris":{"android":"levelo://app?vid=f0b1921d-8fc5-42f6-8214-26455e772ce5","ios":"levelo://app?vid=f0b1921d-8fc5-42f6-8214-26455e772ce5"},"vehicle_type_id":"4","last_reported":1690391147,"current_range_meters":28000,"station_id":"ce4bgup2rcd13ifvqco0","pricing_plan_id":"free"},{"bike_id":"6fa4e113-65e8-4a73-9e29-aae5c310e102","system_id":"levelo_inurba_marseille","lat":43.309589,"lon":5.390258,"is_reserved":false,"is_disabled":false,"rental_uris":{"android":"levelo://app?vid=6fa4e113-65e8-4a73-9e29-aae5c310e102","ios":"levelo://app?vid=6fa4e113-65e8-4a73-9e29-aae5c310e102"},"vehicle_type_id":"4","last_reported":1690391147,"current_range_meters":26000,"station_id":"ce4bgup2rcd13ifvqco0","pricing_plan_id":"free"},{"bike_id":"b095a461-2152-4d25-88b3-7ebd7ab2bc35","system_id":"levelo_inurba_marseille","lat":43.29628,"lon":5.37698,"is_reserved":false,"is_disabled":false,"rental_uris":{"android":"levelo://app?vid=b095a461-2152-4d25-88b3-7ebd7ab2bc35","ios":"levelo://app?vid=b095a461-2152-4d25-88b3-7ebd7ab2bc35"},"vehicle_type_id":"4","last_reported":1690391147,"current_range_meters":26800,"station_id":"ce4bgi92rcd13ifvqb90","pricing_plan_id":"free"},{"bike_id":"53a58a15-6854-40f6-a2fe-96a1bae90134","system_id":"levelo_inurba_marseille","lat":43.304278,"lon":5.388868,"is_reserved":false,"is_disabled":false,"rental_uris":{"android":"levelo://app?vid=53a58a15-6854-40f6-a2fe-96a1bae90134","ios":"levelo://app?vid=53a58a15-6854-40f6-a2fe-96a1bae90134"},"vehicle_type_id":"4","last_reported":1690391147,"current_range_meters":3600,"station_id":"ce4bgk12rcd13ifvqbi0","pricing_plan_id":"free"},{"bike_id":"4d8cbeef-a981-43b0-875e-5dbe1f383908","system_id":"levelo_inurba_marseille","lat":43.299717,"lon":5.384845,"is_reserved":false,"is_disabled":false,"rental_uris":{"android":"levelo://app?vid=4d8cbeef-a981-43b0-875e-5dbe1f383908","ios":"levelo://app?vid=4d8cbeef-a981-43b0-875e-5dbe1f383908"},"vehicle_type_id":"4","last_reported":1690391147,"current_range_meters":22800,"station_id":"ce4bgj92rcd13ifvqbd0","pricing_plan_id":"free"},{"bike_id":"0dfe6a64-6d98-4453-9615-df784c8969d4","system_id":"levelo_inurba_marseille","lat":43.299724,"lon":5.384848,"is_reserved":false,"is_disabled":false,"rental_uris":{"android":"levelo://app?vid=0dfe6a64-6d98-4453-9615-df784c8969d4","ios":"levelo://app?vid=0dfe6a64-6d98-4453-9615-df784c8969d4"},"vehicle_type_id":"4","last_reported":1690391147,"current_range_meters":1200,"station_id":"ce4bgj92rcd13ifvqbd0","pricing_plan_id":"free"},{"bike_id":"8e2b40f5-9c96-4cd1-8734-96589289c122","system_id":"levelo_inurba_marseille","lat":43.29634,"lon":5.37992,"is_reserved":false,"is_disabled":false,"rental_uris":{"android":"levelo://app?vid=8e2b40f5-9c96-4cd1-8734-96589289c122","ios":"levelo://app?vid=8e2b40f5-9c96-4cd1-8734-96589289c122"},"vehicle_type_id":"4","last_reported":1690391147,"current_range_meters":20800,"station_id":"","pricing_plan_id":"free"},{"bike_id":"ba4fef93-79b8-4fd7-a7eb-f9033499f73f","system_id":"levelo_inurba_marseille","lat":43.29551,"lon":5.37803,"is_reserved":false,"is_disabled":false,"rental_uris":{"android":"levelo://app?vid=ba4fef93-79b8-4fd7-a7eb-f9033499f73f","ios":"levelo://app?vid=ba4fef93-79b8-4fd7-a7eb-f9033499f73f"},"vehicle_type_id":"4","last_reported":1690391147,"current_range_meters":4400,"station_id":"","pricing_plan_id":"free"},{"bike_id":"927291a0-d519-4f5c-a30b-686cd4682865","system_id":"levelo_inurba_marseille","lat":43.32361,"lon":5.38874,"is_reserved":false,"is_disabled":false,"rental_uris":{"android":"levelo://app?vid=927291a0-d519-4f5c-a30b-686cd4682865","ios":"levelo://app?vid=927291a0-d519-4f5c-a30b-686cd4682865"},"vehicle_type_id":"4","last_reported":1690391147,"current_range_meters":24000,"station_id":"ce4bhqp2rcd13ifvqhog","pricing_plan_id":"free"},{"bike_id":"941d3330-88f6-4c3a-8294-11d7054b9dc0","system_id":"levelo_inurba_marseille","lat":43.29601,"lon":5.381084,"is_reserved":false,"is_disabled":false,"rental_uris":{"android":"levelo://app?vid=941d3330-88f6-4c3a-8294-11d7054b9dc0","ios":"levelo://app?vid=941d3330-88f6-4c3a-8294-11d7054b9dc0"},"vehicle_type_id":"4","last_reported":1690391147,"current_range_meters":4400,"station_id":"ce4bgl12rcd13ifvqbo0","pricing_plan_id":"free"},{"bike_id":"77c85648-77e5-44bf-8e8c-d107b2f2f971","system_id":"levelo_inurba_marseille","lat":43.292749,"lon":5.368398,"is_reserved":false,"is_disabled":false,"rental_uris":{"android":"levelo://app?vid=77c85648-77e5-44bf-8e8c-d107b2f2f971","ios":"levelo://app?vid=77c85648-77e5-44bf-8e8c-d107b2f2f971"},"vehicle_type_id":"4","last_reported":1690391147,"current_range_meters":5200,"station_id":"ce4bhbp2rcd13ifvqesg","pricing_plan_id":"free"},{"bike_id":"eab9485c-c9b7-49ac-92cb-700e7d46170d","system_id":"levelo_inurba_marseille","lat":43.292749,"lon":5.368398,"is_reserved":false,"is_disabled":false,"rental_uris":{"android":"levelo://app?vid=eab9485c-c9b7-49ac-92cb-700e7d46170d","ios":"levelo://app?vid=eab9485c-c9b7-49ac-92cb-700e7d46170d"},"vehicle_type_id":"4","last_reported":1690391147,"current_range_meters":0,"station_id":"ce4bhbp2rcd13ifvqesg","pricing_plan_id":"free"},{"bike_id":"feaa1df9-c5ba-492e-adb9-32908df38194","system_id":"levelo_inurba_marseille","lat":43.292749,"lon":5.368398,"is_reserved":false,"is_disabled":false,"rental_uris":{"android":"levelo://app?vid=feaa1df9-c5ba-492e-adb9-32908df38194","ios":"levelo://app?vid=feaa1df9-c5ba-492e-adb9-32908df38194"},"vehicle_type_id":"4","last_reported":1690391147,"current_range_meters":23200,"station_id":"ce4bhbp2rcd13ifvqesg","pricing_plan_id":"free"},{"bike_id":"3c71db99-cb20-4d45-8ce7-7ac2229a6c82","system_id":"levelo_inurba_marseille","lat":43.292749,"lon":5.368398,"is_reserved":false,"is_disabled":false,"rental_uris":{"android":"levelo://app?vid=3c71db99-cb20-4d45-8ce7-7ac2229a6c82","ios":"levelo://app?vid=3c71db99-cb20-4d45-8ce7-7ac2229a6c82"},"vehicle_type_id":"4","last_reported":1690391147,"current_range_meters":24400,"station_id":"ce4bhbp2rcd13ifvqesg","pricing_plan_id":"free"},{"bike_id":"a945f791-44e0-491e-aa74-cc33e5440ef2","system_id":"levelo_inurba_marseille","lat":43.292749,"lon":5.368402,"is_reserved":false,"is_disabled":false,"rental_uris":{"android":"levelo://app?vid=a945f791-44e0-491e-aa74-cc33e5440ef2","ios":"levelo://app?vid=a945f791-44e0-491e-aa74-cc33e5440ef2"},"vehicle_type_id":"4","last_reported":1690391147,"current_range_meters":17200,"station_id":"ce4bhbp2rcd13ifvqesg","pricing_plan_id":"free"},{"bike_id":"d29ea7f8-69c2-4b53-866e-07afd4ad2192","system_id":"levelo_inurba_marseille","lat":43.293009,"lon":5.374584,"is_reserved":false,"is_disabled":false,"rental_uris":{"android":"levelo://app?vid=d29ea7f8-69c2-4b53-866e-07afd4ad2192","ios":"levelo://app?vid=d29ea7f8-69c2-4b53-866e-07afd4ad2192"},"vehicle_type_id":"4","last_reported":1690391147,"current_range_meters":20800,"station_id":"ce4bgi12rcd13ifvqb70","pricing_plan_id":"free"},{"bike_id":"59f9ffea-ff31-4ff8-b988-e33d8236c38a","system_id":"levelo_inurba_marseille","lat":43.293009,"lon":5.374584,"is_reserved":false,"is_disabled":false,"rental_uris":{"android":"levelo://app?vid=59f9ffea-ff31-4ff8-b988-e33d8236c38a","ios":"levelo://app?vid=59f9ffea-ff31-4ff8-b988-e33d8236c38a"},"vehicle_type_id":"4","last_reported":1690391147,"current_range_meters":2000,"station_id":"ce4bgi12rcd13ifvqb70","pricing_plan_id":"free"},{"bike_id":"b1e6dd4c-3cb3-4c51-8b96-b48897b95899","system_id":"levelo_inurba_marseille","lat":43.293038,"lon":5.374604,"is_reserved":false,"is_disabled":false,"rental_uris":{"android":"levelo://app?vid=b1e6dd4c-3cb3-4c51-8b96-b48897b95899","ios":"levelo://app?vid=b1e6dd4c-3cb3-4c51-8b96-b48897b95899"},"vehicle_type_id":"4","last_reported":1690391147,"current_range_meters":2000,"station_id":"ce4bgi12rcd13ifvqb70","pricing_plan_id":"free"},{"bike_id":"ac33c286-52d3-4f48-96e7-483cfa39236a","system_id":"levelo_inurba_marseille","lat":43.293009,"lon":5.374584,"is_reserved":false,"is_disabled":false,"rental_uris":{"android":"levelo://app?vid=ac33c286-52d3-4f48-96e7-483cfa39236a","ios":"levelo://app?vid=ac33c286-52d3-4f48-96e7-483cfa39236a"},"vehicle_type_id":"4","last_reported":1690391147,"current_range_meters":14800,"station_id":"ce4bgi12rcd13ifvqb70","pricing_plan_id":"free"},{"bike_id":"9237f24a-21f2-44a1-b7e6-ab09209fe718","system_id":"levelo_inurba_marseille","lat":43.2927,"lon":5.35965,"is_reserved":false,"is_disabled":false,"rental_uris":{"android":"levelo://app?vid=9237f24a-21f2-44a1-b7e6-ab09209fe718","ios":"levelo://app?vid=9237f24a-21f2-44a1-b7e6-ab09209fe718"},"vehicle_type_id":"4","last_reported":1690391147,"current_range_meters":14800,"station_id":"","pricing_plan_id":"free"},{"bike_id":"b5439ddd-bde6-4797-acca-517e868e2cd7","system_id":"levelo_inurba_marseille","lat":43.29371,"lon":5.37856,"is_reserved":false,"is_disabled":false,"rental_uris":{"android":"levelo://app?vid=b5439ddd-bde6-4797-acca-517e868e2cd7","ios":"levelo://app?vid=b5439ddd-bde6-4797-acca-517e868e2cd7"},"vehicle_type_id":"4","last_reported":1690391147,"current_range_meters":25600,"station_id":"ce4bgjh2rcd13ifvqbf0","pricing_plan_id":"free"},{"bike_id":"a05ee616-07aa-47ba-a390-d0ca380b9524","system_id":"levelo_inurba_marseille","lat":43.300852,"lon":5.390859,"is_reserved":false,"is_disabled":false,"rental_uris":{"android":"levelo://app?vid=a05ee616-07aa-47ba-a390-d0ca380b9524","ios":"levelo://app?vid=a05ee616-07aa-47ba-a390-d0ca380b9524"},"vehicle_type_id":"4","last_reported":1690391147,"current_range_meters":28800,"station_id":"ce4bh192rcd13ifvqdb0","pricing_plan_id":"free"},{"bike_id":"31e6be01-13c9-4c63-9fb0-83fdaf9fa8e3","system_id":"levelo_inurba_marseille","lat":43.29217,"lon":5.36056,"is_reserved":false,"is_disabled":false,"rental_uris":{"android":"levelo://app?vid=31e6be01-13c9-4c63-9fb0-83fdaf9fa8e3","ios":"levelo://app?vid=31e6be01-13c9-4c63-9fb0-83fdaf9fa8e3"},"vehicle_type_id":"4","last_reported":1690391147,"current_range_meters":18400,"station_id":"ce4bhbh2rcd13ifvqeqg","pricing_plan_id":"free"},{"bike_id":"1f36ee79-2878-40b9-8007-128c36180675","system_id":"levelo_inurba_marseille","lat":43.298764,"lon":5.388973,"is_reserved":false,"is_disabled":false,"rental_uris":{"android":"levelo://app?vid=1f36ee79-2878-40b9-8007-128c36180675","ios":"levelo://app?vid=1f36ee79-2878-40b9-8007-128c36180675"},"vehicle_type_id":"4","last_reported":1690391147,"current_range_meters":30400,"station_id":"ce4bh392rcd13ifvqdl0","pricing_plan_id":"free"},{"bike_id":"7afa732e-b95e-42a7-9e93-ab9f401b524e","system_id":"levelo_inurba_marseille","lat":43.29195,"lon":5.35804,"is_reserved":false,"is_disabled":false,"rental_uris":{"android":"levelo://app?vid=7afa732e-b95e-42a7-9e93-ab9f401b524e","ios":"levelo://app?vid=7afa732e-b95e-42a7-9e93-ab9f401b524e"},"vehicle_type_id":"4","last_reported":1690391147,"current_range_meters":24000,"station_id":"ce4bhb12rcd13ifvqel0","pricing_plan_id":"free"},{"bike_id":"4ac5c0ba-ae34-45f1-92a2-15445a4f91cf","system_id":"levelo_inurba_marseille","lat":43.3089,"lon":5.39638,"is_reserved":false,"is_disabled":false,"rental_uris":{"android":"levelo://app?vid=4ac5c0ba-ae34-45f1-92a2-15445a4f91cf","ios":"levelo://app?vid=4ac5c0ba-ae34-45f1-92a2-15445a4f91cf"},"vehicle_type_id":"4","last_reported":1690391147,"current_range_meters":15200,"station_id":"ce4bh012rcd13ifvqcv0","pricing_plan_id":"free"},{"bike_id":"eb37de4e-a306-4612-9b79-fd0f0b1e2c13","system_id":"levelo_inurba_marseille","lat":43.313291,"lon":5.396838,"is_reserved":false,"is_disabled":false,"rental_uris":{"android":"levelo://app?vid=eb37de4e-a306-4612-9b79-fd0f0b1e2c13","ios":"levelo://app?vid=eb37de4e-a306-4612-9b79-fd0f0b1e2c13"},"vehicle_type_id":"4","last_reported":1690391147,"current_range_meters":10800,"station_id":"ce4bgvp2rcd13ifvqcu0","pricing_plan_id":"free"},{"bike_id":"6516d384-6af5-4740-ad4a-78f8a6be71ac","system_id":"levelo_inurba_marseille","lat":43.29188,"lon":5.35806,"is_reserved":false,"is_disabled":false,"rental_uris":{"android":"levelo://app?vid=6516d384-6af5-4740-ad4a-78f8a6be71ac","ios":"levelo://app?vid=6516d384-6af5-4740-ad4a-78f8a6be71ac"},"vehicle_type_id":"4","last_reported":1690391147,"current_range_meters":16800,"station_id":"ce4bhb12rcd13ifvqel0","pricing_plan_id":"free"},{"bike_id":"ba1ca961-fd82-4590-80cf-be715e9f12cf","system_id":"levelo_inurba_marseille","lat":43.313291,"lon":5.396838,"is_reserved":false,"is_disabled":false,"rental_uris":{"android":"levelo://app?vid=ba1ca961-fd82-4590-80cf-be715e9f12cf","ios":"levelo://app?vid=ba1ca961-fd82-4590-80cf-be715e9f12cf"},"vehicle_type_id":"4","last_reported":1690391147,"current_range_meters":22800,"station_id":"ce4bgvp2rcd13ifvqcu0","pricing_plan_id":"free"},{"bike_id":"85f38205-1614-4120-9c4a-c6c2c44df68c","system_id":"levelo_inurba_marseille","lat":43.29535,"lon":5.38545,"is_reserved":false,"is_disabled":false,"rental_uris":{"android":"levelo://app?vid=85f38205-1614-4120-9c4a-c6c2c44df68c","ios":"levelo://app?vid=85f38205-1614-4120-9c4a-c6c2c44df68c"},"vehicle_type_id":"4","last_reported":1690391147,"current_range_meters":19600,"station_id":"ce4bgih2rcd13ifvqba0","pricing_plan_id":"free"},{"bike_id":"c552885a-2f0a-4eb2-b3f4-8953915ab5bc","system_id":"levelo_inurba_marseille","lat":43.290779,"lon":5.371482,"is_reserved":false,"is_disabled":false,"rental_uris":{"android":"levelo://app?vid=c552885a-2f0a-4eb2-b3f4-8953915ab5bc","ios":"levelo://app?vid=c552885a-2f0a-4eb2-b3f4-8953915ab5bc"},"vehicle_type_id":"4","last_reported":1690391147,"current_range_meters":6000,"station_id":"ce4bh5p2rcd13ifvqe4g","pricing_plan_id":"free"},{"bike_id":"dfbe2fdc-fa2f-4060-bc12-c19b00068f68","system_id":"levelo_inurba_marseille","lat":43.290779,"lon":5.371482,"is_reserved":false,"is_disabled":false,"rental_uris":{"android":"levelo://app?vid=dfbe2fdc-fa2f-4060-bc12-c19b00068f68","ios":"levelo://app?vid=dfbe2fdc-fa2f-4060-bc12-c19b00068f68"},"vehicle_type_id":"4","last_reported":1690391147,"current_range_meters":21200,"station_id":"ce4bh5p2rcd13ifvqe4g","pricing_plan_id":"free"},{"bike_id":"01b4870c-dd1f-472d-8efb-cbe55823a992","system_id":"levelo_inurba_marseille","lat":43.302008,"lon":5.394694,"is_reserved":false,"is_disabled":false,"rental_uris":{"android":"levelo://app?vid=01b4870c-dd1f-472d-8efb-cbe55823a992","ios":"levelo://app?vid=01b4870c-dd1f-472d-8efb-cbe55823a992"},"vehicle_type_id":"4","last_reported":1690391147,"current_range_meters":21200,"station_id":"ce4bh0p2rcd13ifvqd70","pricing_plan_id":"free"},{"bike_id":"9dd81f63-65ac-4729-a42e-539e88a20227","system_id":"levelo_inurba_marseille","lat":43.302008,"lon":5.394694,"is_reserved":false,"is_disabled":false,"rental_uris":{"android":"levelo://app?vid=9dd81f63-65ac-4729-a42e-539e88a20227","ios":"levelo://app?vid=9dd81f63-65ac-4729-a42e-539e88a20227"},"vehicle_type_id":"4","last_reported":1690391147,"current_range_meters":29600,"station_id":"ce4bh0p2rcd13ifvqd70","pricing_plan_id":"free"},{"bike_id":"9f80f66f-5cd8-4059-870c-0b4e63fa1839","system_id":"levelo_inurba_marseille","lat":43.302008,"lon":5.394694,"is_reserved":false,"is_disabled":false,"rental_uris":{"android":"levelo://app?vid=9f80f66f-5cd8-4059-870c-0b4e63fa1839","ios":"levelo://app?vid=9f80f66f-5cd8-4059-870c-0b4e63fa1839"},"vehicle_type_id":"4","last_reported":1690391147,"current_range_meters":30400,"station_id":"ce4bh0p2rcd13ifvqd70","pricing_plan_id":"free"},{"bike_id":"cdb1f478-8cde-4bff-8a55-ff368927240e","system_id":"levelo_inurba_marseille","lat":43.302008,"lon":5.394694,"is_reserved":false,"is_disabled":false,"rental_uris":{"android":"levelo://app?vid=cdb1f478-8cde-4bff-8a55-ff368927240e","ios":"levelo://app?vid=cdb1f478-8cde-4bff-8a55-ff368927240e"},"vehicle_type_id":"4","last_reported":1690391147,"current_range_meters":11200,"station_id":"ce4bh0p2rcd13ifvqd70","pricing_plan_id":"free"},{"bike_id":"f0cd074a-24ac-486c-a0ae-73f221bf1ca3","system_id":"levelo_inurba_marseille","lat":43.302008,"lon":5.394694,"is_reserved":false,"is_disabled":false,"rental_uris":{"android":"levelo://app?vid=f0cd074a-24ac-486c-a0ae-73f221bf1ca3","ios":"levelo://app?vid=f0cd074a-24ac-486c-a0ae-73f221bf1ca3"},"vehicle_type_id":"4","last_reported":1690391147,"current_range_meters":24400,"station_id":"ce4bh0p2rcd13ifvqd70","pricing_plan_id":"free"},{"bike_id":"069b2c88-eb84-4bb8-bb25-21fe0e31bc7a","system_id":"levelo_inurba_marseille","lat":43.302008,"lon":5.394694,"is_reserved":false,"is_disabled":false,"rental_uris":{"android":"levelo://app?vid=069b2c88-eb84-4bb8-bb25-21fe0e31bc7a","ios":"levelo://app?vid=069b2c88-eb84-4bb8-bb25-21fe0e31bc7a"},"vehicle_type_id":"4","last_reported":1690391147,"current_range_meters":23600,"station_id":"ce4bh0p2rcd13ifvqd70","pricing_plan_id":"free"},{"bike_id":"83b995bc-61c0-467d-931b-44ff7c94edad","system_id":"levelo_inurba_marseille","lat":43.290624,"lon":5.359245,"is_reserved":false,"is_disabled":false,"rental_uris":{"android":"levelo://app?vid=83b995bc-61c0-467d-931b-44ff7c94edad","ios":"levelo://app?vid=83b995bc-61c0-467d-931b-44ff7c94edad"},"vehicle_type_id":"4","last_reported":1690391147,"current_range_meters":17200,"station_id":"ce4bha92rcd13ifvqeg0","pricing_plan_id":"free"},{"bike_id":"2724ac68-2389-4d38-b908-d94ac80691d5","system_id":"levelo_inurba_marseille","lat":43.290631,"lon":5.359244,"is_reserved":false,"is_disabled":false,"rental_uris":{"android":"levelo://app?vid=2724ac68-2389-4d38-b908-d94ac80691d5","ios":"levelo://app?vid=2724ac68-2389-4d38-b908-d94ac80691d5"},"vehicle_type_id":"4","last_reported":1690391147,"current_range_meters":8400,"station_id":"ce4bha92rcd13ifvqeg0","pricing_plan_id":"free"},{"bike_id":"7247f473-8a96-40f0-b297-fa71a3000982","system_id":"levelo_inurba_marseille","lat":43.290624,"lon":5.359245,"is_reserved":false,"is_disabled":false,"rental_uris":{"android":"levelo://app?vid=7247f473-8a96-40f0-b297-fa71a3000982","ios":"levelo://app?vid=7247f473-8a96-40f0-b297-fa71a3000982"},"vehicle_type_id":"4","last_reported":1690391147,"current_range_meters":29200,"station_id":"ce4bha92rcd13ifvqeg0","pricing_plan_id":"free"},{"bike_id":"9e50be48-c686-4eea-b61e-4c4a1f12809f","system_id":"levelo_inurba_marseille","lat":43.294153,"lon":5.386305,"is_reserved":false,"is_disabled":false,"rental_uris":{"android":"levelo://app?vid=9e50be48-c686-4eea-b61e-4c4a1f12809f","ios":"levelo://app?vid=9e50be48-c686-4eea-b61e-4c4a1f12809f"},"vehicle_type_id":"4","last_reported":1690391147,"current_range_meters":24000,"station_id":"ce4bh2h2rcd13ifvqdh0","pricing_plan_id":"free"},{"bike_id":"b242bd4a-7c59-4ea1-834e-b68470e3e9ae","system_id":"levelo_inurba_marseille","lat":43.294153,"lon":5.386305,"is_reserved":false,"is_disabled":false,"rental_uris":{"android":"levelo://app?vid=b242bd4a-7c59-4ea1-834e-b68470e3e9ae","ios":"levelo://app?vid=b242bd4a-7c59-4ea1-834e-b68470e3e9ae"},"vehicle_type_id":"4","last_reported":1690391147,"current_range_meters":5200,"station_id":"ce4bh2h2rcd13ifvqdh0","pricing_plan_id":"free"},{"bike_id":"90d88a2f-9e48-46f4-9452-24506e8ddbb1","system_id":"levelo_inurba_marseille","lat":43.294162,"lon":5.386292,"is_reserved":false,"is_disabled":false,"rental_uris":{"android":"levelo://app?vid=90d88a2f-9e48-46f4-9452-24506e8ddbb1","ios":"levelo://app?vid=90d88a2f-9e48-46f4-9452-24506e8ddbb1"},"vehicle_type_id":"4","last_reported":1690391147,"current_range_meters":26800,"station_id":"ce4bh2h2rcd13ifvqdh0","pricing_plan_id":"free"},{"bike_id":"9909c420-06c9-4da8-b9b9-730a7628ac29","system_id":"levelo_inurba_marseille","lat":43.294153,"lon":5.386305,"is_reserved":false,"is_disabled":false,"rental_uris":{"android":"levelo://app?vid=9909c420-06c9-4da8-b9b9-730a7628ac29","ios":"levelo://app?vid=9909c420-06c9-4da8-b9b9-730a7628ac29"},"vehicle_type_id":"4","last_reported":1690391147,"current_range_meters":24400,"station_id":"ce4bh2h2rcd13ifvqdh0","pricing_plan_id":"free"},{"bike_id":"e3778825-afab-4750-b07f-a25013bfada9","system_id":"levelo_inurba_marseille","lat":43.294153,"lon":5.386305,"is_reserved":false,"is_disabled":false,"rental_uris":{"android":"levelo://app?vid=e3778825-afab-4750-b07f-a25013bfada9","ios":"levelo://app?vid=e3778825-afab-4750-b07f-a25013bfada9"},"vehicle_type_id":"4","last_reported":1690391147,"current_range_meters":31600,"station_id":"ce4bh2h2rcd13ifvqdh0","pricing_plan_id":"free"},{"bike_id":"b421a2d1-fa55-474a-853e-b62342024b90","system_id":"levelo_inurba_marseille","lat":43.294153,"lon":5.386305,"is_reserved":false,"is_disabled":false,"rental_uris":{"android":"levelo://app?vid=b421a2d1-fa55-474a-853e-b62342024b90","ios":"levelo://app?vid=b421a2d1-fa55-474a-853e-b62342024b90"},"vehicle_type_id":"4","last_reported":1690391147,"current_range_meters":8000,"station_id":"ce4bh2h2rcd13ifvqdh0","pricing_plan_id":"free"},{"bike_id":"c5ad738d-c3b6-4d56-8214-30d9389ec1b5","system_id":"levelo_inurba_marseille","lat":43.294162,"lon":5.386292,"is_reserved":false,"is_disabled":false,"rental_uris":{"android":"levelo://app?vid=c5ad738d-c3b6-4d56-8214-30d9389ec1b5","ios":"levelo://app?vid=c5ad738d-c3b6-4d56-8214-30d9389ec1b5"},"vehicle_type_id":"4","last_reported":1690391147,"current_range_meters":23200,"station_id":"ce4bh2h2rcd13ifvqdh0","pricing_plan_id":"free"},{"bike_id":"a6d28c52-784d-4cb7-84b0-d273889a1034","system_id":"levelo_inurba_marseille","lat":43.294162,"lon":5.386292,"is_reserved":false,"is_disabled":false,"rental_uris":{"android":"levelo://app?vid=a6d28c52-784d-4cb7-84b0-d273889a1034","ios":"levelo://app?vid=a6d28c52-784d-4cb7-84b0-d273889a1034"},"vehicle_type_id":"4","last_reported":1690391147,"current_range_meters":24000,"station_id":"ce4bh2h2rcd13ifvqdh0","pricing_plan_id":"free"},{"bike_id":"16c94872-a01f-437a-980b-0d9ef9b897c7","system_id":"levelo_inurba_marseille","lat":43.294162,"lon":5.386292,"is_reserved":false,"is_disabled":false,"rental_uris":{"android":"levelo://app?vid=16c94872-a01f-437a-980b-0d9ef9b897c7","ios":"levelo://app?vid=16c94872-a01f-437a-980b-0d9ef9b897c7"},"vehicle_type_id":"4","last_reported":1690391147,"current_range_meters":5600,"station_id":"ce4bh2h2rcd13ifvqdh0","pricing_plan_id":"free"},{"bike_id":"9a2e7646-0b07-44fc-b1dc-a617e4590599","system_id":"levelo_inurba_marseille","lat":43.29418,"lon":5.38631,"is_reserved":false,"is_disabled":false,"rental_uris":{"android":"levelo://app?vid=9a2e7646-0b07-44fc-b1dc-a617e4590599","ios":"levelo://app?vid=9a2e7646-0b07-44fc-b1dc-a617e4590599"},"vehicle_type_id":"4","last_reported":1690391147,"current_range_meters":8800,"station_id":"","pricing_plan_id":"free"},{"bike_id":"502b2a58-9608-4835-9896-14f21a85b1d1","system_id":"levelo_inurba_marseille","lat":43.294162,"lon":5.386292,"is_reserved":false,"is_disabled":false,"rental_uris":{"android":"levelo://app?vid=502b2a58-9608-4835-9896-14f21a85b1d1","ios":"levelo://app?vid=502b2a58-9608-4835-9896-14f21a85b1d1"},"vehicle_type_id":"4","last_reported":1690391147,"current_range_meters":16800,"station_id":"ce4bh2h2rcd13ifvqdh0","pricing_plan_id":"free"},{"bike_id":"f139d6ab-8d19-462d-ba77-fb0f18ff32f9","system_id":"levelo_inurba_marseille","lat":43.294162,"lon":5.386292,"is_reserved":false,"is_disabled":false,"rental_uris":{"android":"levelo://app?vid=f139d6ab-8d19-462d-ba77-fb0f18ff32f9","ios":"levelo://app?vid=f139d6ab-8d19-462d-ba77-fb0f18ff32f9"},"vehicle_type_id":"4","last_reported":1690391147,"current_range_meters":4400,"station_id":"ce4bh2h2rcd13ifvqdh0","pricing_plan_id":"free"},{"bike_id":"e074fc3d-d7ac-4c1d-9fda-bb5e86985a86","system_id":"levelo_inurba_marseille","lat":43.294162,"lon":5.386292,"is_reserved":false,"is_disabled":false,"rental_uris":{"android":"levelo://app?vid=e074fc3d-d7ac-4c1d-9fda-bb5e86985a86","ios":"levelo://app?vid=e074fc3d-d7ac-4c1d-9fda-bb5e86985a86"},"vehicle_type_id":"4","last_reported":1690391147,"current_range_meters":22800,"station_id":"ce4bh2h2rcd13ifvqdh0","pricing_plan_id":"free"},{"bike_id":"e3a71010-6b8a-4f20-aced-8b92aa1ea9e4","system_id":"levelo_inurba_marseille","lat":43.289184,"lon":5.366408,"is_reserved":false,"is_disabled":false,"rental_uris":{"android":"levelo://app?vid=e3a71010-6b8a-4f20-aced-8b92aa1ea9e4","ios":"levelo://app?vid=e3a71010-6b8a-4f20-aced-8b92aa1ea9e4"},"vehicle_type_id":"4","last_reported":1690391147,"current_range_meters":21600,"station_id":"ce4bhap2rcd13ifvqek0","pricing_plan_id":"free"},{"bike_id":"cbf590be-468c-473d-8e88-55b160900cb0","system_id":"levelo_inurba_marseille","lat":43.294162,"lon":5.386292,"is_reserved":false,"is_disabled":false,"rental_uris":{"android":"levelo://app?vid=cbf590be-468c-473d-8e88-55b160900cb0","ios":"levelo://app?vid=cbf590be-468c-473d-8e88-55b160900cb0"},"vehicle_type_id":"4","last_reported":1690391147,"current_range_meters":21600,"station_id":"ce4bh2h2rcd13ifvqdh0","pricing_plan_id":"free"},{"bike_id":"fb5da1ef-7942-4eb7-844f-ed3792052edf","system_id":"levelo_inurba_marseille","lat":43.289468,"lon":5.363719,"is_reserved":false,"is_disabled":false,"rental_uris":{"android":"levelo://app?vid=fb5da1ef-7942-4eb7-844f-ed3792052edf","ios":"levelo://app?vid=fb5da1ef-7942-4eb7-844f-ed3792052edf"},"vehicle_type_id":"4","last_reported":1690391147,"current_range_meters":10400,"station_id":"ce4bhc92rcd13ifvqetg","pricing_plan_id":"free"},{"bike_id":"889972b5-ff69-4785-9b3f-77cfc015dbdd","system_id":"levelo_inurba_marseille","lat":43.29273,"lon":5.38439,"is_reserved":false,"is_disabled":false,"rental_uris":{"android":"levelo://app?vid=889972b5-ff69-4785-9b3f-77cfc015dbdd","ios":"levelo://app?vid=889972b5-ff69-4785-9b3f-77cfc015dbdd"},"vehicle_type_id":"4","last_reported":1690391147,"current_range_meters":27600,"station_id":"ce4bh692rcd13ifvqea0","pricing_plan_id":"free"},{"bike_id":"68c3ef53-d9e0-467a-99de-1a563b623542","system_id":"levelo_inurba_marseille","lat":43.292642,"lon":5.384254,"is_reserved":false,"is_disabled":false,"rental_uris":{"android":"levelo://app?vid=68c3ef53-d9e0-467a-99de-1a563b623542","ios":"levelo://app?vid=68c3ef53-d9e0-467a-99de-1a563b623542"},"vehicle_type_id":"4","last_reported":1690391147,"current_range_meters":20800,"station_id":"ce4bh692rcd13ifvqea0","pricing_plan_id":"free"},{"bike_id":"b6958d60-c34e-4cc9-88fd-0907b47eafc8","system_id":"levelo_inurba_marseille","lat":43.292642,"lon":5.384254,"is_reserved":false,"is_disabled":false,"rental_uris":{"android":"levelo://app?vid=b6958d60-c34e-4cc9-88fd-0907b47eafc8","ios":"levelo://app?vid=b6958d60-c34e-4cc9-88fd-0907b47eafc8"},"vehicle_type_id":"4","last_reported":1690391147,"current_range_meters":6000,"station_id":"ce4bh692rcd13ifvqea0","pricing_plan_id":"free"},{"bike_id":"de8135c0-9c51-46a0-8226-7cea68cd19a0","system_id":"levelo_inurba_marseille","lat":43.292644,"lon":5.384257,"is_reserved":false,"is_disabled":false,"rental_uris":{"android":"levelo://app?vid=de8135c0-9c51-46a0-8226-7cea68cd19a0","ios":"levelo://app?vid=de8135c0-9c51-46a0-8226-7cea68cd19a0"},"vehicle_type_id":"4","last_reported":1690391147,"current_range_meters":16800,"station_id":"ce4bh692rcd13ifvqea0","pricing_plan_id":"free"},{"bike_id":"3a5e74df-2a10-47ee-a7e3-65a930de8eb1","system_id":"levelo_inurba_marseille","lat":43.33044,"lon":5.38909,"is_reserved":false,"is_disabled":false,"rental_uris":{"android":"levelo://app?vid=3a5e74df-2a10-47ee-a7e3-65a930de8eb1","ios":"levelo://app?vid=3a5e74df-2a10-47ee-a7e3-65a930de8eb1"},"vehicle_type_id":"4","last_reported":1690391147,"current_range_meters":8400,"station_id":"ce4bhr92rcd13ifvqhrg","pricing_plan_id":"free"},{"bike_id":"25dd1d6d-9f1e-4912-bac7-089bb523f1a3","system_id":"levelo_inurba_marseille","lat":43.33046,"lon":5.38907,"is_reserved":false,"is_disabled":false,"rental_uris":{"android":"levelo://app?vid=25dd1d6d-9f1e-4912-bac7-089bb523f1a3","ios":"levelo://app?vid=25dd1d6d-9f1e-4912-bac7-089bb523f1a3"},"vehicle_type_id":"4","last_reported":1690391147,"current_range_meters":19200,"station_id":"ce4bhr92rcd13ifvqhrg","pricing_plan_id":"free"},{"bike_id":"42263800-8128-4f1b-a1a5-6d23f3968fa7","system_id":"levelo_inurba_marseille","lat":43.33038,"lon":5.3892,"is_reserved":false,"is_disabled":false,"rental_uris":{"android":"levelo://app?vid=42263800-8128-4f1b-a1a5-6d23f3968fa7","ios":"levelo://app?vid=42263800-8128-4f1b-a1a5-6d23f3968fa7"},"vehicle_type_id":"4","last_reported":1690391147,"current_range_meters":13200,"station_id":"ce4bhr92rcd13ifvqhrg","pricing_plan_id":"free"},{"bike_id":"88404aae-9970-41ff-af6e-47c8a2c0fca6","system_id":"levelo_inurba_marseille","lat":43.33042,"lon":5.38915,"is_reserved":false,"is_disabled":false,"rental_uris":{"android":"levelo://app?vid=88404aae-9970-41ff-af6e-47c8a2c0fca6","ios":"levelo://app?vid=88404aae-9970-41ff-af6e-47c8a2c0fca6"},"vehicle_type_id":"4","last_reported":1690391147,"current_range_meters":20400,"station_id":"ce4bhr92rcd13ifvqhrg","pricing_plan_id":"free"},{"bike_id":"4e0a25ca-6770-47e2-8248-479f892f01fb","system_id":"levelo_inurba_marseille","lat":43.33041,"lon":5.38919,"is_reserved":false,"is_disabled":false,"rental_uris":{"android":"levelo://app?vid=4e0a25ca-6770-47e2-8248-479f892f01fb","ios":"levelo://app?vid=4e0a25ca-6770-47e2-8248-479f892f01fb"},"vehicle_type_id":"4","last_reported":1690391147,"current_range_meters":22000,"station_id":"ce4bhr92rcd13ifvqhrg","pricing_plan_id":"free"},{"bike_id":"0f7bc18f-e6c1-47b0-8f1c-aef49027d93f","system_id":"levelo_inurba_marseille","lat":43.33044,"lon":5.38915,"is_reserved":false,"is_disabled":false,"rental_uris":{"android":"levelo://app?vid=0f7bc18f-e6c1-47b0-8f1c-aef49027d93f","ios":"levelo://app?vid=0f7bc18f-e6c1-47b0-8f1c-aef49027d93f"},"vehicle_type_id":"4","last_reported":1690391147,"current_range_meters":24400,"station_id":"ce4bhr92rcd13ifvqhrg","pricing_plan_id":"free"},{"bike_id":"fe75a344-4c1f-4f70-984e-b9c521c70eb0","system_id":"levelo_inurba_marseille","lat":43.29008,"lon":5.35617,"is_reserved":false,"is_disabled":false,"rental_uris":{"android":"levelo://app?vid=fe75a344-4c1f-4f70-984e-b9c521c70eb0","ios":"levelo://app?vid=fe75a344-4c1f-4f70-984e-b9c521c70eb0"},"vehicle_type_id":"4","last_reported":1690391147,"current_range_meters":22400,"station_id":"ce4bhb92rcd13ifvqen0","pricing_plan_id":"free"},{"bike_id":"c759ee83-f8de-4fd6-aac9-ed656b69f68a","system_id":"levelo_inurba_marseille","lat":43.33043,"lon":5.38918,"is_reserved":false,"is_disabled":false,"rental_uris":{"android":"levelo://app?vid=c759ee83-f8de-4fd6-aac9-ed656b69f68a","ios":"levelo://app?vid=c759ee83-f8de-4fd6-aac9-ed656b69f68a"},"vehicle_type_id":"4","last_reported":1690391147,"current_range_meters":18400,"station_id":"ce4bhr92rcd13ifvqhrg","pricing_plan_id":"free"},{"bike_id":"2f9b7d7e-3709-4f31-8f15-4ea858bb9538","system_id":"levelo_inurba_marseille","lat":43.33046,"lon":5.38914,"is_reserved":false,"is_disabled":false,"rental_uris":{"android":"levelo://app?vid=2f9b7d7e-3709-4f31-8f15-4ea858bb9538","ios":"levelo://app?vid=2f9b7d7e-3709-4f31-8f15-4ea858bb9538"},"vehicle_type_id":"4","last_reported":1690391147,"current_range_meters":18800,"station_id":"ce4bhr92rcd13ifvqhrg","pricing_plan_id":"free"},{"bike_id":"73ed3f19-4ae4-4b8f-b3e9-559d58575af5","system_id":"levelo_inurba_marseille","lat":43.33044,"lon":5.38918,"is_reserved":false,"is_disabled":false,"rental_uris":{"android":"levelo://app?vid=73ed3f19-4ae4-4b8f-b3e9-559d58575af5","ios":"levelo://app?vid=73ed3f19-4ae4-4b8f-b3e9-559d58575af5"},"vehicle_type_id":"4","last_reported":1690391147,"current_range_meters":24000,"station_id":"ce4bhr92rcd13ifvqhrg","pricing_plan_id":"free"},{"bike_id":"55c62a5b-4109-4f05-a1b7-34d97bd058e2","system_id":"levelo_inurba_marseille","lat":43.3304,"lon":5.38924,"is_reserved":false,"is_disabled":false,"rental_uris":{"android":"levelo://app?vid=55c62a5b-4109-4f05-a1b7-34d97bd058e2","ios":"levelo://app?vid=55c62a5b-4109-4f05-a1b7-34d97bd058e2"},"vehicle_type_id":"4","last_reported":1690391147,"current_range_meters":14400,"station_id":"ce4bhr92rcd13ifvqhrg","pricing_plan_id":"free"},{"bike_id":"9ccab6c9-5be4-4790-949f-95e896019f0b","system_id":"levelo_inurba_marseille","lat":43.33044,"lon":5.38919,"is_reserved":false,"is_disabled":false,"rental_uris":{"android":"levelo://app?vid=9ccab6c9-5be4-4790-949f-95e896019f0b","ios":"levelo://app?vid=9ccab6c9-5be4-4790-949f-95e896019f0b"},"vehicle_type_id":"4","last_reported":1690391147,"current_range_meters":1200,"station_id":"ce4bhr92rcd13ifvqhrg","pricing_plan_id":"free"},{"bike_id":"9c6e8b08-a787-470e-a459-ffa61942bf25","system_id":"levelo_inurba_marseille","lat":43.3305,"lon":5.3891,"is_reserved":false,"is_disabled":false,"rental_uris":{"android":"levelo://app?vid=9c6e8b08-a787-470e-a459-ffa61942bf25","ios":"levelo://app?vid=9c6e8b08-a787-470e-a459-ffa61942bf25"},"vehicle_type_id":"4","last_reported":1690391147,"current_range_meters":7200,"station_id":"ce4bhr92rcd13ifvqhrg","pricing_plan_id":"free"},{"bike_id":"e60467e9-1aaa-4db3-8a0e-23c0937e2e99","system_id":"levelo_inurba_marseille","lat":43.33047,"lon":5.38915,"is_reserved":false,"is_disabled":false,"rental_uris":{"android":"levelo://app?vid=e60467e9-1aaa-4db3-8a0e-23c0937e2e99","ios":"levelo://app?vid=e60467e9-1aaa-4db3-8a0e-23c0937e2e99"},"vehicle_type_id":"4","last_reported":1690391147,"current_range_meters":28400,"station_id":"ce4bhr92rcd13ifvqhrg","pricing_plan_id":"free"},{"bike_id":"8765c3d7-263c-4c45-8e9f-5d2eb4bdff1b","system_id":"levelo_inurba_marseille","lat":43.290103,"lon":5.356114,"is_reserved":false,"is_disabled":false,"rental_uris":{"android":"levelo://app?vid=8765c3d7-263c-4c45-8e9f-5d2eb4bdff1b","ios":"levelo://app?vid=8765c3d7-263c-4c45-8e9f-5d2eb4bdff1b"},"vehicle_type_id":"4","last_reported":1690391147,"current_range_meters":24400,"station_id":"ce4bhb92rcd13ifvqen0","pricing_plan_id":"free"},{"bike_id":"327f82eb-39ce-4501-8198-3934f899466c","system_id":"levelo_inurba_marseille","lat":43.29006,"lon":5.35614,"is_reserved":false,"is_disabled":false,"rental_uris":{"android":"levelo://app?vid=327f82eb-39ce-4501-8198-3934f899466c","ios":"levelo://app?vid=327f82eb-39ce-4501-8198-3934f899466c"},"vehicle_type_id":"4","last_reported":1690391147,"current_range_meters":6400,"station_id":"","pricing_plan_id":"free"},{"bike_id":"121c6ac3-f4a5-4866-a81f-a0799e685cc5","system_id":"levelo_inurba_marseille","lat":43.29006,"lon":5.35611,"is_reserved":false,"is_disabled":false,"rental_uris":{"android":"levelo://app?vid=121c6ac3-f4a5-4866-a81f-a0799e685cc5","ios":"levelo://app?vid=121c6ac3-f4a5-4866-a81f-a0799e685cc5"},"vehicle_type_id":"4","last_reported":1690391147,"current_range_meters":5600,"station_id":"ce4bhb92rcd13ifvqen0","pricing_plan_id":"free"},{"bike_id":"3151ac97-7960-4156-bae6-a0b3998c0429","system_id":"levelo_inurba_marseille","lat":43.33046,"lon":5.38919,"is_reserved":false,"is_disabled":false,"rental_uris":{"android":"levelo://app?vid=3151ac97-7960-4156-bae6-a0b3998c0429","ios":"levelo://app?vid=3151ac97-7960-4156-bae6-a0b3998c0429"},"vehicle_type_id":"4","last_reported":1690391147,"current_range_meters":20800,"station_id":"ce4bhr92rcd13ifvqhrg","pricing_plan_id":"free"},{"bike_id":"0e782a69-b1c1-47db-99b7-35163d306907","system_id":"levelo_inurba_marseille","lat":43.33048,"lon":5.38916,"is_reserved":false,"is_disabled":false,"rental_uris":{"android":"levelo://app?vid=0e782a69-b1c1-47db-99b7-35163d306907","ios":"levelo://app?vid=0e782a69-b1c1-47db-99b7-35163d306907"},"vehicle_type_id":"4","last_reported":1690391147,"current_range_meters":15600,"station_id":"ce4bhr92rcd13ifvqhrg","pricing_plan_id":"free"},{"bike_id":"f2f27d13-a4c9-4817-8539-ea5979861b5e","system_id":"levelo_inurba_marseille","lat":43.3305,"lon":5.38913,"is_reserved":false,"is_disabled":false,"rental_uris":{"android":"levelo://app?vid=f2f27d13-a4c9-4817-8539-ea5979861b5e","ios":"levelo://app?vid=f2f27d13-a4c9-4817-8539-ea5979861b5e"},"vehicle_type_id":"4","last_reported":1690391147,"current_range_meters":29600,"station_id":"ce4bhr92rcd13ifvqhrg","pricing_plan_id":"free"},{"bike_id":"49ad00a5-8df1-4a07-bc34-2bb0dead1c74","system_id":"levelo_inurba_marseille","lat":43.290103,"lon":5.356114,"is_reserved":false,"is_disabled":false,"rental_uris":{"android":"levelo://app?vid=49ad00a5-8df1-4a07-bc34-2bb0dead1c74","ios":"levelo://app?vid=49ad00a5-8df1-4a07-bc34-2bb0dead1c74"},"vehicle_type_id":"4","last_reported":1690391147,"current_range_meters":22800,"station_id":"ce4bhb92rcd13ifvqen0","pricing_plan_id":"free"},{"bike_id":"6212292b-7f3d-4804-8388-9a3e71c814af","system_id":"levelo_inurba_marseille","lat":43.29006,"lon":5.3561,"is_reserved":false,"is_disabled":false,"rental_uris":{"android":"levelo://app?vid=6212292b-7f3d-4804-8388-9a3e71c814af","ios":"levelo://app?vid=6212292b-7f3d-4804-8388-9a3e71c814af"},"vehicle_type_id":"4","last_reported":1690391147,"current_range_meters":23600,"station_id":"ce4bhb92rcd13ifvqen0","pricing_plan_id":"free"},{"bike_id":"633edd21-a73a-4693-b39b-5c04b4ec83f5","system_id":"levelo_inurba_marseille","lat":43.290104,"lon":5.356111,"is_reserved":false,"is_disabled":false,"rental_uris":{"android":"levelo://app?vid=633edd21-a73a-4693-b39b-5c04b4ec83f5","ios":"levelo://app?vid=633edd21-a73a-4693-b39b-5c04b4ec83f5"},"vehicle_type_id":"4","last_reported":1690391147,"current_range_meters":30000,"station_id":"ce4bhb92rcd13ifvqen0","pricing_plan_id":"free"},{"bike_id":"23f5ec6b-33d3-4dbb-8628-221b92688a2c","system_id":"levelo_inurba_marseille","lat":43.3305,"lon":5.38914,"is_reserved":false,"is_disabled":false,"rental_uris":{"android":"levelo://app?vid=23f5ec6b-33d3-4dbb-8628-221b92688a2c","ios":"levelo://app?vid=23f5ec6b-33d3-4dbb-8628-221b92688a2c"},"vehicle_type_id":"4","last_reported":1690391147,"current_range_meters":20800,"station_id":"ce4bhr92rcd13ifvqhrg","pricing_plan_id":"free"},{"bike_id":"fbf84aab-85c0-4c9c-bad4-9a486a705a7f","system_id":"levelo_inurba_marseille","lat":43.29003,"lon":5.35619,"is_reserved":false,"is_disabled":false,"rental_uris":{"android":"levelo://app?vid=fbf84aab-85c0-4c9c-bad4-9a486a705a7f","ios":"levelo://app?vid=fbf84aab-85c0-4c9c-bad4-9a486a705a7f"},"vehicle_type_id":"4","last_reported":1690391147,"current_range_meters":31200,"station_id":"ce4bhb92rcd13ifvqen0","pricing_plan_id":"free"},{"bike_id":"69737180-2eee-4f4e-819b-76733618e6ca","system_id":"levelo_inurba_marseille","lat":43.29005,"lon":5.35611,"is_reserved":false,"is_disabled":false,"rental_uris":{"android":"levelo://app?vid=69737180-2eee-4f4e-819b-76733618e6ca","ios":"levelo://app?vid=69737180-2eee-4f4e-819b-76733618e6ca"},"vehicle_type_id":"4","last_reported":1690391147,"current_range_meters":20400,"station_id":"ce4bhb92rcd13ifvqen0","pricing_plan_id":"free"},{"bike_id":"ae31193c-7f63-4b2e-afd5-ad1edad83e02","system_id":"levelo_inurba_marseille","lat":43.29005,"lon":5.35607,"is_reserved":false,"is_disabled":false,"rental_uris":{"android":"levelo://app?vid=ae31193c-7f63-4b2e-afd5-ad1edad83e02","ios":"levelo://app?vid=ae31193c-7f63-4b2e-afd5-ad1edad83e02"},"vehicle_type_id":"4","last_reported":1690391147,"current_range_meters":15600,"station_id":"ce4bhb92rcd13ifvqen0","pricing_plan_id":"free"},{"bike_id":"91fec792-a5a5-4820-af7d-3c6be3109af2","system_id":"levelo_inurba_marseille","lat":43.290104,"lon":5.356111,"is_reserved":false,"is_disabled":false,"rental_uris":{"android":"levelo://app?vid=91fec792-a5a5-4820-af7d-3c6be3109af2","ios":"levelo://app?vid=91fec792-a5a5-4820-af7d-3c6be3109af2"},"vehicle_type_id":"4","last_reported":1690391147,"current_range_meters":31200,"station_id":"ce4bhb92rcd13ifvqen0","pricing_plan_id":"free"},{"bike_id":"393d59f1-7515-4bfe-8761-d45f640a705b","system_id":"levelo_inurba_marseille","lat":43.290104,"lon":5.356111,"is_reserved":false,"is_disabled":false,"rental_uris":{"android":"levelo://app?vid=393d59f1-7515-4bfe-8761-d45f640a705b","ios":"levelo://app?vid=393d59f1-7515-4bfe-8761-d45f640a705b"},"vehicle_type_id":"4","last_reported":1690391147,"current_range_meters":30400,"station_id":"ce4bhb92rcd13ifvqen0","pricing_plan_id":"free"},{"bike_id":"fd798d91-e59c-4a76-bd91-92ce206c30b6","system_id":"levelo_inurba_marseille","lat":43.3305,"lon":5.38919,"is_reserved":false,"is_disabled":false,"rental_uris":{"android":"levelo://app?vid=fd798d91-e59c-4a76-bd91-92ce206c30b6","ios":"levelo://app?vid=fd798d91-e59c-4a76-bd91-92ce206c30b6"},"vehicle_type_id":"4","last_reported":1690391147,"current_range_meters":8000,"station_id":"ce4bhr92rcd13ifvqhrg","pricing_plan_id":"free"},{"bike_id":"9dccd0a6-acf2-4794-bb93-e3e35f753c32","system_id":"levelo_inurba_marseille","lat":43.295169,"lon":5.390426,"is_reserved":false,"is_disabled":false,"rental_uris":{"android":"levelo://app?vid=9dccd0a6-acf2-4794-bb93-e3e35f753c32","ios":"levelo://app?vid=9dccd0a6-acf2-4794-bb93-e3e35f753c32"},"vehicle_type_id":"4","last_reported":1690391147,"current_range_meters":30000,"station_id":"ce4bh3p2rcd13ifvqdp0","pricing_plan_id":"free"},{"bike_id":"a2cbb352-df6c-42d4-a90f-bd67da67cc4d","system_id":"levelo_inurba_marseille","lat":43.295169,"lon":5.390426,"is_reserved":false,"is_disabled":false,"rental_uris":{"android":"levelo://app?vid=a2cbb352-df6c-42d4-a90f-bd67da67cc4d","ios":"levelo://app?vid=a2cbb352-df6c-42d4-a90f-bd67da67cc4d"},"vehicle_type_id":"4","last_reported":1690391147,"current_range_meters":1200,"station_id":"ce4bh3p2rcd13ifvqdp0","pricing_plan_id":"free"},{"bike_id":"cc6c2e05-8738-4fe7-974f-0d6bbf4ac112","system_id":"levelo_inurba_marseille","lat":43.295169,"lon":5.390426,"is_reserved":false,"is_disabled":false,"rental_uris":{"android":"levelo://app?vid=cc6c2e05-8738-4fe7-974f-0d6bbf4ac112","ios":"levelo://app?vid=cc6c2e05-8738-4fe7-974f-0d6bbf4ac112"},"vehicle_type_id":"4","last_reported":1690391147,"current_range_meters":19200,"station_id":"ce4bh3p2rcd13ifvqdp0","pricing_plan_id":"free"},{"bike_id":"3e875f03-961f-43d1-a37c-91e365ce04b0","system_id":"levelo_inurba_marseille","lat":43.29521,"lon":5.39044,"is_reserved":false,"is_disabled":false,"rental_uris":{"android":"levelo://app?vid=3e875f03-961f-43d1-a37c-91e365ce04b0","ios":"levelo://app?vid=3e875f03-961f-43d1-a37c-91e365ce04b0"},"vehicle_type_id":"4","last_reported":1690391147,"current_range_meters":24000,"station_id":"","pricing_plan_id":"free"},{"bike_id":"26061adb-80e9-4983-bfe8-d47079c64649","system_id":"levelo_inurba_marseille","lat":43.295169,"lon":5.390426,"is_reserved":false,"is_disabled":false,"rental_uris":{"android":"levelo://app?vid=26061adb-80e9-4983-bfe8-d47079c64649","ios":"levelo://app?vid=26061adb-80e9-4983-bfe8-d47079c64649"},"vehicle_type_id":"4","last_reported":1690391147,"current_range_meters":0,"station_id":"ce4bh3p2rcd13ifvqdp0","pricing_plan_id":"free"},{"bike_id":"d6fc8a96-dfba-4fae-8d99-8d98a1527b38","system_id":"levelo_inurba_marseille","lat":43.295169,"lon":5.390426,"is_reserved":false,"is_disabled":false,"rental_uris":{"android":"levelo://app?vid=d6fc8a96-dfba-4fae-8d99-8d98a1527b38","ios":"levelo://app?vid=d6fc8a96-dfba-4fae-8d99-8d98a1527b38"},"vehicle_type_id":"4","last_reported":1690391147,"current_range_meters":31200,"station_id":"ce4bh3p2rcd13ifvqdp0","pricing_plan_id":"free"},{"bike_id":"4f7ab37c-d763-4868-b048-238a46f6effb","system_id":"levelo_inurba_marseille","lat":43.28856,"lon":5.358371,"is_reserved":false,"is_disabled":false,"rental_uris":{"android":"levelo://app?vid=4f7ab37c-d763-4868-b048-238a46f6effb","ios":"levelo://app?vid=4f7ab37c-d763-4868-b048-238a46f6effb"},"vehicle_type_id":"4","last_reported":1690391147,"current_range_meters":26800,"station_id":"ce4bhb12rcd13ifvqem0","pricing_plan_id":"free"},{"bike_id":"11985373-2fc8-4c9e-8536-e2a5a6c45099","system_id":"levelo_inurba_marseille","lat":43.28856,"lon":5.358371,"is_reserved":false,"is_disabled":false,"rental_uris":{"android":"levelo://app?vid=11985373-2fc8-4c9e-8536-e2a5a6c45099","ios":"levelo://app?vid=11985373-2fc8-4c9e-8536-e2a5a6c45099"},"vehicle_type_id":"4","last_reported":1690391147,"current_range_meters":30800,"station_id":"ce4bhb12rcd13ifvqem0","pricing_plan_id":"free"},{"bike_id":"e84dd0f7-d17b-4978-8f58-7b895b9e18f2","system_id":"levelo_inurba_marseille","lat":43.28856,"lon":5.358371,"is_reserved":false,"is_disabled":false,"rental_uris":{"android":"levelo://app?vid=e84dd0f7-d17b-4978-8f58-7b895b9e18f2","ios":"levelo://app?vid=e84dd0f7-d17b-4978-8f58-7b895b9e18f2"},"vehicle_type_id":"4","last_reported":1690391147,"current_range_meters":10000,"station_id":"ce4bhb12rcd13ifvqem0","pricing_plan_id":"free"},{"bike_id":"ea736238-15c4-49ba-8022-e0ad5d8f193a","system_id":"levelo_inurba_marseille","lat":43.28856,"lon":5.358371,"is_reserved":false,"is_disabled":false,"rental_uris":{"android":"levelo://app?vid=ea736238-15c4-49ba-8022-e0ad5d8f193a","ios":"levelo://app?vid=ea736238-15c4-49ba-8022-e0ad5d8f193a"},"vehicle_type_id":"4","last_reported":1690391147,"current_range_meters":23200,"station_id":"ce4bhb12rcd13ifvqem0","pricing_plan_id":"free"},{"bike_id":"9917ecda-7227-4097-bbd8-7ed32a8f52ad","system_id":"levelo_inurba_marseille","lat":43.28856,"lon":5.358371,"is_reserved":false,"is_disabled":false,"rental_uris":{"android":"levelo://app?vid=9917ecda-7227-4097-bbd8-7ed32a8f52ad","ios":"levelo://app?vid=9917ecda-7227-4097-bbd8-7ed32a8f52ad"},"vehicle_type_id":"4","last_reported":1690391147,"current_range_meters":30800,"station_id":"ce4bhb12rcd13ifvqem0","pricing_plan_id":"free"},{"bike_id":"39475918-7c90-4ef2-932e-146c0e58af7c","system_id":"levelo_inurba_marseille","lat":43.31267,"lon":5.40167,"is_reserved":false,"is_disabled":false,"rental_uris":{"android":"levelo://app?vid=39475918-7c90-4ef2-932e-146c0e58af7c","ios":"levelo://app?vid=39475918-7c90-4ef2-932e-146c0e58af7c"},"vehicle_type_id":"4","last_reported":1690391147,"current_range_meters":19200,"station_id":"ce4bh092rcd13ifvqd30","pricing_plan_id":"free"},{"bike_id":"1699be57-d483-411b-beb9-c54d0e4096f5","system_id":"levelo_inurba_marseille","lat":43.31276,"lon":5.4017,"is_reserved":false,"is_disabled":false,"rental_uris":{"android":"levelo://app?vid=1699be57-d483-411b-beb9-c54d0e4096f5","ios":"levelo://app?vid=1699be57-d483-411b-beb9-c54d0e4096f5"},"vehicle_type_id":"4","last_reported":1690391147,"current_range_meters":14800,"station_id":"ce4bh092rcd13ifvqd30","pricing_plan_id":"free"},{"bike_id":"a5a4650a-d677-495d-b886-26e2ea125055","system_id":"levelo_inurba_marseille","lat":43.301117,"lon":5.398795,"is_reserved":false,"is_disabled":false,"rental_uris":{"android":"levelo://app?vid=a5a4650a-d677-495d-b886-26e2ea125055","ios":"levelo://app?vid=a5a4650a-d677-495d-b886-26e2ea125055"},"vehicle_type_id":"4","last_reported":1690391147,"current_range_meters":4400,"station_id":"ce4bh0h2rcd13ifvqd40","pricing_plan_id":"free"},{"bike_id":"30f024bc-88db-45b1-a05d-e0396a27fed0","system_id":"levelo_inurba_marseille","lat":43.30642,"lon":5.40107,"is_reserved":false,"is_disabled":false,"rental_uris":{"android":"levelo://app?vid=30f024bc-88db-45b1-a05d-e0396a27fed0","ios":"levelo://app?vid=30f024bc-88db-45b1-a05d-e0396a27fed0"},"vehicle_type_id":"4","last_reported":1690391147,"current_range_meters":19200,"station_id":"ce4bh112rcd13ifvqda0","pricing_plan_id":"free"},{"bike_id":"a4d87b7b-66e8-40f2-816c-46df05d113f0","system_id":"levelo_inurba_marseille","lat":43.306412,"lon":5.401035,"is_reserved":false,"is_disabled":false,"rental_uris":{"android":"levelo://app?vid=a4d87b7b-66e8-40f2-816c-46df05d113f0","ios":"levelo://app?vid=a4d87b7b-66e8-40f2-816c-46df05d113f0"},"vehicle_type_id":"4","last_reported":1690391147,"current_range_meters":0,"station_id":"ce4bh112rcd13ifvqda0","pricing_plan_id":"free"},{"bike_id":"52f81e5d-bbe6-41a1-8a5e-d41baec2b7a0","system_id":"levelo_inurba_marseille","lat":43.298681,"lon":5.397225,"is_reserved":false,"is_disabled":false,"rental_uris":{"android":"levelo://app?vid=52f81e5d-bbe6-41a1-8a5e-d41baec2b7a0","ios":"levelo://app?vid=52f81e5d-bbe6-41a1-8a5e-d41baec2b7a0"},"vehicle_type_id":"4","last_reported":1690391147,"current_range_meters":29200,"station_id":"ce4bh0h2rcd13ifvqd50","pricing_plan_id":"free"},{"bike_id":"5a9ca24d-1c9b-4a00-a9b8-c128b49d65f0","system_id":"levelo_inurba_marseille","lat":43.298681,"lon":5.397225,"is_reserved":false,"is_disabled":false,"rental_uris":{"android":"levelo://app?vid=5a9ca24d-1c9b-4a00-a9b8-c128b49d65f0","ios":"levelo://app?vid=5a9ca24d-1c9b-4a00-a9b8-c128b49d65f0"},"vehicle_type_id":"4","last_reported":1690391147,"current_range_meters":30000,"station_id":"ce4bh0h2rcd13ifvqd50","pricing_plan_id":"free"},{"bike_id":"5b2bcbaf-82f8-43e1-b648-a8650fac8df0","system_id":"levelo_inurba_marseille","lat":43.28669,"lon":5.36358,"is_reserved":false,"is_disabled":false,"rental_uris":{"android":"levelo://app?vid=5b2bcbaf-82f8-43e1-b648-a8650fac8df0","ios":"levelo://app?vid=5b2bcbaf-82f8-43e1-b648-a8650fac8df0"},"vehicle_type_id":"4","last_reported":1690391147,"current_range_meters":19600,"station_id":"ce4bhah2rcd13ifvqej0","pricing_plan_id":"free"},{"bike_id":"b544d456-3ff3-4a8c-ac4c-ca86490e5e9c","system_id":"levelo_inurba_marseille","lat":43.298681,"lon":5.397225,"is_reserved":false,"is_disabled":false,"rental_uris":{"android":"levelo://app?vid=b544d456-3ff3-4a8c-ac4c-ca86490e5e9c","ios":"levelo://app?vid=b544d456-3ff3-4a8c-ac4c-ca86490e5e9c"},"vehicle_type_id":"4","last_reported":1690391147,"current_range_meters":7200,"station_id":"ce4bh0h2rcd13ifvqd50","pricing_plan_id":"free"},{"bike_id":"ac9c4490-0706-446e-82e5-e73370717b23","system_id":"levelo_inurba_marseille","lat":43.298681,"lon":5.397225,"is_reserved":false,"is_disabled":false,"rental_uris":{"android":"levelo://app?vid=ac9c4490-0706-446e-82e5-e73370717b23","ios":"levelo://app?vid=ac9c4490-0706-446e-82e5-e73370717b23"},"vehicle_type_id":"4","last_reported":1690391147,"current_range_meters":24400,"station_id":"ce4bh0h2rcd13ifvqd50","pricing_plan_id":"free"},{"bike_id":"453f22d6-9343-40e0-b015-7bdae8bb540a","system_id":"levelo_inurba_marseille","lat":43.286633,"lon":5.363506,"is_reserved":false,"is_disabled":false,"rental_uris":{"android":"levelo://app?vid=453f22d6-9343-40e0-b015-7bdae8bb540a","ios":"levelo://app?vid=453f22d6-9343-40e0-b015-7bdae8bb540a"},"vehicle_type_id":"4","last_reported":1690391147,"current_range_meters":24400,"station_id":"ce4bhah2rcd13ifvqej0","pricing_plan_id":"free"},{"bike_id":"75199276-b705-4ad7-b6a9-49aeaa84628a","system_id":"levelo_inurba_marseille","lat":43.286593,"lon":5.363346,"is_reserved":false,"is_disabled":false,"rental_uris":{"android":"levelo://app?vid=75199276-b705-4ad7-b6a9-49aeaa84628a","ios":"levelo://app?vid=75199276-b705-4ad7-b6a9-49aeaa84628a"},"vehicle_type_id":"4","last_reported":1690391147,"current_range_meters":32000,"station_id":"ce4bhah2rcd13ifvqej0","pricing_plan_id":"free"},{"bike_id":"344eb37c-0bdb-4fc5-8161-5cb93e4de0fa","system_id":"levelo_inurba_marseille","lat":43.286593,"lon":5.363346,"is_reserved":false,"is_disabled":false,"rental_uris":{"android":"levelo://app?vid=344eb37c-0bdb-4fc5-8161-5cb93e4de0fa","ios":"levelo://app?vid=344eb37c-0bdb-4fc5-8161-5cb93e4de0fa"},"vehicle_type_id":"4","last_reported":1690391147,"current_range_meters":7200,"station_id":"ce4bhah2rcd13ifvqej0","pricing_plan_id":"free"},{"bike_id":"e77b7c5f-05bc-4d6c-a53e-5014be2bb4a2","system_id":"levelo_inurba_marseille","lat":43.28659,"lon":5.36364,"is_reserved":false,"is_disabled":false,"rental_uris":{"android":"levelo://app?vid=e77b7c5f-05bc-4d6c-a53e-5014be2bb4a2","ios":"levelo://app?vid=e77b7c5f-05bc-4d6c-a53e-5014be2bb4a2"},"vehicle_type_id":"4","last_reported":1690391147,"current_range_meters":25600,"station_id":"ce4bhah2rcd13ifvqej0","pricing_plan_id":"free"},{"bike_id":"f326495c-830e-42c3-9dbe-c586f644a86e","system_id":"levelo_inurba_marseille","lat":43.286593,"lon":5.363346,"is_reserved":false,"is_disabled":false,"rental_uris":{"android":"levelo://app?vid=f326495c-830e-42c3-9dbe-c586f644a86e","ios":"levelo://app?vid=f326495c-830e-42c3-9dbe-c586f644a86e"},"vehicle_type_id":"4","last_reported":1690391147,"current_range_meters":0,"station_id":"ce4bhah2rcd13ifvqej0","pricing_plan_id":"free"},{"bike_id":"576b72d5-5a63-4d2f-9c2b-c8086b212cdf","system_id":"levelo_inurba_marseille","lat":43.298681,"lon":5.397225,"is_reserved":false,"is_disabled":false,"rental_uris":{"android":"levelo://app?vid=576b72d5-5a63-4d2f-9c2b-c8086b212cdf","ios":"levelo://app?vid=576b72d5-5a63-4d2f-9c2b-c8086b212cdf"},"vehicle_type_id":"4","last_reported":1690391147,"current_range_meters":7600,"station_id":"ce4bh0h2rcd13ifvqd50","pricing_plan_id":"free"},{"bike_id":"527d20a7-770b-4d5b-adbd-0cc43f0a8ae2","system_id":"levelo_inurba_marseille","lat":43.28654,"lon":5.36359,"is_reserved":false,"is_disabled":false,"rental_uris":{"android":"levelo://app?vid=527d20a7-770b-4d5b-adbd-0cc43f0a8ae2","ios":"levelo://app?vid=527d20a7-770b-4d5b-adbd-0cc43f0a8ae2"},"vehicle_type_id":"4","last_reported":1690391147,"current_range_meters":7600,"station_id":"ce4bhah2rcd13ifvqej0","pricing_plan_id":"free"},{"bike_id":"07930439-b4d0-453c-8dae-e8c833484e04","system_id":"levelo_inurba_marseille","lat":43.295196,"lon":5.39397,"is_reserved":false,"is_disabled":false,"rental_uris":{"android":"levelo://app?vid=07930439-b4d0-453c-8dae-e8c833484e04","ios":"levelo://app?vid=07930439-b4d0-453c-8dae-e8c833484e04"},"vehicle_type_id":"4","last_reported":1690391147,"current_range_meters":13600,"station_id":"ce4bh292rcd13ifvqdf0","pricing_plan_id":"free"},{"bike_id":"209afc9d-8c2d-41e0-bb20-ef2025d952aa","system_id":"levelo_inurba_marseille","lat":43.295196,"lon":5.39397,"is_reserved":false,"is_disabled":false,"rental_uris":{"android":"levelo://app?vid=209afc9d-8c2d-41e0-bb20-ef2025d952aa","ios":"levelo://app?vid=209afc9d-8c2d-41e0-bb20-ef2025d952aa"},"vehicle_type_id":"4","last_reported":1690391147,"current_range_meters":0,"station_id":"ce4bh292rcd13ifvqdf0","pricing_plan_id":"free"},{"bike_id":"49a9f8dd-8d8d-4916-ab4c-e0f43329f377","system_id":"levelo_inurba_marseille","lat":43.295196,"lon":5.39397,"is_reserved":false,"is_disabled":false,"rental_uris":{"android":"levelo://app?vid=49a9f8dd-8d8d-4916-ab4c-e0f43329f377","ios":"levelo://app?vid=49a9f8dd-8d8d-4916-ab4c-e0f43329f377"},"vehicle_type_id":"4","last_reported":1690391147,"current_range_meters":0,"station_id":"ce4bh292rcd13ifvqdf0","pricing_plan_id":"free"},{"bike_id":"8b21568d-3d8d-4193-8995-14902b370de8","system_id":"levelo_inurba_marseille","lat":43.298681,"lon":5.397225,"is_reserved":false,"is_disabled":false,"rental_uris":{"android":"levelo://app?vid=8b21568d-3d8d-4193-8995-14902b370de8","ios":"levelo://app?vid=8b21568d-3d8d-4193-8995-14902b370de8"},"vehicle_type_id":"4","last_reported":1690391147,"current_range_meters":24400,"station_id":"ce4bh0h2rcd13ifvqd50","pricing_plan_id":"free"},{"bike_id":"318627ef-0e86-4870-bb0c-3b4f1d23ad24","system_id":"levelo_inurba_marseille","lat":43.290345,"lon":5.38646,"is_reserved":false,"is_disabled":false,"rental_uris":{"android":"levelo://app?vid=318627ef-0e86-4870-bb0c-3b4f1d23ad24","ios":"levelo://app?vid=318627ef-0e86-4870-bb0c-3b4f1d23ad24"},"vehicle_type_id":"4","last_reported":1690391147,"current_range_meters":14800,"station_id":"ce4bh4p2rcd13ifvqe0g","pricing_plan_id":"free"},{"bike_id":"f182fb75-795a-40df-89b4-040cf8cd9b87","system_id":"levelo_inurba_marseille","lat":43.290336,"lon":5.386425,"is_reserved":false,"is_disabled":false,"rental_uris":{"android":"levelo://app?vid=f182fb75-795a-40df-89b4-040cf8cd9b87","ios":"levelo://app?vid=f182fb75-795a-40df-89b4-040cf8cd9b87"},"vehicle_type_id":"4","last_reported":1690391147,"current_range_meters":5200,"station_id":"ce4bh4p2rcd13ifvqe0g","pricing_plan_id":"free"},{"bike_id":"aac4ee12-7648-4dc9-95b4-1f52b78b46fb","system_id":"levelo_inurba_marseille","lat":43.302759,"lon":5.400793,"is_reserved":false,"is_disabled":false,"rental_uris":{"android":"levelo://app?vid=aac4ee12-7648-4dc9-95b4-1f52b78b46fb","ios":"levelo://app?vid=aac4ee12-7648-4dc9-95b4-1f52b78b46fb"},"vehicle_type_id":"4","last_reported":1690391147,"current_range_meters":20800,"station_id":"ce4bgvh2rcd13ifvqcs0","pricing_plan_id":"free"},{"bike_id":"496606e2-42dd-41e1-9ea1-fec6d7d664f8","system_id":"levelo_inurba_marseille","lat":43.302759,"lon":5.400793,"is_reserved":false,"is_disabled":false,"rental_uris":{"android":"levelo://app?vid=496606e2-42dd-41e1-9ea1-fec6d7d664f8","ios":"levelo://app?vid=496606e2-42dd-41e1-9ea1-fec6d7d664f8"},"vehicle_type_id":"4","last_reported":1690391147,"current_range_meters":23600,"station_id":"ce4bgvh2rcd13ifvqcs0","pricing_plan_id":"free"},{"bike_id":"e7c94b56-adb9-4a05-a3b8-280b1ebdb16b","system_id":"levelo_inurba_marseille","lat":43.290336,"lon":5.386425,"is_reserved":false,"is_disabled":false,"rental_uris":{"android":"levelo://app?vid=e7c94b56-adb9-4a05-a3b8-280b1ebdb16b","ios":"levelo://app?vid=e7c94b56-adb9-4a05-a3b8-280b1ebdb16b"},"vehicle_type_id":"4","last_reported":1690391147,"current_range_meters":12400,"station_id":"ce4bh4p2rcd13ifvqe0g","pricing_plan_id":"free"},{"bike_id":"e06bb43c-6899-46ae-9b91-8856cffe68cb","system_id":"levelo_inurba_marseille","lat":43.28605,"lon":5.37064,"is_reserved":false,"is_disabled":false,"rental_uris":{"android":"levelo://app?vid=e06bb43c-6899-46ae-9b91-8856cffe68cb","ios":"levelo://app?vid=e06bb43c-6899-46ae-9b91-8856cffe68cb"},"vehicle_type_id":"4","last_reported":1690391147,"current_range_meters":5200,"station_id":"ce4bht12rcd13ifvqi60","pricing_plan_id":"free"},{"bike_id":"69308482-8843-453f-8b1b-04701e58877e","system_id":"levelo_inurba_marseille","lat":43.28605,"lon":5.37071,"is_reserved":false,"is_disabled":false,"rental_uris":{"android":"levelo://app?vid=69308482-8843-453f-8b1b-04701e58877e","ios":"levelo://app?vid=69308482-8843-453f-8b1b-04701e58877e"},"vehicle_type_id":"4","last_reported":1690391147,"current_range_meters":19600,"station_id":"ce4bht12rcd13ifvqi60","pricing_plan_id":"free"},{"bike_id":"3c5f1cb8-79b4-40d2-be7a-59473cb80a57","system_id":"levelo_inurba_marseille","lat":43.287184,"lon":5.37937,"is_reserved":false,"is_disabled":false,"rental_uris":{"android":"levelo://app?vid=3c5f1cb8-79b4-40d2-be7a-59473cb80a57","ios":"levelo://app?vid=3c5f1cb8-79b4-40d2-be7a-59473cb80a57"},"vehicle_type_id":"4","last_reported":1690391147,"current_range_meters":11200,"station_id":"ce4bh9p2rcd13ifvqec0","pricing_plan_id":"free"},{"bike_id":"2a670b3d-d9d1-450d-a8e2-3f5bd5d3194a","system_id":"levelo_inurba_marseille","lat":43.28708,"lon":5.35191,"is_reserved":false,"is_disabled":false,"rental_uris":{"android":"levelo://app?vid=2a670b3d-d9d1-450d-a8e2-3f5bd5d3194a","ios":"levelo://app?vid=2a670b3d-d9d1-450d-a8e2-3f5bd5d3194a"},"vehicle_type_id":"4","last_reported":1690391147,"current_range_meters":24800,"station_id":"","pricing_plan_id":"free"},{"bike_id":"6827ebcb-b5a3-44d7-8b93-4c5661c1e6f8","system_id":"levelo_inurba_marseille","lat":43.291994,"lon":5.392907,"is_reserved":false,"is_disabled":false,"rental_uris":{"android":"levelo://app?vid=6827ebcb-b5a3-44d7-8b93-4c5661c1e6f8","ios":"levelo://app?vid=6827ebcb-b5a3-44d7-8b93-4c5661c1e6f8"},"vehicle_type_id":"4","last_reported":1690391147,"current_range_meters":28000,"station_id":"ce4bh192rcd13ifvqdd0","pricing_plan_id":"free"},{"bike_id":"06ae2890-1d94-4625-bf4d-c761ef075d64","system_id":"levelo_inurba_marseille","lat":43.284538,"lon":5.358657,"is_reserved":false,"is_disabled":false,"rental_uris":{"android":"levelo://app?vid=06ae2890-1d94-4625-bf4d-c761ef075d64","ios":"levelo://app?vid=06ae2890-1d94-4625-bf4d-c761ef075d64"},"vehicle_type_id":"4","last_reported":1690391147,"current_range_meters":21200,"station_id":"ce4bhah2rcd13ifvqei0","pricing_plan_id":"free"},{"bike_id":"8590bfd6-df9b-4b1c-8778-9bcfe4a42a51","system_id":"levelo_inurba_marseille","lat":43.284538,"lon":5.358657,"is_reserved":false,"is_disabled":false,"rental_uris":{"android":"levelo://app?vid=8590bfd6-df9b-4b1c-8778-9bcfe4a42a51","ios":"levelo://app?vid=8590bfd6-df9b-4b1c-8778-9bcfe4a42a51"},"vehicle_type_id":"4","last_reported":1690391147,"current_range_meters":5200,"station_id":"ce4bhah2rcd13ifvqei0","pricing_plan_id":"free"},{"bike_id":"c81ff3c8-fa2f-4c8e-a088-ffd11f2c999c","system_id":"levelo_inurba_marseille","lat":43.284534,"lon":5.358662,"is_reserved":false,"is_disabled":false,"rental_uris":{"android":"levelo://app?vid=c81ff3c8-fa2f-4c8e-a088-ffd11f2c999c","ios":"levelo://app?vid=c81ff3c8-fa2f-4c8e-a088-ffd11f2c999c"},"vehicle_type_id":"4","last_reported":1690391147,"current_range_meters":12800,"station_id":"ce4bhah2rcd13ifvqei0","pricing_plan_id":"free"},{"bike_id":"544ea47f-a0e9-492a-b7e5-0cf204c17bb8","system_id":"levelo_inurba_marseille","lat":43.284538,"lon":5.358657,"is_reserved":false,"is_disabled":false,"rental_uris":{"android":"levelo://app?vid=544ea47f-a0e9-492a-b7e5-0cf204c17bb8","ios":"levelo://app?vid=544ea47f-a0e9-492a-b7e5-0cf204c17bb8"},"vehicle_type_id":"4","last_reported":1690391147,"current_range_meters":24000,"station_id":"ce4bhah2rcd13ifvqei0","pricing_plan_id":"free"},{"bike_id":"c3c96391-f740-405c-b3dd-49a115daae81","system_id":"levelo_inurba_marseille","lat":43.294314,"lon":5.397498,"is_reserved":false,"is_disabled":false,"rental_uris":{"android":"levelo://app?vid=c3c96391-f740-405c-b3dd-49a115daae81","ios":"levelo://app?vid=c3c96391-f740-405c-b3dd-49a115daae81"},"vehicle_type_id":"4","last_reported":1690391147,"current_range_meters":24400,"station_id":"ce4bh3h2rcd13ifvqdo0","pricing_plan_id":"free"},{"bike_id":"67e70ccf-2cda-4a27-a998-6655914e827d","system_id":"levelo_inurba_marseille","lat":43.28622,"lon":5.35107,"is_reserved":false,"is_disabled":false,"rental_uris":{"android":"levelo://app?vid=67e70ccf-2cda-4a27-a998-6655914e827d","ios":"levelo://app?vid=67e70ccf-2cda-4a27-a998-6655914e827d"},"vehicle_type_id":"4","last_reported":1690391147,"current_range_meters":18400,"station_id":"ce4bhch2rcd13ifvqeug","pricing_plan_id":"free"},{"bike_id":"50b8b193-2376-4967-bdc7-e688dc33f851","system_id":"levelo_inurba_marseille","lat":43.28616,"lon":5.35112,"is_reserved":false,"is_disabled":false,"rental_uris":{"android":"levelo://app?vid=50b8b193-2376-4967-bdc7-e688dc33f851","ios":"levelo://app?vid=50b8b193-2376-4967-bdc7-e688dc33f851"},"vehicle_type_id":"4","last_reported":1690391147,"current_range_meters":7600,"station_id":"ce4bhch2rcd13ifvqeug","pricing_plan_id":"free"},{"bike_id":"bc88facb-c806-4de1-b985-059c40f8d48a","system_id":"levelo_inurba_marseille","lat":43.28617,"lon":5.35108,"is_reserved":false,"is_disabled":false,"rental_uris":{"android":"levelo://app?vid=bc88facb-c806-4de1-b985-059c40f8d48a","ios":"levelo://app?vid=bc88facb-c806-4de1-b985-059c40f8d48a"},"vehicle_type_id":"4","last_reported":1690391147,"current_range_meters":23600,"station_id":"ce4bhch2rcd13ifvqeug","pricing_plan_id":"free"},{"bike_id":"dcd72cbe-d34a-4fee-876c-cb4a18a7e9fe","system_id":"levelo_inurba_marseille","lat":43.28618,"lon":5.35103,"is_reserved":false,"is_disabled":false,"rental_uris":{"android":"levelo://app?vid=dcd72cbe-d34a-4fee-876c-cb4a18a7e9fe","ios":"levelo://app?vid=dcd72cbe-d34a-4fee-876c-cb4a18a7e9fe"},"vehicle_type_id":"4","last_reported":1690391147,"current_range_meters":3600,"station_id":"ce4bhch2rcd13ifvqeug","pricing_plan_id":"free"},{"bike_id":"df8f4996-5a53-4349-aa2c-7dc039430d7e","system_id":"levelo_inurba_marseille","lat":43.28617,"lon":5.35106,"is_reserved":false,"is_disabled":false,"rental_uris":{"android":"levelo://app?vid=df8f4996-5a53-4349-aa2c-7dc039430d7e","ios":"levelo://app?vid=df8f4996-5a53-4349-aa2c-7dc039430d7e"},"vehicle_type_id":"4","last_reported":1690391147,"current_range_meters":18400,"station_id":"ce4bhch2rcd13ifvqeug","pricing_plan_id":"free"},{"bike_id":"6873e775-c958-4fc7-bcdc-58a28a9ada40","system_id":"levelo_inurba_marseille","lat":43.28616,"lon":5.35109,"is_reserved":false,"is_disabled":false,"rental_uris":{"android":"levelo://app?vid=6873e775-c958-4fc7-bcdc-58a28a9ada40","ios":"levelo://app?vid=6873e775-c958-4fc7-bcdc-58a28a9ada40"},"vehicle_type_id":"4","last_reported":1690391147,"current_range_meters":8800,"station_id":"ce4bhch2rcd13ifvqeug","pricing_plan_id":"free"},{"bike_id":"c5fe1353-1067-4c39-a0cb-9712ed95a2c3","system_id":"levelo_inurba_marseille","lat":43.28617,"lon":5.35105,"is_reserved":false,"is_disabled":false,"rental_uris":{"android":"levelo://app?vid=c5fe1353-1067-4c39-a0cb-9712ed95a2c3","ios":"levelo://app?vid=c5fe1353-1067-4c39-a0cb-9712ed95a2c3"},"vehicle_type_id":"4","last_reported":1690391147,"current_range_meters":24400,"station_id":"ce4bhch2rcd13ifvqeug","pricing_plan_id":"free"},{"bike_id":"3078561d-2bf8-4357-8ab8-8a2bcf53b3cf","system_id":"levelo_inurba_marseille","lat":43.28613,"lon":5.35117,"is_reserved":false,"is_disabled":false,"rental_uris":{"android":"levelo://app?vid=3078561d-2bf8-4357-8ab8-8a2bcf53b3cf","ios":"levelo://app?vid=3078561d-2bf8-4357-8ab8-8a2bcf53b3cf"},"vehicle_type_id":"4","last_reported":1690391147,"current_range_meters":10800,"station_id":"ce4bhch2rcd13ifvqeug","pricing_plan_id":"free"},{"bike_id":"9a5dea4a-58b8-4ca5-911a-38f44477b398","system_id":"levelo_inurba_marseille","lat":43.28616,"lon":5.35105,"is_reserved":false,"is_disabled":false,"rental_uris":{"android":"levelo://app?vid=9a5dea4a-58b8-4ca5-911a-38f44477b398","ios":"levelo://app?vid=9a5dea4a-58b8-4ca5-911a-38f44477b398"},"vehicle_type_id":"4","last_reported":1690391147,"current_range_meters":4400,"station_id":"ce4bhch2rcd13ifvqeug","pricing_plan_id":"free"},{"bike_id":"691d8053-da59-4c12-bfec-0fd419abbf6e","system_id":"levelo_inurba_marseille","lat":43.28616,"lon":5.35104,"is_reserved":false,"is_disabled":false,"rental_uris":{"android":"levelo://app?vid=691d8053-da59-4c12-bfec-0fd419abbf6e","ios":"levelo://app?vid=691d8053-da59-4c12-bfec-0fd419abbf6e"},"vehicle_type_id":"4","last_reported":1690391147,"current_range_meters":26400,"station_id":"ce4bhch2rcd13ifvqeug","pricing_plan_id":"free"},{"bike_id":"c412d383-7948-4459-b662-e04be85af42c","system_id":"levelo_inurba_marseille","lat":43.28616,"lon":5.35104,"is_reserved":false,"is_disabled":false,"rental_uris":{"android":"levelo://app?vid=c412d383-7948-4459-b662-e04be85af42c","ios":"levelo://app?vid=c412d383-7948-4459-b662-e04be85af42c"},"vehicle_type_id":"4","last_reported":1690391147,"current_range_meters":30800,"station_id":"ce4bhch2rcd13ifvqeug","pricing_plan_id":"free"},{"bike_id":"3a0f6600-cc27-4510-80a9-80ea4023be2b","system_id":"levelo_inurba_marseille","lat":43.28615,"lon":5.35107,"is_reserved":false,"is_disabled":false,"rental_uris":{"android":"levelo://app?vid=3a0f6600-cc27-4510-80a9-80ea4023be2b","ios":"levelo://app?vid=3a0f6600-cc27-4510-80a9-80ea4023be2b"},"vehicle_type_id":"4","last_reported":1690391147,"current_range_meters":9200,"station_id":"ce4bhch2rcd13ifvqeug","pricing_plan_id":"free"},{"bike_id":"71412cbc-997a-4ae3-88f9-3c1094138001","system_id":"levelo_inurba_marseille","lat":43.28617,"lon":5.351,"is_reserved":false,"is_disabled":false,"rental_uris":{"android":"levelo://app?vid=71412cbc-997a-4ae3-88f9-3c1094138001","ios":"levelo://app?vid=71412cbc-997a-4ae3-88f9-3c1094138001"},"vehicle_type_id":"4","last_reported":1690391147,"current_range_meters":12800,"station_id":"ce4bhch2rcd13ifvqeug","pricing_plan_id":"free"},{"bike_id":"5000de5e-c45f-4fcc-91e0-eefa60a2b2d6","system_id":"levelo_inurba_marseille","lat":43.28617,"lon":5.351,"is_reserved":false,"is_disabled":false,"rental_uris":{"android":"levelo://app?vid=5000de5e-c45f-4fcc-91e0-eefa60a2b2d6","ios":"levelo://app?vid=5000de5e-c45f-4fcc-91e0-eefa60a2b2d6"},"vehicle_type_id":"4","last_reported":1690391147,"current_range_meters":22400,"station_id":"ce4bhch2rcd13ifvqeug","pricing_plan_id":"free"},{"bike_id":"78a707f0-8bbc-4486-9f6f-581fe9911aa9","system_id":"levelo_inurba_marseille","lat":43.28616,"lon":5.351,"is_reserved":false,"is_disabled":false,"rental_uris":{"android":"levelo://app?vid=78a707f0-8bbc-4486-9f6f-581fe9911aa9","ios":"levelo://app?vid=78a707f0-8bbc-4486-9f6f-581fe9911aa9"},"vehicle_type_id":"4","last_reported":1690391147,"current_range_meters":4800,"station_id":"ce4bhch2rcd13ifvqeug","pricing_plan_id":"free"},{"bike_id":"642daaf1-675a-46fd-9ae4-31e9be6a480c","system_id":"levelo_inurba_marseille","lat":43.285848,"lon":5.350787,"is_reserved":false,"is_disabled":false,"rental_uris":{"android":"levelo://app?vid=642daaf1-675a-46fd-9ae4-31e9be6a480c","ios":"levelo://app?vid=642daaf1-675a-46fd-9ae4-31e9be6a480c"},"vehicle_type_id":"4","last_reported":1690391147,"current_range_meters":2800,"station_id":"ce4bhch2rcd13ifvqeug","pricing_plan_id":"free"},{"bike_id":"0e115af2-cd8f-4747-b7ee-311f86667dfa","system_id":"levelo_inurba_marseille","lat":43.28615,"lon":5.35098,"is_reserved":false,"is_disabled":false,"rental_uris":{"android":"levelo://app?vid=0e115af2-cd8f-4747-b7ee-311f86667dfa","ios":"levelo://app?vid=0e115af2-cd8f-4747-b7ee-311f86667dfa"},"vehicle_type_id":"4","last_reported":1690391147,"current_range_meters":26800,"station_id":"ce4bhch2rcd13ifvqeug","pricing_plan_id":"free"},{"bike_id":"bdc51481-cde8-4114-991f-2e84fb8d552b","system_id":"levelo_inurba_marseille","lat":43.28614,"lon":5.351,"is_reserved":false,"is_disabled":false,"rental_uris":{"android":"levelo://app?vid=bdc51481-cde8-4114-991f-2e84fb8d552b","ios":"levelo://app?vid=bdc51481-cde8-4114-991f-2e84fb8d552b"},"vehicle_type_id":"4","last_reported":1690391147,"current_range_meters":5600,"station_id":"ce4bhch2rcd13ifvqeug","pricing_plan_id":"free"},{"bike_id":"0649821e-e7f8-4e5d-ae8b-3eb663e30597","system_id":"levelo_inurba_marseille","lat":43.28613,"lon":5.35103,"is_reserved":false,"is_disabled":false,"rental_uris":{"android":"levelo://app?vid=0649821e-e7f8-4e5d-ae8b-3eb663e30597","ios":"levelo://app?vid=0649821e-e7f8-4e5d-ae8b-3eb663e30597"},"vehicle_type_id":"4","last_reported":1690391147,"current_range_meters":9600,"station_id":"ce4bhch2rcd13ifvqeug","pricing_plan_id":"free"},{"bike_id":"42c78300-0ccb-466b-b8ac-a102e8b462a3","system_id":"levelo_inurba_marseille","lat":43.28612,"lon":5.35104,"is_reserved":false,"is_disabled":false,"rental_uris":{"android":"levelo://app?vid=42c78300-0ccb-466b-b8ac-a102e8b462a3","ios":"levelo://app?vid=42c78300-0ccb-466b-b8ac-a102e8b462a3"},"vehicle_type_id":"4","last_reported":1690391147,"current_range_meters":5600,"station_id":"ce4bhch2rcd13ifvqeug","pricing_plan_id":"free"},{"bike_id":"5d332a43-e85c-4b3d-ba83-c1bd2587af6a","system_id":"levelo_inurba_marseille","lat":43.2861,"lon":5.35106,"is_reserved":false,"is_disabled":false,"rental_uris":{"android":"levelo://app?vid=5d332a43-e85c-4b3d-ba83-c1bd2587af6a","ios":"levelo://app?vid=5d332a43-e85c-4b3d-ba83-c1bd2587af6a"},"vehicle_type_id":"4","last_reported":1690391147,"current_range_meters":9200,"station_id":"ce4bhch2rcd13ifvqeug","pricing_plan_id":"free"},{"bike_id":"c8a22976-f4db-4aaa-9d28-bee5e4511621","system_id":"levelo_inurba_marseille","lat":43.295713,"lon":5.399639,"is_reserved":false,"is_disabled":false,"rental_uris":{"android":"levelo://app?vid=c8a22976-f4db-4aaa-9d28-bee5e4511621","ios":"levelo://app?vid=c8a22976-f4db-4aaa-9d28-bee5e4511621"},"vehicle_type_id":"4","last_reported":1690391147,"current_range_meters":4800,"station_id":"ce4bh312rcd13ifvqdj0","pricing_plan_id":"free"},{"bike_id":"205c0203-1b12-4087-b3cf-c88c50528ad8","system_id":"levelo_inurba_marseille","lat":43.28359,"lon":5.37505,"is_reserved":false,"is_disabled":false,"rental_uris":{"android":"levelo://app?vid=205c0203-1b12-4087-b3cf-c88c50528ad8","ios":"levelo://app?vid=205c0203-1b12-4087-b3cf-c88c50528ad8"},"vehicle_type_id":"4","last_reported":1690391147,"current_range_meters":5200,"station_id":"ce4bht12rcd13ifvqi60","pricing_plan_id":"free"},{"bike_id":"b7ddb78f-c2be-4e79-a6c7-ba1e807d9e75","system_id":"levelo_inurba_marseille","lat":43.286595,"lon":5.386795,"is_reserved":false,"is_disabled":false,"rental_uris":{"android":"levelo://app?vid=b7ddb78f-c2be-4e79-a6c7-ba1e807d9e75","ios":"levelo://app?vid=b7ddb78f-c2be-4e79-a6c7-ba1e807d9e75"},"vehicle_type_id":"4","last_reported":1690391147,"current_range_meters":12400,"station_id":"ce4bh492rcd13ifvqdug","pricing_plan_id":"free"},{"bike_id":"1a4f2712-fd15-4d1a-8e3a-506cdf0dfff9","system_id":"levelo_inurba_marseille","lat":43.31892,"lon":5.40731,"is_reserved":false,"is_disabled":false,"rental_uris":{"android":"levelo://app?vid=1a4f2712-fd15-4d1a-8e3a-506cdf0dfff9","ios":"levelo://app?vid=1a4f2712-fd15-4d1a-8e3a-506cdf0dfff9"},"vehicle_type_id":"4","last_reported":1690391147,"current_range_meters":12400,"station_id":"ce4bhq12rcd13ifvqhig","pricing_plan_id":"free"},{"bike_id":"3989120f-0612-491a-a2e6-f44972e1c048","system_id":"levelo_inurba_marseille","lat":43.319179,"lon":5.407725,"is_reserved":false,"is_disabled":false,"rental_uris":{"android":"levelo://app?vid=3989120f-0612-491a-a2e6-f44972e1c048","ios":"levelo://app?vid=3989120f-0612-491a-a2e6-f44972e1c048"},"vehicle_type_id":"4","last_reported":1690391147,"current_range_meters":27600,"station_id":"ce4bhq12rcd13ifvqhig","pricing_plan_id":"free"},{"bike_id":"2dd96026-62cc-4f69-8d1c-a283ff91fc30","system_id":"levelo_inurba_marseille","lat":43.31884,"lon":5.40739,"is_reserved":false,"is_disabled":false,"rental_uris":{"android":"levelo://app?vid=2dd96026-62cc-4f69-8d1c-a283ff91fc30","ios":"levelo://app?vid=2dd96026-62cc-4f69-8d1c-a283ff91fc30"},"vehicle_type_id":"4","last_reported":1690391147,"current_range_meters":17200,"station_id":"ce4bhq12rcd13ifvqhig","pricing_plan_id":"free"},{"bike_id":"cc3eab38-9c21-4228-b321-5f66510d7666","system_id":"levelo_inurba_marseille","lat":43.323464,"lon":5.406297,"is_reserved":false,"is_disabled":false,"rental_uris":{"android":"levelo://app?vid=cc3eab38-9c21-4228-b321-5f66510d7666","ios":"levelo://app?vid=cc3eab38-9c21-4228-b321-5f66510d7666"},"vehicle_type_id":"4","last_reported":1690391147,"current_range_meters":31200,"station_id":"ce4bhq92rcd13ifvqhjg","pricing_plan_id":"free"},{"bike_id":"b1d92be6-55f5-4a33-90f4-3e6b93c54cf5","system_id":"levelo_inurba_marseille","lat":43.323464,"lon":5.406297,"is_reserved":false,"is_disabled":false,"rental_uris":{"android":"levelo://app?vid=b1d92be6-55f5-4a33-90f4-3e6b93c54cf5","ios":"levelo://app?vid=b1d92be6-55f5-4a33-90f4-3e6b93c54cf5"},"vehicle_type_id":"4","last_reported":1690391147,"current_range_meters":31200,"station_id":"ce4bhq92rcd13ifvqhjg","pricing_plan_id":"free"},{"bike_id":"daf5c173-8750-4032-9d0a-576e949b4483","system_id":"levelo_inurba_marseille","lat":43.284793,"lon":5.384113,"is_reserved":false,"is_disabled":false,"rental_uris":{"android":"levelo://app?vid=daf5c173-8750-4032-9d0a-576e949b4483","ios":"levelo://app?vid=daf5c173-8750-4032-9d0a-576e949b4483"},"vehicle_type_id":"4","last_reported":1690391147,"current_range_meters":26800,"station_id":"ce4bh512rcd13ifvqe3g","pricing_plan_id":"free"},{"bike_id":"8ef4529d-e08e-48b0-9b4f-fa111ac2fa5a","system_id":"levelo_inurba_marseille","lat":43.28481,"lon":5.38408,"is_reserved":false,"is_disabled":false,"rental_uris":{"android":"levelo://app?vid=8ef4529d-e08e-48b0-9b4f-fa111ac2fa5a","ios":"levelo://app?vid=8ef4529d-e08e-48b0-9b4f-fa111ac2fa5a"},"vehicle_type_id":"4","last_reported":1690391147,"current_range_meters":2400,"station_id":"ce4bh512rcd13ifvqe3g","pricing_plan_id":"free"},{"bike_id":"4817e239-67e1-4cf3-b49e-c866bbaa2e21","system_id":"levelo_inurba_marseille","lat":43.298837,"lon":5.402334,"is_reserved":false,"is_disabled":false,"rental_uris":{"android":"levelo://app?vid=4817e239-67e1-4cf3-b49e-c866bbaa2e21","ios":"levelo://app?vid=4817e239-67e1-4cf3-b49e-c866bbaa2e21"},"vehicle_type_id":"4","last_reported":1690391147,"current_range_meters":4000,"station_id":"ce4bh112rcd13ifvqd90","pricing_plan_id":"free"},{"bike_id":"2cf64928-5c47-4962-b845-abed4dcdd284","system_id":"levelo_inurba_marseille","lat":43.288497,"lon":5.393089,"is_reserved":false,"is_disabled":false,"rental_uris":{"android":"levelo://app?vid=2cf64928-5c47-4962-b845-abed4dcdd284","ios":"levelo://app?vid=2cf64928-5c47-4962-b845-abed4dcdd284"},"vehicle_type_id":"4","last_reported":1690391147,"current_range_meters":18800,"station_id":"ce4bh2p2rcd13ifvqdi0","pricing_plan_id":"free"},{"bike_id":"9be5d500-1e01-48a3-a31c-a8bce9e7012d","system_id":"levelo_inurba_marseille","lat":43.283494,"lon":5.380945,"is_reserved":false,"is_disabled":false,"rental_uris":{"android":"levelo://app?vid=9be5d500-1e01-48a3-a31c-a8bce9e7012d","ios":"levelo://app?vid=9be5d500-1e01-48a3-a31c-a8bce9e7012d"},"vehicle_type_id":"4","last_reported":1690391147,"current_range_meters":15600,"station_id":"ce4bh412rcd13ifvqdr0","pricing_plan_id":"free"},{"bike_id":"e18d4331-1dc7-4431-a607-7310490d34d4","system_id":"levelo_inurba_marseille","lat":43.28431,"lon":5.34986,"is_reserved":false,"is_disabled":false,"rental_uris":{"android":"levelo://app?vid=e18d4331-1dc7-4431-a607-7310490d34d4","ios":"levelo://app?vid=e18d4331-1dc7-4431-a607-7310490d34d4"},"vehicle_type_id":"4","last_reported":1690391147,"current_range_meters":10000,"station_id":"ce4bhbh2rcd13ifvqepg","pricing_plan_id":"free"},{"bike_id":"e457fd02-2329-4ad2-b04d-9ae2ece55d5e","system_id":"levelo_inurba_marseille","lat":43.2843,"lon":5.34979,"is_reserved":false,"is_disabled":false,"rental_uris":{"android":"levelo://app?vid=e457fd02-2329-4ad2-b04d-9ae2ece55d5e","ios":"levelo://app?vid=e457fd02-2329-4ad2-b04d-9ae2ece55d5e"},"vehicle_type_id":"4","last_reported":1690391147,"current_range_meters":30000,"station_id":"ce4bhbh2rcd13ifvqepg","pricing_plan_id":"free"},{"bike_id":"ed03d56e-ef33-4668-a536-750de42e24e8","system_id":"levelo_inurba_marseille","lat":43.28426,"lon":5.3499,"is_reserved":false,"is_disabled":false,"rental_uris":{"android":"levelo://app?vid=ed03d56e-ef33-4668-a536-750de42e24e8","ios":"levelo://app?vid=ed03d56e-ef33-4668-a536-750de42e24e8"},"vehicle_type_id":"4","last_reported":1690391147,"current_range_meters":22800,"station_id":"ce4bhbh2rcd13ifvqepg","pricing_plan_id":"free"},{"bike_id":"fe59550c-b75a-4e36-afec-8ec1ced3ab1c","system_id":"levelo_inurba_marseille","lat":43.284219,"lon":5.3497,"is_reserved":false,"is_disabled":false,"rental_uris":{"android":"levelo://app?vid=fe59550c-b75a-4e36-afec-8ec1ced3ab1c","ios":"levelo://app?vid=fe59550c-b75a-4e36-afec-8ec1ced3ab1c"},"vehicle_type_id":"4","last_reported":1690391147,"current_range_meters":31600,"station_id":"ce4bhbh2rcd13ifvqepg","pricing_plan_id":"free"},{"bike_id":"4dacf7b2-3858-411b-913c-326de740a593","system_id":"levelo_inurba_marseille","lat":43.284219,"lon":5.3497,"is_reserved":false,"is_disabled":false,"rental_uris":{"android":"levelo://app?vid=4dacf7b2-3858-411b-913c-326de740a593","ios":"levelo://app?vid=4dacf7b2-3858-411b-913c-326de740a593"},"vehicle_type_id":"4","last_reported":1690391147,"current_range_meters":20800,"station_id":"ce4bhbh2rcd13ifvqepg","pricing_plan_id":"free"},{"bike_id":"97dd8153-5105-4860-ba62-bd814ec7737d","system_id":"levelo_inurba_marseille","lat":43.284217,"lon":5.349697,"is_reserved":false,"is_disabled":false,"rental_uris":{"android":"levelo://app?vid=97dd8153-5105-4860-ba62-bd814ec7737d","ios":"levelo://app?vid=97dd8153-5105-4860-ba62-bd814ec7737d"},"vehicle_type_id":"4","last_reported":1690391147,"current_range_meters":30000,"station_id":"ce4bhbh2rcd13ifvqepg","pricing_plan_id":"free"},{"bike_id":"3bae8031-105b-4648-9a6d-f096ea965fca","system_id":"levelo_inurba_marseille","lat":43.284219,"lon":5.3497,"is_reserved":false,"is_disabled":false,"rental_uris":{"android":"levelo://app?vid=3bae8031-105b-4648-9a6d-f096ea965fca","ios":"levelo://app?vid=3bae8031-105b-4648-9a6d-f096ea965fca"},"vehicle_type_id":"4","last_reported":1690391147,"current_range_meters":29600,"station_id":"ce4bhbh2rcd13ifvqepg","pricing_plan_id":"free"},{"bike_id":"f95afa72-795f-45e6-98ba-11ec4f2298bc","system_id":"levelo_inurba_marseille","lat":43.28423,"lon":5.34983,"is_reserved":false,"is_disabled":false,"rental_uris":{"android":"levelo://app?vid=f95afa72-795f-45e6-98ba-11ec4f2298bc","ios":"levelo://app?vid=f95afa72-795f-45e6-98ba-11ec4f2298bc"},"vehicle_type_id":"4","last_reported":1690391147,"current_range_meters":30000,"station_id":"ce4bhbh2rcd13ifvqepg","pricing_plan_id":"free"},{"bike_id":"b087ddaf-3a7c-4c6f-8138-d159163f1ba9","system_id":"levelo_inurba_marseille","lat":43.28425,"lon":5.34976,"is_reserved":false,"is_disabled":false,"rental_uris":{"android":"levelo://app?vid=b087ddaf-3a7c-4c6f-8138-d159163f1ba9","ios":"levelo://app?vid=b087ddaf-3a7c-4c6f-8138-d159163f1ba9"},"vehicle_type_id":"4","last_reported":1690391147,"current_range_meters":21200,"station_id":"ce4bhbh2rcd13ifvqepg","pricing_plan_id":"free"},{"bike_id":"b36bccd7-a37e-4951-afec-9113e2f3084d","system_id":"levelo_inurba_marseille","lat":43.284219,"lon":5.3497,"is_reserved":false,"is_disabled":false,"rental_uris":{"android":"levelo://app?vid=b36bccd7-a37e-4951-afec-9113e2f3084d","ios":"levelo://app?vid=b36bccd7-a37e-4951-afec-9113e2f3084d"},"vehicle_type_id":"4","last_reported":1690391147,"current_range_meters":29600,"station_id":"ce4bhbh2rcd13ifvqepg","pricing_plan_id":"free"},{"bike_id":"f4928600-79a9-420c-9e06-9fbcc932921a","system_id":"levelo_inurba_marseille","lat":43.28423,"lon":5.34979,"is_reserved":false,"is_disabled":false,"rental_uris":{"android":"levelo://app?vid=f4928600-79a9-420c-9e06-9fbcc932921a","ios":"levelo://app?vid=f4928600-79a9-420c-9e06-9fbcc932921a"},"vehicle_type_id":"4","last_reported":1690391147,"current_range_meters":13600,"station_id":"ce4bhbh2rcd13ifvqepg","pricing_plan_id":"free"},{"bike_id":"607ccf8e-ddd5-45d8-ba13-baa8b64e0505","system_id":"levelo_inurba_marseille","lat":43.28423,"lon":5.34979,"is_reserved":false,"is_disabled":false,"rental_uris":{"android":"levelo://app?vid=607ccf8e-ddd5-45d8-ba13-baa8b64e0505","ios":"levelo://app?vid=607ccf8e-ddd5-45d8-ba13-baa8b64e0505"},