{"last_updated":1700312835,"ttl":30,"version":"2.2","data":{"bikes":[{"bike_id":"d2c47ab4-9797-4ade-8c27-6e95beba7fdb","system_id":"levelo_inurba_marseille","lat":43.312239,"lon":5.368562,"is_reserved":false,"is_disabled":false,"rental_uris":{"android":"levelo://app?vid=d2c47ab4-9797-4ade-8c27-6e95beba7fdb","ios":"levelo://app?vid=d2c47ab4-9797-4ade-8c27-6e95beba7fdb"},"vehicle_type_id":"4","last_reported":1700312835,"current_range_meters":16000,"station_id":"ce4bgl92rcd13ifvqbq0","pricing_plan_id":"free"},{"bike_id":"16d035ca-b1f1-475b-b3c0-c87e3fc459b1","system_id":"levelo_inurba_marseille","lat":43.312239,"lon":5.368562,"is_reserved":false,"is_disabled":false,"rental_uris":{"android":"levelo://app?vid=16d035ca-b1f1-475b-b3c0-c87e3fc459b1","ios":"levelo://app?vid=16d035ca-b1f1-475b-b3c0-c87e3fc459b1"},"vehicle_type_id":"4","last_reported":1700312835,"current_range_meters":19200,"station_id":"ce4bgl92rcd13ifvqbq0","pricing_plan_id":"free"},{"bike_id":"6cee74a9-2968-4453-bf4c-26e8f0f8ebdf","system_id":"levelo_inurba_marseille","lat":43.312239,"lon":5.368562,"is_reserved":false,"is_disabled":false,"rental_uris":{"android":"levelo://app?vid=6cee74a9-2968-4453-bf4c-26e8f0f8ebdf","ios":"levelo://app?vid=6cee74a9-2968-4453-bf4c-26e8f0f8ebdf"},"vehicle_type_id":"4","last_reported":1700312835,"current_range_meters":30800,"station_id":"ce4bgl92rcd13ifvqbq0","pricing_plan_id":"free"},{"bike_id":"09477c03-ff7c-4c4f-a68c-b03e9375aa81","system_id":"levelo_inurba_marseille","lat":43.312239,"lon":5.368562,"is_reserved":false,"is_disabled":false,"rental_uris":{"android":"levelo://app?vid=09477c03-ff7c-4c4f-a68c-b03e9375aa81","ios":"levelo://app?vid=09477c03-ff7c-4c4f-a68c-b03e9375aa81"},"vehicle_type_id":"4","last_reported":1700312835,"current_range_meters":24000,"station_id":"ce4bgl92rcd13ifvqbq0","pricing_plan_id":"free"},{"bike_id":"943dfc2f-eec4-44b8-ae3a-bf8f278b58c3","system_id":"levelo_inurba_marseille","lat":43.311557,"lon":5.368838,"is_reserved":false,"is_disabled":false,"rental_uris":{"android":"levelo://app?vid=943dfc2f-eec4-44b8-ae3a-bf8f278b58c3","ios":"levelo://app?vid=943dfc2f-eec4-44b8-ae3a-bf8f278b58c3"},"vehicle_type_id":"4","last_reported":1700312835,"current_range_meters":800,"station_id":"","pricing_plan_id":"free"},{"bike_id":"3475d204-43b6-43d9-b615-ca1d0d58200e","system_id":"levelo_inurba_marseille","lat":43.30679,"lon":5.3679,"is_reserved":false,"is_disabled":false,"rental_uris":{"android":"levelo://app?vid=3475d204-43b6-43d9-b615-ca1d0d58200e","ios":"levelo://app?vid=3475d204-43b6-43d9-b615-ca1d0d58200e"},"vehicle_type_id":"4","last_reported":1700312835,"current_range_meters":14800,"station_id":"","pricing_plan_id":"free"},{"bike_id":"c89b6022-0b04-44f0-bb8d-00b8bddaa14f","system_id":"levelo_inurba_marseille","lat":43.31948,"lon":5.37103,"is_reserved":false,"is_disabled":false,"rental_uris":{"android":"levelo://app?vid=c89b6022-0b04-44f0-bb8d-00b8bddaa14f","ios":"levelo://app?vid=c89b6022-0b04-44f0-bb8d-00b8bddaa14f"},"vehicle_type_id":"4","last_reported":1700312835,"current_range_meters":5200,"station_id":"","pricing_plan_id":"free"},{"bike_id":"73f340a1-a03a-455a-ac52-c7602fa166d6","system_id":"levelo_inurba_marseille","lat":43.305714,"lon":5.365633,"is_reserved":false,"is_disabled":false,"rental_uris":{"android":"levelo://app?vid=73f340a1-a03a-455a-ac52-c7602fa166d6","ios":"levelo://app?vid=73f340a1-a03a-455a-ac52-c7602fa166d6"},"vehicle_type_id":"4","last_reported":1700312835,"current_range_meters":2000,"station_id":"ce4bgs12rcd13ifvqcag","pricing_plan_id":"free"},{"bike_id":"4b3a6261-223c-45f9-95f6-3054833ee351","system_id":"levelo_inurba_marseille","lat":43.30532,"lon":5.36708,"is_reserved":false,"is_disabled":false,"rental_uris":{"android":"levelo://app?vid=4b3a6261-223c-45f9-95f6-3054833ee351","ios":"levelo://app?vid=4b3a6261-223c-45f9-95f6-3054833ee351"},"vehicle_type_id":"4","last_reported":1700312835,"current_range_meters":0,"station_id":"ce4bgrp2rcd13ifvqc9g","pricing_plan_id":"free"},{"bike_id":"ec3ffc0a-6e93-4e9a-9ea9-1f7b180a39bb","system_id":"levelo_inurba_marseille","lat":43.30538,"lon":5.36531,"is_reserved":false,"is_disabled":false,"rental_uris":{"android":"levelo://app?vid=ec3ffc0a-6e93-4e9a-9ea9-1f7b180a39bb","ios":"levelo://app?vid=ec3ffc0a-6e93-4e9a-9ea9-1f7b180a39bb"},"vehicle_type_id":"4","last_reported":1700312835,"current_range_meters":26400,"station_id":"ce4bgs12rcd13ifvqcag","pricing_plan_id":"free"},{"bike_id":"23f1067f-f3ed-4108-86f2-744cbb95aadc","system_id":"levelo_inurba_marseille","lat":43.305989,"lon":5.37225,"is_reserved":false,"is_disabled":false,"rental_uris":{"android":"levelo://app?vid=23f1067f-f3ed-4108-86f2-744cbb95aadc","ios":"levelo://app?vid=23f1067f-f3ed-4108-86f2-744cbb95aadc"},"vehicle_type_id":"4","last_reported":1700312835,"current_range_meters":0,"station_id":"ce4bgqh2rcd13ifvqc4g","pricing_plan_id":"free"},{"bike_id":"8ae96e16-d734-497a-abb3-11d88732f9b0","system_id":"levelo_inurba_marseille","lat":43.305989,"lon":5.37225,"is_reserved":false,"is_disabled":false,"rental_uris":{"android":"levelo://app?vid=8ae96e16-d734-497a-abb3-11d88732f9b0","ios":"levelo://app?vid=8ae96e16-d734-497a-abb3-11d88732f9b0"},"vehicle_type_id":"4","last_reported":1700312835,"current_range_meters":7600,"station_id":"ce4bgqh2rcd13ifvqc4g","pricing_plan_id":"free"},{"bike_id":"6433dbe6-47e9-4f76-a501-46c1e97138aa","system_id":"levelo_inurba_marseille","lat":43.305989,"lon":5.37225,"is_reserved":false,"is_disabled":false,"rental_uris":{"android":"levelo://app?vid=6433dbe6-47e9-4f76-a501-46c1e97138aa","ios":"levelo://app?vid=6433dbe6-47e9-4f76-a501-46c1e97138aa"},"vehicle_type_id":"4","last_reported":1700312835,"current_range_meters":16000,"station_id":"ce4bgqh2rcd13ifvqc4g","pricing_plan_id":"free"},{"bike_id":"b97593e6-c58e-4a67-a9d8-de9956ac2519","system_id":"levelo_inurba_marseille","lat":43.305989,"lon":5.37225,"is_reserved":false,"is_disabled":false,"rental_uris":{"android":"levelo://app?vid=b97593e6-c58e-4a67-a9d8-de9956ac2519","ios":"levelo://app?vid=b97593e6-c58e-4a67-a9d8-de9956ac2519"},"vehicle_type_id":"4","last_reported":1700312835,"current_range_meters":16400,"station_id":"ce4bgqh2rcd13ifvqc4g","pricing_plan_id":"free"},{"bike_id":"8d48d154-4dbb-4931-b2d4-2837ef657a88","system_id":"levelo_inurba_marseille","lat":43.305989,"lon":5.37225,"is_reserved":false,"is_disabled":false,"rental_uris":{"android":"levelo://app?vid=8d48d154-4dbb-4931-b2d4-2837ef657a88","ios":"levelo://app?vid=8d48d154-4dbb-4931-b2d4-2837ef657a88"},"vehicle_type_id":"4","last_reported":1700312835,"current_range_meters":16800,"station_id":"ce4bgqh2rcd13ifvqc4g","pricing_plan_id":"free"},{"bike_id":"2d49cb03-7339-4a21-98db-beedb60a2a4c","system_id":"levelo_inurba_marseille","lat":43.30484,"lon":5.37046,"is_reserved":false,"is_disabled":false,"rental_uris":{"android":"levelo://app?vid=2d49cb03-7339-4a21-98db-beedb60a2a4c","ios":"levelo://app?vid=2d49cb03-7339-4a21-98db-beedb60a2a4c"},"vehicle_type_id":"4","last_reported":1700312835,"current_range_meters":0,"station_id":"","pricing_plan_id":"free"},{"bike_id":"dcbf9c93-0758-41cf-8699-4ede01d69428","system_id":"levelo_inurba_marseille","lat":43.308194,"lon":5.37653,"is_reserved":false,"is_disabled":false,"rental_uris":{"android":"levelo://app?vid=dcbf9c93-0758-41cf-8699-4ede01d69428","ios":"levelo://app?vid=dcbf9c93-0758-41cf-8699-4ede01d69428"},"vehicle_type_id":"4","last_reported":1700312835,"current_range_meters":16000,"station_id":"ce4bgv92rcd13ifvqcq0","pricing_plan_id":"free"},{"bike_id":"14453bc6-820b-496a-91c5-bd1a7f559527","system_id":"levelo_inurba_marseille","lat":43.308142,"lon":5.376561,"is_reserved":false,"is_disabled":false,"rental_uris":{"android":"levelo://app?vid=14453bc6-820b-496a-91c5-bd1a7f559527","ios":"levelo://app?vid=14453bc6-820b-496a-91c5-bd1a7f559527"},"vehicle_type_id":"4","last_reported":1700312835,"current_range_meters":11600,"station_id":"ce4bgv92rcd13ifvqcq0","pricing_plan_id":"free"},{"bike_id":"74e37a87-8232-4525-8435-7849498a884c","system_id":"levelo_inurba_marseille","lat":43.303046,"lon":5.368981,"is_reserved":false,"is_disabled":false,"rental_uris":{"android":"levelo://app?vid=74e37a87-8232-4525-8435-7849498a884c","ios":"levelo://app?vid=74e37a87-8232-4525-8435-7849498a884c"},"vehicle_type_id":"4","last_reported":1700312835,"current_range_meters":8400,"station_id":"ce4bgqh2rcd13ifvqc5g","pricing_plan_id":"free"},{"bike_id":"120ef8eb-499c-4d9a-8015-9ab7ec0e1f1c","system_id":"levelo_inurba_marseille","lat":43.30311,"lon":5.36905,"is_reserved":false,"is_disabled":false,"rental_uris":{"android":"levelo://app?vid=120ef8eb-499c-4d9a-8015-9ab7ec0e1f1c","ios":"levelo://app?vid=120ef8eb-499c-4d9a-8015-9ab7ec0e1f1c"},"vehicle_type_id":"4","last_reported":1700312835,"current_range_meters":25600,"station_id":"ce4bgqh2rcd13ifvqc5g","pricing_plan_id":"free"},{"bike_id":"8582e63c-68af-4a5e-a41b-a2e2d4df8807","system_id":"levelo_inurba_marseille","lat":43.324771,"lon":5.36557,"is_reserved":false,"is_disabled":false,"rental_uris":{"android":"levelo://app?vid=8582e63c-68af-4a5e-a41b-a2e2d4df8807","ios":"levelo://app?vid=8582e63c-68af-4a5e-a41b-a2e2d4df8807"},"vehicle_type_id":"4","last_reported":1700312835,"current_range_meters":9200,"station_id":"ce4bhs12rcd13ifvqhvg","pricing_plan_id":"free"},{"bike_id":"119ef385-1cf7-43c9-a934-b8cb79a6ec4e","system_id":"levelo_inurba_marseille","lat":43.301429,"lon":5.37413,"is_reserved":false,"is_disabled":false,"rental_uris":{"android":"levelo://app?vid=119ef385-1cf7-43c9-a934-b8cb79a6ec4e","ios":"levelo://app?vid=119ef385-1cf7-43c9-a934-b8cb79a6ec4e"},"vehicle_type_id":"4","last_reported":1700312835,"current_range_meters":13600,"station_id":"ce4bgs92rcd13ifvqcc0","pricing_plan_id":"free"},{"bike_id":"c4ed781f-bd87-4449-8272-60a926dd9cf8","system_id":"levelo_inurba_marseille","lat":43.301429,"lon":5.37413,"is_reserved":false,"is_disabled":false,"rental_uris":{"android":"levelo://app?vid=c4ed781f-bd87-4449-8272-60a926dd9cf8","ios":"levelo://app?vid=c4ed781f-bd87-4449-8272-60a926dd9cf8"},"vehicle_type_id":"4","last_reported":1700312835,"current_range_meters":6400,"station_id":"ce4bgs92rcd13ifvqcc0","pricing_plan_id":"free"},{"bike_id":"ca37c667-426d-430b-8ecd-65bb12508f78","system_id":"levelo_inurba_marseille","lat":43.32552,"lon":5.36156,"is_reserved":false,"is_disabled":false,"rental_uris":{"android":"levelo://app?vid=ca37c667-426d-430b-8ecd-65bb12508f78","ios":"levelo://app?vid=ca37c667-426d-430b-8ecd-65bb12508f78"},"vehicle_type_id":"4","last_reported":1700312835,"current_range_meters":22000,"station_id":"","pricing_plan_id":"free"},{"bike_id":"66963c79-9023-4e40-bef4-709c1b04f449","system_id":"levelo_inurba_marseille","lat":43.311593,"lon":5.386785,"is_reserved":false,"is_disabled":false,"rental_uris":{"android":"levelo://app?vid=66963c79-9023-4e40-bef4-709c1b04f449","ios":"levelo://app?vid=66963c79-9023-4e40-bef4-709c1b04f449"},"vehicle_type_id":"4","last_reported":1700312835,"current_range_meters":4000,"station_id":"ce4bgv12rcd13ifvqcp0","pricing_plan_id":"free"},{"bike_id":"5da9dea2-bd9f-4746-b637-56e44ea9e587","system_id":"levelo_inurba_marseille","lat":43.298489,"lon":5.362942,"is_reserved":false,"is_disabled":false,"rental_uris":{"android":"levelo://app?vid=5da9dea2-bd9f-4746-b637-56e44ea9e587","ios":"levelo://app?vid=5da9dea2-bd9f-4746-b637-56e44ea9e587"},"vehicle_type_id":"4","last_reported":1700312835,"current_range_meters":0,"station_id":"","pricing_plan_id":"free"},{"bike_id":"3af498a6-7087-48dc-b60d-3ccbc8a4dfce","system_id":"levelo_inurba_marseille","lat":43.298433,"lon":5.362774,"is_reserved":false,"is_disabled":false,"rental_uris":{"android":"levelo://app?vid=3af498a6-7087-48dc-b60d-3ccbc8a4dfce","ios":"levelo://app?vid=3af498a6-7087-48dc-b60d-3ccbc8a4dfce"},"vehicle_type_id":"4","last_reported":1700312835,"current_range_meters":31200,"station_id":"ce4bgpp2rcd13ifvqc3g","pricing_plan_id":"free"},{"bike_id":"49855692-53af-454e-8142-7b168d2410ff","system_id":"levelo_inurba_marseille","lat":43.31176,"lon":5.38723,"is_reserved":false,"is_disabled":false,"rental_uris":{"android":"levelo://app?vid=49855692-53af-454e-8142-7b168d2410ff","ios":"levelo://app?vid=49855692-53af-454e-8142-7b168d2410ff"},"vehicle_type_id":"4","last_reported":1700312835,"current_range_meters":28000,"station_id":"ce4bgv12rcd13ifvqcp0","pricing_plan_id":"free"},{"bike_id":"83b4a712-5deb-4185-a2eb-cf504fb97aa1","system_id":"levelo_inurba_marseille","lat":43.299157,"lon":5.375295,"is_reserved":false,"is_disabled":false,"rental_uris":{"android":"levelo://app?vid=83b4a712-5deb-4185-a2eb-cf504fb97aa1","ios":"levelo://app?vid=83b4a712-5deb-4185-a2eb-cf504fb97aa1"},"vehicle_type_id":"4","last_reported":1700312835,"current_range_meters":18000,"station_id":"ce4bgjh2rcd13ifvqbg0","pricing_plan_id":"free"},{"bike_id":"2c40281d-957d-435f-87b8-e7d5ce0ad6cc","system_id":"levelo_inurba_marseille","lat":43.297794,"lon":5.370888,"is_reserved":false,"is_disabled":false,"rental_uris":{"android":"levelo://app?vid=2c40281d-957d-435f-87b8-e7d5ce0ad6cc","ios":"levelo://app?vid=2c40281d-957d-435f-87b8-e7d5ce0ad6cc"},"vehicle_type_id":"4","last_reported":1700312835,"current_range_meters":1600,"station_id":"ce4bgop2rcd13ifvqc1g","pricing_plan_id":"free"},{"bike_id":"8d957197-83e8-46ea-849f-a535771ae3d2","system_id":"levelo_inurba_marseille","lat":43.297794,"lon":5.370888,"is_reserved":false,"is_disabled":false,"rental_uris":{"android":"levelo://app?vid=8d957197-83e8-46ea-849f-a535771ae3d2","ios":"levelo://app?vid=8d957197-83e8-46ea-849f-a535771ae3d2"},"vehicle_type_id":"4","last_reported":1700312835,"current_range_meters":16000,"station_id":"ce4bgop2rcd13ifvqc1g","pricing_plan_id":"free"},{"bike_id":"85aea31c-7c13-499f-a431-b284ce9d071e","system_id":"levelo_inurba_marseille","lat":43.297794,"lon":5.370888,"is_reserved":false,"is_disabled":false,"rental_uris":{"android":"levelo://app?vid=85aea31c-7c13-499f-a431-b284ce9d071e","ios":"levelo://app?vid=85aea31c-7c13-499f-a431-b284ce9d071e"},"vehicle_type_id":"4","last_reported":1700312835,"current_range_meters":24000,"station_id":"ce4bgop2rcd13ifvqc1g","pricing_plan_id":"free"},{"bike_id":"31682f68-9f19-4d8f-894c-c25c7ced512b","system_id":"levelo_inurba_marseille","lat":43.32827,"lon":5.36676,"is_reserved":false,"is_disabled":false,"rental_uris":{"android":"levelo://app?vid=31682f68-9f19-4d8f-894c-c25c7ced512b","ios":"levelo://app?vid=31682f68-9f19-4d8f-894c-c25c7ced512b"},"vehicle_type_id":"4","last_reported":1700312835,"current_range_meters":28000,"station_id":"ce4bhs92rcd13ifvqi0g","pricing_plan_id":"free"},{"bike_id":"b0bc5a2b-ee52-4745-9049-5d157e365412","system_id":"levelo_inurba_marseille","lat":43.32828,"lon":5.36679,"is_reserved":false,"is_disabled":false,"rental_uris":{"android":"levelo://app?vid=b0bc5a2b-ee52-4745-9049-5d157e365412","ios":"levelo://app?vid=b0bc5a2b-ee52-4745-9049-5d157e365412"},"vehicle_type_id":"4","last_reported":1700312835,"current_range_meters":12400,"station_id":"ce4bhs92rcd13ifvqi0g","pricing_plan_id":"free"},{"bike_id":"6f461906-1734-4a2d-9c3e-a93c6064dfd5","system_id":"levelo_inurba_marseille","lat":43.32828,"lon":5.36672,"is_reserved":false,"is_disabled":false,"rental_uris":{"android":"levelo://app?vid=6f461906-1734-4a2d-9c3e-a93c6064dfd5","ios":"levelo://app?vid=6f461906-1734-4a2d-9c3e-a93c6064dfd5"},"vehicle_type_id":"4","last_reported":1700312835,"current_range_meters":24800,"station_id":"ce4bhs92rcd13ifvqi0g","pricing_plan_id":"free"},{"bike_id":"100ea7ab-d5a2-4c49-a1cc-e481b668416c","system_id":"levelo_inurba_marseille","lat":43.297163,"lon":5.365866,"is_reserved":false,"is_disabled":false,"rental_uris":{"android":"levelo://app?vid=100ea7ab-d5a2-4c49-a1cc-e481b668416c","ios":"levelo://app?vid=100ea7ab-d5a2-4c49-a1cc-e481b668416c"},"vehicle_type_id":"4","last_reported":1700312835,"current_range_meters":20400,"station_id":"ce4bgn12rcd13ifvqbt0","pricing_plan_id":"free"},{"bike_id":"d447991a-59b4-4778-a190-7d2b0920a414","system_id":"levelo_inurba_marseille","lat":43.32215,"lon":5.38613,"is_reserved":false,"is_disabled":false,"rental_uris":{"android":"levelo://app?vid=d447991a-59b4-4778-a190-7d2b0920a414","ios":"levelo://app?vid=d447991a-59b4-4778-a190-7d2b0920a414"},"vehicle_type_id":"4","last_reported":1700312835,"current_range_meters":0,"station_id":"","pricing_plan_id":"free"},{"bike_id":"1ad22827-314b-4181-a9cf-884b56683994","system_id":"levelo_inurba_marseille","lat":43.296131,"lon":5.370791,"is_reserved":false,"is_disabled":false,"rental_uris":{"android":"levelo://app?vid=1ad22827-314b-4181-a9cf-884b56683994","ios":"levelo://app?vid=1ad22827-314b-4181-a9cf-884b56683994"},"vehicle_type_id":"4","last_reported":1700312835,"current_range_meters":18400,"station_id":"ce4bgnh2rcd13ifvqc0g","pricing_plan_id":"free"},{"bike_id":"69e2936f-eb45-4d90-8826-706a4b937fc9","system_id":"levelo_inurba_marseille","lat":43.296129,"lon":5.370777,"is_reserved":false,"is_disabled":false,"rental_uris":{"android":"levelo://app?vid=69e2936f-eb45-4d90-8826-706a4b937fc9","ios":"levelo://app?vid=69e2936f-eb45-4d90-8826-706a4b937fc9"},"vehicle_type_id":"4","last_reported":1700312835,"current_range_meters":18000,"station_id":"ce4bgnh2rcd13ifvqc0g","pricing_plan_id":"free"},{"bike_id":"2a9bb537-8d7d-4b92-8f79-0f40236e91e2","system_id":"levelo_inurba_marseille","lat":43.296131,"lon":5.370791,"is_reserved":false,"is_disabled":false,"rental_uris":{"android":"levelo://app?vid=2a9bb537-8d7d-4b92-8f79-0f40236e91e2","ios":"levelo://app?vid=2a9bb537-8d7d-4b92-8f79-0f40236e91e2"},"vehicle_type_id":"4","last_reported":1700312835,"current_range_meters":26800,"station_id":"ce4bgnh2rcd13ifvqc0g","pricing_plan_id":"free"},{"bike_id":"3adca058-39b2-4384-b56b-55922a05bec9","system_id":"levelo_inurba_marseille","lat":43.29573,"lon":5.367355,"is_reserved":false,"is_disabled":false,"rental_uris":{"android":"levelo://app?vid=3adca058-39b2-4384-b56b-55922a05bec9","ios":"levelo://app?vid=3adca058-39b2-4384-b56b-55922a05bec9"},"vehicle_type_id":"4","last_reported":1700312835,"current_range_meters":10000,"station_id":"ce4bgph2rcd13ifvqc2g","pricing_plan_id":"free"},{"bike_id":"58c39db2-3771-4ddd-aec2-9edfa318a2ab","system_id":"levelo_inurba_marseille","lat":43.29573,"lon":5.367355,"is_reserved":false,"is_disabled":false,"rental_uris":{"android":"levelo://app?vid=58c39db2-3771-4ddd-aec2-9edfa318a2ab","ios":"levelo://app?vid=58c39db2-3771-4ddd-aec2-9edfa318a2ab"},"vehicle_type_id":"4","last_reported":1700312835,"current_range_meters":20400,"station_id":"ce4bgph2rcd13ifvqc2g","pricing_plan_id":"free"},{"bike_id":"2101643d-3a77-4c0d-977f-349e64be19dd","system_id":"levelo_inurba_marseille","lat":43.29573,"lon":5.367355,"is_reserved":false,"is_disabled":false,"rental_uris":{"android":"levelo://app?vid=2101643d-3a77-4c0d-977f-349e64be19dd","ios":"levelo://app?vid=2101643d-3a77-4c0d-977f-349e64be19dd"},"vehicle_type_id":"4","last_reported":1700312835,"current_range_meters":28000,"station_id":"ce4bgph2rcd13ifvqc2g","pricing_plan_id":"free"},{"bike_id":"f9b321d6-1a38-4689-8c1f-a92f5a51baa0","system_id":"levelo_inurba_marseille","lat":43.29573,"lon":5.367355,"is_reserved":false,"is_disabled":false,"rental_uris":{"android":"levelo://app?vid=f9b321d6-1a38-4689-8c1f-a92f5a51baa0","ios":"levelo://app?vid=f9b321d6-1a38-4689-8c1f-a92f5a51baa0"},"vehicle_type_id":"4","last_reported":1700312835,"current_range_meters":27600,"station_id":"ce4bgph2rcd13ifvqc2g","pricing_plan_id":"free"},{"bike_id":"3bdc4bac-eced-431f-b921-bd3ceb7a2a4f","system_id":"levelo_inurba_marseille","lat":43.29573,"lon":5.367355,"is_reserved":false,"is_disabled":false,"rental_uris":{"android":"levelo://app?vid=3bdc4bac-eced-431f-b921-bd3ceb7a2a4f","ios":"levelo://app?vid=3bdc4bac-eced-431f-b921-bd3ceb7a2a4f"},"vehicle_type_id":"4","last_reported":1700312835,"current_range_meters":20800,"station_id":"ce4bgph2rcd13ifvqc2g","pricing_plan_id":"free"},{"bike_id":"d8c485c3-4c43-45fb-8a52-bee1c2252819","system_id":"levelo_inurba_marseille","lat":43.29573,"lon":5.367355,"is_reserved":false,"is_disabled":false,"rental_uris":{"android":"levelo://app?vid=d8c485c3-4c43-45fb-8a52-bee1c2252819","ios":"levelo://app?vid=d8c485c3-4c43-45fb-8a52-bee1c2252819"},"vehicle_type_id":"4","last_reported":1700312835,"current_range_meters":16000,"station_id":"ce4bgph2rcd13ifvqc2g","pricing_plan_id":"free"},{"bike_id":"cb73cc4a-fd25-46fe-a07e-a7f5ebcf3518","system_id":"levelo_inurba_marseille","lat":43.29709,"lon":5.37673,"is_reserved":false,"is_disabled":false,"rental_uris":{"android":"levelo://app?vid=cb73cc4a-fd25-46fe-a07e-a7f5ebcf3518","ios":"levelo://app?vid=cb73cc4a-fd25-46fe-a07e-a7f5ebcf3518"},"vehicle_type_id":"4","last_reported":1700312835,"current_range_meters":30800,"station_id":"ce4bgkh2rcd13ifvqbl0","pricing_plan_id":"free"},{"bike_id":"a4359e1c-00d0-42f3-b213-4797d3df0ea7","system_id":"levelo_inurba_marseille","lat":43.296921,"lon":5.376579,"is_reserved":false,"is_disabled":false,"rental_uris":{"android":"levelo://app?vid=a4359e1c-00d0-42f3-b213-4797d3df0ea7","ios":"levelo://app?vid=a4359e1c-00d0-42f3-b213-4797d3df0ea7"},"vehicle_type_id":"4","last_reported":1700312835,"current_range_meters":26800,"station_id":"ce4bgkh2rcd13ifvqbl0","pricing_plan_id":"free"},{"bike_id":"d1037f8d-f889-45c4-aad5-42819a6e935d","system_id":"levelo_inurba_marseille","lat":43.296935,"lon":5.376544,"is_reserved":false,"is_disabled":false,"rental_uris":{"android":"levelo://app?vid=d1037f8d-f889-45c4-aad5-42819a6e935d","ios":"levelo://app?vid=d1037f8d-f889-45c4-aad5-42819a6e935d"},"vehicle_type_id":"4","last_reported":1700312835,"current_range_meters":9600,"station_id":"ce4bgkh2rcd13ifvqbl0","pricing_plan_id":"free"},{"bike_id":"16e5572c-bb31-4245-ab67-5694284e1563","system_id":"levelo_inurba_marseille","lat":43.295697,"lon":5.374807,"is_reserved":false,"is_disabled":false,"rental_uris":{"android":"levelo://app?vid=16e5572c-bb31-4245-ab67-5694284e1563","ios":"levelo://app?vid=16e5572c-bb31-4245-ab67-5694284e1563"},"vehicle_type_id":"4","last_reported":1700312835,"current_range_meters":11600,"station_id":"ce4bgh92rcd13ifvqb50","pricing_plan_id":"free"},{"bike_id":"d2dced52-b7fb-4d11-ad33-56be009e3364","system_id":"levelo_inurba_marseille","lat":43.321847,"lon":5.388263,"is_reserved":false,"is_disabled":false,"rental_uris":{"android":"levelo://app?vid=d2dced52-b7fb-4d11-ad33-56be009e3364","ios":"levelo://app?vid=d2dced52-b7fb-4d11-ad33-56be009e3364"},"vehicle_type_id":"4","last_reported":1700312835,"current_range_meters":18800,"station_id":"","pricing_plan_id":"free"},{"bike_id":"67ffd28a-0325-489b-a10f-d90500122751","system_id":"levelo_inurba_marseille","lat":43.295748,"lon":5.37522,"is_reserved":false,"is_disabled":false,"rental_uris":{"android":"levelo://app?vid=67ffd28a-0325-489b-a10f-d90500122751","ios":"levelo://app?vid=67ffd28a-0325-489b-a10f-d90500122751"},"vehicle_type_id":"4","last_reported":1700312835,"current_range_meters":30400,"station_id":"ce4bgh92rcd13ifvqb50","pricing_plan_id":"free"},{"bike_id":"3e3e92fe-39b7-4933-99ff-3747b28b5d69","system_id":"levelo_inurba_marseille","lat":43.328154,"lon":5.380034,"is_reserved":false,"is_disabled":false,"rental_uris":{"android":"levelo://app?vid=3e3e92fe-39b7-4933-99ff-3747b28b5d69","ios":"levelo://app?vid=3e3e92fe-39b7-4933-99ff-3747b28b5d69"},"vehicle_type_id":"4","last_reported":1700312835,"current_range_meters":10000,"station_id":"","pricing_plan_id":"free"},{"bike_id":"995c5834-5ef6-4155-9174-83e2336049d1","system_id":"levelo_inurba_marseille","lat":43.295279,"lon":5.375048,"is_reserved":false,"is_disabled":false,"rental_uris":{"android":"levelo://app?vid=995c5834-5ef6-4155-9174-83e2336049d1","ios":"levelo://app?vid=995c5834-5ef6-4155-9174-83e2336049d1"},"vehicle_type_id":"4","last_reported":1700312835,"current_range_meters":4400,"station_id":"ce4bgkp2rcd13ifvqbmg","pricing_plan_id":"free"},{"bike_id":"7dc3f653-49e5-4d4e-9a13-7465eae48d8e","system_id":"levelo_inurba_marseille","lat":43.295279,"lon":5.375048,"is_reserved":false,"is_disabled":false,"rental_uris":{"android":"levelo://app?vid=7dc3f653-49e5-4d4e-9a13-7465eae48d8e","ios":"levelo://app?vid=7dc3f653-49e5-4d4e-9a13-7465eae48d8e"},"vehicle_type_id":"4","last_reported":1700312835,"current_range_meters":29200,"station_id":"ce4bgkp2rcd13ifvqbmg","pricing_plan_id":"free"},{"bike_id":"821d8c16-0459-472f-a5a3-3bc7c797175b","system_id":"levelo_inurba_marseille","lat":43.299717,"lon":5.384845,"is_reserved":false,"is_disabled":false,"rental_uris":{"android":"levelo://app?vid=821d8c16-0459-472f-a5a3-3bc7c797175b","ios":"levelo://app?vid=821d8c16-0459-472f-a5a3-3bc7c797175b"},"vehicle_type_id":"4","last_reported":1700312835,"current_range_meters":14000,"station_id":"ce4bgj92rcd13ifvqbd0","pricing_plan_id":"free"},{"bike_id":"e145a3f7-00ac-4f8f-bfe5-435bc38ccaf7","system_id":"levelo_inurba_marseille","lat":43.293801,"lon":5.363066,"is_reserved":false,"is_disabled":false,"rental_uris":{"android":"levelo://app?vid=e145a3f7-00ac-4f8f-bfe5-435bc38ccaf7","ios":"levelo://app?vid=e145a3f7-00ac-4f8f-bfe5-435bc38ccaf7"},"vehicle_type_id":"4","last_reported":1700312835,"current_range_meters":26800,"station_id":"","pricing_plan_id":"free"},{"bike_id":"0ceeb533-221a-464a-931c-5883f0b58c8b","system_id":"levelo_inurba_marseille","lat":43.29601,"lon":5.381084,"is_reserved":false,"is_disabled":false,"rental_uris":{"android":"levelo://app?vid=0ceeb533-221a-464a-931c-5883f0b58c8b","ios":"levelo://app?vid=0ceeb533-221a-464a-931c-5883f0b58c8b"},"vehicle_type_id":"4","last_reported":1700312835,"current_range_meters":20400,"station_id":"ce4bgl12rcd13ifvqbo0","pricing_plan_id":"free"},{"bike_id":"1af4662e-9133-453b-9890-170a81f4946e","system_id":"levelo_inurba_marseille","lat":43.293009,"lon":5.374584,"is_reserved":false,"is_disabled":false,"rental_uris":{"android":"levelo://app?vid=1af4662e-9133-453b-9890-170a81f4946e","ios":"levelo://app?vid=1af4662e-9133-453b-9890-170a81f4946e"},"vehicle_type_id":"4","last_reported":1700312835,"current_range_meters":6000,"station_id":"ce4bgi12rcd13ifvqb70","pricing_plan_id":"free"},{"bike_id":"80f25941-e0c0-4795-a7dc-1f9ed2c584e9","system_id":"levelo_inurba_marseille","lat":43.293009,"lon":5.374584,"is_reserved":false,"is_disabled":false,"rental_uris":{"android":"levelo://app?vid=80f25941-e0c0-4795-a7dc-1f9ed2c584e9","ios":"levelo://app?vid=80f25941-e0c0-4795-a7dc-1f9ed2c584e9"},"vehicle_type_id":"4","last_reported":1700312835,"current_range_meters":10400,"station_id":"ce4bgi12rcd13ifvqb70","pricing_plan_id":"free"},{"bike_id":"4eef38cc-64cf-4f4d-8d5b-99bd9d3b1b37","system_id":"levelo_inurba_marseille","lat":43.291675,"lon":5.371583,"is_reserved":false,"is_disabled":false,"rental_uris":{"android":"levelo://app?vid=4eef38cc-64cf-4f4d-8d5b-99bd9d3b1b37","ios":"levelo://app?vid=4eef38cc-64cf-4f4d-8d5b-99bd9d3b1b37"},"vehicle_type_id":"4","last_reported":1700312835,"current_range_meters":26800,"station_id":"ce4bha92rcd13ifvqeh0","pricing_plan_id":"free"},{"bike_id":"91b09607-ddf0-4862-9a2b-c95ec96b3c9a","system_id":"levelo_inurba_marseille","lat":43.29871,"lon":5.38914,"is_reserved":false,"is_disabled":false,"rental_uris":{"android":"levelo://app?vid=91b09607-ddf0-4862-9a2b-c95ec96b3c9a","ios":"levelo://app?vid=91b09607-ddf0-4862-9a2b-c95ec96b3c9a"},"vehicle_type_id":"4","last_reported":1700312835,"current_range_meters":11200,"station_id":"ce4bh392rcd13ifvqdl0","pricing_plan_id":"free"},{"bike_id":"40a520eb-9a83-4d4c-b990-77033650891f","system_id":"levelo_inurba_marseille","lat":43.309038,"lon":5.396546,"is_reserved":false,"is_disabled":false,"rental_uris":{"android":"levelo://app?vid=40a520eb-9a83-4d4c-b990-77033650891f","ios":"levelo://app?vid=40a520eb-9a83-4d4c-b990-77033650891f"},"vehicle_type_id":"4","last_reported":1700312835,"current_range_meters":24400,"station_id":"ce4bh012rcd13ifvqcv0","pricing_plan_id":"free"},{"bike_id":"54ae241c-6f39-42a7-a567-bdf7b23feb84","system_id":"levelo_inurba_marseille","lat":43.313291,"lon":5.396838,"is_reserved":false,"is_disabled":false,"rental_uris":{"android":"levelo://app?vid=54ae241c-6f39-42a7-a567-bdf7b23feb84","ios":"levelo://app?vid=54ae241c-6f39-42a7-a567-bdf7b23feb84"},"vehicle_type_id":"4","last_reported":1700312835,"current_range_meters":5600,"station_id":"ce4bgvp2rcd13ifvqcu0","pricing_plan_id":"free"},{"bike_id":"fd07540d-6a99-4dfa-b0b5-7761a415dbaa","system_id":"levelo_inurba_marseille","lat":43.31325,"lon":5.39695,"is_reserved":false,"is_disabled":false,"rental_uris":{"android":"levelo://app?vid=fd07540d-6a99-4dfa-b0b5-7761a415dbaa","ios":"levelo://app?vid=fd07540d-6a99-4dfa-b0b5-7761a415dbaa"},"vehicle_type_id":"4","last_reported":1700312835,"current_range_meters":14800,"station_id":"ce4bgvp2rcd13ifvqcu0","pricing_plan_id":"free"},{"bike_id":"a2f77333-02b5-4560-b47d-ba62ec26172e","system_id":"levelo_inurba_marseille","lat":43.309047,"lon":5.396551,"is_reserved":false,"is_disabled":false,"rental_uris":{"android":"levelo://app?vid=a2f77333-02b5-4560-b47d-ba62ec26172e","ios":"levelo://app?vid=a2f77333-02b5-4560-b47d-ba62ec26172e"},"vehicle_type_id":"4","last_reported":1700312835,"current_range_meters":16000,"station_id":"ce4bh012rcd13ifvqcv0","pricing_plan_id":"free"},{"bike_id":"0d23f21f-f7ac-45ef-82cf-70b3d4c6c322","system_id":"levelo_inurba_marseille","lat":43.29529,"lon":5.385581,"is_reserved":false,"is_disabled":false,"rental_uris":{"android":"levelo://app?vid=0d23f21f-f7ac-45ef-82cf-70b3d4c6c322","ios":"levelo://app?vid=0d23f21f-f7ac-45ef-82cf-70b3d4c6c322"},"vehicle_type_id":"4","last_reported":1700312835,"current_range_meters":6000,"station_id":"ce4bgih2rcd13ifvqba0","pricing_plan_id":"free"},{"bike_id":"682210e3-bf24-450a-a626-e74d4b004000","system_id":"levelo_inurba_marseille","lat":43.290779,"lon":5.371482,"is_reserved":false,"is_disabled":false,"rental_uris":{"android":"levelo://app?vid=682210e3-bf24-450a-a626-e74d4b004000","ios":"levelo://app?vid=682210e3-bf24-450a-a626-e74d4b004000"},"vehicle_type_id":"4","last_reported":1700312835,"current_range_meters":14000,"station_id":"ce4bh5p2rcd13ifvqe4g","pricing_plan_id":"free"},{"bike_id":"973fbbdf-6ba4-40e8-b177-aec02832e594","system_id":"levelo_inurba_marseille","lat":43.290779,"lon":5.371482,"is_reserved":false,"is_disabled":false,"rental_uris":{"android":"levelo://app?vid=973fbbdf-6ba4-40e8-b177-aec02832e594","ios":"levelo://app?vid=973fbbdf-6ba4-40e8-b177-aec02832e594"},"vehicle_type_id":"4","last_reported":1700312835,"current_range_meters":25600,"station_id":"ce4bh5p2rcd13ifvqe4g","pricing_plan_id":"free"},{"bike_id":"8724f335-8099-4123-8d44-20d69dd36de8","system_id":"levelo_inurba_marseille","lat":43.290327,"lon":5.375711,"is_reserved":false,"is_disabled":false,"rental_uris":{"android":"levelo://app?vid=8724f335-8099-4123-8d44-20d69dd36de8","ios":"levelo://app?vid=8724f335-8099-4123-8d44-20d69dd36de8"},"vehicle_type_id":"4","last_reported":1700312835,"current_range_meters":24400,"station_id":"ce4bh692rcd13ifvqe90","pricing_plan_id":"free"},{"bike_id":"9ecadb42-855d-4305-9bb5-0aa4830bed3d","system_id":"levelo_inurba_marseille","lat":43.292644,"lon":5.384257,"is_reserved":false,"is_disabled":false,"rental_uris":{"android":"levelo://app?vid=9ecadb42-855d-4305-9bb5-0aa4830bed3d","ios":"levelo://app?vid=9ecadb42-855d-4305-9bb5-0aa4830bed3d"},"vehicle_type_id":"4","last_reported":1700312835,"current_range_meters":0,"station_id":"ce4bh692rcd13ifvqea0","pricing_plan_id":"free"},{"bike_id":"4c892b17-685b-4de3-af8f-aebb0c7bb66e","system_id":"levelo_inurba_marseille","lat":43.33042,"lon":5.38916,"is_reserved":false,"is_disabled":false,"rental_uris":{"android":"levelo://app?vid=4c892b17-685b-4de3-af8f-aebb0c7bb66e","ios":"levelo://app?vid=4c892b17-685b-4de3-af8f-aebb0c7bb66e"},"vehicle_type_id":"4","last_reported":1700312835,"current_range_meters":18000,"station_id":"ce4bhr92rcd13ifvqhrg","pricing_plan_id":"free"},{"bike_id":"0b46b1b4-f42b-4e67-9aef-2797da64a2b5","system_id":"levelo_inurba_marseille","lat":43.33043,"lon":5.38916,"is_reserved":false,"is_disabled":false,"rental_uris":{"android":"levelo://app?vid=0b46b1b4-f42b-4e67-9aef-2797da64a2b5","ios":"levelo://app?vid=0b46b1b4-f42b-4e67-9aef-2797da64a2b5"},"vehicle_type_id":"4","last_reported":1700312835,"current_range_meters":16000,"station_id":"ce4bhr92rcd13ifvqhrg","pricing_plan_id":"free"},{"bike_id":"07bf074c-2aef-40df-b5cc-088d8b207073","system_id":"levelo_inurba_marseille","lat":43.33041,"lon":5.38921,"is_reserved":false,"is_disabled":false,"rental_uris":{"android":"levelo://app?vid=07bf074c-2aef-40df-b5cc-088d8b207073","ios":"levelo://app?vid=07bf074c-2aef-40df-b5cc-088d8b207073"},"vehicle_type_id":"4","last_reported":1700312835,"current_range_meters":4400,"station_id":"ce4bhr92rcd13ifvqhrg","pricing_plan_id":"free"},{"bike_id":"b97b8afb-360b-4757-91b6-068cdd3d14ce","system_id":"levelo_inurba_marseille","lat":43.2978,"lon":5.39335,"is_reserved":false,"is_disabled":false,"rental_uris":{"android":"levelo://app?vid=b97b8afb-360b-4757-91b6-068cdd3d14ce","ios":"levelo://app?vid=b97b8afb-360b-4757-91b6-068cdd3d14ce"},"vehicle_type_id":"4","last_reported":1700312835,"current_range_meters":0,"station_id":"chh1huq6cuj3fo74tm60","pricing_plan_id":"free"},{"bike_id":"b9db73d5-9c32-4bec-96ef-5d135d44f44a","system_id":"levelo_inurba_marseille","lat":43.33725,"lon":5.37511,"is_reserved":false,"is_disabled":false,"rental_uris":{"android":"levelo://app?vid=b9db73d5-9c32-4bec-96ef-5d135d44f44a","ios":"levelo://app?vid=b9db73d5-9c32-4bec-96ef-5d135d44f44a"},"vehicle_type_id":"4","last_reported":1700312835,"current_range_meters":21600,"station_id":"","pricing_plan_id":"free"},{"bike_id":"07202f70-50d7-46f0-a5bd-59712659d6a0","system_id":"levelo_inurba_marseille","lat":43.31251,"lon":5.40162,"is_reserved":false,"is_disabled":false,"rental_uris":{"android":"levelo://app?vid=07202f70-50d7-46f0-a5bd-59712659d6a0","ios":"levelo://app?vid=07202f70-50d7-46f0-a5bd-59712659d6a0"},"vehicle_type_id":"4","last_reported":1700312835,"current_range_meters":14800,"station_id":"","pricing_plan_id":"free"},{"bike_id":"dd677d89-f872-48b6-9189-ad010113377c","system_id":"levelo_inurba_marseille","lat":43.33743,"lon":5.37432,"is_reserved":false,"is_disabled":false,"rental_uris":{"android":"levelo://app?vid=dd677d89-f872-48b6-9189-ad010113377c","ios":"levelo://app?vid=dd677d89-f872-48b6-9189-ad010113377c"},"vehicle_type_id":"4","last_reported":1700312835,"current_range_meters":31200,"station_id":"","pricing_plan_id":"free"},{"bike_id":"a89e6aa2-db62-42d3-a40d-00692da168eb","system_id":"levelo_inurba_marseille","lat":43.30642,"lon":5.401031,"is_reserved":false,"is_disabled":false,"rental_uris":{"android":"levelo://app?vid=a89e6aa2-db62-42d3-a40d-00692da168eb","ios":"levelo://app?vid=a89e6aa2-db62-42d3-a40d-00692da168eb"},"vehicle_type_id":"4","last_reported":1700312835,"current_range_meters":3200,"station_id":"ce4bh112rcd13ifvqda0","pricing_plan_id":"free"},{"bike_id":"b9907443-3a36-405c-96c8-c8372c57de3f","system_id":"levelo_inurba_marseille","lat":43.30641,"lon":5.40097,"is_reserved":false,"is_disabled":false,"rental_uris":{"android":"levelo://app?vid=b9907443-3a36-405c-96c8-c8372c57de3f","ios":"levelo://app?vid=b9907443-3a36-405c-96c8-c8372c57de3f"},"vehicle_type_id":"4","last_reported":1700312835,"current_range_meters":0,"station_id":"","pricing_plan_id":"free"},{"bike_id":"8da8192b-82ee-4143-8511-1a679e9e893f","system_id":"levelo_inurba_marseille","lat":43.30642,"lon":5.401031,"is_reserved":false,"is_disabled":false,"rental_uris":{"android":"levelo://app?vid=8da8192b-82ee-4143-8511-1a679e9e893f","ios":"levelo://app?vid=8da8192b-82ee-4143-8511-1a679e9e893f"},"vehicle_type_id":"4","last_reported":1700312835,"current_range_meters":20800,"station_id":"ce4bh112rcd13ifvqda0","pricing_plan_id":"free"},{"bike_id":"0d4d2e85-12ce-42f7-8df6-e9c82d5503b2","system_id":"levelo_inurba_marseille","lat":43.28727,"lon":5.36078,"is_reserved":false,"is_disabled":false,"rental_uris":{"android":"levelo://app?vid=0d4d2e85-12ce-42f7-8df6-e9c82d5503b2","ios":"levelo://app?vid=0d4d2e85-12ce-42f7-8df6-e9c82d5503b2"},"vehicle_type_id":"4","last_reported":1700312835,"current_range_meters":22800,"station_id":"cki0cbj6b192h4jlfktg","pricing_plan_id":"free"},{"bike_id":"35934821-7189-4441-bfc0-90a909f46c71","system_id":"levelo_inurba_marseille","lat":43.29029,"lon":5.38635,"is_reserved":false,"is_disabled":false,"rental_uris":{"android":"levelo://app?vid=35934821-7189-4441-bfc0-90a909f46c71","ios":"levelo://app?vid=35934821-7189-4441-bfc0-90a909f46c71"},"vehicle_type_id":"4","last_reported":1700312835,"current_range_meters":0,"station_id":"ce4bh4p2rcd13ifvqe0g","pricing_plan_id":"free"},{"bike_id":"d9e10525-3252-4e45-b1e5-fd3e03f3a61f","system_id":"levelo_inurba_marseille","lat":43.286039,"lon":5.370681,"is_reserved":false,"is_disabled":false,"rental_uris":{"android":"levelo://app?vid=d9e10525-3252-4e45-b1e5-fd3e03f3a61f","ios":"levelo://app?vid=d9e10525-3252-4e45-b1e5-fd3e03f3a61f"},"vehicle_type_id":"4","last_reported":1700312835,"current_range_meters":10400,"station_id":"ce4bht12rcd13ifvqi60","pricing_plan_id":"free"},{"bike_id":"ea16aaed-88a8-43b1-a791-c3d35ad50e06","system_id":"levelo_inurba_marseille","lat":43.28607,"lon":5.37069,"is_reserved":false,"is_disabled":false,"rental_uris":{"android":"levelo://app?vid=ea16aaed-88a8-43b1-a791-c3d35ad50e06","ios":"levelo://app?vid=ea16aaed-88a8-43b1-a791-c3d35ad50e06"},"vehicle_type_id":"4","last_reported":1700312835,"current_range_meters":22000,"station_id":"ce4bht12rcd13ifvqi60","pricing_plan_id":"free"},{"bike_id":"b9ba9829-a49a-4d4c-bbb8-f2b0c3aeeb7a","system_id":"levelo_inurba_marseille","lat":43.294314,"lon":5.397498,"is_reserved":false,"is_disabled":false,"rental_uris":{"android":"levelo://app?vid=b9ba9829-a49a-4d4c-bbb8-f2b0c3aeeb7a","ios":"levelo://app?vid=b9ba9829-a49a-4d4c-bbb8-f2b0c3aeeb7a"},"vehicle_type_id":"4","last_reported":1700312835,"current_range_meters":4800,"station_id":"ce4bh3h2rcd13ifvqdo0","pricing_plan_id":"free"},{"bike_id":"000a3dd4-1e61-42cd-879a-23f2cfa0e297","system_id":"levelo_inurba_marseille","lat":43.294314,"lon":5.397498,"is_reserved":false,"is_disabled":false,"rental_uris":{"android":"levelo://app?vid=000a3dd4-1e61-42cd-879a-23f2cfa0e297","ios":"levelo://app?vid=000a3dd4-1e61-42cd-879a-23f2cfa0e297"},"vehicle_type_id":"4","last_reported":1700312835,"current_range_meters":0,"station_id":"ce4bh3h2rcd13ifvqdo0","pricing_plan_id":"free"},{"bike_id":"e852daa8-955b-4565-a67d-4084e9d73269","system_id":"levelo_inurba_marseille","lat":43.28412,"lon":5.37517,"is_reserved":false,"is_disabled":false,"rental_uris":{"android":"levelo://app?vid=e852daa8-955b-4565-a67d-4084e9d73269","ios":"levelo://app?vid=e852daa8-955b-4565-a67d-4084e9d73269"},"vehicle_type_id":"4","last_reported":1700312835,"current_range_meters":0,"station_id":"ce4bh412rcd13ifvqds0","pricing_plan_id":"free"},{"bike_id":"32766e57-adff-43e6-b4c3-4acbb4516be2","system_id":"levelo_inurba_marseille","lat":43.295717,"lon":5.399697,"is_reserved":false,"is_disabled":false,"rental_uris":{"android":"levelo://app?vid=32766e57-adff-43e6-b4c3-4acbb4516be2","ios":"levelo://app?vid=32766e57-adff-43e6-b4c3-4acbb4516be2"},"vehicle_type_id":"4","last_reported":1700312835,"current_range_meters":14000,"station_id":"","pricing_plan_id":"free"},{"bike_id":"83817918-40fc-48a0-b4d2-4ca9f198594c","system_id":"levelo_inurba_marseille","lat":43.294538,"lon":5.39855,"is_reserved":false,"is_disabled":false,"rental_uris":{"android":"levelo://app?vid=83817918-40fc-48a0-b4d2-4ca9f198594c","ios":"levelo://app?vid=83817918-40fc-48a0-b4d2-4ca9f198594c"},"vehicle_type_id":"4","last_reported":1700312835,"current_range_meters":0,"station_id":"","pricing_plan_id":"free"},{"bike_id":"5974ad3b-da81-42ca-a08b-1b3632a47afa","system_id":"levelo_inurba_marseille","lat":43.33237,"lon":5.3985,"is_reserved":false,"is_disabled":false,"rental_uris":{"android":"levelo://app?vid=5974ad3b-da81-42ca-a08b-1b3632a47afa","ios":"levelo://app?vid=5974ad3b-da81-42ca-a08b-1b3632a47afa"},"vehicle_type_id":"4","last_reported":1700312835,"current_range_meters":5200,"station_id":"","pricing_plan_id":"free"},{"bike_id":"50d0e8bb-4fe0-47da-a0cf-dd0b77bc5f3a","system_id":"levelo_inurba_marseille","lat":43.323464,"lon":5.406297,"is_reserved":false,"is_disabled":false,"rental_uris":{"android":"levelo://app?vid=50d0e8bb-4fe0-47da-a0cf-dd0b77bc5f3a","ios":"levelo://app?vid=50d0e8bb-4fe0-47da-a0cf-dd0b77bc5f3a"},"vehicle_type_id":"4","last_reported":1700312835,"current_range_meters":0,"station_id":"ce4bhq92rcd13ifvqhjg","pricing_plan_id":"free"},{"bike_id":"d3dd3e3d-57b0-4c9e-949f-fddd56c2349c","system_id":"levelo_inurba_marseille","lat":43.32521,"lon":5.40575,"is_reserved":false,"is_disabled":false,"rental_uris":{"android":"levelo://app?vid=d3dd3e3d-57b0-4c9e-949f-fddd56c2349c","ios":"levelo://app?vid=d3dd3e3d-57b0-4c9e-949f-fddd56c2349c"},"vehicle_type_id":"4","last_reported":1700312835,"current_range_meters":2400,"station_id":"","pricing_plan_id":"free"},{"bike_id":"edef3bd6-8c5a-423b-8054-1762e0ab41af","system_id":"levelo_inurba_marseille","lat":43.292724,"lon":5.401131,"is_reserved":false,"is_disabled":false,"rental_uris":{"android":"levelo://app?vid=edef3bd6-8c5a-423b-8054-1762e0ab41af","ios":"levelo://app?vid=edef3bd6-8c5a-423b-8054-1762e0ab41af"},"vehicle_type_id":"4","last_reported":1700312835,"current_range_meters":11600,"station_id":"ce4bh312rcd13ifvqdk0","pricing_plan_id":"free"},{"bike_id":"6140a97e-1818-4ad3-b65c-dc06f9b34a5c","system_id":"levelo_inurba_marseille","lat":43.282754,"lon":5.350519,"is_reserved":false,"is_disabled":false,"rental_uris":{"android":"levelo://app?vid=6140a97e-1818-4ad3-b65c-dc06f9b34a5c","ios":"levelo://app?vid=6140a97e-1818-4ad3-b65c-dc06f9b34a5c"},"vehicle_type_id":"4","last_reported":1700312835,"current_range_meters":9200,"station_id":"ce4bhbp2rcd13ifvqerg","pricing_plan_id":"free"},{"bike_id":"4b21226a-d7c7-4695-8592-0c9fd53934a0","system_id":"levelo_inurba_marseille","lat":43.282754,"lon":5.350519,"is_reserved":false,"is_disabled":false,"rental_uris":{"android":"levelo://app?vid=4b21226a-d7c7-4695-8592-0c9fd53934a0","ios":"levelo://app?vid=4b21226a-d7c7-4695-8592-0c9fd53934a0"},"vehicle_type_id":"4","last_reported":1700312835,"current_range_meters":21200,"station_id":"ce4bhbp2rcd13ifvqerg","pricing_plan_id":"free"},{"bike_id":"b30ce3f6-54ca-430e-80da-10c689b7701d","system_id":"levelo_inurba_marseille","lat":43.282744,"lon":5.350533,"is_reserved":false,"is_disabled":false,"rental_uris":{"android":"levelo://app?vid=b30ce3f6-54ca-430e-80da-10c689b7701d","ios":"levelo://app?vid=b30ce3f6-54ca-430e-80da-10c689b7701d"},"vehicle_type_id":"4","last_reported":1700312835,"current_range_meters":12000,"station_id":"ce4bhbp2rcd13ifvqerg","pricing_plan_id":"free"},{"bike_id":"aa6c04b7-e2f7-41e8-a6bf-e1dbf1d236e1","system_id":"levelo_inurba_marseille","lat":43.282754,"lon":5.350519,"is_reserved":false,"is_disabled":false,"rental_uris":{"android":"levelo://app?vid=aa6c04b7-e2f7-41e8-a6bf-e1dbf1d236e1","ios":"levelo://app?vid=aa6c04b7-e2f7-41e8-a6bf-e1dbf1d236e1"},"vehicle_type_id":"4","last_reported":1700312835,"current_range_meters":9200,"station_id":"ce4bhbp2rcd13ifvqerg","pricing_plan_id":"free"},{"bike_id":"1c076b2f-f293-4814-8742-d5bbecec7dfc","system_id":"levelo_inurba_marseille","lat":43.280367,"lon":5.369543,"is_reserved":false,"is_disabled":false,"rental_uris":{"android":"levelo://app?vid=1c076b2f-f293-4814-8742-d5bbecec7dfc","ios":"levelo://app?vid=1c076b2f-f293-4814-8742-d5bbecec7dfc"},"vehicle_type_id":"4","last_reported":1700312835,"current_range_meters":21600,"station_id":"ce4bha12rcd13ifvqef0","pricing_plan_id":"free"},{"bike_id":"84290a52-357c-4fb2-9d18-2181637eb39a","system_id":"levelo_inurba_marseille","lat":43.28039,"lon":5.369297,"is_reserved":false,"is_disabled":false,"rental_uris":{"android":"levelo://app?vid=84290a52-357c-4fb2-9d18-2181637eb39a","ios":"levelo://app?vid=84290a52-357c-4fb2-9d18-2181637eb39a"},"vehicle_type_id":"4","last_reported":1700312835,"current_range_meters":6800,"station_id":"ce4bha12rcd13ifvqef0","pricing_plan_id":"free"},{"bike_id":"e5554104-ee7a-43a7-950f-e73d71479605","system_id":"levelo_inurba_marseille","lat":43.273125,"lon":5.390731,"is_reserved":false,"is_disabled":false,"rental_uris":{"android":"levelo://app?vid=e5554104-ee7a-43a7-950f-e73d71479605","ios":"levelo://app?vid=e5554104-ee7a-43a7-950f-e73d71479605"},"vehicle_type_id":"4","last_reported":1700312835,"current_range_meters":5200,"station_id":"ce4bhgp2rcd13ifvqfe0","pricing_plan_id":"free"},{"bike_id":"ccf9b17e-2fb6-47d5-b5cb-73ea08fcb6e5","system_id":"levelo_inurba_marseille","lat":43.28575,"lon":5.39498,"is_reserved":false,"is_disabled":false,"rental_uris":{"android":"levelo://app?vid=ccf9b17e-2fb6-47d5-b5cb-73ea08fcb6e5","ios":"levelo://app?vid=ccf9b17e-2fb6-47d5-b5cb-73ea08fcb6e5"},"vehicle_type_id":"4","last_reported":1700312835,"current_range_meters":1200,"station_id":"ce4bh292rcd13ifvqdg0","pricing_plan_id":"free"},{"bike_id":"feca28d2-7019-4e39-96be-d7938cc29597","system_id":"levelo_inurba_marseille","lat":43.32435,"lon":5.4137,"is_reserved":false,"is_disabled":false,"rental_uris":{"android":"levelo://app?vid=feca28d2-7019-4e39-96be-d7938cc29597","ios":"levelo://app?vid=feca28d2-7019-4e39-96be-d7938cc29597"},"vehicle_type_id":"4","last_reported":1700312835,"current_range_meters":0,"station_id":"","pricing_plan_id":"free"},{"bike_id":"3270450e-872f-460b-b417-06bfdfd29447","system_id":"levelo_inurba_marseille","lat":43.299222,"lon":5.365554,"is_reserved":false,"is_disabled":false,"rental_uris":{"android":"levelo://app?vid=3270450e-872f-460b-b417-06bfdfd29447","ios":"levelo://app?vid=3270450e-872f-460b-b417-06bfdfd29447"},"vehicle_type_id":"4","last_reported":1700312835,"current_range_meters":7200,"station_id":"ce4bgm92rcd13ifvqbr0","pricing_plan_id":"free"},{"bike_id":"b51c519d-eb9c-462c-b911-7f347933ffaf","system_id":"levelo_inurba_marseille","lat":43.29372,"lon":5.412694,"is_reserved":false,"is_disabled":false,"rental_uris":{"android":"levelo://app?vid=b51c519d-eb9c-462c-b911-7f347933ffaf","ios":"levelo://app?vid=b51c519d-eb9c-462c-b911-7f347933ffaf"},"vehicle_type_id":"4","last_reported":1700312835,"current_range_meters":21200,"station_id":"","pricing_plan_id":"free"},{"bike_id":"504a6ae0-cef6-4e99-b976-730febfcb0ce","system_id":"levelo_inurba_marseille","lat":43.30349,"lon":5.41877,"is_reserved":false,"is_disabled":false,"rental_uris":{"android":"levelo://app?vid=504a6ae0-cef6-4e99-b976-730febfcb0ce","ios":"levelo://app?vid=504a6ae0-cef6-4e99-b976-730febfcb0ce"},"vehicle_type_id":"4","last_reported":1700312835,"current_range_meters":21200,"station_id":"ce4bhop2rcd13ifvqh7g","pricing_plan_id":"free"},{"bike_id":"dc9258ff-1819-4193-ae67-9d70ccfcc22b","system_id":"levelo_inurba_marseille","lat":43.30352,"lon":5.41885,"is_reserved":false,"is_disabled":false,"rental_uris":{"android":"levelo://app?vid=dc9258ff-1819-4193-ae67-9d70ccfcc22b","ios":"levelo://app?vid=dc9258ff-1819-4193-ae67-9d70ccfcc22b"},"vehicle_type_id":"4","last_reported":1700312835,"current_range_meters":20000,"station_id":"ce4bhop2rcd13ifvqh7g","pricing_plan_id":"free"},{"bike_id":"33d6701f-8cbc-4679-8584-6384c98c2f76","system_id":"levelo_inurba_marseille","lat":43.278401,"lon":5.392152,"is_reserved":false,"is_disabled":false,"rental_uris":{"android":"levelo://app?vid=33d6701f-8cbc-4679-8584-6384c98c2f76","ios":"levelo://app?vid=33d6701f-8cbc-4679-8584-6384c98c2f76"},"vehicle_type_id":"4","last_reported":1700312835,"current_range_meters":14800,"station_id":"ce4bhjp2rcd13ifvqga0","pricing_plan_id":"free"},{"bike_id":"2c6d1e26-c75a-4988-8cec-e88479a3de5b","system_id":"levelo_inurba_marseille","lat":43.273613,"lon":5.362705,"is_reserved":false,"is_disabled":false,"rental_uris":{"android":"levelo://app?vid=2c6d1e26-c75a-4988-8cec-e88479a3de5b","ios":"levelo://app?vid=2c6d1e26-c75a-4988-8cec-e88479a3de5b"},"vehicle_type_id":"4","last_reported":1700312835,"current_range_meters":17200,"station_id":"ce4bhbh2rcd13ifvqeo0","pricing_plan_id":"free"},{"bike_id":"a42e6500-343f-47ad-b3d3-a40e49c4667a","system_id":"levelo_inurba_marseille","lat":43.273613,"lon":5.362705,"is_reserved":false,"is_disabled":false,"rental_uris":{"android":"levelo://app?vid=a42e6500-343f-47ad-b3d3-a40e49c4667a","ios":"levelo://app?vid=a42e6500-343f-47ad-b3d3-a40e49c4667a"},"vehicle_type_id":"4","last_reported":1700312835,"current_range_meters":26000,"station_id":"ce4bhbh2rcd13ifvqeo0","pricing_plan_id":"free"},{"bike_id":"4f69c631-5518-43f6-b4b2-5f1c0110625f","system_id":"levelo_inurba_marseille","lat":43.273609,"lon":5.362708,"is_reserved":false,"is_disabled":false,"rental_uris":{"android":"levelo://app?vid=4f69c631-5518-43f6-b4b2-5f1c0110625f","ios":"levelo://app?vid=4f69c631-5518-43f6-b4b2-5f1c0110625f"},"vehicle_type_id":"4","last_reported":1700312835,"current_range_meters":25200,"station_id":"ce4bhbh2rcd13ifvqeo0","pricing_plan_id":"free"},{"bike_id":"830a7c97-9ac3-478a-8093-db3155a6867e","system_id":"levelo_inurba_marseille","lat":43.273613,"lon":5.362705,"is_reserved":false,"is_disabled":false,"rental_uris":{"android":"levelo://app?vid=830a7c97-9ac3-478a-8093-db3155a6867e","ios":"levelo://app?vid=830a7c97-9ac3-478a-8093-db3155a6867e"},"vehicle_type_id":"4","last_reported":1700312835,"current_range_meters":31200,"station_id":"ce4bhbh2rcd13ifvqeo0","pricing_plan_id":"free"},{"bike_id":"013f608a-ab9e-4ddf-95d9-3cf410779f44","system_id":"levelo_inurba_marseille","lat":43.276771,"lon":5.388799,"is_reserved":false,"is_disabled":false,"rental_uris":{"android":"levelo://app?vid=013f608a-ab9e-4ddf-95d9-3cf410779f44","ios":"levelo://app?vid=013f608a-ab9e-4ddf-95d9-3cf410779f44"},"vehicle_type_id":"4","last_reported":1700312835,"current_range_meters":18000,"station_id":"ce4bhi12rcd13ifvqfo0","pricing_plan_id":"free"},{"bike_id":"b2eda925-4029-4ed3-9d24-73e7b95690ed","system_id":"levelo_inurba_marseille","lat":43.33612,"lon":5.410321,"is_reserved":false,"is_disabled":false,"rental_uris":{"android":"levelo://app?vid=b2eda925-4029-4ed3-9d24-73e7b95690ed","ios":"levelo://app?vid=b2eda925-4029-4ed3-9d24-73e7b95690ed"},"vehicle_type_id":"4","last_reported":1700312835,"current_range_meters":8000,"station_id":"ce4bhqh2rcd13ifvqhmg","pricing_plan_id":"free"},{"bike_id":"21a79381-c590-43fa-b57c-d9f763a4b9f0","system_id":"levelo_inurba_marseille","lat":43.279952,"lon":5.400085,"is_reserved":false,"is_disabled":false,"rental_uris":{"android":"levelo://app?vid=21a79381-c590-43fa-b57c-d9f763a4b9f0","ios":"levelo://app?vid=21a79381-c590-43fa-b57c-d9f763a4b9f0"},"vehicle_type_id":"4","last_reported":1700312835,"current_range_meters":21600,"station_id":"ce4bho92rcd13ifvqh4g","pricing_plan_id":"free"},{"bike_id":"28eb2950-647d-44d2-a49b-6ada0aac509a","system_id":"levelo_inurba_marseille","lat":43.31721,"lon":5.42396,"is_reserved":false,"is_disabled":false,"rental_uris":{"android":"levelo://app?vid=28eb2950-647d-44d2-a49b-6ada0aac509a","ios":"levelo://app?vid=28eb2950-647d-44d2-a49b-6ada0aac509a"},"vehicle_type_id":"4","last_reported":1700312835,"current_range_meters":28400,"station_id":"ce4bhp92rcd13ifvqhbg","pricing_plan_id":"free"},{"bike_id":"00a8f92a-4508-4492-b23c-a088f1c0bc01","system_id":"levelo_inurba_marseille","lat":43.31718,"lon":5.42397,"is_reserved":false,"is_disabled":false,"rental_uris":{"android":"levelo://app?vid=00a8f92a-4508-4492-b23c-a088f1c0bc01","ios":"levelo://app?vid=00a8f92a-4508-4492-b23c-a088f1c0bc01"},"vehicle_type_id":"4","last_reported":1700312835,"current_range_meters":21200,"station_id":"ce4bhp92rcd13ifvqhbg","pricing_plan_id":"free"},{"bike_id":"fb22bd50-f0d2-4147-96d1-15b1701477ba","system_id":"levelo_inurba_marseille","lat":43.31718,"lon":5.42398,"is_reserved":false,"is_disabled":false,"rental_uris":{"android":"levelo://app?vid=fb22bd50-f0d2-4147-96d1-15b1701477ba","ios":"levelo://app?vid=fb22bd50-f0d2-4147-96d1-15b1701477ba"},"vehicle_type_id":"4","last_reported":1700312835,"current_range_meters":6800,"station_id":"ce4bhp92rcd13ifvqhbg","pricing_plan_id":"free"},{"bike_id":"1f675464-1fc9-4eb9-949d-be8a1f26b9d4","system_id":"levelo_inurba_marseille","lat":43.310785,"lon":5.424305,"is_reserved":false,"is_disabled":false,"rental_uris":{"android":"levelo://app?vid=1f675464-1fc9-4eb9-949d-be8a1f26b9d4","ios":"levelo://app?vid=1f675464-1fc9-4eb9-949d-be8a1f26b9d4"},"vehicle_type_id":"4","last_reported":1700312835,"current_range_meters":30000,"station_id":"ce4bhp92rcd13ifvqhag","pricing_plan_id":"free"},{"bike_id":"2eb9c8ea-eafc-4114-96e5-18995d764647","system_id":"levelo_inurba_marseille","lat":43.310785,"lon":5.424305,"is_reserved":false,"is_disabled":false,"rental_uris":{"android":"levelo://app?vid=2eb9c8ea-eafc-4114-96e5-18995d764647","ios":"levelo://app?vid=2eb9c8ea-eafc-4114-96e5-18995d764647"},"vehicle_type_id":"4","last_reported":1700312835,"current_range_meters":27600,"station_id":"ce4bhp92rcd13ifvqhag","pricing_plan_id":"free"},{"bike_id":"1c127fa9-e656-41b4-8bf3-329468a52cb7","system_id":"levelo_inurba_marseille","lat":43.274103,"lon":5.394016,"is_reserved":false,"is_disabled":false,"rental_uris":{"android":"levelo://app?vid=1c127fa9-e656-41b4-8bf3-329468a52cb7","ios":"levelo://app?vid=1c127fa9-e656-41b4-8bf3-329468a52cb7"},"vehicle_type_id":"4","last_reported":1700312835,"current_range_meters":26000,"station_id":"ce4bhdp2rcd13ifvqf20","pricing_plan_id":"free"},{"bike_id":"a7e0fbce-521d-45fa-91e6-b684e5790ebb","system_id":"levelo_inurba_marseille","lat":43.274099,"lon":5.394019,"is_reserved":false,"is_disabled":false,"rental_uris":{"android":"levelo://app?vid=a7e0fbce-521d-45fa-91e6-b684e5790ebb","ios":"levelo://app?vid=a7e0fbce-521d-45fa-91e6-b684e5790ebb"},"vehicle_type_id":"4","last_reported":1700312835,"current_range_meters":23600,"station_id":"ce4bhdp2rcd13ifvqf20","pricing_plan_id":"free"},{"bike_id":"b57045a7-fdb7-4b81-94ca-5f1aeba5dbd1","system_id":"levelo_inurba_marseille","lat":43.3041,"lon":5.42545,"is_reserved":false,"is_disabled":false,"rental_uris":{"android":"levelo://app?vid=b57045a7-fdb7-4b81-94ca-5f1aeba5dbd1","ios":"levelo://app?vid=b57045a7-fdb7-4b81-94ca-5f1aeba5dbd1"},"vehicle_type_id":"4","last_reported":1700312835,"current_range_meters":26400,"station_id":"ce4bhoh2rcd13ifvqh6g","pricing_plan_id":"free"},{"bike_id":"759e8ac9-1486-43bd-8839-3ad13362e46f","system_id":"levelo_inurba_marseille","lat":43.29551,"lon":5.42292,"is_reserved":false,"is_disabled":false,"rental_uris":{"android":"levelo://app?vid=759e8ac9-1486-43bd-8839-3ad13362e46f","ios":"levelo://app?vid=759e8ac9-1486-43bd-8839-3ad13362e46f"},"vehicle_type_id":"4","last_reported":1700312835,"current_range_meters":12400,"station_id":"ce4bhph2rcd13ifvqhdg","pricing_plan_id":"free"},{"bike_id":"4b007bb4-248b-45b1-85f3-ee07ebd14493","system_id":"levelo_inurba_marseille","lat":43.272116,"lon":5.391763,"is_reserved":false,"is_disabled":false,"rental_uris":{"android":"levelo://app?vid=4b007bb4-248b-45b1-85f3-ee07ebd14493","ios":"levelo://app?vid=4b007bb4-248b-45b1-85f3-ee07ebd14493"},"vehicle_type_id":"4","last_reported":1700312835,"current_range_meters":30000,"station_id":"ce4bhhp2rcd13ifvqfm0","pricing_plan_id":"free"},{"bike_id":"566f4259-f954-4407-bc90-4a184b47b827","system_id":"levelo_inurba_marseille","lat":43.272116,"lon":5.391763,"is_reserved":false,"is_disabled":false,"rental_uris":{"android":"levelo://app?vid=566f4259-f954-4407-bc90-4a184b47b827","ios":"levelo://app?vid=566f4259-f954-4407-bc90-4a184b47b827"},"vehicle_type_id":"4","last_reported":1700312835,"current_range_meters":11200,"station_id":"ce4bhhp2rcd13ifvqfm0","pricing_plan_id":"free"},{"bike_id":"139753b1-0b83-4c3a-80f1-5052bac15461","system_id":"levelo_inurba_marseille","lat":43.2722,"lon":5.39237,"is_reserved":false,"is_disabled":false,"rental_uris":{"android":"levelo://app?vid=139753b1-0b83-4c3a-80f1-5052bac15461","ios":"levelo://app?vid=139753b1-0b83-4c3a-80f1-5052bac15461"},"vehicle_type_id":"4","last_reported":1700312835,"current_range_meters":8000,"station_id":"","pricing_plan_id":"free"},{"bike_id":"fe139271-7817-4645-9ec4-f7eee743e805","system_id":"levelo_inurba_marseille","lat":43.271896,"lon":5.392307,"is_reserved":false,"is_disabled":false,"rental_uris":{"android":"levelo://app?vid=fe139271-7817-4645-9ec4-f7eee743e805","ios":"levelo://app?vid=fe139271-7817-4645-9ec4-f7eee743e805"},"vehicle_type_id":"4","last_reported":1700312835,"current_range_meters":0,"station_id":"ce4bhhp2rcd13ifvqfm0","pricing_plan_id":"free"},{"bike_id":"f0ed4531-078e-42fb-a007-3ed80505eb54","system_id":"levelo_inurba_marseille","lat":43.271891,"lon":5.392412,"is_reserved":false,"is_disabled":false,"rental_uris":{"android":"levelo://app?vid=f0ed4531-078e-42fb-a007-3ed80505eb54","ios":"levelo://app?vid=f0ed4531-078e-42fb-a007-3ed80505eb54"},"vehicle_type_id":"4","last_reported":1700312835,"current_range_meters":7200,"station_id":"","pricing_plan_id":"free"},{"bike_id":"7e48823d-3368-424a-8f05-724cbe3dcb0a","system_id":"levelo_inurba_marseille","lat":43.278128,"lon":5.407195,"is_reserved":false,"is_disabled":false,"rental_uris":{"android":"levelo://app?vid=7e48823d-3368-424a-8f05-724cbe3dcb0a","ios":"levelo://app?vid=7e48823d-3368-424a-8f05-724cbe3dcb0a"},"vehicle_type_id":"4","last_reported":1700312835,"current_range_meters":31600,"station_id":"ce4bhnh2rcd13ifvqgtg","pricing_plan_id":"free"},{"bike_id":"d3297483-db65-491b-ab31-9f40e9ff3279","system_id":"levelo_inurba_marseille","lat":43.278128,"lon":5.407195,"is_reserved":false,"is_disabled":false,"rental_uris":{"android":"levelo://app?vid=d3297483-db65-491b-ab31-9f40e9ff3279","ios":"levelo://app?vid=d3297483-db65-491b-ab31-9f40e9ff3279"},"vehicle_type_id":"4","last_reported":1700312835,"current_range_meters":2000,"station_id":"ce4bhnh2rcd13ifvqgtg","pricing_plan_id":"free"},{"bike_id":"2829b03a-2608-44ae-9b8c-e4db8a42a553","system_id":"levelo_inurba_marseille","lat":43.278128,"lon":5.407195,"is_reserved":false,"is_disabled":false,"rental_uris":{"android":"levelo://app?vid=2829b03a-2608-44ae-9b8c-e4db8a42a553","ios":"levelo://app?vid=2829b03a-2608-44ae-9b8c-e4db8a42a553"},"vehicle_type_id":"4","last_reported":1700312835,"current_range_meters":20800,"station_id":"ce4bhnh2rcd13ifvqgtg","pricing_plan_id":"free"},{"bike_id":"745d767e-1d5b-4172-916e-d64df886c961","system_id":"levelo_inurba_marseille","lat":43.269467,"lon":5.386439,"is_reserved":false,"is_disabled":false,"rental_uris":{"android":"levelo://app?vid=745d767e-1d5b-4172-916e-d64df886c961","ios":"levelo://app?vid=745d767e-1d5b-4172-916e-d64df886c961"},"vehicle_type_id":"4","last_reported":1700312835,"current_range_meters":5200,"station_id":"ce4bhh92rcd13ifvqfh0","pricing_plan_id":"free"},{"bike_id":"f2e047b8-a8c4-45e3-b12f-8c8901b1d441","system_id":"levelo_inurba_marseille","lat":43.269467,"lon":5.386439,"is_reserved":false,"is_disabled":false,"rental_uris":{"android":"levelo://app?vid=f2e047b8-a8c4-45e3-b12f-8c8901b1d441","ios":"levelo://app?vid=f2e047b8-a8c4-45e3-b12f-8c8901b1d441"},"vehicle_type_id":"4","last_reported":1700312835,"current_range_meters":25200,"station_id":"ce4bhh92rcd13ifvqfh0","pricing_plan_id":"free"},{"bike_id":"462126be-b935-4202-aab0-db26edf447e2","system_id":"levelo_inurba_marseille","lat":43.326123,"lon":5.427103,"is_reserved":false,"is_disabled":false,"rental_uris":{"android":"levelo://app?vid=462126be-b935-4202-aab0-db26edf447e2","ios":"levelo://app?vid=462126be-b935-4202-aab0-db26edf447e2"},"vehicle_type_id":"4","last_reported":1700312835,"current_range_meters":11600,"station_id":"","pricing_plan_id":"free"},{"bike_id":"618d4bf9-94d2-4beb-aeca-8872214d9773","system_id":"levelo_inurba_marseille","lat":43.27943,"lon":5.41043,"is_reserved":false,"is_disabled":false,"rental_uris":{"android":"levelo://app?vid=618d4bf9-94d2-4beb-aeca-8872214d9773","ios":"levelo://app?vid=618d4bf9-94d2-4beb-aeca-8872214d9773"},"vehicle_type_id":"4","last_reported":1700312835,"current_range_meters":10000,"station_id":"ce4bhnp2rcd13ifvqh0g","pricing_plan_id":"free"},{"bike_id":"cb23a270-3f2c-423a-bafa-1ae6818e92e6","system_id":"levelo_inurba_marseille","lat":43.279465,"lon":5.410561,"is_reserved":false,"is_disabled":false,"rental_uris":{"android":"levelo://app?vid=cb23a270-3f2c-423a-bafa-1ae6818e92e6","ios":"levelo://app?vid=cb23a270-3f2c-423a-bafa-1ae6818e92e6"},"vehicle_type_id":"4","last_reported":1700312835,"current_range_meters":30000,"station_id":"ce4bhnp2rcd13ifvqh0g","pricing_plan_id":"free"},{"bike_id":"6b1abe4a-65db-4a34-bf30-585c47cfe678","system_id":"levelo_inurba_marseille","lat":43.26681,"lon":5.382694,"is_reserved":false,"is_disabled":false,"rental_uris":{"android":"levelo://app?vid=6b1abe4a-65db-4a34-bf30-585c47cfe678","ios":"levelo://app?vid=6b1abe4a-65db-4a34-bf30-585c47cfe678"},"vehicle_type_id":"4","last_reported":1700312835,"current_range_meters":3600,"station_id":"ce4bhg92rcd13ifvqf90","pricing_plan_id":"free"},{"bike_id":"10f0e999-d9a8-4fa2-a4cb-f76a74212880","system_id":"levelo_inurba_marseille","lat":43.26681,"lon":5.382694,"is_reserved":false,"is_disabled":false,"rental_uris":{"android":"levelo://app?vid=10f0e999-d9a8-4fa2-a4cb-f76a74212880","ios":"levelo://app?vid=10f0e999-d9a8-4fa2-a4cb-f76a74212880"},"vehicle_type_id":"4","last_reported":1700312835,"current_range_meters":21200,"station_id":"ce4bhg92rcd13ifvqf90","pricing_plan_id":"free"},{"bike_id":"92f225ad-659f-46d8-be25-9ea2f92ac339","system_id":"levelo_inurba_marseille","lat":43.26681,"lon":5.382694,"is_reserved":false,"is_disabled":false,"rental_uris":{"android":"levelo://app?vid=92f225ad-659f-46d8-be25-9ea2f92ac339","ios":"levelo://app?vid=92f225ad-659f-46d8-be25-9ea2f92ac339"},"vehicle_type_id":"4","last_reported":1700312835,"current_range_meters":10800,"station_id":"ce4bhg92rcd13ifvqf90","pricing_plan_id":"free"},{"bike_id":"89c138a0-4380-46b6-b25e-4006904b6e5b","system_id":"levelo_inurba_marseille","lat":43.26681,"lon":5.382694,"is_reserved":false,"is_disabled":false,"rental_uris":{"android":"levelo://app?vid=89c138a0-4380-46b6-b25e-4006904b6e5b","ios":"levelo://app?vid=89c138a0-4380-46b6-b25e-4006904b6e5b"},"vehicle_type_id":"4","last_reported":1700312835,"current_range_meters":25200,"station_id":"ce4bhg92rcd13ifvqf90","pricing_plan_id":"free"},{"bike_id":"c7758cb2-2a45-4f89-aa5c-0e391d845c76","system_id":"levelo_inurba_marseille","lat":43.326053,"lon":5.429943,"is_reserved":false,"is_disabled":false,"rental_uris":{"android":"levelo://app?vid=c7758cb2-2a45-4f89-aa5c-0e391d845c76","ios":"levelo://app?vid=c7758cb2-2a45-4f89-aa5c-0e391d845c76"},"vehicle_type_id":"4","last_reported":1700312835,"current_range_meters":2800,"station_id":"","pricing_plan_id":"free"},{"bike_id":"42871d3b-8c03-490f-baf1-f4b57c44a331","system_id":"levelo_inurba_marseille","lat":43.3263,"lon":5.430806,"is_reserved":false,"is_disabled":false,"rental_uris":{"android":"levelo://app?vid=42871d3b-8c03-490f-baf1-f4b57c44a331","ios":"levelo://app?vid=42871d3b-8c03-490f-baf1-f4b57c44a331"},"vehicle_type_id":"4","last_reported":1700312835,"current_range_meters":16800,"station_id":"","pricing_plan_id":"free"},{"bike_id":"a0ba0866-4775-43ea-9794-0a96da2d2390","system_id":"levelo_inurba_marseille","lat":43.26564,"lon":5.38995,"is_reserved":false,"is_disabled":false,"rental_uris":{"android":"levelo://app?vid=a0ba0866-4775-43ea-9794-0a96da2d2390","ios":"levelo://app?vid=a0ba0866-4775-43ea-9794-0a96da2d2390"},"vehicle_type_id":"4","last_reported":1700312835,"current_range_meters":26000,"station_id":"ce4bhe12rcd13ifvqf30","pricing_plan_id":"free"},{"bike_id":"f0175f81-d7c8-4391-a460-3183e811a9df","system_id":"levelo_inurba_marseille","lat":43.26563,"lon":5.39003,"is_reserved":false,"is_disabled":false,"rental_uris":{"android":"levelo://app?vid=f0175f81-d7c8-4391-a460-3183e811a9df","ios":"levelo://app?vid=f0175f81-d7c8-4391-a460-3183e811a9df"},"vehicle_type_id":"4","last_reported":1700312835,"current_range_meters":26000,"station_id":"ce4bhe12rcd13ifvqf30","pricing_plan_id":"free"},{"bike_id":"7e9c3bb3-bbcb-4431-82c8-ec9ac37a1c73","system_id":"levelo_inurba_marseille","lat":43.26562,"lon":5.39009,"is_reserved":false,"is_disabled":false,"rental_uris":{"android":"levelo://app?vid=7e9c3bb3-bbcb-4431-82c8-ec9ac37a1c73","ios":"levelo://app?vid=7e9c3bb3-bbcb-4431-82c8-ec9ac37a1c73"},"vehicle_type_id":"4","last_reported":1700312835,"current_range_meters":16400,"station_id":"ce4bhe12rcd13ifvqf30","pricing_plan_id":"free"},{"bike_id":"92c39587-1a8a-4ed1-be3a-6ce05444dbaf","system_id":"levelo_inurba_marseille","lat":43.265569,"lon":5.390047,"is_reserved":false,"is_disabled":false,"rental_uris":{"android":"levelo://app?vid=92c39587-1a8a-4ed1-be3a-6ce05444dbaf","ios":"levelo://app?vid=92c39587-1a8a-4ed1-be3a-6ce05444dbaf"},"vehicle_type_id":"4","last_reported":1700312835,"current_range_meters":20000,"station_id":"ce4bhe12rcd13ifvqf30","pricing_plan_id":"free"},{"bike_id":"b5b543e4-b7aa-4f7e-bd19-11eefb51aac1","system_id":"levelo_inurba_marseille","lat":43.26559,"lon":5.39002,"is_reserved":false,"is_disabled":false,"rental_uris":{"android":"levelo://app?vid=b5b543e4-b7aa-4f7e-bd19-11eefb51aac1","ios":"levelo://app?vid=b5b543e4-b7aa-4f7e-bd19-11eefb51aac1"},"vehicle_type_id":"4","last_reported":1700312835,"current_range_meters":21200,"station_id":"ce4bhe12rcd13ifvqf30","pricing_plan_id":"free"},{"bike_id":"2afadb63-a297-4b2f-abe7-eb2aa6ae0f17","system_id":"levelo_inurba_marseille","lat":43.265615,"lon":5.3902,"is_reserved":false,"is_disabled":false,"rental_uris":{"android":"levelo://app?vid=2afadb63-a297-4b2f-abe7-eb2aa6ae0f17","ios":"levelo://app?vid=2afadb63-a297-4b2f-abe7-eb2aa6ae0f17"},"vehicle_type_id":"4","last_reported":1700312835,"current_range_meters":28800,"station_id":"ce4bhe12rcd13ifvqf30","pricing_plan_id":"free"},{"bike_id":"d077710c-062f-4bb5-bc07-f925193fbbe9","system_id":"levelo_inurba_marseille","lat":43.31711,"lon":5.43693,"is_reserved":false,"is_disabled":false,"rental_uris":{"android":"levelo://app?vid=d077710c-062f-4bb5-bc07-f925193fbbe9","ios":"levelo://app?vid=d077710c-062f-4bb5-bc07-f925193fbbe9"},"vehicle_type_id":"4","last_reported":1700312835,"current_range_meters":6800,"station_id":"ce4bhp92rcd13ifvqhcg","pricing_plan_id":"free"},{"bike_id":"802ce0a4-d556-447b-bd93-4352fcbc5e24","system_id":"levelo_inurba_marseille","lat":43.317104,"lon":5.436818,"is_reserved":false,"is_disabled":false,"rental_uris":{"android":"levelo://app?vid=802ce0a4-d556-447b-bd93-4352fcbc5e24","ios":"levelo://app?vid=802ce0a4-d556-447b-bd93-4352fcbc5e24"},"vehicle_type_id":"4","last_reported":1700312835,"current_range_meters":26400,"station_id":"ce4bhp92rcd13ifvqhcg","pricing_plan_id":"free"},{"bike_id":"784d80d8-896e-47bd-b3d7-848c15221843","system_id":"levelo_inurba_marseille","lat":43.317104,"lon":5.436818,"is_reserved":false,"is_disabled":false,"rental_uris":{"android":"levelo://app?vid=784d80d8-896e-47bd-b3d7-848c15221843","ios":"levelo://app?vid=784d80d8-896e-47bd-b3d7-848c15221843"},"vehicle_type_id":"4","last_reported":1700312835,"current_range_meters":24400,"station_id":"ce4bhp92rcd13ifvqhcg","pricing_plan_id":"free"},{"bike_id":"19dbfa52-5e1e-41b2-8d09-a3c39206b348","system_id":"levelo_inurba_marseille","lat":43.271388,"lon":5.409269,"is_reserved":false,"is_disabled":false,"rental_uris":{"android":"levelo://app?vid=19dbfa52-5e1e-41b2-8d09-a3c39206b348","ios":"levelo://app?vid=19dbfa52-5e1e-41b2-8d09-a3c39206b348"},"vehicle_type_id":"4","last_reported":1700312835,"current_range_meters":28800,"station_id":"ce4bhl12rcd13ifvqgf0","pricing_plan_id":"free"},{"bike_id":"74ce853b-0d8b-42c9-81c8-17a7564a4b34","system_id":"levelo_inurba_marseille","lat":43.31725,"lon":5.43786,"is_reserved":false,"is_disabled":false,"rental_uris":{"android":"levelo://app?vid=74ce853b-0d8b-42c9-81c8-17a7564a4b34","ios":"levelo://app?vid=74ce853b-0d8b-42c9-81c8-17a7564a4b34"},"vehicle_type_id":"4","last_reported":1700312835,"current_range_meters":18400,"station_id":"","pricing_plan_id":"free"},{"bike_id":"4f6880f4-3164-4fc2-9cf7-3c1358040f10","system_id":"levelo_inurba_marseille","lat":43.290501,"lon":5.433305,"is_reserved":false,"is_disabled":false,"rental_uris":{"android":"levelo://app?vid=4f6880f4-3164-4fc2-9cf7-3c1358040f10","ios":"levelo://app?vid=4f6880f4-3164-4fc2-9cf7-3c1358040f10"},"vehicle_type_id":"4","last_reported":1700312835,"current_range_meters":0,"station_id":"","pricing_plan_id":"free"},{"bike_id":"0e7d9356-4c6d-4c5c-b8dd-3be851203d88","system_id":"levelo_inurba_marseille","lat":43.281548,"lon":5.42643,"is_reserved":false,"is_disabled":false,"rental_uris":{"android":"levelo://app?vid=0e7d9356-4c6d-4c5c-b8dd-3be851203d88","ios":"levelo://app?vid=0e7d9356-4c6d-4c5c-b8dd-3be851203d88"},"vehicle_type_id":"4","last_reported":1700312835,"current_range_meters":29600,"station_id":"ce4bhnh2rcd13ifvqgug","pricing_plan_id":"free"},{"bike_id":"748b4aaa-9753-4b99-95bc-3120fefa3efe","system_id":"levelo_inurba_marseille","lat":43.31977,"lon":5.439596,"is_reserved":false,"is_disabled":false,"rental_uris":{"android":"levelo://app?vid=748b4aaa-9753-4b99-95bc-3120fefa3efe","ios":"levelo://app?vid=748b4aaa-9753-4b99-95bc-3120fefa3efe"},"vehicle_type_id":"4","last_reported":1700312835,"current_range_meters":14800,"station_id":"","pricing_plan_id":"free"},{"bike_id":"c687b984-17d3-4d86-b43e-f65a96a30c7c","system_id":"levelo_inurba_marseille","lat":43.281548,"lon":5.42643,"is_reserved":false,"is_disabled":false,"rental_uris":{"android":"levelo://app?vid=c687b984-17d3-4d86-b43e-f65a96a30c7c","ios":"levelo://app?vid=c687b984-17d3-4d86-b43e-f65a96a30c7c"},"vehicle_type_id":"4","last_reported":1700312835,"current_range_meters":30400,"station_id":"ce4bhnh2rcd13ifvqgug","pricing_plan_id":"free"},{"bike_id":"e519433d-e174-46ac-866c-5aa69d990273","system_id":"levelo_inurba_marseille","lat":43.281548,"lon":5.42643,"is_reserved":false,"is_disabled":false,"rental_uris":{"android":"levelo://app?vid=e519433d-e174-46ac-866c-5aa69d990273","ios":"levelo://app?vid=e519433d-e174-46ac-866c-5aa69d990273"},"vehicle_type_id":"4","last_reported":1700312835,"current_range_meters":23200,"station_id":"ce4bhnh2rcd13ifvqgug","pricing_plan_id":"free"},{"bike_id":"8e47fb1c-8820-40c2-9716-703cc59fb835","system_id":"levelo_inurba_marseille","lat":43.281548,"lon":5.42643,"is_reserved":false,"is_disabled":false,"rental_uris":{"android":"levelo://app?vid=8e47fb1c-8820-40c2-9716-703cc59fb835","ios":"levelo://app?vid=8e47fb1c-8820-40c2-9716-703cc59fb835"},"vehicle_type_id":"4","last_reported":1700312835,"current_range_meters":30800,"station_id":"ce4bhnh2rcd13ifvqgug","pricing_plan_id":"free"},{"bike_id":"8e6f5f20-81b8-452e-8169-214f97831e53","system_id":"levelo_inurba_marseille","lat":43.281548,"lon":5.42643,"is_reserved":false,"is_disabled":false,"rental_uris":{"android":"levelo://app?vid=8e6f5f20-81b8-452e-8169-214f97831e53","ios":"levelo://app?vid=8e6f5f20-81b8-452e-8169-214f97831e53"},"vehicle_type_id":"4","last_reported":1700312835,"current_range_meters":28400,"station_id":"ce4bhnh2rcd13ifvqgug","pricing_plan_id":"free"},{"bike_id":"a0d59a27-45ae-4c52-95c3-c9f8994fc187","system_id":"levelo_inurba_marseille","lat":43.281548,"lon":5.42643,"is_reserved":false,"is_disabled":false,"rental_uris":{"android":"levelo://app?vid=a0d59a27-45ae-4c52-95c3-c9f8994fc187","ios":"levelo://app?vid=a0d59a27-45ae-4c52-95c3-c9f8994fc187"},"vehicle_type_id":"4","last_reported":1700312835,"current_range_meters":20800,"station_id":"ce4bhnh2rcd13ifvqgug","pricing_plan_id":"free"},{"bike_id":"67650160-3b05-4f79-94f5-55b3cdd7a959","system_id":"levelo_inurba_marseille","lat":43.281548,"lon":5.42643,"is_reserved":false,"is_disabled":false,"rental_uris":{"android":"levelo://app?vid=67650160-3b05-4f79-94f5-55b3cdd7a959","ios":"levelo://app?vid=67650160-3b05-4f79-94f5-55b3cdd7a959"},"vehicle_type_id":"4","last_reported":1700312835,"current_range_meters":20800,"station_id":"ce4bhnh2rcd13ifvqgug","pricing_plan_id":"free"},{"bike_id":"f0c12d5b-4f61-4a00-bd6b-904d0409d807","system_id":"levelo_inurba_marseille","lat":43.2815,"lon":5.42645,"is_reserved":false,"is_disabled":false,"rental_uris":{"android":"levelo://app?vid=f0c12d5b-4f61-4a00-bd6b-904d0409d807","ios":"levelo://app?vid=f0c12d5b-4f61-4a00-bd6b-904d0409d807"},"vehicle_type_id":"4","last_reported":1700312835,"current_range_meters":14400,"station_id":"ce4bhnh2rcd13ifvqgug","pricing_plan_id":"free"},{"bike_id":"ba343a96-b108-42f1-a93c-b6a851b91747","system_id":"levelo_inurba_marseille","lat":43.281548,"lon":5.42643,"is_reserved":false,"is_disabled":false,"rental_uris":{"android":"levelo://app?vid=ba343a96-b108-42f1-a93c-b6a851b91747","ios":"levelo://app?vid=ba343a96-b108-42f1-a93c-b6a851b91747"},"vehicle_type_id":"4","last_reported":1700312835,"current_range_meters":31600,"station_id":"ce4bhnh2rcd13ifvqgug","pricing_plan_id":"free"},{"bike_id":"d88b6a73-531b-425a-9e55-b97c354f59a2","system_id":"levelo_inurba_marseille","lat":43.32276,"lon":5.43926,"is_reserved":false,"is_disabled":false,"rental_uris":{"android":"levelo://app?vid=d88b6a73-531b-425a-9e55-b97c354f59a2","ios":"levelo://app?vid=d88b6a73-531b-425a-9e55-b97c354f59a2"},"vehicle_type_id":"4","last_reported":1700312835,"current_range_meters":29600,"station_id":"","pricing_plan_id":"free"},{"bike_id":"52c2449e-ba19-42b2-a2b7-5e9532985598","system_id":"levelo_inurba_marseille","lat":43.32279,"lon":5.43926,"is_reserved":false,"is_disabled":false,"rental_uris":{"android":"levelo://app?vid=52c2449e-ba19-42b2-a2b7-5e9532985598","ios":"levelo://app?vid=52c2449e-ba19-42b2-a2b7-5e9532985598"},"vehicle_type_id":"4","last_reported":1700312835,"current_range_meters":16400,"station_id":"","pricing_plan_id":"free"},{"bike_id":"56c54364-216a-4eea-8fce-d6e40fd415c8","system_id":"levelo_inurba_marseille","lat":43.2607,"lon":5.393983,"is_reserved":false,"is_disabled":false,"rental_uris":{"android":"levelo://app?vid=56c54364-216a-4eea-8fce-d6e40fd415c8","ios":"levelo://app?vid=56c54364-216a-4eea-8fce-d6e40fd415c8"},"vehicle_type_id":"4","last_reported":1700312835,"current_range_meters":25200,"station_id":"ce4bhh92rcd13ifvqfj0","pricing_plan_id":"free"},{"bike_id":"10f99585-3923-45a6-9f7c-2fcd4f7b152c","system_id":"levelo_inurba_marseille","lat":43.2607,"lon":5.393983,"is_reserved":false,"is_disabled":false,"rental_uris":{"android":"levelo://app?vid=10f99585-3923-45a6-9f7c-2fcd4f7b152c","ios":"levelo://app?vid=10f99585-3923-45a6-9f7c-2fcd4f7b152c"},"vehicle_type_id":"4","last_reported":1700312835,"current_range_meters":22800,"station_id":"ce4bhh92rcd13ifvqfj0","pricing_plan_id":"free"},{"bike_id":"c4905ac0-3b65-4a27-ad16-788742dc5577","system_id":"levelo_inurba_marseille","lat":43.2607,"lon":5.393983,"is_reserved":false,"is_disabled":false,"rental_uris":{"android":"levelo://app?vid=c4905ac0-3b65-4a27-ad16-788742dc5577","ios":"levelo://app?vid=c4905ac0-3b65-4a27-ad16-788742dc5577"},"vehicle_type_id":"4","last_reported":1700312835,"current_range_meters":24000,"station_id":"ce4bhh92rcd13ifvqfj0","pricing_plan_id":"free"},{"bike_id":"6263e649-bd3e-4f18-91cc-acc509dfe8cc","system_id":"levelo_inurba_marseille","lat":43.2607,"lon":5.393983,"is_reserved":false,"is_disabled":false,"rental_uris":{"android":"levelo://app?vid=6263e649-bd3e-4f18-91cc-acc509dfe8cc","ios":"levelo://app?vid=6263e649-bd3e-4f18-91cc-acc509dfe8cc"},"vehicle_type_id":"4","last_reported":1700312835,"current_range_meters":11600,"station_id":"ce4bhh92rcd13ifvqfj0","pricing_plan_id":"free"},{"bike_id":"10c22671-127e-4ec6-8af5-8a914e1eed0d","system_id":"levelo_inurba_marseille","lat":43.27498,"lon":5.424498,"is_reserved":false,"is_disabled":false,"rental_uris":{"android":"levelo://app?vid=10c22671-127e-4ec6-8af5-8a914e1eed0d","ios":"levelo://app?vid=10c22671-127e-4ec6-8af5-8a914e1eed0d"},"vehicle_type_id":"4","last_reported":1700312835,"current_range_meters":30000,"station_id":"ce4bhn92rcd13ifvqgrg","pricing_plan_id":"free"},{"bike_id":"e7a68780-c3b4-4477-83f3-c50c683b4451","system_id":"levelo_inurba_marseille","lat":43.274971,"lon":5.424543,"is_reserved":false,"is_disabled":false,"rental_uris":{"android":"levelo://app?vid=e7a68780-c3b4-4477-83f3-c50c683b4451","ios":"levelo://app?vid=e7a68780-c3b4-4477-83f3-c50c683b4451"},"vehicle_type_id":"4","last_reported":1700312835,"current_range_meters":31200,"station_id":"ce4bhn92rcd13ifvqgrg","pricing_plan_id":"free"},{"bike_id":"a7006533-e072-43c8-9dcc-ab2c1d8e3ebb","system_id":"levelo_inurba_marseille","lat":43.258224,"lon":5.394369,"is_reserved":false,"is_disabled":false,"rental_uris":{"android":"levelo://app?vid=a7006533-e072-43c8-9dcc-ab2c1d8e3ebb","ios":"levelo://app?vid=a7006533-e072-43c8-9dcc-ab2c1d8e3ebb"},"vehicle_type_id":"4","last_reported":1700312835,"current_range_meters":11200,"station_id":"ce4bhip2rcd13ifvqft0","pricing_plan_id":"free"},{"bike_id":"b8fd9cab-b21a-4390-9809-7a746129bbfa","system_id":"levelo_inurba_marseille","lat":43.25581,"lon":5.38238,"is_reserved":false,"is_disabled":false,"rental_uris":{"android":"levelo://app?vid=b8fd9cab-b21a-4390-9809-7a746129bbfa","ios":"levelo://app?vid=b8fd9cab-b21a-4390-9809-7a746129bbfa"},"vehicle_type_id":"4","last_reported":1700312835,"current_range_meters":14800,"station_id":"ce4bhih2rcd13ifvqfs0","pricing_plan_id":"free"},{"bike_id":"9fca9f3a-1b96-4ac3-93d0-e245731d5cb1","system_id":"levelo_inurba_marseille","lat":43.258224,"lon":5.394369,"is_reserved":false,"is_disabled":false,"rental_uris":{"android":"levelo://app?vid=9fca9f3a-1b96-4ac3-93d0-e245731d5cb1","ios":"levelo://app?vid=9fca9f3a-1b96-4ac3-93d0-e245731d5cb1"},"vehicle_type_id":"4","last_reported":1700312835,"current_range_meters":26800,"station_id":"ce4bhip2rcd13ifvqft0","pricing_plan_id":"free"},{"bike_id":"ded6da80-f450-4c9f-a352-91624a090e1d","system_id":"levelo_inurba_marseille","lat":43.254947,"lon":5.376454,"is_reserved":false,"is_disabled":false,"rental_uris":{"android":"levelo://app?vid=ded6da80-f450-4c9f-a352-91624a090e1d","ios":"levelo://app?vid=ded6da80-f450-4c9f-a352-91624a090e1d"},"vehicle_type_id":"4","last_reported":1700312835,"current_range_meters":27600,"station_id":"ce4bhh12rcd13ifvqff0","pricing_plan_id":"free"},{"bike_id":"f6fd0118-b3f2-41e0-a447-8330035b1e24","system_id":"levelo_inurba_marseille","lat":43.25489,"lon":5.37647,"is_reserved":false,"is_disabled":false,"rental_uris":{"android":"levelo://app?vid=f6fd0118-b3f2-41e0-a447-8330035b1e24","ios":"levelo://app?vid=f6fd0118-b3f2-41e0-a447-8330035b1e24"},"vehicle_type_id":"4","last_reported":1700312835,"current_range_meters":10800,"station_id":"ce4bhh12rcd13ifvqff0","pricing_plan_id":"free"},{"bike_id":"6da1c9fa-544b-4390-9219-e7fb0ad0c443","system_id":"levelo_inurba_marseille","lat":43.270721,"lon":5.422764,"is_reserved":false,"is_disabled":false,"rental_uris":{"android":"levelo://app?vid=6da1c9fa-544b-4390-9219-e7fb0ad0c443","ios":"levelo://app?vid=6da1c9fa-544b-4390-9219-e7fb0ad0c443"},"vehicle_type_id":"4","last_reported":1700312835,"current_range_meters":16000,"station_id":"ce4bhk92rcd13ifvqgb0","pricing_plan_id":"free"},{"bike_id":"99c61671-d5c1-4f7a-bab1-f870291b3d0d","system_id":"levelo_inurba_marseille","lat":43.258658,"lon":5.398935,"is_reserved":false,"is_disabled":false,"rental_uris":{"android":"levelo://app?vid=99c61671-d5c1-4f7a-bab1-f870291b3d0d","ios":"levelo://app?vid=99c61671-d5c1-4f7a-bab1-f870291b3d0d"},"vehicle_type_id":"4","last_reported":1700312835,"current_range_meters":28800,"station_id":"ce4bhl92rcd13ifvqghg","pricing_plan_id":"free"},{"bike_id":"ec9cef5c-6480-4606-894d-eaf4a70976c2","system_id":"levelo_inurba_marseille","lat":43.258658,"lon":5.398935,"is_reserved":false,"is_disabled":false,"rental_uris":{"android":"levelo://app?vid=ec9cef5c-6480-4606-894d-eaf4a70976c2","ios":"levelo://app?vid=ec9cef5c-6480-4606-894d-eaf4a70976c2"},"vehicle_type_id":"4","last_reported":1700312835,"current_range_meters":29600,"station_id":"ce4bhl92rcd13ifvqghg","pricing_plan_id":"free"},{"bike_id":"a2c2e9eb-192a-4492-995f-8ae1f9720423","system_id":"levelo_inurba_marseille","lat":43.258658,"lon":5.398935,"is_reserved":false,"is_disabled":false,"rental_uris":{"android":"levelo://app?vid=a2c2e9eb-192a-4492-995f-8ae1f9720423","ios":"levelo://app?vid=a2c2e9eb-192a-4492-995f-8ae1f9720423"},"vehicle_type_id":"4","last_reported":1700312835,"current_range_meters":16800,"station_id":"ce4bhl92rcd13ifvqghg","pricing_plan_id":"free"},{"bike_id":"b29e84d3-af9f-4a2e-be4c-9c9106f6d123","system_id":"levelo_inurba_marseille","lat":43.25939,"lon":5.40904,"is_reserved":false,"is_disabled":false,"rental_uris":{"android":"levelo://app?vid=b29e84d3-af9f-4a2e-be4c-9c9106f6d123","ios":"levelo://app?vid=b29e84d3-af9f-4a2e-be4c-9c9106f6d123"},"vehicle_type_id":"4","last_reported":1700312835,"current_range_meters":11600,"station_id":"ce4bhm92rcd13ifvqglg","pricing_plan_id":"free"},{"bike_id":"8d1f8ca1-840c-4fe2-9003-41a95922d9d7","system_id":"levelo_inurba_marseille","lat":43.259009,"lon":5.40929,"is_reserved":false,"is_disabled":false,"rental_uris":{"android":"levelo://app?vid=8d1f8ca1-840c-4fe2-9003-41a95922d9d7","ios":"levelo://app?vid=8d1f8ca1-840c-4fe2-9003-41a95922d9d7"},"vehicle_type_id":"4","last_reported":1700312835,"current_range_meters":15200,"station_id":"ce4bhm92rcd13ifvqglg","pricing_plan_id":"free"},{"bike_id":"db8da4e2-4124-41d5-8c70-7aced5b1658c","system_id":"levelo_inurba_marseille","lat":43.25934,"lon":5.40909,"is_reserved":false,"is_disabled":false,"rental_uris":{"android":"levelo://app?vid=db8da4e2-4124-41d5-8c70-7aced5b1658c","ios":"levelo://app?vid=db8da4e2-4124-41d5-8c70-7aced5b1658c"},"vehicle_type_id":"4","last_reported":1700312835,"current_range_meters":27600,"station_id":"ce4bhm92rcd13ifvqglg","pricing_plan_id":"free"},{"bike_id":"80e9e8bc-834b-42bc-a974-3446e287c9cb","system_id":"levelo_inurba_marseille","lat":43.259304,"lon":5.409121,"is_reserved":false,"is_disabled":false,"rental_uris":{"android":"levelo://app?vid=80e9e8bc-834b-42bc-a974-3446e287c9cb","ios":"levelo://app?vid=80e9e8bc-834b-42bc-a974-3446e287c9cb"},"vehicle_type_id":"4","last_reported":1700312835,"current_range_meters":4400,"station_id":"ce4bhm92rcd13ifvqglg","pricing_plan_id":"free"},{"bike_id":"b07713ab-8a38-4416-a771-754da87afc04","system_id":"levelo_inurba_marseille","lat":43.257079,"lon":5.411051,"is_reserved":false,"is_disabled":false,"rental_uris":{"android":"levelo://app?vid=b07713ab-8a38-4416-a771-754da87afc04","ios":"levelo://app?vid=b07713ab-8a38-4416-a771-754da87afc04"},"vehicle_type_id":"4","last_reported":1700312835,"current_range_meters":29200,"station_id":"ce4bhkp2rcd13ifvqgd0","pricing_plan_id":"free"},{"bike_id":"4afa49e8-ee9e-4aa1-87d5-6b304d76abf6","system_id":"levelo_inurba_marseille","lat":43.2479,"lon":5.374457,"is_reserved":false,"is_disabled":false,"rental_uris":{"android":"levelo://app?vid=4afa49e8-ee9e-4aa1-87d5-6b304d76abf6","ios":"levelo://app?vid=4afa49e8-ee9e-4aa1-87d5-6b304d76abf6"},"vehicle_type_id":"4","last_reported":1700312835,"current_range_meters":24800,"station_id":"ce4bhgh2rcd13ifvqfb0","pricing_plan_id":"free"},{"bike_id":"fa35c7a1-4fd7-49e1-b44c-6305981370b5","system_id":"levelo_inurba_marseille","lat":43.24805,"lon":5.37457,"is_reserved":false,"is_disabled":false,"rental_uris":{"android":"levelo://app?vid=fa35c7a1-4fd7-49e1-b44c-6305981370b5","ios":"levelo://app?vid=fa35c7a1-4fd7-49e1-b44c-6305981370b5"},"vehicle_type_id":"4","last_reported":1700312835,"current_range_meters":7600,"station_id":"ce4bhgh2rcd13ifvqfb0","pricing_plan_id":"free"},{"bike_id":"0e8478e1-aca6-4ce0-aef6-bc497337bc6e","system_id":"levelo_inurba_marseille","lat":43.2479,"lon":5.374457,"is_reserved":false,"is_disabled":false,"rental_uris":{"android":"levelo://app?vid=0e8478e1-aca6-4ce0-aef6-bc497337bc6e","ios":"levelo://app?vid=0e8478e1-aca6-4ce0-aef6-bc497337bc6e"},"vehicle_type_id":"4","last_reported":1700312835,"current_range_meters":10000,"station_id":"ce4bhgh2rcd13ifvqfb0","pricing_plan_id":"free"},{"bike_id":"db417f72-9e9f-4bf4-a3d1-fced88d9e2c6","system_id":"levelo_inurba_marseille","lat":43.2479,"lon":5.374457,"is_reserved":false,"is_disabled":false,"rental_uris":{"android":"levelo://app?vid=db417f72-9e9f-4bf4-a3d1-fced88d9e2c6","ios":"levelo://app?vid=db417f72-9e9f-4bf4-a3d1-fced88d9e2c6"},"vehicle_type_id":"4","last_reported":1700312835,"current_range_meters":18000,"station_id":"ce4bhgh2rcd13ifvqfb0","pricing_plan_id":"free"},{"bike_id":"0a971f4d-998b-4069-a54f-774336481cee","system_id":"levelo_inurba_marseille","lat":43.25089,"lon":5.39513,"is_reserved":false,"is_disabled":false,"rental_uris":{"android":"levelo://app?vid=0a971f4d-998b-4069-a54f-774336481cee","ios":"levelo://app?vid=0a971f4d-998b-4069-a54f-774336481cee"},"vehicle_type_id":"4","last_reported":1700312835,"current_range_meters":4000,"station_id":"ce4bhm12rcd13ifvqgkg","pricing_plan_id":"free"},{"bike_id":"c4ccead2-ed66-46c0-a980-3e9ef6c4eee6","system_id":"levelo_inurba_marseille","lat":43.250966,"lon":5.395186,"is_reserved":false,"is_disabled":false,"rental_uris":{"android":"levelo://app?vid=c4ccead2-ed66-46c0-a980-3e9ef6c4eee6","ios":"levelo://app?vid=c4ccead2-ed66-46c0-a980-3e9ef6c4eee6"},"vehicle_type_id":"4","last_reported":1700312835,"current_range_meters":16000,"station_id":"ce4bhm12rcd13ifvqgkg","pricing_plan_id":"free"},{"bike_id":"799774e4-0360-4ae2-89fb-3d8e3deabf0d","system_id":"levelo_inurba_marseille","lat":43.250966,"lon":5.395186,"is_reserved":false,"is_disabled":false,"rental_uris":{"android":"levelo://app?vid=799774e4-0360-4ae2-89fb-3d8e3deabf0d","ios":"levelo://app?vid=799774e4-0360-4ae2-89fb-3d8e3deabf0d"},"vehicle_type_id":"4","last_reported":1700312835,"current_range_meters":19200,"station_id":"ce4bhm12rcd13ifvqgkg","pricing_plan_id":"free"},{"bike_id":"b9044fce-dce8-490f-a02b-21e9c2c238be","system_id":"levelo_inurba_marseille","lat":43.250966,"lon":5.395186,"is_reserved":false,"is_disabled":false,"rental_uris":{"android":"levelo://app?vid=b9044fce-dce8-490f-a02b-21e9c2c238be","ios":"levelo://app?vid=b9044fce-dce8-490f-a02b-21e9c2c238be"},"vehicle_type_id":"4","last_reported":1700312835,"current_range_meters":31600,"station_id":"ce4bhm12rcd13ifvqgkg","pricing_plan_id":"free"},{"bike_id":"0e5f6c9d-ca85-46f0-a7d2-7629f42f4a0c","system_id":"levelo_inurba_marseille","lat":43.250966,"lon":5.395186,"is_reserved":false,"is_disabled":false,"rental_uris":{"android":"levelo://app?vid=0e5f6c9d-ca85-46f0-a7d2-7629f42f4a0c","ios":"levelo://app?vid=0e5f6c9d-ca85-46f0-a7d2-7629f42f4a0c"},"vehicle_type_id":"4","last_reported":1700312835,"current_range_meters":29200,"station_id":"ce4bhm12rcd13ifvqgkg","pricing_plan_id":"free"},{"bike_id":"721af61d-7ad7-4ba9-a77e-cdee35ed38a9","system_id":"levelo_inurba_marseille","lat":43.250966,"lon":5.395186,"is_reserved":false,"is_disabled":false,"rental_uris":{"android":"levelo://app?vid=721af61d-7ad7-4ba9-a77e-cdee35ed38a9","ios":"levelo://app?vid=721af61d-7ad7-4ba9-a77e-cdee35ed38a9"},"vehicle_type_id":"4","last_reported":1700312835,"current_range_meters":29600,"station_id":"ce4bhm12rcd13ifvqgkg","pricing_plan_id":"free"},{"bike_id":"d5829577-5409-4b45-9752-eed05dd5f0cd","system_id":"levelo_inurba_marseille","lat":43.24662,"lon":5.3816,"is_reserved":false,"is_disabled":false,"rental_uris":{"android":"levelo://app?vid=d5829577-5409-4b45-9752-eed05dd5f0cd","ios":"levelo://app?vid=d5829577-5409-4b45-9752-eed05dd5f0cd"},"vehicle_type_id":"4","last_reported":1700312835,"current_range_meters":24400,"station_id":"ce4bhih2rcd13ifvqfr0","pricing_plan_id":"free"},{"bike_id":"afedd0a7-6b29-4ea4-aad2-91a25bb3c964","system_id":"levelo_inurba_marseille","lat":43.24693,"lon":5.382096,"is_reserved":false,"is_disabled":false,"rental_uris":{"android":"levelo://app?vid=afedd0a7-6b29-4ea4-aad2-91a25bb3c964","ios":"levelo://app?vid=afedd0a7-6b29-4ea4-aad2-91a25bb3c964"},"vehicle_type_id":"4","last_reported":1700312835,"current_range_meters":25600,"station_id":"ce4bhih2rcd13ifvqfr0","pricing_plan_id":"free"},{"bike_id":"2d430a7a-0bbd-4620-bf36-24e8d6e74e23","system_id":"levelo_inurba_marseille","lat":43.25102,"lon":5.403214,"is_reserved":false,"is_disabled":false,"rental_uris":{"android":"levelo://app?vid=2d430a7a-0bbd-4620-bf36-24e8d6e74e23","ios":"levelo://app?vid=2d430a7a-0bbd-4620-bf36-24e8d6e74e23"},"vehicle_type_id":"4","last_reported":1700312835,"current_range_meters":31200,"station_id":"ce4bhlh2rcd13ifvqgig","pricing_plan_id":"free"},{"bike_id":"5efef761-78d7-42ae-8a3c-eeca1fcce870","system_id":"levelo_inurba_marseille","lat":43.25102,"lon":5.403214,"is_reserved":false,"is_disabled":false,"rental_uris":{"android":"levelo://app?vid=5efef761-78d7-42ae-8a3c-eeca1fcce870","ios":"levelo://app?vid=5efef761-78d7-42ae-8a3c-eeca1fcce870"},"vehicle_type_id":"4","last_reported":1700312835,"current_range_meters":20400,"station_id":"ce4bhlh2rcd13ifvqgig","pricing_plan_id":"free"},{"bike_id":"dd7abc2c-1309-4a45-8ede-a8fd2d79834f","system_id":"levelo_inurba_marseille","lat":43.25102,"lon":5.403214,"is_reserved":false,"is_disabled":false,"rental_uris":{"android":"levelo://app?vid=dd7abc2c-1309-4a45-8ede-a8fd2d79834f","ios":"levelo://app?vid=dd7abc2c-1309-4a45-8ede-a8fd2d79834f"},"vehicle_type_id":"4","last_reported":1700312835,"current_range_meters":26400,"station_id":"ce4bhlh2rcd13ifvqgig","pricing_plan_id":"free"},{"bike_id":"6a649a38-e25e-48b4-8b86-97e2daa3004e","system_id":"levelo_inurba_marseille","lat":43.25102,"lon":5.403214,"is_reserved":false,"is_disabled":false,"rental_uris":{"android":"levelo://app?vid=6a649a38-e25e-48b4-8b86-97e2daa3004e","ios":"levelo://app?vid=6a649a38-e25e-48b4-8b86-97e2daa3004e"},"vehicle_type_id":"4","last_reported":1700312835,"current_range_meters":0,"station_id":"ce4bhlh2rcd13ifvqgig","pricing_plan_id":"free"},{"bike_id":"dbaa2144-0628-476d-944f-6e89bf9f0ca0","system_id":"levelo_inurba_marseille","lat":43.25102,"lon":5.403214,"is_reserved":false,"is_disabled":false,"rental_uris":{"android":"levelo://app?vid=dbaa2144-0628-476d-944f-6e89bf9f0ca0","ios":"levelo://app?vid=dbaa2144-0628-476d-944f-6e89bf9f0ca0"},"vehicle_type_id":"4","last_reported":1700312835,"current_range_meters":30400,"station_id":"ce4bhlh2rcd13ifvqgig","pricing_plan_id":"free"},{"bike_id":"ad7f22ff-7e08-41e9-9ed8-e74453ff074c","system_id":"levelo_inurba_marseille","lat":43.246467,"lon":5.388984,"is_reserved":false,"is_disabled":false,"rental_uris":{"android":"levelo://app?vid=ad7f22ff-7e08-41e9-9ed8-e74453ff074c","ios":"levelo://app?vid=ad7f22ff-7e08-41e9-9ed8-e74453ff074c"},"vehicle_type_id":"4","last_reported":1700312835,"current_range_meters":30800,"station_id":"ce4bhg12rcd13ifvqf60","pricing_plan_id":"free"},{"bike_id":"b1251e24-7e64-4504-861c-d50a91e7abcf","system_id":"levelo_inurba_marseille","lat":43.243884,"lon":5.370736,"is_reserved":false,"is_disabled":false,"rental_uris":{"android":"levelo://app?vid=b1251e24-7e64-4504-861c-d50a91e7abcf","ios":"levelo://app?vid=b1251e24-7e64-4504-861c-d50a91e7abcf"},"vehicle_type_id":"4","last_reported":1700312835,"current_range_meters":10800,"station_id":"ce4bhhh2rcd13ifvqfk0","pricing_plan_id":"free"},{"bike_id":"3fc9b40f-8533-4105-973b-73c116fcbd2d","system_id":"levelo_inurba_marseille","lat":43.243884,"lon":5.370736,"is_reserved":false,"is_disabled":false,"rental_uris":{"android":"levelo://app?vid=3fc9b40f-8533-4105-973b-73c116fcbd2d","ios":"levelo://app?vid=3fc9b40f-8533-4105-973b-73c116fcbd2d"},"vehicle_type_id":"4","last_reported":1700312835,"current_range_meters":15600,"station_id":"ce4bhhh2rcd13ifvqfk0","pricing_plan_id":"free"},{"bike_id":"3080e8e2-df89-4f6f-913f-1b118d7d14aa","system_id":"levelo_inurba_marseille","lat":43.243884,"lon":5.370737,"is_reserved":false,"is_disabled":false,"rental_uris":{"android":"levelo://app?vid=3080e8e2-df89-4f6f-913f-1b118d7d14aa","ios":"levelo://app?vid=3080e8e2-df89-4f6f-913f-1b118d7d14aa"},"vehicle_type_id":"4","last_reported":1700312835,"current_range_meters":25200,"station_id":"ce4bhhh2rcd13ifvqfk0","pricing_plan_id":"free"},{"bike_id":"13543a80-e679-4f1a-83cf-0c053174faf3","system_id":"levelo_inurba_marseille","lat":43.243884,"lon":5.370736,"is_reserved":false,"is_disabled":false,"rental_uris":{"android":"levelo://app?vid=13543a80-e679-4f1a-83cf-0c053174faf3","ios":"levelo://app?vid=13543a80-e679-4f1a-83cf-0c053174faf3"},"vehicle_type_id":"4","last_reported":1700312835,"current_range_meters":31600,"station_id":"ce4bhhh2rcd13ifvqfk0","pricing_plan_id":"free"},{"bike_id":"c1d0d561-b1e7-433a-81e5-7994cce53ec2","system_id":"levelo_inurba_marseille","lat":43.243884,"lon":5.370737,"is_reserved":false,"is_disabled":false,"rental_uris":{"android":"levelo://app?vid=c1d0d561-b1e7-433a-81e5-7994cce53ec2","ios":"levelo://app?vid=c1d0d561-b1e7-433a-81e5-7994cce53ec2"},"vehicle_type_id":"4","last_reported":1700312835,"current_range_meters":20800,"station_id":"ce4bhhh2rcd13ifvqfk0","pricing_plan_id":"free"},{"bike_id":"dd27de55-0f15-47a0-97e5-dfa32d2158c2","system_id":"levelo_inurba_marseille","lat":43.243884,"lon":5.370736,"is_reserved":false,"is_disabled":false,"rental_uris":{"android":"levelo://app?vid=dd27de55-0f15-47a0-97e5-dfa32d2158c2","ios":"levelo://app?vid=dd27de55-0f15-47a0-97e5-dfa32d2158c2"},"vehicle_type_id":"4","last_reported":1700312835,"current_range_meters":23600,"station_id":"ce4bhhh2rcd13ifvqfk0","pricing_plan_id":"free"},{"bike_id":"c9311f28-70e4-415f-8962-60cebf27fcb4","system_id":"levelo_inurba_marseille","lat":43.243884,"lon":5.370736,"is_reserved":false,"is_disabled":false,"rental_uris":{"android":"levelo://app?vid=c9311f28-70e4-415f-8962-60cebf27fcb4","ios":"levelo://app?vid=c9311f28-70e4-415f-8962-60cebf27fcb4"},"vehicle_type_id":"4","last_reported":1700312835,"current_range_meters":4400,"station_id":"ce4bhhh2rcd13ifvqfk0","pricing_plan_id":"free"},{"bike_id":"66052d23-3126-4071-a01f-4152027c9193","system_id":"levelo_inurba_marseille","lat":43.243884,"lon":5.370736,"is_reserved":false,"is_disabled":false,"rental_uris":{"android":"levelo://app?vid=66052d23-3126-4071-a01f-4152027c9193","ios":"levelo://app?vid=66052d23-3126-4071-a01f-4152027c9193"},"vehicle_type_id":"4","last_reported":1700312835,"current_range_meters":9200,"station_id":"ce4bhhh2rcd13ifvqfk0","pricing_plan_id":"free"},{"bike_id":"706a8841-eb9f-46c6-89e5-e969ca36aaa5","system_id":"levelo_inurba_marseille","lat":43.243884,"lon":5.370737,"is_reserved":false,"is_disabled":false,"rental_uris":{"android":"levelo://app?vid=706a8841-eb9f-46c6-89e5-e969ca36aaa5","ios":"levelo://app?vid=706a8841-eb9f-46c6-89e5-e969ca36aaa5"},"vehicle_type_id":"4","last_reported":1700312835,"current_range_meters":15200,"station_id":"ce4bhhh2rcd13ifvqfk0","pricing_plan_id":"free"},{"bike_id":"897f8c33-0907-4a4b-885d-8b7faf9ea3f6","system_id":"levelo_inurba_marseille","lat":43.243884,"lon":5.370737,"is_reserved":false,"is_disabled":false,"rental_uris":{"android":"levelo://app?vid=897f8c33-0907-4a4b-885d-8b7faf9ea3f6","ios":"levelo://app?vid=897f8c33-0907-4a4b-885d-8b7faf9ea3f6"},"vehicle_type_id":"4","last_reported":1700312835,"current_range_meters":6000,"station_id":"ce4bhhh2rcd13ifvqfk0","pricing_plan_id":"free"},{"bike_id":"6be33b51-d261-4b26-921f-56acce287780","system_id":"levelo_inurba_marseille","lat":43.243884,"lon":5.370737,"is_reserved":false,"is_disabled":false,"rental_uris":{"android":"levelo://app?vid=6be33b51-d261-4b26-921f-56acce287780","ios":"levelo://app?vid=6be33b51-d261-4b26-921f-56acce287780"},"vehicle_type_id":"4","last_reported":1700312835,"current_range_meters":3600,"station_id":"ce4bhhh2rcd13ifvqfk0","pricing_plan_id":"free"},{"bike_id":"c1924608-cfc0-4286-8265-f3f6ae4a7a1a","system_id":"levelo_inurba_marseille","lat":43.243884,"lon":5.370737,"is_reserved":false,"is_disabled":false,"rental_uris":{"android":"levelo://app?vid=c1924608-cfc0-4286-8265-f3f6ae4a7a1a","ios":"levelo://app?vid=c1924608-cfc0-4286-8265-f3f6ae4a7a1a"},"vehicle_type_id":"4","last_reported":1700312835,"current_range_meters":17200,"station_id":"ce4bhhh2rcd13ifvqfk0","pricing_plan_id":"free"},{"bike_id":"ac1b22ec-c2c2-486d-a407-b2b761877c11","system_id":"levelo_inurba_marseille","lat":43.245581,"lon":5.395069,"is_reserved":false,"is_disabled":false,"rental_uris":{"android":"levelo://app?vid=ac1b22ec-c2c2-486d-a407-b2b761877c11","ios":"levelo://app?vid=ac1b22ec-c2c2-486d-a407-b2b761877c11"},"vehicle_type_id":"4","last_reported":1700312835,"current_range_meters":29200,"station_id":"ce4bhlp2rcd13ifvqgjg","pricing_plan_id":"free"},{"bike_id":"e878a5ad-03be-4c37-a7e7-bbd9552f94cc","system_id":"levelo_inurba_marseille","lat":43.239588,"lon":5.366238,"is_reserved":false,"is_disabled":false,"rental_uris":{"android":"levelo://app?vid=e878a5ad-03be-4c37-a7e7-bbd9552f94cc","ios":"levelo://app?vid=e878a5ad-03be-4c37-a7e7-bbd9552f94cc"},"vehicle_type_id":"4","last_reported":1700312835,"current_range_meters":30400,"station_id":"ce4bhi12rcd13ifvqfp0","pricing_plan_id":"free"},{"bike_id":"ed419b13-266f-407c-bf9b-711a3ecbb865","system_id":"levelo_inurba_marseille","lat":43.24072,"lon":5.37759,"is_reserved":false,"is_disabled":false,"rental_uris":{"android":"levelo://app?vid=ed419b13-266f-407c-bf9b-711a3ecbb865","ios":"levelo://app?vid=ed419b13-266f-407c-bf9b-711a3ecbb865"},"vehicle_type_id":"4","last_reported":1700312835,"current_range_meters":24400,"station_id":"ce4bhnp2rcd13ifvqgvg","pricing_plan_id":"free"},{"bike_id":"7c4e77a4-0383-484a-b5ad-400104b8aac0","system_id":"levelo_inurba_marseille","lat":43.2407,"lon":5.37756,"is_reserved":false,"is_disabled":false,"rental_uris":{"android":"levelo://app?vid=7c4e77a4-0383-484a-b5ad-400104b8aac0","ios":"levelo://app?vid=7c4e77a4-0383-484a-b5ad-400104b8aac0"},"vehicle_type_id":"4","last_reported":1700312835,"current_range_meters":6800,"station_id":"ce4bhnp2rcd13ifvqgvg","pricing_plan_id":"free"},{"bike_id":"110a4baf-74c7-4a7e-9be0-94c78bc24384","system_id":"levelo_inurba_marseille","lat":43.240623,"lon":5.377642,"is_reserved":false,"is_disabled":false,"rental_uris":{"android":"levelo://app?vid=110a4baf-74c7-4a7e-9be0-94c78bc24384","ios":"levelo://app?vid=110a4baf-74c7-4a7e-9be0-94c78bc24384"},"vehicle_type_id":"4","last_reported":1700312835,"current_range_meters":26000,"station_id":"ce4bhnp2rcd13ifvqgvg","pricing_plan_id":"free"},{"bike_id":"66ec2a23-8e5f-4e5e-b203-a106ddfb4d9d","system_id":"levelo_inurba_marseille","lat":43.239588,"lon":5.366238,"is_reserved":false,"is_disabled":false,"rental_uris":{"android":"levelo://app?vid=66ec2a23-8e5f-4e5e-b203-a106ddfb4d9d","ios":"levelo://app?vid=66ec2a23-8e5f-4e5e-b203-a106ddfb4d9d"},"vehicle_type_id":"4","last_reported":1700312835,"current_range_meters":0,"station_id":"ce4bhi12rcd13ifvqfp0","pricing_plan_id":"free"},{"bike_id":"4370869b-0c59-4e1b-b4c7-59bf3a7bc50e","system_id":"levelo_inurba_marseille","lat":43.241782,"lon":5.397264,"is_reserved":false,"is_disabled":false,"rental_uris":{"android":"levelo://app?vid=4370869b-0c59-4e1b-b4c7-59bf3a7bc50e","ios":"levelo://app?vid=4370869b-0c59-4e1b-b4c7-59bf3a7bc50e"},"vehicle_type_id":"4","last_reported":1700312835,"current_range_meters":18800,"station_id":"ce4bhn12rcd13ifvqgpg","pricing_plan_id":"free"},{"bike_id":"eb3946df-2ea5-49c8-a025-92c2f519fb07","system_id":"levelo_inurba_marseille","lat":43.241782,"lon":5.397264,"is_reserved":false,"is_disabled":false,"rental_uris":{"android":"levelo://app?vid=eb3946df-2ea5-49c8-a025-92c2f519fb07","ios":"levelo://app?vid=eb3946df-2ea5-49c8-a025-92c2f519fb07"},"vehicle_type_id":"4","last_reported":1700312835,"current_range_meters":30000,"station_id":"ce4bhn12rcd13ifvqgpg","pricing_plan_id":"free"},{"bike_id":"4827344a-768f-4412-9430-45fc4b273517","system_id":"levelo_inurba_marseille","lat":43.24178,"lon":5.39727,"is_reserved":false,"is_disabled":false,"rental_uris":{"android":"levelo://app?vid=4827344a-768f-4412-9430-45fc4b273517","ios":"levelo://app?vid=4827344a-768f-4412-9430-45fc4b273517"},"vehicle_type_id":"4","last_reported":1700312835,"current_range_meters":24000,"station_id":"ce4bhn12rcd13ifvqgpg","pricing_plan_id":"free"},{"bike_id":"529e4937-416d-45bf-94da-8012993fa9b0","system_id":"levelo_inurba_marseille","lat":43.241782,"lon":5.397264,"is_reserved":false,"is_disabled":false,"rental_uris":{"android":"levelo://app?vid=529e4937-416d-45bf-94da-8012993fa9b0","ios":"levelo://app?vid=529e4937-416d-45bf-94da-8012993fa9b0"},"vehicle_type_id":"4","last_reported":1700312835,"current_range_meters":10000,"station_id":"ce4bhn12rcd13ifvqgpg","pricing_plan_id":"free"},