{"last_updated":1743851262,"ttl":60,"version":"2.2","data":{"bikes":[{"bike_id":"6fc2b376-aff8-449a-93a5-86ab1658303e","system_id":"levelo_inurba_marseille","lat":43.23061,"lon":5.35498,"is_reserved":false,"is_disabled":false,"rental_uris":{"android":"levelo://app?vid=6fc2b376-aff8-449a-93a5-86ab1658303e","ios":"levelo://app?vid=6fc2b376-aff8-449a-93a5-86ab1658303e"},"vehicle_type_id":"4","last_reported":1743851262,"current_range_meters":2800,"station_id":"cpo3342slgdg3j2ifvpg","pricing_plan_id":"cebpf4jnsgd1na2vs0mg"},{"bike_id":"e3a29d38-a611-4b12-87ef-2fb8a21c41d5","system_id":"levelo_inurba_marseille","lat":43.2292,"lon":5.35395,"is_reserved":false,"is_disabled":true,"rental_uris":{"android":"levelo://app?vid=e3a29d38-a611-4b12-87ef-2fb8a21c41d5","ios":"levelo://app?vid=e3a29d38-a611-4b12-87ef-2fb8a21c41d5"},"vehicle_type_id":"4","last_reported":1743851262,"current_range_meters":2800,"station_id":"cpo3532slgdg3j2ikp40","pricing_plan_id":"cebpf4jnsgd1na2vs0mg"},{"bike_id":"0e88f134-2423-4b08-bc3c-5f7a38937552","system_id":"levelo_inurba_marseille","lat":43.23189,"lon":5.39985,"is_reserved":false,"is_disabled":false,"rental_uris":{"android":"levelo://app?vid=0e88f134-2423-4b08-bc3c-5f7a38937552","ios":"levelo://app?vid=0e88f134-2423-4b08-bc3c-5f7a38937552"},"vehicle_type_id":"4","last_reported":1743851262,"current_range_meters":3200,"station_id":"ce4bhn12rcd13ifvqgqg","pricing_plan_id":"cebpf4jnsgd1na2vs0mg"},{"bike_id":"e96715e4-cdc6-4c19-a7dd-de02321f683c","system_id":"levelo_inurba_marseille","lat":43.284119,"lon":5.349771,"is_reserved":false,"is_disabled":false,"rental_uris":{"android":"levelo://app?vid=e96715e4-cdc6-4c19-a7dd-de02321f683c","ios":"levelo://app?vid=e96715e4-cdc6-4c19-a7dd-de02321f683c"},"vehicle_type_id":"4","last_reported":1743851262,"current_range_meters":3200,"station_id":"ce4bgih2rcd13ifvqba0","pricing_plan_id":"cebpf4jnsgd1na2vs0mg"},{"bike_id":"b7f7098b-d672-4e1d-9043-751c52dda260","system_id":"levelo_inurba_marseille","lat":43.21763,"lon":5.34596,"is_reserved":false,"is_disabled":false,"rental_uris":{"android":"levelo://app?vid=b7f7098b-d672-4e1d-9043-751c52dda260","ios":"levelo://app?vid=b7f7098b-d672-4e1d-9043-751c52dda260"},"vehicle_type_id":"4","last_reported":1743851262,"current_range_meters":3200,"station_id":"","pricing_plan_id":"cebpf4jnsgd1na2vs0mg"},{"bike_id":"797c04d2-5ca3-4459-bacf-fa1881c428c8","system_id":"levelo_inurba_marseille","lat":43.286961,"lon":5.35205,"is_reserved":false,"is_disabled":false,"rental_uris":{"android":"levelo://app?vid=797c04d2-5ca3-4459-bacf-fa1881c428c8","ios":"levelo://app?vid=797c04d2-5ca3-4459-bacf-fa1881c428c8"},"vehicle_type_id":"4","last_reported":1743851262,"current_range_meters":3600,"station_id":"ce4bh0p2rcd13ifvqd80","pricing_plan_id":"cebpf4jnsgd1na2vs0mg"},{"bike_id":"fa2a9827-7770-417f-9cb5-d6127b85ea83","system_id":"levelo_inurba_marseille","lat":43.21204,"lon":5.35071,"is_reserved":false,"is_disabled":false,"rental_uris":{"android":"levelo://app?vid=fa2a9827-7770-417f-9cb5-d6127b85ea83","ios":"levelo://app?vid=fa2a9827-7770-417f-9cb5-d6127b85ea83"},"vehicle_type_id":"4","last_reported":1743851262,"current_range_meters":3600,"station_id":"st_cvj6sg6p6f1abm77japg","pricing_plan_id":"cebpf4jnsgd1na2vs0mg"},{"bike_id":"6e7e8bd0-971a-4bf5-a521-0d1053f36753","system_id":"levelo_inurba_marseille","lat":43.31084,"lon":5.4244,"is_reserved":false,"is_disabled":true,"rental_uris":{"android":"levelo://app?vid=6e7e8bd0-971a-4bf5-a521-0d1053f36753","ios":"levelo://app?vid=6e7e8bd0-971a-4bf5-a521-0d1053f36753"},"vehicle_type_id":"4","last_reported":1743851262,"current_range_meters":3600,"station_id":"ce4bhp92rcd13ifvqhag","pricing_plan_id":"cebpf4jnsgd1na2vs0mg"},{"bike_id":"2c80f587-4d4d-4836-945e-3795e287c08b","system_id":"levelo_inurba_marseille","lat":43.23143,"lon":5.43723,"is_reserved":false,"is_disabled":false,"rental_uris":{"android":"levelo://app?vid=2c80f587-4d4d-4836-945e-3795e287c08b","ios":"levelo://app?vid=2c80f587-4d4d-4836-945e-3795e287c08b"},"vehicle_type_id":"4","last_reported":1743851262,"current_range_meters":4000,"station_id":"ce4bhmp2rcd13ifvqgog","pricing_plan_id":"cebpf4jnsgd1na2vs0mg"},{"bike_id":"b36a144b-695a-459f-8142-c4e75e1c48d3","system_id":"levelo_inurba_marseille","lat":43.24167,"lon":5.36393,"is_reserved":false,"is_disabled":false,"rental_uris":{"android":"levelo://app?vid=b36a144b-695a-459f-8142-c4e75e1c48d3","ios":"levelo://app?vid=b36a144b-695a-459f-8142-c4e75e1c48d3"},"vehicle_type_id":"4","last_reported":1743851262,"current_range_meters":4400,"station_id":"cpo36qri1sfpv3e86is0","pricing_plan_id":"cebpf4jnsgd1na2vs0mg"},{"bike_id":"0ac2c4ba-c840-4d70-97c0-cd2bea57af08","system_id":"levelo_inurba_marseille","lat":43.24399,"lon":5.37062,"is_reserved":false,"is_disabled":false,"rental_uris":{"android":"levelo://app?vid=0ac2c4ba-c840-4d70-97c0-cd2bea57af08","ios":"levelo://app?vid=0ac2c4ba-c840-4d70-97c0-cd2bea57af08"},"vehicle_type_id":"4","last_reported":1743851262,"current_range_meters":4400,"station_id":"ce4bhhh2rcd13ifvqfk0","pricing_plan_id":"cebpf4jnsgd1na2vs0mg"},{"bike_id":"9e7e25b2-a9b2-469c-a691-1c3deb34a9e9","system_id":"levelo_inurba_marseille","lat":43.21187,"lon":5.35072,"is_reserved":false,"is_disabled":false,"rental_uris":{"android":"levelo://app?vid=9e7e25b2-a9b2-469c-a691-1c3deb34a9e9","ios":"levelo://app?vid=9e7e25b2-a9b2-469c-a691-1c3deb34a9e9"},"vehicle_type_id":"4","last_reported":1743851262,"current_range_meters":4800,"station_id":"st_cvj6sg6p6f1abm77japg","pricing_plan_id":"cebpf4jnsgd1na2vs0mg"},{"bike_id":"09db4a91-984c-497c-b272-724cdd009a67","system_id":"levelo_inurba_marseille","lat":43.3136,"lon":5.38532,"is_reserved":false,"is_disabled":true,"rental_uris":{"android":"levelo://app?vid=09db4a91-984c-497c-b272-724cdd009a67","ios":"levelo://app?vid=09db4a91-984c-497c-b272-724cdd009a67"},"vehicle_type_id":"4","last_reported":1743851262,"current_range_meters":4800,"station_id":"ce4bgt92rcd13ifvqcf0","pricing_plan_id":"cebpf4jnsgd1na2vs0mg"},{"bike_id":"754949da-6292-4ff1-91e3-8b88e6a2036e","system_id":"levelo_inurba_marseille","lat":43.248,"lon":5.37454,"is_reserved":false,"is_disabled":false,"rental_uris":{"android":"levelo://app?vid=754949da-6292-4ff1-91e3-8b88e6a2036e","ios":"levelo://app?vid=754949da-6292-4ff1-91e3-8b88e6a2036e"},"vehicle_type_id":"4","last_reported":1743851262,"current_range_meters":4800,"station_id":"ce4bhgh2rcd13ifvqfb0","pricing_plan_id":"cebpf4jnsgd1na2vs0mg"},{"bike_id":"0d4d6691-b3a3-49d8-8eac-677370bcc341","system_id":"levelo_inurba_marseille","lat":43.28155,"lon":5.42638,"is_reserved":false,"is_disabled":false,"rental_uris":{"android":"levelo://app?vid=0d4d6691-b3a3-49d8-8eac-677370bcc341","ios":"levelo://app?vid=0d4d6691-b3a3-49d8-8eac-677370bcc341"},"vehicle_type_id":"4","last_reported":1743851262,"current_range_meters":4800,"station_id":"ce4bhnh2rcd13ifvqgug","pricing_plan_id":"cebpf4jnsgd1na2vs0mg"},{"bike_id":"5809aa2a-6e8b-4396-909a-e4f6a1a76cf5","system_id":"levelo_inurba_marseille","lat":43.23961,"lon":5.36624,"is_reserved":false,"is_disabled":true,"rental_uris":{"android":"levelo://app?vid=5809aa2a-6e8b-4396-909a-e4f6a1a76cf5","ios":"levelo://app?vid=5809aa2a-6e8b-4396-909a-e4f6a1a76cf5"},"vehicle_type_id":"4","last_reported":1743851262,"current_range_meters":4800,"station_id":"ce4bhi12rcd13ifvqfp0","pricing_plan_id":"cebpf4jnsgd1na2vs0mg"},{"bike_id":"ac1df683-88bf-4d38-95b2-b71601edd0e7","system_id":"levelo_inurba_marseille","lat":43.281713,"lon":5.391566,"is_reserved":false,"is_disabled":false,"rental_uris":{"android":"levelo://app?vid=ac1df683-88bf-4d38-95b2-b71601edd0e7","ios":"levelo://app?vid=ac1df683-88bf-4d38-95b2-b71601edd0e7"},"vehicle_type_id":"4","last_reported":1743851262,"current_range_meters":4800,"station_id":"ce4bh512rcd13ifvqe3g","pricing_plan_id":"cebpf4jnsgd1na2vs0mg"},{"bike_id":"7c64c020-dd35-40fb-96f1-2eb71511fb8d","system_id":"levelo_inurba_marseille","lat":43.23156,"lon":5.43705,"is_reserved":false,"is_disabled":false,"rental_uris":{"android":"levelo://app?vid=7c64c020-dd35-40fb-96f1-2eb71511fb8d","ios":"levelo://app?vid=7c64c020-dd35-40fb-96f1-2eb71511fb8d"},"vehicle_type_id":"4","last_reported":1743851262,"current_range_meters":4400,"station_id":"ce4bhmp2rcd13ifvqgog","pricing_plan_id":"cebpf4jnsgd1na2vs0mg"},{"bike_id":"f4fb7792-f0e4-4878-a55a-6917738da59e","system_id":"levelo_inurba_marseille","lat":43.29286,"lon":5.36849,"is_reserved":false,"is_disabled":false,"rental_uris":{"android":"levelo://app?vid=f4fb7792-f0e4-4878-a55a-6917738da59e","ios":"levelo://app?vid=f4fb7792-f0e4-4878-a55a-6917738da59e"},"vehicle_type_id":"4","last_reported":1743851262,"current_range_meters":5600,"station_id":"ce4bhbp2rcd13ifvqesg","pricing_plan_id":"cebpf4jnsgd1na2vs0mg"},{"bike_id":"1a903f1a-fcf1-4dc3-aa7b-777417dd0fe2","system_id":"levelo_inurba_marseille","lat":43.23182,"lon":5.39993,"is_reserved":false,"is_disabled":false,"rental_uris":{"android":"levelo://app?vid=1a903f1a-fcf1-4dc3-aa7b-777417dd0fe2","ios":"levelo://app?vid=1a903f1a-fcf1-4dc3-aa7b-777417dd0fe2"},"vehicle_type_id":"4","last_reported":1743851262,"current_range_meters":5600,"station_id":"ce4bhn12rcd13ifvqgqg","pricing_plan_id":"cebpf4jnsgd1na2vs0mg"},{"bike_id":"28fd120d-1e52-466d-bdea-eebe7768d73e","system_id":"levelo_inurba_marseille","lat":43.27376,"lon":5.36259,"is_reserved":false,"is_disabled":false,"rental_uris":{"android":"levelo://app?vid=28fd120d-1e52-466d-bdea-eebe7768d73e","ios":"levelo://app?vid=28fd120d-1e52-466d-bdea-eebe7768d73e"},"vehicle_type_id":"4","last_reported":1743851262,"current_range_meters":5600,"station_id":"ce4bhbh2rcd13ifvqeo0","pricing_plan_id":"cebpf4jnsgd1na2vs0mg"},{"bike_id":"af4106b7-9220-4821-984b-7f9d8a0b718c","system_id":"levelo_inurba_marseille","lat":43.296552,"lon":5.37459,"is_reserved":false,"is_disabled":false,"rental_uris":{"android":"levelo://app?vid=af4106b7-9220-4821-984b-7f9d8a0b718c","ios":"levelo://app?vid=af4106b7-9220-4821-984b-7f9d8a0b718c"},"vehicle_type_id":"4","last_reported":1743851262,"current_range_meters":6000,"station_id":"ce4bgt92rcd13ifvqcg0","pricing_plan_id":"cebpf4jnsgd1na2vs0mg"},{"bike_id":"69c0db05-6ded-4dc6-9720-2452c83c1020","system_id":"levelo_inurba_marseille","lat":43.22928,"lon":5.3538,"is_reserved":false,"is_disabled":false,"rental_uris":{"android":"levelo://app?vid=69c0db05-6ded-4dc6-9720-2452c83c1020","ios":"levelo://app?vid=69c0db05-6ded-4dc6-9720-2452c83c1020"},"vehicle_type_id":"4","last_reported":1743851262,"current_range_meters":6000,"station_id":"cpo3532slgdg3j2ikp40","pricing_plan_id":"cebpf4jnsgd1na2vs0mg"},{"bike_id":"ed034283-1492-4da7-9409-35bdead80f30","system_id":"levelo_inurba_marseille","lat":43.3014,"lon":5.38769,"is_reserved":false,"is_disabled":true,"rental_uris":{"android":"levelo://app?vid=ed034283-1492-4da7-9409-35bdead80f30","ios":"levelo://app?vid=ed034283-1492-4da7-9409-35bdead80f30"},"vehicle_type_id":"4","last_reported":1743851262,"current_range_meters":6000,"station_id":"ce4bghh2rcd13ifvqb60","pricing_plan_id":"cebpf4jnsgd1na2vs0mg"},{"bike_id":"634ef7ce-3fff-49c5-aa58-986010868891","system_id":"levelo_inurba_marseille","lat":43.27998,"lon":5.4001,"is_reserved":false,"is_disabled":false,"rental_uris":{"android":"levelo://app?vid=634ef7ce-3fff-49c5-aa58-986010868891","ios":"levelo://app?vid=634ef7ce-3fff-49c5-aa58-986010868891"},"vehicle_type_id":"4","last_reported":1743851262,"current_range_meters":6400,"station_id":"ce4bho92rcd13ifvqh4g","pricing_plan_id":"cebpf4jnsgd1na2vs0mg"},{"bike_id":"425a9ea7-492c-4813-89f8-a00458482551","system_id":"levelo_inurba_marseille","lat":43.29007,"lon":5.381509,"is_reserved":false,"is_disabled":false,"rental_uris":{"android":"levelo://app?vid=425a9ea7-492c-4813-89f8-a00458482551","ios":"levelo://app?vid=425a9ea7-492c-4813-89f8-a00458482551"},"vehicle_type_id":"4","last_reported":1743851262,"current_range_meters":8000,"station_id":"ce4bh4p2rcd13ifvqe1g","pricing_plan_id":"cebpf4jnsgd1na2vs0mg"},{"bike_id":"36d996d1-147d-4367-84e7-9ff54765b37a","system_id":"levelo_inurba_marseille","lat":43.23189,"lon":5.35561,"is_reserved":false,"is_disabled":false,"rental_uris":{"android":"levelo://app?vid=36d996d1-147d-4367-84e7-9ff54765b37a","ios":"levelo://app?vid=36d996d1-147d-4367-84e7-9ff54765b37a"},"vehicle_type_id":"4","last_reported":1743851262,"current_range_meters":6400,"station_id":"ce4bhu92rcd13ifvqi70","pricing_plan_id":"cebpf4jnsgd1na2vs0mg"},{"bike_id":"91c00d5e-80c7-4810-9067-c6e9b2c34739","system_id":"levelo_inurba_marseille","lat":43.29621,"lon":5.37733,"is_reserved":false,"is_disabled":false,"rental_uris":{"android":"levelo://app?vid=91c00d5e-80c7-4810-9067-c6e9b2c34739","ios":"levelo://app?vid=91c00d5e-80c7-4810-9067-c6e9b2c34739"},"vehicle_type_id":"4","last_reported":1743851262,"current_range_meters":6400,"station_id":"ce4bgi92rcd13ifvqb90","pricing_plan_id":"cebpf4jnsgd1na2vs0mg"},{"bike_id":"2aab0547-4ad4-4013-9bfe-f0e7af1b3396","system_id":"levelo_inurba_marseille","lat":43.30535,"lon":5.36552,"is_reserved":false,"is_disabled":false,"rental_uris":{"android":"levelo://app?vid=2aab0547-4ad4-4013-9bfe-f0e7af1b3396","ios":"levelo://app?vid=2aab0547-4ad4-4013-9bfe-f0e7af1b3396"},"vehicle_type_id":"4","last_reported":1743851262,"current_range_meters":6400,"station_id":"ce4bgs12rcd13ifvqcag","pricing_plan_id":"cebpf4jnsgd1na2vs0mg"},{"bike_id":"7580c528-baaf-4152-9ecf-e8cf200be207","system_id":"levelo_inurba_marseille","lat":43.262185,"lon":5.374473,"is_reserved":false,"is_disabled":false,"rental_uris":{"android":"levelo://app?vid=7580c528-baaf-4152-9ecf-e8cf200be207","ios":"levelo://app?vid=7580c528-baaf-4152-9ecf-e8cf200be207"},"vehicle_type_id":"4","last_reported":1743851262,"current_range_meters":6400,"station_id":"ce4bhgp2rcd13ifvqfc0","pricing_plan_id":"cebpf4jnsgd1na2vs0mg"},{"bike_id":"758c2355-846a-4f3d-bcd8-eac4b3145cd6","system_id":"levelo_inurba_marseille","lat":43.23194,"lon":5.35565,"is_reserved":false,"is_disabled":false,"rental_uris":{"android":"levelo://app?vid=758c2355-846a-4f3d-bcd8-eac4b3145cd6","ios":"levelo://app?vid=758c2355-846a-4f3d-bcd8-eac4b3145cd6"},"vehicle_type_id":"4","last_reported":1743851262,"current_range_meters":6400,"station_id":"ce4bhu92rcd13ifvqi70","pricing_plan_id":"cebpf4jnsgd1na2vs0mg"},{"bike_id":"fec83f7a-21eb-49d1-99ab-40c3d11c9183","system_id":"levelo_inurba_marseille","lat":43.313655,"lon":5.384914,"is_reserved":false,"is_disabled":false,"rental_uris":{"android":"levelo://app?vid=fec83f7a-21eb-49d1-99ab-40c3d11c9183","ios":"levelo://app?vid=fec83f7a-21eb-49d1-99ab-40c3d11c9183"},"vehicle_type_id":"4","last_reported":1743851262,"current_range_meters":6400,"station_id":"ce4bgg92rcd13ifvqb30","pricing_plan_id":"cebpf4jnsgd1na2vs0mg"},{"bike_id":"d1a8bec0-2815-4339-8444-2a197f019e80","system_id":"levelo_inurba_marseille","lat":43.26786,"lon":5.39415,"is_reserved":false,"is_disabled":false,"rental_uris":{"android":"levelo://app?vid=d1a8bec0-2815-4339-8444-2a197f019e80","ios":"levelo://app?vid=d1a8bec0-2815-4339-8444-2a197f019e80"},"vehicle_type_id":"4","last_reported":1743851262,"current_range_meters":6400,"station_id":"ce4bhh12rcd13ifvqfg0","pricing_plan_id":"cebpf4jnsgd1na2vs0mg"},{"bike_id":"674e0037-5822-44b6-8a5a-d0be6d0d225e","system_id":"levelo_inurba_marseille","lat":43.30327,"lon":5.40437,"is_reserved":false,"is_disabled":false,"rental_uris":{"android":"levelo://app?vid=674e0037-5822-44b6-8a5a-d0be6d0d225e","ios":"levelo://app?vid=674e0037-5822-44b6-8a5a-d0be6d0d225e"},"vehicle_type_id":"4","last_reported":1743851262,"current_range_meters":6800,"station_id":"ce4bh012rcd13ifvqd10","pricing_plan_id":"cebpf4jnsgd1na2vs0mg"},{"bike_id":"2b829cb4-e166-4fe2-b281-85746037f1ad","system_id":"levelo_inurba_marseille","lat":43.30374,"lon":5.42486,"is_reserved":false,"is_disabled":false,"rental_uris":{"android":"levelo://app?vid=2b829cb4-e166-4fe2-b281-85746037f1ad","ios":"levelo://app?vid=2b829cb4-e166-4fe2-b281-85746037f1ad"},"vehicle_type_id":"4","last_reported":1743851262,"current_range_meters":6800,"station_id":"ce4bhoh2rcd13ifvqh6g","pricing_plan_id":"cebpf4jnsgd1na2vs0mg"},{"bike_id":"9cb6abd2-12e5-4f6d-bb9c-f7909f6b3b02","system_id":"levelo_inurba_marseille","lat":43.26585,"lon":5.39013,"is_reserved":false,"is_disabled":false,"rental_uris":{"android":"levelo://app?vid=9cb6abd2-12e5-4f6d-bb9c-f7909f6b3b02","ios":"levelo://app?vid=9cb6abd2-12e5-4f6d-bb9c-f7909f6b3b02"},"vehicle_type_id":"4","last_reported":1743851262,"current_range_meters":6800,"station_id":"ce4bhe12rcd13ifvqf30","pricing_plan_id":"cebpf4jnsgd1na2vs0mg"},{"bike_id":"b6e73fff-ccbc-4536-93d2-185678c34449","system_id":"levelo_inurba_marseille","lat":43.21183,"lon":5.35082,"is_reserved":false,"is_disabled":false,"rental_uris":{"android":"levelo://app?vid=b6e73fff-ccbc-4536-93d2-185678c34449","ios":"levelo://app?vid=b6e73fff-ccbc-4536-93d2-185678c34449"},"vehicle_type_id":"4","last_reported":1743851262,"current_range_meters":6800,"station_id":"st_cvj6sg6p6f1abm77japg","pricing_plan_id":"cebpf4jnsgd1na2vs0mg"},{"bike_id":"04bad98f-e935-4a18-b805-fa19e1eb232e","system_id":"levelo_inurba_marseille","lat":43.27373,"lon":5.3626,"is_reserved":false,"is_disabled":false,"rental_uris":{"android":"levelo://app?vid=04bad98f-e935-4a18-b805-fa19e1eb232e","ios":"levelo://app?vid=04bad98f-e935-4a18-b805-fa19e1eb232e"},"vehicle_type_id":"4","last_reported":1743851262,"current_range_meters":6400,"station_id":"ce4bhbh2rcd13ifvqeo0","pricing_plan_id":"cebpf4jnsgd1na2vs0mg"},{"bike_id":"2768691a-e74c-4365-b40b-bcf651fe4f63","system_id":"levelo_inurba_marseille","lat":43.29576,"lon":5.37512,"is_reserved":false,"is_disabled":false,"rental_uris":{"android":"levelo://app?vid=2768691a-e74c-4365-b40b-bcf651fe4f63","ios":"levelo://app?vid=2768691a-e74c-4365-b40b-bcf651fe4f63"},"vehicle_type_id":"4","last_reported":1743851262,"current_range_meters":6800,"station_id":"ce4bgh92rcd13ifvqb50","pricing_plan_id":"cebpf4jnsgd1na2vs0mg"},{"bike_id":"50297066-959d-45c5-a71e-b062cc3724ec","system_id":"levelo_inurba_marseille","lat":43.30811,"lon":5.37356,"is_reserved":false,"is_disabled":false,"rental_uris":{"android":"levelo://app?vid=50297066-959d-45c5-a71e-b062cc3724ec","ios":"levelo://app?vid=50297066-959d-45c5-a71e-b062cc3724ec"},"vehicle_type_id":"4","last_reported":1743851262,"current_range_meters":6800,"station_id":"","pricing_plan_id":"cebpf4jnsgd1na2vs0mg"},{"bike_id":"35bf4e10-d535-4f72-9bca-0ecd6f60d75c","system_id":"levelo_inurba_marseille","lat":43.29578,"lon":5.36746,"is_reserved":false,"is_disabled":false,"rental_uris":{"android":"levelo://app?vid=35bf4e10-d535-4f72-9bca-0ecd6f60d75c","ios":"levelo://app?vid=35bf4e10-d535-4f72-9bca-0ecd6f60d75c"},"vehicle_type_id":"4","last_reported":1743851262,"current_range_meters":6400,"station_id":"ce4bgph2rcd13ifvqc2g","pricing_plan_id":"cebpf4jnsgd1na2vs0mg"},{"bike_id":"65cdd327-5083-4dab-9a68-2a7cc28422cc","system_id":"levelo_inurba_marseille","lat":43.23056,"lon":5.35496,"is_reserved":false,"is_disabled":false,"rental_uris":{"android":"levelo://app?vid=65cdd327-5083-4dab-9a68-2a7cc28422cc","ios":"levelo://app?vid=65cdd327-5083-4dab-9a68-2a7cc28422cc"},"vehicle_type_id":"4","last_reported":1743851262,"current_range_meters":6800,"station_id":"cpo3342slgdg3j2ifvpg","pricing_plan_id":"cebpf4jnsgd1na2vs0mg"},{"bike_id":"89739bc3-b383-4edd-8dbe-08157a76aa7a","system_id":"levelo_inurba_marseille","lat":43.27376,"lon":5.36251,"is_reserved":false,"is_disabled":false,"rental_uris":{"android":"levelo://app?vid=89739bc3-b383-4edd-8dbe-08157a76aa7a","ios":"levelo://app?vid=89739bc3-b383-4edd-8dbe-08157a76aa7a"},"vehicle_type_id":"4","last_reported":1743851262,"current_range_meters":6800,"station_id":"ce4bhbh2rcd13ifvqeo0","pricing_plan_id":"cebpf4jnsgd1na2vs0mg"},{"bike_id":"47133efd-2d94-44ee-8409-36bb66040b11","system_id":"levelo_inurba_marseille","lat":43.3015,"lon":5.38099,"is_reserved":false,"is_disabled":false,"rental_uris":{"android":"levelo://app?vid=47133efd-2d94-44ee-8409-36bb66040b11","ios":"levelo://app?vid=47133efd-2d94-44ee-8409-36bb66040b11"},"vehicle_type_id":"4","last_reported":1743851262,"current_range_meters":7200,"station_id":"ce4bgjp2rcd13ifvqbh0","pricing_plan_id":"cebpf4jnsgd1na2vs0mg"},{"bike_id":"89382623-7b7f-40e8-a15b-8193cd59c918","system_id":"levelo_inurba_marseille","lat":43.23193,"lon":5.35551,"is_reserved":false,"is_disabled":false,"rental_uris":{"android":"levelo://app?vid=89382623-7b7f-40e8-a15b-8193cd59c918","ios":"levelo://app?vid=89382623-7b7f-40e8-a15b-8193cd59c918"},"vehicle_type_id":"4","last_reported":1743851262,"current_range_meters":7200,"station_id":"ce4bhu92rcd13ifvqi70","pricing_plan_id":"cebpf4jnsgd1na2vs0mg"},{"bike_id":"ea354b83-c7e8-471e-b070-aae28545d36e","system_id":"levelo_inurba_marseille","lat":43.29672,"lon":5.37295,"is_reserved":false,"is_disabled":false,"rental_uris":{"android":"levelo://app?vid=ea354b83-c7e8-471e-b070-aae28545d36e","ios":"levelo://app?vid=ea354b83-c7e8-471e-b070-aae28545d36e"},"vehicle_type_id":"4","last_reported":1743851262,"current_range_meters":7200,"station_id":"ce4bgk12rcd13ifvqbj0","pricing_plan_id":"cebpf4jnsgd1na2vs0mg"},{"bike_id":"85569c5e-792a-4809-8948-6b3410ae7c98","system_id":"levelo_inurba_marseille","lat":43.24689,"lon":5.4119,"is_reserved":false,"is_disabled":false,"rental_uris":{"android":"levelo://app?vid=85569c5e-792a-4809-8948-6b3410ae7c98","ios":"levelo://app?vid=85569c5e-792a-4809-8948-6b3410ae7c98"},"vehicle_type_id":"4","last_reported":1743851262,"current_range_meters":7200,"station_id":"","pricing_plan_id":"cebpf4jnsgd1na2vs0mg"},{"bike_id":"3a673a01-13fc-4ed6-b9b1-08a0faf2fd75","system_id":"levelo_inurba_marseille","lat":43.23179,"lon":5.39998,"is_reserved":false,"is_disabled":false,"rental_uris":{"android":"levelo://app?vid=3a673a01-13fc-4ed6-b9b1-08a0faf2fd75","ios":"levelo://app?vid=3a673a01-13fc-4ed6-b9b1-08a0faf2fd75"},"vehicle_type_id":"4","last_reported":1743851262,"current_range_meters":7200,"station_id":"ce4bhn12rcd13ifvqgqg","pricing_plan_id":"cebpf4jnsgd1na2vs0mg"},{"bike_id":"ac763f37-3cd2-440c-b42a-fc3efbb304a2","system_id":"levelo_inurba_marseille","lat":43.24405,"lon":5.37071,"is_reserved":false,"is_disabled":false,"rental_uris":{"android":"levelo://app?vid=ac763f37-3cd2-440c-b42a-fc3efbb304a2","ios":"levelo://app?vid=ac763f37-3cd2-440c-b42a-fc3efbb304a2"},"vehicle_type_id":"4","last_reported":1743851262,"current_range_meters":7200,"station_id":"ce4bhhh2rcd13ifvqfk0","pricing_plan_id":"cebpf4jnsgd1na2vs0mg"},{"bike_id":"4d4b5bbd-6cad-4bcb-a4b1-91ac104dfa7b","system_id":"levelo_inurba_marseille","lat":43.3032,"lon":5.40434,"is_reserved":false,"is_disabled":false,"rental_uris":{"android":"levelo://app?vid=4d4b5bbd-6cad-4bcb-a4b1-91ac104dfa7b","ios":"levelo://app?vid=4d4b5bbd-6cad-4bcb-a4b1-91ac104dfa7b"},"vehicle_type_id":"4","last_reported":1743851262,"current_range_meters":8000,"station_id":"ce4bh012rcd13ifvqd10","pricing_plan_id":"cebpf4jnsgd1na2vs0mg"},{"bike_id":"e8f9ad02-86eb-405e-9c33-6292ecaa33c8","system_id":"levelo_inurba_marseille","lat":43.29043,"lon":5.3998,"is_reserved":false,"is_disabled":false,"rental_uris":{"android":"levelo://app?vid=e8f9ad02-86eb-405e-9c33-6292ecaa33c8","ios":"levelo://app?vid=e8f9ad02-86eb-405e-9c33-6292ecaa33c8"},"vehicle_type_id":"4","last_reported":1743851262,"current_range_meters":8000,"station_id":"ce4bh392rcd13ifvqdm0","pricing_plan_id":"cebpf4jnsgd1na2vs0mg"},{"bike_id":"2300e608-9f49-4219-a239-0a93902d8d11","system_id":"levelo_inurba_marseille","lat":43.30724,"lon":5.42454,"is_reserved":false,"is_disabled":false,"rental_uris":{"android":"levelo://app?vid=2300e608-9f49-4219-a239-0a93902d8d11","ios":"levelo://app?vid=2300e608-9f49-4219-a239-0a93902d8d11"},"vehicle_type_id":"4","last_reported":1743851262,"current_range_meters":8000,"station_id":"st_cvj6ca6bvosntc0bfgr0","pricing_plan_id":"cebpf4jnsgd1na2vs0mg"},{"bike_id":"7262fe25-3de4-4b44-955c-5d2adcc8826c","system_id":"levelo_inurba_marseille","lat":43.21191,"lon":5.35073,"is_reserved":false,"is_disabled":false,"rental_uris":{"android":"levelo://app?vid=7262fe25-3de4-4b44-955c-5d2adcc8826c","ios":"levelo://app?vid=7262fe25-3de4-4b44-955c-5d2adcc8826c"},"vehicle_type_id":"4","last_reported":1743851262,"current_range_meters":8400,"station_id":"st_cvj6sg6p6f1abm77japg","pricing_plan_id":"cebpf4jnsgd1na2vs0mg"},{"bike_id":"ed562682-b9c4-45a5-a5d9-628992c2c17c","system_id":"levelo_inurba_marseille","lat":43.33043,"lon":5.39013,"is_reserved":false,"is_disabled":false,"rental_uris":{"android":"levelo://app?vid=ed562682-b9c4-45a5-a5d9-628992c2c17c","ios":"levelo://app?vid=ed562682-b9c4-45a5-a5d9-628992c2c17c"},"vehicle_type_id":"4","last_reported":1743851262,"current_range_meters":8400,"station_id":"ce4bhr92rcd13ifvqhrg","pricing_plan_id":"cebpf4jnsgd1na2vs0mg"},{"bike_id":"aa0bbe75-759c-4aa5-894d-acdc5d95c809","system_id":"levelo_inurba_marseille","lat":43.29622,"lon":5.37167,"is_reserved":false,"is_disabled":false,"rental_uris":{"android":"levelo://app?vid=aa0bbe75-759c-4aa5-894d-acdc5d95c809","ios":"levelo://app?vid=aa0bbe75-759c-4aa5-894d-acdc5d95c809"},"vehicle_type_id":"4","last_reported":1743851262,"current_range_meters":8400,"station_id":"ce4bgnh2rcd13ifvqc0g","pricing_plan_id":"cebpf4jnsgd1na2vs0mg"},{"bike_id":"32b35258-d759-4548-af10-fc0ce8dffa66","system_id":"levelo_inurba_marseille","lat":43.24168,"lon":5.36401,"is_reserved":false,"is_disabled":false,"rental_uris":{"android":"levelo://app?vid=32b35258-d759-4548-af10-fc0ce8dffa66","ios":"levelo://app?vid=32b35258-d759-4548-af10-fc0ce8dffa66"},"vehicle_type_id":"4","last_reported":1743851262,"current_range_meters":8400,"station_id":"cpo36qri1sfpv3e86is0","pricing_plan_id":"cebpf4jnsgd1na2vs0mg"},{"bike_id":"0300ed36-144c-47d9-a922-f93668338414","system_id":"levelo_inurba_marseille","lat":43.23963,"lon":5.36637,"is_reserved":false,"is_disabled":false,"rental_uris":{"android":"levelo://app?vid=0300ed36-144c-47d9-a922-f93668338414","ios":"levelo://app?vid=0300ed36-144c-47d9-a922-f93668338414"},"vehicle_type_id":"4","last_reported":1743851262,"current_range_meters":8400,"station_id":"ce4bhi12rcd13ifvqfp0","pricing_plan_id":"cebpf4jnsgd1na2vs0mg"},{"bike_id":"908c0033-ebf3-400a-acb3-0a621b83539f","system_id":"levelo_inurba_marseille","lat":43.231851,"lon":5.399841,"is_reserved":false,"is_disabled":false,"rental_uris":{"android":"levelo://app?vid=908c0033-ebf3-400a-acb3-0a621b83539f","ios":"levelo://app?vid=908c0033-ebf3-400a-acb3-0a621b83539f"},"vehicle_type_id":"4","last_reported":1743851262,"current_range_meters":8400,"station_id":"ce4bhn12rcd13ifvqgqg","pricing_plan_id":"cebpf4jnsgd1na2vs0mg"},{"bike_id":"d5507535-85fd-4ad8-a6c8-f9b2d92a624f","system_id":"levelo_inurba_marseille","lat":43.23182,"lon":5.39987,"is_reserved":false,"is_disabled":false,"rental_uris":{"android":"levelo://app?vid=d5507535-85fd-4ad8-a6c8-f9b2d92a624f","ios":"levelo://app?vid=d5507535-85fd-4ad8-a6c8-f9b2d92a624f"},"vehicle_type_id":"4","last_reported":1743851262,"current_range_meters":8400,"station_id":"ce4bhn12rcd13ifvqgqg","pricing_plan_id":"cebpf4jnsgd1na2vs0mg"},{"bike_id":"ae85a7a4-7c38-4e25-9e50-a9a925b58789","system_id":"levelo_inurba_marseille","lat":43.31081,"lon":5.42433,"is_reserved":false,"is_disabled":false,"rental_uris":{"android":"levelo://app?vid=ae85a7a4-7c38-4e25-9e50-a9a925b58789","ios":"levelo://app?vid=ae85a7a4-7c38-4e25-9e50-a9a925b58789"},"vehicle_type_id":"4","last_reported":1743851262,"current_range_meters":8400,"station_id":"ce4bhp92rcd13ifvqhag","pricing_plan_id":"cebpf4jnsgd1na2vs0mg"},{"bike_id":"783ef245-163c-4c81-b038-df23059b7c57","system_id":"levelo_inurba_marseille","lat":43.310755,"lon":5.383546,"is_reserved":false,"is_disabled":false,"rental_uris":{"android":"levelo://app?vid=783ef245-163c-4c81-b038-df23059b7c57","ios":"levelo://app?vid=783ef245-163c-4c81-b038-df23059b7c57"},"vehicle_type_id":"4","last_reported":1743851262,"current_range_meters":8800,"station_id":"","pricing_plan_id":"cebpf4jnsgd1na2vs0mg"},{"bike_id":"cfe651ab-d74a-4e0b-8a81-da1cd4f93820","system_id":"levelo_inurba_marseille","lat":43.297959,"lon":5.38089,"is_reserved":false,"is_disabled":false,"rental_uris":{"android":"levelo://app?vid=cfe651ab-d74a-4e0b-8a81-da1cd4f93820","ios":"levelo://app?vid=cfe651ab-d74a-4e0b-8a81-da1cd4f93820"},"vehicle_type_id":"4","last_reported":1743851262,"current_range_meters":8800,"station_id":"ce4bgip2rcd13ifvqbb0","pricing_plan_id":"cebpf4jnsgd1na2vs0mg"},{"bike_id":"a1cc8429-7f5d-4c98-838c-0dbc6d7c247e","system_id":"levelo_inurba_marseille","lat":43.28151,"lon":5.426427,"is_reserved":false,"is_disabled":false,"rental_uris":{"android":"levelo://app?vid=a1cc8429-7f5d-4c98-838c-0dbc6d7c247e","ios":"levelo://app?vid=a1cc8429-7f5d-4c98-838c-0dbc6d7c247e"},"vehicle_type_id":"4","last_reported":1743851262,"current_range_meters":8800,"station_id":"ce4bhnh2rcd13ifvqgug","pricing_plan_id":"cebpf4jnsgd1na2vs0mg"},{"bike_id":"9758a151-b981-410d-a4f2-9f0646eee561","system_id":"levelo_inurba_marseille","lat":43.26943,"lon":5.40256,"is_reserved":false,"is_disabled":false,"rental_uris":{"android":"levelo://app?vid=9758a151-b981-410d-a4f2-9f0646eee561","ios":"levelo://app?vid=9758a151-b981-410d-a4f2-9f0646eee561"},"vehicle_type_id":"4","last_reported":1743851262,"current_range_meters":8800,"station_id":"cjm6bp8fraef2m0cb0m0","pricing_plan_id":"cebpf4jnsgd1na2vs0mg"},{"bike_id":"e6cd8740-8c7b-45da-84ee-69aa21417109","system_id":"levelo_inurba_marseille","lat":43.28848,"lon":5.3931,"is_reserved":false,"is_disabled":false,"rental_uris":{"android":"levelo://app?vid=e6cd8740-8c7b-45da-84ee-69aa21417109","ios":"levelo://app?vid=e6cd8740-8c7b-45da-84ee-69aa21417109"},"vehicle_type_id":"4","last_reported":1743851262,"current_range_meters":8800,"station_id":"ce4bh2p2rcd13ifvqdi0","pricing_plan_id":"cebpf4jnsgd1na2vs0mg"},{"bike_id":"8980209c-4b8c-4f30-a818-89a0aaa71deb","system_id":"levelo_inurba_marseille","lat":43.24397,"lon":5.3705,"is_reserved":false,"is_disabled":false,"rental_uris":{"android":"levelo://app?vid=8980209c-4b8c-4f30-a818-89a0aaa71deb","ios":"levelo://app?vid=8980209c-4b8c-4f30-a818-89a0aaa71deb"},"vehicle_type_id":"4","last_reported":1743851262,"current_range_meters":9200,"station_id":"ce4bhhh2rcd13ifvqfk0","pricing_plan_id":"cebpf4jnsgd1na2vs0mg"},{"bike_id":"3b4ad8c6-6244-4378-90d7-dac703d1508d","system_id":"levelo_inurba_marseille","lat":43.23192,"lon":5.35562,"is_reserved":false,"is_disabled":false,"rental_uris":{"android":"levelo://app?vid=3b4ad8c6-6244-4378-90d7-dac703d1508d","ios":"levelo://app?vid=3b4ad8c6-6244-4378-90d7-dac703d1508d"},"vehicle_type_id":"4","last_reported":1743851262,"current_range_meters":9200,"station_id":"ce4bhu92rcd13ifvqi70","pricing_plan_id":"cebpf4jnsgd1na2vs0mg"},{"bike_id":"203176fb-52f7-45ec-88b4-caa4115f7b7b","system_id":"levelo_inurba_marseille","lat":43.29625,"lon":5.40027,"is_reserved":false,"is_disabled":false,"rental_uris":{"android":"levelo://app?vid=203176fb-52f7-45ec-88b4-caa4115f7b7b","ios":"levelo://app?vid=203176fb-52f7-45ec-88b4-caa4115f7b7b"},"vehicle_type_id":"4","last_reported":1743851262,"current_range_meters":9200,"station_id":"","pricing_plan_id":"cebpf4jnsgd1na2vs0mg"},{"bike_id":"e0fc34f6-0214-440a-9ed4-af39ae5d38dd","system_id":"levelo_inurba_marseille","lat":43.22502,"lon":5.34785,"is_reserved":false,"is_disabled":false,"rental_uris":{"android":"levelo://app?vid=e0fc34f6-0214-440a-9ed4-af39ae5d38dd","ios":"levelo://app?vid=e0fc34f6-0214-440a-9ed4-af39ae5d38dd"},"vehicle_type_id":"4","last_reported":1743851262,"current_range_meters":9200,"station_id":"","pricing_plan_id":"cebpf4jnsgd1na2vs0mg"},{"bike_id":"6b8df6c6-e69f-416d-869f-6c58b572d426","system_id":"levelo_inurba_marseille","lat":43.23226,"lon":5.39972,"is_reserved":false,"is_disabled":false,"rental_uris":{"android":"levelo://app?vid=6b8df6c6-e69f-416d-869f-6c58b572d426","ios":"levelo://app?vid=6b8df6c6-e69f-416d-869f-6c58b572d426"},"vehicle_type_id":"4","last_reported":1743851262,"current_range_meters":9200,"station_id":"","pricing_plan_id":"cebpf4jnsgd1na2vs0mg"},{"bike_id":"fb0d4993-67fa-4314-9525-ef2ba9197c72","system_id":"levelo_inurba_marseille","lat":43.30321,"lon":5.4059,"is_reserved":false,"is_disabled":false,"rental_uris":{"android":"levelo://app?vid=fb0d4993-67fa-4314-9525-ef2ba9197c72","ios":"levelo://app?vid=fb0d4993-67fa-4314-9525-ef2ba9197c72"},"vehicle_type_id":"4","last_reported":1743851262,"current_range_meters":9200,"station_id":"","pricing_plan_id":"cebpf4jnsgd1na2vs0mg"},{"bike_id":"50b740f0-0e7a-49e4-8602-f7e3f67b0535","system_id":"levelo_inurba_marseille","lat":43.31112,"lon":5.37765,"is_reserved":false,"is_disabled":false,"rental_uris":{"android":"levelo://app?vid=50b740f0-0e7a-49e4-8602-f7e3f67b0535","ios":"levelo://app?vid=50b740f0-0e7a-49e4-8602-f7e3f67b0535"},"vehicle_type_id":"4","last_reported":1743851262,"current_range_meters":9200,"station_id":"ce4bgt92rcd13ifvqcg0","pricing_plan_id":"cebpf4jnsgd1na2vs0mg"},{"bike_id":"d68bb49e-ae67-46b9-9113-2f1b9eefff70","system_id":"levelo_inurba_marseille","lat":43.31997,"lon":5.38151,"is_reserved":false,"is_disabled":false,"rental_uris":{"android":"levelo://app?vid=d68bb49e-ae67-46b9-9113-2f1b9eefff70","ios":"levelo://app?vid=d68bb49e-ae67-46b9-9113-2f1b9eefff70"},"vehicle_type_id":"4","last_reported":1743851262,"current_range_meters":9200,"station_id":"ce4bhr12rcd13ifvqhpg","pricing_plan_id":"cebpf4jnsgd1na2vs0mg"},{"bike_id":"561f7321-889f-45bf-a220-6e9864823b09","system_id":"levelo_inurba_marseille","lat":43.26209,"lon":5.37444,"is_reserved":false,"is_disabled":false,"rental_uris":{"android":"levelo://app?vid=561f7321-889f-45bf-a220-6e9864823b09","ios":"levelo://app?vid=561f7321-889f-45bf-a220-6e9864823b09"},"vehicle_type_id":"4","last_reported":1743851262,"current_range_meters":0,"station_id":"ce4bhgp2rcd13ifvqfc0","pricing_plan_id":"cebpf4jnsgd1na2vs0mg"},{"bike_id":"f3dcea72-829b-4939-8ff3-b3053ca6041a","system_id":"levelo_inurba_marseille","lat":43.29568,"lon":5.3751,"is_reserved":false,"is_disabled":false,"rental_uris":{"android":"levelo://app?vid=f3dcea72-829b-4939-8ff3-b3053ca6041a","ios":"levelo://app?vid=f3dcea72-829b-4939-8ff3-b3053ca6041a"},"vehicle_type_id":"4","last_reported":1743851262,"current_range_meters":9600,"station_id":"ce4bgh92rcd13ifvqb50","pricing_plan_id":"cebpf4jnsgd1na2vs0mg"},{"bike_id":"4f87fde7-c456-4c01-b0cb-cde455827412","system_id":"levelo_inurba_marseille","lat":43.24168,"lon":5.36403,"is_reserved":false,"is_disabled":false,"rental_uris":{"android":"levelo://app?vid=4f87fde7-c456-4c01-b0cb-cde455827412","ios":"levelo://app?vid=4f87fde7-c456-4c01-b0cb-cde455827412"},"vehicle_type_id":"4","last_reported":1743851262,"current_range_meters":9600,"station_id":"cpo36qri1sfpv3e86is0","pricing_plan_id":"cebpf4jnsgd1na2vs0mg"},{"bike_id":"9a055327-5ba2-482f-b223-d78608155b28","system_id":"levelo_inurba_marseille","lat":43.28413,"lon":5.35005,"is_reserved":false,"is_disabled":false,"rental_uris":{"android":"levelo://app?vid=9a055327-5ba2-482f-b223-d78608155b28","ios":"levelo://app?vid=9a055327-5ba2-482f-b223-d78608155b28"},"vehicle_type_id":"4","last_reported":1743851262,"current_range_meters":9600,"station_id":"ce4bhbh2rcd13ifvqepg","pricing_plan_id":"cebpf4jnsgd1na2vs0mg"},{"bike_id":"00251f22-1b98-475e-968b-b3ed81a2303c","system_id":"levelo_inurba_marseille","lat":43.24167,"lon":5.36399,"is_reserved":false,"is_disabled":false,"rental_uris":{"android":"levelo://app?vid=00251f22-1b98-475e-968b-b3ed81a2303c","ios":"levelo://app?vid=00251f22-1b98-475e-968b-b3ed81a2303c"},"vehicle_type_id":"4","last_reported":1743851262,"current_range_meters":9600,"station_id":"cpo36qri1sfpv3e86is0","pricing_plan_id":"cebpf4jnsgd1na2vs0mg"},{"bike_id":"ac7a85da-6a1d-42f4-b3e0-decaec458451","system_id":"levelo_inurba_marseille","lat":43.22918,"lon":5.35384,"is_reserved":false,"is_disabled":true,"rental_uris":{"android":"levelo://app?vid=ac7a85da-6a1d-42f4-b3e0-decaec458451","ios":"levelo://app?vid=ac7a85da-6a1d-42f4-b3e0-decaec458451"},"vehicle_type_id":"4","last_reported":1743851262,"current_range_meters":9600,"station_id":"cpo3532slgdg3j2ikp40","pricing_plan_id":"cebpf4jnsgd1na2vs0mg"},{"bike_id":"eb79d1f9-7c91-4ea2-b5f8-796189743e1a","system_id":"levelo_inurba_marseille","lat":43.33742,"lon":5.39193,"is_reserved":false,"is_disabled":false,"rental_uris":{"android":"levelo://app?vid=eb79d1f9-7c91-4ea2-b5f8-796189743e1a","ios":"levelo://app?vid=eb79d1f9-7c91-4ea2-b5f8-796189743e1a"},"vehicle_type_id":"4","last_reported":1743851262,"current_range_meters":10000,"station_id":"ce4bhr92rcd13ifvqhsg","pricing_plan_id":"cebpf4jnsgd1na2vs0mg"},{"bike_id":"d89bb348-a2b2-475f-b66f-22fe74c882fd","system_id":"levelo_inurba_marseille","lat":43.23176,"lon":5.39994,"is_reserved":false,"is_disabled":false,"rental_uris":{"android":"levelo://app?vid=d89bb348-a2b2-475f-b66f-22fe74c882fd","ios":"levelo://app?vid=d89bb348-a2b2-475f-b66f-22fe74c882fd"},"vehicle_type_id":"4","last_reported":1743851262,"current_range_meters":10000,"station_id":"ce4bhn12rcd13ifvqgqg","pricing_plan_id":"cebpf4jnsgd1na2vs0mg"},{"bike_id":"d5633d70-3929-495d-ad6f-f609261811c4","system_id":"levelo_inurba_marseille","lat":43.30526,"lon":5.36725,"is_reserved":false,"is_disabled":false,"rental_uris":{"android":"levelo://app?vid=d5633d70-3929-495d-ad6f-f609261811c4","ios":"levelo://app?vid=d5633d70-3929-495d-ad6f-f609261811c4"},"vehicle_type_id":"4","last_reported":1743851262,"current_range_meters":10000,"station_id":"ce4bgrp2rcd13ifvqc9g","pricing_plan_id":"cebpf4jnsgd1na2vs0mg"},{"bike_id":"fdad6e5e-1467-4616-9d72-68b29d343e00","system_id":"levelo_inurba_marseille","lat":43.32285,"lon":5.38284,"is_reserved":false,"is_disabled":false,"rental_uris":{"android":"levelo://app?vid=fdad6e5e-1467-4616-9d72-68b29d343e00","ios":"levelo://app?vid=fdad6e5e-1467-4616-9d72-68b29d343e00"},"vehicle_type_id":"4","last_reported":1743851262,"current_range_meters":10000,"station_id":"ce4bhr12rcd13ifvqhqg","pricing_plan_id":"cebpf4jnsgd1na2vs0mg"},{"bike_id":"f23e846f-9404-4adc-a826-ee51bb0dfaa2","system_id":"levelo_inurba_marseille","lat":43.31117,"lon":5.37763,"is_reserved":false,"is_disabled":false,"rental_uris":{"android":"levelo://app?vid=f23e846f-9404-4adc-a826-ee51bb0dfaa2","ios":"levelo://app?vid=f23e846f-9404-4adc-a826-ee51bb0dfaa2"},"vehicle_type_id":"4","last_reported":1743851262,"current_range_meters":10000,"station_id":"ce4bgt92rcd13ifvqcg0","pricing_plan_id":"cebpf4jnsgd1na2vs0mg"},{"bike_id":"f73054cd-f0c6-4c01-b971-9bdacca3978d","system_id":"levelo_inurba_marseille","lat":43.29632,"lon":5.40598,"is_reserved":false,"is_disabled":false,"rental_uris":{"android":"levelo://app?vid=f73054cd-f0c6-4c01-b971-9bdacca3978d","ios":"levelo://app?vid=f73054cd-f0c6-4c01-b971-9bdacca3978d"},"vehicle_type_id":"4","last_reported":1743851262,"current_range_meters":10000,"station_id":"ce4bh0h2rcd13ifvqd60","pricing_plan_id":"cebpf4jnsgd1na2vs0mg"},{"bike_id":"6d2f1390-bb1d-47cd-b94c-61cae0fabbd5","system_id":"levelo_inurba_marseille","lat":43.23175,"lon":5.39992,"is_reserved":false,"is_disabled":false,"rental_uris":{"android":"levelo://app?vid=6d2f1390-bb1d-47cd-b94c-61cae0fabbd5","ios":"levelo://app?vid=6d2f1390-bb1d-47cd-b94c-61cae0fabbd5"},"vehicle_type_id":"4","last_reported":1743851262,"current_range_meters":10000,"station_id":"ce4bhn12rcd13ifvqgqg","pricing_plan_id":"cebpf4jnsgd1na2vs0mg"},{"bike_id":"c7f4a0a6-d1a3-47d3-9bc8-6f34932733fa","system_id":"levelo_inurba_marseille","lat":43.25821,"lon":5.39436,"is_reserved":false,"is_disabled":false,"rental_uris":{"android":"levelo://app?vid=c7f4a0a6-d1a3-47d3-9bc8-6f34932733fa","ios":"levelo://app?vid=c7f4a0a6-d1a3-47d3-9bc8-6f34932733fa"},"vehicle_type_id":"4","last_reported":1743851262,"current_range_meters":10800,"station_id":"ce4bhip2rcd13ifvqft0","pricing_plan_id":"cebpf4jnsgd1na2vs0mg"},{"bike_id":"c978b331-dbe9-4b57-a266-52675c83e8bd","system_id":"levelo_inurba_marseille","lat":43.273843,"lon":5.3626,"is_reserved":false,"is_disabled":false,"rental_uris":{"android":"levelo://app?vid=c978b331-dbe9-4b57-a266-52675c83e8bd","ios":"levelo://app?vid=c978b331-dbe9-4b57-a266-52675c83e8bd"},"vehicle_type_id":"4","last_reported":1743851262,"current_range_meters":10800,"station_id":"ce4bhbh2rcd13ifvqeo0","pricing_plan_id":"cebpf4jnsgd1na2vs0mg"},{"bike_id":"81c282f2-cc8c-4e99-9dcd-36f8c04466c2","system_id":"levelo_inurba_marseille","lat":43.30526,"lon":5.3671,"is_reserved":false,"is_disabled":false,"rental_uris":{"android":"levelo://app?vid=81c282f2-cc8c-4e99-9dcd-36f8c04466c2","ios":"levelo://app?vid=81c282f2-cc8c-4e99-9dcd-36f8c04466c2"},"vehicle_type_id":"4","last_reported":1743851262,"current_range_meters":10800,"station_id":"ce4bgrp2rcd13ifvqc9g","pricing_plan_id":"cebpf4jnsgd1na2vs0mg"},{"bike_id":"c8d13d58-1393-4a46-b1e3-76598007846f","system_id":"levelo_inurba_marseille","lat":43.2315,"lon":5.43722,"is_reserved":false,"is_disabled":false,"rental_uris":{"android":"levelo://app?vid=c8d13d58-1393-4a46-b1e3-76598007846f","ios":"levelo://app?vid=c8d13d58-1393-4a46-b1e3-76598007846f"},"vehicle_type_id":"4","last_reported":1743851262,"current_range_meters":10800,"station_id":"ce4bhmp2rcd13ifvqgog","pricing_plan_id":"cebpf4jnsgd1na2vs0mg"},{"bike_id":"e0025ce5-fe29-4293-8000-c88ee2bac657","system_id":"levelo_inurba_marseille","lat":43.3147,"lon":5.39225,"is_reserved":false,"is_disabled":false,"rental_uris":{"android":"levelo://app?vid=e0025ce5-fe29-4293-8000-c88ee2bac657","ios":"levelo://app?vid=e0025ce5-fe29-4293-8000-c88ee2bac657"},"vehicle_type_id":"4","last_reported":1743851262,"current_range_meters":10800,"station_id":"","pricing_plan_id":"cebpf4jnsgd1na2vs0mg"},{"bike_id":"e405ba7d-3b90-4bbf-8c49-6e3cfb80c43c","system_id":"levelo_inurba_marseille","lat":43.27375,"lon":5.36252,"is_reserved":false,"is_disabled":false,"rental_uris":{"android":"levelo://app?vid=e405ba7d-3b90-4bbf-8c49-6e3cfb80c43c","ios":"levelo://app?vid=e405ba7d-3b90-4bbf-8c49-6e3cfb80c43c"},"vehicle_type_id":"4","last_reported":1743851262,"current_range_meters":10800,"station_id":"ce4bhbh2rcd13ifvqeo0","pricing_plan_id":"cebpf4jnsgd1na2vs0mg"},{"bike_id":"ac5f409f-c0a7-4c11-bc9b-ba10bb67f02f","system_id":"levelo_inurba_marseille","lat":43.29575,"lon":5.37522,"is_reserved":false,"is_disabled":false,"rental_uris":{"android":"levelo://app?vid=ac5f409f-c0a7-4c11-bc9b-ba10bb67f02f","ios":"levelo://app?vid=ac5f409f-c0a7-4c11-bc9b-ba10bb67f02f"},"vehicle_type_id":"4","last_reported":1743851262,"current_range_meters":11200,"station_id":"ce4bgh92rcd13ifvqb50","pricing_plan_id":"cebpf4jnsgd1na2vs0mg"},{"bike_id":"c6d94627-e65d-4df8-bc3b-131e91ba4071","system_id":"levelo_inurba_marseille","lat":43.21197,"lon":5.35077,"is_reserved":false,"is_disabled":false,"rental_uris":{"android":"levelo://app?vid=c6d94627-e65d-4df8-bc3b-131e91ba4071","ios":"levelo://app?vid=c6d94627-e65d-4df8-bc3b-131e91ba4071"},"vehicle_type_id":"4","last_reported":1743851262,"current_range_meters":11200,"station_id":"st_cvj6sg6p6f1abm77japg","pricing_plan_id":"cebpf4jnsgd1na2vs0mg"},{"bike_id":"33fcad57-3339-495e-9404-06e1e790ee8f","system_id":"levelo_inurba_marseille","lat":43.25001,"lon":5.38923,"is_reserved":false,"is_disabled":false,"rental_uris":{"android":"levelo://app?vid=33fcad57-3339-495e-9404-06e1e790ee8f","ios":"levelo://app?vid=33fcad57-3339-495e-9404-06e1e790ee8f"},"vehicle_type_id":"4","last_reported":1743851262,"current_range_meters":11200,"station_id":"ce4bhgp2rcd13ifvqfd0","pricing_plan_id":"cebpf4jnsgd1na2vs0mg"},{"bike_id":"e185eff1-e2ea-4d3a-aa73-7219c8c5ecaf","system_id":"levelo_inurba_marseille","lat":43.29713,"lon":5.36605,"is_reserved":false,"is_disabled":false,"rental_uris":{"android":"levelo://app?vid=e185eff1-e2ea-4d3a-aa73-7219c8c5ecaf","ios":"levelo://app?vid=e185eff1-e2ea-4d3a-aa73-7219c8c5ecaf"},"vehicle_type_id":"4","last_reported":1743851262,"current_range_meters":11200,"station_id":"ce4bgn12rcd13ifvqbt0","pricing_plan_id":"cebpf4jnsgd1na2vs0mg"},{"bike_id":"30b57730-cb66-4122-bd93-7dabcaba84e7","system_id":"levelo_inurba_marseille","lat":43.24904,"lon":5.40659,"is_reserved":false,"is_disabled":false,"rental_uris":{"android":"levelo://app?vid=30b57730-cb66-4122-bd93-7dabcaba84e7","ios":"levelo://app?vid=30b57730-cb66-4122-bd93-7dabcaba84e7"},"vehicle_type_id":"4","last_reported":1743851262,"current_range_meters":11200,"station_id":"","pricing_plan_id":"cebpf4jnsgd1na2vs0mg"},{"bike_id":"b6e54d3b-b651-42db-8cee-7b2201eb8822","system_id":"levelo_inurba_marseille","lat":43.25868,"lon":5.39896,"is_reserved":false,"is_disabled":false,"rental_uris":{"android":"levelo://app?vid=b6e54d3b-b651-42db-8cee-7b2201eb8822","ios":"levelo://app?vid=b6e54d3b-b651-42db-8cee-7b2201eb8822"},"vehicle_type_id":"4","last_reported":1743851262,"current_range_meters":10800,"station_id":"ce4bhl92rcd13ifvqghg","pricing_plan_id":"cebpf4jnsgd1na2vs0mg"},{"bike_id":"dd6e2cba-d5e2-4898-817d-b36e3ed7f0fa","system_id":"levelo_inurba_marseille","lat":43.29722,"lon":5.37674,"is_reserved":false,"is_disabled":false,"rental_uris":{"android":"levelo://app?vid=dd6e2cba-d5e2-4898-817d-b36e3ed7f0fa","ios":"levelo://app?vid=dd6e2cba-d5e2-4898-817d-b36e3ed7f0fa"},"vehicle_type_id":"4","last_reported":1743851262,"current_range_meters":11200,"station_id":"ce4bgkh2rcd13ifvqbl0","pricing_plan_id":"cebpf4jnsgd1na2vs0mg"},{"bike_id":"cb2bde41-669d-4ed3-8eeb-39245dfc04ec","system_id":"levelo_inurba_marseille","lat":43.248,"lon":5.37448,"is_reserved":false,"is_disabled":false,"rental_uris":{"android":"levelo://app?vid=cb2bde41-669d-4ed3-8eeb-39245dfc04ec","ios":"levelo://app?vid=cb2bde41-669d-4ed3-8eeb-39245dfc04ec"},"vehicle_type_id":"4","last_reported":1743851262,"current_range_meters":11200,"station_id":"ce4bhgh2rcd13ifvqfb0","pricing_plan_id":"cebpf4jnsgd1na2vs0mg"},{"bike_id":"1e72551c-3a74-4f8e-be2f-f0bcbaf77373","system_id":"levelo_inurba_marseille","lat":43.31223,"lon":5.36852,"is_reserved":false,"is_disabled":false,"rental_uris":{"android":"levelo://app?vid=1e72551c-3a74-4f8e-be2f-f0bcbaf77373","ios":"levelo://app?vid=1e72551c-3a74-4f8e-be2f-f0bcbaf77373"},"vehicle_type_id":"4","last_reported":1743851262,"current_range_meters":11600,"station_id":"ce4bgl92rcd13ifvqbq0","pricing_plan_id":"cebpf4jnsgd1na2vs0mg"},{"bike_id":"a265faad-6fca-47ab-8731-f6e0c4eab88a","system_id":"levelo_inurba_marseille","lat":43.23822,"lon":5.43222,"is_reserved":false,"is_disabled":false,"rental_uris":{"android":"levelo://app?vid=a265faad-6fca-47ab-8731-f6e0c4eab88a","ios":"levelo://app?vid=a265faad-6fca-47ab-8731-f6e0c4eab88a"},"vehicle_type_id":"4","last_reported":1743851262,"current_range_meters":11600,"station_id":"","pricing_plan_id":"cebpf4jnsgd1na2vs0mg"},{"bike_id":"cb5dbe86-c8df-4547-9e3c-803b0e04ecb0","system_id":"levelo_inurba_marseille","lat":43.30483,"lon":5.3791,"is_reserved":false,"is_disabled":false,"rental_uris":{"android":"levelo://app?vid=cb5dbe86-c8df-4547-9e3c-803b0e04ecb0","ios":"levelo://app?vid=cb5dbe86-c8df-4547-9e3c-803b0e04ecb0"},"vehicle_type_id":"4","last_reported":1743851262,"current_range_meters":11600,"station_id":"ce4bgup2rcd13ifvqcn0","pricing_plan_id":"cebpf4jnsgd1na2vs0mg"},{"bike_id":"aecd6db3-bfd0-4f56-bdfc-31c4a713e16f","system_id":"levelo_inurba_marseille","lat":43.28277,"lon":5.35076,"is_reserved":false,"is_disabled":false,"rental_uris":{"android":"levelo://app?vid=aecd6db3-bfd0-4f56-bdfc-31c4a713e16f","ios":"levelo://app?vid=aecd6db3-bfd0-4f56-bdfc-31c4a713e16f"},"vehicle_type_id":"4","last_reported":1743851262,"current_range_meters":11600,"station_id":"ce4bhbp2rcd13ifvqerg","pricing_plan_id":"cebpf4jnsgd1na2vs0mg"},{"bike_id":"2a5f39f4-145c-46b3-9865-17acd4a6cff2","system_id":"levelo_inurba_marseille","lat":43.29021,"lon":5.38137,"is_reserved":false,"is_disabled":false,"rental_uris":{"android":"levelo://app?vid=2a5f39f4-145c-46b3-9865-17acd4a6cff2","ios":"levelo://app?vid=2a5f39f4-145c-46b3-9865-17acd4a6cff2"},"vehicle_type_id":"4","last_reported":1743851262,"current_range_meters":11600,"station_id":"ce4bh4p2rcd13ifvqe1g","pricing_plan_id":"cebpf4jnsgd1na2vs0mg"},{"bike_id":"d5e984d3-343e-4e16-bd54-bc3ebbd48639","system_id":"levelo_inurba_marseille","lat":43.30124,"lon":5.38784,"is_reserved":false,"is_disabled":true,"rental_uris":{"android":"levelo://app?vid=d5e984d3-343e-4e16-bd54-bc3ebbd48639","ios":"levelo://app?vid=d5e984d3-343e-4e16-bd54-bc3ebbd48639"},"vehicle_type_id":"4","last_reported":1743851262,"current_range_meters":12000,"station_id":"ce4bghh2rcd13ifvqb60","pricing_plan_id":"cebpf4jnsgd1na2vs0mg"},{"bike_id":"db29433a-c7f6-40d6-b0e1-3a1f0abf15ab","system_id":"levelo_inurba_marseille","lat":43.241712,"lon":5.364041,"is_reserved":false,"is_disabled":true,"rental_uris":{"android":"levelo://app?vid=db29433a-c7f6-40d6-b0e1-3a1f0abf15ab","ios":"levelo://app?vid=db29433a-c7f6-40d6-b0e1-3a1f0abf15ab"},"vehicle_type_id":"4","last_reported":1743851262,"current_range_meters":12000,"station_id":"ce4bh412rcd13ifvqdr0","pricing_plan_id":"cebpf4jnsgd1na2vs0mg"},{"bike_id":"b0b014ad-5ede-4af3-86b6-2dd480528f10","system_id":"levelo_inurba_marseille","lat":43.31719,"lon":5.40428,"is_reserved":false,"is_disabled":false,"rental_uris":{"android":"levelo://app?vid=b0b014ad-5ede-4af3-86b6-2dd480528f10","ios":"levelo://app?vid=b0b014ad-5ede-4af3-86b6-2dd480528f10"},"vehicle_type_id":"4","last_reported":1743851262,"current_range_meters":12000,"station_id":"","pricing_plan_id":"cebpf4jnsgd1na2vs0mg"},{"bike_id":"d992f2c5-0aff-4de2-a387-99c4dcc8dfb2","system_id":"levelo_inurba_marseille","lat":43.2991,"lon":5.37464,"is_reserved":false,"is_disabled":false,"rental_uris":{"android":"levelo://app?vid=d992f2c5-0aff-4de2-a387-99c4dcc8dfb2","ios":"levelo://app?vid=d992f2c5-0aff-4de2-a387-99c4dcc8dfb2"},"vehicle_type_id":"4","last_reported":1743851262,"current_range_meters":12000,"station_id":"ce4bgjh2rcd13ifvqbg0","pricing_plan_id":"cebpf4jnsgd1na2vs0mg"},{"bike_id":"c596b7d7-015e-434a-84ea-dc7cb589c92b","system_id":"levelo_inurba_marseille","lat":43.29257,"lon":5.40908,"is_reserved":false,"is_disabled":false,"rental_uris":{"android":"levelo://app?vid=c596b7d7-015e-434a-84ea-dc7cb589c92b","ios":"levelo://app?vid=c596b7d7-015e-434a-84ea-dc7cb589c92b"},"vehicle_type_id":"4","last_reported":1743851262,"current_range_meters":12000,"station_id":"ce4bh192rcd13ifvqdc0","pricing_plan_id":"cebpf4jnsgd1na2vs0mg"},{"bike_id":"189e2aac-077b-48ea-85c1-cee9b7ceba62","system_id":"levelo_inurba_marseille","lat":43.30551,"lon":5.36543,"is_reserved":false,"is_disabled":false,"rental_uris":{"android":"levelo://app?vid=189e2aac-077b-48ea-85c1-cee9b7ceba62","ios":"levelo://app?vid=189e2aac-077b-48ea-85c1-cee9b7ceba62"},"vehicle_type_id":"4","last_reported":1743851262,"current_range_meters":12000,"station_id":"ce4bgs12rcd13ifvqcag","pricing_plan_id":"cebpf4jnsgd1na2vs0mg"},{"bike_id":"c7643979-9ece-4372-b68c-2d9a4e876f66","system_id":"levelo_inurba_marseille","lat":43.22516,"lon":5.34792,"is_reserved":false,"is_disabled":false,"rental_uris":{"android":"levelo://app?vid=c7643979-9ece-4372-b68c-2d9a4e876f66","ios":"levelo://app?vid=c7643979-9ece-4372-b68c-2d9a4e876f66"},"vehicle_type_id":"4","last_reported":1743851262,"current_range_meters":12000,"station_id":"st_cvj5dfep6f1abm77gieg","pricing_plan_id":"cebpf4jnsgd1na2vs0mg"},{"bike_id":"b0fa9d7a-9bb1-4db4-93c2-b8e1c4194c57","system_id":"levelo_inurba_marseille","lat":43.28002,"lon":5.40009,"is_reserved":false,"is_disabled":false,"rental_uris":{"android":"levelo://app?vid=b0fa9d7a-9bb1-4db4-93c2-b8e1c4194c57","ios":"levelo://app?vid=b0fa9d7a-9bb1-4db4-93c2-b8e1c4194c57"},"vehicle_type_id":"4","last_reported":1743851262,"current_range_meters":12000,"station_id":"ce4bho92rcd13ifvqh4g","pricing_plan_id":"cebpf4jnsgd1na2vs0mg"},{"bike_id":"9444e92d-22b8-4140-882d-645730b9468f","system_id":"levelo_inurba_marseille","lat":43.23191,"lon":5.35552,"is_reserved":false,"is_disabled":false,"rental_uris":{"android":"levelo://app?vid=9444e92d-22b8-4140-882d-645730b9468f","ios":"levelo://app?vid=9444e92d-22b8-4140-882d-645730b9468f"},"vehicle_type_id":"4","last_reported":1743851262,"current_range_meters":12400,"station_id":"ce4bhu92rcd13ifvqi70","pricing_plan_id":"cebpf4jnsgd1na2vs0mg"},{"bike_id":"3f0d38e6-3bc0-460b-b1cd-2dff4e888875","system_id":"levelo_inurba_marseille","lat":43.29283,"lon":5.40902,"is_reserved":false,"is_disabled":false,"rental_uris":{"android":"levelo://app?vid=3f0d38e6-3bc0-460b-b1cd-2dff4e888875","ios":"levelo://app?vid=3f0d38e6-3bc0-460b-b1cd-2dff4e888875"},"vehicle_type_id":"4","last_reported":1743851262,"current_range_meters":12400,"station_id":"ce4bh192rcd13ifvqdc0","pricing_plan_id":"cebpf4jnsgd1na2vs0mg"},{"bike_id":"5f24d146-a5e6-4532-ba17-dd12326eec10","system_id":"levelo_inurba_marseille","lat":43.295601,"lon":5.399561,"is_reserved":false,"is_disabled":false,"rental_uris":{"android":"levelo://app?vid=5f24d146-a5e6-4532-ba17-dd12326eec10","ios":"levelo://app?vid=5f24d146-a5e6-4532-ba17-dd12326eec10"},"vehicle_type_id":"4","last_reported":1743851262,"current_range_meters":12400,"station_id":"ce4bh312rcd13ifvqdj0","pricing_plan_id":"cebpf4jnsgd1na2vs0mg"},{"bike_id":"253ab668-8183-4652-94a3-89d713ca1a28","system_id":"levelo_inurba_marseille","lat":43.31226,"lon":5.36852,"is_reserved":false,"is_disabled":false,"rental_uris":{"android":"levelo://app?vid=253ab668-8183-4652-94a3-89d713ca1a28","ios":"levelo://app?vid=253ab668-8183-4652-94a3-89d713ca1a28"},"vehicle_type_id":"4","last_reported":1743851262,"current_range_meters":12400,"station_id":"ce4bgl92rcd13ifvqbq0","pricing_plan_id":"cebpf4jnsgd1na2vs0mg"},{"bike_id":"8b5f0162-8ffa-4ae8-8ae9-fae7bb300794","system_id":"levelo_inurba_marseille","lat":43.23965,"lon":5.36614,"is_reserved":false,"is_disabled":false,"rental_uris":{"android":"levelo://app?vid=8b5f0162-8ffa-4ae8-8ae9-fae7bb300794","ios":"levelo://app?vid=8b5f0162-8ffa-4ae8-8ae9-fae7bb300794"},"vehicle_type_id":"4","last_reported":1743851262,"current_range_meters":12800,"station_id":"ce4bhi12rcd13ifvqfp0","pricing_plan_id":"cebpf4jnsgd1na2vs0mg"},{"bike_id":"ed81289f-b9f3-4d86-9f8f-d8896cd8f07f","system_id":"levelo_inurba_marseille","lat":43.30414,"lon":5.39763,"is_reserved":false,"is_disabled":true,"rental_uris":{"android":"levelo://app?vid=ed81289f-b9f3-4d86-9f8f-d8896cd8f07f","ios":"levelo://app?vid=ed81289f-b9f3-4d86-9f8f-d8896cd8f07f"},"vehicle_type_id":"4","last_reported":1743851262,"current_range_meters":12800,"station_id":"ce4bh092rcd13ifvqd20","pricing_plan_id":"cebpf4jnsgd1na2vs0mg"},{"bike_id":"680bcce0-d1db-4d26-b834-0ea497e67427","system_id":"levelo_inurba_marseille","lat":43.29895,"lon":5.43672,"is_reserved":false,"is_disabled":false,"rental_uris":{"android":"levelo://app?vid=680bcce0-d1db-4d26-b834-0ea497e67427","ios":"levelo://app?vid=680bcce0-d1db-4d26-b834-0ea497e67427"},"vehicle_type_id":"4","last_reported":1743851262,"current_range_meters":12400,"station_id":"ce4bhpp2rcd13ifvqhfg","pricing_plan_id":"cebpf4jnsgd1na2vs0mg"},{"bike_id":"7912ca41-370e-46ab-922b-f63622eea5cd","system_id":"levelo_inurba_marseille","lat":43.225037,"lon":5.34788,"is_reserved":false,"is_disabled":false,"rental_uris":{"android":"levelo://app?vid=7912ca41-370e-46ab-922b-f63622eea5cd","ios":"levelo://app?vid=7912ca41-370e-46ab-922b-f63622eea5cd"},"vehicle_type_id":"4","last_reported":1743851262,"current_range_meters":13600,"station_id":"st_cvj5dfep6f1abm77gieg","pricing_plan_id":"cebpf4jnsgd1na2vs0mg"},{"bike_id":"aa4d886e-25fe-40bd-822d-04ef67409ac7","system_id":"levelo_inurba_marseille","lat":43.23972,"lon":5.36622,"is_reserved":false,"is_disabled":false,"rental_uris":{"android":"levelo://app?vid=aa4d886e-25fe-40bd-822d-04ef67409ac7","ios":"levelo://app?vid=aa4d886e-25fe-40bd-822d-04ef67409ac7"},"vehicle_type_id":"4","last_reported":1743851262,"current_range_meters":13600,"station_id":"ce4bhi12rcd13ifvqfp0","pricing_plan_id":"cebpf4jnsgd1na2vs0mg"},{"bike_id":"06acbe5a-324b-43b0-8455-b6ef46487bb8","system_id":"levelo_inurba_marseille","lat":43.29271,"lon":5.36848,"is_reserved":false,"is_disabled":false,"rental_uris":{"android":"levelo://app?vid=06acbe5a-324b-43b0-8455-b6ef46487bb8","ios":"levelo://app?vid=06acbe5a-324b-43b0-8455-b6ef46487bb8"},"vehicle_type_id":"4","last_reported":1743851262,"current_range_meters":13600,"station_id":"ce4bhbp2rcd13ifvqesg","pricing_plan_id":"cebpf4jnsgd1na2vs0mg"},{"bike_id":"8ee8a071-ee3c-4e6e-b1b2-0e8120beb7f4","system_id":"levelo_inurba_marseille","lat":43.25958,"lon":5.40899,"is_reserved":false,"is_disabled":false,"rental_uris":{"android":"levelo://app?vid=8ee8a071-ee3c-4e6e-b1b2-0e8120beb7f4","ios":"levelo://app?vid=8ee8a071-ee3c-4e6e-b1b2-0e8120beb7f4"},"vehicle_type_id":"4","last_reported":1743851262,"current_range_meters":14000,"station_id":"ce4bhm92rcd13ifvqglg","pricing_plan_id":"cebpf4jnsgd1na2vs0mg"},{"bike_id":"2095f7f5-48e6-44cc-b0ee-b4fa14aa36ce","system_id":"levelo_inurba_marseille","lat":43.29255,"lon":5.37622,"is_reserved":false,"is_disabled":false,"rental_uris":{"android":"levelo://app?vid=2095f7f5-48e6-44cc-b0ee-b4fa14aa36ce","ios":"levelo://app?vid=2095f7f5-48e6-44cc-b0ee-b4fa14aa36ce"},"vehicle_type_id":"4","last_reported":1743851262,"current_range_meters":14000,"station_id":"ce4bgi12rcd13ifvqb80","pricing_plan_id":"cebpf4jnsgd1na2vs0mg"},{"bike_id":"94bbf571-4919-4cea-8c50-79e346f7dc11","system_id":"levelo_inurba_marseille","lat":43.32452,"lon":5.39121,"is_reserved":false,"is_disabled":true,"rental_uris":{"android":"levelo://app?vid=94bbf571-4919-4cea-8c50-79e346f7dc11","ios":"levelo://app?vid=94bbf571-4919-4cea-8c50-79e346f7dc11"},"vehicle_type_id":"4","last_reported":1743851262,"current_range_meters":14000,"station_id":"","pricing_plan_id":"cebpf4jnsgd1na2vs0mg"},{"bike_id":"8793a73b-76cc-4fd3-b63d-530857011831","system_id":"levelo_inurba_marseille","lat":43.25116,"lon":5.40318,"is_reserved":false,"is_disabled":false,"rental_uris":{"android":"levelo://app?vid=8793a73b-76cc-4fd3-b63d-530857011831","ios":"levelo://app?vid=8793a73b-76cc-4fd3-b63d-530857011831"},"vehicle_type_id":"4","last_reported":1743851262,"current_range_meters":14000,"station_id":"ce4bhlh2rcd13ifvqgig","pricing_plan_id":"cebpf4jnsgd1na2vs0mg"},{"bike_id":"537178de-7d28-4e8a-8ad4-43163cdbee0d","system_id":"levelo_inurba_marseille","lat":43.26568,"lon":5.39015,"is_reserved":false,"is_disabled":false,"rental_uris":{"android":"levelo://app?vid=537178de-7d28-4e8a-8ad4-43163cdbee0d","ios":"levelo://app?vid=537178de-7d28-4e8a-8ad4-43163cdbee0d"},"vehicle_type_id":"4","last_reported":1743851262,"current_range_meters":14000,"station_id":"ce4bhe12rcd13ifvqf30","pricing_plan_id":"cebpf4jnsgd1na2vs0mg"},{"bike_id":"d02700c8-1c8c-4434-bfc9-374421b8c29b","system_id":"levelo_inurba_marseille","lat":43.28031,"lon":5.36961,"is_reserved":false,"is_disabled":false,"rental_uris":{"android":"levelo://app?vid=d02700c8-1c8c-4434-bfc9-374421b8c29b","ios":"levelo://app?vid=d02700c8-1c8c-4434-bfc9-374421b8c29b"},"vehicle_type_id":"4","last_reported":1743851262,"current_range_meters":14000,"station_id":"ce4bha12rcd13ifvqef0","pricing_plan_id":"cebpf4jnsgd1na2vs0mg"},{"bike_id":"bd995530-2223-4842-aa3d-c154dab41719","system_id":"levelo_inurba_marseille","lat":43.29786,"lon":5.37095,"is_reserved":false,"is_disabled":false,"rental_uris":{"android":"levelo://app?vid=bd995530-2223-4842-aa3d-c154dab41719","ios":"levelo://app?vid=bd995530-2223-4842-aa3d-c154dab41719"},"vehicle_type_id":"4","last_reported":1743851262,"current_range_meters":14000,"station_id":"ce4bgop2rcd13ifvqc1g","pricing_plan_id":"cebpf4jnsgd1na2vs0mg"},{"bike_id":"a6303451-5b45-435c-bf0e-748f94cc010d","system_id":"levelo_inurba_marseille","lat":43.231989,"lon":5.355496,"is_reserved":false,"is_disabled":false,"rental_uris":{"android":"levelo://app?vid=a6303451-5b45-435c-bf0e-748f94cc010d","ios":"levelo://app?vid=a6303451-5b45-435c-bf0e-748f94cc010d"},"vehicle_type_id":"4","last_reported":1743851262,"current_range_meters":14400,"station_id":"ce4bhu92rcd13ifvqi70","pricing_plan_id":"cebpf4jnsgd1na2vs0mg"},{"bike_id":"66fc9ebf-144c-4ea0-b120-8d37c965f657","system_id":"levelo_inurba_marseille","lat":43.29976,"lon":5.37182,"is_reserved":false,"is_disabled":false,"rental_uris":{"android":"levelo://app?vid=66fc9ebf-144c-4ea0-b120-8d37c965f657","ios":"levelo://app?vid=66fc9ebf-144c-4ea0-b120-8d37c965f657"},"vehicle_type_id":"4","last_reported":1743851262,"current_range_meters":14000,"station_id":"ce4bgr92rcd13ifvqc7g","pricing_plan_id":"cebpf4jnsgd1na2vs0mg"},{"bike_id":"73272853-088e-4b39-8e6e-94fe10fc353c","system_id":"levelo_inurba_marseille","lat":43.337719,"lon":5.374856,"is_reserved":false,"is_disabled":false,"rental_uris":{"android":"levelo://app?vid=73272853-088e-4b39-8e6e-94fe10fc353c","ios":"levelo://app?vid=73272853-088e-4b39-8e6e-94fe10fc353c"},"vehicle_type_id":"4","last_reported":1743851262,"current_range_meters":14400,"station_id":"","pricing_plan_id":"cebpf4jnsgd1na2vs0mg"},{"bike_id":"7cc8d9ad-2bff-4b20-aa70-58e00c93bbb6","system_id":"levelo_inurba_marseille","lat":43.29912,"lon":5.37464,"is_reserved":false,"is_disabled":false,"rental_uris":{"android":"levelo://app?vid=7cc8d9ad-2bff-4b20-aa70-58e00c93bbb6","ios":"levelo://app?vid=7cc8d9ad-2bff-4b20-aa70-58e00c93bbb6"},"vehicle_type_id":"4","last_reported":1743851262,"current_range_meters":14400,"station_id":"ce4bgjh2rcd13ifvqbg0","pricing_plan_id":"cebpf4jnsgd1na2vs0mg"},{"bike_id":"97d77224-5748-4443-848a-6ab951c45d6d","system_id":"levelo_inurba_marseille","lat":43.3228,"lon":5.38273,"is_reserved":false,"is_disabled":false,"rental_uris":{"android":"levelo://app?vid=97d77224-5748-4443-848a-6ab951c45d6d","ios":"levelo://app?vid=97d77224-5748-4443-848a-6ab951c45d6d"},"vehicle_type_id":"4","last_reported":1743851262,"current_range_meters":14800,"station_id":"ce4bhr12rcd13ifvqhqg","pricing_plan_id":"cebpf4jnsgd1na2vs0mg"},{"bike_id":"192309bf-da51-48c4-b64c-5135d8d47d57","system_id":"levelo_inurba_marseille","lat":43.31689,"lon":5.40485,"is_reserved":false,"is_disabled":false,"rental_uris":{"android":"levelo://app?vid=192309bf-da51-48c4-b64c-5135d8d47d57","ios":"levelo://app?vid=192309bf-da51-48c4-b64c-5135d8d47d57"},"vehicle_type_id":"4","last_reported":1743851262,"current_range_meters":14800,"station_id":"ce4bh012rcd13ifvqd00","pricing_plan_id":"cebpf4jnsgd1na2vs0mg"},{"bike_id":"d9d6694b-f86f-4536-831e-f893d955c678","system_id":"levelo_inurba_marseille","lat":43.217446,"lon":5.346032,"is_reserved":false,"is_disabled":false,"rental_uris":{"android":"levelo://app?vid=d9d6694b-f86f-4536-831e-f893d955c678","ios":"levelo://app?vid=d9d6694b-f86f-4536-831e-f893d955c678"},"vehicle_type_id":"4","last_reported":1743851262,"current_range_meters":14800,"station_id":"st_cvj6r9ubvosntc0bgbag","pricing_plan_id":"cebpf4jnsgd1na2vs0mg"},{"bike_id":"6452261e-327e-432d-96f8-51660c67c23d","system_id":"levelo_inurba_marseille","lat":43.27372,"lon":5.36273,"is_reserved":false,"is_disabled":false,"rental_uris":{"android":"levelo://app?vid=6452261e-327e-432d-96f8-51660c67c23d","ios":"levelo://app?vid=6452261e-327e-432d-96f8-51660c67c23d"},"vehicle_type_id":"4","last_reported":1743851262,"current_range_meters":14800,"station_id":"ce4bhbh2rcd13ifvqeo0","pricing_plan_id":"cebpf4jnsgd1na2vs0mg"},{"bike_id":"0fe3cadd-516a-47da-a6cd-5fa2a36f65a7","system_id":"levelo_inurba_marseille","lat":43.31496,"lon":5.37311,"is_reserved":false,"is_disabled":false,"rental_uris":{"android":"levelo://app?vid=0fe3cadd-516a-47da-a6cd-5fa2a36f65a7","ios":"levelo://app?vid=0fe3cadd-516a-47da-a6cd-5fa2a36f65a7"},"vehicle_type_id":"4","last_reported":1743851262,"current_range_meters":15200,"station_id":"ce4bgt12rcd13ifvqcd0","pricing_plan_id":"cebpf4jnsgd1na2vs0mg"},{"bike_id":"c23772a6-53c1-430f-8570-284ba0642d08","system_id":"levelo_inurba_marseille","lat":43.28616,"lon":5.35101,"is_reserved":false,"is_disabled":false,"rental_uris":{"android":"levelo://app?vid=c23772a6-53c1-430f-8570-284ba0642d08","ios":"levelo://app?vid=c23772a6-53c1-430f-8570-284ba0642d08"},"vehicle_type_id":"4","last_reported":1743851262,"current_range_meters":15200,"station_id":"ce4bhch2rcd13ifvqeug","pricing_plan_id":"cebpf4jnsgd1na2vs0mg"},{"bike_id":"652d1757-8080-4e48-ad35-5e64267d4cee","system_id":"levelo_inurba_marseille","lat":43.22505,"lon":5.34792,"is_reserved":false,"is_disabled":false,"rental_uris":{"android":"levelo://app?vid=652d1757-8080-4e48-ad35-5e64267d4cee","ios":"levelo://app?vid=652d1757-8080-4e48-ad35-5e64267d4cee"},"vehicle_type_id":"4","last_reported":1743851262,"current_range_meters":15200,"station_id":"st_cvj5dfep6f1abm77gieg","pricing_plan_id":"cebpf4jnsgd1na2vs0mg"},{"bike_id":"4ac0ef9c-7c27-4f8d-a70f-3e48ef0cd03c","system_id":"levelo_inurba_marseille","lat":43.31701,"lon":5.37787,"is_reserved":false,"is_disabled":false,"rental_uris":{"android":"levelo://app?vid=4ac0ef9c-7c27-4f8d-a70f-3e48ef0cd03c","ios":"levelo://app?vid=4ac0ef9c-7c27-4f8d-a70f-3e48ef0cd03c"},"vehicle_type_id":"4","last_reported":1743851262,"current_range_meters":15200,"station_id":"ce4bgth2rcd13ifvqch0","pricing_plan_id":"cebpf4jnsgd1na2vs0mg"},{"bike_id":"c50edd2b-88dd-434e-b794-36692e2c1f27","system_id":"levelo_inurba_marseille","lat":43.28415,"lon":5.34972,"is_reserved":false,"is_disabled":false,"rental_uris":{"android":"levelo://app?vid=c50edd2b-88dd-434e-b794-36692e2c1f27","ios":"levelo://app?vid=c50edd2b-88dd-434e-b794-36692e2c1f27"},"vehicle_type_id":"4","last_reported":1743851262,"current_range_meters":15200,"station_id":"ce4bhbh2rcd13ifvqepg","pricing_plan_id":"cebpf4jnsgd1na2vs0mg"},{"bike_id":"3a26c4e7-3add-4c6a-8312-4cb7ec76cb68","system_id":"levelo_inurba_marseille","lat":43.31499,"lon":5.37308,"is_reserved":false,"is_disabled":false,"rental_uris":{"android":"levelo://app?vid=3a26c4e7-3add-4c6a-8312-4cb7ec76cb68","ios":"levelo://app?vid=3a26c4e7-3add-4c6a-8312-4cb7ec76cb68"},"vehicle_type_id":"4","last_reported":1743851262,"current_range_meters":15200,"station_id":"ce4bgt12rcd13ifvqcd0","pricing_plan_id":"cebpf4jnsgd1na2vs0mg"},{"bike_id":"802f711b-6f0d-4c58-9e1f-138b92918928","system_id":"levelo_inurba_marseille","lat":43.24682,"lon":5.38138,"is_reserved":false,"is_disabled":false,"rental_uris":{"android":"levelo://app?vid=802f711b-6f0d-4c58-9e1f-138b92918928","ios":"levelo://app?vid=802f711b-6f0d-4c58-9e1f-138b92918928"},"vehicle_type_id":"4","last_reported":1743851262,"current_range_meters":16000,"station_id":"ce4bhih2rcd13ifvqfr0","pricing_plan_id":"cebpf4jnsgd1na2vs0mg"},{"bike_id":"65f37ce6-0181-4877-8938-e5bab611c301","system_id":"levelo_inurba_marseille","lat":43.29849,"lon":5.363,"is_reserved":false,"is_disabled":true,"rental_uris":{"android":"levelo://app?vid=65f37ce6-0181-4877-8938-e5bab611c301","ios":"levelo://app?vid=65f37ce6-0181-4877-8938-e5bab611c301"},"vehicle_type_id":"4","last_reported":1743851262,"current_range_meters":16000,"station_id":"ce4bgpp2rcd13ifvqc3g","pricing_plan_id":"cebpf4jnsgd1na2vs0mg"},{"bike_id":"87908f94-d8aa-4a33-8565-205213af20b1","system_id":"levelo_inurba_marseille","lat":43.32134,"lon":5.36797,"is_reserved":false,"is_disabled":false,"rental_uris":{"android":"levelo://app?vid=87908f94-d8aa-4a33-8565-205213af20b1","ios":"levelo://app?vid=87908f94-d8aa-4a33-8565-205213af20b1"},"vehicle_type_id":"4","last_reported":1743851262,"current_range_meters":16000,"station_id":"ce4bhrh2rcd13ifvqhug","pricing_plan_id":"cebpf4jnsgd1na2vs0mg"},{"bike_id":"d3cdb696-0072-45aa-9575-a0f4de86acd0","system_id":"levelo_inurba_marseille","lat":43.30961,"lon":5.40111,"is_reserved":false,"is_disabled":true,"rental_uris":{"android":"levelo://app?vid=d3cdb696-0072-45aa-9575-a0f4de86acd0","ios":"levelo://app?vid=d3cdb696-0072-45aa-9575-a0f4de86acd0"},"vehicle_type_id":"4","last_reported":1743851262,"current_range_meters":16000,"station_id":"ce4bgvp2rcd13ifvqct0","pricing_plan_id":"cebpf4jnsgd1na2vs0mg"},{"bike_id":"6082a6d8-29f3-4441-bd82-d0f95ead75d7","system_id":"levelo_inurba_marseille","lat":43.23192,"lon":5.35546,"is_reserved":false,"is_disabled":false,"rental_uris":{"android":"levelo://app?vid=6082a6d8-29f3-4441-bd82-d0f95ead75d7","ios":"levelo://app?vid=6082a6d8-29f3-4441-bd82-d0f95ead75d7"},"vehicle_type_id":"4","last_reported":1743851262,"current_range_meters":16000,"station_id":"ce4bhu92rcd13ifvqi70","pricing_plan_id":"cebpf4jnsgd1na2vs0mg"},{"bike_id":"0f838166-4dc1-45e1-acc5-e64cb87eb131","system_id":"levelo_inurba_marseille","lat":43.231526,"lon":5.437119,"is_reserved":false,"is_disabled":false,"rental_uris":{"android":"levelo://app?vid=0f838166-4dc1-45e1-acc5-e64cb87eb131","ios":"levelo://app?vid=0f838166-4dc1-45e1-acc5-e64cb87eb131"},"vehicle_type_id":"4","last_reported":1743851262,"current_range_meters":16000,"station_id":"ce4bhmp2rcd13ifvqgog","pricing_plan_id":"cebpf4jnsgd1na2vs0mg"},{"bike_id":"6318df25-e619-488e-8e5a-ffa050963103","system_id":"levelo_inurba_marseille","lat":43.2175,"lon":5.34604,"is_reserved":false,"is_disabled":false,"rental_uris":{"android":"levelo://app?vid=6318df25-e619-488e-8e5a-ffa050963103","ios":"levelo://app?vid=6318df25-e619-488e-8e5a-ffa050963103"},"vehicle_type_id":"4","last_reported":1743851262,"current_range_meters":16000,"station_id":"st_cvj6r9ubvosntc0bgbag","pricing_plan_id":"cebpf4jnsgd1na2vs0mg"},{"bike_id":"f391abf3-6be0-49f7-8c76-fdb1ac145c9f","system_id":"levelo_inurba_marseille","lat":43.28278,"lon":5.35083,"is_reserved":false,"is_disabled":false,"rental_uris":{"android":"levelo://app?vid=f391abf3-6be0-49f7-8c76-fdb1ac145c9f","ios":"levelo://app?vid=f391abf3-6be0-49f7-8c76-fdb1ac145c9f"},"vehicle_type_id":"4","last_reported":1743851262,"current_range_meters":16400,"station_id":"ce4bhbp2rcd13ifvqerg","pricing_plan_id":"cebpf4jnsgd1na2vs0mg"},{"bike_id":"45fa53af-1633-4bb2-a1b0-33af8d20a003","system_id":"levelo_inurba_marseille","lat":43.25858,"lon":5.3991,"is_reserved":false,"is_disabled":false,"rental_uris":{"android":"levelo://app?vid=45fa53af-1633-4bb2-a1b0-33af8d20a003","ios":"levelo://app?vid=45fa53af-1633-4bb2-a1b0-33af8d20a003"},"vehicle_type_id":"4","last_reported":1743851262,"current_range_meters":16400,"station_id":"ce4bhl92rcd13ifvqghg","pricing_plan_id":"cebpf4jnsgd1na2vs0mg"},{"bike_id":"d40436bc-a917-47da-a93b-8c4c56a63210","system_id":"levelo_inurba_marseille","lat":43.31699,"lon":5.40459,"is_reserved":false,"is_disabled":false,"rental_uris":{"android":"levelo://app?vid=d40436bc-a917-47da-a93b-8c4c56a63210","ios":"levelo://app?vid=d40436bc-a917-47da-a93b-8c4c56a63210"},"vehicle_type_id":"4","last_reported":1743851262,"current_range_meters":16400,"station_id":"ce4bh012rcd13ifvqd00","pricing_plan_id":"cebpf4jnsgd1na2vs0mg"},{"bike_id":"b09dcca2-f5e7-48dc-b553-a403a787b78b","system_id":"levelo_inurba_marseille","lat":43.27668,"lon":5.38888,"is_reserved":false,"is_disabled":false,"rental_uris":{"android":"levelo://app?vid=b09dcca2-f5e7-48dc-b553-a403a787b78b","ios":"levelo://app?vid=b09dcca2-f5e7-48dc-b553-a403a787b78b"},"vehicle_type_id":"4","last_reported":1743851262,"current_range_meters":16400,"station_id":"ce4bhi12rcd13ifvqfo0","pricing_plan_id":"cebpf4jnsgd1na2vs0mg"},{"bike_id":"9a10684b-1a63-4ada-859a-1a19f5508765","system_id":"levelo_inurba_marseille","lat":43.29563,"lon":5.37524,"is_reserved":false,"is_disabled":false,"rental_uris":{"android":"levelo://app?vid=9a10684b-1a63-4ada-859a-1a19f5508765","ios":"levelo://app?vid=9a10684b-1a63-4ada-859a-1a19f5508765"},"vehicle_type_id":"4","last_reported":1743851262,"current_range_meters":16400,"station_id":"ce4bgh92rcd13ifvqb50","pricing_plan_id":"cebpf4jnsgd1na2vs0mg"},{"bike_id":"be3bf28f-5c15-4582-9925-823a7a38a324","system_id":"levelo_inurba_marseille","lat":43.23144,"lon":5.43726,"is_reserved":false,"is_disabled":false,"rental_uris":{"android":"levelo://app?vid=be3bf28f-5c15-4582-9925-823a7a38a324","ios":"levelo://app?vid=be3bf28f-5c15-4582-9925-823a7a38a324"},"vehicle_type_id":"4","last_reported":1743851262,"current_range_meters":16400,"station_id":"ce4bhmp2rcd13ifvqgog","pricing_plan_id":"cebpf4jnsgd1na2vs0mg"},{"bike_id":"406a7bca-4ceb-466d-a160-87b7d554f857","system_id":"levelo_inurba_marseille","lat":43.31084,"lon":5.42431,"is_reserved":false,"is_disabled":false,"rental_uris":{"android":"levelo://app?vid=406a7bca-4ceb-466d-a160-87b7d554f857","ios":"levelo://app?vid=406a7bca-4ceb-466d-a160-87b7d554f857"},"vehicle_type_id":"4","last_reported":1743851262,"current_range_meters":16400,"station_id":"ce4bhp92rcd13ifvqhag","pricing_plan_id":"cebpf4jnsgd1na2vs0mg"},{"bike_id":"136b6e45-ee21-453e-aa22-e07947db9071","system_id":"levelo_inurba_marseille","lat":43.231525,"lon":5.437131,"is_reserved":false,"is_disabled":true,"rental_uris":{"android":"levelo://app?vid=136b6e45-ee21-453e-aa22-e07947db9071","ios":"levelo://app?vid=136b6e45-ee21-453e-aa22-e07947db9071"},"vehicle_type_id":"4","last_reported":1743851262,"current_range_meters":16400,"station_id":"ce4bhmp2rcd13ifvqgog","pricing_plan_id":"cebpf4jnsgd1na2vs0mg"},{"bike_id":"c085ae61-899c-4e0d-a4d5-2989a8409ea2","system_id":"levelo_inurba_marseille","lat":43.31074,"lon":5.38353,"is_reserved":false,"is_disabled":false,"rental_uris":{"android":"levelo://app?vid=c085ae61-899c-4e0d-a4d5-2989a8409ea2","ios":"levelo://app?vid=c085ae61-899c-4e0d-a4d5-2989a8409ea2"},"vehicle_type_id":"4","last_reported":1743851262,"current_range_meters":16800,"station_id":"ce4bgv92rcd13ifvqcr0","pricing_plan_id":"cebpf4jnsgd1na2vs0mg"},{"bike_id":"f6e279f5-dd0b-4ba2-b4b9-8648ee40ab3d","system_id":"levelo_inurba_marseille","lat":43.30555,"lon":5.36689,"is_reserved":false,"is_disabled":false,"rental_uris":{"android":"levelo://app?vid=f6e279f5-dd0b-4ba2-b4b9-8648ee40ab3d","ios":"levelo://app?vid=f6e279f5-dd0b-4ba2-b4b9-8648ee40ab3d"},"vehicle_type_id":"4","last_reported":1743851262,"current_range_meters":16800,"station_id":"ce4bgrp2rcd13ifvqc9g","pricing_plan_id":"cebpf4jnsgd1na2vs0mg"},{"bike_id":"64723ed1-d23d-4a0d-a2d0-b3af72b7c6d2","system_id":"levelo_inurba_marseille","lat":43.281585,"lon":5.426403,"is_reserved":false,"is_disabled":false,"rental_uris":{"android":"levelo://app?vid=64723ed1-d23d-4a0d-a2d0-b3af72b7c6d2","ios":"levelo://app?vid=64723ed1-d23d-4a0d-a2d0-b3af72b7c6d2"},"vehicle_type_id":"4","last_reported":1743851262,"current_range_meters":16800,"station_id":"ce4bhnh2rcd13ifvqgug","pricing_plan_id":"cebpf4jnsgd1na2vs0mg"},{"bike_id":"48f34db2-aab2-4981-a580-0410c97a4408","system_id":"levelo_inurba_marseille","lat":43.21751,"lon":5.34613,"is_reserved":false,"is_disabled":false,"rental_uris":{"android":"levelo://app?vid=48f34db2-aab2-4981-a580-0410c97a4408","ios":"levelo://app?vid=48f34db2-aab2-4981-a580-0410c97a4408"},"vehicle_type_id":"4","last_reported":1743851262,"current_range_meters":16800,"station_id":"st_cvj6r9ubvosntc0bgbag","pricing_plan_id":"cebpf4jnsgd1na2vs0mg"},{"bike_id":"f617ade1-a6a1-436b-a917-e02a801aaa39","system_id":"levelo_inurba_marseille","lat":43.30881,"lon":5.39629,"is_reserved":false,"is_disabled":false,"rental_uris":{"android":"levelo://app?vid=f617ade1-a6a1-436b-a917-e02a801aaa39","ios":"levelo://app?vid=f617ade1-a6a1-436b-a917-e02a801aaa39"},"vehicle_type_id":"4","last_reported":1743851262,"current_range_meters":16400,"station_id":"ce4bh012rcd13ifvqcv0","pricing_plan_id":"cebpf4jnsgd1na2vs0mg"},{"bike_id":"1c7726b9-f61d-488d-aad0-a7d8ecd4abfa","system_id":"levelo_inurba_marseille","lat":43.301512,"lon":5.369963,"is_reserved":false,"is_disabled":false,"rental_uris":{"android":"levelo://app?vid=1c7726b9-f61d-488d-aad0-a7d8ecd4abfa","ios":"levelo://app?vid=1c7726b9-f61d-488d-aad0-a7d8ecd4abfa"},"vehicle_type_id":"4","last_reported":1743851262,"current_range_meters":16800,"station_id":"ce4bgs12rcd13ifvqcag","pricing_plan_id":"cebpf4jnsgd1na2vs0mg"},{"bike_id":"91884091-9dd5-4f25-a62a-200c15663763","system_id":"levelo_inurba_marseille","lat":43.29615,"lon":5.37737,"is_reserved":false,"is_disabled":false,"rental_uris":{"android":"levelo://app?vid=91884091-9dd5-4f25-a62a-200c15663763","ios":"levelo://app?vid=91884091-9dd5-4f25-a62a-200c15663763"},"vehicle_type_id":"4","last_reported":1743851262,"current_range_meters":16800,"station_id":"ce4bgi92rcd13ifvqb90","pricing_plan_id":"cebpf4jnsgd1na2vs0mg"},{"bike_id":"43ffbcfd-017f-4890-9f76-4ae3d5ba8b9d","system_id":"levelo_inurba_marseille","lat":43.243721,"lon":5.391435,"is_reserved":false,"is_disabled":false,"rental_uris":{"android":"levelo://app?vid=43ffbcfd-017f-4890-9f76-4ae3d5ba8b9d","ios":"levelo://app?vid=43ffbcfd-017f-4890-9f76-4ae3d5ba8b9d"},"vehicle_type_id":"4","last_reported":1743851262,"current_range_meters":16800,"station_id":"ce4bhg12rcd13ifvqf60","pricing_plan_id":"cebpf4jnsgd1na2vs0mg"},{"bike_id":"9221e722-1757-4ba8-a561-d21da11f6770","system_id":"levelo_inurba_marseille","lat":43.28271,"lon":5.35074,"is_reserved":false,"is_disabled":false,"rental_uris":{"android":"levelo://app?vid=9221e722-1757-4ba8-a561-d21da11f6770","ios":"levelo://app?vid=9221e722-1757-4ba8-a561-d21da11f6770"},"vehicle_type_id":"4","last_reported":1743851262,"current_range_meters":16800,"station_id":"ce4bhbp2rcd13ifvqerg","pricing_plan_id":"cebpf4jnsgd1na2vs0mg"},{"bike_id":"7fd0635d-68ad-4ce6-a52b-daef56987b4b","system_id":"levelo_inurba_marseille","lat":43.3085,"lon":5.38621,"is_reserved":false,"is_disabled":false,"rental_uris":{"android":"levelo://app?vid=7fd0635d-68ad-4ce6-a52b-daef56987b4b","ios":"levelo://app?vid=7fd0635d-68ad-4ce6-a52b-daef56987b4b"},"vehicle_type_id":"4","last_reported":1743851262,"current_range_meters":16800,"station_id":"","pricing_plan_id":"cebpf4jnsgd1na2vs0mg"},{"bike_id":"99e1cb93-4ad8-4a67-b724-14ad61a3de65","system_id":"levelo_inurba_marseille","lat":43.27169,"lon":5.40992,"is_reserved":false,"is_disabled":false,"rental_uris":{"android":"levelo://app?vid=99e1cb93-4ad8-4a67-b724-14ad61a3de65","ios":"levelo://app?vid=99e1cb93-4ad8-4a67-b724-14ad61a3de65"},"vehicle_type_id":"4","last_reported":1743851262,"current_range_meters":16400,"station_id":"ce4bhl12rcd13ifvqgf0","pricing_plan_id":"cebpf4jnsgd1na2vs0mg"},{"bike_id":"a7649279-48cc-4494-88cd-e786ed95ee55","system_id":"levelo_inurba_marseille","lat":43.29262,"lon":5.37611,"is_reserved":false,"is_disabled":false,"rental_uris":{"android":"levelo://app?vid=a7649279-48cc-4494-88cd-e786ed95ee55","ios":"levelo://app?vid=a7649279-48cc-4494-88cd-e786ed95ee55"},"vehicle_type_id":"4","last_reported":1743851262,"current_range_meters":17200,"station_id":"ce4bgi12rcd13ifvqb80","pricing_plan_id":"cebpf4jnsgd1na2vs0mg"},{"bike_id":"132d8dc7-5880-4d84-9eb5-80cde32251bd","system_id":"levelo_inurba_marseille","lat":43.2957,"lon":5.37516,"is_reserved":false,"is_disabled":false,"rental_uris":{"android":"levelo://app?vid=132d8dc7-5880-4d84-9eb5-80cde32251bd","ios":"levelo://app?vid=132d8dc7-5880-4d84-9eb5-80cde32251bd"},"vehicle_type_id":"4","last_reported":1743851262,"current_range_meters":17200,"station_id":"ce4bgh92rcd13ifvqb50","pricing_plan_id":"cebpf4jnsgd1na2vs0mg"},{"bike_id":"71512fd7-8c5c-4283-b525-497ee57a36aa","system_id":"levelo_inurba_marseille","lat":43.26677,"lon":5.38275,"is_reserved":false,"is_disabled":false,"rental_uris":{"android":"levelo://app?vid=71512fd7-8c5c-4283-b525-497ee57a36aa","ios":"levelo://app?vid=71512fd7-8c5c-4283-b525-497ee57a36aa"},"vehicle_type_id":"4","last_reported":1743851262,"current_range_meters":16800,"station_id":"ce4bhg92rcd13ifvqf90","pricing_plan_id":"cebpf4jnsgd1na2vs0mg"},{"bike_id":"8c1e7a58-5ae7-40f8-8b76-2013fc38f174","system_id":"levelo_inurba_marseille","lat":43.29007,"lon":5.35615,"is_reserved":false,"is_disabled":false,"rental_uris":{"android":"levelo://app?vid=8c1e7a58-5ae7-40f8-8b76-2013fc38f174","ios":"levelo://app?vid=8c1e7a58-5ae7-40f8-8b76-2013fc38f174"},"vehicle_type_id":"4","last_reported":1743851262,"current_range_meters":17200,"station_id":"ce4bhb92rcd13ifvqen0","pricing_plan_id":"cebpf4jnsgd1na2vs0mg"},{"bike_id":"26fa214e-bd4a-4620-9935-f9247bc353c4","system_id":"levelo_inurba_marseille","lat":43.30145,"lon":5.38075,"is_reserved":false,"is_disabled":false,"rental_uris":{"android":"levelo://app?vid=26fa214e-bd4a-4620-9935-f9247bc353c4","ios":"levelo://app?vid=26fa214e-bd4a-4620-9935-f9247bc353c4"},"vehicle_type_id":"4","last_reported":1743851262,"current_range_meters":17600,"station_id":"ce4bgjp2rcd13ifvqbh0","pricing_plan_id":"cebpf4jnsgd1na2vs0mg"},{"bike_id":"023fe77f-d009-48d2-aade-c9b5a472a0ed","system_id":"levelo_inurba_marseille","lat":43.28678,"lon":5.38655,"is_reserved":false,"is_disabled":false,"rental_uris":{"android":"levelo://app?vid=023fe77f-d009-48d2-aade-c9b5a472a0ed","ios":"levelo://app?vid=023fe77f-d009-48d2-aade-c9b5a472a0ed"},"vehicle_type_id":"4","last_reported":1743851262,"current_range_meters":17200,"station_id":"ce4bh492rcd13ifvqdug","pricing_plan_id":"cebpf4jnsgd1na2vs0mg"},{"bike_id":"873b9cb9-411d-441c-81fa-204f209e04e7","system_id":"levelo_inurba_marseille","lat":43.30833,"lon":5.37435,"is_reserved":false,"is_disabled":false,"rental_uris":{"android":"levelo://app?vid=873b9cb9-411d-441c-81fa-204f209e04e7","ios":"levelo://app?vid=873b9cb9-411d-441c-81fa-204f209e04e7"},"vehicle_type_id":"4","last_reported":1743851262,"current_range_meters":17600,"station_id":"","pricing_plan_id":"cebpf4jnsgd1na2vs0mg"},{"bike_id":"a409c3f0-8991-4228-afb5-57b19bb06658","system_id":"levelo_inurba_marseille","lat":43.32354,"lon":5.38892,"is_reserved":false,"is_disabled":false,"rental_uris":{"android":"levelo://app?vid=a409c3f0-8991-4228-afb5-57b19bb06658","ios":"levelo://app?vid=a409c3f0-8991-4228-afb5-57b19bb06658"},"vehicle_type_id":"4","last_reported":1743851262,"current_range_meters":17600,"station_id":"ce4bhqp2rcd13ifvqhog","pricing_plan_id":"cebpf4jnsgd1na2vs0mg"},{"bike_id":"8f2b15fd-7b43-4128-a2f6-d3bbd734a3eb","system_id":"levelo_inurba_marseille","lat":43.28618,"lon":5.35107,"is_reserved":false,"is_disabled":false,"rental_uris":{"android":"levelo://app?vid=8f2b15fd-7b43-4128-a2f6-d3bbd734a3eb","ios":"levelo://app?vid=8f2b15fd-7b43-4128-a2f6-d3bbd734a3eb"},"vehicle_type_id":"4","last_reported":1743851262,"current_range_meters":17600,"station_id":"ce4bhch2rcd13ifvqeug","pricing_plan_id":"cebpf4jnsgd1na2vs0mg"},{"bike_id":"36f6fa25-615d-4e6f-b8bf-9bb620854e1b","system_id":"levelo_inurba_marseille","lat":43.31714,"lon":5.42404,"is_reserved":false,"is_disabled":false,"rental_uris":{"android":"levelo://app?vid=36f6fa25-615d-4e6f-b8bf-9bb620854e1b","ios":"levelo://app?vid=36f6fa25-615d-4e6f-b8bf-9bb620854e1b"},"vehicle_type_id":"4","last_reported":1743851262,"current_range_meters":17600,"station_id":"ce4bhp92rcd13ifvqhbg","pricing_plan_id":"cebpf4jnsgd1na2vs0mg"},{"bike_id":"f7e3b8fa-9062-4469-bcee-58c5aa5cfb6e","system_id":"levelo_inurba_marseille","lat":43.29557,"lon":5.38573,"is_reserved":false,"is_disabled":true,"rental_uris":{"android":"levelo://app?vid=f7e3b8fa-9062-4469-bcee-58c5aa5cfb6e","ios":"levelo://app?vid=f7e3b8fa-9062-4469-bcee-58c5aa5cfb6e"},"vehicle_type_id":"4","last_reported":1743851262,"current_range_meters":17600,"station_id":"ce4bgih2rcd13ifvqba0","pricing_plan_id":"cebpf4jnsgd1na2vs0mg"},{"bike_id":"6bf0d690-a3f2-4ea0-b4d5-e4fa7f134a82","system_id":"levelo_inurba_marseille","lat":43.29014,"lon":5.35583,"is_reserved":false,"is_disabled":false,"rental_uris":{"android":"levelo://app?vid=6bf0d690-a3f2-4ea0-b4d5-e4fa7f134a82","ios":"levelo://app?vid=6bf0d690-a3f2-4ea0-b4d5-e4fa7f134a82"},"vehicle_type_id":"4","last_reported":1743851262,"current_range_meters":17600,"station_id":"ce4bhb92rcd13ifvqen0","pricing_plan_id":"cebpf4jnsgd1na2vs0mg"},{"bike_id":"5b8d1103-1921-4c53-912e-93d122cd3cdc","system_id":"levelo_inurba_marseille","lat":43.24385,"lon":5.37076,"is_reserved":false,"is_disabled":true,"rental_uris":{"android":"levelo://app?vid=5b8d1103-1921-4c53-912e-93d122cd3cdc","ios":"levelo://app?vid=5b8d1103-1921-4c53-912e-93d122cd3cdc"},"vehicle_type_id":"4","last_reported":1743851262,"current_range_meters":17600,"station_id":"ce4bhhh2rcd13ifvqfk0","pricing_plan_id":"cebpf4jnsgd1na2vs0mg"},{"bike_id":"9d1949b7-1127-4385-8d5c-224a8d87a6ba","system_id":"levelo_inurba_marseille","lat":43.29633,"lon":5.40597,"is_reserved":false,"is_disabled":false,"rental_uris":{"android":"levelo://app?vid=9d1949b7-1127-4385-8d5c-224a8d87a6ba","ios":"levelo://app?vid=9d1949b7-1127-4385-8d5c-224a8d87a6ba"},"vehicle_type_id":"4","last_reported":1743851262,"current_range_meters":18000,"station_id":"ce4bh0h2rcd13ifvqd60","pricing_plan_id":"cebpf4jnsgd1na2vs0mg"},{"bike_id":"8531f5d2-ec8c-49ba-9296-c719d99df2cd","system_id":"levelo_inurba_marseille","lat":43.22925,"lon":5.35384,"is_reserved":false,"is_disabled":false,"rental_uris":{"android":"levelo://app?vid=8531f5d2-ec8c-49ba-9296-c719d99df2cd","ios":"levelo://app?vid=8531f5d2-ec8c-49ba-9296-c719d99df2cd"},"vehicle_type_id":"4","last_reported":1743851262,"current_range_meters":18000,"station_id":"cpo3532slgdg3j2ikp40","pricing_plan_id":"cebpf4jnsgd1na2vs0mg"},{"bike_id":"a329e9f4-d2a6-4a62-978d-b25ffb56a940","system_id":"levelo_inurba_marseille","lat":43.30395,"lon":5.42463,"is_reserved":false,"is_disabled":false,"rental_uris":{"android":"levelo://app?vid=a329e9f4-d2a6-4a62-978d-b25ffb56a940","ios":"levelo://app?vid=a329e9f4-d2a6-4a62-978d-b25ffb56a940"},"vehicle_type_id":"4","last_reported":1743851262,"current_range_meters":18000,"station_id":"ce4bghh2rcd13ifvqb60","pricing_plan_id":"cebpf4jnsgd1na2vs0mg"},{"bike_id":"40a621c0-90fc-49e7-b4b6-60f8184e982f","system_id":"levelo_inurba_marseille","lat":43.32293,"lon":5.3829,"is_reserved":false,"is_disabled":false,"rental_uris":{"android":"levelo://app?vid=40a621c0-90fc-49e7-b4b6-60f8184e982f","ios":"levelo://app?vid=40a621c0-90fc-49e7-b4b6-60f8184e982f"},"vehicle_type_id":"4","last_reported":1743851262,"current_range_meters":18000,"station_id":"ce4bhr12rcd13ifvqhqg","pricing_plan_id":"cebpf4jnsgd1na2vs0mg"},{"bike_id":"94be6dc8-5de8-4cdb-966c-877ef0523824","system_id":"levelo_inurba_marseille","lat":43.22507,"lon":5.34791,"is_reserved":false,"is_disabled":false,"rental_uris":{"android":"levelo://app?vid=94be6dc8-5de8-4cdb-966c-877ef0523824","ios":"levelo://app?vid=94be6dc8-5de8-4cdb-966c-877ef0523824"},"vehicle_type_id":"4","last_reported":1743851262,"current_range_meters":18000,"station_id":"st_cvj5dfep6f1abm77gieg","pricing_plan_id":"cebpf4jnsgd1na2vs0mg"},{"bike_id":"837e3760-485d-4189-a7d3-98b5c24f536d","system_id":"levelo_inurba_marseille","lat":43.30953,"lon":5.39035,"is_reserved":false,"is_disabled":false,"rental_uris":{"android":"levelo://app?vid=837e3760-485d-4189-a7d3-98b5c24f536d","ios":"levelo://app?vid=837e3760-485d-4189-a7d3-98b5c24f536d"},"vehicle_type_id":"4","last_reported":1743851262,"current_range_meters":18000,"station_id":"ce4bgup2rcd13ifvqco0","pricing_plan_id":"cebpf4jnsgd1na2vs0mg"},{"bike_id":"39f686d1-f6e1-424a-b4fa-e188b9c4f1e4","system_id":"levelo_inurba_marseille","lat":43.23058,"lon":5.354931,"is_reserved":false,"is_disabled":false,"rental_uris":{"android":"levelo://app?vid=39f686d1-f6e1-424a-b4fa-e188b9c4f1e4","ios":"levelo://app?vid=39f686d1-f6e1-424a-b4fa-e188b9c4f1e4"},"vehicle_type_id":"4","last_reported":1743851262,"current_range_meters":18000,"station_id":"cpo3342slgdg3j2ifvpg","pricing_plan_id":"cebpf4jnsgd1na2vs0mg"},{"bike_id":"859dd519-23f7-4fa4-be78-c592169babc6","system_id":"levelo_inurba_marseille","lat":43.28155,"lon":5.42654,"is_reserved":false,"is_disabled":false,"rental_uris":{"android":"levelo://app?vid=859dd519-23f7-4fa4-be78-c592169babc6","ios":"levelo://app?vid=859dd519-23f7-4fa4-be78-c592169babc6"},"vehicle_type_id":"4","last_reported":1743851262,"current_range_meters":18000,"station_id":"ce4bhnh2rcd13ifvqgug","pricing_plan_id":"cebpf4jnsgd1na2vs0mg"},{"bike_id":"19eb836e-926e-40d1-8bf8-d63cb71fffde","system_id":"levelo_inurba_marseille","lat":43.24806,"lon":5.37457,"is_reserved":false,"is_disabled":false,"rental_uris":{"android":"levelo://app?vid=19eb836e-926e-40d1-8bf8-d63cb71fffde","ios":"levelo://app?vid=19eb836e-926e-40d1-8bf8-d63cb71fffde"},"vehicle_type_id":"4","last_reported":1743851262,"current_range_meters":18000,"station_id":"ce4bhgh2rcd13ifvqfb0","pricing_plan_id":"cebpf4jnsgd1na2vs0mg"},{"bike_id":"d6c3d7f4-760c-422c-8667-25e15a7934b3","system_id":"levelo_inurba_marseille","lat":43.30785,"lon":5.37435,"is_reserved":false,"is_disabled":false,"rental_uris":{"android":"levelo://app?vid=d6c3d7f4-760c-422c-8667-25e15a7934b3","ios":"levelo://app?vid=d6c3d7f4-760c-422c-8667-25e15a7934b3"},"vehicle_type_id":"4","last_reported":1743851262,"current_range_meters":18800,"station_id":"","pricing_plan_id":"cebpf4jnsgd1na2vs0mg"},{"bike_id":"ab258cb0-75e0-4685-abbf-cb0ee9ee2667","system_id":"levelo_inurba_marseille","lat":43.26684,"lon":5.38271,"is_reserved":false,"is_disabled":false,"rental_uris":{"android":"levelo://app?vid=ab258cb0-75e0-4685-abbf-cb0ee9ee2667","ios":"levelo://app?vid=ab258cb0-75e0-4685-abbf-cb0ee9ee2667"},"vehicle_type_id":"4","last_reported":1743851262,"current_range_meters":18800,"station_id":"ce4bhg92rcd13ifvqf90","pricing_plan_id":"cebpf4jnsgd1na2vs0mg"},{"bike_id":"f5dbe0f3-64d8-4b71-af03-de268e24fac5","system_id":"levelo_inurba_marseille","lat":43.30153,"lon":5.39902,"is_reserved":false,"is_disabled":false,"rental_uris":{"android":"levelo://app?vid=f5dbe0f3-64d8-4b71-af03-de268e24fac5","ios":"levelo://app?vid=f5dbe0f3-64d8-4b71-af03-de268e24fac5"},"vehicle_type_id":"4","last_reported":1743851262,"current_range_meters":18800,"station_id":"ce4bh0h2rcd13ifvqd40","pricing_plan_id":"cebpf4jnsgd1na2vs0mg"},{"bike_id":"772d9e3c-48b4-4bb6-9a76-6b61b74a32a9","system_id":"levelo_inurba_marseille","lat":43.29571,"lon":5.39959,"is_reserved":false,"is_disabled":true,"rental_uris":{"android":"levelo://app?vid=772d9e3c-48b4-4bb6-9a76-6b61b74a32a9","ios":"levelo://app?vid=772d9e3c-48b4-4bb6-9a76-6b61b74a32a9"},"vehicle_type_id":"4","last_reported":1743851262,"current_range_meters":18800,"station_id":"ce4bh312rcd13ifvqdj0","pricing_plan_id":"cebpf4jnsgd1na2vs0mg"},{"bike_id":"9ed51646-ce92-4fd3-b42e-d6952a4ed9a6","system_id":"levelo_inurba_marseille","lat":43.27373,"lon":5.36261,"is_reserved":false,"is_disabled":false,"rental_uris":{"android":"levelo://app?vid=9ed51646-ce92-4fd3-b42e-d6952a4ed9a6","ios":"levelo://app?vid=9ed51646-ce92-4fd3-b42e-d6952a4ed9a6"},"vehicle_type_id":"4","last_reported":1743851262,"current_range_meters":18800,"station_id":"ce4bhbh2rcd13ifvqeo0","pricing_plan_id":"cebpf4jnsgd1na2vs0mg"},{"bike_id":"908cf791-7a95-4b19-87db-6ab531dc84b6","system_id":"levelo_inurba_marseille","lat":43.21757,"lon":5.34604,"is_reserved":false,"is_disabled":false,"rental_uris":{"android":"levelo://app?vid=908cf791-7a95-4b19-87db-6ab531dc84b6","ios":"levelo://app?vid=908cf791-7a95-4b19-87db-6ab531dc84b6"},"vehicle_type_id":"4","last_reported":1743851262,"current_range_meters":18800,"station_id":"st_cvj6r9ubvosntc0bgbag","pricing_plan_id":"cebpf4jnsgd1na2vs0mg"},{"bike_id":"7efd7665-7f41-44e3-8765-f5dacf8fac1b","system_id":"levelo_inurba_marseille","lat":43.33733,"lon":5.39186,"is_reserved":false,"is_disabled":false,"rental_uris":{"android":"levelo://app?vid=7efd7665-7f41-44e3-8765-f5dacf8fac1b","ios":"levelo://app?vid=7efd7665-7f41-44e3-8765-f5dacf8fac1b"},"vehicle_type_id":"4","last_reported":1743851262,"current_range_meters":18800,"station_id":"ce4bhr92rcd13ifvqhsg","pricing_plan_id":"cebpf4jnsgd1na2vs0mg"},{"bike_id":"274cab9a-4527-41d4-949e-eb82cc7a86f7","system_id":"levelo_inurba_marseille","lat":43.231499,"lon":5.437109,"is_reserved":false,"is_disabled":false,"rental_uris":{"android":"levelo://app?vid=274cab9a-4527-41d4-949e-eb82cc7a86f7","ios":"levelo://app?vid=274cab9a-4527-41d4-949e-eb82cc7a86f7"},"vehicle_type_id":"4","last_reported":1743851262,"current_range_meters":18800,"station_id":"ce4bhmp2rcd13ifvqgog","pricing_plan_id":"cebpf4jnsgd1na2vs0mg"},{"bike_id":"c3a2effd-8c3f-4155-b560-64d5a8d6df29","system_id":"levelo_inurba_marseille","lat":43.27391,"lon":5.36256,"is_reserved":false,"is_disabled":false,"rental_uris":{"android":"levelo://app?vid=c3a2effd-8c3f-4155-b560-64d5a8d6df29","ios":"levelo://app?vid=c3a2effd-8c3f-4155-b560-64d5a8d6df29"},"vehicle_type_id":"4","last_reported":1743851262,"current_range_meters":18800,"station_id":"ce4bhbh2rcd13ifvqeo0","pricing_plan_id":"cebpf4jnsgd1na2vs0mg"},{"bike_id":"2d1bdf65-b51e-44a7-ba18-a71e96e83af5","system_id":"levelo_inurba_marseille","lat":43.3074,"lon":5.42443,"is_reserved":false,"is_disabled":false,"rental_uris":{"android":"levelo://app?vid=2d1bdf65-b51e-44a7-ba18-a71e96e83af5","ios":"levelo://app?vid=2d1bdf65-b51e-44a7-ba18-a71e96e83af5"},"vehicle_type_id":"4","last_reported":1743851262,"current_range_meters":19200,"station_id":"st_cvj6ca6bvosntc0bfgr0","pricing_plan_id":"cebpf4jnsgd1na2vs0mg"},{"bike_id":"f0219b4c-54f9-4f3b-a2ea-430aa3f965a7","system_id":"levelo_inurba_marseille","lat":43.30319,"lon":5.40439,"is_reserved":false,"is_disabled":false,"rental_uris":{"android":"levelo://app?vid=f0219b4c-54f9-4f3b-a2ea-430aa3f965a7","ios":"levelo://app?vid=f0219b4c-54f9-4f3b-a2ea-430aa3f965a7"},"vehicle_type_id":"4","last_reported":1743851262,"current_range_meters":19200,"station_id":"ce4bh012rcd13ifvqd10","pricing_plan_id":"cebpf4jnsgd1na2vs0mg"},{"bike_id":"59a9cff4-c5df-4dda-acff-ce7619fb69ec","system_id":"levelo_inurba_marseille","lat":43.25113,"lon":5.40315,"is_reserved":false,"is_disabled":false,"rental_uris":{"android":"levelo://app?vid=59a9cff4-c5df-4dda-acff-ce7619fb69ec","ios":"levelo://app?vid=59a9cff4-c5df-4dda-acff-ce7619fb69ec"},"vehicle_type_id":"4","last_reported":1743851262,"current_range_meters":19200,"station_id":"ce4bhlh2rcd13ifvqgig","pricing_plan_id":"cebpf4jnsgd1na2vs0mg"},{"bike_id":"1e252f54-c902-4543-b883-7841e8f681ad","system_id":"levelo_inurba_marseille","lat":43.231502,"lon":5.437059,"is_reserved":false,"is_disabled":false,"rental_uris":{"android":"levelo://app?vid=1e252f54-c902-4543-b883-7841e8f681ad","ios":"levelo://app?vid=1e252f54-c902-4543-b883-7841e8f681ad"},"vehicle_type_id":"4","last_reported":1743851262,"current_range_meters":19200,"station_id":"ce4bhmp2rcd13ifvqgog","pricing_plan_id":"cebpf4jnsgd1na2vs0mg"},{"bike_id":"42877391-b79b-4774-8ffb-c378b30088c4","system_id":"levelo_inurba_marseille","lat":43.25116,"lon":5.40321,"is_reserved":false,"is_disabled":false,"rental_uris":{"android":"levelo://app?vid=42877391-b79b-4774-8ffb-c378b30088c4","ios":"levelo://app?vid=42877391-b79b-4774-8ffb-c378b30088c4"},"vehicle_type_id":"4","last_reported":1743851262,"current_range_meters":19200,"station_id":"ce4bhlh2rcd13ifvqgig","pricing_plan_id":"cebpf4jnsgd1na2vs0mg"},{"bike_id":"1473ede0-55a3-4c01-a403-406621f689c9","system_id":"levelo_inurba_marseille","lat":43.31488,"lon":5.37322,"is_reserved":false,"is_disabled":false,"rental_uris":{"android":"levelo://app?vid=1473ede0-55a3-4c01-a403-406621f689c9","ios":"levelo://app?vid=1473ede0-55a3-4c01-a403-406621f689c9"},"vehicle_type_id":"4","last_reported":1743851262,"current_range_meters":19200,"station_id":"ce4bgt12rcd13ifvqcd0","pricing_plan_id":"cebpf4jnsgd1na2vs0mg"},{"bike_id":"a4217832-7555-46d1-ae13-b84486cf3184","system_id":"levelo_inurba_marseille","lat":43.21184,"lon":5.35077,"is_reserved":false,"is_disabled":false,"rental_uris":{"android":"levelo://app?vid=a4217832-7555-46d1-ae13-b84486cf3184","ios":"levelo://app?vid=a4217832-7555-46d1-ae13-b84486cf3184"},"vehicle_type_id":"4","last_reported":1743851262,"current_range_meters":19200,"station_id":"st_cvj6sg6p6f1abm77japg","pricing_plan_id":"cebpf4jnsgd1na2vs0mg"},{"bike_id":"01f6e46c-a614-404e-a74d-e3e1f5d6f3b4","system_id":"levelo_inurba_marseille","lat":43.21755,"lon":5.34606,"is_reserved":false,"is_disabled":false,"rental_uris":{"android":"levelo://app?vid=01f6e46c-a614-404e-a74d-e3e1f5d6f3b4","ios":"levelo://app?vid=01f6e46c-a614-404e-a74d-e3e1f5d6f3b4"},"vehicle_type_id":"4","last_reported":1743851262,"current_range_meters":19200,"station_id":"st_cvj6r9ubvosntc0bgbag","pricing_plan_id":"cebpf4jnsgd1na2vs0mg"},{"bike_id":"cf210dd6-0324-4a9b-ad90-22e0dcfb9d1f","system_id":"levelo_inurba_marseille","lat":43.29591,"lon":5.37713,"is_reserved":false,"is_disabled":false,"rental_uris":{"android":"levelo://app?vid=cf210dd6-0324-4a9b-ad90-22e0dcfb9d1f","ios":"levelo://app?vid=cf210dd6-0324-4a9b-ad90-22e0dcfb9d1f"},"vehicle_type_id":"4","last_reported":1743851262,"current_range_meters":19200,"station_id":"ce4bgi92rcd13ifvqb90","pricing_plan_id":"cebpf4jnsgd1na2vs0mg"},{"bike_id":"a339d4c1-2f51-4f66-bf1e-9c26d70ad3f9","system_id":"levelo_inurba_marseille","lat":43.2978,"lon":5.37097,"is_reserved":false,"is_disabled":false,"rental_uris":{"android":"levelo://app?vid=a339d4c1-2f51-4f66-bf1e-9c26d70ad3f9","ios":"levelo://app?vid=a339d4c1-2f51-4f66-bf1e-9c26d70ad3f9"},"vehicle_type_id":"4","last_reported":1743851262,"current_range_meters":19600,"station_id":"ce4bgop2rcd13ifvqc1g","pricing_plan_id":"cebpf4jnsgd1na2vs0mg"},{"bike_id":"27c11a65-c8b3-44d7-bb6a-c05e78be4598","system_id":"levelo_inurba_marseille","lat":43.321,"lon":5.36795,"is_reserved":false,"is_disabled":false,"rental_uris":{"android":"levelo://app?vid=27c11a65-c8b3-44d7-bb6a-c05e78be4598","ios":"levelo://app?vid=27c11a65-c8b3-44d7-bb6a-c05e78be4598"},"vehicle_type_id":"4","last_reported":1743851262,"current_range_meters":19600,"station_id":"ce4bhrh2rcd13ifvqhug","pricing_plan_id":"cebpf4jnsgd1na2vs0mg"},{"bike_id":"c8e04de8-1ac1-4a40-8560-5fa710865798","system_id":"levelo_inurba_marseille","lat":43.26201,"lon":5.37928,"is_reserved":false,"is_disabled":false,"rental_uris":{"android":"levelo://app?vid=c8e04de8-1ac1-4a40-8560-5fa710865798","ios":"levelo://app?vid=c8e04de8-1ac1-4a40-8560-5fa710865798"},"vehicle_type_id":"4","last_reported":1743851262,"current_range_meters":19600,"station_id":"ce4bhjp2rcd13ifvqg90","pricing_plan_id":"cebpf4jnsgd1na2vs0mg"},{"bike_id":"dacbc300-0384-4222-b34c-11155fe8d835","system_id":"levelo_inurba_marseille","lat":43.29254,"lon":5.40913,"is_reserved":false,"is_disabled":false,"rental_uris":{"android":"levelo://app?vid=dacbc300-0384-4222-b34c-11155fe8d835","ios":"levelo://app?vid=dacbc300-0384-4222-b34c-11155fe8d835"},"vehicle_type_id":"4","last_reported":1743851262,"current_range_meters":19600,"station_id":"ce4bh192rcd13ifvqdc0","pricing_plan_id":"cebpf4jnsgd1na2vs0mg"},{"bike_id":"58df5e7c-b53d-4cb2-b552-5c639035297d","system_id":"levelo_inurba_marseille","lat":43.21751,"lon":5.346,"is_reserved":false,"is_disabled":false,"rental_uris":{"android":"levelo://app?vid=58df5e7c-b53d-4cb2-b552-5c639035297d","ios":"levelo://app?vid=58df5e7c-b53d-4cb2-b552-5c639035297d"},"vehicle_type_id":"4","last_reported":1743851262,"current_range_meters":19600,"station_id":"st_cvj6r9ubvosntc0bgbag","pricing_plan_id":"cebpf4jnsgd1na2vs0mg"},{"bike_id":"79a44ab4-e2e5-4d23-a868-cb171d0b15d4","system_id":"levelo_inurba_marseille","lat":43.24386,"lon":5.37078,"is_reserved":false,"is_disabled":false,"rental_uris":{"android":"levelo://app?vid=79a44ab4-e2e5-4d23-a868-cb171d0b15d4","ios":"levelo://app?vid=79a44ab4-e2e5-4d23-a868-cb171d0b15d4"},"vehicle_type_id":"4","last_reported":1743851262,"current_range_meters":19600,"station_id":"ce4bhhh2rcd13ifvqfk0","pricing_plan_id":"cebpf4jnsgd1na2vs0mg"},{"bike_id":"73390279-8890-4b7e-ba53-853b2955b5e0","system_id":"levelo_inurba_marseille","lat":43.29978,"lon":5.37168,"is_reserved":false,"is_disabled":false,"rental_uris":{"android":"levelo://app?vid=73390279-8890-4b7e-ba53-853b2955b5e0","ios":"levelo://app?vid=73390279-8890-4b7e-ba53-853b2955b5e0"},"vehicle_type_id":"4","last_reported":1743851262,"current_range_meters":19600,"station_id":"ce4bgr92rcd13ifvqc7g","pricing_plan_id":"cebpf4jnsgd1na2vs0mg"},{"bike_id":"e20e729d-41e7-4a77-aed4-a7c189d88529","system_id":"levelo_inurba_marseille","lat":43.31161,"lon":5.3873,"is_reserved":false,"is_disabled":false,"rental_uris":{"android":"levelo://app?vid=e20e729d-41e7-4a77-aed4-a7c189d88529","ios":"levelo://app?vid=e20e729d-41e7-4a77-aed4-a7c189d88529"},"vehicle_type_id":"4","last_reported":1743851262,"current_range_meters":19600,"station_id":"ce4bgv12rcd13ifvqcp0","pricing_plan_id":"cebpf4jnsgd1na2vs0mg"},{"bike_id":"c210b1fc-8a87-4eca-8c09-d751d4fdad4e","system_id":"levelo_inurba_marseille","lat":43.31218,"lon":5.36885,"is_reserved":false,"is_disabled":false,"rental_uris":{"android":"levelo://app?vid=c210b1fc-8a87-4eca-8c09-d751d4fdad4e","ios":"levelo://app?vid=c210b1fc-8a87-4eca-8c09-d751d4fdad4e"},"vehicle_type_id":"4","last_reported":1743851262,"current_range_meters":19600,"station_id":"ce4bgl92rcd13ifvqbq0","pricing_plan_id":"cebpf4jnsgd1na2vs0mg"},