{"last_updated":1685783169,"ttl":30,"version":"2.2","data":{"bikes":[{"bike_id":"17b2f1c2-604f-46f8-8b47-7093b8b639d0","system_id":"levelo_inurba_marseille","lat":43.309076,"lon":5.368465,"is_reserved":false,"is_disabled":false,"rental_uris":{"android":"levelo://app?vid=17b2f1c2-604f-46f8-8b47-7093b8b639d0","ios":"levelo://app?vid=17b2f1c2-604f-46f8-8b47-7093b8b639d0"},"vehicle_type_id":"4","last_reported":1685783170,"current_range_meters":21600,"station_id":"ce4bgn92rcd13ifvqbvg","pricing_plan_id":"free"},{"bike_id":"1d2126e2-1511-4603-80ed-34211b8b2c4d","system_id":"levelo_inurba_marseille","lat":43.30901,"lon":5.36833,"is_reserved":false,"is_disabled":false,"rental_uris":{"android":"levelo://app?vid=1d2126e2-1511-4603-80ed-34211b8b2c4d","ios":"levelo://app?vid=1d2126e2-1511-4603-80ed-34211b8b2c4d"},"vehicle_type_id":"4","last_reported":1685783170,"current_range_meters":20400,"station_id":"ce4bgn92rcd13ifvqbvg","pricing_plan_id":"free"},{"bike_id":"fb800150-b9fb-449d-8aad-ed4417832585","system_id":"levelo_inurba_marseille","lat":43.314811,"lon":5.373103,"is_reserved":false,"is_disabled":false,"rental_uris":{"android":"levelo://app?vid=fb800150-b9fb-449d-8aad-ed4417832585","ios":"levelo://app?vid=fb800150-b9fb-449d-8aad-ed4417832585"},"vehicle_type_id":"4","last_reported":1685783170,"current_range_meters":18000,"station_id":"ce4bgt12rcd13ifvqcd0","pricing_plan_id":"free"},{"bike_id":"325902da-fb16-4473-98bf-a9d9e9afe831","system_id":"levelo_inurba_marseille","lat":43.314811,"lon":5.373103,"is_reserved":false,"is_disabled":false,"rental_uris":{"android":"levelo://app?vid=325902da-fb16-4473-98bf-a9d9e9afe831","ios":"levelo://app?vid=325902da-fb16-4473-98bf-a9d9e9afe831"},"vehicle_type_id":"4","last_reported":1685783170,"current_range_meters":23200,"station_id":"ce4bgt12rcd13ifvqcd0","pricing_plan_id":"free"},{"bike_id":"706b4d4c-7eb3-46a9-a8ef-073dc2828ab0","system_id":"levelo_inurba_marseille","lat":43.30884,"lon":5.37184,"is_reserved":false,"is_disabled":false,"rental_uris":{"android":"levelo://app?vid=706b4d4c-7eb3-46a9-a8ef-073dc2828ab0","ios":"levelo://app?vid=706b4d4c-7eb3-46a9-a8ef-073dc2828ab0"},"vehicle_type_id":"4","last_reported":1685783170,"current_range_meters":6400,"station_id":"","pricing_plan_id":"free"},{"bike_id":"2f7beb0d-4918-4cb8-92c7-b781880ea95a","system_id":"levelo_inurba_marseille","lat":43.30885,"lon":5.37189,"is_reserved":false,"is_disabled":false,"rental_uris":{"android":"levelo://app?vid=2f7beb0d-4918-4cb8-92c7-b781880ea95a","ios":"levelo://app?vid=2f7beb0d-4918-4cb8-92c7-b781880ea95a"},"vehicle_type_id":"4","last_reported":1685783170,"current_range_meters":8400,"station_id":"","pricing_plan_id":"free"},{"bike_id":"25a8dcab-ece4-42b7-a12a-a0dd7d71635f","system_id":"levelo_inurba_marseille","lat":43.30893,"lon":5.37295,"is_reserved":false,"is_disabled":false,"rental_uris":{"android":"levelo://app?vid=25a8dcab-ece4-42b7-a12a-a0dd7d71635f","ios":"levelo://app?vid=25a8dcab-ece4-42b7-a12a-a0dd7d71635f"},"vehicle_type_id":"4","last_reported":1685783170,"current_range_meters":10400,"station_id":"","pricing_plan_id":"free"},{"bike_id":"4d43e892-ec90-4fce-8475-f727fed3851f","system_id":"levelo_inurba_marseille","lat":43.31972,"lon":5.36579,"is_reserved":false,"is_disabled":false,"rental_uris":{"android":"levelo://app?vid=4d43e892-ec90-4fce-8475-f727fed3851f","ios":"levelo://app?vid=4d43e892-ec90-4fce-8475-f727fed3851f"},"vehicle_type_id":"4","last_reported":1685783170,"current_range_meters":5600,"station_id":"","pricing_plan_id":"free"},{"bike_id":"890e93ac-4bac-484a-baff-b468d73fa7c8","system_id":"levelo_inurba_marseille","lat":43.31367,"lon":5.37658,"is_reserved":false,"is_disabled":false,"rental_uris":{"android":"levelo://app?vid=890e93ac-4bac-484a-baff-b468d73fa7c8","ios":"levelo://app?vid=890e93ac-4bac-484a-baff-b468d73fa7c8"},"vehicle_type_id":"4","last_reported":1685783170,"current_range_meters":12000,"station_id":"","pricing_plan_id":"free"},{"bike_id":"8cd45c6a-305c-4386-bd6a-be8ad2981f10","system_id":"levelo_inurba_marseille","lat":43.305989,"lon":5.37225,"is_reserved":false,"is_disabled":false,"rental_uris":{"android":"levelo://app?vid=8cd45c6a-305c-4386-bd6a-be8ad2981f10","ios":"levelo://app?vid=8cd45c6a-305c-4386-bd6a-be8ad2981f10"},"vehicle_type_id":"4","last_reported":1685783170,"current_range_meters":24800,"station_id":"ce4bgqh2rcd13ifvqc4g","pricing_plan_id":"free"},{"bike_id":"65554d33-b508-436a-aac9-544974e5f617","system_id":"levelo_inurba_marseille","lat":43.311175,"lon":5.377713,"is_reserved":false,"is_disabled":false,"rental_uris":{"android":"levelo://app?vid=65554d33-b508-436a-aac9-544974e5f617","ios":"levelo://app?vid=65554d33-b508-436a-aac9-544974e5f617"},"vehicle_type_id":"4","last_reported":1685783170,"current_range_meters":22000,"station_id":"","pricing_plan_id":"free"},{"bike_id":"a5768619-54d5-40ad-9183-8ecf9cda6179","system_id":"levelo_inurba_marseille","lat":43.308012,"lon":5.381511,"is_reserved":false,"is_disabled":false,"rental_uris":{"android":"levelo://app?vid=a5768619-54d5-40ad-9183-8ecf9cda6179","ios":"levelo://app?vid=a5768619-54d5-40ad-9183-8ecf9cda6179"},"vehicle_type_id":"4","last_reported":1685783170,"current_range_meters":23600,"station_id":"ce4bgt12rcd13ifvqce0","pricing_plan_id":"free"},{"bike_id":"ca94b833-64f2-47ab-902a-8b46a68de5b2","system_id":"levelo_inurba_marseille","lat":43.304606,"lon":5.379026,"is_reserved":false,"is_disabled":false,"rental_uris":{"android":"levelo://app?vid=ca94b833-64f2-47ab-902a-8b46a68de5b2","ios":"levelo://app?vid=ca94b833-64f2-47ab-902a-8b46a68de5b2"},"vehicle_type_id":"4","last_reported":1685783170,"current_range_meters":18800,"station_id":"ce4bgup2rcd13ifvqcn0","pricing_plan_id":"free"},{"bike_id":"9a2bec71-912d-42a6-8c27-72d7c9d7b118","system_id":"levelo_inurba_marseille","lat":43.304606,"lon":5.379026,"is_reserved":false,"is_disabled":false,"rental_uris":{"android":"levelo://app?vid=9a2bec71-912d-42a6-8c27-72d7c9d7b118","ios":"levelo://app?vid=9a2bec71-912d-42a6-8c27-72d7c9d7b118"},"vehicle_type_id":"4","last_reported":1685783170,"current_range_meters":29600,"station_id":"ce4bgup2rcd13ifvqcn0","pricing_plan_id":"free"},{"bike_id":"8c3cbb59-cd72-4768-8a58-eb62ab11aad1","system_id":"levelo_inurba_marseille","lat":43.319935,"lon":5.381699,"is_reserved":false,"is_disabled":false,"rental_uris":{"android":"levelo://app?vid=8c3cbb59-cd72-4768-8a58-eb62ab11aad1","ios":"levelo://app?vid=8c3cbb59-cd72-4768-8a58-eb62ab11aad1"},"vehicle_type_id":"4","last_reported":1685783170,"current_range_meters":29600,"station_id":"ce4bhr12rcd13ifvqhpg","pricing_plan_id":"free"},{"bike_id":"b6af2cee-22c0-4696-a3cc-c5ab5878f58f","system_id":"levelo_inurba_marseille","lat":43.319935,"lon":5.381699,"is_reserved":false,"is_disabled":false,"rental_uris":{"android":"levelo://app?vid=b6af2cee-22c0-4696-a3cc-c5ab5878f58f","ios":"levelo://app?vid=b6af2cee-22c0-4696-a3cc-c5ab5878f58f"},"vehicle_type_id":"4","last_reported":1685783170,"current_range_meters":28400,"station_id":"ce4bhr12rcd13ifvqhpg","pricing_plan_id":"free"},{"bike_id":"42e71d03-66bf-4303-87bc-d6e20f3751e2","system_id":"levelo_inurba_marseille","lat":43.29963,"lon":5.37153,"is_reserved":false,"is_disabled":false,"rental_uris":{"android":"levelo://app?vid=42e71d03-66bf-4303-87bc-d6e20f3751e2","ios":"levelo://app?vid=42e71d03-66bf-4303-87bc-d6e20f3751e2"},"vehicle_type_id":"4","last_reported":1685783170,"current_range_meters":5600,"station_id":"","pricing_plan_id":"free"},{"bike_id":"f75015e2-623a-40dd-b7f3-834983f50917","system_id":"levelo_inurba_marseille","lat":43.29849,"lon":5.36289,"is_reserved":false,"is_disabled":false,"rental_uris":{"android":"levelo://app?vid=f75015e2-623a-40dd-b7f3-834983f50917","ios":"levelo://app?vid=f75015e2-623a-40dd-b7f3-834983f50917"},"vehicle_type_id":"4","last_reported":1685783170,"current_range_meters":23600,"station_id":"ce4bgpp2rcd13ifvqc3g","pricing_plan_id":"free"},{"bike_id":"a53842ae-32c6-40f4-84a6-bc5180792809","system_id":"levelo_inurba_marseille","lat":43.298433,"lon":5.362774,"is_reserved":false,"is_disabled":false,"rental_uris":{"android":"levelo://app?vid=a53842ae-32c6-40f4-84a6-bc5180792809","ios":"levelo://app?vid=a53842ae-32c6-40f4-84a6-bc5180792809"},"vehicle_type_id":"4","last_reported":1685783170,"current_range_meters":24800,"station_id":"ce4bgpp2rcd13ifvqc3g","pricing_plan_id":"free"},{"bike_id":"02f6dd1f-ac5f-49b3-80fc-c140b1013a52","system_id":"levelo_inurba_marseille","lat":43.298433,"lon":5.362774,"is_reserved":false,"is_disabled":false,"rental_uris":{"android":"levelo://app?vid=02f6dd1f-ac5f-49b3-80fc-c140b1013a52","ios":"levelo://app?vid=02f6dd1f-ac5f-49b3-80fc-c140b1013a52"},"vehicle_type_id":"4","last_reported":1685783170,"current_range_meters":23200,"station_id":"ce4bgpp2rcd13ifvqc3g","pricing_plan_id":"free"},{"bike_id":"bc5ccaf3-1527-4bf2-b49c-cbd3d00b60b1","system_id":"levelo_inurba_marseille","lat":43.305364,"lon":5.384119,"is_reserved":false,"is_disabled":false,"rental_uris":{"android":"levelo://app?vid=bc5ccaf3-1527-4bf2-b49c-cbd3d00b60b1","ios":"levelo://app?vid=bc5ccaf3-1527-4bf2-b49c-cbd3d00b60b1"},"vehicle_type_id":"4","last_reported":1685783170,"current_range_meters":0,"station_id":"ce4bgg92rcd13ifvqb30","pricing_plan_id":"free"},{"bike_id":"2aa73f7b-1bbc-4173-b0f6-f48948fcc108","system_id":"levelo_inurba_marseille","lat":43.298433,"lon":5.362774,"is_reserved":false,"is_disabled":false,"rental_uris":{"android":"levelo://app?vid=2aa73f7b-1bbc-4173-b0f6-f48948fcc108","ios":"levelo://app?vid=2aa73f7b-1bbc-4173-b0f6-f48948fcc108"},"vehicle_type_id":"4","last_reported":1685783170,"current_range_meters":23200,"station_id":"ce4bgpp2rcd13ifvqc3g","pricing_plan_id":"free"},{"bike_id":"26ef5cbf-8c07-4686-b914-7117d0dab124","system_id":"levelo_inurba_marseille","lat":43.298433,"lon":5.362774,"is_reserved":false,"is_disabled":false,"rental_uris":{"android":"levelo://app?vid=26ef5cbf-8c07-4686-b914-7117d0dab124","ios":"levelo://app?vid=26ef5cbf-8c07-4686-b914-7117d0dab124"},"vehicle_type_id":"4","last_reported":1685783170,"current_range_meters":4400,"station_id":"ce4bgpp2rcd13ifvqc3g","pricing_plan_id":"free"},{"bike_id":"c2cfb580-9c22-4fac-abdf-17ed60e5d711","system_id":"levelo_inurba_marseille","lat":43.298433,"lon":5.362774,"is_reserved":false,"is_disabled":false,"rental_uris":{"android":"levelo://app?vid=c2cfb580-9c22-4fac-abdf-17ed60e5d711","ios":"levelo://app?vid=c2cfb580-9c22-4fac-abdf-17ed60e5d711"},"vehicle_type_id":"4","last_reported":1685783170,"current_range_meters":31200,"station_id":"ce4bgpp2rcd13ifvqc3g","pricing_plan_id":"free"},{"bike_id":"0b16fcc3-b301-4cfb-82eb-068f896a2748","system_id":"levelo_inurba_marseille","lat":43.299243,"lon":5.374807,"is_reserved":false,"is_disabled":false,"rental_uris":{"android":"levelo://app?vid=0b16fcc3-b301-4cfb-82eb-068f896a2748","ios":"levelo://app?vid=0b16fcc3-b301-4cfb-82eb-068f896a2748"},"vehicle_type_id":"4","last_reported":1685783170,"current_range_meters":21600,"station_id":"ce4bgjh2rcd13ifvqbg0","pricing_plan_id":"free"},{"bike_id":"932f29d2-e9ed-4cf6-aa15-e7133c0aa201","system_id":"levelo_inurba_marseille","lat":43.298433,"lon":5.362774,"is_reserved":false,"is_disabled":false,"rental_uris":{"android":"levelo://app?vid=932f29d2-e9ed-4cf6-aa15-e7133c0aa201","ios":"levelo://app?vid=932f29d2-e9ed-4cf6-aa15-e7133c0aa201"},"vehicle_type_id":"4","last_reported":1685783170,"current_range_meters":30400,"station_id":"ce4bgpp2rcd13ifvqc3g","pricing_plan_id":"free"},{"bike_id":"8fb449e6-f367-441a-948c-6878fdd6f08d","system_id":"levelo_inurba_marseille","lat":43.299243,"lon":5.374807,"is_reserved":false,"is_disabled":false,"rental_uris":{"android":"levelo://app?vid=8fb449e6-f367-441a-948c-6878fdd6f08d","ios":"levelo://app?vid=8fb449e6-f367-441a-948c-6878fdd6f08d"},"vehicle_type_id":"4","last_reported":1685783170,"current_range_meters":29600,"station_id":"ce4bgjh2rcd13ifvqbg0","pricing_plan_id":"free"},{"bike_id":"3653a95d-1a88-4a1a-b82c-17b1c2babe00","system_id":"levelo_inurba_marseille","lat":43.299243,"lon":5.374807,"is_reserved":false,"is_disabled":false,"rental_uris":{"android":"levelo://app?vid=3653a95d-1a88-4a1a-b82c-17b1c2babe00","ios":"levelo://app?vid=3653a95d-1a88-4a1a-b82c-17b1c2babe00"},"vehicle_type_id":"4","last_reported":1685783170,"current_range_meters":26800,"station_id":"ce4bgjh2rcd13ifvqbg0","pricing_plan_id":"free"},{"bike_id":"7818937d-4df5-4b39-a342-14f75e8f09ef","system_id":"levelo_inurba_marseille","lat":43.299243,"lon":5.37481,"is_reserved":false,"is_disabled":false,"rental_uris":{"android":"levelo://app?vid=7818937d-4df5-4b39-a342-14f75e8f09ef","ios":"levelo://app?vid=7818937d-4df5-4b39-a342-14f75e8f09ef"},"vehicle_type_id":"4","last_reported":1685783170,"current_range_meters":19200,"station_id":"ce4bgjh2rcd13ifvqbg0","pricing_plan_id":"free"},{"bike_id":"41c2590e-164d-41e9-b96b-588d43dd2f8b","system_id":"levelo_inurba_marseille","lat":43.2977,"lon":5.36917,"is_reserved":false,"is_disabled":false,"rental_uris":{"android":"levelo://app?vid=41c2590e-164d-41e9-b96b-588d43dd2f8b","ios":"levelo://app?vid=41c2590e-164d-41e9-b96b-588d43dd2f8b"},"vehicle_type_id":"4","last_reported":1685783170,"current_range_meters":8800,"station_id":"","pricing_plan_id":"free"},{"bike_id":"e7b88331-d377-4ae0-87d5-cda731a35544","system_id":"levelo_inurba_marseille","lat":43.328371,"lon":5.366909,"is_reserved":false,"is_disabled":false,"rental_uris":{"android":"levelo://app?vid=e7b88331-d377-4ae0-87d5-cda731a35544","ios":"levelo://app?vid=e7b88331-d377-4ae0-87d5-cda731a35544"},"vehicle_type_id":"4","last_reported":1685783170,"current_range_meters":21200,"station_id":"ce4bhs92rcd13ifvqi0g","pricing_plan_id":"free"},{"bike_id":"73358a4c-93c0-4eda-a88d-776a673cd973","system_id":"levelo_inurba_marseille","lat":43.328371,"lon":5.366909,"is_reserved":false,"is_disabled":false,"rental_uris":{"android":"levelo://app?vid=73358a4c-93c0-4eda-a88d-776a673cd973","ios":"levelo://app?vid=73358a4c-93c0-4eda-a88d-776a673cd973"},"vehicle_type_id":"4","last_reported":1685783170,"current_range_meters":28800,"station_id":"ce4bhs92rcd13ifvqi0g","pricing_plan_id":"free"},{"bike_id":"048d6a5e-97c9-4f67-bf89-16ecba2081b0","system_id":"levelo_inurba_marseille","lat":43.328371,"lon":5.366909,"is_reserved":false,"is_disabled":false,"rental_uris":{"android":"levelo://app?vid=048d6a5e-97c9-4f67-bf89-16ecba2081b0","ios":"levelo://app?vid=048d6a5e-97c9-4f67-bf89-16ecba2081b0"},"vehicle_type_id":"4","last_reported":1685783170,"current_range_meters":20000,"station_id":"ce4bhs92rcd13ifvqi0g","pricing_plan_id":"free"},{"bike_id":"44461937-e383-441a-8ed9-77517a1c8c2f","system_id":"levelo_inurba_marseille","lat":43.328371,"lon":5.366909,"is_reserved":false,"is_disabled":false,"rental_uris":{"android":"levelo://app?vid=44461937-e383-441a-8ed9-77517a1c8c2f","ios":"levelo://app?vid=44461937-e383-441a-8ed9-77517a1c8c2f"},"vehicle_type_id":"4","last_reported":1685783170,"current_range_meters":18000,"station_id":"ce4bhs92rcd13ifvqi0g","pricing_plan_id":"free"},{"bike_id":"6dab6eca-b352-49ea-add2-026ea7782376","system_id":"levelo_inurba_marseille","lat":43.328371,"lon":5.366909,"is_reserved":false,"is_disabled":false,"rental_uris":{"android":"levelo://app?vid=6dab6eca-b352-49ea-add2-026ea7782376","ios":"levelo://app?vid=6dab6eca-b352-49ea-add2-026ea7782376"},"vehicle_type_id":"4","last_reported":1685783170,"current_range_meters":30400,"station_id":"ce4bhs92rcd13ifvqi0g","pricing_plan_id":"free"},{"bike_id":"68967537-d7e4-4360-bad4-6be552939096","system_id":"levelo_inurba_marseille","lat":43.29716,"lon":5.36615,"is_reserved":false,"is_disabled":false,"rental_uris":{"android":"levelo://app?vid=68967537-d7e4-4360-bad4-6be552939096","ios":"levelo://app?vid=68967537-d7e4-4360-bad4-6be552939096"},"vehicle_type_id":"4","last_reported":1685783170,"current_range_meters":20000,"station_id":"","pricing_plan_id":"free"},{"bike_id":"107e5e32-53a1-4f76-a566-545d00911b3c","system_id":"levelo_inurba_marseille","lat":43.29716,"lon":5.36604,"is_reserved":false,"is_disabled":false,"rental_uris":{"android":"levelo://app?vid=107e5e32-53a1-4f76-a566-545d00911b3c","ios":"levelo://app?vid=107e5e32-53a1-4f76-a566-545d00911b3c"},"vehicle_type_id":"4","last_reported":1685783170,"current_range_meters":14800,"station_id":"","pricing_plan_id":"free"},{"bike_id":"2dfc1d81-782f-4d49-ae45-d3e8d0f3d453","system_id":"levelo_inurba_marseille","lat":43.298433,"lon":5.362774,"is_reserved":false,"is_disabled":false,"rental_uris":{"android":"levelo://app?vid=2dfc1d81-782f-4d49-ae45-d3e8d0f3d453","ios":"levelo://app?vid=2dfc1d81-782f-4d49-ae45-d3e8d0f3d453"},"vehicle_type_id":"4","last_reported":1685783170,"current_range_meters":31600,"station_id":"ce4bgpp2rcd13ifvqc3g","pricing_plan_id":"free"},{"bike_id":"d6705116-cf70-4b23-81fd-9ebd26e58a9a","system_id":"levelo_inurba_marseille","lat":43.29573,"lon":5.367355,"is_reserved":false,"is_disabled":false,"rental_uris":{"android":"levelo://app?vid=d6705116-cf70-4b23-81fd-9ebd26e58a9a","ios":"levelo://app?vid=d6705116-cf70-4b23-81fd-9ebd26e58a9a"},"vehicle_type_id":"4","last_reported":1685783170,"current_range_meters":31200,"station_id":"ce4bgph2rcd13ifvqc2g","pricing_plan_id":"free"},{"bike_id":"9bbd4ada-6014-46fc-ae70-545e12d3e8a1","system_id":"levelo_inurba_marseille","lat":43.29573,"lon":5.367355,"is_reserved":false,"is_disabled":false,"rental_uris":{"android":"levelo://app?vid=9bbd4ada-6014-46fc-ae70-545e12d3e8a1","ios":"levelo://app?vid=9bbd4ada-6014-46fc-ae70-545e12d3e8a1"},"vehicle_type_id":"4","last_reported":1685783170,"current_range_meters":31200,"station_id":"ce4bgph2rcd13ifvqc2g","pricing_plan_id":"free"},{"bike_id":"6fd5e16d-62b5-44a7-8ac4-137ba8323ecf","system_id":"levelo_inurba_marseille","lat":43.29573,"lon":5.367355,"is_reserved":false,"is_disabled":false,"rental_uris":{"android":"levelo://app?vid=6fd5e16d-62b5-44a7-8ac4-137ba8323ecf","ios":"levelo://app?vid=6fd5e16d-62b5-44a7-8ac4-137ba8323ecf"},"vehicle_type_id":"4","last_reported":1685783170,"current_range_meters":29600,"station_id":"ce4bgph2rcd13ifvqc2g","pricing_plan_id":"free"},{"bike_id":"4f97f17f-0161-4821-b90c-433613f0c674","system_id":"levelo_inurba_marseille","lat":43.296921,"lon":5.376579,"is_reserved":false,"is_disabled":false,"rental_uris":{"android":"levelo://app?vid=4f97f17f-0161-4821-b90c-433613f0c674","ios":"levelo://app?vid=4f97f17f-0161-4821-b90c-433613f0c674"},"vehicle_type_id":"4","last_reported":1685783170,"current_range_meters":29600,"station_id":"ce4bgkh2rcd13ifvqbl0","pricing_plan_id":"free"},{"bike_id":"51375c36-d077-47b4-b7f2-ca97c2805dbf","system_id":"levelo_inurba_marseille","lat":43.296921,"lon":5.376579,"is_reserved":false,"is_disabled":false,"rental_uris":{"android":"levelo://app?vid=51375c36-d077-47b4-b7f2-ca97c2805dbf","ios":"levelo://app?vid=51375c36-d077-47b4-b7f2-ca97c2805dbf"},"vehicle_type_id":"4","last_reported":1685783170,"current_range_meters":16800,"station_id":"ce4bgkh2rcd13ifvqbl0","pricing_plan_id":"free"},{"bike_id":"86a79198-f3d0-472b-9b15-81145f1e9021","system_id":"levelo_inurba_marseille","lat":43.299028,"lon":5.381509,"is_reserved":false,"is_disabled":false,"rental_uris":{"android":"levelo://app?vid=86a79198-f3d0-472b-9b15-81145f1e9021","ios":"levelo://app?vid=86a79198-f3d0-472b-9b15-81145f1e9021"},"vehicle_type_id":"4","last_reported":1685783170,"current_range_meters":8000,"station_id":"ce4bgj12rcd13ifvqbc0","pricing_plan_id":"free"},{"bike_id":"e6987d5b-f38a-45b6-877b-c29b4b14fb63","system_id":"levelo_inurba_marseille","lat":43.299028,"lon":5.381509,"is_reserved":false,"is_disabled":false,"rental_uris":{"android":"levelo://app?vid=e6987d5b-f38a-45b6-877b-c29b4b14fb63","ios":"levelo://app?vid=e6987d5b-f38a-45b6-877b-c29b4b14fb63"},"vehicle_type_id":"4","last_reported":1685783170,"current_range_meters":18000,"station_id":"ce4bgj12rcd13ifvqbc0","pricing_plan_id":"free"},{"bike_id":"e2597ec3-43f4-489d-a72d-d260ea5b1495","system_id":"levelo_inurba_marseille","lat":43.317557,"lon":5.390173,"is_reserved":false,"is_disabled":false,"rental_uris":{"android":"levelo://app?vid=e2597ec3-43f4-489d-a72d-d260ea5b1495","ios":"levelo://app?vid=e2597ec3-43f4-489d-a72d-d260ea5b1495"},"vehicle_type_id":"4","last_reported":1685783170,"current_range_meters":0,"station_id":"ce4bhqp2rcd13ifvqhng","pricing_plan_id":"free"},{"bike_id":"8142fb10-e6f0-4cbd-a950-3089a659608f","system_id":"levelo_inurba_marseille","lat":43.31758,"lon":5.3901,"is_reserved":false,"is_disabled":false,"rental_uris":{"android":"levelo://app?vid=8142fb10-e6f0-4cbd-a950-3089a659608f","ios":"levelo://app?vid=8142fb10-e6f0-4cbd-a950-3089a659608f"},"vehicle_type_id":"4","last_reported":1685783170,"current_range_meters":17600,"station_id":"ce4bhqp2rcd13ifvqhng","pricing_plan_id":"free"},{"bike_id":"92cc3f69-8721-401b-8729-d3dda5545420","system_id":"levelo_inurba_marseille","lat":43.298037,"lon":5.381066,"is_reserved":false,"is_disabled":false,"rental_uris":{"android":"levelo://app?vid=92cc3f69-8721-401b-8729-d3dda5545420","ios":"levelo://app?vid=92cc3f69-8721-401b-8729-d3dda5545420"},"vehicle_type_id":"4","last_reported":1685783170,"current_range_meters":18000,"station_id":"ce4bgip2rcd13ifvqbb0","pricing_plan_id":"free"},{"bike_id":"e8d58e9e-dfe5-4eae-8a99-1da5168aacfc","system_id":"levelo_inurba_marseille","lat":43.298037,"lon":5.381066,"is_reserved":false,"is_disabled":false,"rental_uris":{"android":"levelo://app?vid=e8d58e9e-dfe5-4eae-8a99-1da5168aacfc","ios":"levelo://app?vid=e8d58e9e-dfe5-4eae-8a99-1da5168aacfc"},"vehicle_type_id":"4","last_reported":1685783170,"current_range_meters":1200,"station_id":"ce4bgip2rcd13ifvqbb0","pricing_plan_id":"free"},{"bike_id":"29c8455c-d03a-4179-b574-2ba4cf390084","system_id":"levelo_inurba_marseille","lat":43.298037,"lon":5.381066,"is_reserved":false,"is_disabled":false,"rental_uris":{"android":"levelo://app?vid=29c8455c-d03a-4179-b574-2ba4cf390084","ios":"levelo://app?vid=29c8455c-d03a-4179-b574-2ba4cf390084"},"vehicle_type_id":"4","last_reported":1685783170,"current_range_meters":30800,"station_id":"ce4bgip2rcd13ifvqbb0","pricing_plan_id":"free"},{"bike_id":"25566c42-7420-465f-8fde-14cf9bc82372","system_id":"levelo_inurba_marseille","lat":43.296277,"lon":5.377108,"is_reserved":false,"is_disabled":false,"rental_uris":{"android":"levelo://app?vid=25566c42-7420-465f-8fde-14cf9bc82372","ios":"levelo://app?vid=25566c42-7420-465f-8fde-14cf9bc82372"},"vehicle_type_id":"4","last_reported":1685783170,"current_range_meters":0,"station_id":"ce4bgi92rcd13ifvqb90","pricing_plan_id":"free"},{"bike_id":"2aef5b00-c7ca-4bee-bd37-38a11bac6510","system_id":"levelo_inurba_marseille","lat":43.296263,"lon":5.377094,"is_reserved":false,"is_disabled":false,"rental_uris":{"android":"levelo://app?vid=2aef5b00-c7ca-4bee-bd37-38a11bac6510","ios":"levelo://app?vid=2aef5b00-c7ca-4bee-bd37-38a11bac6510"},"vehicle_type_id":"4","last_reported":1685783170,"current_range_meters":30400,"station_id":"ce4bgi92rcd13ifvqb90","pricing_plan_id":"free"},{"bike_id":"b16384a9-8e7c-42fb-a39b-da50de252ba1","system_id":"levelo_inurba_marseille","lat":43.296263,"lon":5.377094,"is_reserved":false,"is_disabled":false,"rental_uris":{"android":"levelo://app?vid=b16384a9-8e7c-42fb-a39b-da50de252ba1","ios":"levelo://app?vid=b16384a9-8e7c-42fb-a39b-da50de252ba1"},"vehicle_type_id":"4","last_reported":1685783170,"current_range_meters":24000,"station_id":"ce4bgi92rcd13ifvqb90","pricing_plan_id":"free"},{"bike_id":"64bee9a0-8a6d-48af-a4ca-6375a00548bc","system_id":"levelo_inurba_marseille","lat":43.296263,"lon":5.377094,"is_reserved":false,"is_disabled":false,"rental_uris":{"android":"levelo://app?vid=64bee9a0-8a6d-48af-a4ca-6375a00548bc","ios":"levelo://app?vid=64bee9a0-8a6d-48af-a4ca-6375a00548bc"},"vehicle_type_id":"4","last_reported":1685783170,"current_range_meters":18000,"station_id":"ce4bgi92rcd13ifvqb90","pricing_plan_id":"free"},{"bike_id":"5c6ff15e-7931-4c83-a861-b905789e26b7","system_id":"levelo_inurba_marseille","lat":43.296277,"lon":5.377108,"is_reserved":false,"is_disabled":false,"rental_uris":{"android":"levelo://app?vid=5c6ff15e-7931-4c83-a861-b905789e26b7","ios":"levelo://app?vid=5c6ff15e-7931-4c83-a861-b905789e26b7"},"vehicle_type_id":"4","last_reported":1685783170,"current_range_meters":26000,"station_id":"ce4bgi92rcd13ifvqb90","pricing_plan_id":"free"},{"bike_id":"b3e8803e-8034-428a-8320-029e0c789016","system_id":"levelo_inurba_marseille","lat":43.296263,"lon":5.377094,"is_reserved":false,"is_disabled":false,"rental_uris":{"android":"levelo://app?vid=b3e8803e-8034-428a-8320-029e0c789016","ios":"levelo://app?vid=b3e8803e-8034-428a-8320-029e0c789016"},"vehicle_type_id":"4","last_reported":1685783170,"current_range_meters":30000,"station_id":"ce4bgi92rcd13ifvqb90","pricing_plan_id":"free"},{"bike_id":"7665a9ea-680c-4dcd-8c32-425571b5e24f","system_id":"levelo_inurba_marseille","lat":43.299707,"lon":5.384859,"is_reserved":false,"is_disabled":false,"rental_uris":{"android":"levelo://app?vid=7665a9ea-680c-4dcd-8c32-425571b5e24f","ios":"levelo://app?vid=7665a9ea-680c-4dcd-8c32-425571b5e24f"},"vehicle_type_id":"4","last_reported":1685783170,"current_range_meters":0,"station_id":"ce4bgj92rcd13ifvqbd0","pricing_plan_id":"free"},{"bike_id":"74d83f5a-0a3b-4aeb-8264-0ddd82e6dc55","system_id":"levelo_inurba_marseille","lat":43.295279,"lon":5.375048,"is_reserved":false,"is_disabled":false,"rental_uris":{"android":"levelo://app?vid=74d83f5a-0a3b-4aeb-8264-0ddd82e6dc55","ios":"levelo://app?vid=74d83f5a-0a3b-4aeb-8264-0ddd82e6dc55"},"vehicle_type_id":"4","last_reported":1685783170,"current_range_meters":14000,"station_id":"ce4bgkp2rcd13ifvqbmg","pricing_plan_id":"free"},{"bike_id":"eb500a68-299c-4bfe-996b-c50aa893b955","system_id":"levelo_inurba_marseille","lat":43.32367,"lon":5.388836,"is_reserved":false,"is_disabled":false,"rental_uris":{"android":"levelo://app?vid=eb500a68-299c-4bfe-996b-c50aa893b955","ios":"levelo://app?vid=eb500a68-299c-4bfe-996b-c50aa893b955"},"vehicle_type_id":"4","last_reported":1685783170,"current_range_meters":31200,"station_id":"ce4bhqp2rcd13ifvqhog","pricing_plan_id":"free"},{"bike_id":"d9b3487e-4661-4b3b-a198-2212de300ca1","system_id":"levelo_inurba_marseille","lat":43.32363,"lon":5.38882,"is_reserved":false,"is_disabled":false,"rental_uris":{"android":"levelo://app?vid=d9b3487e-4661-4b3b-a198-2212de300ca1","ios":"levelo://app?vid=d9b3487e-4661-4b3b-a198-2212de300ca1"},"vehicle_type_id":"4","last_reported":1685783170,"current_range_meters":29200,"station_id":"ce4bhqp2rcd13ifvqhog","pricing_plan_id":"free"},{"bike_id":"2bf9f571-8ae5-431e-aedf-1c815125cefd","system_id":"levelo_inurba_marseille","lat":43.32367,"lon":5.388836,"is_reserved":false,"is_disabled":false,"rental_uris":{"android":"levelo://app?vid=2bf9f571-8ae5-431e-aedf-1c815125cefd","ios":"levelo://app?vid=2bf9f571-8ae5-431e-aedf-1c815125cefd"},"vehicle_type_id":"4","last_reported":1685783170,"current_range_meters":22400,"station_id":"ce4bhqp2rcd13ifvqhog","pricing_plan_id":"free"},{"bike_id":"0c7ce3fd-9fe0-458e-9687-20b832dfee04","system_id":"levelo_inurba_marseille","lat":43.32367,"lon":5.388836,"is_reserved":false,"is_disabled":false,"rental_uris":{"android":"levelo://app?vid=0c7ce3fd-9fe0-458e-9687-20b832dfee04","ios":"levelo://app?vid=0c7ce3fd-9fe0-458e-9687-20b832dfee04"},"vehicle_type_id":"4","last_reported":1685783170,"current_range_meters":31200,"station_id":"ce4bhqp2rcd13ifvqhog","pricing_plan_id":"free"},{"bike_id":"c89f5dd6-0689-4131-9bbf-aed6b6e41637","system_id":"levelo_inurba_marseille","lat":43.32367,"lon":5.388836,"is_reserved":false,"is_disabled":false,"rental_uris":{"android":"levelo://app?vid=c89f5dd6-0689-4131-9bbf-aed6b6e41637","ios":"levelo://app?vid=c89f5dd6-0689-4131-9bbf-aed6b6e41637"},"vehicle_type_id":"4","last_reported":1685783170,"current_range_meters":25200,"station_id":"ce4bhqp2rcd13ifvqhog","pricing_plan_id":"free"},{"bike_id":"c07fe0f2-772a-435f-9629-10108908cbeb","system_id":"levelo_inurba_marseille","lat":43.32367,"lon":5.388836,"is_reserved":false,"is_disabled":false,"rental_uris":{"android":"levelo://app?vid=c07fe0f2-772a-435f-9629-10108908cbeb","ios":"levelo://app?vid=c07fe0f2-772a-435f-9629-10108908cbeb"},"vehicle_type_id":"4","last_reported":1685783170,"current_range_meters":28400,"station_id":"ce4bhqp2rcd13ifvqhog","pricing_plan_id":"free"},{"bike_id":"90bbfd03-d00c-4933-b38d-99b5da852988","system_id":"levelo_inurba_marseille","lat":43.32367,"lon":5.388836,"is_reserved":false,"is_disabled":false,"rental_uris":{"android":"levelo://app?vid=90bbfd03-d00c-4933-b38d-99b5da852988","ios":"levelo://app?vid=90bbfd03-d00c-4933-b38d-99b5da852988"},"vehicle_type_id":"4","last_reported":1685783170,"current_range_meters":30800,"station_id":"ce4bhqp2rcd13ifvqhog","pricing_plan_id":"free"},{"bike_id":"89de6b20-c43a-4dd8-89d0-68075829fe85","system_id":"levelo_inurba_marseille","lat":43.32364,"lon":5.38895,"is_reserved":false,"is_disabled":false,"rental_uris":{"android":"levelo://app?vid=89de6b20-c43a-4dd8-89d0-68075829fe85","ios":"levelo://app?vid=89de6b20-c43a-4dd8-89d0-68075829fe85"},"vehicle_type_id":"4","last_reported":1685783170,"current_range_meters":31200,"station_id":"ce4bhqp2rcd13ifvqhog","pricing_plan_id":"free"},{"bike_id":"fc5b0ee9-b715-4b24-9e4d-d31521782752","system_id":"levelo_inurba_marseille","lat":43.29602,"lon":5.381084,"is_reserved":false,"is_disabled":false,"rental_uris":{"android":"levelo://app?vid=fc5b0ee9-b715-4b24-9e4d-d31521782752","ios":"levelo://app?vid=fc5b0ee9-b715-4b24-9e4d-d31521782752"},"vehicle_type_id":"4","last_reported":1685783170,"current_range_meters":31200,"station_id":"ce4bgl12rcd13ifvqbo0","pricing_plan_id":"free"},{"bike_id":"3583a9ee-b52c-4ca9-980e-8387658d7763","system_id":"levelo_inurba_marseille","lat":43.292749,"lon":5.368398,"is_reserved":false,"is_disabled":false,"rental_uris":{"android":"levelo://app?vid=3583a9ee-b52c-4ca9-980e-8387658d7763","ios":"levelo://app?vid=3583a9ee-b52c-4ca9-980e-8387658d7763"},"vehicle_type_id":"4","last_reported":1685783170,"current_range_meters":28400,"station_id":"ce4bhbp2rcd13ifvqesg","pricing_plan_id":"free"},{"bike_id":"8fee3968-1157-4215-8a7b-c3bfa1156684","system_id":"levelo_inurba_marseille","lat":43.29301,"lon":5.37459,"is_reserved":false,"is_disabled":false,"rental_uris":{"android":"levelo://app?vid=8fee3968-1157-4215-8a7b-c3bfa1156684","ios":"levelo://app?vid=8fee3968-1157-4215-8a7b-c3bfa1156684"},"vehicle_type_id":"4","last_reported":1685783170,"current_range_meters":24000,"station_id":"ce4bgi12rcd13ifvqb70","pricing_plan_id":"free"},{"bike_id":"1ff59ab5-acbc-4e96-b4e8-43384dc43a57","system_id":"levelo_inurba_marseille","lat":43.293009,"lon":5.374584,"is_reserved":false,"is_disabled":false,"rental_uris":{"android":"levelo://app?vid=1ff59ab5-acbc-4e96-b4e8-43384dc43a57","ios":"levelo://app?vid=1ff59ab5-acbc-4e96-b4e8-43384dc43a57"},"vehicle_type_id":"4","last_reported":1685783170,"current_range_meters":23600,"station_id":"ce4bgi12rcd13ifvqb70","pricing_plan_id":"free"},{"bike_id":"aafbfa7f-2f57-4616-b9e0-1436015e90f6","system_id":"levelo_inurba_marseille","lat":43.29505,"lon":5.38173,"is_reserved":false,"is_disabled":false,"rental_uris":{"android":"levelo://app?vid=aafbfa7f-2f57-4616-b9e0-1436015e90f6","ios":"levelo://app?vid=aafbfa7f-2f57-4616-b9e0-1436015e90f6"},"vehicle_type_id":"4","last_reported":1685783170,"current_range_meters":0,"station_id":"","pricing_plan_id":"free"},{"bike_id":"09e3540a-f505-4790-85b8-581355fa0959","system_id":"levelo_inurba_marseille","lat":43.30295,"lon":5.39206,"is_reserved":false,"is_disabled":false,"rental_uris":{"android":"levelo://app?vid=09e3540a-f505-4790-85b8-581355fa0959","ios":"levelo://app?vid=09e3540a-f505-4790-85b8-581355fa0959"},"vehicle_type_id":"4","last_reported":1685783170,"current_range_meters":24000,"station_id":"ce4bgkh2rcd13ifvqbk0","pricing_plan_id":"free"},{"bike_id":"36520f16-fa66-4aaf-b485-0ff9546ccc9d","system_id":"levelo_inurba_marseille","lat":43.2936,"lon":5.37835,"is_reserved":false,"is_disabled":false,"rental_uris":{"android":"levelo://app?vid=36520f16-fa66-4aaf-b485-0ff9546ccc9d","ios":"levelo://app?vid=36520f16-fa66-4aaf-b485-0ff9546ccc9d"},"vehicle_type_id":"4","last_reported":1685783170,"current_range_meters":29200,"station_id":"ce4bgjh2rcd13ifvqbf0","pricing_plan_id":"free"},{"bike_id":"f0abc2b8-3d30-4aa7-aa63-083bfe93577a","system_id":"levelo_inurba_marseille","lat":43.302992,"lon":5.392136,"is_reserved":false,"is_disabled":false,"rental_uris":{"android":"levelo://app?vid=f0abc2b8-3d30-4aa7-aa63-083bfe93577a","ios":"levelo://app?vid=f0abc2b8-3d30-4aa7-aa63-083bfe93577a"},"vehicle_type_id":"4","last_reported":1685783170,"current_range_meters":13600,"station_id":"ce4bgkh2rcd13ifvqbk0","pricing_plan_id":"free"},{"bike_id":"1eb4dc30-e135-477c-8212-059232d6b91f","system_id":"levelo_inurba_marseille","lat":43.292311,"lon":5.360731,"is_reserved":false,"is_disabled":false,"rental_uris":{"android":"levelo://app?vid=1eb4dc30-e135-477c-8212-059232d6b91f","ios":"levelo://app?vid=1eb4dc30-e135-477c-8212-059232d6b91f"},"vehicle_type_id":"4","last_reported":1685783170,"current_range_meters":21600,"station_id":"ce4bhbh2rcd13ifvqeqg","pricing_plan_id":"free"},{"bike_id":"504ed715-0bfe-4ed2-aa78-a14f1e639f79","system_id":"levelo_inurba_marseille","lat":43.300852,"lon":5.390859,"is_reserved":false,"is_disabled":false,"rental_uris":{"android":"levelo://app?vid=504ed715-0bfe-4ed2-aa78-a14f1e639f79","ios":"levelo://app?vid=504ed715-0bfe-4ed2-aa78-a14f1e639f79"},"vehicle_type_id":"4","last_reported":1685783170,"current_range_meters":19600,"station_id":"ce4bh192rcd13ifvqdb0","pricing_plan_id":"free"},{"bike_id":"16b483c7-2915-4e0b-ab7b-029b39918edc","system_id":"levelo_inurba_marseille","lat":43.292311,"lon":5.360731,"is_reserved":false,"is_disabled":false,"rental_uris":{"android":"levelo://app?vid=16b483c7-2915-4e0b-ab7b-029b39918edc","ios":"levelo://app?vid=16b483c7-2915-4e0b-ab7b-029b39918edc"},"vehicle_type_id":"4","last_reported":1685783170,"current_range_meters":30000,"station_id":"ce4bhbh2rcd13ifvqeqg","pricing_plan_id":"free"},{"bike_id":"a47c530f-e34a-4416-976e-befee4c4c25e","system_id":"levelo_inurba_marseille","lat":43.292311,"lon":5.360731,"is_reserved":false,"is_disabled":false,"rental_uris":{"android":"levelo://app?vid=a47c530f-e34a-4416-976e-befee4c4c25e","ios":"levelo://app?vid=a47c530f-e34a-4416-976e-befee4c4c25e"},"vehicle_type_id":"4","last_reported":1685783170,"current_range_meters":27600,"station_id":"ce4bhbh2rcd13ifvqeqg","pricing_plan_id":"free"},{"bike_id":"21e45557-e114-42e6-9093-b9ba94a8ad98","system_id":"levelo_inurba_marseille","lat":43.292311,"lon":5.360731,"is_reserved":false,"is_disabled":false,"rental_uris":{"android":"levelo://app?vid=21e45557-e114-42e6-9093-b9ba94a8ad98","ios":"levelo://app?vid=21e45557-e114-42e6-9093-b9ba94a8ad98"},"vehicle_type_id":"4","last_reported":1685783170,"current_range_meters":20800,"station_id":"ce4bhbh2rcd13ifvqeqg","pricing_plan_id":"free"},{"bike_id":"2b0b9a2d-7618-414a-a3de-f06150286bac","system_id":"levelo_inurba_marseille","lat":43.292311,"lon":5.360731,"is_reserved":false,"is_disabled":false,"rental_uris":{"android":"levelo://app?vid=2b0b9a2d-7618-414a-a3de-f06150286bac","ios":"levelo://app?vid=2b0b9a2d-7618-414a-a3de-f06150286bac"},"vehicle_type_id":"4","last_reported":1685783170,"current_range_meters":13200,"station_id":"ce4bhbh2rcd13ifvqeqg","pricing_plan_id":"free"},{"bike_id":"0e72294e-5b9a-494e-9ac2-05c1a6a34007","system_id":"levelo_inurba_marseille","lat":43.291994,"lon":5.357886,"is_reserved":false,"is_disabled":false,"rental_uris":{"android":"levelo://app?vid=0e72294e-5b9a-494e-9ac2-05c1a6a34007","ios":"levelo://app?vid=0e72294e-5b9a-494e-9ac2-05c1a6a34007"},"vehicle_type_id":"4","last_reported":1685783170,"current_range_meters":27600,"station_id":"ce4bhb12rcd13ifvqel0","pricing_plan_id":"free"},{"bike_id":"a87df47d-615d-48ca-be82-29e84a2124ba","system_id":"levelo_inurba_marseille","lat":43.3087,"lon":5.39635,"is_reserved":false,"is_disabled":false,"rental_uris":{"android":"levelo://app?vid=a87df47d-615d-48ca-be82-29e84a2124ba","ios":"levelo://app?vid=a87df47d-615d-48ca-be82-29e84a2124ba"},"vehicle_type_id":"4","last_reported":1685783170,"current_range_meters":24400,"station_id":"","pricing_plan_id":"free"},{"bike_id":"8b8d1e53-1f93-4e95-a15b-46277ff6be93","system_id":"levelo_inurba_marseille","lat":43.291994,"lon":5.357886,"is_reserved":false,"is_disabled":false,"rental_uris":{"android":"levelo://app?vid=8b8d1e53-1f93-4e95-a15b-46277ff6be93","ios":"levelo://app?vid=8b8d1e53-1f93-4e95-a15b-46277ff6be93"},"vehicle_type_id":"4","last_reported":1685783170,"current_range_meters":30400,"station_id":"ce4bhb12rcd13ifvqel0","pricing_plan_id":"free"},{"bike_id":"e230aa25-2c47-475e-8442-d49febfd35a4","system_id":"levelo_inurba_marseille","lat":43.291994,"lon":5.357886,"is_reserved":false,"is_disabled":false,"rental_uris":{"android":"levelo://app?vid=e230aa25-2c47-475e-8442-d49febfd35a4","ios":"levelo://app?vid=e230aa25-2c47-475e-8442-d49febfd35a4"},"vehicle_type_id":"4","last_reported":1685783170,"current_range_meters":31200,"station_id":"ce4bhb12rcd13ifvqel0","pricing_plan_id":"free"},{"bike_id":"81ab00b9-d1b7-4198-9bb6-9ccf1a855b40","system_id":"levelo_inurba_marseille","lat":43.309038,"lon":5.396546,"is_reserved":false,"is_disabled":false,"rental_uris":{"android":"levelo://app?vid=81ab00b9-d1b7-4198-9bb6-9ccf1a855b40","ios":"levelo://app?vid=81ab00b9-d1b7-4198-9bb6-9ccf1a855b40"},"vehicle_type_id":"4","last_reported":1685783170,"current_range_meters":27200,"station_id":"ce4bh012rcd13ifvqcv0","pricing_plan_id":"free"},{"bike_id":"4d6874c2-5be0-414b-b3af-9954f3ddae25","system_id":"levelo_inurba_marseille","lat":43.291994,"lon":5.357886,"is_reserved":false,"is_disabled":false,"rental_uris":{"android":"levelo://app?vid=4d6874c2-5be0-414b-b3af-9954f3ddae25","ios":"levelo://app?vid=4d6874c2-5be0-414b-b3af-9954f3ddae25"},"vehicle_type_id":"4","last_reported":1685783170,"current_range_meters":24800,"station_id":"ce4bhb12rcd13ifvqel0","pricing_plan_id":"free"},{"bike_id":"61e31cf3-0a65-4e33-97d8-ad9053102ce7","system_id":"levelo_inurba_marseille","lat":43.291994,"lon":5.357886,"is_reserved":false,"is_disabled":false,"rental_uris":{"android":"levelo://app?vid=61e31cf3-0a65-4e33-97d8-ad9053102ce7","ios":"levelo://app?vid=61e31cf3-0a65-4e33-97d8-ad9053102ce7"},"vehicle_type_id":"4","last_reported":1685783170,"current_range_meters":30400,"station_id":"ce4bhb12rcd13ifvqel0","pricing_plan_id":"free"},{"bike_id":"58abd3ee-619f-45a4-b5fd-a5e55359fdc8","system_id":"levelo_inurba_marseille","lat":43.308794,"lon":5.396522,"is_reserved":false,"is_disabled":false,"rental_uris":{"android":"levelo://app?vid=58abd3ee-619f-45a4-b5fd-a5e55359fdc8","ios":"levelo://app?vid=58abd3ee-619f-45a4-b5fd-a5e55359fdc8"},"vehicle_type_id":"4","last_reported":1685783170,"current_range_meters":13600,"station_id":"","pricing_plan_id":"free"},{"bike_id":"ea2f9dc6-753a-4bea-8805-3fa0f0add69a","system_id":"levelo_inurba_marseille","lat":43.309038,"lon":5.396546,"is_reserved":false,"is_disabled":false,"rental_uris":{"android":"levelo://app?vid=ea2f9dc6-753a-4bea-8805-3fa0f0add69a","ios":"levelo://app?vid=ea2f9dc6-753a-4bea-8805-3fa0f0add69a"},"vehicle_type_id":"4","last_reported":1685783170,"current_range_meters":27200,"station_id":"ce4bh012rcd13ifvqcv0","pricing_plan_id":"free"},{"bike_id":"deefd0db-a4b2-4577-9a3a-feaefe262b9b","system_id":"levelo_inurba_marseille","lat":43.29529,"lon":5.385581,"is_reserved":false,"is_disabled":false,"rental_uris":{"android":"levelo://app?vid=deefd0db-a4b2-4577-9a3a-feaefe262b9b","ios":"levelo://app?vid=deefd0db-a4b2-4577-9a3a-feaefe262b9b"},"vehicle_type_id":"4","last_reported":1685783170,"current_range_meters":25200,"station_id":"ce4bgih2rcd13ifvqba0","pricing_plan_id":"free"},{"bike_id":"aadc5593-ffa3-43fa-aa81-4c79b09ff076","system_id":"levelo_inurba_marseille","lat":43.29529,"lon":5.385581,"is_reserved":false,"is_disabled":false,"rental_uris":{"android":"levelo://app?vid=aadc5593-ffa3-43fa-aa81-4c79b09ff076","ios":"levelo://app?vid=aadc5593-ffa3-43fa-aa81-4c79b09ff076"},"vehicle_type_id":"4","last_reported":1685783170,"current_range_meters":11600,"station_id":"ce4bgih2rcd13ifvqba0","pricing_plan_id":"free"},{"bike_id":"18effcc1-a981-4fe4-b71f-0aa489e40f20","system_id":"levelo_inurba_marseille","lat":43.29529,"lon":5.385581,"is_reserved":false,"is_disabled":false,"rental_uris":{"android":"levelo://app?vid=18effcc1-a981-4fe4-b71f-0aa489e40f20","ios":"levelo://app?vid=18effcc1-a981-4fe4-b71f-0aa489e40f20"},"vehicle_type_id":"4","last_reported":1685783170,"current_range_meters":20800,"station_id":"ce4bgih2rcd13ifvqba0","pricing_plan_id":"free"},{"bike_id":"a1d588f9-8125-4a8f-9f59-c1cf1bdc5430","system_id":"levelo_inurba_marseille","lat":43.32825,"lon":5.38907,"is_reserved":false,"is_disabled":false,"rental_uris":{"android":"levelo://app?vid=a1d588f9-8125-4a8f-9f59-c1cf1bdc5430","ios":"levelo://app?vid=a1d588f9-8125-4a8f-9f59-c1cf1bdc5430"},"vehicle_type_id":"4","last_reported":1685783170,"current_range_meters":17600,"station_id":"","pricing_plan_id":"free"},{"bike_id":"0f239cf1-c727-4ccd-8bea-dd39f90c1ffb","system_id":"levelo_inurba_marseille","lat":43.29412,"lon":5.38631,"is_reserved":false,"is_disabled":false,"rental_uris":{"android":"levelo://app?vid=0f239cf1-c727-4ccd-8bea-dd39f90c1ffb","ios":"levelo://app?vid=0f239cf1-c727-4ccd-8bea-dd39f90c1ffb"},"vehicle_type_id":"4","last_reported":1685783170,"current_range_meters":23200,"station_id":"ce4bh2h2rcd13ifvqdh0","pricing_plan_id":"free"},{"bike_id":"b1e3c3d4-5871-4233-95ad-2225dc348e76","system_id":"levelo_inurba_marseille","lat":43.292732,"lon":5.384388,"is_reserved":false,"is_disabled":false,"rental_uris":{"android":"levelo://app?vid=b1e3c3d4-5871-4233-95ad-2225dc348e76","ios":"levelo://app?vid=b1e3c3d4-5871-4233-95ad-2225dc348e76"},"vehicle_type_id":"4","last_reported":1685783170,"current_range_meters":0,"station_id":"","pricing_plan_id":"free"},{"bike_id":"4404d1f7-aab9-426c-ae40-846edf79cfd6","system_id":"levelo_inurba_marseille","lat":43.304296,"lon":5.397513,"is_reserved":false,"is_disabled":false,"rental_uris":{"android":"levelo://app?vid=4404d1f7-aab9-426c-ae40-846edf79cfd6","ios":"levelo://app?vid=4404d1f7-aab9-426c-ae40-846edf79cfd6"},"vehicle_type_id":"4","last_reported":1685783170,"current_range_meters":28000,"station_id":"ce4bh092rcd13ifvqd20","pricing_plan_id":"free"},{"bike_id":"d9acb635-916c-465a-8585-220dcff34ea3","system_id":"levelo_inurba_marseille","lat":43.304296,"lon":5.397513,"is_reserved":false,"is_disabled":false,"rental_uris":{"android":"levelo://app?vid=d9acb635-916c-465a-8585-220dcff34ea3","ios":"levelo://app?vid=d9acb635-916c-465a-8585-220dcff34ea3"},"vehicle_type_id":"4","last_reported":1685783170,"current_range_meters":16000,"station_id":"ce4bh092rcd13ifvqd20","pricing_plan_id":"free"},{"bike_id":"5cbcf543-d288-404c-bac6-328ef38ba2d8","system_id":"levelo_inurba_marseille","lat":43.33039,"lon":5.3892,"is_reserved":false,"is_disabled":false,"rental_uris":{"android":"levelo://app?vid=5cbcf543-d288-404c-bac6-328ef38ba2d8","ios":"levelo://app?vid=5cbcf543-d288-404c-bac6-328ef38ba2d8"},"vehicle_type_id":"4","last_reported":1685783170,"current_range_meters":24400,"station_id":"ce4bhr92rcd13ifvqhrg","pricing_plan_id":"free"},{"bike_id":"05f1a2c7-d830-495c-86b8-292585194459","system_id":"levelo_inurba_marseille","lat":43.3304,"lon":5.38919,"is_reserved":false,"is_disabled":false,"rental_uris":{"android":"levelo://app?vid=05f1a2c7-d830-495c-86b8-292585194459","ios":"levelo://app?vid=05f1a2c7-d830-495c-86b8-292585194459"},"vehicle_type_id":"4","last_reported":1685783170,"current_range_meters":23600,"station_id":"ce4bhr92rcd13ifvqhrg","pricing_plan_id":"free"},{"bike_id":"2d37238d-c9df-4c7c-a8f7-fced896bdd84","system_id":"levelo_inurba_marseille","lat":43.33041,"lon":5.38921,"is_reserved":false,"is_disabled":false,"rental_uris":{"android":"levelo://app?vid=2d37238d-c9df-4c7c-a8f7-fced896bdd84","ios":"levelo://app?vid=2d37238d-c9df-4c7c-a8f7-fced896bdd84"},"vehicle_type_id":"4","last_reported":1685783170,"current_range_meters":26400,"station_id":"ce4bhr92rcd13ifvqhrg","pricing_plan_id":"free"},{"bike_id":"2364282a-cb9d-46e5-8a93-f3855a133753","system_id":"levelo_inurba_marseille","lat":43.330427,"lon":5.38921,"is_reserved":false,"is_disabled":false,"rental_uris":{"android":"levelo://app?vid=2364282a-cb9d-46e5-8a93-f3855a133753","ios":"levelo://app?vid=2364282a-cb9d-46e5-8a93-f3855a133753"},"vehicle_type_id":"4","last_reported":1685783170,"current_range_meters":20800,"station_id":"ce4bhr92rcd13ifvqhrg","pricing_plan_id":"free"},{"bike_id":"5ecedf9d-3eeb-4829-b15a-334235e0aa8e","system_id":"levelo_inurba_marseille","lat":43.290104,"lon":5.356111,"is_reserved":false,"is_disabled":false,"rental_uris":{"android":"levelo://app?vid=5ecedf9d-3eeb-4829-b15a-334235e0aa8e","ios":"levelo://app?vid=5ecedf9d-3eeb-4829-b15a-334235e0aa8e"},"vehicle_type_id":"4","last_reported":1685783170,"current_range_meters":30400,"station_id":"ce4bhb92rcd13ifvqen0","pricing_plan_id":"free"},{"bike_id":"f2526d99-c8e4-48ef-8d03-8bd72163075a","system_id":"levelo_inurba_marseille","lat":43.28999,"lon":5.35604,"is_reserved":false,"is_disabled":false,"rental_uris":{"android":"levelo://app?vid=f2526d99-c8e4-48ef-8d03-8bd72163075a","ios":"levelo://app?vid=f2526d99-c8e4-48ef-8d03-8bd72163075a"},"vehicle_type_id":"4","last_reported":1685783170,"current_range_meters":30000,"station_id":"ce4bhb92rcd13ifvqen0","pricing_plan_id":"free"},{"bike_id":"a61064aa-d351-4e05-9b05-018fe01e36f0","system_id":"levelo_inurba_marseille","lat":43.29092,"lon":5.38146,"is_reserved":false,"is_disabled":false,"rental_uris":{"android":"levelo://app?vid=a61064aa-d351-4e05-9b05-018fe01e36f0","ios":"levelo://app?vid=a61064aa-d351-4e05-9b05-018fe01e36f0"},"vehicle_type_id":"4","last_reported":1685783170,"current_range_meters":31200,"station_id":"ce4bh512rcd13ifvqe2g","pricing_plan_id":"free"},{"bike_id":"78a25bca-0906-494e-9ccb-79295b000480","system_id":"levelo_inurba_marseille","lat":43.33745,"lon":5.37431,"is_reserved":false,"is_disabled":false,"rental_uris":{"android":"levelo://app?vid=78a25bca-0906-494e-9ccb-79295b000480","ios":"levelo://app?vid=78a25bca-0906-494e-9ccb-79295b000480"},"vehicle_type_id":"4","last_reported":1685783170,"current_range_meters":10400,"station_id":"","pricing_plan_id":"free"},{"bike_id":"09044982-2e58-4a53-993c-2701ccdb63d8","system_id":"levelo_inurba_marseille","lat":43.33749,"lon":5.37457,"is_reserved":false,"is_disabled":false,"rental_uris":{"android":"levelo://app?vid=09044982-2e58-4a53-993c-2701ccdb63d8","ios":"levelo://app?vid=09044982-2e58-4a53-993c-2701ccdb63d8"},"vehicle_type_id":"4","last_reported":1685783170,"current_range_meters":16800,"station_id":"","pricing_plan_id":"free"},{"bike_id":"3e578fb9-8446-4fdf-b645-459355259612","system_id":"levelo_inurba_marseille","lat":43.337518,"lon":5.374745,"is_reserved":false,"is_disabled":false,"rental_uris":{"android":"levelo://app?vid=3e578fb9-8446-4fdf-b645-459355259612","ios":"levelo://app?vid=3e578fb9-8446-4fdf-b645-459355259612"},"vehicle_type_id":"4","last_reported":1685783170,"current_range_meters":30400,"station_id":"","pricing_plan_id":"free"},{"bike_id":"0113e38e-96e8-443e-8ffa-9a4f8c786a1e","system_id":"levelo_inurba_marseille","lat":43.33758,"lon":5.37438,"is_reserved":false,"is_disabled":false,"rental_uris":{"android":"levelo://app?vid=0113e38e-96e8-443e-8ffa-9a4f8c786a1e","ios":"levelo://app?vid=0113e38e-96e8-443e-8ffa-9a4f8c786a1e"},"vehicle_type_id":"4","last_reported":1685783170,"current_range_meters":21600,"station_id":"","pricing_plan_id":"free"},{"bike_id":"9d1dcca5-8c40-4357-a3d8-707dd9f3c91e","system_id":"levelo_inurba_marseille","lat":43.30655,"lon":5.40099,"is_reserved":false,"is_disabled":false,"rental_uris":{"android":"levelo://app?vid=9d1dcca5-8c40-4357-a3d8-707dd9f3c91e","ios":"levelo://app?vid=9d1dcca5-8c40-4357-a3d8-707dd9f3c91e"},"vehicle_type_id":"4","last_reported":1685783170,"current_range_meters":16400,"station_id":"ce4bh112rcd13ifvqda0","pricing_plan_id":"free"},{"bike_id":"cf0caa37-cec8-408b-98f7-37211a80813c","system_id":"levelo_inurba_marseille","lat":43.33776,"lon":5.37422,"is_reserved":false,"is_disabled":false,"rental_uris":{"android":"levelo://app?vid=cf0caa37-cec8-408b-98f7-37211a80813c","ios":"levelo://app?vid=cf0caa37-cec8-408b-98f7-37211a80813c"},"vehicle_type_id":"4","last_reported":1685783170,"current_range_meters":25600,"station_id":"","pricing_plan_id":"free"},{"bike_id":"731ca55e-8b0d-406f-94a0-d68ab6513784","system_id":"levelo_inurba_marseille","lat":43.30131,"lon":5.39872,"is_reserved":false,"is_disabled":false,"rental_uris":{"android":"levelo://app?vid=731ca55e-8b0d-406f-94a0-d68ab6513784","ios":"levelo://app?vid=731ca55e-8b0d-406f-94a0-d68ab6513784"},"vehicle_type_id":"4","last_reported":1685783170,"current_range_meters":24400,"station_id":"ce4bh0h2rcd13ifvqd40","pricing_plan_id":"free"},{"bike_id":"b3257a43-6bd4-4243-999a-0a9d137039a9","system_id":"levelo_inurba_marseille","lat":43.29871,"lon":5.39734,"is_reserved":false,"is_disabled":false,"rental_uris":{"android":"levelo://app?vid=b3257a43-6bd4-4243-999a-0a9d137039a9","ios":"levelo://app?vid=b3257a43-6bd4-4243-999a-0a9d137039a9"},"vehicle_type_id":"4","last_reported":1685783170,"current_range_meters":28000,"station_id":"ce4bh0h2rcd13ifvqd50","pricing_plan_id":"free"},{"bike_id":"73a46448-0260-49b0-a18b-c8aca0b3d05a","system_id":"levelo_inurba_marseille","lat":43.295213,"lon":5.393962,"is_reserved":false,"is_disabled":false,"rental_uris":{"android":"levelo://app?vid=73a46448-0260-49b0-a18b-c8aca0b3d05a","ios":"levelo://app?vid=73a46448-0260-49b0-a18b-c8aca0b3d05a"},"vehicle_type_id":"4","last_reported":1685783170,"current_range_meters":0,"station_id":"ce4bh292rcd13ifvqdf0","pricing_plan_id":"free"},{"bike_id":"ad624e12-e913-4400-8b1c-d8be591294f7","system_id":"levelo_inurba_marseille","lat":43.285848,"lon":5.350787,"is_reserved":false,"is_disabled":false,"rental_uris":{"android":"levelo://app?vid=ad624e12-e913-4400-8b1c-d8be591294f7","ios":"levelo://app?vid=ad624e12-e913-4400-8b1c-d8be591294f7"},"vehicle_type_id":"4","last_reported":1685783170,"current_range_meters":30000,"station_id":"ce4bhch2rcd13ifvqeug","pricing_plan_id":"free"},{"bike_id":"f942940d-2614-45f1-862e-cfe811cc5fdd","system_id":"levelo_inurba_marseille","lat":43.285848,"lon":5.350787,"is_reserved":false,"is_disabled":false,"rental_uris":{"android":"levelo://app?vid=f942940d-2614-45f1-862e-cfe811cc5fdd","ios":"levelo://app?vid=f942940d-2614-45f1-862e-cfe811cc5fdd"},"vehicle_type_id":"4","last_reported":1685783170,"current_range_meters":31200,"station_id":"ce4bhch2rcd13ifvqeug","pricing_plan_id":"free"},{"bike_id":"fea3f320-bf0e-4eb9-a41c-05fca5a72d5b","system_id":"levelo_inurba_marseille","lat":43.285848,"lon":5.350787,"is_reserved":false,"is_disabled":false,"rental_uris":{"android":"levelo://app?vid=fea3f320-bf0e-4eb9-a41c-05fca5a72d5b","ios":"levelo://app?vid=fea3f320-bf0e-4eb9-a41c-05fca5a72d5b"},"vehicle_type_id":"4","last_reported":1685783170,"current_range_meters":29600,"station_id":"ce4bhch2rcd13ifvqeug","pricing_plan_id":"free"},{"bike_id":"1ca59d94-7d60-431d-863c-8397111a1fd5","system_id":"levelo_inurba_marseille","lat":43.285848,"lon":5.350787,"is_reserved":false,"is_disabled":false,"rental_uris":{"android":"levelo://app?vid=1ca59d94-7d60-431d-863c-8397111a1fd5","ios":"levelo://app?vid=1ca59d94-7d60-431d-863c-8397111a1fd5"},"vehicle_type_id":"4","last_reported":1685783170,"current_range_meters":26400,"station_id":"ce4bhch2rcd13ifvqeug","pricing_plan_id":"free"},{"bike_id":"d0f4f0d5-d67f-4b16-bbf2-159f98297b1d","system_id":"levelo_inurba_marseille","lat":43.286151,"lon":5.350985,"is_reserved":false,"is_disabled":false,"rental_uris":{"android":"levelo://app?vid=d0f4f0d5-d67f-4b16-bbf2-159f98297b1d","ios":"levelo://app?vid=d0f4f0d5-d67f-4b16-bbf2-159f98297b1d"},"vehicle_type_id":"4","last_reported":1685783170,"current_range_meters":26400,"station_id":"","pricing_plan_id":"free"},{"bike_id":"5f8b3cef-8de5-4c81-9442-d21218ef4b71","system_id":"levelo_inurba_marseille","lat":43.285848,"lon":5.350787,"is_reserved":false,"is_disabled":false,"rental_uris":{"android":"levelo://app?vid=5f8b3cef-8de5-4c81-9442-d21218ef4b71","ios":"levelo://app?vid=5f8b3cef-8de5-4c81-9442-d21218ef4b71"},"vehicle_type_id":"4","last_reported":1685783170,"current_range_meters":24400,"station_id":"ce4bhch2rcd13ifvqeug","pricing_plan_id":"free"},{"bike_id":"a726f329-788f-4458-bf39-e389a50529fa","system_id":"levelo_inurba_marseille","lat":43.28611,"lon":5.35101,"is_reserved":false,"is_disabled":false,"rental_uris":{"android":"levelo://app?vid=a726f329-788f-4458-bf39-e389a50529fa","ios":"levelo://app?vid=a726f329-788f-4458-bf39-e389a50529fa"},"vehicle_type_id":"4","last_reported":1685783170,"current_range_meters":6800,"station_id":"","pricing_plan_id":"free"},{"bike_id":"a715d8cf-1d26-4e55-9680-444cbbd689bb","system_id":"levelo_inurba_marseille","lat":43.285856,"lon":5.350771,"is_reserved":false,"is_disabled":false,"rental_uris":{"android":"levelo://app?vid=a715d8cf-1d26-4e55-9680-444cbbd689bb","ios":"levelo://app?vid=a715d8cf-1d26-4e55-9680-444cbbd689bb"},"vehicle_type_id":"4","last_reported":1685783170,"current_range_meters":24800,"station_id":"ce4bhch2rcd13ifvqeug","pricing_plan_id":"free"},{"bike_id":"0a8aba60-b51b-427d-be66-8709066b23d1","system_id":"levelo_inurba_marseille","lat":43.33149,"lon":5.39819,"is_reserved":false,"is_disabled":false,"rental_uris":{"android":"levelo://app?vid=0a8aba60-b51b-427d-be66-8709066b23d1","ios":"levelo://app?vid=0a8aba60-b51b-427d-be66-8709066b23d1"},"vehicle_type_id":"4","last_reported":1685783170,"current_range_meters":30000,"station_id":"","pricing_plan_id":"free"},{"bike_id":"b205e703-9cc6-479d-b47b-dcec15459f4d","system_id":"levelo_inurba_marseille","lat":43.32699,"lon":5.40374,"is_reserved":false,"is_disabled":false,"rental_uris":{"android":"levelo://app?vid=b205e703-9cc6-479d-b47b-dcec15459f4d","ios":"levelo://app?vid=b205e703-9cc6-479d-b47b-dcec15459f4d"},"vehicle_type_id":"4","last_reported":1685783170,"current_range_meters":18000,"station_id":"","pricing_plan_id":"free"},{"bike_id":"0a1605d6-87c9-472d-8606-00b4cb8bcbb4","system_id":"levelo_inurba_marseille","lat":43.32329,"lon":5.4061,"is_reserved":false,"is_disabled":false,"rental_uris":{"android":"levelo://app?vid=0a1605d6-87c9-472d-8606-00b4cb8bcbb4","ios":"levelo://app?vid=0a1605d6-87c9-472d-8606-00b4cb8bcbb4"},"vehicle_type_id":"4","last_reported":1685783170,"current_range_meters":16000,"station_id":"ce4bhq92rcd13ifvqhjg","pricing_plan_id":"free"},{"bike_id":"aa08b9dd-d773-4e57-be49-da7ea883ab6b","system_id":"levelo_inurba_marseille","lat":43.32333,"lon":5.4062,"is_reserved":false,"is_disabled":false,"rental_uris":{"android":"levelo://app?vid=aa08b9dd-d773-4e57-be49-da7ea883ab6b","ios":"levelo://app?vid=aa08b9dd-d773-4e57-be49-da7ea883ab6b"},"vehicle_type_id":"4","last_reported":1685783170,"current_range_meters":26400,"station_id":"ce4bhq92rcd13ifvqhjg","pricing_plan_id":"free"},{"bike_id":"289ad4d2-234a-4e6e-a28b-e186271f648c","system_id":"levelo_inurba_marseille","lat":43.28428,"lon":5.34991,"is_reserved":false,"is_disabled":false,"rental_uris":{"android":"levelo://app?vid=289ad4d2-234a-4e6e-a28b-e186271f648c","ios":"levelo://app?vid=289ad4d2-234a-4e6e-a28b-e186271f648c"},"vehicle_type_id":"4","last_reported":1685783170,"current_range_meters":27600,"station_id":"ce4bhbh2rcd13ifvqepg","pricing_plan_id":"free"},{"bike_id":"bfa5803a-60c1-4d27-8744-bcab9b20e932","system_id":"levelo_inurba_marseille","lat":43.284219,"lon":5.3497,"is_reserved":false,"is_disabled":false,"rental_uris":{"android":"levelo://app?vid=bfa5803a-60c1-4d27-8744-bcab9b20e932","ios":"levelo://app?vid=bfa5803a-60c1-4d27-8744-bcab9b20e932"},"vehicle_type_id":"4","last_reported":1685783170,"current_range_meters":29200,"station_id":"ce4bhbh2rcd13ifvqepg","pricing_plan_id":"free"},{"bike_id":"116371d7-297f-4354-b067-2b57f496b55b","system_id":"levelo_inurba_marseille","lat":43.284217,"lon":5.349697,"is_reserved":false,"is_disabled":false,"rental_uris":{"android":"levelo://app?vid=116371d7-297f-4354-b067-2b57f496b55b","ios":"levelo://app?vid=116371d7-297f-4354-b067-2b57f496b55b"},"vehicle_type_id":"4","last_reported":1685783170,"current_range_meters":30000,"station_id":"ce4bhbh2rcd13ifvqepg","pricing_plan_id":"free"},{"bike_id":"ad1d5e82-6800-4527-b5fc-d74942c85715","system_id":"levelo_inurba_marseille","lat":43.28422,"lon":5.34984,"is_reserved":false,"is_disabled":false,"rental_uris":{"android":"levelo://app?vid=ad1d5e82-6800-4527-b5fc-d74942c85715","ios":"levelo://app?vid=ad1d5e82-6800-4527-b5fc-d74942c85715"},"vehicle_type_id":"4","last_reported":1685783170,"current_range_meters":30000,"station_id":"ce4bhbh2rcd13ifvqepg","pricing_plan_id":"free"},{"bike_id":"6b26d359-6b37-4b3d-8503-3149bec908dc","system_id":"levelo_inurba_marseille","lat":43.284217,"lon":5.349697,"is_reserved":false,"is_disabled":false,"rental_uris":{"android":"levelo://app?vid=6b26d359-6b37-4b3d-8503-3149bec908dc","ios":"levelo://app?vid=6b26d359-6b37-4b3d-8503-3149bec908dc"},"vehicle_type_id":"4","last_reported":1685783170,"current_range_meters":31200,"station_id":"ce4bhbh2rcd13ifvqepg","pricing_plan_id":"free"},{"bike_id":"13aa3667-a778-4e64-9805-3153f92202ff","system_id":"levelo_inurba_marseille","lat":43.28423,"lon":5.34964,"is_reserved":false,"is_disabled":false,"rental_uris":{"android":"levelo://app?vid=13aa3667-a778-4e64-9805-3153f92202ff","ios":"levelo://app?vid=13aa3667-a778-4e64-9805-3153f92202ff"},"vehicle_type_id":"4","last_reported":1685783170,"current_range_meters":0,"station_id":"ce4bhbh2rcd13ifvqepg","pricing_plan_id":"free"},{"bike_id":"fee7ee8b-9689-499f-bb2f-50348ebe565b","system_id":"levelo_inurba_marseille","lat":43.284187,"lon":5.34971,"is_reserved":false,"is_disabled":false,"rental_uris":{"android":"levelo://app?vid=fee7ee8b-9689-499f-bb2f-50348ebe565b","ios":"levelo://app?vid=fee7ee8b-9689-499f-bb2f-50348ebe565b"},"vehicle_type_id":"4","last_reported":1685783170,"current_range_meters":18000,"station_id":"ce4bhbh2rcd13ifvqepg","pricing_plan_id":"free"},{"bike_id":"d506fa9e-6a97-4646-a460-64271e1f4de8","system_id":"levelo_inurba_marseille","lat":43.284219,"lon":5.3497,"is_reserved":false,"is_disabled":false,"rental_uris":{"android":"levelo://app?vid=d506fa9e-6a97-4646-a460-64271e1f4de8","ios":"levelo://app?vid=d506fa9e-6a97-4646-a460-64271e1f4de8"},"vehicle_type_id":"4","last_reported":1685783170,"current_range_meters":24000,"station_id":"ce4bhbh2rcd13ifvqepg","pricing_plan_id":"free"},{"bike_id":"42dc2367-9e14-4530-88af-d0923030e904","system_id":"levelo_inurba_marseille","lat":43.284219,"lon":5.3497,"is_reserved":false,"is_disabled":false,"rental_uris":{"android":"levelo://app?vid=42dc2367-9e14-4530-88af-d0923030e904","ios":"levelo://app?vid=42dc2367-9e14-4530-88af-d0923030e904"},"vehicle_type_id":"4","last_reported":1685783170,"current_range_meters":24000,"station_id":"ce4bhbh2rcd13ifvqepg","pricing_plan_id":"free"},{"bike_id":"3c479030-6e64-477a-a009-56ff6667c185","system_id":"levelo_inurba_marseille","lat":43.284219,"lon":5.3497,"is_reserved":false,"is_disabled":false,"rental_uris":{"android":"levelo://app?vid=3c479030-6e64-477a-a009-56ff6667c185","ios":"levelo://app?vid=3c479030-6e64-477a-a009-56ff6667c185"},"vehicle_type_id":"4","last_reported":1685783170,"current_range_meters":25600,"station_id":"ce4bhbh2rcd13ifvqepg","pricing_plan_id":"free"},{"bike_id":"25711eb5-19a9-4179-9699-4588f7b9bd59","system_id":"levelo_inurba_marseille","lat":43.284219,"lon":5.3497,"is_reserved":false,"is_disabled":false,"rental_uris":{"android":"levelo://app?vid=25711eb5-19a9-4179-9699-4588f7b9bd59","ios":"levelo://app?vid=25711eb5-19a9-4179-9699-4588f7b9bd59"},"vehicle_type_id":"4","last_reported":1685783170,"current_range_meters":10000,"station_id":"ce4bhbh2rcd13ifvqepg","pricing_plan_id":"free"},{"bike_id":"ab25a64e-6a53-4c82-9263-0dba65e52678","system_id":"levelo_inurba_marseille","lat":43.28265,"lon":5.35054,"is_reserved":false,"is_disabled":false,"rental_uris":{"android":"levelo://app?vid=ab25a64e-6a53-4c82-9263-0dba65e52678","ios":"levelo://app?vid=ab25a64e-6a53-4c82-9263-0dba65e52678"},"vehicle_type_id":"4","last_reported":1685783170,"current_range_meters":25200,"station_id":"ce4bhbp2rcd13ifvqerg","pricing_plan_id":"free"},{"bike_id":"da128dca-d779-4a26-83a3-7b30955badda","system_id":"levelo_inurba_marseille","lat":43.28264,"lon":5.35055,"is_reserved":false,"is_disabled":false,"rental_uris":{"android":"levelo://app?vid=da128dca-d779-4a26-83a3-7b30955badda","ios":"levelo://app?vid=da128dca-d779-4a26-83a3-7b30955badda"},"vehicle_type_id":"4","last_reported":1685783170,"current_range_meters":29600,"station_id":"ce4bhbp2rcd13ifvqerg","pricing_plan_id":"free"},{"bike_id":"a0ca22df-316c-4b64-a37c-593055867110","system_id":"levelo_inurba_marseille","lat":43.28039,"lon":5.369297,"is_reserved":false,"is_disabled":false,"rental_uris":{"android":"levelo://app?vid=a0ca22df-316c-4b64-a37c-593055867110","ios":"levelo://app?vid=a0ca22df-316c-4b64-a37c-593055867110"},"vehicle_type_id":"4","last_reported":1685783170,"current_range_meters":6400,"station_id":"ce4bha12rcd13ifvqef0","pricing_plan_id":"free"},{"bike_id":"99cee887-5962-410e-88d7-8fe1c9b712db","system_id":"levelo_inurba_marseille","lat":43.281044,"lon":5.378308,"is_reserved":false,"is_disabled":false,"rental_uris":{"android":"levelo://app?vid=99cee887-5962-410e-88d7-8fe1c9b712db","ios":"levelo://app?vid=99cee887-5962-410e-88d7-8fe1c9b712db"},"vehicle_type_id":"4","last_reported":1685783170,"current_range_meters":13200,"station_id":"ce4bha12rcd13ifvqee0","pricing_plan_id":"free"},{"bike_id":"3efd5bb8-38bc-4da5-8ddd-cd2140a971c2","system_id":"levelo_inurba_marseille","lat":43.281044,"lon":5.378308,"is_reserved":false,"is_disabled":false,"rental_uris":{"android":"levelo://app?vid=3efd5bb8-38bc-4da5-8ddd-cd2140a971c2","ios":"levelo://app?vid=3efd5bb8-38bc-4da5-8ddd-cd2140a971c2"},"vehicle_type_id":"4","last_reported":1685783170,"current_range_meters":26400,"station_id":"ce4bha12rcd13ifvqee0","pricing_plan_id":"free"},{"bike_id":"4e5a2f24-6cff-4b00-b622-2cd1c67427c7","system_id":"levelo_inurba_marseille","lat":43.304188,"lon":5.412904,"is_reserved":false,"is_disabled":false,"rental_uris":{"android":"levelo://app?vid=4e5a2f24-6cff-4b00-b622-2cd1c67427c7","ios":"levelo://app?vid=4e5a2f24-6cff-4b00-b622-2cd1c67427c7"},"vehicle_type_id":"4","last_reported":1685783170,"current_range_meters":800,"station_id":"ce4bhop2rcd13ifvqh8g","pricing_plan_id":"free"},{"bike_id":"ecc99947-5ed1-4bd2-84ee-04505db5300d","system_id":"levelo_inurba_marseille","lat":43.27901,"lon":5.38009,"is_reserved":false,"is_disabled":false,"rental_uris":{"android":"levelo://app?vid=ecc99947-5ed1-4bd2-84ee-04505db5300d","ios":"levelo://app?vid=ecc99947-5ed1-4bd2-84ee-04505db5300d"},"vehicle_type_id":"4","last_reported":1685783170,"current_range_meters":1600,"station_id":"","pricing_plan_id":"free"},{"bike_id":"dc2be0d6-7fb1-4bee-9b18-fe44f819a30a","system_id":"levelo_inurba_marseille","lat":43.27908,"lon":5.38282,"is_reserved":false,"is_disabled":false,"rental_uris":{"android":"levelo://app?vid=dc2be0d6-7fb1-4bee-9b18-fe44f819a30a","ios":"levelo://app?vid=dc2be0d6-7fb1-4bee-9b18-fe44f819a30a"},"vehicle_type_id":"4","last_reported":1685783170,"current_range_meters":29200,"station_id":"","pricing_plan_id":"free"},{"bike_id":"dbd59bb5-4546-46b0-a8dc-06c10e317f40","system_id":"levelo_inurba_marseille","lat":43.320045,"lon":5.415046,"is_reserved":false,"is_disabled":false,"rental_uris":{"android":"levelo://app?vid=dbd59bb5-4546-46b0-a8dc-06c10e317f40","ios":"levelo://app?vid=dbd59bb5-4546-46b0-a8dc-06c10e317f40"},"vehicle_type_id":"4","last_reported":1685783170,"current_range_meters":22000,"station_id":"ce4bhq92rcd13ifvqhkg","pricing_plan_id":"free"},{"bike_id":"3e4b0161-6deb-4f2f-9446-bd5731c1ed2e","system_id":"levelo_inurba_marseille","lat":43.325233,"lon":5.414318,"is_reserved":false,"is_disabled":false,"rental_uris":{"android":"levelo://app?vid=3e4b0161-6deb-4f2f-9446-bd5731c1ed2e","ios":"levelo://app?vid=3e4b0161-6deb-4f2f-9446-bd5731c1ed2e"},"vehicle_type_id":"4","last_reported":1685783170,"current_range_meters":16000,"station_id":"ce4bhq12rcd13ifvqhhg","pricing_plan_id":"free"},{"bike_id":"9e6ef547-a79b-41fc-9f92-d2cdf64b606c","system_id":"levelo_inurba_marseille","lat":43.292569,"lon":5.409107,"is_reserved":false,"is_disabled":false,"rental_uris":{"android":"levelo://app?vid=9e6ef547-a79b-41fc-9f92-d2cdf64b606c","ios":"levelo://app?vid=9e6ef547-a79b-41fc-9f92-d2cdf64b606c"},"vehicle_type_id":"4","last_reported":1685783170,"current_range_meters":23200,"station_id":"ce4bh192rcd13ifvqdc0","pricing_plan_id":"free"},{"bike_id":"1160bd12-55a6-4f83-8210-5f80afaa5384","system_id":"levelo_inurba_marseille","lat":43.276179,"lon":5.361009,"is_reserved":false,"is_disabled":false,"rental_uris":{"android":"levelo://app?vid=1160bd12-55a6-4f83-8210-5f80afaa5384","ios":"levelo://app?vid=1160bd12-55a6-4f83-8210-5f80afaa5384"},"vehicle_type_id":"4","last_reported":1685783170,"current_range_meters":12000,"station_id":"ce4bgj92rcd13ifvqbe0","pricing_plan_id":"free"},{"bike_id":"9e702849-8d9b-4edf-8f9b-274639fd1e93","system_id":"levelo_inurba_marseille","lat":43.276179,"lon":5.361009,"is_reserved":false,"is_disabled":false,"rental_uris":{"android":"levelo://app?vid=9e702849-8d9b-4edf-8f9b-274639fd1e93","ios":"levelo://app?vid=9e702849-8d9b-4edf-8f9b-274639fd1e93"},"vehicle_type_id":"4","last_reported":1685783170,"current_range_meters":16800,"station_id":"ce4bgj92rcd13ifvqbe0","pricing_plan_id":"free"},{"bike_id":"eae25d34-e0df-41bf-bb8f-8f87f9310151","system_id":"levelo_inurba_marseille","lat":43.280784,"lon":5.396622,"is_reserved":false,"is_disabled":false,"rental_uris":{"android":"levelo://app?vid=eae25d34-e0df-41bf-bb8f-8f87f9310151","ios":"levelo://app?vid=eae25d34-e0df-41bf-bb8f-8f87f9310151"},"vehicle_type_id":"4","last_reported":1685783170,"current_range_meters":22800,"station_id":"ce4bho12rcd13ifvqh2g","pricing_plan_id":"free"},{"bike_id":"f1defb53-3eb7-48f4-9d14-f3fb39b06ee8","system_id":"levelo_inurba_marseille","lat":43.280784,"lon":5.396622,"is_reserved":false,"is_disabled":false,"rental_uris":{"android":"levelo://app?vid=f1defb53-3eb7-48f4-9d14-f3fb39b06ee8","ios":"levelo://app?vid=f1defb53-3eb7-48f4-9d14-f3fb39b06ee8"},"vehicle_type_id":"4","last_reported":1685783170,"current_range_meters":15600,"station_id":"ce4bho12rcd13ifvqh2g","pricing_plan_id":"free"},{"bike_id":"864fd1e5-5a0b-46df-a0ce-3148b9668500","system_id":"levelo_inurba_marseille","lat":43.28081,"lon":5.39659,"is_reserved":false,"is_disabled":false,"rental_uris":{"android":"levelo://app?vid=864fd1e5-5a0b-46df-a0ce-3148b9668500","ios":"levelo://app?vid=864fd1e5-5a0b-46df-a0ce-3148b9668500"},"vehicle_type_id":"4","last_reported":1685783170,"current_range_meters":31200,"station_id":"ce4bho12rcd13ifvqh2g","pricing_plan_id":"free"},{"bike_id":"fc10ed1d-883d-425a-a670-6d57e56222a5","system_id":"levelo_inurba_marseille","lat":43.280784,"lon":5.396622,"is_reserved":false,"is_disabled":false,"rental_uris":{"android":"levelo://app?vid=fc10ed1d-883d-425a-a670-6d57e56222a5","ios":"levelo://app?vid=fc10ed1d-883d-425a-a670-6d57e56222a5"},"vehicle_type_id":"4","last_reported":1685783170,"current_range_meters":31200,"station_id":"ce4bho12rcd13ifvqh2g","pricing_plan_id":"free"},{"bike_id":"7adc728e-4a5a-4a15-ab49-0c55bc5942b8","system_id":"levelo_inurba_marseille","lat":43.280784,"lon":5.396622,"is_reserved":false,"is_disabled":false,"rental_uris":{"android":"levelo://app?vid=7adc728e-4a5a-4a15-ab49-0c55bc5942b8","ios":"levelo://app?vid=7adc728e-4a5a-4a15-ab49-0c55bc5942b8"},"vehicle_type_id":"4","last_reported":1685783170,"current_range_meters":31200,"station_id":"ce4bho12rcd13ifvqh2g","pricing_plan_id":"free"},{"bike_id":"76784718-b1e2-49aa-8129-9d0a0da496e1","system_id":"levelo_inurba_marseille","lat":43.280784,"lon":5.396622,"is_reserved":false,"is_disabled":false,"rental_uris":{"android":"levelo://app?vid=76784718-b1e2-49aa-8129-9d0a0da496e1","ios":"levelo://app?vid=76784718-b1e2-49aa-8129-9d0a0da496e1"},"vehicle_type_id":"4","last_reported":1685783170,"current_range_meters":29600,"station_id":"ce4bho12rcd13ifvqh2g","pricing_plan_id":"free"},{"bike_id":"64670404-e0bf-4416-9f98-e7bd455f26a3","system_id":"levelo_inurba_marseille","lat":43.33612,"lon":5.410321,"is_reserved":false,"is_disabled":false,"rental_uris":{"android":"levelo://app?vid=64670404-e0bf-4416-9f98-e7bd455f26a3","ios":"levelo://app?vid=64670404-e0bf-4416-9f98-e7bd455f26a3"},"vehicle_type_id":"4","last_reported":1685783170,"current_range_meters":26800,"station_id":"ce4bhqh2rcd13ifvqhmg","pricing_plan_id":"free"},{"bike_id":"9db9545d-f63d-42be-a674-9c25625f916b","system_id":"levelo_inurba_marseille","lat":43.29386,"lon":5.41923,"is_reserved":false,"is_disabled":false,"rental_uris":{"android":"levelo://app?vid=9db9545d-f63d-42be-a674-9c25625f916b","ios":"levelo://app?vid=9db9545d-f63d-42be-a674-9c25625f916b"},"vehicle_type_id":"4","last_reported":1685783170,"current_range_meters":13200,"station_id":"","pricing_plan_id":"free"},{"bike_id":"6fa4c3f8-5165-44e1-a959-fb880a3ee57c","system_id":"levelo_inurba_marseille","lat":43.295523,"lon":5.422926,"is_reserved":false,"is_disabled":false,"rental_uris":{"android":"levelo://app?vid=6fa4c3f8-5165-44e1-a959-fb880a3ee57c","ios":"levelo://app?vid=6fa4c3f8-5165-44e1-a959-fb880a3ee57c"},"vehicle_type_id":"4","last_reported":1685783170,"current_range_meters":26000,"station_id":"ce4bhph2rcd13ifvqhdg","pricing_plan_id":"free"},{"bike_id":"c0b7aded-1759-4f4e-a8a8-923efa202762","system_id":"levelo_inurba_marseille","lat":43.295523,"lon":5.422926,"is_reserved":false,"is_disabled":false,"rental_uris":{"android":"levelo://app?vid=c0b7aded-1759-4f4e-a8a8-923efa202762","ios":"levelo://app?vid=c0b7aded-1759-4f4e-a8a8-923efa202762"},"vehicle_type_id":"4","last_reported":1685783170,"current_range_meters":22400,"station_id":"ce4bhph2rcd13ifvqhdg","pricing_plan_id":"free"},{"bike_id":"28e28263-1e4a-4307-9d03-c0b5eaba4031","system_id":"levelo_inurba_marseille","lat":43.29503,"lon":5.42269,"is_reserved":false,"is_disabled":false,"rental_uris":{"android":"levelo://app?vid=28e28263-1e4a-4307-9d03-c0b5eaba4031","ios":"levelo://app?vid=28e28263-1e4a-4307-9d03-c0b5eaba4031"},"vehicle_type_id":"4","last_reported":1685783170,"current_range_meters":23600,"station_id":"","pricing_plan_id":"free"},{"bike_id":"2ebe406f-8832-4f9a-b089-f30d6d5f6275","system_id":"levelo_inurba_marseille","lat":43.272101,"lon":5.391798,"is_reserved":false,"is_disabled":false,"rental_uris":{"android":"levelo://app?vid=2ebe406f-8832-4f9a-b089-f30d6d5f6275","ios":"levelo://app?vid=2ebe406f-8832-4f9a-b089-f30d6d5f6275"},"vehicle_type_id":"4","last_reported":1685783170,"current_range_meters":28800,"station_id":"","pricing_plan_id":"free"},{"bike_id":"1ab0aa51-3465-4c3c-910f-2d4ad07fa0ac","system_id":"levelo_inurba_marseille","lat":43.278128,"lon":5.407195,"is_reserved":false,"is_disabled":false,"rental_uris":{"android":"levelo://app?vid=1ab0aa51-3465-4c3c-910f-2d4ad07fa0ac","ios":"levelo://app?vid=1ab0aa51-3465-4c3c-910f-2d4ad07fa0ac"},"vehicle_type_id":"4","last_reported":1685783170,"current_range_meters":0,"station_id":"ce4bhnh2rcd13ifvqgtg","pricing_plan_id":"free"},{"bike_id":"aa65ffa8-39de-49fb-9968-335dd7261f08","system_id":"levelo_inurba_marseille","lat":43.265714,"lon":5.372891,"is_reserved":false,"is_disabled":false,"rental_uris":{"android":"levelo://app?vid=aa65ffa8-39de-49fb-9968-335dd7261f08","ios":"levelo://app?vid=aa65ffa8-39de-49fb-9968-335dd7261f08"},"vehicle_type_id":"4","last_reported":1685783170,"current_range_meters":30000,"station_id":"ce4bhg12rcd13ifvqf70","pricing_plan_id":"free"},{"bike_id":"4830acd4-f7c2-464b-9e2d-adad2a7fe8c5","system_id":"levelo_inurba_marseille","lat":43.265714,"lon":5.372891,"is_reserved":false,"is_disabled":false,"rental_uris":{"android":"levelo://app?vid=4830acd4-f7c2-464b-9e2d-adad2a7fe8c5","ios":"levelo://app?vid=4830acd4-f7c2-464b-9e2d-adad2a7fe8c5"},"vehicle_type_id":"4","last_reported":1685783170,"current_range_meters":26000,"station_id":"ce4bhg12rcd13ifvqf70","pricing_plan_id":"free"},{"bike_id":"b45db256-61f8-4069-a946-cf6f7d5d166d","system_id":"levelo_inurba_marseille","lat":43.265714,"lon":5.372891,"is_reserved":false,"is_disabled":false,"rental_uris":{"android":"levelo://app?vid=b45db256-61f8-4069-a946-cf6f7d5d166d","ios":"levelo://app?vid=b45db256-61f8-4069-a946-cf6f7d5d166d"},"vehicle_type_id":"4","last_reported":1685783170,"current_range_meters":19600,"station_id":"ce4bhg12rcd13ifvqf70","pricing_plan_id":"free"},{"bike_id":"13c5750c-ab02-4b84-aaaf-438240a826ea","system_id":"levelo_inurba_marseille","lat":43.265714,"lon":5.372891,"is_reserved":false,"is_disabled":false,"rental_uris":{"android":"levelo://app?vid=13c5750c-ab02-4b84-aaaf-438240a826ea","ios":"levelo://app?vid=13c5750c-ab02-4b84-aaaf-438240a826ea"},"vehicle_type_id":"4","last_reported":1685783170,"current_range_meters":29200,"station_id":"ce4bhg12rcd13ifvqf70","pricing_plan_id":"free"},{"bike_id":"974954e5-3c31-4e6d-8061-a77848d35e61","system_id":"levelo_inurba_marseille","lat":43.265714,"lon":5.372891,"is_reserved":false,"is_disabled":false,"rental_uris":{"android":"levelo://app?vid=974954e5-3c31-4e6d-8061-a77848d35e61","ios":"levelo://app?vid=974954e5-3c31-4e6d-8061-a77848d35e61"},"vehicle_type_id":"4","last_reported":1685783170,"current_range_meters":12400,"station_id":"ce4bhg12rcd13ifvqf70","pricing_plan_id":"free"},{"bike_id":"06538980-c887-4f73-a2df-b6985c28bed8","system_id":"levelo_inurba_marseille","lat":43.265714,"lon":5.372891,"is_reserved":false,"is_disabled":false,"rental_uris":{"android":"levelo://app?vid=06538980-c887-4f73-a2df-b6985c28bed8","ios":"levelo://app?vid=06538980-c887-4f73-a2df-b6985c28bed8"},"vehicle_type_id":"4","last_reported":1685783170,"current_range_meters":20400,"station_id":"ce4bhg12rcd13ifvqf70","pricing_plan_id":"free"},{"bike_id":"8fed6ad7-2b91-4890-b081-fafc7c17798f","system_id":"levelo_inurba_marseille","lat":43.26554,"lon":5.37285,"is_reserved":false,"is_disabled":false,"rental_uris":{"android":"levelo://app?vid=8fed6ad7-2b91-4890-b081-fafc7c17798f","ios":"levelo://app?vid=8fed6ad7-2b91-4890-b081-fafc7c17798f"},"vehicle_type_id":"4","last_reported":1685783170,"current_range_meters":29200,"station_id":"ce4bhg12rcd13ifvqf70","pricing_plan_id":"free"},{"bike_id":"b460ad98-9bcf-463b-92ce-00eab86ce897","system_id":"levelo_inurba_marseille","lat":43.265714,"lon":5.372891,"is_reserved":false,"is_disabled":false,"rental_uris":{"android":"levelo://app?vid=b460ad98-9bcf-463b-92ce-00eab86ce897","ios":"levelo://app?vid=b460ad98-9bcf-463b-92ce-00eab86ce897"},"vehicle_type_id":"4","last_reported":1685783170,"current_range_meters":27600,"station_id":"ce4bhg12rcd13ifvqf70","pricing_plan_id":"free"},{"bike_id":"0b907064-fe09-44d0-a93f-52f73f576b1e","system_id":"levelo_inurba_marseille","lat":43.26553,"lon":5.37283,"is_reserved":false,"is_disabled":false,"rental_uris":{"android":"levelo://app?vid=0b907064-fe09-44d0-a93f-52f73f576b1e","ios":"levelo://app?vid=0b907064-fe09-44d0-a93f-52f73f576b1e"},"vehicle_type_id":"4","last_reported":1685783170,"current_range_meters":24400,"station_id":"ce4bhg12rcd13ifvqf70","pricing_plan_id":"free"},{"bike_id":"063497bf-15b5-4c83-926b-ac5d5471a926","system_id":"levelo_inurba_marseille","lat":43.265714,"lon":5.372891,"is_reserved":false,"is_disabled":false,"rental_uris":{"android":"levelo://app?vid=063497bf-15b5-4c83-926b-ac5d5471a926","ios":"levelo://app?vid=063497bf-15b5-4c83-926b-ac5d5471a926"},"vehicle_type_id":"4","last_reported":1685783170,"current_range_meters":4800,"station_id":"ce4bhg12rcd13ifvqf70","pricing_plan_id":"free"},{"bike_id":"9323c84c-cb13-4530-8044-6c6eb35e8ee9","system_id":"levelo_inurba_marseille","lat":43.265714,"lon":5.372891,"is_reserved":false,"is_disabled":false,"rental_uris":{"android":"levelo://app?vid=9323c84c-cb13-4530-8044-6c6eb35e8ee9","ios":"levelo://app?vid=9323c84c-cb13-4530-8044-6c6eb35e8ee9"},"vehicle_type_id":"4","last_reported":1685783170,"current_range_meters":27600,"station_id":"ce4bhg12rcd13ifvqf70","pricing_plan_id":"free"},{"bike_id":"a4bc8b2d-8bb1-4a79-a1a1-eb5f36f1c931","system_id":"levelo_inurba_marseille","lat":43.26552,"lon":5.37287,"is_reserved":false,"is_disabled":false,"rental_uris":{"android":"levelo://app?vid=a4bc8b2d-8bb1-4a79-a1a1-eb5f36f1c931","ios":"levelo://app?vid=a4bc8b2d-8bb1-4a79-a1a1-eb5f36f1c931"},"vehicle_type_id":"4","last_reported":1685783170,"current_range_meters":1200,"station_id":"ce4bhg12rcd13ifvqf70","pricing_plan_id":"free"},{"bike_id":"c6cb5599-e718-4af4-8c4b-4d1deb710381","system_id":"levelo_inurba_marseille","lat":43.26551,"lon":5.37285,"is_reserved":false,"is_disabled":false,"rental_uris":{"android":"levelo://app?vid=c6cb5599-e718-4af4-8c4b-4d1deb710381","ios":"levelo://app?vid=c6cb5599-e718-4af4-8c4b-4d1deb710381"},"vehicle_type_id":"4","last_reported":1685783170,"current_range_meters":30800,"station_id":"ce4bhg12rcd13ifvqf70","pricing_plan_id":"free"},{"bike_id":"fec5a56f-95a7-4b60-bcdc-eb33da1ce4c5","system_id":"levelo_inurba_marseille","lat":43.2655,"lon":5.37282,"is_reserved":false,"is_disabled":false,"rental_uris":{"android":"levelo://app?vid=fec5a56f-95a7-4b60-bcdc-eb33da1ce4c5","ios":"levelo://app?vid=fec5a56f-95a7-4b60-bcdc-eb33da1ce4c5"},"vehicle_type_id":"4","last_reported":1685783170,"current_range_meters":7200,"station_id":"ce4bhg12rcd13ifvqf70","pricing_plan_id":"free"},{"bike_id":"6defc16a-8cd5-4070-8090-a6035b5f3478","system_id":"levelo_inurba_marseille","lat":43.26545,"lon":5.37282,"is_reserved":false,"is_disabled":false,"rental_uris":{"android":"levelo://app?vid=6defc16a-8cd5-4070-8090-a6035b5f3478","ios":"levelo://app?vid=6defc16a-8cd5-4070-8090-a6035b5f3478"},"vehicle_type_id":"4","last_reported":1685783170,"current_range_meters":9600,"station_id":"","pricing_plan_id":"free"},{"bike_id":"477c9b24-a1bd-4af2-9e3a-7a10b9af13d1","system_id":"levelo_inurba_marseille","lat":43.3171,"lon":5.43307,"is_reserved":false,"is_disabled":false,"rental_uris":{"android":"levelo://app?vid=477c9b24-a1bd-4af2-9e3a-7a10b9af13d1","ios":"levelo://app?vid=477c9b24-a1bd-4af2-9e3a-7a10b9af13d1"},"vehicle_type_id":"4","last_reported":1685783170,"current_range_meters":0,"station_id":"","pricing_plan_id":"free"},{"bike_id":"df18bcba-8c12-452b-961a-aea12c9e49ad","system_id":"levelo_inurba_marseille","lat":43.30801,"lon":5.43523,"is_reserved":false,"is_disabled":false,"rental_uris":{"android":"levelo://app?vid=df18bcba-8c12-452b-961a-aea12c9e49ad","ios":"levelo://app?vid=df18bcba-8c12-452b-961a-aea12c9e49ad"},"vehicle_type_id":"4","last_reported":1685783170,"current_range_meters":24800,"station_id":"","pricing_plan_id":"free"},{"bike_id":"26e1ac57-a65a-48de-b4e4-bcfc0b364a7a","system_id":"levelo_inurba_marseille","lat":43.30796,"lon":5.43527,"is_reserved":false,"is_disabled":false,"rental_uris":{"android":"levelo://app?vid=26e1ac57-a65a-48de-b4e4-bcfc0b364a7a","ios":"levelo://app?vid=26e1ac57-a65a-48de-b4e4-bcfc0b364a7a"},"vehicle_type_id":"4","last_reported":1685783170,"current_range_meters":3600,"station_id":"","pricing_plan_id":"free"},{"bike_id":"2ae3bbcd-e131-4da1-a7f4-6bff7dc44e26","system_id":"levelo_inurba_marseille","lat":43.265571,"lon":5.390032,"is_reserved":false,"is_disabled":false,"rental_uris":{"android":"levelo://app?vid=2ae3bbcd-e131-4da1-a7f4-6bff7dc44e26","ios":"levelo://app?vid=2ae3bbcd-e131-4da1-a7f4-6bff7dc44e26"},"vehicle_type_id":"4","last_reported":1685783170,"current_range_meters":30000,"station_id":"ce4bhe12rcd13ifvqf30","pricing_plan_id":"free"},{"bike_id":"6cc0b091-d8c9-41f0-9dc2-57bf547df0f9","system_id":"levelo_inurba_marseille","lat":43.265569,"lon":5.390047,"is_reserved":false,"is_disabled":false,"rental_uris":{"android":"levelo://app?vid=6cc0b091-d8c9-41f0-9dc2-57bf547df0f9","ios":"levelo://app?vid=6cc0b091-d8c9-41f0-9dc2-57bf547df0f9"},"vehicle_type_id":"4","last_reported":1685783170,"current_range_meters":17600,"station_id":"ce4bhe12rcd13ifvqf30","pricing_plan_id":"free"},{"bike_id":"7bab5f78-696a-4c90-8684-9a732a7b487c","system_id":"levelo_inurba_marseille","lat":43.261782,"lon":5.374515,"is_reserved":false,"is_disabled":false,"rental_uris":{"android":"levelo://app?vid=7bab5f78-696a-4c90-8684-9a732a7b487c","ios":"levelo://app?vid=7bab5f78-696a-4c90-8684-9a732a7b487c"},"vehicle_type_id":"4","last_reported":1685783170,"current_range_meters":14800,"station_id":"ce4bhgp2rcd13ifvqfc0","pricing_plan_id":"free"},{"bike_id":"7514b877-e619-498e-a706-eeeecc735887","system_id":"levelo_inurba_marseille","lat":43.2619,"lon":5.37442,"is_reserved":false,"is_disabled":false,"rental_uris":{"android":"levelo://app?vid=7514b877-e619-498e-a706-eeeecc735887","ios":"levelo://app?vid=7514b877-e619-498e-a706-eeeecc735887"},"vehicle_type_id":"4","last_reported":1685783170,"current_range_meters":3600,"station_id":"ce4bhgp2rcd13ifvqfc0","pricing_plan_id":"free"},{"bike_id":"2af74695-3cf0-4e60-9eac-f6f72c49d5d6","system_id":"levelo_inurba_marseille","lat":43.261782,"lon":5.374515,"is_reserved":false,"is_disabled":false,"rental_uris":{"android":"levelo://app?vid=2af74695-3cf0-4e60-9eac-f6f72c49d5d6","ios":"levelo://app?vid=2af74695-3cf0-4e60-9eac-f6f72c49d5d6"},"vehicle_type_id":"4","last_reported":1685783170,"current_range_meters":31200,"station_id":"ce4bhgp2rcd13ifvqfc0","pricing_plan_id":"free"},{"bike_id":"17975e74-45d5-4a43-9708-19e540c40f99","system_id":"levelo_inurba_marseille","lat":43.261782,"lon":5.374515,"is_reserved":false,"is_disabled":false,"rental_uris":{"android":"levelo://app?vid=17975e74-45d5-4a43-9708-19e540c40f99","ios":"levelo://app?vid=17975e74-45d5-4a43-9708-19e540c40f99"},"vehicle_type_id":"4","last_reported":1685783170,"current_range_meters":31200,"station_id":"ce4bhgp2rcd13ifvqfc0","pricing_plan_id":"free"},{"bike_id":"eccae3b2-bdf7-4c97-b786-93ee7e43adeb","system_id":"levelo_inurba_marseille","lat":43.261782,"lon":5.374515,"is_reserved":false,"is_disabled":false,"rental_uris":{"android":"levelo://app?vid=eccae3b2-bdf7-4c97-b786-93ee7e43adeb","ios":"levelo://app?vid=eccae3b2-bdf7-4c97-b786-93ee7e43adeb"},"vehicle_type_id":"4","last_reported":1685783170,"current_range_meters":31600,"station_id":"ce4bhgp2rcd13ifvqfc0","pricing_plan_id":"free"},{"bike_id":"8c9cfa76-722f-4da7-8af4-147acdf8a717","system_id":"levelo_inurba_marseille","lat":43.261782,"lon":5.374515,"is_reserved":false,"is_disabled":false,"rental_uris":{"android":"levelo://app?vid=8c9cfa76-722f-4da7-8af4-147acdf8a717","ios":"levelo://app?vid=8c9cfa76-722f-4da7-8af4-147acdf8a717"},"vehicle_type_id":"4","last_reported":1685783170,"current_range_meters":22800,"station_id":"ce4bhgp2rcd13ifvqfc0","pricing_plan_id":"free"},{"bike_id":"9d909046-8e53-4393-a34c-8c4bb1951a98","system_id":"levelo_inurba_marseille","lat":43.261782,"lon":5.374515,"is_reserved":false,"is_disabled":false,"rental_uris":{"android":"levelo://app?vid=9d909046-8e53-4393-a34c-8c4bb1951a98","ios":"levelo://app?vid=9d909046-8e53-4393-a34c-8c4bb1951a98"},"vehicle_type_id":"4","last_reported":1685783170,"current_range_meters":31200,"station_id":"ce4bhgp2rcd13ifvqfc0","pricing_plan_id":"free"},{"bike_id":"1390f3ce-5bc7-468f-9588-d941d2532ddc","system_id":"levelo_inurba_marseille","lat":43.261782,"lon":5.374515,"is_reserved":false,"is_disabled":false,"rental_uris":{"android":"levelo://app?vid=1390f3ce-5bc7-468f-9588-d941d2532ddc","ios":"levelo://app?vid=1390f3ce-5bc7-468f-9588-d941d2532ddc"},"vehicle_type_id":"4","last_reported":1685783170,"current_range_meters":31200,"station_id":"ce4bhgp2rcd13ifvqfc0","pricing_plan_id":"free"},{"bike_id":"7c146720-0470-42ab-8b91-10c219c21a59","system_id":"levelo_inurba_marseille","lat":43.261782,"lon":5.374515,"is_reserved":false,"is_disabled":false,"rental_uris":{"android":"levelo://app?vid=7c146720-0470-42ab-8b91-10c219c21a59","ios":"levelo://app?vid=7c146720-0470-42ab-8b91-10c219c21a59"},"vehicle_type_id":"4","last_reported":1685783170,"current_range_meters":31200,"station_id":"ce4bhgp2rcd13ifvqfc0","pricing_plan_id":"free"},{"bike_id":"6e53fece-0322-4917-a4e1-7266b6bcfa03","system_id":"levelo_inurba_marseille","lat":43.261782,"lon":5.374515,"is_reserved":false,"is_disabled":false,"rental_uris":{"android":"levelo://app?vid=6e53fece-0322-4917-a4e1-7266b6bcfa03","ios":"levelo://app?vid=6e53fece-0322-4917-a4e1-7266b6bcfa03"},"vehicle_type_id":"4","last_reported":1685783170,"current_range_meters":29200,"station_id":"ce4bhgp2rcd13ifvqfc0","pricing_plan_id":"free"},{"bike_id":"8d00262b-f322-47de-b6aa-36ae0a8649f0","system_id":"levelo_inurba_marseille","lat":43.261782,"lon":5.374515,"is_reserved":false,"is_disabled":false,"rental_uris":{"android":"levelo://app?vid=8d00262b-f322-47de-b6aa-36ae0a8649f0","ios":"levelo://app?vid=8d00262b-f322-47de-b6aa-36ae0a8649f0"},"vehicle_type_id":"4","last_reported":1685783170,"current_range_meters":31200,"station_id":"ce4bhgp2rcd13ifvqfc0","pricing_plan_id":"free"},{"bike_id":"945a03ca-e4eb-4a59-93b7-2e44eff798dc","system_id":"levelo_inurba_marseille","lat":43.31708,"lon":5.43708,"is_reserved":false,"is_disabled":false,"rental_uris":{"android":"levelo://app?vid=945a03ca-e4eb-4a59-93b7-2e44eff798dc","ios":"levelo://app?vid=945a03ca-e4eb-4a59-93b7-2e44eff798dc"},"vehicle_type_id":"4","last_reported":1685783170,"current_range_meters":22000,"station_id":"ce4bhp92rcd13ifvqhcg","pricing_plan_id":"free"},{"bike_id":"e341eb75-ae2b-4caf-a45a-a186937f821e","system_id":"levelo_inurba_marseille","lat":43.262012,"lon":5.379307,"is_reserved":false,"is_disabled":false,"rental_uris":{"android":"levelo://app?vid=e341eb75-ae2b-4caf-a45a-a186937f821e","ios":"levelo://app?vid=e341eb75-ae2b-4caf-a45a-a186937f821e"},"vehicle_type_id":"4","last_reported":1685783170,"current_range_meters":27200,"station_id":"ce4bhjp2rcd13ifvqg90","pricing_plan_id":"free"},{"bike_id":"a017bfd0-2849-4e5c-8e7f-a158cda80a99","system_id":"levelo_inurba_marseille","lat":43.271368,"lon":5.40928,"is_reserved":false,"is_disabled":false,"rental_uris":{"android":"levelo://app?vid=a017bfd0-2849-4e5c-8e7f-a158cda80a99","ios":"levelo://app?vid=a017bfd0-2849-4e5c-8e7f-a158cda80a99"},"vehicle_type_id":"4","last_reported":1685783170,"current_range_meters":30400,"station_id":"ce4bhl12rcd13ifvqgf0","pricing_plan_id":"free"},{"bike_id":"bf89f370-0d1c-40e5-8fb2-cd6040339700","system_id":"levelo_inurba_marseille","lat":43.26196,"lon":5.37936,"is_reserved":false,"is_disabled":false,"rental_uris":{"android":"levelo://app?vid=bf89f370-0d1c-40e5-8fb2-cd6040339700","ios":"levelo://app?vid=bf89f370-0d1c-40e5-8fb2-cd6040339700"},"vehicle_type_id":"4","last_reported":1685783170,"current_range_meters":18000,"station_id":"ce4bhjp2rcd13ifvqg90","pricing_plan_id":"free"},{"bike_id":"9bd50cf0-7cd2-4055-b58f-769452283533","system_id":"levelo_inurba_marseille","lat":43.262012,"lon":5.379307,"is_reserved":false,"is_disabled":false,"rental_uris":{"android":"levelo://app?vid=9bd50cf0-7cd2-4055-b58f-769452283533","ios":"levelo://app?vid=9bd50cf0-7cd2-4055-b58f-769452283533"},"vehicle_type_id":"4","last_reported":1685783170,"current_range_meters":27600,"station_id":"ce4bhjp2rcd13ifvqg90","pricing_plan_id":"free"},{"bike_id":"a63916e6-8335-4b25-9de7-f48ab4c7e668","system_id":"levelo_inurba_marseille","lat":43.262012,"lon":5.379307,"is_reserved":false,"is_disabled":false,"rental_uris":{"android":"levelo://app?vid=a63916e6-8335-4b25-9de7-f48ab4c7e668","ios":"levelo://app?vid=a63916e6-8335-4b25-9de7-f48ab4c7e668"},"vehicle_type_id":"4","last_reported":1685783170,"current_range_meters":29600,"station_id":"ce4bhjp2rcd13ifvqg90","pricing_plan_id":"free"},{"bike_id":"b5727203-5352-4e9b-a189-6e709b764b99","system_id":"levelo_inurba_marseille","lat":43.262012,"lon":5.379307,"is_reserved":false,"is_disabled":false,"rental_uris":{"android":"levelo://app?vid=b5727203-5352-4e9b-a189-6e709b764b99","ios":"levelo://app?vid=b5727203-5352-4e9b-a189-6e709b764b99"},"vehicle_type_id":"4","last_reported":1685783170,"current_range_meters":31200,"station_id":"ce4bhjp2rcd13ifvqg90","pricing_plan_id":"free"},{"bike_id":"7e288f8e-2eb3-45ad-8930-110889a9ac5a","system_id":"levelo_inurba_marseille","lat":43.267959,"lon":5.402685,"is_reserved":false,"is_disabled":false,"rental_uris":{"android":"levelo://app?vid=7e288f8e-2eb3-45ad-8930-110889a9ac5a","ios":"levelo://app?vid=7e288f8e-2eb3-45ad-8930-110889a9ac5a"},"vehicle_type_id":"4","last_reported":1685783170,"current_range_meters":30000,"station_id":"ce501612rcd8frsf0b60","pricing_plan_id":"free"},{"bike_id":"7a4d55e2-1149-449d-800b-7bed1e9a405d","system_id":"levelo_inurba_marseille","lat":43.298768,"lon":5.43643,"is_reserved":false,"is_disabled":false,"rental_uris":{"android":"levelo://app?vid=7a4d55e2-1149-449d-800b-7bed1e9a405d","ios":"levelo://app?vid=7a4d55e2-1149-449d-800b-7bed1e9a405d"},"vehicle_type_id":"4","last_reported":1685783170,"current_range_meters":12400,"station_id":"ce4bhpp2rcd13ifvqhfg","pricing_plan_id":"free"},{"bike_id":"dc073487-2674-4054-9fa3-2b71dc97c7d8","system_id":"levelo_inurba_marseille","lat":43.2603,"lon":5.3754,"is_reserved":false,"is_disabled":false,"rental_uris":{"android":"levelo://app?vid=dc073487-2674-4054-9fa3-2b71dc97c7d8","ios":"levelo://app?vid=dc073487-2674-4054-9fa3-2b71dc97c7d8"},"vehicle_type_id":"4","last_reported":1685783170,"current_range_meters":28800,"station_id":"ce4bhgh2rcd13ifvqfa0","pricing_plan_id":"free"},{"bike_id":"b7dfbe55-9256-43cb-9671-9796b989511b","system_id":"levelo_inurba_marseille","lat":43.2607,"lon":5.393983,"is_reserved":false,"is_disabled":false,"rental_uris":{"android":"levelo://app?vid=b7dfbe55-9256-43cb-9671-9796b989511b","ios":"levelo://app?vid=b7dfbe55-9256-43cb-9671-9796b989511b"},"vehicle_type_id":"4","last_reported":1685783170,"current_range_meters":28400,"station_id":"ce4bhh92rcd13ifvqfj0","pricing_plan_id":"free"},{"bike_id":"56b5f7c7-589d-4e63-8ed0-41c176526dbd","system_id":"levelo_inurba_marseille","lat":43.2607,"lon":5.393983,"is_reserved":false,"is_disabled":false,"rental_uris":{"android":"levelo://app?vid=56b5f7c7-589d-4e63-8ed0-41c176526dbd","ios":"levelo://app?vid=56b5f7c7-589d-4e63-8ed0-41c176526dbd"},"vehicle_type_id":"4","last_reported":1685783170,"current_range_meters":26400,"station_id":"ce4bhh92rcd13ifvqfj0","pricing_plan_id":"free"},{"bike_id":"159534ec-69eb-4f4f-8ff0-602d25c7506f","system_id":"levelo_inurba_marseille","lat":43.2607,"lon":5.393983,"is_reserved":false,"is_disabled":false,"rental_uris":{"android":"levelo://app?vid=159534ec-69eb-4f4f-8ff0-602d25c7506f","ios":"levelo://app?vid=159534ec-69eb-4f4f-8ff0-602d25c7506f"},"vehicle_type_id":"4","last_reported":1685783170,"current_range_meters":20400,"station_id":"ce4bhh92rcd13ifvqfj0","pricing_plan_id":"free"},{"bike_id":"2643b726-dac5-4d07-9506-4d05eca52955","system_id":"levelo_inurba_marseille","lat":43.260909,"lon":5.397591,"is_reserved":false,"is_disabled":false,"rental_uris":{"android":"levelo://app?vid=2643b726-dac5-4d07-9506-4d05eca52955","ios":"levelo://app?vid=2643b726-dac5-4d07-9506-4d05eca52955"},"vehicle_type_id":"4","last_reported":1685783170,"current_range_meters":16400,"station_id":"ce4bhi12rcd13ifvqfq0","pricing_plan_id":"free"},{"bike_id":"7d0db5e0-f19e-449e-a76b-99f25c68c38b","system_id":"levelo_inurba_marseille","lat":43.26076,"lon":5.39765,"is_reserved":false,"is_disabled":false,"rental_uris":{"android":"levelo://app?vid=7d0db5e0-f19e-449e-a76b-99f25c68c38b","ios":"levelo://app?vid=7d0db5e0-f19e-449e-a76b-99f25c68c38b"},"vehicle_type_id":"4","last_reported":1685783170,"current_range_meters":23200,"station_id":"ce4bhi12rcd13ifvqfq0","pricing_plan_id":"free"},{"bike_id":"436c3045-d77c-443f-a60d-dafc96b6dc01","system_id":"levelo_inurba_marseille","lat":43.255756,"lon":5.382303,"is_reserved":false,"is_disabled":false,"rental_uris":{"android":"levelo://app?vid=436c3045-d77c-443f-a60d-dafc96b6dc01","ios":"levelo://app?vid=436c3045-d77c-443f-a60d-dafc96b6dc01"},"vehicle_type_id":"4","last_reported":1685783170,"current_range_meters":18400,"station_id":"ce4bhih2rcd13ifvqfs0","pricing_plan_id":"free"},{"bike_id":"1e036898-c9f1-4845-a355-0f25e5154a04","system_id":"levelo_inurba_marseille","lat":43.254947,"lon":5.376454,"is_reserved":false,"is_disabled":false,"rental_uris":{"android":"levelo://app?vid=1e036898-c9f1-4845-a355-0f25e5154a04","ios":"levelo://app?vid=1e036898-c9f1-4845-a355-0f25e5154a04"},"vehicle_type_id":"4","last_reported":1685783170,"current_range_meters":28000,"station_id":"ce4bhh12rcd13ifvqff0","pricing_plan_id":"free"},{"bike_id":"ccb659ca-d258-46c7-a80c-e030d7d10f16","system_id":"levelo_inurba_marseille","lat":43.254947,"lon":5.376454,"is_reserved":false,"is_disabled":false,"rental_uris":{"android":"levelo://app?vid=ccb659ca-d258-46c7-a80c-e030d7d10f16","ios":"levelo://app?vid=ccb659ca-d258-46c7-a80c-e030d7d10f16"},"vehicle_type_id":"4","last_reported":1685783170,"current_range_meters":25200,"station_id":"ce4bhh12rcd13ifvqff0","pricing_plan_id":"free"},{"bike_id":"dad2bcfc-eb50-4588-a1dd-ae9990604018","system_id":"levelo_inurba_marseille","lat":43.254945,"lon":5.376454,"is_reserved":false,"is_disabled":false,"rental_uris":{"android":"levelo://app?vid=dad2bcfc-eb50-4588-a1dd-ae9990604018","ios":"levelo://app?vid=dad2bcfc-eb50-4588-a1dd-ae9990604018"},"vehicle_type_id":"4","last_reported":1685783170,"current_range_meters":31600,"station_id":"ce4bhh12rcd13ifvqff0","pricing_plan_id":"free"},{"bike_id":"aceaab0b-3f02-4b8e-bf5a-50a73974bac9","system_id":"levelo_inurba_marseille","lat":43.254945,"lon":5.376454,"is_reserved":false,"is_disabled":false,"rental_uris":{"android":"levelo://app?vid=aceaab0b-3f02-4b8e-bf5a-50a73974bac9","ios":"levelo://app?vid=aceaab0b-3f02-4b8e-bf5a-50a73974bac9"},"vehicle_type_id":"4","last_reported":1685783170,"current_range_meters":31600,"station_id":"ce4bhh12rcd13ifvqff0","pricing_plan_id":"free"},{"bike_id":"b30a7229-64e4-470f-b389-d55e13a267dd","system_id":"levelo_inurba_marseille","lat":43.254945,"lon":5.376454,"is_reserved":false,"is_disabled":false,"rental_uris":{"android":"levelo://app?vid=b30a7229-64e4-470f-b389-d55e13a267dd","ios":"levelo://app?vid=b30a7229-64e4-470f-b389-d55e13a267dd"},"vehicle_type_id":"4","last_reported":1685783170,"current_range_meters":12400,"station_id":"ce4bhh12rcd13ifvqff0","pricing_plan_id":"free"},{"bike_id":"ac14b187-47d1-4391-8508-2c33a1173817","system_id":"levelo_inurba_marseille","lat":43.254945,"lon":5.376454,"is_reserved":false,"is_disabled":false,"rental_uris":{"android":"levelo://app?vid=ac14b187-47d1-4391-8508-2c33a1173817","ios":"levelo://app?vid=ac14b187-47d1-4391-8508-2c33a1173817"},"vehicle_type_id":"4","last_reported":1685783170,"current_range_meters":23600,"station_id":"ce4bhh12rcd13ifvqff0","pricing_plan_id":"free"},{"bike_id":"95c585cb-91e0-408b-b6b9-d8e52c553504","system_id":"levelo_inurba_marseille","lat":43.254945,"lon":5.376454,"is_reserved":false,"is_disabled":false,"rental_uris":{"android":"levelo://app?vid=95c585cb-91e0-408b-b6b9-d8e52c553504","ios":"levelo://app?vid=95c585cb-91e0-408b-b6b9-d8e52c553504"},"vehicle_type_id":"4","last_reported":1685783170,"current_range_meters":22000,"station_id":"ce4bhh12rcd13ifvqff0","pricing_plan_id":"free"},{"bike_id":"5d413320-2d93-47df-9016-dd82954c80b5","system_id":"levelo_inurba_marseille","lat":43.25494,"lon":5.37649,"is_reserved":false,"is_disabled":false,"rental_uris":{"android":"levelo://app?vid=5d413320-2d93-47df-9016-dd82954c80b5","ios":"levelo://app?vid=5d413320-2d93-47df-9016-dd82954c80b5"},"vehicle_type_id":"4","last_reported":1685783170,"current_range_meters":29200,"station_id":"ce4bhh12rcd13ifvqff0","pricing_plan_id":"free"},{"bike_id":"b4620f87-16f3-438d-85d7-2232498b527b","system_id":"levelo_inurba_marseille","lat":43.254945,"lon":5.376454,"is_reserved":false,"is_disabled":false,"rental_uris":{"android":"levelo://app?vid=b4620f87-16f3-438d-85d7-2232498b527b","ios":"levelo://app?vid=b4620f87-16f3-438d-85d7-2232498b527b"},"vehicle_type_id":"4","last_reported":1685783170,"current_range_meters":2000,"station_id":"ce4bhh12rcd13ifvqff0","pricing_plan_id":"free"},{"bike_id":"f397ccce-b9ca-4ff1-a62c-b86c74ac9e11","system_id":"levelo_inurba_marseille","lat":43.25492,"lon":5.37649,"is_reserved":false,"is_disabled":false,"rental_uris":{"android":"levelo://app?vid=f397ccce-b9ca-4ff1-a62c-b86c74ac9e11","ios":"levelo://app?vid=f397ccce-b9ca-4ff1-a62c-b86c74ac9e11"},"vehicle_type_id":"4","last_reported":1685783170,"current_range_meters":31200,"station_id":"ce4bhh12rcd13ifvqff0","pricing_plan_id":"free"},{"bike_id":"3d37b66c-e401-403a-96fa-6fec70ad7f01","system_id":"levelo_inurba_marseille","lat":43.2549,"lon":5.37646,"is_reserved":false,"is_disabled":false,"rental_uris":{"android":"levelo://app?vid=3d37b66c-e401-403a-96fa-6fec70ad7f01","ios":"levelo://app?vid=3d37b66c-e401-403a-96fa-6fec70ad7f01"},"vehicle_type_id":"4","last_reported":1685783170,"current_range_meters":21200,"station_id":"ce4bhh12rcd13ifvqff0","pricing_plan_id":"free"},{"bike_id":"f464892a-7246-4a6a-8d82-e42da334c140","system_id":"levelo_inurba_marseille","lat":43.270721,"lon":5.422764,"is_reserved":false,"is_disabled":false,"rental_uris":{"android":"levelo://app?vid=f464892a-7246-4a6a-8d82-e42da334c140","ios":"levelo://app?vid=f464892a-7246-4a6a-8d82-e42da334c140"},"vehicle_type_id":"4","last_reported":1685783170,"current_range_meters":31200,"station_id":"ce4bhk92rcd13ifvqgb0","pricing_plan_id":"free"},{"bike_id":"582d3037-a1c2-4f66-900b-1e0a5b3b6b21","system_id":"levelo_inurba_marseille","lat":43.270721,"lon":5.422764,"is_reserved":false,"is_disabled":false,"rental_uris":{"android":"levelo://app?vid=582d3037-a1c2-4f66-900b-1e0a5b3b6b21","ios":"levelo://app?vid=582d3037-a1c2-4f66-900b-1e0a5b3b6b21"},"vehicle_type_id":"4","last_reported":1685783170,"current_range_meters":30400,"station_id":"ce4bhk92rcd13ifvqgb0","pricing_plan_id":"free"},{"bike_id":"4343b1e7-d1f3-40f5-b409-9c225479a53e","system_id":"levelo_inurba_marseille","lat":43.270721,"lon":5.422764,"is_reserved":false,"is_disabled":false,"rental_uris":{"android":"levelo://app?vid=4343b1e7-d1f3-40f5-b409-9c225479a53e","ios":"levelo://app?vid=4343b1e7-d1f3-40f5-b409-9c225479a53e"},"vehicle_type_id":"4","last_reported":1685783170,"current_range_meters":28000,"station_id":"ce4bhk92rcd13ifvqgb0","pricing_plan_id":"free"},{"bike_id":"368638da-a214-4699-b6b7-d172fe95e9cd","system_id":"levelo_inurba_marseille","lat":43.270721,"lon":5.422764,"is_reserved":false,"is_disabled":false,"rental_uris":{"android":"levelo://app?vid=368638da-a214-4699-b6b7-d172fe95e9cd","ios":"levelo://app?vid=368638da-a214-4699-b6b7-d172fe95e9cd"},"vehicle_type_id":"4","last_reported":1685783170,"current_range_meters":31200,"station_id":"ce4bhk92rcd13ifvqgb0","pricing_plan_id":"free"},{"bike_id":"3c11a2e3-394a-4b6e-a639-1f10f54de409","system_id":"levelo_inurba_marseille","lat":43.27066,"lon":5.42277,"is_reserved":false,"is_disabled":false,"rental_uris":{"android":"levelo://app?vid=3c11a2e3-394a-4b6e-a639-1f10f54de409","ios":"levelo://app?vid=3c11a2e3-394a-4b6e-a639-1f10f54de409"},"vehicle_type_id":"4","last_reported":1685783170,"current_range_meters":29200,"station_id":"ce4bhk92rcd13ifvqgb0","pricing_plan_id":"free"},{"bike_id":"0a3adffc-5c28-4831-9fb5-b37fc9aefbf3","system_id":"levelo_inurba_marseille","lat":43.270721,"lon":5.422764,"is_reserved":false,"is_disabled":false,"rental_uris":{"android":"levelo://app?vid=0a3adffc-5c28-4831-9fb5-b37fc9aefbf3","ios":"levelo://app?vid=0a3adffc-5c28-4831-9fb5-b37fc9aefbf3"},"vehicle_type_id":"4","last_reported":1685783170,"current_range_meters":31200,"station_id":"ce4bhk92rcd13ifvqgb0","pricing_plan_id":"free"},{"bike_id":"747e20c2-e111-474c-af82-d11dcc9fbff1","system_id":"levelo_inurba_marseille","lat":43.258658,"lon":5.398935,"is_reserved":false,"is_disabled":false,"rental_uris":{"android":"levelo://app?vid=747e20c2-e111-474c-af82-d11dcc9fbff1","ios":"levelo://app?vid=747e20c2-e111-474c-af82-d11dcc9fbff1"},"vehicle_type_id":"4","last_reported":1685783170,"current_range_meters":28000,"station_id":"ce4bhl92rcd13ifvqghg","pricing_plan_id":"free"},