{"last_updated":1738606355,"ttl":60,"version":"2.2","data":{"bikes":[{"bike_id":"45a4e446-0ed6-4ce9-878d-bed64e529f3d","system_id":"levelo_inurba_marseille","lat":43.28366,"lon":5.38629,"is_reserved":false,"is_disabled":false,"rental_uris":{"android":"levelo://app?vid=45a4e446-0ed6-4ce9-878d-bed64e529f3d","ios":"levelo://app?vid=45a4e446-0ed6-4ce9-878d-bed64e529f3d"},"vehicle_type_id":"4","last_reported":1738606355,"current_range_meters":38800,"station_id":"ce4bh492rcd13ifvqdvg","pricing_plan_id":"cebpf4jnsgd1na2vs0mg"},{"bike_id":"5f1674f9-cf20-4994-a98d-ae716db91b25","system_id":"levelo_inurba_marseille","lat":43.25079,"lon":5.39511,"is_reserved":false,"is_disabled":false,"rental_uris":{"android":"levelo://app?vid=5f1674f9-cf20-4994-a98d-ae716db91b25","ios":"levelo://app?vid=5f1674f9-cf20-4994-a98d-ae716db91b25"},"vehicle_type_id":"4","last_reported":1738606355,"current_range_meters":24000,"station_id":"ce4bhm12rcd13ifvqgkg","pricing_plan_id":"cebpf4jnsgd1na2vs0mg"},{"bike_id":"59c830b9-d6f0-49df-91e9-084aeda66649","system_id":"levelo_inurba_marseille","lat":43.29165,"lon":5.358,"is_reserved":false,"is_disabled":false,"rental_uris":{"android":"levelo://app?vid=59c830b9-d6f0-49df-91e9-084aeda66649","ios":"levelo://app?vid=59c830b9-d6f0-49df-91e9-084aeda66649"},"vehicle_type_id":"4","last_reported":1738606355,"current_range_meters":30000,"station_id":"ce4bhb12rcd13ifvqel0","pricing_plan_id":"cebpf4jnsgd1na2vs0mg"},{"bike_id":"176cb06f-f5e2-40ce-a5f0-b94c8af2011d","system_id":"levelo_inurba_marseille","lat":43.30915,"lon":5.36841,"is_reserved":false,"is_disabled":true,"rental_uris":{"android":"levelo://app?vid=176cb06f-f5e2-40ce-a5f0-b94c8af2011d","ios":"levelo://app?vid=176cb06f-f5e2-40ce-a5f0-b94c8af2011d"},"vehicle_type_id":"4","last_reported":1738606355,"current_range_meters":28800,"station_id":"ce4bgn92rcd13ifvqbvg","pricing_plan_id":"cebpf4jnsgd1na2vs0mg"},{"bike_id":"3623d7c5-0c4c-487e-8771-ef60e9a137c4","system_id":"levelo_inurba_marseille","lat":43.28411,"lon":5.3751,"is_reserved":false,"is_disabled":false,"rental_uris":{"android":"levelo://app?vid=3623d7c5-0c4c-487e-8771-ef60e9a137c4","ios":"levelo://app?vid=3623d7c5-0c4c-487e-8771-ef60e9a137c4"},"vehicle_type_id":"4","last_reported":1738606355,"current_range_meters":36000,"station_id":"ce4bh412rcd13ifvqds0","pricing_plan_id":"cebpf4jnsgd1na2vs0mg"},{"bike_id":"99bf1cde-2472-4b7f-b8c0-e56d1d6a547e","system_id":"levelo_inurba_marseille","lat":43.30946,"lon":5.39038,"is_reserved":false,"is_disabled":false,"rental_uris":{"android":"levelo://app?vid=99bf1cde-2472-4b7f-b8c0-e56d1d6a547e","ios":"levelo://app?vid=99bf1cde-2472-4b7f-b8c0-e56d1d6a547e"},"vehicle_type_id":"4","last_reported":1738606355,"current_range_meters":24800,"station_id":"ce4bgup2rcd13ifvqco0","pricing_plan_id":"cebpf4jnsgd1na2vs0mg"},{"bike_id":"3149968f-56ed-42cc-a9d2-94e4432b29b1","system_id":"levelo_inurba_marseille","lat":43.29227,"lon":5.36435,"is_reserved":false,"is_disabled":false,"rental_uris":{"android":"levelo://app?vid=3149968f-56ed-42cc-a9d2-94e4432b29b1","ios":"levelo://app?vid=3149968f-56ed-42cc-a9d2-94e4432b29b1"},"vehicle_type_id":"4","last_reported":1738606355,"current_range_meters":24800,"station_id":"ce4bgpp2rcd13ifvqc3g","pricing_plan_id":"cebpf4jnsgd1na2vs0mg"},{"bike_id":"74e9560f-13c2-4c17-93bc-9f98f9d34a18","system_id":"levelo_inurba_marseille","lat":43.29868,"lon":5.39739,"is_reserved":false,"is_disabled":false,"rental_uris":{"android":"levelo://app?vid=74e9560f-13c2-4c17-93bc-9f98f9d34a18","ios":"levelo://app?vid=74e9560f-13c2-4c17-93bc-9f98f9d34a18"},"vehicle_type_id":"4","last_reported":1738606355,"current_range_meters":18800,"station_id":"ce4bh0h2rcd13ifvqd50","pricing_plan_id":"cebpf4jnsgd1na2vs0mg"},{"bike_id":"7ad543c6-fb45-451c-add8-0b23712390bd","system_id":"levelo_inurba_marseille","lat":43.26932,"lon":5.40274,"is_reserved":false,"is_disabled":false,"rental_uris":{"android":"levelo://app?vid=7ad543c6-fb45-451c-add8-0b23712390bd","ios":"levelo://app?vid=7ad543c6-fb45-451c-add8-0b23712390bd"},"vehicle_type_id":"4","last_reported":1738606355,"current_range_meters":20800,"station_id":"cjm6bp8fraef2m0cb0m0","pricing_plan_id":"cebpf4jnsgd1na2vs0mg"},{"bike_id":"7dc27883-40ab-4d19-8393-cc8be3b27c26","system_id":"levelo_inurba_marseille","lat":43.29605,"lon":5.38105,"is_reserved":false,"is_disabled":false,"rental_uris":{"android":"levelo://app?vid=7dc27883-40ab-4d19-8393-cc8be3b27c26","ios":"levelo://app?vid=7dc27883-40ab-4d19-8393-cc8be3b27c26"},"vehicle_type_id":"4","last_reported":1738606355,"current_range_meters":25200,"station_id":"ce4bgl12rcd13ifvqbo0","pricing_plan_id":"cebpf4jnsgd1na2vs0mg"},{"bike_id":"d4adb474-fb27-4e54-8ba6-8a2753b906bd","system_id":"levelo_inurba_marseille","lat":43.24999,"lon":5.3893,"is_reserved":false,"is_disabled":false,"rental_uris":{"android":"levelo://app?vid=d4adb474-fb27-4e54-8ba6-8a2753b906bd","ios":"levelo://app?vid=d4adb474-fb27-4e54-8ba6-8a2753b906bd"},"vehicle_type_id":"4","last_reported":1738606355,"current_range_meters":27200,"station_id":"ce4bhgp2rcd13ifvqfd0","pricing_plan_id":"cebpf4jnsgd1na2vs0mg"},{"bike_id":"1b2a00ab-0c39-452a-a7e1-92a7a0c12c97","system_id":"levelo_inurba_marseille","lat":43.30932,"lon":5.40141,"is_reserved":false,"is_disabled":false,"rental_uris":{"android":"levelo://app?vid=1b2a00ab-0c39-452a-a7e1-92a7a0c12c97","ios":"levelo://app?vid=1b2a00ab-0c39-452a-a7e1-92a7a0c12c97"},"vehicle_type_id":"4","last_reported":1738606355,"current_range_meters":8800,"station_id":"ce4bgvp2rcd13ifvqct0","pricing_plan_id":"cebpf4jnsgd1na2vs0mg"},{"bike_id":"81fc2b49-7d41-4bc4-9c6c-fc4ded896c4f","system_id":"levelo_inurba_marseille","lat":43.29926,"lon":5.37467,"is_reserved":false,"is_disabled":true,"rental_uris":{"android":"levelo://app?vid=81fc2b49-7d41-4bc4-9c6c-fc4ded896c4f","ios":"levelo://app?vid=81fc2b49-7d41-4bc4-9c6c-fc4ded896c4f"},"vehicle_type_id":"4","last_reported":1738606355,"current_range_meters":36800,"station_id":"ce4bgjh2rcd13ifvqbg0","pricing_plan_id":"cebpf4jnsgd1na2vs0mg"},{"bike_id":"b2f5ad0b-e859-4a5a-afe6-19f2444b14ba","system_id":"levelo_inurba_marseille","lat":43.31994,"lon":5.38148,"is_reserved":false,"is_disabled":false,"rental_uris":{"android":"levelo://app?vid=b2f5ad0b-e859-4a5a-afe6-19f2444b14ba","ios":"levelo://app?vid=b2f5ad0b-e859-4a5a-afe6-19f2444b14ba"},"vehicle_type_id":"4","last_reported":1738606355,"current_range_meters":38800,"station_id":"ce4bhr12rcd13ifvqhpg","pricing_plan_id":"cebpf4jnsgd1na2vs0mg"},{"bike_id":"84e53465-926b-43ef-956d-fb0614e2633b","system_id":"levelo_inurba_marseille","lat":43.30412,"lon":5.41273,"is_reserved":false,"is_disabled":true,"rental_uris":{"android":"levelo://app?vid=84e53465-926b-43ef-956d-fb0614e2633b","ios":"levelo://app?vid=84e53465-926b-43ef-956d-fb0614e2633b"},"vehicle_type_id":"4","last_reported":1738606355,"current_range_meters":0,"station_id":"ce4bhop2rcd13ifvqh8g","pricing_plan_id":"cebpf4jnsgd1na2vs0mg"},{"bike_id":"25c854b7-f50f-4e66-856b-6f763a4fc570","system_id":"levelo_inurba_marseille","lat":43.27809,"lon":5.40707,"is_reserved":false,"is_disabled":false,"rental_uris":{"android":"levelo://app?vid=25c854b7-f50f-4e66-856b-6f763a4fc570","ios":"levelo://app?vid=25c854b7-f50f-4e66-856b-6f763a4fc570"},"vehicle_type_id":"4","last_reported":1738606355,"current_range_meters":33600,"station_id":"ce4bhnh2rcd13ifvqgtg","pricing_plan_id":"cebpf4jnsgd1na2vs0mg"},{"bike_id":"777596e0-4eeb-4015-94df-20ea73ea8d63","system_id":"levelo_inurba_marseille","lat":43.26059,"lon":5.39396,"is_reserved":false,"is_disabled":false,"rental_uris":{"android":"levelo://app?vid=777596e0-4eeb-4015-94df-20ea73ea8d63","ios":"levelo://app?vid=777596e0-4eeb-4015-94df-20ea73ea8d63"},"vehicle_type_id":"4","last_reported":1738606355,"current_range_meters":32000,"station_id":"ce4bhh92rcd13ifvqfj0","pricing_plan_id":"cebpf4jnsgd1na2vs0mg"},{"bike_id":"b04af40c-403c-4407-9e42-e0557c0b9076","system_id":"levelo_inurba_marseille","lat":43.30899,"lon":5.39625,"is_reserved":false,"is_disabled":false,"rental_uris":{"android":"levelo://app?vid=b04af40c-403c-4407-9e42-e0557c0b9076","ios":"levelo://app?vid=b04af40c-403c-4407-9e42-e0557c0b9076"},"vehicle_type_id":"4","last_reported":1738606355,"current_range_meters":28800,"station_id":"ce4bh012rcd13ifvqcv0","pricing_plan_id":"cebpf4jnsgd1na2vs0mg"},{"bike_id":"6b26f234-554f-4483-95bb-31a435b0c022","system_id":"levelo_inurba_marseille","lat":43.29571,"lon":5.37539,"is_reserved":false,"is_disabled":false,"rental_uris":{"android":"levelo://app?vid=6b26f234-554f-4483-95bb-31a435b0c022","ios":"levelo://app?vid=6b26f234-554f-4483-95bb-31a435b0c022"},"vehicle_type_id":"4","last_reported":1738606355,"current_range_meters":2800,"station_id":"ce4bgh92rcd13ifvqb50","pricing_plan_id":"cebpf4jnsgd1na2vs0mg"},{"bike_id":"ff5e2147-d8d5-4403-9b53-ce5d27d5cc94","system_id":"levelo_inurba_marseille","lat":43.29609,"lon":5.37726,"is_reserved":false,"is_disabled":false,"rental_uris":{"android":"levelo://app?vid=ff5e2147-d8d5-4403-9b53-ce5d27d5cc94","ios":"levelo://app?vid=ff5e2147-d8d5-4403-9b53-ce5d27d5cc94"},"vehicle_type_id":"4","last_reported":1738606355,"current_range_meters":38400,"station_id":"ce4bgi92rcd13ifvqb90","pricing_plan_id":"cebpf4jnsgd1na2vs0mg"},{"bike_id":"3ebc965d-e4ab-4de9-812c-56981d0cd4f9","system_id":"levelo_inurba_marseille","lat":43.29846,"lon":5.36276,"is_reserved":false,"is_disabled":false,"rental_uris":{"android":"levelo://app?vid=3ebc965d-e4ab-4de9-812c-56981d0cd4f9","ios":"levelo://app?vid=3ebc965d-e4ab-4de9-812c-56981d0cd4f9"},"vehicle_type_id":"4","last_reported":1738606355,"current_range_meters":23200,"station_id":"ce4bgpp2rcd13ifvqc3g","pricing_plan_id":"cebpf4jnsgd1na2vs0mg"},{"bike_id":"98d4a361-037f-4802-ae65-4e19b7348458","system_id":"levelo_inurba_marseille","lat":43.30431,"lon":5.38898,"is_reserved":false,"is_disabled":false,"rental_uris":{"android":"levelo://app?vid=98d4a361-037f-4802-ae65-4e19b7348458","ios":"levelo://app?vid=98d4a361-037f-4802-ae65-4e19b7348458"},"vehicle_type_id":"4","last_reported":1738606355,"current_range_meters":24800,"station_id":"ce4bgk12rcd13ifvqbi0","pricing_plan_id":"cebpf4jnsgd1na2vs0mg"},{"bike_id":"3e574816-3754-460d-8072-f6ebe3757ea0","system_id":"levelo_inurba_marseille","lat":43.3236,"lon":5.36771,"is_reserved":false,"is_disabled":false,"rental_uris":{"android":"levelo://app?vid=3e574816-3754-460d-8072-f6ebe3757ea0","ios":"levelo://app?vid=3e574816-3754-460d-8072-f6ebe3757ea0"},"vehicle_type_id":"4","last_reported":1738606355,"current_range_meters":21600,"station_id":"ce4bhsh2rcd13ifvqi2g","pricing_plan_id":"cebpf4jnsgd1na2vs0mg"},{"bike_id":"dea0e5fd-910a-4a0d-9126-e8938909c572","system_id":"levelo_inurba_marseille","lat":43.2835,"lon":5.38099,"is_reserved":false,"is_disabled":false,"rental_uris":{"android":"levelo://app?vid=dea0e5fd-910a-4a0d-9126-e8938909c572","ios":"levelo://app?vid=dea0e5fd-910a-4a0d-9126-e8938909c572"},"vehicle_type_id":"4","last_reported":1738606355,"current_range_meters":27200,"station_id":"ce4bh412rcd13ifvqdr0","pricing_plan_id":"cebpf4jnsgd1na2vs0mg"},{"bike_id":"a1a7079b-68b5-45ca-9af8-b6bc9f7cd559","system_id":"levelo_inurba_marseille","lat":43.22945,"lon":5.35382,"is_reserved":false,"is_disabled":false,"rental_uris":{"android":"levelo://app?vid=a1a7079b-68b5-45ca-9af8-b6bc9f7cd559","ios":"levelo://app?vid=a1a7079b-68b5-45ca-9af8-b6bc9f7cd559"},"vehicle_type_id":"4","last_reported":1738606355,"current_range_meters":38800,"station_id":"cpo3532slgdg3j2ikp40","pricing_plan_id":"cebpf4jnsgd1na2vs0mg"},{"bike_id":"391156ab-23e6-4087-9fff-4d00554806c8","system_id":"levelo_inurba_marseille","lat":43.27566,"lon":5.38397,"is_reserved":false,"is_disabled":false,"rental_uris":{"android":"levelo://app?vid=391156ab-23e6-4087-9fff-4d00554806c8","ios":"levelo://app?vid=391156ab-23e6-4087-9fff-4d00554806c8"},"vehicle_type_id":"4","last_reported":1738606355,"current_range_meters":36400,"station_id":"ce4bhh92rcd13ifvqfi0","pricing_plan_id":"cebpf4jnsgd1na2vs0mg"},{"bike_id":"48c56239-293b-4cce-9890-0a47de82de7e","system_id":"levelo_inurba_marseille","lat":43.29266,"lon":5.38449,"is_reserved":false,"is_disabled":false,"rental_uris":{"android":"levelo://app?vid=48c56239-293b-4cce-9890-0a47de82de7e","ios":"levelo://app?vid=48c56239-293b-4cce-9890-0a47de82de7e"},"vehicle_type_id":"4","last_reported":1738606355,"current_range_meters":38400,"station_id":"ce4bh692rcd13ifvqea0","pricing_plan_id":"cebpf4jnsgd1na2vs0mg"},{"bike_id":"b2a18e72-8866-4c7e-9003-febd06861c7c","system_id":"levelo_inurba_marseille","lat":43.26241,"lon":5.37443,"is_reserved":false,"is_disabled":false,"rental_uris":{"android":"levelo://app?vid=b2a18e72-8866-4c7e-9003-febd06861c7c","ios":"levelo://app?vid=b2a18e72-8866-4c7e-9003-febd06861c7c"},"vehicle_type_id":"4","last_reported":1738606355,"current_range_meters":5600,"station_id":"","pricing_plan_id":"cebpf4jnsgd1na2vs0mg"},{"bike_id":"03c58b86-6f9e-4876-a067-63e726c4181d","system_id":"levelo_inurba_marseille","lat":43.29789,"lon":5.39334,"is_reserved":false,"is_disabled":true,"rental_uris":{"android":"levelo://app?vid=03c58b86-6f9e-4876-a067-63e726c4181d","ios":"levelo://app?vid=03c58b86-6f9e-4876-a067-63e726c4181d"},"vehicle_type_id":"4","last_reported":1738606355,"current_range_meters":2000,"station_id":"chh1huq6cuj3fo74tm60","pricing_plan_id":"cebpf4jnsgd1na2vs0mg"},{"bike_id":"8b7cdb48-c19b-44dd-8859-dc2aba3e48ea","system_id":"levelo_inurba_marseille","lat":43.25578,"lon":5.38232,"is_reserved":false,"is_disabled":false,"rental_uris":{"android":"levelo://app?vid=8b7cdb48-c19b-44dd-8859-dc2aba3e48ea","ios":"levelo://app?vid=8b7cdb48-c19b-44dd-8859-dc2aba3e48ea"},"vehicle_type_id":"4","last_reported":1738606355,"current_range_meters":9200,"station_id":"ce4bhih2rcd13ifvqfs0","pricing_plan_id":"cebpf4jnsgd1na2vs0mg"},{"bike_id":"1e80229c-3730-4f6a-ad92-db35f7d75e3d","system_id":"levelo_inurba_marseille","lat":43.2716,"lon":5.40993,"is_reserved":false,"is_disabled":false,"rental_uris":{"android":"levelo://app?vid=1e80229c-3730-4f6a-ad92-db35f7d75e3d","ios":"levelo://app?vid=1e80229c-3730-4f6a-ad92-db35f7d75e3d"},"vehicle_type_id":"4","last_reported":1738606355,"current_range_meters":38800,"station_id":"ce4bhl12rcd13ifvqgf0","pricing_plan_id":"cebpf4jnsgd1na2vs0mg"},{"bike_id":"b2a6436f-4c95-46dd-a3bd-6af91e9591d2","system_id":"levelo_inurba_marseille","lat":43.25591,"lon":5.38238,"is_reserved":false,"is_disabled":false,"rental_uris":{"android":"levelo://app?vid=b2a6436f-4c95-46dd-a3bd-6af91e9591d2","ios":"levelo://app?vid=b2a6436f-4c95-46dd-a3bd-6af91e9591d2"},"vehicle_type_id":"4","last_reported":1738606355,"current_range_meters":23200,"station_id":"ce4bhih2rcd13ifvqfs0","pricing_plan_id":"cebpf4jnsgd1na2vs0mg"},{"bike_id":"df5c2416-dfc3-4cb6-88bd-e3d4725b0899","system_id":"levelo_inurba_marseille","lat":43.30948,"lon":5.39046,"is_reserved":false,"is_disabled":false,"rental_uris":{"android":"levelo://app?vid=df5c2416-dfc3-4cb6-88bd-e3d4725b0899","ios":"levelo://app?vid=df5c2416-dfc3-4cb6-88bd-e3d4725b0899"},"vehicle_type_id":"4","last_reported":1738606355,"current_range_meters":15200,"station_id":"ce4bgup2rcd13ifvqco0","pricing_plan_id":"cebpf4jnsgd1na2vs0mg"},{"bike_id":"7aeb2ff3-fef5-4f2c-ac54-428c38533824","system_id":"levelo_inurba_marseille","lat":43.27944,"lon":5.41045,"is_reserved":false,"is_disabled":false,"rental_uris":{"android":"levelo://app?vid=7aeb2ff3-fef5-4f2c-ac54-428c38533824","ios":"levelo://app?vid=7aeb2ff3-fef5-4f2c-ac54-428c38533824"},"vehicle_type_id":"4","last_reported":1738606355,"current_range_meters":4000,"station_id":"ce4bhnp2rcd13ifvqh0g","pricing_plan_id":"cebpf4jnsgd1na2vs0mg"},{"bike_id":"7b5e9fe8-7392-446f-9ce8-2e7f09cbe0f1","system_id":"levelo_inurba_marseille","lat":43.29026,"lon":5.38636,"is_reserved":false,"is_disabled":false,"rental_uris":{"android":"levelo://app?vid=7b5e9fe8-7392-446f-9ce8-2e7f09cbe0f1","ios":"levelo://app?vid=7b5e9fe8-7392-446f-9ce8-2e7f09cbe0f1"},"vehicle_type_id":"4","last_reported":1738606355,"current_range_meters":10000,"station_id":"ce4bh4p2rcd13ifvqe0g","pricing_plan_id":"cebpf4jnsgd1na2vs0mg"},{"bike_id":"1a0ab282-96cc-4eda-98fb-8dbaf401e70b","system_id":"levelo_inurba_marseille","lat":43.26228,"lon":5.40461,"is_reserved":false,"is_disabled":true,"rental_uris":{"android":"levelo://app?vid=1a0ab282-96cc-4eda-98fb-8dbaf401e70b","ios":"levelo://app?vid=1a0ab282-96cc-4eda-98fb-8dbaf401e70b"},"vehicle_type_id":"4","last_reported":1738606355,"current_range_meters":800,"station_id":"ce4bhmh2rcd13ifvqgmg","pricing_plan_id":"cebpf4jnsgd1na2vs0mg"},{"bike_id":"25272930-1403-4bf5-a182-5c86b6b9502c","system_id":"levelo_inurba_marseille","lat":43.258199,"lon":5.394412,"is_reserved":false,"is_disabled":false,"rental_uris":{"android":"levelo://app?vid=25272930-1403-4bf5-a182-5c86b6b9502c","ios":"levelo://app?vid=25272930-1403-4bf5-a182-5c86b6b9502c"},"vehicle_type_id":"4","last_reported":1738606355,"current_range_meters":38400,"station_id":"ce4bhip2rcd13ifvqft0","pricing_plan_id":"cebpf4jnsgd1na2vs0mg"},{"bike_id":"1a794636-1de8-48ff-a1bf-f41557cb147d","system_id":"levelo_inurba_marseille","lat":43.34608,"lon":5.38088,"is_reserved":false,"is_disabled":false,"rental_uris":{"android":"levelo://app?vid=1a794636-1de8-48ff-a1bf-f41557cb147d","ios":"levelo://app?vid=1a794636-1de8-48ff-a1bf-f41557cb147d"},"vehicle_type_id":"4","last_reported":1738606355,"current_range_meters":17200,"station_id":"","pricing_plan_id":"cebpf4jnsgd1na2vs0mg"},{"bike_id":"3c8e5445-cf86-469e-9c11-4a5caaef9b7e","system_id":"levelo_inurba_marseille","lat":43.24646,"lon":5.38892,"is_reserved":false,"is_disabled":false,"rental_uris":{"android":"levelo://app?vid=3c8e5445-cf86-469e-9c11-4a5caaef9b7e","ios":"levelo://app?vid=3c8e5445-cf86-469e-9c11-4a5caaef9b7e"},"vehicle_type_id":"4","last_reported":1738606355,"current_range_meters":39200,"station_id":"ce4bhg12rcd13ifvqf60","pricing_plan_id":"cebpf4jnsgd1na2vs0mg"},{"bike_id":"1f7f56c2-5fe4-45ba-a01d-8ead4491e6cd","system_id":"levelo_inurba_marseille","lat":43.28359,"lon":5.38638,"is_reserved":false,"is_disabled":false,"rental_uris":{"android":"levelo://app?vid=1f7f56c2-5fe4-45ba-a01d-8ead4491e6cd","ios":"levelo://app?vid=1f7f56c2-5fe4-45ba-a01d-8ead4491e6cd"},"vehicle_type_id":"4","last_reported":1738606355,"current_range_meters":36800,"station_id":"ce4bh492rcd13ifvqdvg","pricing_plan_id":"cebpf4jnsgd1na2vs0mg"},{"bike_id":"9f236d9f-a2ab-4b43-9d96-95758e238edd","system_id":"levelo_inurba_marseille","lat":43.29229,"lon":5.36048,"is_reserved":false,"is_disabled":false,"rental_uris":{"android":"levelo://app?vid=9f236d9f-a2ab-4b43-9d96-95758e238edd","ios":"levelo://app?vid=9f236d9f-a2ab-4b43-9d96-95758e238edd"},"vehicle_type_id":"4","last_reported":1738606355,"current_range_meters":38000,"station_id":"ce4bhbh2rcd13ifvqeqg","pricing_plan_id":"cebpf4jnsgd1na2vs0mg"},{"bike_id":"24d200a3-89f6-432e-ba96-3afce03f9928","system_id":"levelo_inurba_marseille","lat":43.27174,"lon":5.40998,"is_reserved":false,"is_disabled":false,"rental_uris":{"android":"levelo://app?vid=24d200a3-89f6-432e-ba96-3afce03f9928","ios":"levelo://app?vid=24d200a3-89f6-432e-ba96-3afce03f9928"},"vehicle_type_id":"4","last_reported":1738606355,"current_range_meters":22400,"station_id":"ce4bhl12rcd13ifvqgf0","pricing_plan_id":"cebpf4jnsgd1na2vs0mg"},{"bike_id":"c3f024be-846e-467d-8c49-c1790a4b148c","system_id":"levelo_inurba_marseille","lat":43.30867,"lon":5.39646,"is_reserved":false,"is_disabled":false,"rental_uris":{"android":"levelo://app?vid=c3f024be-846e-467d-8c49-c1790a4b148c","ios":"levelo://app?vid=c3f024be-846e-467d-8c49-c1790a4b148c"},"vehicle_type_id":"4","last_reported":1738606355,"current_range_meters":38800,"station_id":"ce4bh012rcd13ifvqcv0","pricing_plan_id":"cebpf4jnsgd1na2vs0mg"},{"bike_id":"30d68ac6-7ba6-4749-8154-bf914e372a6a","system_id":"levelo_inurba_marseille","lat":43.32365,"lon":5.38873,"is_reserved":false,"is_disabled":false,"rental_uris":{"android":"levelo://app?vid=30d68ac6-7ba6-4749-8154-bf914e372a6a","ios":"levelo://app?vid=30d68ac6-7ba6-4749-8154-bf914e372a6a"},"vehicle_type_id":"4","last_reported":1738606355,"current_range_meters":38800,"station_id":"ce4bhqp2rcd13ifvqhog","pricing_plan_id":"cebpf4jnsgd1na2vs0mg"},{"bike_id":"70db77fa-5101-4cc3-b5ef-7ecd27e20697","system_id":"levelo_inurba_marseille","lat":43.23055,"lon":5.35502,"is_reserved":false,"is_disabled":false,"rental_uris":{"android":"levelo://app?vid=70db77fa-5101-4cc3-b5ef-7ecd27e20697","ios":"levelo://app?vid=70db77fa-5101-4cc3-b5ef-7ecd27e20697"},"vehicle_type_id":"4","last_reported":1738606355,"current_range_meters":27200,"station_id":"cpo3342slgdg3j2ifvpg","pricing_plan_id":"cebpf4jnsgd1na2vs0mg"},{"bike_id":"f6dacf6b-80aa-4ed3-b60f-a447a5860aff","system_id":"levelo_inurba_marseille","lat":43.2922,"lon":5.36066,"is_reserved":false,"is_disabled":false,"rental_uris":{"android":"levelo://app?vid=f6dacf6b-80aa-4ed3-b60f-a447a5860aff","ios":"levelo://app?vid=f6dacf6b-80aa-4ed3-b60f-a447a5860aff"},"vehicle_type_id":"4","last_reported":1738606355,"current_range_meters":17600,"station_id":"ce4bhbh2rcd13ifvqeqg","pricing_plan_id":"cebpf4jnsgd1na2vs0mg"},{"bike_id":"e33c097b-83d0-40ec-9fbf-364e5b0a9ef8","system_id":"levelo_inurba_marseille","lat":43.23193,"lon":5.35551,"is_reserved":false,"is_disabled":false,"rental_uris":{"android":"levelo://app?vid=e33c097b-83d0-40ec-9fbf-364e5b0a9ef8","ios":"levelo://app?vid=e33c097b-83d0-40ec-9fbf-364e5b0a9ef8"},"vehicle_type_id":"4","last_reported":1738606355,"current_range_meters":39200,"station_id":"ce4bhu92rcd13ifvqi70","pricing_plan_id":"cebpf4jnsgd1na2vs0mg"},{"bike_id":"d6f02520-635e-46c2-8e07-c16cc87391a5","system_id":"levelo_inurba_marseille","lat":43.29517,"lon":5.39418,"is_reserved":false,"is_disabled":false,"rental_uris":{"android":"levelo://app?vid=d6f02520-635e-46c2-8e07-c16cc87391a5","ios":"levelo://app?vid=d6f02520-635e-46c2-8e07-c16cc87391a5"},"vehicle_type_id":"4","last_reported":1738606355,"current_range_meters":24000,"station_id":"ce4bh292rcd13ifvqdf0","pricing_plan_id":"cebpf4jnsgd1na2vs0mg"},{"bike_id":"1c76b995-c945-44fc-a497-fc47eb597fd6","system_id":"levelo_inurba_marseille","lat":43.2884,"lon":5.35913,"is_reserved":false,"is_disabled":false,"rental_uris":{"android":"levelo://app?vid=1c76b995-c945-44fc-a497-fc47eb597fd6","ios":"levelo://app?vid=1c76b995-c945-44fc-a497-fc47eb597fd6"},"vehicle_type_id":"4","last_reported":1738606355,"current_range_meters":38800,"station_id":"ce4bhb12rcd13ifvqem0","pricing_plan_id":"cebpf4jnsgd1na2vs0mg"},{"bike_id":"272a6181-bfe1-4f12-b3df-d057573256ce","system_id":"levelo_inurba_marseille","lat":43.28461,"lon":5.35892,"is_reserved":false,"is_disabled":false,"rental_uris":{"android":"levelo://app?vid=272a6181-bfe1-4f12-b3df-d057573256ce","ios":"levelo://app?vid=272a6181-bfe1-4f12-b3df-d057573256ce"},"vehicle_type_id":"4","last_reported":1738606355,"current_range_meters":38800,"station_id":"ce4bhah2rcd13ifvqei0","pricing_plan_id":"cebpf4jnsgd1na2vs0mg"},{"bike_id":"218756b8-f746-47f5-bc4c-4c14dcb10eb4","system_id":"levelo_inurba_marseille","lat":43.26936,"lon":5.40264,"is_reserved":false,"is_disabled":false,"rental_uris":{"android":"levelo://app?vid=218756b8-f746-47f5-bc4c-4c14dcb10eb4","ios":"levelo://app?vid=218756b8-f746-47f5-bc4c-4c14dcb10eb4"},"vehicle_type_id":"4","last_reported":1738606355,"current_range_meters":31200,"station_id":"cjm6bp8fraef2m0cb0m0","pricing_plan_id":"cebpf4jnsgd1na2vs0mg"},{"bike_id":"c35342df-ec1d-4275-9b30-8fabfad4ad52","system_id":"levelo_inurba_marseille","lat":43.29038,"lon":5.37583,"is_reserved":false,"is_disabled":false,"rental_uris":{"android":"levelo://app?vid=c35342df-ec1d-4275-9b30-8fabfad4ad52","ios":"levelo://app?vid=c35342df-ec1d-4275-9b30-8fabfad4ad52"},"vehicle_type_id":"4","last_reported":1738606355,"current_range_meters":8400,"station_id":"ce4bh692rcd13ifvqe90","pricing_plan_id":"cebpf4jnsgd1na2vs0mg"},{"bike_id":"36c59cc3-cea9-47a3-a8cf-c96b91c44490","system_id":"levelo_inurba_marseille","lat":43.28001,"lon":5.4002,"is_reserved":false,"is_disabled":false,"rental_uris":{"android":"levelo://app?vid=36c59cc3-cea9-47a3-a8cf-c96b91c44490","ios":"levelo://app?vid=36c59cc3-cea9-47a3-a8cf-c96b91c44490"},"vehicle_type_id":"4","last_reported":1738606355,"current_range_meters":28400,"station_id":"ce4bho92rcd13ifvqh4g","pricing_plan_id":"cebpf4jnsgd1na2vs0mg"},{"bike_id":"89e0fb27-5f26-4cfe-9f61-e8651117733f","system_id":"levelo_inurba_marseille","lat":43.22925,"lon":5.35379,"is_reserved":false,"is_disabled":false,"rental_uris":{"android":"levelo://app?vid=89e0fb27-5f26-4cfe-9f61-e8651117733f","ios":"levelo://app?vid=89e0fb27-5f26-4cfe-9f61-e8651117733f"},"vehicle_type_id":"4","last_reported":1738606355,"current_range_meters":38800,"station_id":"cpo3532slgdg3j2ikp40","pricing_plan_id":"cebpf4jnsgd1na2vs0mg"},{"bike_id":"5fc1e6a1-9ce2-44a2-a760-73e6984cf198","system_id":"levelo_inurba_marseille","lat":43.2953,"lon":5.37504,"is_reserved":false,"is_disabled":false,"rental_uris":{"android":"levelo://app?vid=5fc1e6a1-9ce2-44a2-a760-73e6984cf198","ios":"levelo://app?vid=5fc1e6a1-9ce2-44a2-a760-73e6984cf198"},"vehicle_type_id":"4","last_reported":1738606355,"current_range_meters":33200,"station_id":"ce4bgkp2rcd13ifvqbmg","pricing_plan_id":"cebpf4jnsgd1na2vs0mg"},{"bike_id":"d9a0037b-ea73-422f-86c2-72b990424241","system_id":"levelo_inurba_marseille","lat":43.23966,"lon":5.36639,"is_reserved":false,"is_disabled":false,"rental_uris":{"android":"levelo://app?vid=d9a0037b-ea73-422f-86c2-72b990424241","ios":"levelo://app?vid=d9a0037b-ea73-422f-86c2-72b990424241"},"vehicle_type_id":"4","last_reported":1738606355,"current_range_meters":16800,"station_id":"ce4bhi12rcd13ifvqfp0","pricing_plan_id":"cebpf4jnsgd1na2vs0mg"},{"bike_id":"de27dfc9-f2fb-4778-8226-69a993c0eb2e","system_id":"levelo_inurba_marseille","lat":43.24545,"lon":5.39518,"is_reserved":false,"is_disabled":false,"rental_uris":{"android":"levelo://app?vid=de27dfc9-f2fb-4778-8226-69a993c0eb2e","ios":"levelo://app?vid=de27dfc9-f2fb-4778-8226-69a993c0eb2e"},"vehicle_type_id":"4","last_reported":1738606355,"current_range_meters":38400,"station_id":"ce4bhlp2rcd13ifvqgjg","pricing_plan_id":"cebpf4jnsgd1na2vs0mg"},{"bike_id":"bbacedf1-5d29-49eb-aad8-970862565212","system_id":"levelo_inurba_marseille","lat":43.31119,"lon":5.37785,"is_reserved":false,"is_disabled":true,"rental_uris":{"android":"levelo://app?vid=bbacedf1-5d29-49eb-aad8-970862565212","ios":"levelo://app?vid=bbacedf1-5d29-49eb-aad8-970862565212"},"vehicle_type_id":"4","last_reported":1738606355,"current_range_meters":800,"station_id":"ce4bgt92rcd13ifvqcg0","pricing_plan_id":"cebpf4jnsgd1na2vs0mg"},{"bike_id":"3e92e2d8-7c23-4a21-a753-85318379f30c","system_id":"levelo_inurba_marseille","lat":43.29276,"lon":5.36842,"is_reserved":false,"is_disabled":false,"rental_uris":{"android":"levelo://app?vid=3e92e2d8-7c23-4a21-a753-85318379f30c","ios":"levelo://app?vid=3e92e2d8-7c23-4a21-a753-85318379f30c"},"vehicle_type_id":"4","last_reported":1738606355,"current_range_meters":28400,"station_id":"ce4bhbp2rcd13ifvqesg","pricing_plan_id":"cebpf4jnsgd1na2vs0mg"},{"bike_id":"f15d8bba-7379-40a8-b1fd-ac563c3c8549","system_id":"levelo_inurba_marseille","lat":43.24543,"lon":5.39522,"is_reserved":false,"is_disabled":false,"rental_uris":{"android":"levelo://app?vid=f15d8bba-7379-40a8-b1fd-ac563c3c8549","ios":"levelo://app?vid=f15d8bba-7379-40a8-b1fd-ac563c3c8549"},"vehicle_type_id":"4","last_reported":1738606355,"current_range_meters":12400,"station_id":"ce4bhlp2rcd13ifvqgjg","pricing_plan_id":"cebpf4jnsgd1na2vs0mg"},{"bike_id":"8800dd5a-d74f-4ee5-bc96-f6630250f422","system_id":"levelo_inurba_marseille","lat":43.23962,"lon":5.36636,"is_reserved":false,"is_disabled":false,"rental_uris":{"android":"levelo://app?vid=8800dd5a-d74f-4ee5-bc96-f6630250f422","ios":"levelo://app?vid=8800dd5a-d74f-4ee5-bc96-f6630250f422"},"vehicle_type_id":"4","last_reported":1738606355,"current_range_meters":36400,"station_id":"ce4bhi12rcd13ifvqfp0","pricing_plan_id":"cebpf4jnsgd1na2vs0mg"},{"bike_id":"8270da70-a2d5-49f3-9df0-efc0215a4d15","system_id":"levelo_inurba_marseille","lat":43.32334,"lon":5.40621,"is_reserved":false,"is_disabled":false,"rental_uris":{"android":"levelo://app?vid=8270da70-a2d5-49f3-9df0-efc0215a4d15","ios":"levelo://app?vid=8270da70-a2d5-49f3-9df0-efc0215a4d15"},"vehicle_type_id":"4","last_reported":1738606355,"current_range_meters":39200,"station_id":"ce4bhq92rcd13ifvqhjg","pricing_plan_id":"cebpf4jnsgd1na2vs0mg"},{"bike_id":"f793b0f1-dc3d-4665-8119-792bda6e89e8","system_id":"levelo_inurba_marseille","lat":43.23201,"lon":5.39973,"is_reserved":false,"is_disabled":false,"rental_uris":{"android":"levelo://app?vid=f793b0f1-dc3d-4665-8119-792bda6e89e8","ios":"levelo://app?vid=f793b0f1-dc3d-4665-8119-792bda6e89e8"},"vehicle_type_id":"4","last_reported":1738606355,"current_range_meters":6400,"station_id":"ce4bhn12rcd13ifvqgqg","pricing_plan_id":"cebpf4jnsgd1na2vs0mg"},{"bike_id":"9a246337-8b93-40ac-8041-a37c41945aaf","system_id":"levelo_inurba_marseille","lat":43.26941,"lon":5.40253,"is_reserved":false,"is_disabled":false,"rental_uris":{"android":"levelo://app?vid=9a246337-8b93-40ac-8041-a37c41945aaf","ios":"levelo://app?vid=9a246337-8b93-40ac-8041-a37c41945aaf"},"vehicle_type_id":"4","last_reported":1738606355,"current_range_meters":9600,"station_id":"cjm6bp8fraef2m0cb0m0","pricing_plan_id":"cebpf4jnsgd1na2vs0mg"},{"bike_id":"3bee43d5-e27e-4692-8630-5bfa4bfc3f39","system_id":"levelo_inurba_marseille","lat":43.322986,"lon":5.382902,"is_reserved":false,"is_disabled":false,"rental_uris":{"android":"levelo://app?vid=3bee43d5-e27e-4692-8630-5bfa4bfc3f39","ios":"levelo://app?vid=3bee43d5-e27e-4692-8630-5bfa4bfc3f39"},"vehicle_type_id":"4","last_reported":1738606355,"current_range_meters":28000,"station_id":"ce4bhr12rcd13ifvqhqg","pricing_plan_id":"cebpf4jnsgd1na2vs0mg"},{"bike_id":"dff19049-5568-464f-8195-da5ffd56d6e5","system_id":"levelo_inurba_marseille","lat":43.29721,"lon":5.36619,"is_reserved":false,"is_disabled":false,"rental_uris":{"android":"levelo://app?vid=dff19049-5568-464f-8195-da5ffd56d6e5","ios":"levelo://app?vid=dff19049-5568-464f-8195-da5ffd56d6e5"},"vehicle_type_id":"4","last_reported":1738606355,"current_range_meters":37600,"station_id":"ce4bgn12rcd13ifvqbt0","pricing_plan_id":"cebpf4jnsgd1na2vs0mg"},{"bike_id":"cb9e092a-81a9-4536-b645-1d1f9d6be896","system_id":"levelo_inurba_marseille","lat":43.28423,"lon":5.37525,"is_reserved":false,"is_disabled":false,"rental_uris":{"android":"levelo://app?vid=cb9e092a-81a9-4536-b645-1d1f9d6be896","ios":"levelo://app?vid=cb9e092a-81a9-4536-b645-1d1f9d6be896"},"vehicle_type_id":"4","last_reported":1738606355,"current_range_meters":14800,"station_id":"ce4bh412rcd13ifvqds0","pricing_plan_id":"cebpf4jnsgd1na2vs0mg"},{"bike_id":"9fcad65d-52fb-44ed-93c5-1d51f96e3e5c","system_id":"levelo_inurba_marseille","lat":43.29891,"lon":5.39738,"is_reserved":false,"is_disabled":false,"rental_uris":{"android":"levelo://app?vid=9fcad65d-52fb-44ed-93c5-1d51f96e3e5c","ios":"levelo://app?vid=9fcad65d-52fb-44ed-93c5-1d51f96e3e5c"},"vehicle_type_id":"4","last_reported":1738606355,"current_range_meters":36400,"station_id":"ce4bh0h2rcd13ifvqd50","pricing_plan_id":"cebpf4jnsgd1na2vs0mg"},{"bike_id":"3ab0ceb6-cd89-477f-8038-1be761eb4bda","system_id":"levelo_inurba_marseille","lat":43.2921,"lon":5.36051,"is_reserved":false,"is_disabled":false,"rental_uris":{"android":"levelo://app?vid=3ab0ceb6-cd89-477f-8038-1be761eb4bda","ios":"levelo://app?vid=3ab0ceb6-cd89-477f-8038-1be761eb4bda"},"vehicle_type_id":"4","last_reported":1738606355,"current_range_meters":17600,"station_id":"ce4bhbh2rcd13ifvqeqg","pricing_plan_id":"cebpf4jnsgd1na2vs0mg"},{"bike_id":"8e599b88-5a17-40c8-a99e-aa5dfac0c156","system_id":"levelo_inurba_marseille","lat":43.24808,"lon":5.37445,"is_reserved":false,"is_disabled":false,"rental_uris":{"android":"levelo://app?vid=8e599b88-5a17-40c8-a99e-aa5dfac0c156","ios":"levelo://app?vid=8e599b88-5a17-40c8-a99e-aa5dfac0c156"},"vehicle_type_id":"4","last_reported":1738606355,"current_range_meters":28800,"station_id":"ce4bhgh2rcd13ifvqfb0","pricing_plan_id":"cebpf4jnsgd1na2vs0mg"},{"bike_id":"e0d17065-53d8-4378-bcfe-38f76c6ed5ec","system_id":"levelo_inurba_marseille","lat":43.23965,"lon":5.36635,"is_reserved":false,"is_disabled":false,"rental_uris":{"android":"levelo://app?vid=e0d17065-53d8-4378-bcfe-38f76c6ed5ec","ios":"levelo://app?vid=e0d17065-53d8-4378-bcfe-38f76c6ed5ec"},"vehicle_type_id":"4","last_reported":1738606355,"current_range_meters":22800,"station_id":"ce4bhi12rcd13ifvqfp0","pricing_plan_id":"cebpf4jnsgd1na2vs0mg"},{"bike_id":"5d7073b1-8e2c-4bc6-b48d-9ad4bd6f18b4","system_id":"levelo_inurba_marseille","lat":43.29197,"lon":5.39313,"is_reserved":false,"is_disabled":false,"rental_uris":{"android":"levelo://app?vid=5d7073b1-8e2c-4bc6-b48d-9ad4bd6f18b4","ios":"levelo://app?vid=5d7073b1-8e2c-4bc6-b48d-9ad4bd6f18b4"},"vehicle_type_id":"4","last_reported":1738606355,"current_range_meters":16800,"station_id":"ce4bh192rcd13ifvqdd0","pricing_plan_id":"cebpf4jnsgd1na2vs0mg"},{"bike_id":"ecffe05c-41c8-4600-8b17-f0a84aa1c95c","system_id":"levelo_inurba_marseille","lat":43.28934,"lon":5.36627,"is_reserved":false,"is_disabled":false,"rental_uris":{"android":"levelo://app?vid=ecffe05c-41c8-4600-8b17-f0a84aa1c95c","ios":"levelo://app?vid=ecffe05c-41c8-4600-8b17-f0a84aa1c95c"},"vehicle_type_id":"4","last_reported":1738606355,"current_range_meters":38800,"station_id":"ce4bhap2rcd13ifvqek0","pricing_plan_id":"cebpf4jnsgd1na2vs0mg"},{"bike_id":"fe7841ee-6c3b-41b6-ba59-419273b65ba5","system_id":"levelo_inurba_marseille","lat":43.29251,"lon":5.40916,"is_reserved":false,"is_disabled":false,"rental_uris":{"android":"levelo://app?vid=fe7841ee-6c3b-41b6-ba59-419273b65ba5","ios":"levelo://app?vid=fe7841ee-6c3b-41b6-ba59-419273b65ba5"},"vehicle_type_id":"4","last_reported":1738606355,"current_range_meters":39200,"station_id":"ce4bh192rcd13ifvqdc0","pricing_plan_id":"cebpf4jnsgd1na2vs0mg"},{"bike_id":"b9687930-f2fe-4cdc-aefe-cf832adcf3ee","system_id":"levelo_inurba_marseille","lat":43.25587,"lon":5.38228,"is_reserved":false,"is_disabled":false,"rental_uris":{"android":"levelo://app?vid=b9687930-f2fe-4cdc-aefe-cf832adcf3ee","ios":"levelo://app?vid=b9687930-f2fe-4cdc-aefe-cf832adcf3ee"},"vehicle_type_id":"4","last_reported":1738606355,"current_range_meters":9200,"station_id":"ce4bhih2rcd13ifvqfs0","pricing_plan_id":"cebpf4jnsgd1na2vs0mg"},{"bike_id":"13c11301-c5ce-4642-b94e-88c528ed70db","system_id":"levelo_inurba_marseille","lat":43.29279,"lon":5.40133,"is_reserved":false,"is_disabled":false,"rental_uris":{"android":"levelo://app?vid=13c11301-c5ce-4642-b94e-88c528ed70db","ios":"levelo://app?vid=13c11301-c5ce-4642-b94e-88c528ed70db"},"vehicle_type_id":"4","last_reported":1738606355,"current_range_meters":33600,"station_id":"ce4bh312rcd13ifvqdk0","pricing_plan_id":"cebpf4jnsgd1na2vs0mg"},{"bike_id":"ea0afcf9-5132-45fb-99e4-e388ec64503c","system_id":"levelo_inurba_marseille","lat":43.25586,"lon":5.38226,"is_reserved":false,"is_disabled":false,"rental_uris":{"android":"levelo://app?vid=ea0afcf9-5132-45fb-99e4-e388ec64503c","ios":"levelo://app?vid=ea0afcf9-5132-45fb-99e4-e388ec64503c"},"vehicle_type_id":"4","last_reported":1738606355,"current_range_meters":38800,"station_id":"ce4bhih2rcd13ifvqfs0","pricing_plan_id":"cebpf4jnsgd1na2vs0mg"},{"bike_id":"b19b0321-e9e6-49fe-a308-a3cfdf6feb0e","system_id":"levelo_inurba_marseille","lat":43.29431,"lon":5.39764,"is_reserved":false,"is_disabled":false,"rental_uris":{"android":"levelo://app?vid=b19b0321-e9e6-49fe-a308-a3cfdf6feb0e","ios":"levelo://app?vid=b19b0321-e9e6-49fe-a308-a3cfdf6feb0e"},"vehicle_type_id":"4","last_reported":1738606355,"current_range_meters":34800,"station_id":"ce4bh3h2rcd13ifvqdo0","pricing_plan_id":"cebpf4jnsgd1na2vs0mg"},{"bike_id":"7dd68174-1d38-48a0-87e4-e5911f1e11f7","system_id":"levelo_inurba_marseille","lat":43.28853,"lon":5.35854,"is_reserved":false,"is_disabled":false,"rental_uris":{"android":"levelo://app?vid=7dd68174-1d38-48a0-87e4-e5911f1e11f7","ios":"levelo://app?vid=7dd68174-1d38-48a0-87e4-e5911f1e11f7"},"vehicle_type_id":"4","last_reported":1738606355,"current_range_meters":37600,"station_id":"ce4bhb12rcd13ifvqem0","pricing_plan_id":"cebpf4jnsgd1na2vs0mg"},{"bike_id":"61245831-2a5b-499b-a7bd-326ecf7b0019","system_id":"levelo_inurba_marseille","lat":43.28415,"lon":5.3752,"is_reserved":false,"is_disabled":false,"rental_uris":{"android":"levelo://app?vid=61245831-2a5b-499b-a7bd-326ecf7b0019","ios":"levelo://app?vid=61245831-2a5b-499b-a7bd-326ecf7b0019"},"vehicle_type_id":"4","last_reported":1738606355,"current_range_meters":24400,"station_id":"ce4bh412rcd13ifvqds0","pricing_plan_id":"cebpf4jnsgd1na2vs0mg"},{"bike_id":"86357225-4bb3-4569-8bdf-ca137d823b46","system_id":"levelo_inurba_marseille","lat":43.27911,"lon":5.39594,"is_reserved":false,"is_disabled":false,"rental_uris":{"android":"levelo://app?vid=86357225-4bb3-4569-8bdf-ca137d823b46","ios":"levelo://app?vid=86357225-4bb3-4569-8bdf-ca137d823b46"},"vehicle_type_id":"4","last_reported":1738606355,"current_range_meters":15200,"station_id":"ce4bhf92rcd13ifvqf40","pricing_plan_id":"cebpf4jnsgd1na2vs0mg"},{"bike_id":"0a1df72b-6902-46e8-84ca-d6442cdf93c7","system_id":"levelo_inurba_marseille","lat":43.2857,"lon":5.39502,"is_reserved":false,"is_disabled":false,"rental_uris":{"android":"levelo://app?vid=0a1df72b-6902-46e8-84ca-d6442cdf93c7","ios":"levelo://app?vid=0a1df72b-6902-46e8-84ca-d6442cdf93c7"},"vehicle_type_id":"4","last_reported":1738606355,"current_range_meters":38800,"station_id":"ce4bh292rcd13ifvqdg0","pricing_plan_id":"cebpf4jnsgd1na2vs0mg"},{"bike_id":"0416cf78-7863-4eec-b5e5-3557e2310ee1","system_id":"levelo_inurba_marseille","lat":43.26779,"lon":5.39408,"is_reserved":false,"is_disabled":true,"rental_uris":{"android":"levelo://app?vid=0416cf78-7863-4eec-b5e5-3557e2310ee1","ios":"levelo://app?vid=0416cf78-7863-4eec-b5e5-3557e2310ee1"},"vehicle_type_id":"4","last_reported":1738606355,"current_range_meters":800,"station_id":"ce4bhh12rcd13ifvqfg0","pricing_plan_id":"cebpf4jnsgd1na2vs0mg"},{"bike_id":"b93236d3-7c1f-462b-b052-ef803b0d1060","system_id":"levelo_inurba_marseille","lat":43.29572,"lon":5.37515,"is_reserved":false,"is_disabled":true,"rental_uris":{"android":"levelo://app?vid=b93236d3-7c1f-462b-b052-ef803b0d1060","ios":"levelo://app?vid=b93236d3-7c1f-462b-b052-ef803b0d1060"},"vehicle_type_id":"4","last_reported":1738606355,"current_range_meters":400,"station_id":"ce4bgh92rcd13ifvqb50","pricing_plan_id":"cebpf4jnsgd1na2vs0mg"},{"bike_id":"d956c0fa-8e81-4a5c-a819-66560ebeacd2","system_id":"levelo_inurba_marseille","lat":43.28159,"lon":5.42634,"is_reserved":false,"is_disabled":false,"rental_uris":{"android":"levelo://app?vid=d956c0fa-8e81-4a5c-a819-66560ebeacd2","ios":"levelo://app?vid=d956c0fa-8e81-4a5c-a819-66560ebeacd2"},"vehicle_type_id":"4","last_reported":1738606355,"current_range_meters":9600,"station_id":"ce4bhnh2rcd13ifvqgug","pricing_plan_id":"cebpf4jnsgd1na2vs0mg"},{"bike_id":"da34d4f8-fcc3-4716-a4b5-ebb5e90aeefc","system_id":"levelo_inurba_marseille","lat":43.31315,"lon":5.3973,"is_reserved":false,"is_disabled":false,"rental_uris":{"android":"levelo://app?vid=da34d4f8-fcc3-4716-a4b5-ebb5e90aeefc","ios":"levelo://app?vid=da34d4f8-fcc3-4716-a4b5-ebb5e90aeefc"},"vehicle_type_id":"4","last_reported":1738606355,"current_range_meters":39200,"station_id":"ce4bgvp2rcd13ifvqcu0","pricing_plan_id":"cebpf4jnsgd1na2vs0mg"},{"bike_id":"21c89297-c791-4464-9214-e643c17f7aa6","system_id":"levelo_inurba_marseille","lat":43.31337,"lon":5.39715,"is_reserved":false,"is_disabled":false,"rental_uris":{"android":"levelo://app?vid=21c89297-c791-4464-9214-e643c17f7aa6","ios":"levelo://app?vid=21c89297-c791-4464-9214-e643c17f7aa6"},"vehicle_type_id":"4","last_reported":1738606355,"current_range_meters":38400,"station_id":"ce4bgvp2rcd13ifvqcu0","pricing_plan_id":"cebpf4jnsgd1na2vs0mg"},{"bike_id":"a7b47474-d052-424a-a059-dfadefba450d","system_id":"levelo_inurba_marseille","lat":43.31265,"lon":5.40162,"is_reserved":false,"is_disabled":false,"rental_uris":{"android":"levelo://app?vid=a7b47474-d052-424a-a059-dfadefba450d","ios":"levelo://app?vid=a7b47474-d052-424a-a059-dfadefba450d"},"vehicle_type_id":"4","last_reported":1738606355,"current_range_meters":4800,"station_id":"ce4bh092rcd13ifvqd30","pricing_plan_id":"cebpf4jnsgd1na2vs0mg"},{"bike_id":"9d512ece-5e12-4408-8ea1-9d45a2ec9421","system_id":"levelo_inurba_marseille","lat":43.33025,"lon":5.39038,"is_reserved":false,"is_disabled":false,"rental_uris":{"android":"levelo://app?vid=9d512ece-5e12-4408-8ea1-9d45a2ec9421","ios":"levelo://app?vid=9d512ece-5e12-4408-8ea1-9d45a2ec9421"},"vehicle_type_id":"4","last_reported":1738606355,"current_range_meters":20400,"station_id":"ce4bhr92rcd13ifvqhrg","pricing_plan_id":"cebpf4jnsgd1na2vs0mg"},{"bike_id":"ea790d70-597c-4d4a-8ead-75aafe1605d1","system_id":"levelo_inurba_marseille","lat":43.2608,"lon":5.39369,"is_reserved":false,"is_disabled":false,"rental_uris":{"android":"levelo://app?vid=ea790d70-597c-4d4a-8ead-75aafe1605d1","ios":"levelo://app?vid=ea790d70-597c-4d4a-8ead-75aafe1605d1"},"vehicle_type_id":"4","last_reported":1738606355,"current_range_meters":38400,"station_id":"ce4bhh92rcd13ifvqfj0","pricing_plan_id":"cebpf4jnsgd1na2vs0mg"},{"bike_id":"f0c771c7-496a-40c6-9ca1-cbd73f6a8ca9","system_id":"levelo_inurba_marseille","lat":43.2952,"lon":5.39415,"is_reserved":false,"is_disabled":false,"rental_uris":{"android":"levelo://app?vid=f0c771c7-496a-40c6-9ca1-cbd73f6a8ca9","ios":"levelo://app?vid=f0c771c7-496a-40c6-9ca1-cbd73f6a8ca9"},"vehicle_type_id":"4","last_reported":1738606355,"current_range_meters":28400,"station_id":"ce4bh292rcd13ifvqdf0","pricing_plan_id":"cebpf4jnsgd1na2vs0mg"},{"bike_id":"71ec8193-f671-4e06-9ff4-9da8f309a0bc","system_id":"levelo_inurba_marseille","lat":43.28464,"lon":5.3846,"is_reserved":false,"is_disabled":true,"rental_uris":{"android":"levelo://app?vid=71ec8193-f671-4e06-9ff4-9da8f309a0bc","ios":"levelo://app?vid=71ec8193-f671-4e06-9ff4-9da8f309a0bc"},"vehicle_type_id":"4","last_reported":1738606355,"current_range_meters":23200,"station_id":"ce4bh512rcd13ifvqe3g","pricing_plan_id":"cebpf4jnsgd1na2vs0mg"},{"bike_id":"f06e80f9-e9a2-4ddc-b56f-885cda345651","system_id":"levelo_inurba_marseille","lat":43.29028,"lon":5.38138,"is_reserved":false,"is_disabled":false,"rental_uris":{"android":"levelo://app?vid=f06e80f9-e9a2-4ddc-b56f-885cda345651","ios":"levelo://app?vid=f06e80f9-e9a2-4ddc-b56f-885cda345651"},"vehicle_type_id":"4","last_reported":1738606355,"current_range_meters":38800,"station_id":"ce4bh4p2rcd13ifvqe1g","pricing_plan_id":"cebpf4jnsgd1na2vs0mg"},{"bike_id":"48c23db0-b5b4-47ef-bf29-862bb3b67da5","system_id":"levelo_inurba_marseille","lat":43.29934,"lon":5.36537,"is_reserved":false,"is_disabled":false,"rental_uris":{"android":"levelo://app?vid=48c23db0-b5b4-47ef-bf29-862bb3b67da5","ios":"levelo://app?vid=48c23db0-b5b4-47ef-bf29-862bb3b67da5"},"vehicle_type_id":"4","last_reported":1738606355,"current_range_meters":29600,"station_id":"ce4bgm92rcd13ifvqbr0","pricing_plan_id":"cebpf4jnsgd1na2vs0mg"},{"bike_id":"d370b26c-2e12-4cd4-ab74-dcee84613962","system_id":"levelo_inurba_marseille","lat":43.2978,"lon":5.37116,"is_reserved":false,"is_disabled":false,"rental_uris":{"android":"levelo://app?vid=d370b26c-2e12-4cd4-ab74-dcee84613962","ios":"levelo://app?vid=d370b26c-2e12-4cd4-ab74-dcee84613962"},"vehicle_type_id":"4","last_reported":1738606355,"current_range_meters":19600,"station_id":"ce4bgop2rcd13ifvqc1g","pricing_plan_id":"cebpf4jnsgd1na2vs0mg"},{"bike_id":"fb84d3e6-791f-4c99-8bde-e24b0832d74b","system_id":"levelo_inurba_marseille","lat":43.33024,"lon":5.39038,"is_reserved":false,"is_disabled":false,"rental_uris":{"android":"levelo://app?vid=fb84d3e6-791f-4c99-8bde-e24b0832d74b","ios":"levelo://app?vid=fb84d3e6-791f-4c99-8bde-e24b0832d74b"},"vehicle_type_id":"4","last_reported":1738606355,"current_range_meters":6000,"station_id":"ce4bhr92rcd13ifvqhrg","pricing_plan_id":"cebpf4jnsgd1na2vs0mg"},{"bike_id":"88f6ec14-1047-428a-bfc8-ed7564b679d3","system_id":"levelo_inurba_marseille","lat":43.24386,"lon":5.37061,"is_reserved":false,"is_disabled":false,"rental_uris":{"android":"levelo://app?vid=88f6ec14-1047-428a-bfc8-ed7564b679d3","ios":"levelo://app?vid=88f6ec14-1047-428a-bfc8-ed7564b679d3"},"vehicle_type_id":"4","last_reported":1738606355,"current_range_meters":7200,"station_id":"ce4bhhh2rcd13ifvqfk0","pricing_plan_id":"cebpf4jnsgd1na2vs0mg"},{"bike_id":"3b90e64d-2dfe-4cd5-abc3-4c46102eecdf","system_id":"levelo_inurba_marseille","lat":43.30125,"lon":5.39901,"is_reserved":false,"is_disabled":false,"rental_uris":{"android":"levelo://app?vid=3b90e64d-2dfe-4cd5-abc3-4c46102eecdf","ios":"levelo://app?vid=3b90e64d-2dfe-4cd5-abc3-4c46102eecdf"},"vehicle_type_id":"4","last_reported":1738606355,"current_range_meters":38000,"station_id":"ce4bh0h2rcd13ifvqd40","pricing_plan_id":"cebpf4jnsgd1na2vs0mg"},{"bike_id":"b6c5254b-c559-4242-b669-32305bfe9915","system_id":"levelo_inurba_marseille","lat":43.3043,"lon":5.3889,"is_reserved":false,"is_disabled":false,"rental_uris":{"android":"levelo://app?vid=b6c5254b-c559-4242-b669-32305bfe9915","ios":"levelo://app?vid=b6c5254b-c559-4242-b669-32305bfe9915"},"vehicle_type_id":"4","last_reported":1738606355,"current_range_meters":17600,"station_id":"ce4bgk12rcd13ifvqbi0","pricing_plan_id":"cebpf4jnsgd1na2vs0mg"},{"bike_id":"fad26299-4859-48d9-af16-461be31a4018","system_id":"levelo_inurba_marseille","lat":43.231852,"lon":5.400054,"is_reserved":false,"is_disabled":true,"rental_uris":{"android":"levelo://app?vid=fad26299-4859-48d9-af16-461be31a4018","ios":"levelo://app?vid=fad26299-4859-48d9-af16-461be31a4018"},"vehicle_type_id":"4","last_reported":1738606355,"current_range_meters":800,"station_id":"ce4bhn12rcd13ifvqgqg","pricing_plan_id":"cebpf4jnsgd1na2vs0mg"},{"bike_id":"04a10c75-e10d-458e-a1ac-bee8376b8227","system_id":"levelo_inurba_marseille","lat":43.29036,"lon":5.39962,"is_reserved":false,"is_disabled":false,"rental_uris":{"android":"levelo://app?vid=04a10c75-e10d-458e-a1ac-bee8376b8227","ios":"levelo://app?vid=04a10c75-e10d-458e-a1ac-bee8376b8227"},"vehicle_type_id":"4","last_reported":1738606355,"current_range_meters":3600,"station_id":"ce4bh392rcd13ifvqdm0","pricing_plan_id":"cebpf4jnsgd1na2vs0mg"},{"bike_id":"75413ca6-cc28-45a9-a06b-2dc6aa0dda7c","system_id":"levelo_inurba_marseille","lat":43.29267,"lon":5.38448,"is_reserved":false,"is_disabled":false,"rental_uris":{"android":"levelo://app?vid=75413ca6-cc28-45a9-a06b-2dc6aa0dda7c","ios":"levelo://app?vid=75413ca6-cc28-45a9-a06b-2dc6aa0dda7c"},"vehicle_type_id":"4","last_reported":1738606355,"current_range_meters":18000,"station_id":"ce4bh692rcd13ifvqea0","pricing_plan_id":"cebpf4jnsgd1na2vs0mg"},{"bike_id":"ed055d78-c0e9-4ba9-b7bf-eb7be3852e13","system_id":"levelo_inurba_marseille","lat":43.26567,"lon":5.37283,"is_reserved":false,"is_disabled":false,"rental_uris":{"android":"levelo://app?vid=ed055d78-c0e9-4ba9-b7bf-eb7be3852e13","ios":"levelo://app?vid=ed055d78-c0e9-4ba9-b7bf-eb7be3852e13"},"vehicle_type_id":"4","last_reported":1738606355,"current_range_meters":16000,"station_id":"ce4bhg12rcd13ifvqf70","pricing_plan_id":"cebpf4jnsgd1na2vs0mg"},{"bike_id":"9e091015-1e8f-482e-a463-a2209bd4ab0e","system_id":"levelo_inurba_marseille","lat":43.31321,"lon":5.39703,"is_reserved":false,"is_disabled":true,"rental_uris":{"android":"levelo://app?vid=9e091015-1e8f-482e-a463-a2209bd4ab0e","ios":"levelo://app?vid=9e091015-1e8f-482e-a463-a2209bd4ab0e"},"vehicle_type_id":"4","last_reported":1738606355,"current_range_meters":1200,"station_id":"ce4bgvp2rcd13ifvqcu0","pricing_plan_id":"cebpf4jnsgd1na2vs0mg"},{"bike_id":"9d509fb2-a9b9-4077-acaf-09c2f04b9827","system_id":"levelo_inurba_marseille","lat":43.29224,"lon":5.36117,"is_reserved":false,"is_disabled":false,"rental_uris":{"android":"levelo://app?vid=9d509fb2-a9b9-4077-acaf-09c2f04b9827","ios":"levelo://app?vid=9d509fb2-a9b9-4077-acaf-09c2f04b9827"},"vehicle_type_id":"4","last_reported":1738606355,"current_range_meters":38800,"station_id":"ce4bhbh2rcd13ifvqeqg","pricing_plan_id":"cebpf4jnsgd1na2vs0mg"},{"bike_id":"28c9d123-ea6f-4075-86e6-2e2e8404039d","system_id":"levelo_inurba_marseille","lat":43.31526,"lon":5.38037,"is_reserved":false,"is_disabled":false,"rental_uris":{"android":"levelo://app?vid=28c9d123-ea6f-4075-86e6-2e2e8404039d","ios":"levelo://app?vid=28c9d123-ea6f-4075-86e6-2e2e8404039d"},"vehicle_type_id":"4","last_reported":1738606355,"current_range_meters":37600,"station_id":"ce4bhsp2rcd13ifvqi50","pricing_plan_id":"cebpf4jnsgd1na2vs0mg"},{"bike_id":"2509f9f2-7eec-4e24-bb35-90e3c0fac945","system_id":"levelo_inurba_marseille","lat":43.2846,"lon":5.35885,"is_reserved":false,"is_disabled":false,"rental_uris":{"android":"levelo://app?vid=2509f9f2-7eec-4e24-bb35-90e3c0fac945","ios":"levelo://app?vid=2509f9f2-7eec-4e24-bb35-90e3c0fac945"},"vehicle_type_id":"4","last_reported":1738606355,"current_range_meters":17600,"station_id":"ce4bhah2rcd13ifvqei0","pricing_plan_id":"cebpf4jnsgd1na2vs0mg"},{"bike_id":"d1d51ec2-e1ab-4b92-9a4b-f935b04ef436","system_id":"levelo_inurba_marseille","lat":43.24997,"lon":5.38926,"is_reserved":false,"is_disabled":false,"rental_uris":{"android":"levelo://app?vid=d1d51ec2-e1ab-4b92-9a4b-f935b04ef436","ios":"levelo://app?vid=d1d51ec2-e1ab-4b92-9a4b-f935b04ef436"},"vehicle_type_id":"4","last_reported":1738606355,"current_range_meters":27600,"station_id":"ce4bhgp2rcd13ifvqfd0","pricing_plan_id":"cebpf4jnsgd1na2vs0mg"},{"bike_id":"30e962a5-ed17-4781-966d-335d338660e0","system_id":"levelo_inurba_marseille","lat":43.32369,"lon":5.38884,"is_reserved":false,"is_disabled":false,"rental_uris":{"android":"levelo://app?vid=30e962a5-ed17-4781-966d-335d338660e0","ios":"levelo://app?vid=30e962a5-ed17-4781-966d-335d338660e0"},"vehicle_type_id":"4","last_reported":1738606355,"current_range_meters":16400,"station_id":"ce4bhqp2rcd13ifvqhog","pricing_plan_id":"cebpf4jnsgd1na2vs0mg"},{"bike_id":"7a2080c9-d44a-471c-9acd-526428e8e5dc","system_id":"levelo_inurba_marseille","lat":43.22938,"lon":5.35377,"is_reserved":false,"is_disabled":false,"rental_uris":{"android":"levelo://app?vid=7a2080c9-d44a-471c-9acd-526428e8e5dc","ios":"levelo://app?vid=7a2080c9-d44a-471c-9acd-526428e8e5dc"},"vehicle_type_id":"4","last_reported":1738606355,"current_range_meters":16000,"station_id":"cpo3532slgdg3j2ikp40","pricing_plan_id":"cebpf4jnsgd1na2vs0mg"},{"bike_id":"ae53fffe-5206-4774-8a89-5de1c5778f41","system_id":"levelo_inurba_marseille","lat":43.29003,"lon":5.35611,"is_reserved":false,"is_disabled":false,"rental_uris":{"android":"levelo://app?vid=ae53fffe-5206-4774-8a89-5de1c5778f41","ios":"levelo://app?vid=ae53fffe-5206-4774-8a89-5de1c5778f41"},"vehicle_type_id":"4","last_reported":1738606355,"current_range_meters":19200,"station_id":"ce4bhb92rcd13ifvqen0","pricing_plan_id":"cebpf4jnsgd1na2vs0mg"},{"bike_id":"c7ffedac-349c-4fc0-8875-a3ceaf85f7b5","system_id":"levelo_inurba_marseille","lat":43.24168,"lon":5.36404,"is_reserved":false,"is_disabled":false,"rental_uris":{"android":"levelo://app?vid=c7ffedac-349c-4fc0-8875-a3ceaf85f7b5","ios":"levelo://app?vid=c7ffedac-349c-4fc0-8875-a3ceaf85f7b5"},"vehicle_type_id":"4","last_reported":1738606355,"current_range_meters":6800,"station_id":"cpo36qri1sfpv3e86is0","pricing_plan_id":"cebpf4jnsgd1na2vs0mg"},{"bike_id":"9764552c-f76f-4819-b463-87d03822a865","system_id":"levelo_inurba_marseille","lat":43.29045,"lon":5.35916,"is_reserved":false,"is_disabled":false,"rental_uris":{"android":"levelo://app?vid=9764552c-f76f-4819-b463-87d03822a865","ios":"levelo://app?vid=9764552c-f76f-4819-b463-87d03822a865"},"vehicle_type_id":"4","last_reported":1738606355,"current_range_meters":30400,"station_id":"ce4bha92rcd13ifvqeg0","pricing_plan_id":"cebpf4jnsgd1na2vs0mg"},{"bike_id":"c76f7864-094d-4615-a2c1-7cbdb696393a","system_id":"levelo_inurba_marseille","lat":43.2957,"lon":5.39979,"is_reserved":false,"is_disabled":false,"rental_uris":{"android":"levelo://app?vid=c76f7864-094d-4615-a2c1-7cbdb696393a","ios":"levelo://app?vid=c76f7864-094d-4615-a2c1-7cbdb696393a"},"vehicle_type_id":"4","last_reported":1738606355,"current_range_meters":17600,"station_id":"ce4bh312rcd13ifvqdj0","pricing_plan_id":"cebpf4jnsgd1na2vs0mg"},{"bike_id":"0bb638d0-2838-47fa-8a2d-f175e9aec41a","system_id":"levelo_inurba_marseille","lat":43.23967,"lon":5.36617,"is_reserved":false,"is_disabled":false,"rental_uris":{"android":"levelo://app?vid=0bb638d0-2838-47fa-8a2d-f175e9aec41a","ios":"levelo://app?vid=0bb638d0-2838-47fa-8a2d-f175e9aec41a"},"vehicle_type_id":"4","last_reported":1738606355,"current_range_meters":18000,"station_id":"ce4bhi12rcd13ifvqfp0","pricing_plan_id":"cebpf4jnsgd1na2vs0mg"},{"bike_id":"2cbd5193-ddde-4715-a2bf-e1cb8bb201c9","system_id":"levelo_inurba_marseille","lat":43.2849,"lon":5.38432,"is_reserved":false,"is_disabled":true,"rental_uris":{"android":"levelo://app?vid=2cbd5193-ddde-4715-a2bf-e1cb8bb201c9","ios":"levelo://app?vid=2cbd5193-ddde-4715-a2bf-e1cb8bb201c9"},"vehicle_type_id":"4","last_reported":1738606355,"current_range_meters":0,"station_id":"ce4bh512rcd13ifvqe3g","pricing_plan_id":"cebpf4jnsgd1na2vs0mg"},{"bike_id":"0570fa00-dcc1-45f2-92dd-a890f5ad8110","system_id":"levelo_inurba_marseille","lat":43.29042,"lon":5.35911,"is_reserved":false,"is_disabled":false,"rental_uris":{"android":"levelo://app?vid=0570fa00-dcc1-45f2-92dd-a890f5ad8110","ios":"levelo://app?vid=0570fa00-dcc1-45f2-92dd-a890f5ad8110"},"vehicle_type_id":"4","last_reported":1738606355,"current_range_meters":24000,"station_id":"ce4bha92rcd13ifvqeg0","pricing_plan_id":"cebpf4jnsgd1na2vs0mg"},{"bike_id":"4a18fa25-a72b-4cad-ab40-77dc9d93d71e","system_id":"levelo_inurba_marseille","lat":43.28419,"lon":5.37499,"is_reserved":false,"is_disabled":true,"rental_uris":{"android":"levelo://app?vid=4a18fa25-a72b-4cad-ab40-77dc9d93d71e","ios":"levelo://app?vid=4a18fa25-a72b-4cad-ab40-77dc9d93d71e"},"vehicle_type_id":"4","last_reported":1738606355,"current_range_meters":0,"station_id":"ce4bh412rcd13ifvqds0","pricing_plan_id":"cebpf4jnsgd1na2vs0mg"},{"bike_id":"e9147fb7-dc91-49ed-a558-b662a0cb5470","system_id":"levelo_inurba_marseille","lat":43.29797,"lon":5.38092,"is_reserved":false,"is_disabled":false,"rental_uris":{"android":"levelo://app?vid=e9147fb7-dc91-49ed-a558-b662a0cb5470","ios":"levelo://app?vid=e9147fb7-dc91-49ed-a558-b662a0cb5470"},"vehicle_type_id":"4","last_reported":1738606355,"current_range_meters":15200,"station_id":"ce4bgip2rcd13ifvqbb0","pricing_plan_id":"cebpf4jnsgd1na2vs0mg"},{"bike_id":"c9a53036-fdd2-406b-9e70-c17f21e2eb93","system_id":"levelo_inurba_marseille","lat":43.28404,"lon":5.37503,"is_reserved":false,"is_disabled":false,"rental_uris":{"android":"levelo://app?vid=c9a53036-fdd2-406b-9e70-c17f21e2eb93","ios":"levelo://app?vid=c9a53036-fdd2-406b-9e70-c17f21e2eb93"},"vehicle_type_id":"4","last_reported":1738606355,"current_range_meters":17200,"station_id":"ce4bh412rcd13ifvqds0","pricing_plan_id":"cebpf4jnsgd1na2vs0mg"},{"bike_id":"8274d570-94cc-44d0-8f24-915bbe768e9d","system_id":"levelo_inurba_marseille","lat":43.32884,"lon":5.39145,"is_reserved":false,"is_disabled":false,"rental_uris":{"android":"levelo://app?vid=8274d570-94cc-44d0-8f24-915bbe768e9d","ios":"levelo://app?vid=8274d570-94cc-44d0-8f24-915bbe768e9d"},"vehicle_type_id":"4","last_reported":1738606355,"current_range_meters":19600,"station_id":"","pricing_plan_id":"cebpf4jnsgd1na2vs0mg"},{"bike_id":"15751c8b-a3a7-454f-96d5-a92ac3978ce2","system_id":"levelo_inurba_marseille","lat":43.2862,"lon":5.35109,"is_reserved":false,"is_disabled":false,"rental_uris":{"android":"levelo://app?vid=15751c8b-a3a7-454f-96d5-a92ac3978ce2","ios":"levelo://app?vid=15751c8b-a3a7-454f-96d5-a92ac3978ce2"},"vehicle_type_id":"4","last_reported":1738606355,"current_range_meters":28800,"station_id":"ce4bhch2rcd13ifvqeug","pricing_plan_id":"cebpf4jnsgd1na2vs0mg"},{"bike_id":"1b46daa4-ff22-40c1-96e0-6e19e1bb0d1f","system_id":"levelo_inurba_marseille","lat":43.24799,"lon":5.37451,"is_reserved":false,"is_disabled":false,"rental_uris":{"android":"levelo://app?vid=1b46daa4-ff22-40c1-96e0-6e19e1bb0d1f","ios":"levelo://app?vid=1b46daa4-ff22-40c1-96e0-6e19e1bb0d1f"},"vehicle_type_id":"4","last_reported":1738606355,"current_range_meters":14000,"station_id":"ce4bhgh2rcd13ifvqfb0","pricing_plan_id":"cebpf4jnsgd1na2vs0mg"},{"bike_id":"2c3678d4-bf0f-45ee-9f7a-cde001526289","system_id":"levelo_inurba_marseille","lat":43.26957,"lon":5.38642,"is_reserved":false,"is_disabled":false,"rental_uris":{"android":"levelo://app?vid=2c3678d4-bf0f-45ee-9f7a-cde001526289","ios":"levelo://app?vid=2c3678d4-bf0f-45ee-9f7a-cde001526289"},"vehicle_type_id":"4","last_reported":1738606355,"current_range_meters":31200,"station_id":"ce4bhh92rcd13ifvqfh0","pricing_plan_id":"cebpf4jnsgd1na2vs0mg"},{"bike_id":"77702765-50a2-4773-818f-79c7794c3db4","system_id":"levelo_inurba_marseille","lat":43.273715,"lon":5.36268,"is_reserved":false,"is_disabled":false,"rental_uris":{"android":"levelo://app?vid=77702765-50a2-4773-818f-79c7794c3db4","ios":"levelo://app?vid=77702765-50a2-4773-818f-79c7794c3db4"},"vehicle_type_id":"4","last_reported":1738606355,"current_range_meters":39200,"station_id":"ce4bhbh2rcd13ifvqeo0","pricing_plan_id":"cebpf4jnsgd1na2vs0mg"},{"bike_id":"895b886d-f041-450f-bbc7-c95d89abf42f","system_id":"levelo_inurba_marseille","lat":43.3112,"lon":5.3803,"is_reserved":false,"is_disabled":false,"rental_uris":{"android":"levelo://app?vid=895b886d-f041-450f-bbc7-c95d89abf42f","ios":"levelo://app?vid=895b886d-f041-450f-bbc7-c95d89abf42f"},"vehicle_type_id":"4","last_reported":1738606355,"current_range_meters":30000,"station_id":"","pricing_plan_id":"cebpf4jnsgd1na2vs0mg"},{"bike_id":"c0ec0409-94e7-4b99-99b8-bca1f0ccf100","system_id":"levelo_inurba_marseille","lat":43.29628,"lon":5.40595,"is_reserved":false,"is_disabled":false,"rental_uris":{"android":"levelo://app?vid=c0ec0409-94e7-4b99-99b8-bca1f0ccf100","ios":"levelo://app?vid=c0ec0409-94e7-4b99-99b8-bca1f0ccf100"},"vehicle_type_id":"4","last_reported":1738606355,"current_range_meters":7200,"station_id":"ce4bh0h2rcd13ifvqd60","pricing_plan_id":"cebpf4jnsgd1na2vs0mg"},{"bike_id":"9912a023-1392-44b1-838d-79029cefb35e","system_id":"levelo_inurba_marseille","lat":43.27897,"lon":5.37997,"is_reserved":false,"is_disabled":false,"rental_uris":{"android":"levelo://app?vid=9912a023-1392-44b1-838d-79029cefb35e","ios":"levelo://app?vid=9912a023-1392-44b1-838d-79029cefb35e"},"vehicle_type_id":"4","last_reported":1738606355,"current_range_meters":36800,"station_id":"ce4bhf92rcd13ifvqf50","pricing_plan_id":"cebpf4jnsgd1na2vs0mg"},{"bike_id":"99630b4f-d397-4cd1-b643-a51d074b76bb","system_id":"levelo_inurba_marseille","lat":43.28469,"lon":5.35882,"is_reserved":false,"is_disabled":false,"rental_uris":{"android":"levelo://app?vid=99630b4f-d397-4cd1-b643-a51d074b76bb","ios":"levelo://app?vid=99630b4f-d397-4cd1-b643-a51d074b76bb"},"vehicle_type_id":"4","last_reported":1738606355,"current_range_meters":38800,"station_id":"ce4bhah2rcd13ifvqei0","pricing_plan_id":"cebpf4jnsgd1na2vs0mg"},{"bike_id":"8287c050-ed39-4c6c-ab1a-058823500666","system_id":"levelo_inurba_marseille","lat":43.24652,"lon":5.38898,"is_reserved":false,"is_disabled":false,"rental_uris":{"android":"levelo://app?vid=8287c050-ed39-4c6c-ab1a-058823500666","ios":"levelo://app?vid=8287c050-ed39-4c6c-ab1a-058823500666"},"vehicle_type_id":"4","last_reported":1738606355,"current_range_meters":17200,"station_id":"ce4bhg12rcd13ifvqf60","pricing_plan_id":"cebpf4jnsgd1na2vs0mg"},{"bike_id":"bf208d47-f5cf-4e92-bc29-4827b84a802b","system_id":"levelo_inurba_marseille","lat":43.29887,"lon":5.3892,"is_reserved":false,"is_disabled":false,"rental_uris":{"android":"levelo://app?vid=bf208d47-f5cf-4e92-bc29-4827b84a802b","ios":"levelo://app?vid=bf208d47-f5cf-4e92-bc29-4827b84a802b"},"vehicle_type_id":"4","last_reported":1738606355,"current_range_meters":36800,"station_id":"ce4bh392rcd13ifvqdl0","pricing_plan_id":"cebpf4jnsgd1na2vs0mg"},{"bike_id":"115e302a-af5d-408a-980b-094c657f62a3","system_id":"levelo_inurba_marseille","lat":43.27575,"lon":5.38398,"is_reserved":false,"is_disabled":false,"rental_uris":{"android":"levelo://app?vid=115e302a-af5d-408a-980b-094c657f62a3","ios":"levelo://app?vid=115e302a-af5d-408a-980b-094c657f62a3"},"vehicle_type_id":"4","last_reported":1738606355,"current_range_meters":9600,"station_id":"ce4bhh92rcd13ifvqfi0","pricing_plan_id":"cebpf4jnsgd1na2vs0mg"},{"bike_id":"52a36b22-dcd8-4f7c-8f98-8f6d79fa2ad0","system_id":"levelo_inurba_marseille","lat":43.28935,"lon":5.36632,"is_reserved":false,"is_disabled":false,"rental_uris":{"android":"levelo://app?vid=52a36b22-dcd8-4f7c-8f98-8f6d79fa2ad0","ios":"levelo://app?vid=52a36b22-dcd8-4f7c-8f98-8f6d79fa2ad0"},"vehicle_type_id":"4","last_reported":1738606355,"current_range_meters":16000,"station_id":"ce4bhap2rcd13ifvqek0","pricing_plan_id":"cebpf4jnsgd1na2vs0mg"},{"bike_id":"4dc59cb0-5a34-4ff8-9304-5eee2989283e","system_id":"levelo_inurba_marseille","lat":43.31324,"lon":5.39692,"is_reserved":false,"is_disabled":false,"rental_uris":{"android":"levelo://app?vid=4dc59cb0-5a34-4ff8-9304-5eee2989283e","ios":"levelo://app?vid=4dc59cb0-5a34-4ff8-9304-5eee2989283e"},"vehicle_type_id":"4","last_reported":1738606355,"current_range_meters":36400,"station_id":"ce4bgvp2rcd13ifvqcu0","pricing_plan_id":"cebpf4jnsgd1na2vs0mg"},{"bike_id":"df721def-598a-4e24-a89a-4771bf19c6fb","system_id":"levelo_inurba_marseille","lat":43.27818,"lon":5.40681,"is_reserved":false,"is_disabled":false,"rental_uris":{"android":"levelo://app?vid=df721def-598a-4e24-a89a-4771bf19c6fb","ios":"levelo://app?vid=df721def-598a-4e24-a89a-4771bf19c6fb"},"vehicle_type_id":"4","last_reported":1738606355,"current_range_meters":38800,"station_id":"ce4bhnh2rcd13ifvqgtg","pricing_plan_id":"cebpf4jnsgd1na2vs0mg"},{"bike_id":"432bc086-190c-49bd-9f0f-b7d592e08498","system_id":"levelo_inurba_marseille","lat":43.23154,"lon":5.43709,"is_reserved":false,"is_disabled":false,"rental_uris":{"android":"levelo://app?vid=432bc086-190c-49bd-9f0f-b7d592e08498","ios":"levelo://app?vid=432bc086-190c-49bd-9f0f-b7d592e08498"},"vehicle_type_id":"4","last_reported":1738606355,"current_range_meters":17600,"station_id":"ce4bhmp2rcd13ifvqgog","pricing_plan_id":"cebpf4jnsgd1na2vs0mg"},{"bike_id":"905522ef-d4d4-4a33-8994-defbf52775ca","system_id":"levelo_inurba_marseille","lat":43.26222,"lon":5.40443,"is_reserved":false,"is_disabled":true,"rental_uris":{"android":"levelo://app?vid=905522ef-d4d4-4a33-8994-defbf52775ca","ios":"levelo://app?vid=905522ef-d4d4-4a33-8994-defbf52775ca"},"vehicle_type_id":"4","last_reported":1738606355,"current_range_meters":0,"station_id":"ce4bhmh2rcd13ifvqgmg","pricing_plan_id":"cebpf4jnsgd1na2vs0mg"},{"bike_id":"5df9bf08-43fe-4acc-898a-9db2002f38bc","system_id":"levelo_inurba_marseille","lat":43.25867,"lon":5.39875,"is_reserved":false,"is_disabled":false,"rental_uris":{"android":"levelo://app?vid=5df9bf08-43fe-4acc-898a-9db2002f38bc","ios":"levelo://app?vid=5df9bf08-43fe-4acc-898a-9db2002f38bc"},"vehicle_type_id":"4","last_reported":1738606355,"current_range_meters":19600,"station_id":"ce4bhl92rcd13ifvqghg","pricing_plan_id":"cebpf4jnsgd1na2vs0mg"},{"bike_id":"d9c614f7-8968-45e8-82a0-4ae06e41b32a","system_id":"levelo_inurba_marseille","lat":43.29221,"lon":5.3606,"is_reserved":false,"is_disabled":false,"rental_uris":{"android":"levelo://app?vid=d9c614f7-8968-45e8-82a0-4ae06e41b32a","ios":"levelo://app?vid=d9c614f7-8968-45e8-82a0-4ae06e41b32a"},"vehicle_type_id":"4","last_reported":1738606355,"current_range_meters":14400,"station_id":"ce4bhbh2rcd13ifvqeqg","pricing_plan_id":"cebpf4jnsgd1na2vs0mg"},{"bike_id":"d4bce66a-d65b-4b47-9794-541ff89c1546","system_id":"levelo_inurba_marseille","lat":43.27554,"lon":5.3843,"is_reserved":false,"is_disabled":false,"rental_uris":{"android":"levelo://app?vid=d4bce66a-d65b-4b47-9794-541ff89c1546","ios":"levelo://app?vid=d4bce66a-d65b-4b47-9794-541ff89c1546"},"vehicle_type_id":"4","last_reported":1738606355,"current_range_meters":9600,"station_id":"ce4bhh92rcd13ifvqfi0","pricing_plan_id":"cebpf4jnsgd1na2vs0mg"},{"bike_id":"3034d64e-f78e-468c-b4d6-2520a053438f","system_id":"levelo_inurba_marseille","lat":43.231911,"lon":5.399905,"is_reserved":false,"is_disabled":true,"rental_uris":{"android":"levelo://app?vid=3034d64e-f78e-468c-b4d6-2520a053438f","ios":"levelo://app?vid=3034d64e-f78e-468c-b4d6-2520a053438f"},"vehicle_type_id":"4","last_reported":1738606355,"current_range_meters":15200,"station_id":"ce4bhn12rcd13ifvqgqg","pricing_plan_id":"cebpf4jnsgd1na2vs0mg"},{"bike_id":"4d56843c-838b-4099-80e1-081325709750","system_id":"levelo_inurba_marseille","lat":43.29198,"lon":5.35777,"is_reserved":false,"is_disabled":false,"rental_uris":{"android":"levelo://app?vid=4d56843c-838b-4099-80e1-081325709750","ios":"levelo://app?vid=4d56843c-838b-4099-80e1-081325709750"},"vehicle_type_id":"4","last_reported":1738606355,"current_range_meters":38800,"station_id":"ce4bhb12rcd13ifvqel0","pricing_plan_id":"cebpf4jnsgd1na2vs0mg"},{"bike_id":"a4c4ebb2-cefe-4dcc-946d-015041d50caa","system_id":"levelo_inurba_marseille","lat":43.29037,"lon":5.37573,"is_reserved":false,"is_disabled":true,"rental_uris":{"android":"levelo://app?vid=a4c4ebb2-cefe-4dcc-946d-015041d50caa","ios":"levelo://app?vid=a4c4ebb2-cefe-4dcc-946d-015041d50caa"},"vehicle_type_id":"4","last_reported":1738606355,"current_range_meters":0,"station_id":"ce4bh692rcd13ifvqe90","pricing_plan_id":"cebpf4jnsgd1na2vs0mg"},{"bike_id":"7f87d5fc-9445-41df-bd3e-5287cb6adb70","system_id":"levelo_inurba_marseille","lat":43.26806,"lon":5.40273,"is_reserved":false,"is_disabled":false,"rental_uris":{"android":"levelo://app?vid=7f87d5fc-9445-41df-bd3e-5287cb6adb70","ios":"levelo://app?vid=7f87d5fc-9445-41df-bd3e-5287cb6adb70"},"vehicle_type_id":"4","last_reported":1738606355,"current_range_meters":10800,"station_id":"ce501612rcd8frsf0b60","pricing_plan_id":"cebpf4jnsgd1na2vs0mg"},{"bike_id":"9e768907-2758-4663-849c-1bfedc158f31","system_id":"levelo_inurba_marseille","lat":43.279114,"lon":5.395864,"is_reserved":false,"is_disabled":true,"rental_uris":{"android":"levelo://app?vid=9e768907-2758-4663-849c-1bfedc158f31","ios":"levelo://app?vid=9e768907-2758-4663-849c-1bfedc158f31"},"vehicle_type_id":"4","last_reported":1738606355,"current_range_meters":0,"station_id":"ce4bhf92rcd13ifvqf40","pricing_plan_id":"cebpf4jnsgd1na2vs0mg"},{"bike_id":"9da2e432-4f65-47d9-bc81-2fec1d9802eb","system_id":"levelo_inurba_marseille","lat":43.2465,"lon":5.38896,"is_reserved":false,"is_disabled":false,"rental_uris":{"android":"levelo://app?vid=9da2e432-4f65-47d9-bc81-2fec1d9802eb","ios":"levelo://app?vid=9da2e432-4f65-47d9-bc81-2fec1d9802eb"},"vehicle_type_id":"4","last_reported":1738606355,"current_range_meters":33200,"station_id":"ce4bhg12rcd13ifvqf60","pricing_plan_id":"cebpf4jnsgd1na2vs0mg"},{"bike_id":"c2b78730-954c-4ebd-b6d2-61fad32afd83","system_id":"levelo_inurba_marseille","lat":43.29531,"lon":5.38551,"is_reserved":false,"is_disabled":false,"rental_uris":{"android":"levelo://app?vid=c2b78730-954c-4ebd-b6d2-61fad32afd83","ios":"levelo://app?vid=c2b78730-954c-4ebd-b6d2-61fad32afd83"},"vehicle_type_id":"4","last_reported":1738606355,"current_range_meters":26800,"station_id":"ce4bgih2rcd13ifvqba0","pricing_plan_id":"cebpf4jnsgd1na2vs0mg"},{"bike_id":"1114e426-27e7-475a-be14-0fb43e0efa6c","system_id":"levelo_inurba_marseille","lat":43.29967,"lon":5.38505,"is_reserved":false,"is_disabled":false,"rental_uris":{"android":"levelo://app?vid=1114e426-27e7-475a-be14-0fb43e0efa6c","ios":"levelo://app?vid=1114e426-27e7-475a-be14-0fb43e0efa6c"},"vehicle_type_id":"4","last_reported":1738606355,"current_range_meters":39200,"station_id":"ce4bgj92rcd13ifvqbd0","pricing_plan_id":"cebpf4jnsgd1na2vs0mg"},{"bike_id":"942ee348-f601-4816-a32c-40a8d55d3f6b","system_id":"levelo_inurba_marseille","lat":43.337444,"lon":5.374475,"is_reserved":false,"is_disabled":true,"rental_uris":{"android":"levelo://app?vid=942ee348-f601-4816-a32c-40a8d55d3f6b","ios":"levelo://app?vid=942ee348-f601-4816-a32c-40a8d55d3f6b"},"vehicle_type_id":"4","last_reported":1738606355,"current_range_meters":0,"station_id":"","pricing_plan_id":"cebpf4jnsgd1na2vs0mg"},{"bike_id":"a7dc0848-081a-4438-bce6-7e161a91f066","system_id":"levelo_inurba_marseille","lat":43.28158,"lon":5.42632,"is_reserved":false,"is_disabled":true,"rental_uris":{"android":"levelo://app?vid=a7dc0848-081a-4438-bce6-7e161a91f066","ios":"levelo://app?vid=a7dc0848-081a-4438-bce6-7e161a91f066"},"vehicle_type_id":"4","last_reported":1738606355,"current_range_meters":0,"station_id":"ce4bhnh2rcd13ifvqgug","pricing_plan_id":"cebpf4jnsgd1na2vs0mg"},{"bike_id":"d5d6e7f4-4e55-4592-b55b-2e87bf63c2f6","system_id":"levelo_inurba_marseille","lat":43.28572,"lon":5.39487,"is_reserved":false,"is_disabled":false,"rental_uris":{"android":"levelo://app?vid=d5d6e7f4-4e55-4592-b55b-2e87bf63c2f6","ios":"levelo://app?vid=d5d6e7f4-4e55-4592-b55b-2e87bf63c2f6"},"vehicle_type_id":"4","last_reported":1738606355,"current_range_meters":8000,"station_id":"ce4bh292rcd13ifvqdg0","pricing_plan_id":"cebpf4jnsgd1na2vs0mg"},{"bike_id":"f0b53076-d51d-4c78-be73-c20056d1b4ad","system_id":"levelo_inurba_marseille","lat":43.29971,"lon":5.38487,"is_reserved":false,"is_disabled":true,"rental_uris":{"android":"levelo://app?vid=f0b53076-d51d-4c78-be73-c20056d1b4ad","ios":"levelo://app?vid=f0b53076-d51d-4c78-be73-c20056d1b4ad"},"vehicle_type_id":"4","last_reported":1738606355,"current_range_meters":38000,"station_id":"ce4bgj92rcd13ifvqbd0","pricing_plan_id":"cebpf4jnsgd1na2vs0mg"},{"bike_id":"5cc697ff-ddc0-4b6a-a1c3-18a905286741","system_id":"levelo_inurba_marseille","lat":43.28853,"lon":5.3933,"is_reserved":false,"is_disabled":false,"rental_uris":{"android":"levelo://app?vid=5cc697ff-ddc0-4b6a-a1c3-18a905286741","ios":"levelo://app?vid=5cc697ff-ddc0-4b6a-a1c3-18a905286741"},"vehicle_type_id":"4","last_reported":1738606355,"current_range_meters":19200,"station_id":"ce4bh2p2rcd13ifvqdi0","pricing_plan_id":"cebpf4jnsgd1na2vs0mg"},{"bike_id":"c8bd1d84-2291-473f-ab82-361f165fe1db","system_id":"levelo_inurba_marseille","lat":43.24173,"lon":5.36395,"is_reserved":false,"is_disabled":false,"rental_uris":{"android":"levelo://app?vid=c8bd1d84-2291-473f-ab82-361f165fe1db","ios":"levelo://app?vid=c8bd1d84-2291-473f-ab82-361f165fe1db"},"vehicle_type_id":"4","last_reported":1738606355,"current_range_meters":24400,"station_id":"cpo36qri1sfpv3e86is0","pricing_plan_id":"cebpf4jnsgd1na2vs0mg"},{"bike_id":"e4c0a2aa-ca08-481e-ad49-bfc4a753b046","system_id":"levelo_inurba_marseille","lat":43.29027,"lon":5.38653,"is_reserved":false,"is_disabled":false,"rental_uris":{"android":"levelo://app?vid=e4c0a2aa-ca08-481e-ad49-bfc4a753b046","ios":"levelo://app?vid=e4c0a2aa-ca08-481e-ad49-bfc4a753b046"},"vehicle_type_id":"4","last_reported":1738606355,"current_range_meters":33200,"station_id":"ce4bh4p2rcd13ifvqe0g","pricing_plan_id":"cebpf4jnsgd1na2vs0mg"},{"bike_id":"bb846df9-2969-480a-aed6-edbcf9c326fb","system_id":"levelo_inurba_marseille","lat":43.24818,"lon":5.37449,"is_reserved":false,"is_disabled":false,"rental_uris":{"android":"levelo://app?vid=bb846df9-2969-480a-aed6-edbcf9c326fb","ios":"levelo://app?vid=bb846df9-2969-480a-aed6-edbcf9c326fb"},"vehicle_type_id":"4","last_reported":1738606355,"current_range_meters":28400,"station_id":"ce4bhgh2rcd13ifvqfb0","pricing_plan_id":"cebpf4jnsgd1na2vs0mg"},{"bike_id":"48ebfd2e-3b3a-4da2-a76d-11ff63396ffb","system_id":"levelo_inurba_marseille","lat":43.27999,"lon":5.39998,"is_reserved":false,"is_disabled":true,"rental_uris":{"android":"levelo://app?vid=48ebfd2e-3b3a-4da2-a76d-11ff63396ffb","ios":"levelo://app?vid=48ebfd2e-3b3a-4da2-a76d-11ff63396ffb"},"vehicle_type_id":"4","last_reported":1738606355,"current_range_meters":19600,"station_id":"ce4bho92rcd13ifvqh4g","pricing_plan_id":"cebpf4jnsgd1na2vs0mg"},{"bike_id":"85e0a930-26fd-4edc-a536-795827c6b8db","system_id":"levelo_inurba_marseille","lat":43.287,"lon":5.37401,"is_reserved":false,"is_disabled":false,"rental_uris":{"android":"levelo://app?vid=85e0a930-26fd-4edc-a536-795827c6b8db","ios":"levelo://app?vid=85e0a930-26fd-4edc-a536-795827c6b8db"},"vehicle_type_id":"4","last_reported":1738606355,"current_range_meters":17200,"station_id":"ce4bh3p2rcd13ifvqdq0","pricing_plan_id":"cebpf4jnsgd1na2vs0mg"},{"bike_id":"cd07e062-2af1-406e-bcb9-5f1ec4730937","system_id":"levelo_inurba_marseille","lat":43.23069,"lon":5.35493,"is_reserved":false,"is_disabled":false,"rental_uris":{"android":"levelo://app?vid=cd07e062-2af1-406e-bcb9-5f1ec4730937","ios":"levelo://app?vid=cd07e062-2af1-406e-bcb9-5f1ec4730937"},"vehicle_type_id":"4","last_reported":1738606355,"current_range_meters":12000,"station_id":"cpo3342slgdg3j2ifvpg","pricing_plan_id":"cebpf4jnsgd1na2vs0mg"},{"bike_id":"18a6b3c7-a1e1-4e85-94fb-182531209691","system_id":"levelo_inurba_marseille","lat":43.25012,"lon":5.38914,"is_reserved":false,"is_disabled":false,"rental_uris":{"android":"levelo://app?vid=18a6b3c7-a1e1-4e85-94fb-182531209691","ios":"levelo://app?vid=18a6b3c7-a1e1-4e85-94fb-182531209691"},"vehicle_type_id":"4","last_reported":1738606355,"current_range_meters":4000,"station_id":"ce4bhgp2rcd13ifvqfd0","pricing_plan_id":"cebpf4jnsgd1na2vs0mg"},{"bike_id":"4638daf8-245c-4b55-8829-9ae6748daf35","system_id":"levelo_inurba_marseille","lat":43.2794,"lon":5.41055,"is_reserved":false,"is_disabled":false,"rental_uris":{"android":"levelo://app?vid=4638daf8-245c-4b55-8829-9ae6748daf35","ios":"levelo://app?vid=4638daf8-245c-4b55-8829-9ae6748daf35"},"vehicle_type_id":"4","last_reported":1738606355,"current_range_meters":10000,"station_id":"ce4bhnp2rcd13ifvqh0g","pricing_plan_id":"cebpf4jnsgd1na2vs0mg"},{"bike_id":"516f2549-79cf-4297-a0ad-3d3f06a71f80","system_id":"levelo_inurba_marseille","lat":43.31721,"lon":5.42379,"is_reserved":false,"is_disabled":true,"rental_uris":{"android":"levelo://app?vid=516f2549-79cf-4297-a0ad-3d3f06a71f80","ios":"levelo://app?vid=516f2549-79cf-4297-a0ad-3d3f06a71f80"},"vehicle_type_id":"4","last_reported":1738606355,"current_range_meters":7200,"station_id":"ce4bhp92rcd13ifvqhbg","pricing_plan_id":"cebpf4jnsgd1na2vs0mg"},{"bike_id":"2560298a-7b73-4b42-b024-41069cd9db21","system_id":"levelo_inurba_marseille","lat":43.2707,"lon":5.40248,"is_reserved":false,"is_disabled":true,"rental_uris":{"android":"levelo://app?vid=2560298a-7b73-4b42-b024-41069cd9db21","ios":"levelo://app?vid=2560298a-7b73-4b42-b024-41069cd9db21"},"vehicle_type_id":"4","last_reported":1738606355,"current_range_meters":1200,"station_id":"ce4bhk92rcd13ifvqgc0","pricing_plan_id":"cebpf4jnsgd1na2vs0mg"},{"bike_id":"00de6221-440e-40cd-b5f7-243a7f482c1d","system_id":"levelo_inurba_marseille","lat":43.30416,"lon":5.41292,"is_reserved":false,"is_disabled":false,"rental_uris":{"android":"levelo://app?vid=00de6221-440e-40cd-b5f7-243a7f482c1d","ios":"levelo://app?vid=00de6221-440e-40cd-b5f7-243a7f482c1d"},"vehicle_type_id":"4","last_reported":1738606355,"current_range_meters":38000,"station_id":"ce4bhop2rcd13ifvqh8g","pricing_plan_id":"cebpf4jnsgd1na2vs0mg"},{"bike_id":"d4f21f8d-478a-460e-b9ed-8c4d98ab815d","system_id":"levelo_inurba_marseille","lat":43.29608,"lon":5.37708,"is_reserved":false,"is_disabled":false,"rental_uris":{"android":"levelo://app?vid=d4f21f8d-478a-460e-b9ed-8c4d98ab815d","ios":"levelo://app?vid=d4f21f8d-478a-460e-b9ed-8c4d98ab815d"},"vehicle_type_id":"4","last_reported":1738606355,"current_range_meters":36800,"station_id":"ce4bgi92rcd13ifvqb90","pricing_plan_id":"cebpf4jnsgd1na2vs0mg"},{"bike_id":"2e000050-3e54-4f5a-9a94-7b366c1367e2","system_id":"levelo_inurba_marseille","lat":43.2842,"lon":5.37514,"is_reserved":false,"is_disabled":false,"rental_uris":{"android":"levelo://app?vid=2e000050-3e54-4f5a-9a94-7b366c1367e2","ios":"levelo://app?vid=2e000050-3e54-4f5a-9a94-7b366c1367e2"},"vehicle_type_id":"4","last_reported":1738606355,"current_range_meters":26800,"station_id":"ce4bh412rcd13ifvqds0","pricing_plan_id":"cebpf4jnsgd1na2vs0mg"},{"bike_id":"82b96249-9f3e-451b-ae28-0614063677c1","system_id":"levelo_inurba_marseille","lat":43.23188,"lon":5.39986,"is_reserved":false,"is_disabled":false,"rental_uris":{"android":"levelo://app?vid=82b96249-9f3e-451b-ae28-0614063677c1","ios":"levelo://app?vid=82b96249-9f3e-451b-ae28-0614063677c1"},"vehicle_type_id":"4","last_reported":1738606355,"current_range_meters":24000,"station_id":"ce4bhn12rcd13ifvqgqg","pricing_plan_id":"cebpf4jnsgd1na2vs0mg"},{"bike_id":"e8167c1a-a29d-4dbf-baa7-ebdcf27060a7","system_id":"levelo_inurba_marseille","lat":43.27563,"lon":5.3843,"is_reserved":false,"is_disabled":false,"rental_uris":{"android":"levelo://app?vid=e8167c1a-a29d-4dbf-baa7-ebdcf27060a7","ios":"levelo://app?vid=e8167c1a-a29d-4dbf-baa7-ebdcf27060a7"},"vehicle_type_id":"4","last_reported":1738606355,"current_range_meters":11600,"station_id":"ce4bhh92rcd13ifvqfi0","pricing_plan_id":"cebpf4jnsgd1na2vs0mg"},{"bike_id":"c7d144cc-0422-4eab-9c85-909b1fb6509a","system_id":"levelo_inurba_marseille","lat":43.28265,"lon":5.35061,"is_reserved":false,"is_disabled":true,"rental_uris":{"android":"levelo://app?vid=c7d144cc-0422-4eab-9c85-909b1fb6509a","ios":"levelo://app?vid=c7d144cc-0422-4eab-9c85-909b1fb6509a"},"vehicle_type_id":"4","last_reported":1738606355,"current_range_meters":2000,"station_id":"ce4bhbp2rcd13ifvqerg","pricing_plan_id":"cebpf4jnsgd1na2vs0mg"},{"bike_id":"08691341-08de-4814-8055-e780af04f89c","system_id":"levelo_inurba_marseille","lat":43.25006,"lon":5.38929,"is_reserved":false,"is_disabled":false,"rental_uris":{"android":"levelo://app?vid=08691341-08de-4814-8055-e780af04f89c","ios":"levelo://app?vid=08691341-08de-4814-8055-e780af04f89c"},"vehicle_type_id":"4","last_reported":1738606355,"current_range_meters":38800,"station_id":"ce4bhgp2rcd13ifvqfd0","pricing_plan_id":"cebpf4jnsgd1na2vs0mg"},{"bike_id":"8ec883eb-b186-42b1-a898-c67e51940610","system_id":"levelo_inurba_marseille","lat":43.31163,"lon":5.3872,"is_reserved":false,"is_disabled":false,"rental_uris":{"android":"levelo://app?vid=8ec883eb-b186-42b1-a898-c67e51940610","ios":"levelo://app?vid=8ec883eb-b186-42b1-a898-c67e51940610"},"vehicle_type_id":"4","last_reported":1738606355,"current_range_meters":13600,"station_id":"ce4bgv12rcd13ifvqcp0","pricing_plan_id":"cebpf4jnsgd1na2vs0mg"},{"bike_id":"3eeff02b-8268-4022-b26d-26bab769f3f5","system_id":"levelo_inurba_marseille","lat":43.28424,"lon":5.37517,"is_reserved":false,"is_disabled":false,"rental_uris":{"android":"levelo://app?vid=3eeff02b-8268-4022-b26d-26bab769f3f5","ios":"levelo://app?vid=3eeff02b-8268-4022-b26d-26bab769f3f5"},"vehicle_type_id":"4","last_reported":1738606355,"current_range_meters":26800,"station_id":"ce4bh412rcd13ifvqds0","pricing_plan_id":"cebpf4jnsgd1na2vs0mg"},{"bike_id":"a659468e-92fb-408c-b224-7b187ed486c6","system_id":"levelo_inurba_marseille","lat":43.2407,"lon":5.37767,"is_reserved":false,"is_disabled":false,"rental_uris":{"android":"levelo://app?vid=a659468e-92fb-408c-b224-7b187ed486c6","ios":"levelo://app?vid=a659468e-92fb-408c-b224-7b187ed486c6"},"vehicle_type_id":"4","last_reported":1738606355,"current_range_meters":6800,"station_id":"ce4bhnp2rcd13ifvqgvg","pricing_plan_id":"cebpf4jnsgd1na2vs0mg"},{"bike_id":"d096f43e-0bb1-440a-a001-b93d77a0714e","system_id":"levelo_inurba_marseille","lat":43.29795,"lon":5.38084,"is_reserved":false,"is_disabled":false,"rental_uris":{"android":"levelo://app?vid=d096f43e-0bb1-440a-a001-b93d77a0714e","ios":"levelo://app?vid=d096f43e-0bb1-440a-a001-b93d77a0714e"},"vehicle_type_id":"4","last_reported":1738606355,"current_range_meters":36800,"station_id":"ce4bgip2rcd13ifvqbb0","pricing_plan_id":"cebpf4jnsgd1na2vs0mg"},{"bike_id":"c3066916-eed2-4635-b496-6709235f4164","system_id":"levelo_inurba_marseille","lat":43.24999,"lon":5.38943,"is_reserved":false,"is_disabled":false,"rental_uris":{"android":"levelo://app?vid=c3066916-eed2-4635-b496-6709235f4164","ios":"levelo://app?vid=c3066916-eed2-4635-b496-6709235f4164"},"vehicle_type_id":"4","last_reported":1738606355,"current_range_meters":17200,"station_id":"ce4bhgp2rcd13ifvqfd0","pricing_plan_id":"cebpf4jnsgd1na2vs0mg"},{"bike_id":"cab08fcf-f8fc-4f06-9491-86d3639e7d83","system_id":"levelo_inurba_marseille","lat":43.29204,"lon":5.39317,"is_reserved":false,"is_disabled":false,"rental_uris":{"android":"levelo://app?vid=cab08fcf-f8fc-4f06-9491-86d3639e7d83","ios":"levelo://app?vid=cab08fcf-f8fc-4f06-9491-86d3639e7d83"},"vehicle_type_id":"4","last_reported":1738606355,"current_range_meters":35600,"station_id":"ce4bh192rcd13ifvqdd0","pricing_plan_id":"cebpf4jnsgd1na2vs0mg"},{"bike_id":"5718481c-817c-4453-ad50-860ac1fd6949","system_id":"levelo_inurba_marseille","lat":43.26498,"lon":5.39538,"is_reserved":false,"is_disabled":false,"rental_uris":{"android":"levelo://app?vid=5718481c-817c-4453-ad50-860ac1fd6949","ios":"levelo://app?vid=5718481c-817c-4453-ad50-860ac1fd6949"},"vehicle_type_id":"4","last_reported":1738606355,"current_range_meters":38800,"station_id":"ce4bhi12rcd13ifvqfq0","pricing_plan_id":"cebpf4jnsgd1na2vs0mg"},{"bike_id":"fa48af50-f7f8-463b-8073-011bea7848cf","system_id":"levelo_inurba_marseille","lat":43.26953,"lon":5.40246,"is_reserved":false,"is_disabled":false,"rental_uris":{"android":"levelo://app?vid=fa48af50-f7f8-463b-8073-011bea7848cf","ios":"levelo://app?vid=fa48af50-f7f8-463b-8073-011bea7848cf"},"vehicle_type_id":"4","last_reported":1738606355,"current_range_meters":36000,"station_id":"cjm6bp8fraef2m0cb0m0","pricing_plan_id":"cebpf4jnsgd1na2vs0mg"},{"bike_id":"1d887e37-d078-4c40-83a3-0f10515eebf1","system_id":"levelo_inurba_marseille","lat":43.29844,"lon":5.36274,"is_reserved":false,"is_disabled":false,"rental_uris":{"android":"levelo://app?vid=1d887e37-d078-4c40-83a3-0f10515eebf1","ios":"levelo://app?vid=1d887e37-d078-4c40-83a3-0f10515eebf1"},"vehicle_type_id":"4","last_reported":1738606355,"current_range_meters":18800,"station_id":"ce4bgpp2rcd13ifvqc3g","pricing_plan_id":"cebpf4jnsgd1na2vs0mg"},{"bike_id":"c3bc8cdb-5438-4db8-9e55-d4765b47f137","system_id":"levelo_inurba_marseille","lat":43.29572,"lon":5.39975,"is_reserved":false,"is_disabled":false,"rental_uris":{"android":"levelo://app?vid=c3bc8cdb-5438-4db8-9e55-d4765b47f137","ios":"levelo://app?vid=c3bc8cdb-5438-4db8-9e55-d4765b47f137"},"vehicle_type_id":"4","last_reported":1738606355,"current_range_meters":20000,"station_id":"ce4bh312rcd13ifvqdj0","pricing_plan_id":"cebpf4jnsgd1na2vs0mg"},{"bike_id":"7bbd1ca9-5cb4-4750-a3f0-60560373cbff","system_id":"levelo_inurba_marseille","lat":43.25489,"lon":5.37654,"is_reserved":false,"is_disabled":false,"rental_uris":{"android":"levelo://app?vid=7bbd1ca9-5cb4-4750-a3f0-60560373cbff","ios":"levelo://app?vid=7bbd1ca9-5cb4-4750-a3f0-60560373cbff"},"vehicle_type_id":"4","last_reported":1738606355,"current_range_meters":38800,"station_id":"ce4bhh12rcd13ifvqff0","pricing_plan_id":"cebpf4jnsgd1na2vs0mg"},{"bike_id":"ebeb44d6-3597-42e8-adbb-9194a5bc7392","system_id":"levelo_inurba_marseille","lat":43.28704,"lon":5.37394,"is_reserved":false,"is_disabled":false,"rental_uris":{"android":"levelo://app?vid=ebeb44d6-3597-42e8-adbb-9194a5bc7392","ios":"levelo://app?vid=ebeb44d6-3597-42e8-adbb-9194a5bc7392"},"vehicle_type_id":"4","last_reported":1738606355,"current_range_meters":16400,"station_id":"ce4bh3p2rcd13ifvqdq0","pricing_plan_id":"cebpf4jnsgd1na2vs0mg"},{"bike_id":"506a5841-1d0a-4e9a-bf75-c549116e09f0","system_id":"levelo_inurba_marseille","lat":43.27806,"lon":5.40706,"is_reserved":false,"is_disabled":false,"rental_uris":{"android":"levelo://app?vid=506a5841-1d0a-4e9a-bf75-c549116e09f0","ios":"levelo://app?vid=506a5841-1d0a-4e9a-bf75-c549116e09f0"},"vehicle_type_id":"4","last_reported":1738606355,"current_range_meters":32800,"station_id":"ce4bhnh2rcd13ifvqgtg","pricing_plan_id":"cebpf4jnsgd1na2vs0mg"},{"bike_id":"4b02490b-835d-4d30-8c84-8a4be2cc6b37","system_id":"levelo_inurba_marseille","lat":43.29266,"lon":5.38431,"is_reserved":false,"is_disabled":false,"rental_uris":{"android":"levelo://app?vid=4b02490b-835d-4d30-8c84-8a4be2cc6b37","ios":"levelo://app?vid=4b02490b-835d-4d30-8c84-8a4be2cc6b37"},"vehicle_type_id":"4","last_reported":1738606355,"current_range_meters":16000,"station_id":"ce4bh692rcd13ifvqea0","pricing_plan_id":"cebpf4jnsgd1na2vs0mg"},{"bike_id":"2ffa719d-4015-45b7-9f3a-93c56ddf42c3","system_id":"levelo_inurba_marseille","lat":43.258561,"lon":5.398971,"is_reserved":false,"is_disabled":false,"rental_uris":{"android":"levelo://app?vid=2ffa719d-4015-45b7-9f3a-93c56ddf42c3","ios":"levelo://app?vid=2ffa719d-4015-45b7-9f3a-93c56ddf42c3"},"vehicle_type_id":"4","last_reported":1738606355,"current_range_meters":3200,"station_id":"ce4bh512rcd13ifvqe3g","pricing_plan_id":"cebpf4jnsgd1na2vs0mg"},{"bike_id":"ae50caec-5ecb-4a77-8148-ffb9866043e3","system_id":"levelo_inurba_marseille","lat":43.32359,"lon":5.38878,"is_reserved":false,"is_disabled":false,"rental_uris":{"android":"levelo://app?vid=ae50caec-5ecb-4a77-8148-ffb9866043e3","ios":"levelo://app?vid=ae50caec-5ecb-4a77-8148-ffb9866043e3"},"vehicle_type_id":"4","last_reported":1738606355,"current_range_meters":28000,"station_id":"ce4bhqp2rcd13ifvqhog","pricing_plan_id":"cebpf4jnsgd1na2vs0mg"},{"bike_id":"6bb18b6b-35db-4080-8375-2a2e83c6fc4b","system_id":"levelo_inurba_marseille","lat":43.2315,"lon":5.43708,"is_reserved":false,"is_disabled":true,"rental_uris":{"android":"levelo://app?vid=6bb18b6b-35db-4080-8375-2a2e83c6fc4b","ios":"levelo://app?vid=6bb18b6b-35db-4080-8375-2a2e83c6fc4b"},"vehicle_type_id":"4","last_reported":1738606355,"current_range_meters":38800,"station_id":"ce4bhmp2rcd13ifvqgog","pricing_plan_id":"cebpf4jnsgd1na2vs0mg"},{"bike_id":"9941cd6a-34cf-406a-8e90-7a8373d985f3","system_id":"levelo_inurba_marseille","lat":43.25581,"lon":5.38241,"is_reserved":false,"is_disabled":false,"rental_uris":{"android":"levelo://app?vid=9941cd6a-34cf-406a-8e90-7a8373d985f3","ios":"levelo://app?vid=9941cd6a-34cf-406a-8e90-7a8373d985f3"},"vehicle_type_id":"4","last_reported":1738606355,"current_range_meters":29600,"station_id":"ce4bhih2rcd13ifvqfs0","pricing_plan_id":"cebpf4jnsgd1na2vs0mg"},{"bike_id":"d0a22736-09d6-46db-a1a2-d82c990ae0d9","system_id":"levelo_inurba_marseille","lat":43.30321,"lon":5.40441,"is_reserved":false,"is_disabled":true,"rental_uris":{"android":"levelo://app?vid=d0a22736-09d6-46db-a1a2-d82c990ae0d9","ios":"levelo://app?vid=d0a22736-09d6-46db-a1a2-d82c990ae0d9"},"vehicle_type_id":"4","last_reported":1738606355,"current_range_meters":0,"station_id":"ce4bh012rcd13ifvqd10","pricing_plan_id":"cebpf4jnsgd1na2vs0mg"},{"bike_id":"787b7837-f258-4886-bbf5-841ee39c0166","system_id":"levelo_inurba_marseille","lat":43.28268,"lon":5.35067,"is_reserved":false,"is_disabled":true,"rental_uris":{"android":"levelo://app?vid=787b7837-f258-4886-bbf5-841ee39c0166","ios":"levelo://app?vid=787b7837-f258-4886-bbf5-841ee39c0166"},"vehicle_type_id":"4","last_reported":1738606355,"current_range_meters":0,"station_id":"ce4bhbp2rcd13ifvqerg","pricing_plan_id":"cebpf4jnsgd1na2vs0mg"},{"bike_id":"35e9be92-813b-4a24-804a-34341a2b466d","system_id":"levelo_inurba_marseille","lat":43.26488,"lon":5.39546,"is_reserved":false,"is_disabled":false,"rental_uris":{"android":"levelo://app?vid=35e9be92-813b-4a24-804a-34341a2b466d","ios":"levelo://app?vid=35e9be92-813b-4a24-804a-34341a2b466d"},"vehicle_type_id":"4","last_reported":1738606355,"current_range_meters":12400,"station_id":"ce4bhi12rcd13ifvqfq0","pricing_plan_id":"cebpf4jnsgd1na2vs0mg"},{"bike_id":"a900de3e-9b85-4eee-8886-aef2be1bd40e","system_id":"levelo_inurba_marseille","lat":43.31326,"lon":5.39697,"is_reserved":false,"is_disabled":false,"rental_uris":{"android":"levelo://app?vid=a900de3e-9b85-4eee-8886-aef2be1bd40e","ios":"levelo://app?vid=a900de3e-9b85-4eee-8886-aef2be1bd40e"},"vehicle_type_id":"4","last_reported":1738606355,"current_range_meters":3600,"station_id":"ce4bgvp2rcd13ifvqcu0","pricing_plan_id":"cebpf4jnsgd1na2vs0mg"},{"bike_id":"1511fbcf-e983-48ad-a7d3-b8fcb348d5d4","system_id":"levelo_inurba_marseille","lat":43.29572,"lon":5.39968,"is_reserved":false,"is_disabled":false,"rental_uris":{"android":"levelo://app?vid=1511fbcf-e983-48ad-a7d3-b8fcb348d5d4","ios":"levelo://app?vid=1511fbcf-e983-48ad-a7d3-b8fcb348d5d4"},"vehicle_type_id":"4","last_reported":1738606355,"current_range_meters":37600,"station_id":"ce4bh312rcd13ifvqdj0","pricing_plan_id":"cebpf4jnsgd1na2vs0mg"},{"bike_id":"eac8e106-76e0-4f1b-81af-4eaefecd2501","system_id":"levelo_inurba_marseille","lat":43.25001,"lon":5.38944,"is_reserved":false,"is_disabled":false,"rental_uris":{"android":"levelo://app?vid=eac8e106-76e0-4f1b-81af-4eaefecd2501","ios":"levelo://app?vid=eac8e106-76e0-4f1b-81af-4eaefecd2501"},"vehicle_type_id":"4","last_reported":1738606355,"current_range_meters":19600,"station_id":"ce4bhgp2rcd13ifvqfd0","pricing_plan_id":"cebpf4jnsgd1na2vs0mg"},{"bike_id":"ec1ec617-9d93-4d66-a5d8-531cf4c0e604","system_id":"levelo_inurba_marseille","lat":43.25865,"lon":5.39906,"is_reserved":false,"is_disabled":false,"rental_uris":{"android":"levelo://app?vid=ec1ec617-9d93-4d66-a5d8-531cf4c0e604","ios":"levelo://app?vid=ec1ec617-9d93-4d66-a5d8-531cf4c0e604"},"vehicle_type_id":"4","last_reported":1738606355,"current_range_meters":8000,"station_id":"ce4bhl92rcd13ifvqghg","pricing_plan_id":"cebpf4jnsgd1na2vs0mg"},{"bike_id":"8654b126-eecc-48d2-96fd-5d032bef9699","system_id":"levelo_inurba_marseille","lat":43.299296,"lon":5.36528,"is_reserved":false,"is_disabled":false,"rental_uris":{"android":"levelo://app?vid=8654b126-eecc-48d2-96fd-5d032bef9699","ios":"levelo://app?vid=8654b126-eecc-48d2-96fd-5d032bef9699"},"vehicle_type_id":"4","last_reported":1738606355,"current_range_meters":30400,"station_id":"ce4bgm92rcd13ifvqbr0","pricing_plan_id":"cebpf4jnsgd1na2vs0mg"},{"bike_id":"fe17d549-c68a-4c68-8652-263788d853da","system_id":"levelo_inurba_marseille","lat":43.27824,"lon":5.40703,"is_reserved":false,"is_disabled":false,"rental_uris":{"android":"levelo://app?vid=fe17d549-c68a-4c68-8652-263788d853da","ios":"levelo://app?vid=fe17d549-c68a-4c68-8652-263788d853da"},"vehicle_type_id":"4","last_reported":1738606355,"current_range_meters":8000,"station_id":"ce4bhnh2rcd13ifvqgtg","pricing_plan_id":"cebpf4jnsgd1na2vs0mg"},{"bike_id":"b48cc501-a853-4f55-994d-55561caf7792","system_id":"levelo_inurba_marseille","lat":43.29296,"lon":5.37141,"is_reserved":false,"is_disabled":false,"rental_uris":{"android":"levelo://app?vid=b48cc501-a853-4f55-994d-55561caf7792","ios":"levelo://app?vid=b48cc501-a853-4f55-994d-55561caf7792"},"vehicle_type_id":"4","last_reported":1738606355,"current_range_meters":38800,"station_id":"ce4bgh92rcd13ifvqb40","pricing_plan_id":"cebpf4jnsgd1na2vs0mg"},{"bike_id":"13b6f55e-9871-4418-9dd8-a8d514106ce3","system_id":"levelo_inurba_marseille","lat":43.28924,"lon":5.36614,"is_reserved":false,"is_disabled":false,"rental_uris":{"android":"levelo://app?vid=13b6f55e-9871-4418-9dd8-a8d514106ce3","ios":"levelo://app?vid=13b6f55e-9871-4418-9dd8-a8d514106ce3"},"vehicle_type_id":"4","last_reported":1738606355,"current_range_meters":10800,"station_id":"ce4bhap2rcd13ifvqek0","pricing_plan_id":"cebpf4jnsgd1na2vs0mg"},{"bike_id":"eb9c859e-ef39-446e-afa7-9063d5540a2c","system_id":"levelo_inurba_marseille","lat":43.329084,"lon":5.366992,"is_reserved":false,"is_disabled":false,"rental_uris":{"android":"levelo://app?vid=eb9c859e-ef39-446e-afa7-9063d5540a2c","ios":"levelo://app?vid=eb9c859e-ef39-446e-afa7-9063d5540a2c"},"vehicle_type_id":"4","last_reported":1738606355,"current_range_meters":32000,"station_id":"","pricing_plan_id":"cebpf4jnsgd1na2vs0mg"},{"bike_id":"9c42114e-ea61-4c3d-98b3-5089f1e0e4ce","system_id":"levelo_inurba_marseille","lat":43.29241,"lon":5.40929,"is_reserved":false,"is_disabled":false,"rental_uris":{"android":"levelo://app?vid=9c42114e-ea61-4c3d-98b3-5089f1e0e4ce","ios":"levelo://app?vid=9c42114e-ea61-4c3d-98b3-5089f1e0e4ce"},"vehicle_type_id":"4","last_reported":1738606355,"current_range_meters":38800,"station_id":"ce4bh192rcd13ifvqdc0","pricing_plan_id":"cebpf4jnsgd1na2vs0mg"},{"bike_id":"037045cf-b43f-4503-acba-5cf779c345c4","system_id":"levelo_inurba_marseille","lat":43.29787,"lon":5.38098,"is_reserved":false,"is_disabled":false,"rental_uris":{"android":"levelo://app?vid=037045cf-b43f-4503-acba-5cf779c345c4","ios":"levelo://app?vid=037045cf-b43f-4503-acba-5cf779c345c4"},"vehicle_type_id":"4","last_reported":1738606355,"current_range_meters":18800,"station_id":"ce4bgip2rcd13ifvqbb0","pricing_plan_id":"cebpf4jnsgd1na2vs0mg"},{"bike_id":"b69d0c13-1b50-4c4d-a3a2-1d795cf04ef1","system_id":"levelo_inurba_marseille","lat":43.30136,"lon":5.387933,"is_reserved":false,"is_disabled":true,"rental_uris":{"android":"levelo://app?vid=b69d0c13-1b50-4c4d-a3a2-1d795cf04ef1","ios":"levelo://app?vid=b69d0c13-1b50-4c4d-a3a2-1d795cf04ef1"},"vehicle_type_id":"4","last_reported":1738606355,"current_range_meters":30800,"station_id":"ce4bghh2rcd13ifvqb60","pricing_plan_id":"cebpf4jnsgd1na2vs0mg"},{"bike_id":"5556fc6e-2780-4a93-b456-cd5befd2783d","system_id":"levelo_inurba_marseille","lat":43.284576,"lon":5.358861,"is_reserved":false,"is_disabled":true,"rental_uris":{"android":"levelo://app?vid=5556fc6e-2780-4a93-b456-cd5befd2783d","ios":"levelo://app?vid=5556fc6e-2780-4a93-b456-cd5befd2783d"},"vehicle_type_id":"4","last_reported":1738606355,"current_range_meters":800,"station_id":"ce4bhah2rcd13ifvqei0","pricing_plan_id":"cebpf4jnsgd1na2vs0mg"},{"bike_id":"bd8fce10-db60-4637-88ad-07a5a938f039","system_id":"levelo_inurba_marseille","lat":43.28605,"lon":5.3707,"is_reserved":false,"is_disabled":true,"rental_uris":{"android":"levelo://app?vid=bd8fce10-db60-4637-88ad-07a5a938f039","ios":"levelo://app?vid=bd8fce10-db60-4637-88ad-07a5a938f039"},"vehicle_type_id":"4","last_reported":1738606355,"current_range_meters":38400,"station_id":"ce4bht12rcd13ifvqi60","pricing_plan_id":"cebpf4jnsgd1na2vs0mg"},{"bike_id":"aca7f856-95b0-4e97-8a0a-cf9d567272bd","system_id":"levelo_inurba_marseille","lat":43.23061,"lon":5.35503,"is_reserved":false,"is_disabled":false,"rental_uris":{"android":"levelo://app?vid=aca7f856-95b0-4e97-8a0a-cf9d567272bd","ios":"levelo://app?vid=aca7f856-95b0-4e97-8a0a-cf9d567272bd"},"vehicle_type_id":"4","last_reported":1738606355,"current_range_meters":36400,"station_id":"cpo3342slgdg3j2ifvpg","pricing_plan_id":"cebpf4jnsgd1na2vs0mg"},{"bike_id":"d5fdd631-4613-47d3-957c-71490edf7eff","system_id":"levelo_inurba_marseille","lat":43.29581,"lon":5.36747,"is_reserved":false,"is_disabled":false,"rental_uris":{"android":"levelo://app?vid=d5fdd631-4613-47d3-957c-71490edf7eff","ios":"levelo://app?vid=d5fdd631-4613-47d3-957c-71490edf7eff"},"vehicle_type_id":"4","last_reported":1738606355,"current_range_meters":38000,"station_id":"ce4bgph2rcd13ifvqc2g","pricing_plan_id":"cebpf4jnsgd1na2vs0mg"},{"bike_id":"9d9e6714-036c-4151-8a5d-515ad00cd54b","system_id":"levelo_inurba_marseille","lat":43.23194,"lon":5.35552,"is_reserved":false,"is_disabled":false,"rental_uris":{"android":"levelo://app?vid=9d9e6714-036c-4151-8a5d-515ad00cd54b","ios":"levelo://app?vid=9d9e6714-036c-4151-8a5d-515ad00cd54b"},"vehicle_type_id":"4","last_reported":1738606355,"current_range_meters":20800,"station_id":"ce4bhu92rcd13ifvqi70","pricing_plan_id":"cebpf4jnsgd1na2vs0mg"},{"bike_id":"fbeab4f7-183d-4c2e-a8db-0016f03fc7f4","system_id":"levelo_inurba_marseille","lat":43.27973,"lon":5.38734,"is_reserved":false,"is_disabled":false,"rental_uris":{"android":"levelo://app?vid=fbeab4f7-183d-4c2e-a8db-0016f03fc7f4","ios":"levelo://app?vid=fbeab4f7-183d-4c2e-a8db-0016f03fc7f4"},"vehicle_type_id":"4","last_reported":1738606355,"current_range_meters":22000,"station_id":"ce4bhg12rcd13ifvqf80","pricing_plan_id":"cebpf4jnsgd1na2vs0mg"},{"bike_id":"6f47217d-29d2-49bc-b01f-b8375fd47483","system_id":"levelo_inurba_marseille","lat":43.32366,"lon":5.38885,"is_reserved":false,"is_disabled":false,"rental_uris":{"android":"levelo://app?vid=6f47217d-29d2-49bc-b01f-b8375fd47483","ios":"levelo://app?vid=6f47217d-29d2-49bc-b01f-b8375fd47483"},"vehicle_type_id":"4","last_reported":1738606355,"current_range_meters":12400,"station_id":"ce4bhqp2rcd13ifvqhog","pricing_plan_id":"cebpf4jnsgd1na2vs0mg"},{"bike_id":"95f1b254-55a3-40b2-9886-0544512eac08","system_id":"levelo_inurba_marseille","lat":43.3054,"lon":5.36546,"is_reserved":false,"is_disabled":false,"rental_uris":{"android":"levelo://app?vid=95f1b254-55a3-40b2-9886-0544512eac08","ios":"levelo://app?vid=95f1b254-55a3-40b2-9886-0544512eac08"},"vehicle_type_id":"4","last_reported":1738606355,"current_range_meters":37600,"station_id":"ce4bgs12rcd13ifvqcag","pricing_plan_id":"cebpf4jnsgd1na2vs0mg"},{"bike_id":"b39173c5-b93d-42e7-aa9f-ef1b710f7b45","system_id":"levelo_inurba_marseille","lat":43.301315,"lon":5.39874,"is_reserved":false,"is_disabled":true,"rental_uris":{"android":"levelo://app?vid=b39173c5-b93d-42e7-aa9f-ef1b710f7b45","ios":"levelo://app?vid=b39173c5-b93d-42e7-aa9f-ef1b710f7b45"},"vehicle_type_id":"4","last_reported":1738606355,"current_range_meters":38800,"station_id":"ce4bh0h2rcd13ifvqd40","pricing_plan_id":"cebpf4jnsgd1na2vs0mg"},{"bike_id":"d1f73a6e-4a72-4ba1-ace0-3d4a39f9f484","system_id":"levelo_inurba_marseille","lat":43.30349,"lon":5.41861,"is_reserved":false,"is_disabled":true,"rental_uris":{"android":"levelo://app?vid=d1f73a6e-4a72-4ba1-ace0-3d4a39f9f484","ios":"levelo://app?vid=d1f73a6e-4a72-4ba1-ace0-3d4a39f9f484"},"vehicle_type_id":"4","last_reported":1738606355,"current_range_meters":36800,"station_id":"ce4bhop2rcd13ifvqh7g","pricing_plan_id":"cebpf4jnsgd1na2vs0mg"},{"bike_id":"31e32023-1170-482a-9c45-2ed92251aec1","system_id":"levelo_inurba_marseille","lat":43.29508,"lon":5.37517,"is_reserved":false,"is_disabled":false,"rental_uris":{"android":"levelo://app?vid=31e32023-1170-482a-9c45-2ed92251aec1","ios":"levelo://app?vid=31e32023-1170-482a-9c45-2ed92251aec1"},"vehicle_type_id":"4","last_reported":1738606355,"current_range_meters":37600,"station_id":"ce4bgkp2rcd13ifvqbmg","pricing_plan_id":"cebpf4jnsgd1na2vs0mg"},{"bike_id":"5f84d19f-75f1-4391-bc81-ae3f2b4f12ff","system_id":"levelo_inurba_marseille","lat":43.29263,"lon":5.38437,"is_reserved":false,"is_disabled":false,"rental_uris":{"android":"levelo://app?vid=5f84d19f-75f1-4391-bc81-ae3f2b4f12ff","ios":"levelo://app?vid=5f84d19f-75f1-4391-bc81-ae3f2b4f12ff"},"vehicle_type_id":"4","last_reported":1738606355,"current_range_meters":36400,"station_id":"ce4bh692rcd13ifvqea0","pricing_plan_id":"cebpf4jnsgd1na2vs0mg"},{"bike_id":"b91ffbc4-acdc-4860-898c-1b8a478577d5","system_id":"levelo_inurba_marseille","lat":43.29018,"lon":5.35952,"is_reserved":false,"is_disabled":false,"rental_uris":{"android":"levelo://app?vid=b91ffbc4-acdc-4860-898c-1b8a478577d5","ios":"levelo://app?vid=b91ffbc4-acdc-4860-898c-1b8a478577d5"},"vehicle_type_id":"4","last_reported":1738606355,"current_range_meters":6000,"station_id":"ce4bha92rcd13ifvqeg0","pricing_plan_id":"cebpf4jnsgd1na2vs0mg"},{"bike_id":"4f0d7afb-7919-4d92-a699-5b52ab930452","system_id":"levelo_inurba_marseille","lat":43.25836,"lon":5.39436,"is_reserved":false,"is_disabled":false,"rental_uris":{"android":"levelo://app?vid=4f0d7afb-7919-4d92-a699-5b52ab930452","ios":"levelo://app?vid=4f0d7afb-7919-4d92-a699-5b52ab930452"},"vehicle_type_id":"4","last_reported":1738606355,"current_range_meters":38800,"station_id":"ce4bhip2rcd13ifvqft0","pricing_plan_id":"cebpf4jnsgd1na2vs0mg"},{"bike_id":"1f7e6434-a3ad-4e03-907e-63af1050cf22","system_id":"levelo_inurba_marseille","lat":43.2841,"lon":5.37512,"is_reserved":false,"is_disabled":false,"rental_uris":{"android":"levelo://app?vid=1f7e6434-a3ad-4e03-907e-63af1050cf22","ios":"levelo://app?vid=1f7e6434-a3ad-4e03-907e-63af1050cf22"},"vehicle_type_id":"4","last_reported":1738606355,"current_range_meters":18000,"station_id":"ce4bh412rcd13ifvqds0","pricing_plan_id":"cebpf4jnsgd1na2vs0mg"},{"bike_id":"7b39ed00-86df-4303-bda1-bfc0fee1e7e2","system_id":"levelo_inurba_marseille","lat":43.32453,"lon":5.4555,"is_reserved":false,"is_disabled":false,"rental_uris":{"android":"levelo://app?vid=7b39ed00-86df-4303-bda1-bfc0fee1e7e2","ios":"levelo://app?vid=7b39ed00-86df-4303-bda1-bfc0fee1e7e2"},"vehicle_type_id":"4","last_reported":1738606355,"current_range_meters":27600,"station_id":"","pricing_plan_id":"cebpf4jnsgd1na2vs0mg"},