{"last_updated":1727107875,"ttl":30,"version":"2.2","data":{"bikes":[{"bike_id":"90a2bf2a-71c1-4c62-802e-6b658d92fe71","system_id":"levelo_inurba_marseille","lat":43.27179,"lon":5.4099,"is_reserved":false,"is_disabled":false,"rental_uris":{"android":"levelo://app?vid=90a2bf2a-71c1-4c62-802e-6b658d92fe71","ios":"levelo://app?vid=90a2bf2a-71c1-4c62-802e-6b658d92fe71"},"vehicle_type_id":"4","last_reported":1727107875,"current_range_meters":3200,"station_id":"ce4bhl12rcd13ifvqgf0","pricing_plan_id":"cebpf4jnsgd1na2vs0mg"},{"bike_id":"8ef36bea-7fc1-452a-96e4-4a0ce0295ffb","system_id":"levelo_inurba_marseille","lat":43.31755,"lon":5.3901,"is_reserved":false,"is_disabled":false,"rental_uris":{"android":"levelo://app?vid=8ef36bea-7fc1-452a-96e4-4a0ce0295ffb","ios":"levelo://app?vid=8ef36bea-7fc1-452a-96e4-4a0ce0295ffb"},"vehicle_type_id":"4","last_reported":1727107875,"current_range_meters":28400,"station_id":"ce4bhqp2rcd13ifvqhng","pricing_plan_id":"cebpf4jnsgd1na2vs0mg"},{"bike_id":"f0414e1b-66b8-4808-8c85-3fdeaad02843","system_id":"levelo_inurba_marseille","lat":43.28852,"lon":5.35846,"is_reserved":false,"is_disabled":false,"rental_uris":{"android":"levelo://app?vid=f0414e1b-66b8-4808-8c85-3fdeaad02843","ios":"levelo://app?vid=f0414e1b-66b8-4808-8c85-3fdeaad02843"},"vehicle_type_id":"4","last_reported":1727107875,"current_range_meters":24800,"station_id":"ce4bhb12rcd13ifvqem0","pricing_plan_id":"cebpf4jnsgd1na2vs0mg"},{"bike_id":"75743205-3216-401f-90ff-83230442aced","system_id":"levelo_inurba_marseille","lat":43.29778,"lon":5.39343,"is_reserved":false,"is_disabled":false,"rental_uris":{"android":"levelo://app?vid=75743205-3216-401f-90ff-83230442aced","ios":"levelo://app?vid=75743205-3216-401f-90ff-83230442aced"},"vehicle_type_id":"4","last_reported":1727107875,"current_range_meters":8000,"station_id":"chh1huq6cuj3fo74tm60","pricing_plan_id":"cebpf4jnsgd1na2vs0mg"},{"bike_id":"9b7ee46f-09d3-4ae0-8c89-b39370d6261f","system_id":"levelo_inurba_marseille","lat":43.326615,"lon":5.409923,"is_reserved":false,"is_disabled":false,"rental_uris":{"android":"levelo://app?vid=9b7ee46f-09d3-4ae0-8c89-b39370d6261f","ios":"levelo://app?vid=9b7ee46f-09d3-4ae0-8c89-b39370d6261f"},"vehicle_type_id":"4","last_reported":1727107875,"current_range_meters":39200,"station_id":"ce4bhpp2rcd13ifvqhgg","pricing_plan_id":"cebpf4jnsgd1na2vs0mg"},{"bike_id":"761d17d6-871e-47ad-bfa6-b1e6a453df87","system_id":"levelo_inurba_marseille","lat":43.31526,"lon":5.38039,"is_reserved":false,"is_disabled":false,"rental_uris":{"android":"levelo://app?vid=761d17d6-871e-47ad-bfa6-b1e6a453df87","ios":"levelo://app?vid=761d17d6-871e-47ad-bfa6-b1e6a453df87"},"vehicle_type_id":"4","last_reported":1727107875,"current_range_meters":33600,"station_id":"ce4bhsp2rcd13ifvqi50","pricing_plan_id":"cebpf4jnsgd1na2vs0mg"},{"bike_id":"de020e8f-20e3-497d-ac1a-bf8aea82917c","system_id":"levelo_inurba_marseille","lat":43.29894,"lon":5.43673,"is_reserved":false,"is_disabled":false,"rental_uris":{"android":"levelo://app?vid=de020e8f-20e3-497d-ac1a-bf8aea82917c","ios":"levelo://app?vid=de020e8f-20e3-497d-ac1a-bf8aea82917c"},"vehicle_type_id":"4","last_reported":1727107875,"current_range_meters":14400,"station_id":"ce4bhpp2rcd13ifvqhfg","pricing_plan_id":"cebpf4jnsgd1na2vs0mg"},{"bike_id":"ac8b1cf2-a251-4df1-832c-f64233a6f2c5","system_id":"levelo_inurba_marseille","lat":43.30146,"lon":5.3985,"is_reserved":false,"is_disabled":false,"rental_uris":{"android":"levelo://app?vid=ac8b1cf2-a251-4df1-832c-f64233a6f2c5","ios":"levelo://app?vid=ac8b1cf2-a251-4df1-832c-f64233a6f2c5"},"vehicle_type_id":"4","last_reported":1727107875,"current_range_meters":16400,"station_id":"ce4bh0h2rcd13ifvqd40","pricing_plan_id":"cebpf4jnsgd1na2vs0mg"},{"bike_id":"419a3f4b-7f15-4391-8257-2b2efb6ae8db","system_id":"levelo_inurba_marseille","lat":43.2827,"lon":5.35081,"is_reserved":false,"is_disabled":false,"rental_uris":{"android":"levelo://app?vid=419a3f4b-7f15-4391-8257-2b2efb6ae8db","ios":"levelo://app?vid=419a3f4b-7f15-4391-8257-2b2efb6ae8db"},"vehicle_type_id":"4","last_reported":1727107875,"current_range_meters":5600,"station_id":"ce4bhbp2rcd13ifvqerg","pricing_plan_id":"cebpf4jnsgd1na2vs0mg"},{"bike_id":"20a042f1-81aa-4cde-8548-4f002e395336","system_id":"levelo_inurba_marseille","lat":43.30202,"lon":5.39822,"is_reserved":false,"is_disabled":false,"rental_uris":{"android":"levelo://app?vid=20a042f1-81aa-4cde-8548-4f002e395336","ios":"levelo://app?vid=20a042f1-81aa-4cde-8548-4f002e395336"},"vehicle_type_id":"4","last_reported":1727107875,"current_range_meters":30000,"station_id":"ce4bgvp2rcd13ifvqct0","pricing_plan_id":"cebpf4jnsgd1na2vs0mg"},{"bike_id":"17e87f53-06dc-4467-bdcb-7e5791886d08","system_id":"levelo_inurba_marseille","lat":43.255,"lon":5.3765,"is_reserved":false,"is_disabled":false,"rental_uris":{"android":"levelo://app?vid=17e87f53-06dc-4467-bdcb-7e5791886d08","ios":"levelo://app?vid=17e87f53-06dc-4467-bdcb-7e5791886d08"},"vehicle_type_id":"4","last_reported":1727107875,"current_range_meters":12000,"station_id":"ce4bhh12rcd13ifvqff0","pricing_plan_id":"cebpf4jnsgd1na2vs0mg"},{"bike_id":"206a5c6a-b19f-4676-97f7-f424800f4b67","system_id":"levelo_inurba_marseille","lat":43.27182,"lon":5.40988,"is_reserved":false,"is_disabled":false,"rental_uris":{"android":"levelo://app?vid=206a5c6a-b19f-4676-97f7-f424800f4b67","ios":"levelo://app?vid=206a5c6a-b19f-4676-97f7-f424800f4b67"},"vehicle_type_id":"4","last_reported":1727107875,"current_range_meters":26000,"station_id":"ce4bhl12rcd13ifvqgf0","pricing_plan_id":"cebpf4jnsgd1na2vs0mg"},{"bike_id":"c605ea54-3cf7-480a-bcb6-525c72757eae","system_id":"levelo_inurba_marseille","lat":43.297665,"lon":5.393335,"is_reserved":false,"is_disabled":false,"rental_uris":{"android":"levelo://app?vid=c605ea54-3cf7-480a-bcb6-525c72757eae","ios":"levelo://app?vid=c605ea54-3cf7-480a-bcb6-525c72757eae"},"vehicle_type_id":"4","last_reported":1727107875,"current_range_meters":9200,"station_id":"chh1huq6cuj3fo74tm60","pricing_plan_id":"cebpf4jnsgd1na2vs0mg"},{"bike_id":"6d3c264d-37c8-45dd-95cf-f65c81bca196","system_id":"levelo_inurba_marseille","lat":43.229328,"lon":5.353768,"is_reserved":false,"is_disabled":false,"rental_uris":{"android":"levelo://app?vid=6d3c264d-37c8-45dd-95cf-f65c81bca196","ios":"levelo://app?vid=6d3c264d-37c8-45dd-95cf-f65c81bca196"},"vehicle_type_id":"4","last_reported":1727107875,"current_range_meters":30000,"station_id":"cpo3532slgdg3j2ikp40","pricing_plan_id":"cebpf4jnsgd1na2vs0mg"},{"bike_id":"6735050e-a8a5-4fa4-b474-d82227fd3f12","system_id":"levelo_inurba_marseille","lat":43.310822,"lon":5.383559,"is_reserved":false,"is_disabled":false,"rental_uris":{"android":"levelo://app?vid=6735050e-a8a5-4fa4-b474-d82227fd3f12","ios":"levelo://app?vid=6735050e-a8a5-4fa4-b474-d82227fd3f12"},"vehicle_type_id":"4","last_reported":1727107875,"current_range_meters":20000,"station_id":"ce4bgv92rcd13ifvqcr0","pricing_plan_id":"cebpf4jnsgd1na2vs0mg"},{"bike_id":"4c82ec5e-f27c-4044-8f87-e862c52b4bd1","system_id":"levelo_inurba_marseille","lat":43.268646,"lon":5.404641,"is_reserved":false,"is_disabled":false,"rental_uris":{"android":"levelo://app?vid=4c82ec5e-f27c-4044-8f87-e862c52b4bd1","ios":"levelo://app?vid=4c82ec5e-f27c-4044-8f87-e862c52b4bd1"},"vehicle_type_id":"4","last_reported":1727107875,"current_range_meters":34800,"station_id":"ce4bhdp2rcd13ifvqf20","pricing_plan_id":"cebpf4jnsgd1na2vs0mg"},{"bike_id":"4117225d-fbf7-489f-a9f9-a7903758f15d","system_id":"levelo_inurba_marseille","lat":43.337444,"lon":5.374475,"is_reserved":false,"is_disabled":false,"rental_uris":{"android":"levelo://app?vid=4117225d-fbf7-489f-a9f9-a7903758f15d","ios":"levelo://app?vid=4117225d-fbf7-489f-a9f9-a7903758f15d"},"vehicle_type_id":"4","last_reported":1727107875,"current_range_meters":25600,"station_id":"","pricing_plan_id":"cebpf4jnsgd1na2vs0mg"},{"bike_id":"96bba420-4282-4fe4-894f-bc1c72461062","system_id":"levelo_inurba_marseille","lat":43.31761,"lon":5.39012,"is_reserved":false,"is_disabled":false,"rental_uris":{"android":"levelo://app?vid=96bba420-4282-4fe4-894f-bc1c72461062","ios":"levelo://app?vid=96bba420-4282-4fe4-894f-bc1c72461062"},"vehicle_type_id":"4","last_reported":1727107875,"current_range_meters":39200,"station_id":"ce4bhqp2rcd13ifvqhng","pricing_plan_id":"cebpf4jnsgd1na2vs0mg"},{"bike_id":"fb393e0c-478d-4b6e-9798-120a64d86fcc","system_id":"levelo_inurba_marseille","lat":43.24173,"lon":5.36389,"is_reserved":false,"is_disabled":false,"rental_uris":{"android":"levelo://app?vid=fb393e0c-478d-4b6e-9798-120a64d86fcc","ios":"levelo://app?vid=fb393e0c-478d-4b6e-9798-120a64d86fcc"},"vehicle_type_id":"4","last_reported":1727107875,"current_range_meters":36400,"station_id":"cpo36qri1sfpv3e86is0","pricing_plan_id":"cebpf4jnsgd1na2vs0mg"},{"bike_id":"69027859-6d88-4240-b6ce-3761860c3d54","system_id":"levelo_inurba_marseille","lat":43.30932,"lon":5.40157,"is_reserved":false,"is_disabled":false,"rental_uris":{"android":"levelo://app?vid=69027859-6d88-4240-b6ce-3761860c3d54","ios":"levelo://app?vid=69027859-6d88-4240-b6ce-3761860c3d54"},"vehicle_type_id":"4","last_reported":1727107875,"current_range_meters":24400,"station_id":"ce4bgvp2rcd13ifvqct0","pricing_plan_id":"cebpf4jnsgd1na2vs0mg"},{"bike_id":"6d83808e-715d-4f85-b096-95f727d37ae7","system_id":"levelo_inurba_marseille","lat":43.28451,"lon":5.35886,"is_reserved":false,"is_disabled":false,"rental_uris":{"android":"levelo://app?vid=6d83808e-715d-4f85-b096-95f727d37ae7","ios":"levelo://app?vid=6d83808e-715d-4f85-b096-95f727d37ae7"},"vehicle_type_id":"4","last_reported":1727107875,"current_range_meters":38800,"station_id":"ce4bhah2rcd13ifvqei0","pricing_plan_id":"cebpf4jnsgd1na2vs0mg"},{"bike_id":"2fc34bba-a2b4-4632-bf54-64bcff937e6e","system_id":"levelo_inurba_marseille","lat":43.32486,"lon":5.36559,"is_reserved":false,"is_disabled":false,"rental_uris":{"android":"levelo://app?vid=2fc34bba-a2b4-4632-bf54-64bcff937e6e","ios":"levelo://app?vid=2fc34bba-a2b4-4632-bf54-64bcff937e6e"},"vehicle_type_id":"4","last_reported":1727107875,"current_range_meters":39200,"station_id":"ce4bhs12rcd13ifvqhvg","pricing_plan_id":"cebpf4jnsgd1na2vs0mg"},{"bike_id":"b08f0701-c9fe-4611-bd13-d42c779b232d","system_id":"levelo_inurba_marseille","lat":43.317566,"lon":5.390101,"is_reserved":false,"is_disabled":false,"rental_uris":{"android":"levelo://app?vid=b08f0701-c9fe-4611-bd13-d42c779b232d","ios":"levelo://app?vid=b08f0701-c9fe-4611-bd13-d42c779b232d"},"vehicle_type_id":"4","last_reported":1727107875,"current_range_meters":6800,"station_id":"ce4bhqp2rcd13ifvqhng","pricing_plan_id":"cebpf4jnsgd1na2vs0mg"},{"bike_id":"a0edd235-9112-4738-ae17-f58c690ab2f4","system_id":"levelo_inurba_marseille","lat":43.32488,"lon":5.36558,"is_reserved":false,"is_disabled":false,"rental_uris":{"android":"levelo://app?vid=a0edd235-9112-4738-ae17-f58c690ab2f4","ios":"levelo://app?vid=a0edd235-9112-4738-ae17-f58c690ab2f4"},"vehicle_type_id":"4","last_reported":1727107875,"current_range_meters":39200,"station_id":"ce4bhs12rcd13ifvqhvg","pricing_plan_id":"cebpf4jnsgd1na2vs0mg"},{"bike_id":"1bd0571a-875e-4e85-a170-19d8892906e3","system_id":"levelo_inurba_marseille","lat":43.27177,"lon":5.40997,"is_reserved":false,"is_disabled":false,"rental_uris":{"android":"levelo://app?vid=1bd0571a-875e-4e85-a170-19d8892906e3","ios":"levelo://app?vid=1bd0571a-875e-4e85-a170-19d8892906e3"},"vehicle_type_id":"4","last_reported":1727107875,"current_range_meters":9600,"station_id":"ce4bhl12rcd13ifvqgf0","pricing_plan_id":"cebpf4jnsgd1na2vs0mg"},{"bike_id":"3a4114f8-bae9-4fd6-b85c-d8f6b9ee98a4","system_id":"levelo_inurba_marseille","lat":43.24175,"lon":5.3973,"is_reserved":false,"is_disabled":false,"rental_uris":{"android":"levelo://app?vid=3a4114f8-bae9-4fd6-b85c-d8f6b9ee98a4","ios":"levelo://app?vid=3a4114f8-bae9-4fd6-b85c-d8f6b9ee98a4"},"vehicle_type_id":"4","last_reported":1727107875,"current_range_meters":11200,"station_id":"ce4bhn12rcd13ifvqgpg","pricing_plan_id":"cebpf4jnsgd1na2vs0mg"},{"bike_id":"d25e9ee7-35f6-4e44-9220-3e94dc650b9b","system_id":"levelo_inurba_marseille","lat":43.29537,"lon":5.38538,"is_reserved":false,"is_disabled":false,"rental_uris":{"android":"levelo://app?vid=d25e9ee7-35f6-4e44-9220-3e94dc650b9b","ios":"levelo://app?vid=d25e9ee7-35f6-4e44-9220-3e94dc650b9b"},"vehicle_type_id":"4","last_reported":1727107875,"current_range_meters":19600,"station_id":"ce4bgih2rcd13ifvqba0","pricing_plan_id":"cebpf4jnsgd1na2vs0mg"},{"bike_id":"84daa11a-5876-4f90-8c91-9e2c87df8f28","system_id":"levelo_inurba_marseille","lat":43.28154,"lon":5.42645,"is_reserved":false,"is_disabled":false,"rental_uris":{"android":"levelo://app?vid=84daa11a-5876-4f90-8c91-9e2c87df8f28","ios":"levelo://app?vid=84daa11a-5876-4f90-8c91-9e2c87df8f28"},"vehicle_type_id":"4","last_reported":1727107875,"current_range_meters":8000,"station_id":"ce4bhnh2rcd13ifvqgug","pricing_plan_id":"cebpf4jnsgd1na2vs0mg"},{"bike_id":"341c8942-c804-4e37-9591-475faf4957fc","system_id":"levelo_inurba_marseille","lat":43.299103,"lon":5.384921,"is_reserved":false,"is_disabled":false,"rental_uris":{"android":"levelo://app?vid=341c8942-c804-4e37-9591-475faf4957fc","ios":"levelo://app?vid=341c8942-c804-4e37-9591-475faf4957fc"},"vehicle_type_id":"4","last_reported":1727107875,"current_range_meters":19200,"station_id":"ce4bgk12rcd13ifvqbi0","pricing_plan_id":"cebpf4jnsgd1na2vs0mg"},{"bike_id":"8130be1a-3e82-47c6-95d8-218a863937a6","system_id":"levelo_inurba_marseille","lat":43.33023,"lon":5.39041,"is_reserved":false,"is_disabled":false,"rental_uris":{"android":"levelo://app?vid=8130be1a-3e82-47c6-95d8-218a863937a6","ios":"levelo://app?vid=8130be1a-3e82-47c6-95d8-218a863937a6"},"vehicle_type_id":"4","last_reported":1727107875,"current_range_meters":24000,"station_id":"ce4bhr92rcd13ifvqhrg","pricing_plan_id":"cebpf4jnsgd1na2vs0mg"},{"bike_id":"3ebaaaec-15d2-494c-ab9e-13e8bcbe1874","system_id":"levelo_inurba_marseille","lat":43.29276,"lon":5.3686,"is_reserved":false,"is_disabled":false,"rental_uris":{"android":"levelo://app?vid=3ebaaaec-15d2-494c-ab9e-13e8bcbe1874","ios":"levelo://app?vid=3ebaaaec-15d2-494c-ab9e-13e8bcbe1874"},"vehicle_type_id":"4","last_reported":1727107875,"current_range_meters":30000,"station_id":"ce4bhbp2rcd13ifvqesg","pricing_plan_id":"cebpf4jnsgd1na2vs0mg"},{"bike_id":"c381fb30-7ba6-4d93-9deb-93a8c40e0a9d","system_id":"levelo_inurba_marseille","lat":43.270752,"lon":5.422835,"is_reserved":false,"is_disabled":false,"rental_uris":{"android":"levelo://app?vid=c381fb30-7ba6-4d93-9deb-93a8c40e0a9d","ios":"levelo://app?vid=c381fb30-7ba6-4d93-9deb-93a8c40e0a9d"},"vehicle_type_id":"4","last_reported":1727107875,"current_range_meters":8000,"station_id":"ce4bhk92rcd13ifvqgb0","pricing_plan_id":"cebpf4jnsgd1na2vs0mg"},{"bike_id":"a2dd80a8-270b-42c8-8e84-58862fe14812","system_id":"levelo_inurba_marseille","lat":43.30933,"lon":5.4014,"is_reserved":false,"is_disabled":false,"rental_uris":{"android":"levelo://app?vid=a2dd80a8-270b-42c8-8e84-58862fe14812","ios":"levelo://app?vid=a2dd80a8-270b-42c8-8e84-58862fe14812"},"vehicle_type_id":"4","last_reported":1727107875,"current_range_meters":34000,"station_id":"ce4bgvp2rcd13ifvqct0","pricing_plan_id":"cebpf4jnsgd1na2vs0mg"},{"bike_id":"d5d38de7-8fc3-46c6-9391-1273531aefa4","system_id":"levelo_inurba_marseille","lat":43.309313,"lon":5.401426,"is_reserved":false,"is_disabled":false,"rental_uris":{"android":"levelo://app?vid=d5d38de7-8fc3-46c6-9391-1273531aefa4","ios":"levelo://app?vid=d5d38de7-8fc3-46c6-9391-1273531aefa4"},"vehicle_type_id":"4","last_reported":1727107875,"current_range_meters":37600,"station_id":"ce4bgvp2rcd13ifvqct0","pricing_plan_id":"cebpf4jnsgd1na2vs0mg"},{"bike_id":"276aa096-2b51-40c0-926e-66d0d5399356","system_id":"levelo_inurba_marseille","lat":43.27376,"lon":5.36258,"is_reserved":false,"is_disabled":false,"rental_uris":{"android":"levelo://app?vid=276aa096-2b51-40c0-926e-66d0d5399356","ios":"levelo://app?vid=276aa096-2b51-40c0-926e-66d0d5399356"},"vehicle_type_id":"4","last_reported":1727107875,"current_range_meters":36800,"station_id":"ce4bhbh2rcd13ifvqeo0","pricing_plan_id":"cebpf4jnsgd1na2vs0mg"},{"bike_id":"6a0562f6-cb54-4519-9bad-43f9fcc8e3a5","system_id":"levelo_inurba_marseille","lat":43.279706,"lon":5.387493,"is_reserved":false,"is_disabled":false,"rental_uris":{"android":"levelo://app?vid=6a0562f6-cb54-4519-9bad-43f9fcc8e3a5","ios":"levelo://app?vid=6a0562f6-cb54-4519-9bad-43f9fcc8e3a5"},"vehicle_type_id":"4","last_reported":1727107875,"current_range_meters":20800,"station_id":"ce4bhg12rcd13ifvqf80","pricing_plan_id":"cebpf4jnsgd1na2vs0mg"},{"bike_id":"36c416da-9158-44af-aa3a-06b103bea7bf","system_id":"levelo_inurba_marseille","lat":43.337444,"lon":5.374475,"is_reserved":false,"is_disabled":false,"rental_uris":{"android":"levelo://app?vid=36c416da-9158-44af-aa3a-06b103bea7bf","ios":"levelo://app?vid=36c416da-9158-44af-aa3a-06b103bea7bf"},"vehicle_type_id":"4","last_reported":1727107875,"current_range_meters":22800,"station_id":"","pricing_plan_id":"cebpf4jnsgd1na2vs0mg"},{"bike_id":"0f4e21bd-6d2b-42eb-9899-844eed781960","system_id":"levelo_inurba_marseille","lat":43.29009,"lon":5.35614,"is_reserved":false,"is_disabled":false,"rental_uris":{"android":"levelo://app?vid=0f4e21bd-6d2b-42eb-9899-844eed781960","ios":"levelo://app?vid=0f4e21bd-6d2b-42eb-9899-844eed781960"},"vehicle_type_id":"4","last_reported":1727107875,"current_range_meters":36000,"station_id":"ce4bhb92rcd13ifvqen0","pricing_plan_id":"cebpf4jnsgd1na2vs0mg"},{"bike_id":"250aec29-1065-4827-b09d-dbd693ff8f50","system_id":"levelo_inurba_marseille","lat":43.28456,"lon":5.3588,"is_reserved":false,"is_disabled":false,"rental_uris":{"android":"levelo://app?vid=250aec29-1065-4827-b09d-dbd693ff8f50","ios":"levelo://app?vid=250aec29-1065-4827-b09d-dbd693ff8f50"},"vehicle_type_id":"4","last_reported":1727107875,"current_range_meters":8400,"station_id":"ce4bhah2rcd13ifvqei0","pricing_plan_id":"cebpf4jnsgd1na2vs0mg"},{"bike_id":"14bcbdfd-0044-4414-82b7-c589790b3645","system_id":"levelo_inurba_marseille","lat":43.29553,"lon":5.42277,"is_reserved":false,"is_disabled":false,"rental_uris":{"android":"levelo://app?vid=14bcbdfd-0044-4414-82b7-c589790b3645","ios":"levelo://app?vid=14bcbdfd-0044-4414-82b7-c589790b3645"},"vehicle_type_id":"4","last_reported":1727107875,"current_range_meters":37600,"station_id":"ce4bhph2rcd13ifvqhdg","pricing_plan_id":"cebpf4jnsgd1na2vs0mg"},{"bike_id":"c91a7b38-824e-450f-8865-f906b818c481","system_id":"levelo_inurba_marseille","lat":43.30926,"lon":5.40133,"is_reserved":false,"is_disabled":false,"rental_uris":{"android":"levelo://app?vid=c91a7b38-824e-450f-8865-f906b818c481","ios":"levelo://app?vid=c91a7b38-824e-450f-8865-f906b818c481"},"vehicle_type_id":"4","last_reported":1727107875,"current_range_meters":32400,"station_id":"ce4bgvp2rcd13ifvqct0","pricing_plan_id":"cebpf4jnsgd1na2vs0mg"},{"bike_id":"434111f9-89af-4580-a4ae-cc7208a5be74","system_id":"levelo_inurba_marseille","lat":43.29567,"lon":5.37521,"is_reserved":false,"is_disabled":false,"rental_uris":{"android":"levelo://app?vid=434111f9-89af-4580-a4ae-cc7208a5be74","ios":"levelo://app?vid=434111f9-89af-4580-a4ae-cc7208a5be74"},"vehicle_type_id":"4","last_reported":1727107875,"current_range_meters":28000,"station_id":"ce4bgh92rcd13ifvqb50","pricing_plan_id":"cebpf4jnsgd1na2vs0mg"},{"bike_id":"885f7651-590d-469f-b8df-99ab199f51dd","system_id":"levelo_inurba_marseille","lat":43.28661,"lon":5.36349,"is_reserved":false,"is_disabled":false,"rental_uris":{"android":"levelo://app?vid=885f7651-590d-469f-b8df-99ab199f51dd","ios":"levelo://app?vid=885f7651-590d-469f-b8df-99ab199f51dd"},"vehicle_type_id":"4","last_reported":1727107875,"current_range_meters":20400,"station_id":"ce4bhah2rcd13ifvqej0","pricing_plan_id":"cebpf4jnsgd1na2vs0mg"},{"bike_id":"5abf3738-3056-45d0-ad36-b5f63eb6c7bd","system_id":"levelo_inurba_marseille","lat":43.31713,"lon":5.43699,"is_reserved":false,"is_disabled":false,"rental_uris":{"android":"levelo://app?vid=5abf3738-3056-45d0-ad36-b5f63eb6c7bd","ios":"levelo://app?vid=5abf3738-3056-45d0-ad36-b5f63eb6c7bd"},"vehicle_type_id":"4","last_reported":1727107875,"current_range_meters":20000,"station_id":"ce4bhp92rcd13ifvqhcg","pricing_plan_id":"cebpf4jnsgd1na2vs0mg"},{"bike_id":"bcfab92a-dc6c-4038-8477-18be1eec815d","system_id":"levelo_inurba_marseille","lat":43.28158,"lon":5.42648,"is_reserved":false,"is_disabled":false,"rental_uris":{"android":"levelo://app?vid=bcfab92a-dc6c-4038-8477-18be1eec815d","ios":"levelo://app?vid=bcfab92a-dc6c-4038-8477-18be1eec815d"},"vehicle_type_id":"4","last_reported":1727107875,"current_range_meters":6000,"station_id":"ce4bhnh2rcd13ifvqgug","pricing_plan_id":"cebpf4jnsgd1na2vs0mg"},{"bike_id":"3fc1c1d4-eb16-464d-8000-73a852fc314f","system_id":"levelo_inurba_marseille","lat":43.29254,"lon":5.40913,"is_reserved":false,"is_disabled":false,"rental_uris":{"android":"levelo://app?vid=3fc1c1d4-eb16-464d-8000-73a852fc314f","ios":"levelo://app?vid=3fc1c1d4-eb16-464d-8000-73a852fc314f"},"vehicle_type_id":"4","last_reported":1727107875,"current_range_meters":33600,"station_id":"ce4bh192rcd13ifvqdc0","pricing_plan_id":"cebpf4jnsgd1na2vs0mg"},{"bike_id":"9a43dc4f-5cfc-4211-b50f-592ac92e9b32","system_id":"levelo_inurba_marseille","lat":43.274229,"lon":5.361965,"is_reserved":false,"is_disabled":false,"rental_uris":{"android":"levelo://app?vid=9a43dc4f-5cfc-4211-b50f-592ac92e9b32","ios":"levelo://app?vid=9a43dc4f-5cfc-4211-b50f-592ac92e9b32"},"vehicle_type_id":"4","last_reported":1727107875,"current_range_meters":8400,"station_id":"ce4bhbh2rcd13ifvqeo0","pricing_plan_id":"cebpf4jnsgd1na2vs0mg"},{"bike_id":"4a98ceda-7f52-44a2-9071-d51cd297d035","system_id":"levelo_inurba_marseille","lat":43.30123,"lon":5.3986,"is_reserved":false,"is_disabled":false,"rental_uris":{"android":"levelo://app?vid=4a98ceda-7f52-44a2-9071-d51cd297d035","ios":"levelo://app?vid=4a98ceda-7f52-44a2-9071-d51cd297d035"},"vehicle_type_id":"4","last_reported":1727107875,"current_range_meters":33200,"station_id":"ce4bh0h2rcd13ifvqd40","pricing_plan_id":"cebpf4jnsgd1na2vs0mg"},{"bike_id":"0e0074cf-a30a-4ba3-99d8-76d9e492b624","system_id":"levelo_inurba_marseille","lat":43.23196,"lon":5.3555,"is_reserved":false,"is_disabled":false,"rental_uris":{"android":"levelo://app?vid=0e0074cf-a30a-4ba3-99d8-76d9e492b624","ios":"levelo://app?vid=0e0074cf-a30a-4ba3-99d8-76d9e492b624"},"vehicle_type_id":"4","last_reported":1727107875,"current_range_meters":8400,"station_id":"ce4bhu92rcd13ifvqi70","pricing_plan_id":"cebpf4jnsgd1na2vs0mg"},{"bike_id":"a45ad49e-27f1-4100-b816-24c7682ba67b","system_id":"levelo_inurba_marseille","lat":43.31163,"lon":5.401226,"is_reserved":false,"is_disabled":false,"rental_uris":{"android":"levelo://app?vid=a45ad49e-27f1-4100-b816-24c7682ba67b","ios":"levelo://app?vid=a45ad49e-27f1-4100-b816-24c7682ba67b"},"vehicle_type_id":"4","last_reported":1727107875,"current_range_meters":27200,"station_id":"ce4bh092rcd13ifvqd30","pricing_plan_id":"cebpf4jnsgd1na2vs0mg"},{"bike_id":"97b7a43b-cedc-4ed1-903e-6243f72dea61","system_id":"levelo_inurba_marseille","lat":43.28456,"lon":5.35887,"is_reserved":false,"is_disabled":false,"rental_uris":{"android":"levelo://app?vid=97b7a43b-cedc-4ed1-903e-6243f72dea61","ios":"levelo://app?vid=97b7a43b-cedc-4ed1-903e-6243f72dea61"},"vehicle_type_id":"4","last_reported":1727107875,"current_range_meters":13600,"station_id":"ce4bhah2rcd13ifvqei0","pricing_plan_id":"cebpf4jnsgd1na2vs0mg"},{"bike_id":"92415792-802f-43d0-a7e4-b0ba9cd3d884","system_id":"levelo_inurba_marseille","lat":43.2593,"lon":5.40918,"is_reserved":false,"is_disabled":false,"rental_uris":{"android":"levelo://app?vid=92415792-802f-43d0-a7e4-b0ba9cd3d884","ios":"levelo://app?vid=92415792-802f-43d0-a7e4-b0ba9cd3d884"},"vehicle_type_id":"4","last_reported":1727107875,"current_range_meters":8800,"station_id":"ce4bhm92rcd13ifvqglg","pricing_plan_id":"cebpf4jnsgd1na2vs0mg"},{"bike_id":"c7cfcfd0-5a60-44b1-88e8-621e5873a444","system_id":"levelo_inurba_marseille","lat":43.29532,"lon":5.38543,"is_reserved":false,"is_disabled":false,"rental_uris":{"android":"levelo://app?vid=c7cfcfd0-5a60-44b1-88e8-621e5873a444","ios":"levelo://app?vid=c7cfcfd0-5a60-44b1-88e8-621e5873a444"},"vehicle_type_id":"4","last_reported":1727107875,"current_range_meters":35600,"station_id":"ce4bgih2rcd13ifvqba0","pricing_plan_id":"cebpf4jnsgd1na2vs0mg"},{"bike_id":"ed4f5f0a-71f1-4947-afeb-48b582faf94d","system_id":"levelo_inurba_marseille","lat":43.27916,"lon":5.39569,"is_reserved":false,"is_disabled":false,"rental_uris":{"android":"levelo://app?vid=ed4f5f0a-71f1-4947-afeb-48b582faf94d","ios":"levelo://app?vid=ed4f5f0a-71f1-4947-afeb-48b582faf94d"},"vehicle_type_id":"4","last_reported":1727107875,"current_range_meters":28000,"station_id":"ce4bhf92rcd13ifvqf40","pricing_plan_id":"cebpf4jnsgd1na2vs0mg"},{"bike_id":"5845c87b-1467-4486-a56a-4532f6cf5757","system_id":"levelo_inurba_marseille","lat":43.29783,"lon":5.39347,"is_reserved":false,"is_disabled":false,"rental_uris":{"android":"levelo://app?vid=5845c87b-1467-4486-a56a-4532f6cf5757","ios":"levelo://app?vid=5845c87b-1467-4486-a56a-4532f6cf5757"},"vehicle_type_id":"4","last_reported":1727107875,"current_range_meters":12000,"station_id":"chh1huq6cuj3fo74tm60","pricing_plan_id":"cebpf4jnsgd1na2vs0mg"},{"bike_id":"aa79d166-af27-4f1a-b971-68b81fa172d2","system_id":"levelo_inurba_marseille","lat":43.30927,"lon":5.4015,"is_reserved":false,"is_disabled":false,"rental_uris":{"android":"levelo://app?vid=aa79d166-af27-4f1a-b971-68b81fa172d2","ios":"levelo://app?vid=aa79d166-af27-4f1a-b971-68b81fa172d2"},"vehicle_type_id":"4","last_reported":1727107875,"current_range_meters":28400,"station_id":"ce4bgvp2rcd13ifvqct0","pricing_plan_id":"cebpf4jnsgd1na2vs0mg"},{"bike_id":"35aa822c-9966-44f8-985d-53281d187287","system_id":"levelo_inurba_marseille","lat":43.30135,"lon":5.39865,"is_reserved":false,"is_disabled":false,"rental_uris":{"android":"levelo://app?vid=35aa822c-9966-44f8-985d-53281d187287","ios":"levelo://app?vid=35aa822c-9966-44f8-985d-53281d187287"},"vehicle_type_id":"4","last_reported":1727107875,"current_range_meters":16400,"station_id":"ce4bh0h2rcd13ifvqd40","pricing_plan_id":"cebpf4jnsgd1na2vs0mg"},{"bike_id":"9fa1e23a-a1eb-4b23-a0d0-68cb8bbda122","system_id":"levelo_inurba_marseille","lat":43.28134,"lon":5.38924,"is_reserved":false,"is_disabled":false,"rental_uris":{"android":"levelo://app?vid=9fa1e23a-a1eb-4b23-a0d0-68cb8bbda122","ios":"levelo://app?vid=9fa1e23a-a1eb-4b23-a0d0-68cb8bbda122"},"vehicle_type_id":"4","last_reported":1727107875,"current_range_meters":8000,"station_id":"ce4bhjp2rcd13ifvqga0","pricing_plan_id":"cebpf4jnsgd1na2vs0mg"},{"bike_id":"7afdced0-bd7a-4c01-bfc5-8df313a6e104","system_id":"levelo_inurba_marseille","lat":43.27946,"lon":5.41053,"is_reserved":false,"is_disabled":false,"rental_uris":{"android":"levelo://app?vid=7afdced0-bd7a-4c01-bfc5-8df313a6e104","ios":"levelo://app?vid=7afdced0-bd7a-4c01-bfc5-8df313a6e104"},"vehicle_type_id":"4","last_reported":1727107875,"current_range_meters":30400,"station_id":"ce4bhnp2rcd13ifvqh0g","pricing_plan_id":"cebpf4jnsgd1na2vs0mg"},{"bike_id":"c90f1ea4-8972-4c42-9518-07ef86bd680e","system_id":"levelo_inurba_marseille","lat":43.26064,"lon":5.39392,"is_reserved":false,"is_disabled":false,"rental_uris":{"android":"levelo://app?vid=c90f1ea4-8972-4c42-9518-07ef86bd680e","ios":"levelo://app?vid=c90f1ea4-8972-4c42-9518-07ef86bd680e"},"vehicle_type_id":"4","last_reported":1727107875,"current_range_meters":28800,"station_id":"ce4bhh92rcd13ifvqfj0","pricing_plan_id":"cebpf4jnsgd1na2vs0mg"},{"bike_id":"89e0ae3b-0642-42c2-91b2-c916debfb9a6","system_id":"levelo_inurba_marseille","lat":43.29007,"lon":5.3561,"is_reserved":false,"is_disabled":false,"rental_uris":{"android":"levelo://app?vid=89e0ae3b-0642-42c2-91b2-c916debfb9a6","ios":"levelo://app?vid=89e0ae3b-0642-42c2-91b2-c916debfb9a6"},"vehicle_type_id":"4","last_reported":1727107875,"current_range_meters":34000,"station_id":"ce4bhb92rcd13ifvqen0","pricing_plan_id":"cebpf4jnsgd1na2vs0mg"},{"bike_id":"c0bf08f8-39b8-43bf-8302-ac2a4dd5ad58","system_id":"levelo_inurba_marseille","lat":43.29553,"lon":5.42281,"is_reserved":false,"is_disabled":false,"rental_uris":{"android":"levelo://app?vid=c0bf08f8-39b8-43bf-8302-ac2a4dd5ad58","ios":"levelo://app?vid=c0bf08f8-39b8-43bf-8302-ac2a4dd5ad58"},"vehicle_type_id":"4","last_reported":1727107875,"current_range_meters":27200,"station_id":"ce4bhph2rcd13ifvqhdg","pricing_plan_id":"cebpf4jnsgd1na2vs0mg"},{"bike_id":"9b967e00-8008-4d6e-ae80-0be8d521f03d","system_id":"levelo_inurba_marseille","lat":43.29031,"lon":5.38653,"is_reserved":false,"is_disabled":false,"rental_uris":{"android":"levelo://app?vid=9b967e00-8008-4d6e-ae80-0be8d521f03d","ios":"levelo://app?vid=9b967e00-8008-4d6e-ae80-0be8d521f03d"},"vehicle_type_id":"4","last_reported":1727107875,"current_range_meters":36800,"station_id":"ce4bh4p2rcd13ifvqe0g","pricing_plan_id":"cebpf4jnsgd1na2vs0mg"},{"bike_id":"8d578fb3-1254-4830-afd8-917718f0787b","system_id":"levelo_inurba_marseille","lat":43.33748,"lon":5.39189,"is_reserved":false,"is_disabled":false,"rental_uris":{"android":"levelo://app?vid=8d578fb3-1254-4830-afd8-917718f0787b","ios":"levelo://app?vid=8d578fb3-1254-4830-afd8-917718f0787b"},"vehicle_type_id":"4","last_reported":1727107875,"current_range_meters":27600,"station_id":"ce4bhr92rcd13ifvqhsg","pricing_plan_id":"cebpf4jnsgd1na2vs0mg"},{"bike_id":"ebeaa69c-40f1-49c7-b710-46321a1a2fe1","system_id":"levelo_inurba_marseille","lat":43.2511,"lon":5.40321,"is_reserved":false,"is_disabled":false,"rental_uris":{"android":"levelo://app?vid=ebeaa69c-40f1-49c7-b710-46321a1a2fe1","ios":"levelo://app?vid=ebeaa69c-40f1-49c7-b710-46321a1a2fe1"},"vehicle_type_id":"4","last_reported":1727107875,"current_range_meters":18000,"station_id":"ce4bhlh2rcd13ifvqgig","pricing_plan_id":"cebpf4jnsgd1na2vs0mg"},{"bike_id":"9d1e4a78-5d2a-463f-a26f-6f1d43371c33","system_id":"levelo_inurba_marseille","lat":43.31334,"lon":5.39696,"is_reserved":false,"is_disabled":false,"rental_uris":{"android":"levelo://app?vid=9d1e4a78-5d2a-463f-a26f-6f1d43371c33","ios":"levelo://app?vid=9d1e4a78-5d2a-463f-a26f-6f1d43371c33"},"vehicle_type_id":"4","last_reported":1727107875,"current_range_meters":37600,"station_id":"ce4bgvp2rcd13ifvqcu0","pricing_plan_id":"cebpf4jnsgd1na2vs0mg"},{"bike_id":"bd79e531-9e32-4292-8d83-dbcd88f7c1e3","system_id":"levelo_inurba_marseille","lat":43.232,"lon":5.35549,"is_reserved":false,"is_disabled":false,"rental_uris":{"android":"levelo://app?vid=bd79e531-9e32-4292-8d83-dbcd88f7c1e3","ios":"levelo://app?vid=bd79e531-9e32-4292-8d83-dbcd88f7c1e3"},"vehicle_type_id":"4","last_reported":1727107875,"current_range_meters":39200,"station_id":"ce4bhu92rcd13ifvqi70","pricing_plan_id":"cebpf4jnsgd1na2vs0mg"},{"bike_id":"ae3a943d-cf7e-42a9-8c6a-b7ee2cc8fa93","system_id":"levelo_inurba_marseille","lat":43.302521,"lon":5.400714,"is_reserved":false,"is_disabled":false,"rental_uris":{"android":"levelo://app?vid=ae3a943d-cf7e-42a9-8c6a-b7ee2cc8fa93","ios":"levelo://app?vid=ae3a943d-cf7e-42a9-8c6a-b7ee2cc8fa93"},"vehicle_type_id":"4","last_reported":1727107875,"current_range_meters":30800,"station_id":"ce4bgvh2rcd13ifvqcs0","pricing_plan_id":"cebpf4jnsgd1na2vs0mg"},{"bike_id":"271a9bb6-fa2d-4e4e-b17a-076972435012","system_id":"levelo_inurba_marseille","lat":43.28665,"lon":5.36341,"is_reserved":false,"is_disabled":false,"rental_uris":{"android":"levelo://app?vid=271a9bb6-fa2d-4e4e-b17a-076972435012","ios":"levelo://app?vid=271a9bb6-fa2d-4e4e-b17a-076972435012"},"vehicle_type_id":"4","last_reported":1727107875,"current_range_meters":38000,"station_id":"ce4bhah2rcd13ifvqej0","pricing_plan_id":"cebpf4jnsgd1na2vs0mg"},{"bike_id":"a9bd6a11-2000-4bc8-8a6d-5423fafa7418","system_id":"levelo_inurba_marseille","lat":43.24175,"lon":5.39723,"is_reserved":false,"is_disabled":false,"rental_uris":{"android":"levelo://app?vid=a9bd6a11-2000-4bc8-8a6d-5423fafa7418","ios":"levelo://app?vid=a9bd6a11-2000-4bc8-8a6d-5423fafa7418"},"vehicle_type_id":"4","last_reported":1727107875,"current_range_meters":18000,"station_id":"ce4bhn12rcd13ifvqgpg","pricing_plan_id":"cebpf4jnsgd1na2vs0mg"},{"bike_id":"ada94587-87da-4a04-ac36-87fd6e0fc698","system_id":"levelo_inurba_marseille","lat":43.27811,"lon":5.40718,"is_reserved":false,"is_disabled":false,"rental_uris":{"android":"levelo://app?vid=ada94587-87da-4a04-ac36-87fd6e0fc698","ios":"levelo://app?vid=ada94587-87da-4a04-ac36-87fd6e0fc698"},"vehicle_type_id":"4","last_reported":1727107875,"current_range_meters":39200,"station_id":"ce4bhnh2rcd13ifvqgtg","pricing_plan_id":"cebpf4jnsgd1na2vs0mg"},{"bike_id":"da95b3ec-17cb-480c-82e4-03312a5e0c2a","system_id":"levelo_inurba_marseille","lat":43.25495,"lon":5.37648,"is_reserved":false,"is_disabled":false,"rental_uris":{"android":"levelo://app?vid=da95b3ec-17cb-480c-82e4-03312a5e0c2a","ios":"levelo://app?vid=da95b3ec-17cb-480c-82e4-03312a5e0c2a"},"vehicle_type_id":"4","last_reported":1727107875,"current_range_meters":4000,"station_id":"ce4bhh12rcd13ifvqff0","pricing_plan_id":"cebpf4jnsgd1na2vs0mg"},{"bike_id":"3b2b32b1-081b-464a-b5e2-ce0b7792839b","system_id":"levelo_inurba_marseille","lat":43.26819,"lon":5.38014,"is_reserved":false,"is_disabled":false,"rental_uris":{"android":"levelo://app?vid=3b2b32b1-081b-464a-b5e2-ce0b7792839b","ios":"levelo://app?vid=3b2b32b1-081b-464a-b5e2-ce0b7792839b"},"vehicle_type_id":"4","last_reported":1727107875,"current_range_meters":11200,"station_id":"","pricing_plan_id":"cebpf4jnsgd1na2vs0mg"},{"bike_id":"61c38dd3-fff6-47a0-a629-6762b80b78ae","system_id":"levelo_inurba_marseille","lat":43.3042,"lon":5.41276,"is_reserved":false,"is_disabled":false,"rental_uris":{"android":"levelo://app?vid=61c38dd3-fff6-47a0-a629-6762b80b78ae","ios":"levelo://app?vid=61c38dd3-fff6-47a0-a629-6762b80b78ae"},"vehicle_type_id":"4","last_reported":1727107875,"current_range_meters":10800,"station_id":"ce4bhop2rcd13ifvqh8g","pricing_plan_id":"cebpf4jnsgd1na2vs0mg"},{"bike_id":"b005187f-7169-4b1e-bb73-944ab69ec815","system_id":"levelo_inurba_marseille","lat":43.31116,"lon":5.3777,"is_reserved":false,"is_disabled":false,"rental_uris":{"android":"levelo://app?vid=b005187f-7169-4b1e-bb73-944ab69ec815","ios":"levelo://app?vid=b005187f-7169-4b1e-bb73-944ab69ec815"},"vehicle_type_id":"4","last_reported":1727107875,"current_range_meters":39200,"station_id":"ce4bgt92rcd13ifvqcg0","pricing_plan_id":"cebpf4jnsgd1na2vs0mg"},{"bike_id":"715c4804-6a86-4398-98ec-b57358573177","system_id":"levelo_inurba_marseille","lat":43.22929,"lon":5.35374,"is_reserved":false,"is_disabled":false,"rental_uris":{"android":"levelo://app?vid=715c4804-6a86-4398-98ec-b57358573177","ios":"levelo://app?vid=715c4804-6a86-4398-98ec-b57358573177"},"vehicle_type_id":"4","last_reported":1727107875,"current_range_meters":34800,"station_id":"cpo3532slgdg3j2ikp40","pricing_plan_id":"cebpf4jnsgd1na2vs0mg"},{"bike_id":"c2e0a82a-d759-495f-8efb-0e986c5a7e53","system_id":"levelo_inurba_marseille","lat":43.31761,"lon":5.39007,"is_reserved":false,"is_disabled":false,"rental_uris":{"android":"levelo://app?vid=c2e0a82a-d759-495f-8efb-0e986c5a7e53","ios":"levelo://app?vid=c2e0a82a-d759-495f-8efb-0e986c5a7e53"},"vehicle_type_id":"4","last_reported":1727107875,"current_range_meters":40000,"station_id":"ce4bhqp2rcd13ifvqhng","pricing_plan_id":"cebpf4jnsgd1na2vs0mg"},{"bike_id":"6803b555-4840-413f-ac9d-183e8ee2766b","system_id":"levelo_inurba_marseille","lat":43.298553,"lon":5.362843,"is_reserved":false,"is_disabled":false,"rental_uris":{"android":"levelo://app?vid=6803b555-4840-413f-ac9d-183e8ee2766b","ios":"levelo://app?vid=6803b555-4840-413f-ac9d-183e8ee2766b"},"vehicle_type_id":"4","last_reported":1727107875,"current_range_meters":36400,"station_id":"ce4bgs92rcd13ifvqcc0","pricing_plan_id":"cebpf4jnsgd1na2vs0mg"},{"bike_id":"ba2542eb-4a30-47aa-b57a-68ac954d789a","system_id":"levelo_inurba_marseille","lat":43.23192,"lon":5.35552,"is_reserved":false,"is_disabled":false,"rental_uris":{"android":"levelo://app?vid=ba2542eb-4a30-47aa-b57a-68ac954d789a","ios":"levelo://app?vid=ba2542eb-4a30-47aa-b57a-68ac954d789a"},"vehicle_type_id":"4","last_reported":1727107875,"current_range_meters":17200,"station_id":"ce4bhu92rcd13ifvqi70","pricing_plan_id":"cebpf4jnsgd1na2vs0mg"},{"bike_id":"b6d32c6a-99e9-4b1e-a10f-e2e02780f90f","system_id":"levelo_inurba_marseille","lat":43.303156,"lon":5.369048,"is_reserved":false,"is_disabled":false,"rental_uris":{"android":"levelo://app?vid=b6d32c6a-99e9-4b1e-a10f-e2e02780f90f","ios":"levelo://app?vid=b6d32c6a-99e9-4b1e-a10f-e2e02780f90f"},"vehicle_type_id":"4","last_reported":1727107875,"current_range_meters":30800,"station_id":"ce4bgqh2rcd13ifvqc5g","pricing_plan_id":"cebpf4jnsgd1na2vs0mg"},{"bike_id":"74504cc9-19d0-4206-abb7-642e67d3d589","system_id":"levelo_inurba_marseille","lat":43.31636,"lon":5.40493,"is_reserved":false,"is_disabled":false,"rental_uris":{"android":"levelo://app?vid=74504cc9-19d0-4206-abb7-642e67d3d589","ios":"levelo://app?vid=74504cc9-19d0-4206-abb7-642e67d3d589"},"vehicle_type_id":"4","last_reported":1727107875,"current_range_meters":22400,"station_id":"","pricing_plan_id":"cebpf4jnsgd1na2vs0mg"},{"bike_id":"de7a9364-01a3-4992-abd0-885eede3f774","system_id":"levelo_inurba_marseille","lat":43.33024,"lon":5.39035,"is_reserved":false,"is_disabled":false,"rental_uris":{"android":"levelo://app?vid=de7a9364-01a3-4992-abd0-885eede3f774","ios":"levelo://app?vid=de7a9364-01a3-4992-abd0-885eede3f774"},"vehicle_type_id":"4","last_reported":1727107875,"current_range_meters":31200,"station_id":"ce4bhr92rcd13ifvqhrg","pricing_plan_id":"cebpf4jnsgd1na2vs0mg"},{"bike_id":"b55f540b-e8e3-4028-bded-bb077bf5736a","system_id":"levelo_inurba_marseille","lat":43.30095,"lon":5.39077,"is_reserved":false,"is_disabled":false,"rental_uris":{"android":"levelo://app?vid=b55f540b-e8e3-4028-bded-bb077bf5736a","ios":"levelo://app?vid=b55f540b-e8e3-4028-bded-bb077bf5736a"},"vehicle_type_id":"4","last_reported":1727107875,"current_range_meters":22000,"station_id":"ce4bh192rcd13ifvqdb0","pricing_plan_id":"cebpf4jnsgd1na2vs0mg"},{"bike_id":"cf80963f-444b-4be2-9c60-15610f353aab","system_id":"levelo_inurba_marseille","lat":43.26028,"lon":5.37549,"is_reserved":false,"is_disabled":false,"rental_uris":{"android":"levelo://app?vid=cf80963f-444b-4be2-9c60-15610f353aab","ios":"levelo://app?vid=cf80963f-444b-4be2-9c60-15610f353aab"},"vehicle_type_id":"4","last_reported":1727107875,"current_range_meters":30000,"station_id":"ce4bhgh2rcd13ifvqfa0","pricing_plan_id":"cebpf4jnsgd1na2vs0mg"},{"bike_id":"145cbcd5-fc67-4b82-b57e-a55874aa762d","system_id":"levelo_inurba_marseille","lat":43.23184,"lon":5.39977,"is_reserved":false,"is_disabled":false,"rental_uris":{"android":"levelo://app?vid=145cbcd5-fc67-4b82-b57e-a55874aa762d","ios":"levelo://app?vid=145cbcd5-fc67-4b82-b57e-a55874aa762d"},"vehicle_type_id":"4","last_reported":1727107875,"current_range_meters":17200,"station_id":"ce4bhn12rcd13ifvqgqg","pricing_plan_id":"cebpf4jnsgd1na2vs0mg"},{"bike_id":"bc3aae08-94d3-4fe4-9573-7b452697681d","system_id":"levelo_inurba_marseille","lat":43.28148,"lon":5.42648,"is_reserved":false,"is_disabled":false,"rental_uris":{"android":"levelo://app?vid=bc3aae08-94d3-4fe4-9573-7b452697681d","ios":"levelo://app?vid=bc3aae08-94d3-4fe4-9573-7b452697681d"},"vehicle_type_id":"4","last_reported":1727107875,"current_range_meters":10800,"station_id":"ce4bhnh2rcd13ifvqgug","pricing_plan_id":"cebpf4jnsgd1na2vs0mg"},{"bike_id":"438971c7-8dfd-405e-8f81-34c440e8ec23","system_id":"levelo_inurba_marseille","lat":43.27619,"lon":5.36108,"is_reserved":false,"is_disabled":false,"rental_uris":{"android":"levelo://app?vid=438971c7-8dfd-405e-8f81-34c440e8ec23","ios":"levelo://app?vid=438971c7-8dfd-405e-8f81-34c440e8ec23"},"vehicle_type_id":"4","last_reported":1727107875,"current_range_meters":31200,"station_id":"ce4bgj92rcd13ifvqbe0","pricing_plan_id":"cebpf4jnsgd1na2vs0mg"},{"bike_id":"fb03e213-d832-40dd-a3d1-a12da92bf47c","system_id":"levelo_inurba_marseille","lat":43.24172,"lon":5.36401,"is_reserved":false,"is_disabled":false,"rental_uris":{"android":"levelo://app?vid=fb03e213-d832-40dd-a3d1-a12da92bf47c","ios":"levelo://app?vid=fb03e213-d832-40dd-a3d1-a12da92bf47c"},"vehicle_type_id":"4","last_reported":1727107875,"current_range_meters":19600,"station_id":"cpo36qri1sfpv3e86is0","pricing_plan_id":"cebpf4jnsgd1na2vs0mg"},{"bike_id":"c345a892-c096-4bda-b631-8964268d1198","system_id":"levelo_inurba_marseille","lat":43.30131,"lon":5.39875,"is_reserved":false,"is_disabled":false,"rental_uris":{"android":"levelo://app?vid=c345a892-c096-4bda-b631-8964268d1198","ios":"levelo://app?vid=c345a892-c096-4bda-b631-8964268d1198"},"vehicle_type_id":"4","last_reported":1727107875,"current_range_meters":11600,"station_id":"ce4bh0h2rcd13ifvqd40","pricing_plan_id":"cebpf4jnsgd1na2vs0mg"},{"bike_id":"c164cf44-3a0e-4b46-8f55-1d90db6c78b7","system_id":"levelo_inurba_marseille","lat":43.265782,"lon":5.38999,"is_reserved":false,"is_disabled":false,"rental_uris":{"android":"levelo://app?vid=c164cf44-3a0e-4b46-8f55-1d90db6c78b7","ios":"levelo://app?vid=c164cf44-3a0e-4b46-8f55-1d90db6c78b7"},"vehicle_type_id":"4","last_reported":1727107875,"current_range_meters":14000,"station_id":"ce4bhbh2rcd13ifvqeo0","pricing_plan_id":"cebpf4jnsgd1na2vs0mg"},{"bike_id":"e16f50ae-1f6f-4cf1-84c5-86d8d1f64189","system_id":"levelo_inurba_marseille","lat":43.29578,"lon":5.37512,"is_reserved":false,"is_disabled":false,"rental_uris":{"android":"levelo://app?vid=e16f50ae-1f6f-4cf1-84c5-86d8d1f64189","ios":"levelo://app?vid=e16f50ae-1f6f-4cf1-84c5-86d8d1f64189"},"vehicle_type_id":"4","last_reported":1727107875,"current_range_meters":36800,"station_id":"ce4bgh92rcd13ifvqb50","pricing_plan_id":"cebpf4jnsgd1na2vs0mg"},{"bike_id":"c4a3f98a-08a2-444e-86ef-52e4091b3c58","system_id":"levelo_inurba_marseille","lat":43.2792,"lon":5.39587,"is_reserved":false,"is_disabled":false,"rental_uris":{"android":"levelo://app?vid=c4a3f98a-08a2-444e-86ef-52e4091b3c58","ios":"levelo://app?vid=c4a3f98a-08a2-444e-86ef-52e4091b3c58"},"vehicle_type_id":"4","last_reported":1727107875,"current_range_meters":33200,"station_id":"ce4bhf92rcd13ifvqf40","pricing_plan_id":"cebpf4jnsgd1na2vs0mg"},{"bike_id":"fce734b4-6c36-4cb6-983c-c95238702258","system_id":"levelo_inurba_marseille","lat":43.31072,"lon":5.38106,"is_reserved":false,"is_disabled":false,"rental_uris":{"android":"levelo://app?vid=fce734b4-6c36-4cb6-983c-c95238702258","ios":"levelo://app?vid=fce734b4-6c36-4cb6-983c-c95238702258"},"vehicle_type_id":"4","last_reported":1727107875,"current_range_meters":6800,"station_id":"","pricing_plan_id":"cebpf4jnsgd1na2vs0mg"},{"bike_id":"3cda9349-2e12-4344-aa0d-37eb925476b4","system_id":"levelo_inurba_marseille","lat":43.30418,"lon":5.41282,"is_reserved":false,"is_disabled":false,"rental_uris":{"android":"levelo://app?vid=3cda9349-2e12-4344-aa0d-37eb925476b4","ios":"levelo://app?vid=3cda9349-2e12-4344-aa0d-37eb925476b4"},"vehicle_type_id":"4","last_reported":1727107875,"current_range_meters":20800,"station_id":"ce4bhop2rcd13ifvqh8g","pricing_plan_id":"cebpf4jnsgd1na2vs0mg"},{"bike_id":"554b795f-ea9e-420a-86e7-acd713133e62","system_id":"levelo_inurba_marseille","lat":43.28676,"lon":5.38656,"is_reserved":false,"is_disabled":false,"rental_uris":{"android":"levelo://app?vid=554b795f-ea9e-420a-86e7-acd713133e62","ios":"levelo://app?vid=554b795f-ea9e-420a-86e7-acd713133e62"},"vehicle_type_id":"4","last_reported":1727107875,"current_range_meters":21600,"station_id":"ce4bh492rcd13ifvqdug","pricing_plan_id":"cebpf4jnsgd1na2vs0mg"},{"bike_id":"43494b8d-a814-4a23-bc73-14e548a53fff","system_id":"levelo_inurba_marseille","lat":43.27368,"lon":5.36269,"is_reserved":false,"is_disabled":false,"rental_uris":{"android":"levelo://app?vid=43494b8d-a814-4a23-bc73-14e548a53fff","ios":"levelo://app?vid=43494b8d-a814-4a23-bc73-14e548a53fff"},"vehicle_type_id":"4","last_reported":1727107875,"current_range_meters":8000,"station_id":"ce4bhbh2rcd13ifvqeo0","pricing_plan_id":"cebpf4jnsgd1na2vs0mg"},{"bike_id":"3cf942cf-db2f-44d9-a923-52b915402c9f","system_id":"levelo_inurba_marseille","lat":43.27944,"lon":5.41051,"is_reserved":false,"is_disabled":false,"rental_uris":{"android":"levelo://app?vid=3cf942cf-db2f-44d9-a923-52b915402c9f","ios":"levelo://app?vid=3cf942cf-db2f-44d9-a923-52b915402c9f"},"vehicle_type_id":"4","last_reported":1727107875,"current_range_meters":12800,"station_id":"ce4bhnp2rcd13ifvqh0g","pricing_plan_id":"cebpf4jnsgd1na2vs0mg"},{"bike_id":"c371314f-2cd1-4a92-8738-0c7ece0f5842","system_id":"levelo_inurba_marseille","lat":43.26808,"lon":5.40261,"is_reserved":false,"is_disabled":false,"rental_uris":{"android":"levelo://app?vid=c371314f-2cd1-4a92-8738-0c7ece0f5842","ios":"levelo://app?vid=c371314f-2cd1-4a92-8738-0c7ece0f5842"},"vehicle_type_id":"4","last_reported":1727107875,"current_range_meters":39200,"station_id":"ce501612rcd8frsf0b60","pricing_plan_id":"cebpf4jnsgd1na2vs0mg"},{"bike_id":"23b199df-ff03-478e-ae6f-aec454a9f7b1","system_id":"levelo_inurba_marseille","lat":43.30643,"lon":5.40082,"is_reserved":false,"is_disabled":false,"rental_uris":{"android":"levelo://app?vid=23b199df-ff03-478e-ae6f-aec454a9f7b1","ios":"levelo://app?vid=23b199df-ff03-478e-ae6f-aec454a9f7b1"},"vehicle_type_id":"4","last_reported":1727107875,"current_range_meters":36000,"station_id":"ce4bh112rcd13ifvqda0","pricing_plan_id":"cebpf4jnsgd1na2vs0mg"},{"bike_id":"ceba29b5-d5cc-404e-a12f-a1b19787b562","system_id":"levelo_inurba_marseille","lat":43.312653,"lon":5.40182,"is_reserved":false,"is_disabled":false,"rental_uris":{"android":"levelo://app?vid=ceba29b5-d5cc-404e-a12f-a1b19787b562","ios":"levelo://app?vid=ceba29b5-d5cc-404e-a12f-a1b19787b562"},"vehicle_type_id":"4","last_reported":1727107875,"current_range_meters":31200,"station_id":"ce4bh092rcd13ifvqd30","pricing_plan_id":"cebpf4jnsgd1na2vs0mg"},{"bike_id":"3b890a9c-3f0e-4514-9174-969862bb5dbc","system_id":"levelo_inurba_marseille","lat":43.295791,"lon":5.375159,"is_reserved":false,"is_disabled":false,"rental_uris":{"android":"levelo://app?vid=3b890a9c-3f0e-4514-9174-969862bb5dbc","ios":"levelo://app?vid=3b890a9c-3f0e-4514-9174-969862bb5dbc"},"vehicle_type_id":"4","last_reported":1727107875,"current_range_meters":3200,"station_id":"ce4bha92rcd13ifvqeg0","pricing_plan_id":"cebpf4jnsgd1na2vs0mg"},{"bike_id":"c959ca8d-ba53-4b69-b028-aa3156c88619","system_id":"levelo_inurba_marseille","lat":43.28384,"lon":5.38626,"is_reserved":false,"is_disabled":false,"rental_uris":{"android":"levelo://app?vid=c959ca8d-ba53-4b69-b028-aa3156c88619","ios":"levelo://app?vid=c959ca8d-ba53-4b69-b028-aa3156c88619"},"vehicle_type_id":"4","last_reported":1727107875,"current_range_meters":35200,"station_id":"","pricing_plan_id":"cebpf4jnsgd1na2vs0mg"},{"bike_id":"c95e56fa-8d14-4ed9-be45-fd47f3cdc265","system_id":"levelo_inurba_marseille","lat":43.28948,"lon":5.36388,"is_reserved":false,"is_disabled":false,"rental_uris":{"android":"levelo://app?vid=c95e56fa-8d14-4ed9-be45-fd47f3cdc265","ios":"levelo://app?vid=c95e56fa-8d14-4ed9-be45-fd47f3cdc265"},"vehicle_type_id":"4","last_reported":1727107875,"current_range_meters":24400,"station_id":"ce4bhc92rcd13ifvqetg","pricing_plan_id":"cebpf4jnsgd1na2vs0mg"},{"bike_id":"f2fad22d-4ce0-47df-8fef-e27af22718be","system_id":"levelo_inurba_marseille","lat":43.26943,"lon":5.40247,"is_reserved":false,"is_disabled":false,"rental_uris":{"android":"levelo://app?vid=f2fad22d-4ce0-47df-8fef-e27af22718be","ios":"levelo://app?vid=f2fad22d-4ce0-47df-8fef-e27af22718be"},"vehicle_type_id":"4","last_reported":1727107875,"current_range_meters":25600,"station_id":"cjm6bp8fraef2m0cb0m0","pricing_plan_id":"cebpf4jnsgd1na2vs0mg"},{"bike_id":"c38d2ea0-4851-4aa8-a3cd-3a2b63d887f7","system_id":"levelo_inurba_marseille","lat":43.260699,"lon":5.394006,"is_reserved":false,"is_disabled":false,"rental_uris":{"android":"levelo://app?vid=c38d2ea0-4851-4aa8-a3cd-3a2b63d887f7","ios":"levelo://app?vid=c38d2ea0-4851-4aa8-a3cd-3a2b63d887f7"},"vehicle_type_id":"4","last_reported":1727107875,"current_range_meters":33200,"station_id":"ce4bhh92rcd13ifvqfj0","pricing_plan_id":"cebpf4jnsgd1na2vs0mg"},{"bike_id":"94f2396a-5a26-4558-8119-80fe3e72fdf3","system_id":"levelo_inurba_marseille","lat":43.2906,"lon":5.35882,"is_reserved":false,"is_disabled":false,"rental_uris":{"android":"levelo://app?vid=94f2396a-5a26-4558-8119-80fe3e72fdf3","ios":"levelo://app?vid=94f2396a-5a26-4558-8119-80fe3e72fdf3"},"vehicle_type_id":"4","last_reported":1727107875,"current_range_meters":14000,"station_id":"ce4bha92rcd13ifvqeg0","pricing_plan_id":"cebpf4jnsgd1na2vs0mg"},{"bike_id":"59050d16-9a93-49dc-ba39-028864d1883e","system_id":"levelo_inurba_marseille","lat":43.268829,"lon":5.369112,"is_reserved":false,"is_disabled":false,"rental_uris":{"android":"levelo://app?vid=59050d16-9a93-49dc-ba39-028864d1883e","ios":"levelo://app?vid=59050d16-9a93-49dc-ba39-028864d1883e"},"vehicle_type_id":"4","last_reported":1727107875,"current_range_meters":4800,"station_id":"ce4bhh12rcd13ifvqff0","pricing_plan_id":"cebpf4jnsgd1na2vs0mg"},{"bike_id":"fa690805-233a-4a70-a9f3-33f1b67cdb1f","system_id":"levelo_inurba_marseille","lat":43.32294,"lon":5.38257,"is_reserved":false,"is_disabled":false,"rental_uris":{"android":"levelo://app?vid=fa690805-233a-4a70-a9f3-33f1b67cdb1f","ios":"levelo://app?vid=fa690805-233a-4a70-a9f3-33f1b67cdb1f"},"vehicle_type_id":"4","last_reported":1727107875,"current_range_meters":37600,"station_id":"ce4bhr12rcd13ifvqhqg","pricing_plan_id":"cebpf4jnsgd1na2vs0mg"},{"bike_id":"91408302-166a-494e-b4d5-58d6c5bdf195","system_id":"levelo_inurba_marseille","lat":43.295105,"lon":5.389823,"is_reserved":false,"is_disabled":false,"rental_uris":{"android":"levelo://app?vid=91408302-166a-494e-b4d5-58d6c5bdf195","ios":"levelo://app?vid=91408302-166a-494e-b4d5-58d6c5bdf195"},"vehicle_type_id":"4","last_reported":1727107875,"current_range_meters":5600,"station_id":"ce4bh3p2rcd13ifvqdp0","pricing_plan_id":"cebpf4jnsgd1na2vs0mg"},{"bike_id":"fb80d3f5-6256-4939-9568-0b56707bb6ad","system_id":"levelo_inurba_marseille","lat":43.31284,"lon":5.40182,"is_reserved":false,"is_disabled":false,"rental_uris":{"android":"levelo://app?vid=fb80d3f5-6256-4939-9568-0b56707bb6ad","ios":"levelo://app?vid=fb80d3f5-6256-4939-9568-0b56707bb6ad"},"vehicle_type_id":"4","last_reported":1727107875,"current_range_meters":22800,"station_id":"ce4bh092rcd13ifvqd30","pricing_plan_id":"cebpf4jnsgd1na2vs0mg"},{"bike_id":"d442dc3e-29ea-4411-8999-88d534f3d589","system_id":"levelo_inurba_marseille","lat":43.295349,"lon":5.385388,"is_reserved":false,"is_disabled":false,"rental_uris":{"android":"levelo://app?vid=d442dc3e-29ea-4411-8999-88d534f3d589","ios":"levelo://app?vid=d442dc3e-29ea-4411-8999-88d534f3d589"},"vehicle_type_id":"4","last_reported":1727107875,"current_range_meters":8000,"station_id":"ce4bgih2rcd13ifvqba0","pricing_plan_id":"cebpf4jnsgd1na2vs0mg"},{"bike_id":"75fcf2fd-a741-40a6-adfb-ccf6630105e6","system_id":"levelo_inurba_marseille","lat":43.26495,"lon":5.39545,"is_reserved":false,"is_disabled":false,"rental_uris":{"android":"levelo://app?vid=75fcf2fd-a741-40a6-adfb-ccf6630105e6","ios":"levelo://app?vid=75fcf2fd-a741-40a6-adfb-ccf6630105e6"},"vehicle_type_id":"4","last_reported":1727107875,"current_range_meters":36800,"station_id":"ce4bhi12rcd13ifvqfq0","pricing_plan_id":"cebpf4jnsgd1na2vs0mg"},{"bike_id":"f2fb3c00-9fa4-4428-bc3d-ccf4d3411ad3","system_id":"levelo_inurba_marseille","lat":43.29558,"lon":5.42291,"is_reserved":false,"is_disabled":false,"rental_uris":{"android":"levelo://app?vid=f2fb3c00-9fa4-4428-bc3d-ccf4d3411ad3","ios":"levelo://app?vid=f2fb3c00-9fa4-4428-bc3d-ccf4d3411ad3"},"vehicle_type_id":"4","last_reported":1727107875,"current_range_meters":27600,"station_id":"ce4bhph2rcd13ifvqhdg","pricing_plan_id":"cebpf4jnsgd1na2vs0mg"},{"bike_id":"56a2092a-7700-4826-9dd6-64a44b279122","system_id":"levelo_inurba_marseille","lat":43.27673,"lon":5.3889,"is_reserved":false,"is_disabled":false,"rental_uris":{"android":"levelo://app?vid=56a2092a-7700-4826-9dd6-64a44b279122","ios":"levelo://app?vid=56a2092a-7700-4826-9dd6-64a44b279122"},"vehicle_type_id":"4","last_reported":1727107875,"current_range_meters":36400,"station_id":"ce4bhi12rcd13ifvqfo0","pricing_plan_id":"cebpf4jnsgd1na2vs0mg"},{"bike_id":"1db5178c-37fd-4fee-99b2-5ec860f0e410","system_id":"levelo_inurba_marseille","lat":43.29804,"lon":5.40405,"is_reserved":false,"is_disabled":false,"rental_uris":{"android":"levelo://app?vid=1db5178c-37fd-4fee-99b2-5ec860f0e410","ios":"levelo://app?vid=1db5178c-37fd-4fee-99b2-5ec860f0e410"},"vehicle_type_id":"4","last_reported":1727107875,"current_range_meters":33600,"station_id":"ce4bh112rcd13ifvqd90","pricing_plan_id":"cebpf4jnsgd1na2vs0mg"},{"bike_id":"40ec77eb-6257-4910-b338-910ef8290bad","system_id":"levelo_inurba_marseille","lat":43.281069,"lon":5.406371,"is_reserved":false,"is_disabled":false,"rental_uris":{"android":"levelo://app?vid=40ec77eb-6257-4910-b338-910ef8290bad","ios":"levelo://app?vid=40ec77eb-6257-4910-b338-910ef8290bad"},"vehicle_type_id":"4","last_reported":1727107875,"current_range_meters":8800,"station_id":"","pricing_plan_id":"cebpf4jnsgd1na2vs0mg"},{"bike_id":"d344e651-6d31-4959-be3d-eb4ee16fc229","system_id":"levelo_inurba_marseille","lat":43.29439,"lon":5.39744,"is_reserved":false,"is_disabled":false,"rental_uris":{"android":"levelo://app?vid=d344e651-6d31-4959-be3d-eb4ee16fc229","ios":"levelo://app?vid=d344e651-6d31-4959-be3d-eb4ee16fc229"},"vehicle_type_id":"4","last_reported":1727107875,"current_range_meters":12000,"station_id":"ce4bh3h2rcd13ifvqdo0","pricing_plan_id":"cebpf4jnsgd1na2vs0mg"},{"bike_id":"44018c2f-ebfc-4937-b793-9b76334fe562","system_id":"levelo_inurba_marseille","lat":43.29925,"lon":5.36537,"is_reserved":false,"is_disabled":false,"rental_uris":{"android":"levelo://app?vid=44018c2f-ebfc-4937-b793-9b76334fe562","ios":"levelo://app?vid=44018c2f-ebfc-4937-b793-9b76334fe562"},"vehicle_type_id":"4","last_reported":1727107875,"current_range_meters":16000,"station_id":"ce4bgm92rcd13ifvqbr0","pricing_plan_id":"cebpf4jnsgd1na2vs0mg"},{"bike_id":"b0f4d08d-9574-447c-9f76-6a11e8a82ce4","system_id":"levelo_inurba_marseille","lat":43.31334,"lon":5.39696,"is_reserved":false,"is_disabled":false,"rental_uris":{"android":"levelo://app?vid=b0f4d08d-9574-447c-9f76-6a11e8a82ce4","ios":"levelo://app?vid=b0f4d08d-9574-447c-9f76-6a11e8a82ce4"},"vehicle_type_id":"4","last_reported":1727107875,"current_range_meters":40000,"station_id":"ce4bgvp2rcd13ifvqcu0","pricing_plan_id":"cebpf4jnsgd1na2vs0mg"},{"bike_id":"ed1f0c4b-c2ec-4633-9b10-9782357e4a7c","system_id":"levelo_inurba_marseille","lat":43.308,"lon":5.43522,"is_reserved":false,"is_disabled":false,"rental_uris":{"android":"levelo://app?vid=ed1f0c4b-c2ec-4633-9b10-9782357e4a7c","ios":"levelo://app?vid=ed1f0c4b-c2ec-4633-9b10-9782357e4a7c"},"vehicle_type_id":"4","last_reported":1727107875,"current_range_meters":13600,"station_id":"ce4bhph2rcd13ifvqheg","pricing_plan_id":"cebpf4jnsgd1na2vs0mg"},{"bike_id":"0074696f-e649-4639-9210-689b92842bdc","system_id":"levelo_inurba_marseille","lat":43.30809,"lon":5.43518,"is_reserved":false,"is_disabled":false,"rental_uris":{"android":"levelo://app?vid=0074696f-e649-4639-9210-689b92842bdc","ios":"levelo://app?vid=0074696f-e649-4639-9210-689b92842bdc"},"vehicle_type_id":"4","last_reported":1727107875,"current_range_meters":38800,"station_id":"ce4bhph2rcd13ifvqheg","pricing_plan_id":"cebpf4jnsgd1na2vs0mg"},{"bike_id":"877753fc-658d-4c7a-bbb8-46de59f59494","system_id":"levelo_inurba_marseille","lat":43.33024,"lon":5.39045,"is_reserved":false,"is_disabled":false,"rental_uris":{"android":"levelo://app?vid=877753fc-658d-4c7a-bbb8-46de59f59494","ios":"levelo://app?vid=877753fc-658d-4c7a-bbb8-46de59f59494"},"vehicle_type_id":"4","last_reported":1727107875,"current_range_meters":18800,"station_id":"ce4bhr92rcd13ifvqhrg","pricing_plan_id":"cebpf4jnsgd1na2vs0mg"},{"bike_id":"20c322fd-654e-42ef-8773-7ebadd40b4c4","system_id":"levelo_inurba_marseille","lat":43.33025,"lon":5.3904,"is_reserved":false,"is_disabled":false,"rental_uris":{"android":"levelo://app?vid=20c322fd-654e-42ef-8773-7ebadd40b4c4","ios":"levelo://app?vid=20c322fd-654e-42ef-8773-7ebadd40b4c4"},"vehicle_type_id":"4","last_reported":1727107875,"current_range_meters":14400,"station_id":"ce4bhr92rcd13ifvqhrg","pricing_plan_id":"cebpf4jnsgd1na2vs0mg"},{"bike_id":"6a9f45df-04c5-44d5-b656-eb73494e9cef","system_id":"levelo_inurba_marseille","lat":43.23964,"lon":5.36636,"is_reserved":false,"is_disabled":false,"rental_uris":{"android":"levelo://app?vid=6a9f45df-04c5-44d5-b656-eb73494e9cef","ios":"levelo://app?vid=6a9f45df-04c5-44d5-b656-eb73494e9cef"},"vehicle_type_id":"4","last_reported":1727107875,"current_range_meters":26800,"station_id":"ce4bhi12rcd13ifvqfp0","pricing_plan_id":"cebpf4jnsgd1na2vs0mg"},{"bike_id":"b79c2f52-3699-4a38-86b7-27419fb10da8","system_id":"levelo_inurba_marseille","lat":43.29874,"lon":5.38899,"is_reserved":false,"is_disabled":false,"rental_uris":{"android":"levelo://app?vid=b79c2f52-3699-4a38-86b7-27419fb10da8","ios":"levelo://app?vid=b79c2f52-3699-4a38-86b7-27419fb10da8"},"vehicle_type_id":"4","last_reported":1727107875,"current_range_meters":27200,"station_id":"ce4bh392rcd13ifvqdl0","pricing_plan_id":"cebpf4jnsgd1na2vs0mg"},{"bike_id":"318a52b1-3ab3-4692-9981-1869022ccf38","system_id":"levelo_inurba_marseille","lat":43.28616,"lon":5.35106,"is_reserved":false,"is_disabled":false,"rental_uris":{"android":"levelo://app?vid=318a52b1-3ab3-4692-9981-1869022ccf38","ios":"levelo://app?vid=318a52b1-3ab3-4692-9981-1869022ccf38"},"vehicle_type_id":"4","last_reported":1727107875,"current_range_meters":38800,"station_id":"ce4bhch2rcd13ifvqeug","pricing_plan_id":"cebpf4jnsgd1na2vs0mg"},{"bike_id":"5e2f72d5-4559-41b2-b3d0-9bec673a16db","system_id":"levelo_inurba_marseille","lat":43.28269,"lon":5.3507,"is_reserved":false,"is_disabled":false,"rental_uris":{"android":"levelo://app?vid=5e2f72d5-4559-41b2-b3d0-9bec673a16db","ios":"levelo://app?vid=5e2f72d5-4559-41b2-b3d0-9bec673a16db"},"vehicle_type_id":"4","last_reported":1727107875,"current_range_meters":39200,"station_id":"ce4bhbp2rcd13ifvqerg","pricing_plan_id":"cebpf4jnsgd1na2vs0mg"},{"bike_id":"fa389a28-fbc0-443d-ae17-61deeb7eddc4","system_id":"levelo_inurba_marseille","lat":43.29792,"lon":5.3935,"is_reserved":false,"is_disabled":false,"rental_uris":{"android":"levelo://app?vid=fa389a28-fbc0-443d-ae17-61deeb7eddc4","ios":"levelo://app?vid=fa389a28-fbc0-443d-ae17-61deeb7eddc4"},"vehicle_type_id":"4","last_reported":1727107875,"current_range_meters":36400,"station_id":"chh1huq6cuj3fo74tm60","pricing_plan_id":"cebpf4jnsgd1na2vs0mg"},{"bike_id":"1a62a0b3-c722-40a4-a7f9-fb34154b3738","system_id":"levelo_inurba_marseille","lat":43.26481,"lon":5.39553,"is_reserved":false,"is_disabled":false,"rental_uris":{"android":"levelo://app?vid=1a62a0b3-c722-40a4-a7f9-fb34154b3738","ios":"levelo://app?vid=1a62a0b3-c722-40a4-a7f9-fb34154b3738"},"vehicle_type_id":"4","last_reported":1727107875,"current_range_meters":2000,"station_id":"ce4bhi12rcd13ifvqfq0","pricing_plan_id":"cebpf4jnsgd1na2vs0mg"},{"bike_id":"412c7a4b-e684-492a-9aa9-18af6dd3d8cf","system_id":"levelo_inurba_marseille","lat":43.31689,"lon":5.40465,"is_reserved":false,"is_disabled":false,"rental_uris":{"android":"levelo://app?vid=412c7a4b-e684-492a-9aa9-18af6dd3d8cf","ios":"levelo://app?vid=412c7a4b-e684-492a-9aa9-18af6dd3d8cf"},"vehicle_type_id":"4","last_reported":1727107875,"current_range_meters":8400,"station_id":"ce4bhqh2rcd13ifvqhlg","pricing_plan_id":"cebpf4jnsgd1na2vs0mg"},{"bike_id":"6b83a1cf-14fc-44f9-a4a3-020e75390225","system_id":"levelo_inurba_marseille","lat":43.2655,"lon":5.37285,"is_reserved":false,"is_disabled":false,"rental_uris":{"android":"levelo://app?vid=6b83a1cf-14fc-44f9-a4a3-020e75390225","ios":"levelo://app?vid=6b83a1cf-14fc-44f9-a4a3-020e75390225"},"vehicle_type_id":"4","last_reported":1727107875,"current_range_meters":14400,"station_id":"ce4bhb92rcd13ifvqen0","pricing_plan_id":"cebpf4jnsgd1na2vs0mg"},{"bike_id":"7acb0edf-4bf7-4048-ae12-b5793b91fa6d","system_id":"levelo_inurba_marseille","lat":43.27374,"lon":5.36258,"is_reserved":false,"is_disabled":false,"rental_uris":{"android":"levelo://app?vid=7acb0edf-4bf7-4048-ae12-b5793b91fa6d","ios":"levelo://app?vid=7acb0edf-4bf7-4048-ae12-b5793b91fa6d"},"vehicle_type_id":"4","last_reported":1727107875,"current_range_meters":8800,"station_id":"ce4bhbh2rcd13ifvqeo0","pricing_plan_id":"cebpf4jnsgd1na2vs0mg"},{"bike_id":"8119e1e7-202d-44c8-9a81-6eb690aad32d","system_id":"levelo_inurba_marseille","lat":43.28077,"lon":5.39656,"is_reserved":false,"is_disabled":false,"rental_uris":{"android":"levelo://app?vid=8119e1e7-202d-44c8-9a81-6eb690aad32d","ios":"levelo://app?vid=8119e1e7-202d-44c8-9a81-6eb690aad32d"},"vehicle_type_id":"4","last_reported":1727107875,"current_range_meters":6000,"station_id":"ce4bho12rcd13ifvqh2g","pricing_plan_id":"cebpf4jnsgd1na2vs0mg"},{"bike_id":"7e3920a9-97d9-483d-b7ba-9d14c34ba84c","system_id":"levelo_inurba_marseille","lat":43.28519,"lon":5.36007,"is_reserved":false,"is_disabled":false,"rental_uris":{"android":"levelo://app?vid=7e3920a9-97d9-483d-b7ba-9d14c34ba84c","ios":"levelo://app?vid=7e3920a9-97d9-483d-b7ba-9d14c34ba84c"},"vehicle_type_id":"4","last_reported":1727107875,"current_range_meters":8800,"station_id":"ce4bhah2rcd13ifvqei0","pricing_plan_id":"cebpf4jnsgd1na2vs0mg"},{"bike_id":"dbd06492-836e-421f-92a5-bb681b0d67ae","system_id":"levelo_inurba_marseille","lat":43.28405,"lon":5.37515,"is_reserved":false,"is_disabled":false,"rental_uris":{"android":"levelo://app?vid=dbd06492-836e-421f-92a5-bb681b0d67ae","ios":"levelo://app?vid=dbd06492-836e-421f-92a5-bb681b0d67ae"},"vehicle_type_id":"4","last_reported":1727107875,"current_range_meters":17600,"station_id":"ce4bh412rcd13ifvqds0","pricing_plan_id":"cebpf4jnsgd1na2vs0mg"},{"bike_id":"e4f6fcca-5eb9-462b-b137-295a35a9d058","system_id":"levelo_inurba_marseille","lat":43.29273,"lon":5.38436,"is_reserved":false,"is_disabled":false,"rental_uris":{"android":"levelo://app?vid=e4f6fcca-5eb9-462b-b137-295a35a9d058","ios":"levelo://app?vid=e4f6fcca-5eb9-462b-b137-295a35a9d058"},"vehicle_type_id":"4","last_reported":1727107875,"current_range_meters":10000,"station_id":"ce4bh692rcd13ifvqea0","pricing_plan_id":"cebpf4jnsgd1na2vs0mg"},{"bike_id":"16ae6180-f6e5-47e0-8f4b-70a0144490cf","system_id":"levelo_inurba_marseille","lat":43.30413,"lon":5.41277,"is_reserved":false,"is_disabled":false,"rental_uris":{"android":"levelo://app?vid=16ae6180-f6e5-47e0-8f4b-70a0144490cf","ios":"levelo://app?vid=16ae6180-f6e5-47e0-8f4b-70a0144490cf"},"vehicle_type_id":"4","last_reported":1727107875,"current_range_meters":14800,"station_id":"ce4bhop2rcd13ifvqh8g","pricing_plan_id":"cebpf4jnsgd1na2vs0mg"},{"bike_id":"08025dff-2314-47da-ab00-c8fad6148d07","system_id":"levelo_inurba_marseille","lat":43.30538,"lon":5.36697,"is_reserved":false,"is_disabled":false,"rental_uris":{"android":"levelo://app?vid=08025dff-2314-47da-ab00-c8fad6148d07","ios":"levelo://app?vid=08025dff-2314-47da-ab00-c8fad6148d07"},"vehicle_type_id":"4","last_reported":1727107875,"current_range_meters":6800,"station_id":"ce4bgrp2rcd13ifvqc9g","pricing_plan_id":"cebpf4jnsgd1na2vs0mg"},{"bike_id":"ad3fd57a-52bf-4f14-b7ca-8eeb4817e817","system_id":"levelo_inurba_marseille","lat":43.30535,"lon":5.36545,"is_reserved":false,"is_disabled":false,"rental_uris":{"android":"levelo://app?vid=ad3fd57a-52bf-4f14-b7ca-8eeb4817e817","ios":"levelo://app?vid=ad3fd57a-52bf-4f14-b7ca-8eeb4817e817"},"vehicle_type_id":"4","last_reported":1727107875,"current_range_meters":19200,"station_id":"ce4bgs12rcd13ifvqcag","pricing_plan_id":"cebpf4jnsgd1na2vs0mg"},{"bike_id":"7355c39c-45c5-4e68-b013-e8de4b0ecbe0","system_id":"levelo_inurba_marseille","lat":43.26935,"lon":5.40257,"is_reserved":false,"is_disabled":false,"rental_uris":{"android":"levelo://app?vid=7355c39c-45c5-4e68-b013-e8de4b0ecbe0","ios":"levelo://app?vid=7355c39c-45c5-4e68-b013-e8de4b0ecbe0"},"vehicle_type_id":"4","last_reported":1727107875,"current_range_meters":28400,"station_id":"cjm6bp8fraef2m0cb0m0","pricing_plan_id":"cebpf4jnsgd1na2vs0mg"},{"bike_id":"2c65dc19-291c-4065-a86b-14b74bc4b430","system_id":"levelo_inurba_marseille","lat":43.291967,"lon":5.393407,"is_reserved":false,"is_disabled":false,"rental_uris":{"android":"levelo://app?vid=2c65dc19-291c-4065-a86b-14b74bc4b430","ios":"levelo://app?vid=2c65dc19-291c-4065-a86b-14b74bc4b430"},"vehicle_type_id":"4","last_reported":1727107875,"current_range_meters":4000,"station_id":"ce4bh192rcd13ifvqdd0","pricing_plan_id":"cebpf4jnsgd1na2vs0mg"},{"bike_id":"524c3696-c837-45a2-9f20-52086605eba5","system_id":"levelo_inurba_marseille","lat":43.31866,"lon":5.38239,"is_reserved":false,"is_disabled":false,"rental_uris":{"android":"levelo://app?vid=524c3696-c837-45a2-9f20-52086605eba5","ios":"levelo://app?vid=524c3696-c837-45a2-9f20-52086605eba5"},"vehicle_type_id":"4","last_reported":1727107875,"current_range_meters":25600,"station_id":"ce4bhr12rcd13ifvqhpg","pricing_plan_id":"cebpf4jnsgd1na2vs0mg"},{"bike_id":"5313bdf2-c6d6-4bc9-a723-3adbdebbda0d","system_id":"levelo_inurba_marseille","lat":43.25493,"lon":5.37646,"is_reserved":false,"is_disabled":false,"rental_uris":{"android":"levelo://app?vid=5313bdf2-c6d6-4bc9-a723-3adbdebbda0d","ios":"levelo://app?vid=5313bdf2-c6d6-4bc9-a723-3adbdebbda0d"},"vehicle_type_id":"4","last_reported":1727107875,"current_range_meters":17200,"station_id":"ce4bhh12rcd13ifvqff0","pricing_plan_id":"cebpf4jnsgd1na2vs0mg"},{"bike_id":"36dc71fe-bfc9-4a4d-b2ef-39ebb067c458","system_id":"levelo_inurba_marseille","lat":43.29554,"lon":5.42284,"is_reserved":false,"is_disabled":false,"rental_uris":{"android":"levelo://app?vid=36dc71fe-bfc9-4a4d-b2ef-39ebb067c458","ios":"levelo://app?vid=36dc71fe-bfc9-4a4d-b2ef-39ebb067c458"},"vehicle_type_id":"4","last_reported":1727107875,"current_range_meters":40000,"station_id":"ce4bhph2rcd13ifvqhdg","pricing_plan_id":"cebpf4jnsgd1na2vs0mg"},{"bike_id":"4e442a34-1c41-4d3c-9b65-5b0b3be50276","system_id":"levelo_inurba_marseille","lat":43.33724,"lon":5.39205,"is_reserved":false,"is_disabled":false,"rental_uris":{"android":"levelo://app?vid=4e442a34-1c41-4d3c-9b65-5b0b3be50276","ios":"levelo://app?vid=4e442a34-1c41-4d3c-9b65-5b0b3be50276"},"vehicle_type_id":"4","last_reported":1727107875,"current_range_meters":36800,"station_id":"ce4bhr92rcd13ifvqhsg","pricing_plan_id":"cebpf4jnsgd1na2vs0mg"},{"bike_id":"4b66e4d7-5c48-4d69-b9c1-f4b1f1fd90e4","system_id":"levelo_inurba_marseille","lat":43.26554,"lon":5.37286,"is_reserved":false,"is_disabled":false,"rental_uris":{"android":"levelo://app?vid=4b66e4d7-5c48-4d69-b9c1-f4b1f1fd90e4","ios":"levelo://app?vid=4b66e4d7-5c48-4d69-b9c1-f4b1f1fd90e4"},"vehicle_type_id":"4","last_reported":1727107875,"current_range_meters":7200,"station_id":"ce4bhg12rcd13ifvqf70","pricing_plan_id":"cebpf4jnsgd1na2vs0mg"},{"bike_id":"df15b859-c330-46a7-be6a-5cac9bb293f8","system_id":"levelo_inurba_marseille","lat":43.30935,"lon":5.40149,"is_reserved":false,"is_disabled":false,"rental_uris":{"android":"levelo://app?vid=df15b859-c330-46a7-be6a-5cac9bb293f8","ios":"levelo://app?vid=df15b859-c330-46a7-be6a-5cac9bb293f8"},"vehicle_type_id":"4","last_reported":1727107875,"current_range_meters":30000,"station_id":"ce4bgvp2rcd13ifvqct0","pricing_plan_id":"cebpf4jnsgd1na2vs0mg"},{"bike_id":"02552a84-93ac-4f47-9115-b594cbf16674","system_id":"levelo_inurba_marseille","lat":43.29556,"lon":5.42289,"is_reserved":false,"is_disabled":false,"rental_uris":{"android":"levelo://app?vid=02552a84-93ac-4f47-9115-b594cbf16674","ios":"levelo://app?vid=02552a84-93ac-4f47-9115-b594cbf16674"},"vehicle_type_id":"4","last_reported":1727107875,"current_range_meters":40000,"station_id":"ce4bhph2rcd13ifvqhdg","pricing_plan_id":"cebpf4jnsgd1na2vs0mg"},{"bike_id":"90d4ef06-6acd-45be-92fb-d068aa9016bb","system_id":"levelo_inurba_marseille","lat":43.29198,"lon":5.39329,"is_reserved":false,"is_disabled":false,"rental_uris":{"android":"levelo://app?vid=90d4ef06-6acd-45be-92fb-d068aa9016bb","ios":"levelo://app?vid=90d4ef06-6acd-45be-92fb-d068aa9016bb"},"vehicle_type_id":"4","last_reported":1727107875,"current_range_meters":13600,"station_id":"ce4bh192rcd13ifvqdd0","pricing_plan_id":"cebpf4jnsgd1na2vs0mg"},{"bike_id":"19ff4b74-00ae-43ef-bfd0-a8b7c3ef9ed3","system_id":"levelo_inurba_marseille","lat":43.28956,"lon":5.36401,"is_reserved":false,"is_disabled":false,"rental_uris":{"android":"levelo://app?vid=19ff4b74-00ae-43ef-bfd0-a8b7c3ef9ed3","ios":"levelo://app?vid=19ff4b74-00ae-43ef-bfd0-a8b7c3ef9ed3"},"vehicle_type_id":"4","last_reported":1727107875,"current_range_meters":24000,"station_id":"ce4bhc92rcd13ifvqetg","pricing_plan_id":"cebpf4jnsgd1na2vs0mg"},{"bike_id":"b49e8aa4-b4d7-4f9d-a437-8d1bbdfe618a","system_id":"levelo_inurba_marseille","lat":43.29565,"lon":5.42277,"is_reserved":false,"is_disabled":false,"rental_uris":{"android":"levelo://app?vid=b49e8aa4-b4d7-4f9d-a437-8d1bbdfe618a","ios":"levelo://app?vid=b49e8aa4-b4d7-4f9d-a437-8d1bbdfe618a"},"vehicle_type_id":"4","last_reported":1727107875,"current_range_meters":38800,"station_id":"ce4bhph2rcd13ifvqhdg","pricing_plan_id":"cebpf4jnsgd1na2vs0mg"},{"bike_id":"a50603eb-4854-4e4a-b644-0ebeea6d8d36","system_id":"levelo_inurba_marseille","lat":43.31118,"lon":5.377731,"is_reserved":false,"is_disabled":false,"rental_uris":{"android":"levelo://app?vid=a50603eb-4854-4e4a-b644-0ebeea6d8d36","ios":"levelo://app?vid=a50603eb-4854-4e4a-b644-0ebeea6d8d36"},"vehicle_type_id":"4","last_reported":1727107875,"current_range_meters":8400,"station_id":"ce4bgt92rcd13ifvqcg0","pricing_plan_id":"cebpf4jnsgd1na2vs0mg"},{"bike_id":"1b424706-aab3-4959-99b9-2559df57b28b","system_id":"levelo_inurba_marseille","lat":43.26083,"lon":5.39806,"is_reserved":false,"is_disabled":false,"rental_uris":{"android":"levelo://app?vid=1b424706-aab3-4959-99b9-2559df57b28b","ios":"levelo://app?vid=1b424706-aab3-4959-99b9-2559df57b28b"},"vehicle_type_id":"4","last_reported":1727107875,"current_range_meters":38800,"station_id":"","pricing_plan_id":"cebpf4jnsgd1na2vs0mg"},{"bike_id":"76ebda60-bb7c-4cf7-a562-1b758e962e6d","system_id":"levelo_inurba_marseille","lat":43.27686,"lon":5.38888,"is_reserved":false,"is_disabled":false,"rental_uris":{"android":"levelo://app?vid=76ebda60-bb7c-4cf7-a562-1b758e962e6d","ios":"levelo://app?vid=76ebda60-bb7c-4cf7-a562-1b758e962e6d"},"vehicle_type_id":"4","last_reported":1727107875,"current_range_meters":20000,"station_id":"ce4bhi12rcd13ifvqfo0","pricing_plan_id":"cebpf4jnsgd1na2vs0mg"},{"bike_id":"6eb0feb9-2924-4b35-ab60-d2e9e97ac08a","system_id":"levelo_inurba_marseille","lat":43.27054,"lon":5.4026,"is_reserved":false,"is_disabled":false,"rental_uris":{"android":"levelo://app?vid=6eb0feb9-2924-4b35-ab60-d2e9e97ac08a","ios":"levelo://app?vid=6eb0feb9-2924-4b35-ab60-d2e9e97ac08a"},"vehicle_type_id":"4","last_reported":1727107875,"current_range_meters":11600,"station_id":"ce4bhk92rcd13ifvqgc0","pricing_plan_id":"cebpf4jnsgd1na2vs0mg"},{"bike_id":"5461ea1c-76b0-4429-a05e-d6299ebc8ba1","system_id":"levelo_inurba_marseille","lat":43.31726,"lon":5.42399,"is_reserved":false,"is_disabled":false,"rental_uris":{"android":"levelo://app?vid=5461ea1c-76b0-4429-a05e-d6299ebc8ba1","ios":"levelo://app?vid=5461ea1c-76b0-4429-a05e-d6299ebc8ba1"},"vehicle_type_id":"4","last_reported":1727107875,"current_range_meters":39200,"station_id":"ce4bhp92rcd13ifvqhbg","pricing_plan_id":"cebpf4jnsgd1na2vs0mg"},{"bike_id":"86551cfb-f997-4a15-9007-08ecfc7f308c","system_id":"levelo_inurba_marseille","lat":43.27993,"lon":5.41665,"is_reserved":false,"is_disabled":false,"rental_uris":{"android":"levelo://app?vid=86551cfb-f997-4a15-9007-08ecfc7f308c","ios":"levelo://app?vid=86551cfb-f997-4a15-9007-08ecfc7f308c"},"vehicle_type_id":"4","last_reported":1727107875,"current_range_meters":19600,"station_id":"ce4bho12rcd13ifvqh1g","pricing_plan_id":"cebpf4jnsgd1na2vs0mg"},{"bike_id":"086ce38e-540e-4e07-bece-22e101c79a1e","system_id":"levelo_inurba_marseille","lat":43.299,"lon":5.43661,"is_reserved":false,"is_disabled":false,"rental_uris":{"android":"levelo://app?vid=086ce38e-540e-4e07-bece-22e101c79a1e","ios":"levelo://app?vid=086ce38e-540e-4e07-bece-22e101c79a1e"},"vehicle_type_id":"4","last_reported":1727107875,"current_range_meters":6400,"station_id":"ce4bhpp2rcd13ifvqhfg","pricing_plan_id":"cebpf4jnsgd1na2vs0mg"},{"bike_id":"fa88222f-6f1e-4fd4-bea4-64cee89b5aa5","system_id":"levelo_inurba_marseille","lat":43.29224,"lon":5.36071,"is_reserved":false,"is_disabled":false,"rental_uris":{"android":"levelo://app?vid=fa88222f-6f1e-4fd4-bea4-64cee89b5aa5","ios":"levelo://app?vid=fa88222f-6f1e-4fd4-bea4-64cee89b5aa5"},"vehicle_type_id":"4","last_reported":1727107875,"current_range_meters":14800,"station_id":"ce4bhbh2rcd13ifvqeqg","pricing_plan_id":"cebpf4jnsgd1na2vs0mg"},{"bike_id":"69bca05a-decd-41fc-85db-6ecf147bafbe","system_id":"levelo_inurba_marseille","lat":43.28665,"lon":5.36352,"is_reserved":false,"is_disabled":false,"rental_uris":{"android":"levelo://app?vid=69bca05a-decd-41fc-85db-6ecf147bafbe","ios":"levelo://app?vid=69bca05a-decd-41fc-85db-6ecf147bafbe"},"vehicle_type_id":"4","last_reported":1727107875,"current_range_meters":20800,"station_id":"ce4bhah2rcd13ifvqej0","pricing_plan_id":"cebpf4jnsgd1na2vs0mg"},{"bike_id":"9a727155-caad-4c64-be4c-de05a99e0e67","system_id":"levelo_inurba_marseille","lat":43.27373,"lon":5.36258,"is_reserved":false,"is_disabled":false,"rental_uris":{"android":"levelo://app?vid=9a727155-caad-4c64-be4c-de05a99e0e67","ios":"levelo://app?vid=9a727155-caad-4c64-be4c-de05a99e0e67"},"vehicle_type_id":"4","last_reported":1727107875,"current_range_meters":10800,"station_id":"ce4bhbh2rcd13ifvqeo0","pricing_plan_id":"cebpf4jnsgd1na2vs0mg"},{"bike_id":"3de2ca08-6fb8-44af-90b8-2b81dff589ff","system_id":"levelo_inurba_marseille","lat":43.28572,"lon":5.39506,"is_reserved":false,"is_disabled":false,"rental_uris":{"android":"levelo://app?vid=3de2ca08-6fb8-44af-90b8-2b81dff589ff","ios":"levelo://app?vid=3de2ca08-6fb8-44af-90b8-2b81dff589ff"},"vehicle_type_id":"4","last_reported":1727107875,"current_range_meters":28000,"station_id":"ce4bh292rcd13ifvqdg0","pricing_plan_id":"cebpf4jnsgd1na2vs0mg"},{"bike_id":"be1de38c-4c0d-4b65-ab60-288a7fd084a9","system_id":"levelo_inurba_marseille","lat":43.30435,"lon":5.38901,"is_reserved":false,"is_disabled":false,"rental_uris":{"android":"levelo://app?vid=be1de38c-4c0d-4b65-ab60-288a7fd084a9","ios":"levelo://app?vid=be1de38c-4c0d-4b65-ab60-288a7fd084a9"},"vehicle_type_id":"4","last_reported":1727107875,"current_range_meters":17200,"station_id":"ce4bgk12rcd13ifvqbi0","pricing_plan_id":"cebpf4jnsgd1na2vs0mg"},{"bike_id":"02e2d360-f924-4d00-935f-7ac12bb5ffbe","system_id":"levelo_inurba_marseille","lat":43.31108,"lon":5.44708,"is_reserved":false,"is_disabled":false,"rental_uris":{"android":"levelo://app?vid=02e2d360-f924-4d00-935f-7ac12bb5ffbe","ios":"levelo://app?vid=02e2d360-f924-4d00-935f-7ac12bb5ffbe"},"vehicle_type_id":"4","last_reported":1727107875,"current_range_meters":7200,"station_id":"","pricing_plan_id":"cebpf4jnsgd1na2vs0mg"},{"bike_id":"9262c49a-e8ea-4520-8d26-67c36b185fad","system_id":"levelo_inurba_marseille","lat":43.243896,"lon":5.370642,"is_reserved":false,"is_disabled":false,"rental_uris":{"android":"levelo://app?vid=9262c49a-e8ea-4520-8d26-67c36b185fad","ios":"levelo://app?vid=9262c49a-e8ea-4520-8d26-67c36b185fad"},"vehicle_type_id":"4","last_reported":1727107875,"current_range_meters":29600,"station_id":"ce4bhhh2rcd13ifvqfk0","pricing_plan_id":"cebpf4jnsgd1na2vs0mg"},{"bike_id":"a67b4287-da83-43eb-8e86-126974c9a016","system_id":"levelo_inurba_marseille","lat":43.29553,"lon":5.42283,"is_reserved":false,"is_disabled":false,"rental_uris":{"android":"levelo://app?vid=a67b4287-da83-43eb-8e86-126974c9a016","ios":"levelo://app?vid=a67b4287-da83-43eb-8e86-126974c9a016"},"vehicle_type_id":"4","last_reported":1727107875,"current_range_meters":24000,"station_id":"ce4bhph2rcd13ifvqhdg","pricing_plan_id":"cebpf4jnsgd1na2vs0mg"},{"bike_id":"231df590-15eb-4c0a-bdf6-dddd3cb861cb","system_id":"levelo_inurba_marseille","lat":43.337444,"lon":5.374475,"is_reserved":false,"is_disabled":false,"rental_uris":{"android":"levelo://app?vid=231df590-15eb-4c0a-bdf6-dddd3cb861cb","ios":"levelo://app?vid=231df590-15eb-4c0a-bdf6-dddd3cb861cb"},"vehicle_type_id":"4","last_reported":1727107875,"current_range_meters":21600,"station_id":"","pricing_plan_id":"cebpf4jnsgd1na2vs0mg"},{"bike_id":"ce684e48-18e3-4398-a098-96ed76462b61","system_id":"levelo_inurba_marseille","lat":43.29046,"lon":5.35903,"is_reserved":false,"is_disabled":false,"rental_uris":{"android":"levelo://app?vid=ce684e48-18e3-4398-a098-96ed76462b61","ios":"levelo://app?vid=ce684e48-18e3-4398-a098-96ed76462b61"},"vehicle_type_id":"4","last_reported":1727107875,"current_range_meters":11200,"station_id":"ce4bha92rcd13ifvqeg0","pricing_plan_id":"cebpf4jnsgd1na2vs0mg"},{"bike_id":"3b211465-5030-4ebd-b5e2-78bdfeebc435","system_id":"levelo_inurba_marseille","lat":43.33726,"lon":5.3918,"is_reserved":false,"is_disabled":false,"rental_uris":{"android":"levelo://app?vid=3b211465-5030-4ebd-b5e2-78bdfeebc435","ios":"levelo://app?vid=3b211465-5030-4ebd-b5e2-78bdfeebc435"},"vehicle_type_id":"4","last_reported":1727107875,"current_range_meters":21600,"station_id":"ce4bhr92rcd13ifvqhsg","pricing_plan_id":"cebpf4jnsgd1na2vs0mg"},{"bike_id":"6af536df-a3f6-497c-a4a9-43032fc8874c","system_id":"levelo_inurba_marseille","lat":43.33723,"lon":5.39176,"is_reserved":false,"is_disabled":false,"rental_uris":{"android":"levelo://app?vid=6af536df-a3f6-497c-a4a9-43032fc8874c","ios":"levelo://app?vid=6af536df-a3f6-497c-a4a9-43032fc8874c"},"vehicle_type_id":"4","last_reported":1727107875,"current_range_meters":38800,"station_id":"ce4bhr92rcd13ifvqhsg","pricing_plan_id":"cebpf4jnsgd1na2vs0mg"},{"bike_id":"3e156987-96e3-48ad-8746-0582637bdaa1","system_id":"levelo_inurba_marseille","lat":43.29896,"lon":5.43663,"is_reserved":false,"is_disabled":false,"rental_uris":{"android":"levelo://app?vid=3e156987-96e3-48ad-8746-0582637bdaa1","ios":"levelo://app?vid=3e156987-96e3-48ad-8746-0582637bdaa1"},"vehicle_type_id":"4","last_reported":1727107875,"current_range_meters":16800,"station_id":"ce4bhpp2rcd13ifvqhfg","pricing_plan_id":"cebpf4jnsgd1na2vs0mg"},{"bike_id":"bd4783ed-5e7d-4af0-a053-674c46df8997","system_id":"levelo_inurba_marseille","lat":43.31686,"lon":5.40479,"is_reserved":false,"is_disabled":false,"rental_uris":{"android":"levelo://app?vid=bd4783ed-5e7d-4af0-a053-674c46df8997","ios":"levelo://app?vid=bd4783ed-5e7d-4af0-a053-674c46df8997"},"vehicle_type_id":"4","last_reported":1727107875,"current_range_meters":36800,"station_id":"ce4bh012rcd13ifvqd00","pricing_plan_id":"cebpf4jnsgd1na2vs0mg"},{"bike_id":"589d0f53-3f9b-4d3c-9ea2-efc6ace29052","system_id":"levelo_inurba_marseille","lat":43.31164,"lon":5.37123,"is_reserved":false,"is_disabled":false,"rental_uris":{"android":"levelo://app?vid=589d0f53-3f9b-4d3c-9ea2-efc6ace29052","ios":"levelo://app?vid=589d0f53-3f9b-4d3c-9ea2-efc6ace29052"},"vehicle_type_id":"4","last_reported":1727107875,"current_range_meters":28400,"station_id":"","pricing_plan_id":"cebpf4jnsgd1na2vs0mg"},{"bike_id":"180a91fe-cbef-4ebb-920d-8424bbe93a71","system_id":"levelo_inurba_marseille","lat":43.26203,"lon":5.37481,"is_reserved":false,"is_disabled":false,"rental_uris":{"android":"levelo://app?vid=180a91fe-cbef-4ebb-920d-8424bbe93a71","ios":"levelo://app?vid=180a91fe-cbef-4ebb-920d-8424bbe93a71"},"vehicle_type_id":"4","last_reported":1727107875,"current_range_meters":6800,"station_id":"ce4bhgp2rcd13ifvqfc0","pricing_plan_id":"cebpf4jnsgd1na2vs0mg"},{"bike_id":"9d196cd7-daea-46d8-ace4-2bcf6ad63e70","system_id":"levelo_inurba_marseille","lat":43.29537,"lon":5.39031,"is_reserved":false,"is_disabled":false,"rental_uris":{"android":"levelo://app?vid=9d196cd7-daea-46d8-ace4-2bcf6ad63e70","ios":"levelo://app?vid=9d196cd7-daea-46d8-ace4-2bcf6ad63e70"},"vehicle_type_id":"4","last_reported":1727107875,"current_range_meters":8800,"station_id":"ce4bh3p2rcd13ifvqdp0","pricing_plan_id":"cebpf4jnsgd1na2vs0mg"},{"bike_id":"b9e34bdd-f1dc-4f5b-a6be-dce6dabf24f0","system_id":"levelo_inurba_marseille","lat":43.28977,"lon":5.37836,"is_reserved":false,"is_disabled":false,"rental_uris":{"android":"levelo://app?vid=b9e34bdd-f1dc-4f5b-a6be-dce6dabf24f0","ios":"levelo://app?vid=b9e34bdd-f1dc-4f5b-a6be-dce6dabf24f0"},"vehicle_type_id":"4","last_reported":1727107875,"current_range_meters":38400,"station_id":"ce4bh9p2rcd13ifvqed0","pricing_plan_id":"cebpf4jnsgd1na2vs0mg"},{"bike_id":"b03fb04c-7096-4b79-91a6-7388531c26d8","system_id":"levelo_inurba_marseille","lat":43.308777,"lon":5.396501,"is_reserved":false,"is_disabled":false,"rental_uris":{"android":"levelo://app?vid=b03fb04c-7096-4b79-91a6-7388531c26d8","ios":"levelo://app?vid=b03fb04c-7096-4b79-91a6-7388531c26d8"},"vehicle_type_id":"4","last_reported":1727107875,"current_range_meters":36400,"station_id":"ce4bh012rcd13ifvqcv0","pricing_plan_id":"cebpf4jnsgd1na2vs0mg"},{"bike_id":"326268f4-5c9d-4548-8af0-90ddf12a00c1","system_id":"levelo_inurba_marseille","lat":43.336132,"lon":5.392,"is_reserved":false,"is_disabled":false,"rental_uris":{"android":"levelo://app?vid=326268f4-5c9d-4548-8af0-90ddf12a00c1","ios":"levelo://app?vid=326268f4-5c9d-4548-8af0-90ddf12a00c1"},"vehicle_type_id":"4","last_reported":1727107875,"current_range_meters":15200,"station_id":"ce4bhr92rcd13ifvqhsg","pricing_plan_id":"cebpf4jnsgd1na2vs0mg"},{"bike_id":"40b310e1-e2c1-4d86-903d-edc4c0e482af","system_id":"levelo_inurba_marseille","lat":43.3229,"lon":5.3827,"is_reserved":false,"is_disabled":false,"rental_uris":{"android":"levelo://app?vid=40b310e1-e2c1-4d86-903d-edc4c0e482af","ios":"levelo://app?vid=40b310e1-e2c1-4d86-903d-edc4c0e482af"},"vehicle_type_id":"4","last_reported":1727107875,"current_range_meters":16800,"station_id":"ce4bhr12rcd13ifvqhqg","pricing_plan_id":"cebpf4jnsgd1na2vs0mg"},{"bike_id":"13080899-a68b-4dbc-82c4-f13f454c2dcc","system_id":"levelo_inurba_marseille","lat":43.33034,"lon":5.3906,"is_reserved":false,"is_disabled":false,"rental_uris":{"android":"levelo://app?vid=13080899-a68b-4dbc-82c4-f13f454c2dcc","ios":"levelo://app?vid=13080899-a68b-4dbc-82c4-f13f454c2dcc"},"vehicle_type_id":"4","last_reported":1727107875,"current_range_meters":20000,"station_id":"ce4bhr92rcd13ifvqhrg","pricing_plan_id":"cebpf4jnsgd1na2vs0mg"},{"bike_id":"2347817f-e20e-4496-af0e-1f65e3ba6aef","system_id":"levelo_inurba_marseille","lat":43.32115,"lon":5.36769,"is_reserved":false,"is_disabled":false,"rental_uris":{"android":"levelo://app?vid=2347817f-e20e-4496-af0e-1f65e3ba6aef","ios":"levelo://app?vid=2347817f-e20e-4496-af0e-1f65e3ba6aef"},"vehicle_type_id":"4","last_reported":1727107875,"current_range_meters":30800,"station_id":"ce4bhrh2rcd13ifvqhug","pricing_plan_id":"cebpf4jnsgd1na2vs0mg"},{"bike_id":"5d8d8fac-4afc-42fa-8f89-da8b6b89e05e","system_id":"levelo_inurba_marseille","lat":43.25824,"lon":5.39437,"is_reserved":false,"is_disabled":false,"rental_uris":{"android":"levelo://app?vid=5d8d8fac-4afc-42fa-8f89-da8b6b89e05e","ios":"levelo://app?vid=5d8d8fac-4afc-42fa-8f89-da8b6b89e05e"},"vehicle_type_id":"4","last_reported":1727107875,"current_range_meters":36800,"station_id":"ce4bhip2rcd13ifvqft0","pricing_plan_id":"cebpf4jnsgd1na2vs0mg"},{"bike_id":"864b072a-a0fa-4b7c-8086-52b784f1b311","system_id":"levelo_inurba_marseille","lat":43.295441,"lon":5.39561,"is_reserved":false,"is_disabled":false,"rental_uris":{"android":"levelo://app?vid=864b072a-a0fa-4b7c-8086-52b784f1b311","ios":"levelo://app?vid=864b072a-a0fa-4b7c-8086-52b784f1b311"},"vehicle_type_id":"4","last_reported":1727107875,"current_range_meters":4000,"station_id":"ce4bh0h2rcd13ifvqd50","pricing_plan_id":"cebpf4jnsgd1na2vs0mg"},{"bike_id":"4f4136e2-fba5-4b4e-8381-3be540a768c8","system_id":"levelo_inurba_marseille","lat":43.25318,"lon":5.40883,"is_reserved":false,"is_disabled":false,"rental_uris":{"android":"levelo://app?vid=4f4136e2-fba5-4b4e-8381-3be540a768c8","ios":"levelo://app?vid=4f4136e2-fba5-4b4e-8381-3be540a768c8"},"vehicle_type_id":"4","last_reported":1727107875,"current_range_meters":26000,"station_id":"","pricing_plan_id":"cebpf4jnsgd1na2vs0mg"},{"bike_id":"9032d99d-aa2b-4b86-ad18-1ed36ec1e2d3","system_id":"levelo_inurba_marseille","lat":43.28451,"lon":5.359,"is_reserved":false,"is_disabled":false,"rental_uris":{"android":"levelo://app?vid=9032d99d-aa2b-4b86-ad18-1ed36ec1e2d3","ios":"levelo://app?vid=9032d99d-aa2b-4b86-ad18-1ed36ec1e2d3"},"vehicle_type_id":"4","last_reported":1727107875,"current_range_meters":7200,"station_id":"ce4bhah2rcd13ifvqei0","pricing_plan_id":"cebpf4jnsgd1na2vs0mg"},{"bike_id":"89dd32df-05ac-4e0b-b200-7f6a1b68ce2a","system_id":"levelo_inurba_marseille","lat":43.32481,"lon":5.3657,"is_reserved":false,"is_disabled":false,"rental_uris":{"android":"levelo://app?vid=89dd32df-05ac-4e0b-b200-7f6a1b68ce2a","ios":"levelo://app?vid=89dd32df-05ac-4e0b-b200-7f6a1b68ce2a"},"vehicle_type_id":"4","last_reported":1727107875,"current_range_meters":20000,"station_id":"ce4bhs12rcd13ifvqhvg","pricing_plan_id":"cebpf4jnsgd1na2vs0mg"},{"bike_id":"85f1ab84-01bd-4ba5-8ac6-89eb913bd74b","system_id":"levelo_inurba_marseille","lat":43.26056,"lon":5.39399,"is_reserved":false,"is_disabled":false,"rental_uris":{"android":"levelo://app?vid=85f1ab84-01bd-4ba5-8ac6-89eb913bd74b","ios":"levelo://app?vid=85f1ab84-01bd-4ba5-8ac6-89eb913bd74b"},"vehicle_type_id":"4","last_reported":1727107875,"current_range_meters":39200,"station_id":"ce4bhh92rcd13ifvqfj0","pricing_plan_id":"cebpf4jnsgd1na2vs0mg"},{"bike_id":"e4763346-511c-46a3-b51a-e21ab9cff41a","system_id":"levelo_inurba_marseille","lat":43.283818,"lon":5.352405,"is_reserved":false,"is_disabled":false,"rental_uris":{"android":"levelo://app?vid=e4763346-511c-46a3-b51a-e21ab9cff41a","ios":"levelo://app?vid=e4763346-511c-46a3-b51a-e21ab9cff41a"},"vehicle_type_id":"4","last_reported":1727107875,"current_range_meters":7200,"station_id":"ce4bgop2rcd13ifvqc1g","pricing_plan_id":"cebpf4jnsgd1na2vs0mg"},{"bike_id":"31c7ea96-8490-44ec-ba80-cf499684737a","system_id":"levelo_inurba_marseille","lat":43.30137,"lon":5.39866,"is_reserved":false,"is_disabled":false,"rental_uris":{"android":"levelo://app?vid=31c7ea96-8490-44ec-ba80-cf499684737a","ios":"levelo://app?vid=31c7ea96-8490-44ec-ba80-cf499684737a"},"vehicle_type_id":"4","last_reported":1727107875,"current_range_meters":23200,"station_id":"ce4bh0h2rcd13ifvqd40","pricing_plan_id":"cebpf4jnsgd1na2vs0mg"},{"bike_id":"c5ae525c-3cf6-4c75-a13b-55a30d005ad7","system_id":"levelo_inurba_marseille","lat":43.30529,"lon":5.36713,"is_reserved":false,"is_disabled":false,"rental_uris":{"android":"levelo://app?vid=c5ae525c-3cf6-4c75-a13b-55a30d005ad7","ios":"levelo://app?vid=c5ae525c-3cf6-4c75-a13b-55a30d005ad7"},"vehicle_type_id":"4","last_reported":1727107875,"current_range_meters":24800,"station_id":"ce4bgrp2rcd13ifvqc9g","pricing_plan_id":"cebpf4jnsgd1na2vs0mg"},{"bike_id":"7352b3bc-f058-4f73-91f6-9296b70b4973","system_id":"levelo_inurba_marseille","lat":43.27996,"lon":5.41665,"is_reserved":false,"is_disabled":false,"rental_uris":{"android":"levelo://app?vid=7352b3bc-f058-4f73-91f6-9296b70b4973","ios":"levelo://app?vid=7352b3bc-f058-4f73-91f6-9296b70b4973"},"vehicle_type_id":"4","last_reported":1727107875,"current_range_meters":32800,"station_id":"ce4bho12rcd13ifvqh1g","pricing_plan_id":"cebpf4jnsgd1na2vs0mg"},{"bike_id":"00abb212-104d-4c6c-b1de-a7b97b957f12","system_id":"levelo_inurba_marseille","lat":43.29268,"lon":5.40911,"is_reserved":false,"is_disabled":false,"rental_uris":{"android":"levelo://app?vid=00abb212-104d-4c6c-b1de-a7b97b957f12","ios":"levelo://app?vid=00abb212-104d-4c6c-b1de-a7b97b957f12"},"vehicle_type_id":"4","last_reported":1727107875,"current_range_meters":35600,"station_id":"ce4bh192rcd13ifvqdc0","pricing_plan_id":"cebpf4jnsgd1na2vs0mg"},{"bike_id":"ee8b6911-99a8-49c7-96eb-89c84f1dcc3a","system_id":"levelo_inurba_marseille","lat":43.33024,"lon":5.39042,"is_reserved":false,"is_disabled":false,"rental_uris":{"android":"levelo://app?vid=ee8b6911-99a8-49c7-96eb-89c84f1dcc3a","ios":"levelo://app?vid=ee8b6911-99a8-49c7-96eb-89c84f1dcc3a"},"vehicle_type_id":"4","last_reported":1727107875,"current_range_meters":8000,"station_id":"ce4bhr92rcd13ifvqhrg","pricing_plan_id":"cebpf4jnsgd1na2vs0mg"},{"bike_id":"10415b75-7faf-4889-b3af-beabe08f9db4","system_id":"levelo_inurba_marseille","lat":43.29005,"lon":5.35616,"is_reserved":false,"is_disabled":false,"rental_uris":{"android":"levelo://app?vid=10415b75-7faf-4889-b3af-beabe08f9db4","ios":"levelo://app?vid=10415b75-7faf-4889-b3af-beabe08f9db4"},"vehicle_type_id":"4","last_reported":1727107875,"current_range_meters":24000,"station_id":"ce4bhb92rcd13ifvqen0","pricing_plan_id":"cebpf4jnsgd1na2vs0mg"},{"bike_id":"34d3d1ee-8459-4c55-a28b-d354fad28e44","system_id":"levelo_inurba_marseille","lat":43.29804,"lon":5.40405,"is_reserved":false,"is_disabled":false,"rental_uris":{"android":"levelo://app?vid=34d3d1ee-8459-4c55-a28b-d354fad28e44","ios":"levelo://app?vid=34d3d1ee-8459-4c55-a28b-d354fad28e44"},"vehicle_type_id":"4","last_reported":1727107875,"current_range_meters":39200,"station_id":"ce4bh112rcd13ifvqd90","pricing_plan_id":"cebpf4jnsgd1na2vs0mg"},{"bike_id":"dff5ba06-51e8-4ee1-b4ed-badcb0b19c7c","system_id":"levelo_inurba_marseille","lat":43.32544,"lon":5.41425,"is_reserved":false,"is_disabled":false,"rental_uris":{"android":"levelo://app?vid=dff5ba06-51e8-4ee1-b4ed-badcb0b19c7c","ios":"levelo://app?vid=dff5ba06-51e8-4ee1-b4ed-badcb0b19c7c"},"vehicle_type_id":"4","last_reported":1727107875,"current_range_meters":39200,"station_id":"ce4bhq12rcd13ifvqhhg","pricing_plan_id":"cebpf4jnsgd1na2vs0mg"},{"bike_id":"7f686281-9b72-4e2b-9cdf-8c17bbb24735","system_id":"levelo_inurba_marseille","lat":43.294434,"lon":5.397533,"is_reserved":false,"is_disabled":false,"rental_uris":{"android":"levelo://app?vid=7f686281-9b72-4e2b-9cdf-8c17bbb24735","ios":"levelo://app?vid=7f686281-9b72-4e2b-9cdf-8c17bbb24735"},"vehicle_type_id":"4","last_reported":1727107875,"current_range_meters":4400,"station_id":"ce4bh3h2rcd13ifvqdo0","pricing_plan_id":"cebpf4jnsgd1na2vs0mg"},{"bike_id":"5ad8605f-c870-4b98-8e5c-1453dd6fce75","system_id":"levelo_inurba_marseille","lat":43.29552,"lon":5.42292,"is_reserved":false,"is_disabled":false,"rental_uris":{"android":"levelo://app?vid=5ad8605f-c870-4b98-8e5c-1453dd6fce75","ios":"levelo://app?vid=5ad8605f-c870-4b98-8e5c-1453dd6fce75"},"vehicle_type_id":"4","last_reported":1727107875,"current_range_meters":24400,"station_id":"ce4bhph2rcd13ifvqhdg","pricing_plan_id":"cebpf4jnsgd1na2vs0mg"},{"bike_id":"1520b651-f573-4a7b-943e-b3836bcb0180","system_id":"levelo_inurba_marseille","lat":43.295309,"lon":5.375081,"is_reserved":false,"is_disabled":false,"rental_uris":{"android":"levelo://app?vid=1520b651-f573-4a7b-943e-b3836bcb0180","ios":"levelo://app?vid=1520b651-f573-4a7b-943e-b3836bcb0180"},"vehicle_type_id":"4","last_reported":1727107875,"current_range_meters":22800,"station_id":"ce4bgkp2rcd13ifvqbmg","pricing_plan_id":"cebpf4jnsgd1na2vs0mg"},{"bike_id":"c38e2968-f31b-4626-8f1f-89cc527a4b89","system_id":"levelo_inurba_marseille","lat":43.32293,"lon":5.38263,"is_reserved":false,"is_disabled":false,"rental_uris":{"android":"levelo://app?vid=c38e2968-f31b-4626-8f1f-89cc527a4b89","ios":"levelo://app?vid=c38e2968-f31b-4626-8f1f-89cc527a4b89"},"vehicle_type_id":"4","last_reported":1727107875,"current_range_meters":25600,"station_id":"ce4bhr12rcd13ifvqhqg","pricing_plan_id":"cebpf4jnsgd1na2vs0mg"},{"bike_id":"be737433-8462-4f45-81bf-e08a82231746","system_id":"levelo_inurba_marseille","lat":43.28158,"lon":5.42641,"is_reserved":false,"is_disabled":false,"rental_uris":{"android":"levelo://app?vid=be737433-8462-4f45-81bf-e08a82231746","ios":"levelo://app?vid=be737433-8462-4f45-81bf-e08a82231746"},"vehicle_type_id":"4","last_reported":1727107875,"current_range_meters":37600,"station_id":"ce4bhnh2rcd13ifvqgug","pricing_plan_id":"cebpf4jnsgd1na2vs0mg"},{"bike_id":"d4e622ae-cb27-4d77-8dd6-c0cfc2b1a943","system_id":"levelo_inurba_marseille","lat":43.27994,"lon":5.41659,"is_reserved":false,"is_disabled":false,"rental_uris":{"android":"levelo://app?vid=d4e622ae-cb27-4d77-8dd6-c0cfc2b1a943","ios":"levelo://app?vid=d4e622ae-cb27-4d77-8dd6-c0cfc2b1a943"},"vehicle_type_id":"4","last_reported":1727107875,"current_range_meters":28000,"station_id":"ce4bho12rcd13ifvqh1g","pricing_plan_id":"cebpf4jnsgd1na2vs0mg"},{"bike_id":"0951e410-9c52-483e-b532-62d3b2cefa83","system_id":"levelo_inurba_marseille","lat":43.30886,"lon":5.39654,"is_reserved":false,"is_disabled":false,"rental_uris":{"android":"levelo://app?vid=0951e410-9c52-483e-b532-62d3b2cefa83","ios":"levelo://app?vid=0951e410-9c52-483e-b532-62d3b2cefa83"},"vehicle_type_id":"4","last_reported":1727107875,"current_range_meters":18800,"station_id":"ce4bh012rcd13ifvqcv0","pricing_plan_id":"cebpf4jnsgd1na2vs0mg"},{"bike_id":"e54c4bd6-3a79-4809-89e1-b82d96ed085b","system_id":"levelo_inurba_marseille","lat":43.287689,"lon":5.400121,"is_reserved":false,"is_disabled":false,"rental_uris":{"android":"levelo://app?vid=e54c4bd6-3a79-4809-89e1-b82d96ed085b","ios":"levelo://app?vid=e54c4bd6-3a79-4809-89e1-b82d96ed085b"},"vehicle_type_id":"4","last_reported":1727107875,"current_range_meters":11200,"station_id":"ce4bho92rcd13ifvqh3g","pricing_plan_id":"cebpf4jnsgd1na2vs0mg"},{"bike_id":"b8f800ec-2b90-4131-a18c-9be11b24b4b4","system_id":"levelo_inurba_marseille","lat":43.3035,"lon":5.41878,"is_reserved":false,"is_disabled":false,"rental_uris":{"android":"levelo://app?vid=b8f800ec-2b90-4131-a18c-9be11b24b4b4","ios":"levelo://app?vid=b8f800ec-2b90-4131-a18c-9be11b24b4b4"},"vehicle_type_id":"4","last_reported":1727107875,"current_range_meters":28400,"station_id":"ce4bhop2rcd13ifvqh7g","pricing_plan_id":"cebpf4jnsgd1na2vs0mg"},{"bike_id":"39a2ce65-094b-49fb-ab77-0079b55f8dcd","system_id":"levelo_inurba_marseille","lat":43.27906,"lon":5.38019,"is_reserved":false,"is_disabled":false,"rental_uris":{"android":"levelo://app?vid=39a2ce65-094b-49fb-ab77-0079b55f8dcd","ios":"levelo://app?vid=39a2ce65-094b-49fb-ab77-0079b55f8dcd"},"vehicle_type_id":"4","last_reported":1727107875,"current_range_meters":20800,"station_id":"ce4bhf92rcd13ifvqf50","pricing_plan_id":"cebpf4jnsgd1na2vs0mg"},{"bike_id":"b1763935-55f5-4fba-bf69-49c623542c32","system_id":"levelo_inurba_marseille","lat":43.31709,"lon":5.43707,"is_reserved":false,"is_disabled":false,"rental_uris":{"android":"levelo://app?vid=b1763935-55f5-4fba-bf69-49c623542c32","ios":"levelo://app?vid=b1763935-55f5-4fba-bf69-49c623542c32"},"vehicle_type_id":"4","last_reported":1727107875,"current_range_meters":20000,"station_id":"ce4bhp92rcd13ifvqhcg","pricing_plan_id":"cebpf4jnsgd1na2vs0mg"},{"bike_id":"f4cea3c4-0671-413b-a988-6de1527e05dc","system_id":"levelo_inurba_marseille","lat":43.292236,"lon":5.360511,"is_reserved":false,"is_disabled":false,"rental_uris":{"android":"levelo://app?vid=f4cea3c4-0671-413b-a988-6de1527e05dc","ios":"levelo://app?vid=f4cea3c4-0671-413b-a988-6de1527e05dc"},"vehicle_type_id":"4","last_reported":1727107875,"current_range_meters":16400,"station_id":"ce4bhbh2rcd13ifvqeqg","pricing_plan_id":"cebpf4jnsgd1na2vs0mg"},{"bike_id":"7da0f058-3bfe-4d22-992e-db226f430c75","system_id":"levelo_inurba_marseille","lat":43.29556,"lon":5.42285,"is_reserved":false,"is_disabled":false,"rental_uris":{"android":"levelo://app?vid=7da0f058-3bfe-4d22-992e-db226f430c75","ios":"levelo://app?vid=7da0f058-3bfe-4d22-992e-db226f430c75"},"vehicle_type_id":"4","last_reported":1727107875,"current_range_meters":37600,"station_id":"ce4bhph2rcd13ifvqhdg","pricing_plan_id":"cebpf4jnsgd1na2vs0mg"},{"bike_id":"c7a6dc45-d746-4eca-a01d-d6afe1350e51","system_id":"levelo_inurba_marseille","lat":43.28559,"lon":5.42488,"is_reserved":false,"is_disabled":false,"rental_uris":{"android":"levelo://app?vid=c7a6dc45-d746-4eca-a01d-d6afe1350e51","ios":"levelo://app?vid=c7a6dc45-d746-4eca-a01d-d6afe1350e51"},"vehicle_type_id":"4","last_reported":1727107875,"current_range_meters":16000,"station_id":"","pricing_plan_id":"cebpf4jnsgd1na2vs0mg"},{"bike_id":"6ec07700-abbf-45b9-9c6a-1020019b29b5","system_id":"levelo_inurba_marseille","lat":43.32368,"lon":5.3888,"is_reserved":false,"is_disabled":false,"rental_uris":{"android":"levelo://app?vid=6ec07700-abbf-45b9-9c6a-1020019b29b5","ios":"levelo://app?vid=6ec07700-abbf-45b9-9c6a-1020019b29b5"},"vehicle_type_id":"4","last_reported":1727107875,"current_range_meters":12000,"station_id":"ce4bhqp2rcd13ifvqhog","pricing_plan_id":"cebpf4jnsgd1na2vs0mg"},{"bike_id":"1889fbf4-a799-4383-be95-ca7f962972b5","system_id":"levelo_inurba_marseille","lat":43.25118,"lon":5.40317,"is_reserved":false,"is_disabled":false,"rental_uris":{"android":"levelo://app?vid=1889fbf4-a799-4383-be95-ca7f962972b5","ios":"levelo://app?vid=1889fbf4-a799-4383-be95-ca7f962972b5"},"vehicle_type_id":"4","last_reported":1727107875,"current_range_meters":8800,"station_id":"ce4bhlh2rcd13ifvqgig","pricing_plan_id":"cebpf4jnsgd1na2vs0mg"},{"bike_id":"b33084c9-94d6-4f21-b2ec-a7e874510ce1","system_id":"levelo_inurba_marseille","lat":43.29258,"lon":5.40915,"is_reserved":false,"is_disabled":false,"rental_uris":{"android":"levelo://app?vid=b33084c9-94d6-4f21-b2ec-a7e874510ce1","ios":"levelo://app?vid=b33084c9-94d6-4f21-b2ec-a7e874510ce1"},"vehicle_type_id":"4","last_reported":1727107875,"current_range_meters":11600,"station_id":"ce4bh192rcd13ifvqdc0","pricing_plan_id":"cebpf4jnsgd1na2vs0mg"},{"bike_id":"75615b64-c8ee-45bf-ba8b-d5fca9554ae0","system_id":"levelo_inurba_marseille","lat":43.303833,"lon":5.389025,"is_reserved":false,"is_disabled":false,"rental_uris":{"android":"levelo://app?vid=75615b64-c8ee-45bf-ba8b-d5fca9554ae0","ios":"levelo://app?vid=75615b64-c8ee-45bf-ba8b-d5fca9554ae0"},"vehicle_type_id":"4","last_reported":1727107875,"current_range_meters":10000,"station_id":"ce4bgk12rcd13ifvqbi0","pricing_plan_id":"cebpf4jnsgd1na2vs0mg"},{"bike_id":"372e1863-0ee2-41aa-9eed-e699f0dcaa20","system_id":"levelo_inurba_marseille","lat":43.33722,"lon":5.39185,"is_reserved":false,"is_disabled":false,"rental_uris":{"android":"levelo://app?vid=372e1863-0ee2-41aa-9eed-e699f0dcaa20","ios":"levelo://app?vid=372e1863-0ee2-41aa-9eed-e699f0dcaa20"},"vehicle_type_id":"4","last_reported":1727107875,"current_range_meters":33600,"station_id":"ce4bhr92rcd13ifvqhsg","pricing_plan_id":"cebpf4jnsgd1na2vs0mg"},{"bike_id":"86d1be09-b003-4a1d-99e3-9bc557f12836","system_id":"levelo_inurba_marseille","lat":43.28159,"lon":5.42638,"is_reserved":false,"is_disabled":false,"rental_uris":{"android":"levelo://app?vid=86d1be09-b003-4a1d-99e3-9bc557f12836","ios":"levelo://app?vid=86d1be09-b003-4a1d-99e3-9bc557f12836"},"vehicle_type_id":"4","last_reported":1727107875,"current_range_meters":27200,"station_id":"ce4bhnh2rcd13ifvqgug","pricing_plan_id":"cebpf4jnsgd1na2vs0mg"},{"bike_id":"4fa05199-2ec8-47e2-95ba-775c7e0a1b99","system_id":"levelo_inurba_marseille","lat":43.22928,"lon":5.35373,"is_reserved":false,"is_disabled":false,"rental_uris":{"android":"levelo://app?vid=4fa05199-2ec8-47e2-95ba-775c7e0a1b99","ios":"levelo://app?vid=4fa05199-2ec8-47e2-95ba-775c7e0a1b99"},"vehicle_type_id":"4","last_reported":1727107875,"current_range_meters":10800,"station_id":"cpo3532slgdg3j2ikp40","pricing_plan_id":"cebpf4jnsgd1na2vs0mg"},{"bike_id":"47c41899-e660-44df-b55a-11a1868f2f9a","system_id":"levelo_inurba_marseille","lat":43.23054,"lon":5.35486,"is_reserved":false,"is_disabled":false,"rental_uris":{"android":"levelo://app?vid=47c41899-e660-44df-b55a-11a1868f2f9a","ios":"levelo://app?vid=47c41899-e660-44df-b55a-11a1868f2f9a"},"vehicle_type_id":"4","last_reported":1727107875,"current_range_meters":3200,"station_id":"cpo3342slgdg3j2ifvpg","pricing_plan_id":"cebpf4jnsgd1na2vs0mg"},{"bike_id":"99ba3ed5-8949-42f6-bbbf-63f5b339f238","system_id":"levelo_inurba_marseille","lat":43.24648,"lon":5.38889,"is_reserved":false,"is_disabled":false,"rental_uris":{"android":"levelo://app?vid=99ba3ed5-8949-42f6-bbbf-63f5b339f238","ios":"levelo://app?vid=99ba3ed5-8949-42f6-bbbf-63f5b339f238"},"vehicle_type_id":"4","last_reported":1727107875,"current_range_meters":3600,"station_id":"ce4bhg12rcd13ifvqf60","pricing_plan_id":"cebpf4jnsgd1na2vs0mg"},