{"last_updated":1700845592,"ttl":30,"version":"2.2","data":{"bikes":[{"bike_id":"fa09f65a-ac80-425d-8b92-52c5b0c6fb2a","system_id":"levelo_inurba_marseille","lat":43.312239,"lon":5.368562,"is_reserved":false,"is_disabled":false,"rental_uris":{"android":"levelo://app?vid=fa09f65a-ac80-425d-8b92-52c5b0c6fb2a","ios":"levelo://app?vid=fa09f65a-ac80-425d-8b92-52c5b0c6fb2a"},"vehicle_type_id":"4","last_reported":1700845592,"current_range_meters":5200,"station_id":"ce4bgl92rcd13ifvqbq0","pricing_plan_id":"free"},{"bike_id":"b1602c9d-e23b-42e1-9c7b-4f6c28a7c806","system_id":"levelo_inurba_marseille","lat":43.312239,"lon":5.368562,"is_reserved":false,"is_disabled":false,"rental_uris":{"android":"levelo://app?vid=b1602c9d-e23b-42e1-9c7b-4f6c28a7c806","ios":"levelo://app?vid=b1602c9d-e23b-42e1-9c7b-4f6c28a7c806"},"vehicle_type_id":"4","last_reported":1700845592,"current_range_meters":8400,"station_id":"ce4bgl92rcd13ifvqbq0","pricing_plan_id":"free"},{"bike_id":"7623aa1c-0129-42e7-9deb-1acfa8218bd3","system_id":"levelo_inurba_marseille","lat":43.309039,"lon":5.371797,"is_reserved":false,"is_disabled":false,"rental_uris":{"android":"levelo://app?vid=7623aa1c-0129-42e7-9deb-1acfa8218bd3","ios":"levelo://app?vid=7623aa1c-0129-42e7-9deb-1acfa8218bd3"},"vehicle_type_id":"4","last_reported":1700845592,"current_range_meters":16400,"station_id":"ce4bguh2rcd13ifvqckg","pricing_plan_id":"free"},{"bike_id":"0e3a20c0-fbe4-4be1-8a70-167c2d1fc9f6","system_id":"levelo_inurba_marseille","lat":43.30519,"lon":5.36552,"is_reserved":false,"is_disabled":false,"rental_uris":{"android":"levelo://app?vid=0e3a20c0-fbe4-4be1-8a70-167c2d1fc9f6","ios":"levelo://app?vid=0e3a20c0-fbe4-4be1-8a70-167c2d1fc9f6"},"vehicle_type_id":"4","last_reported":1700845592,"current_range_meters":2800,"station_id":"ce4bgs12rcd13ifvqcag","pricing_plan_id":"free"},{"bike_id":"2857e914-2747-4af3-bcea-7180cb4482b0","system_id":"levelo_inurba_marseille","lat":43.311131,"lon":5.377651,"is_reserved":false,"is_disabled":false,"rental_uris":{"android":"levelo://app?vid=2857e914-2747-4af3-bcea-7180cb4482b0","ios":"levelo://app?vid=2857e914-2747-4af3-bcea-7180cb4482b0"},"vehicle_type_id":"4","last_reported":1700845592,"current_range_meters":12000,"station_id":"ce4bgt92rcd13ifvqcg0","pricing_plan_id":"free"},{"bike_id":"2c633e67-9f08-468f-b8bd-465b151eead0","system_id":"levelo_inurba_marseille","lat":43.3112,"lon":5.37781,"is_reserved":false,"is_disabled":false,"rental_uris":{"android":"levelo://app?vid=2c633e67-9f08-468f-b8bd-465b151eead0","ios":"levelo://app?vid=2c633e67-9f08-468f-b8bd-465b151eead0"},"vehicle_type_id":"4","last_reported":1700845592,"current_range_meters":6800,"station_id":"ce4bgt92rcd13ifvqcg0","pricing_plan_id":"free"},{"bike_id":"f427a2c3-6e4a-446b-ae2f-9be8aa7f4122","system_id":"levelo_inurba_marseille","lat":43.31719,"lon":5.376813,"is_reserved":false,"is_disabled":false,"rental_uris":{"android":"levelo://app?vid=f427a2c3-6e4a-446b-ae2f-9be8aa7f4122","ios":"levelo://app?vid=f427a2c3-6e4a-446b-ae2f-9be8aa7f4122"},"vehicle_type_id":"4","last_reported":1700845592,"current_range_meters":28000,"station_id":"ce4bgth2rcd13ifvqch0","pricing_plan_id":"free"},{"bike_id":"573a870a-b6c4-429d-8587-8103772b84bc","system_id":"levelo_inurba_marseille","lat":43.308146,"lon":5.376722,"is_reserved":false,"is_disabled":false,"rental_uris":{"android":"levelo://app?vid=573a870a-b6c4-429d-8587-8103772b84bc","ios":"levelo://app?vid=573a870a-b6c4-429d-8587-8103772b84bc"},"vehicle_type_id":"4","last_reported":1700845592,"current_range_meters":8000,"station_id":"ce4bgv92rcd13ifvqcq0","pricing_plan_id":"free"},{"bike_id":"b898b018-f57d-4901-bab2-fdd15d391de9","system_id":"levelo_inurba_marseille","lat":43.317168,"lon":5.376883,"is_reserved":false,"is_disabled":false,"rental_uris":{"android":"levelo://app?vid=b898b018-f57d-4901-bab2-fdd15d391de9","ios":"levelo://app?vid=b898b018-f57d-4901-bab2-fdd15d391de9"},"vehicle_type_id":"4","last_reported":1700845592,"current_range_meters":30400,"station_id":"ce4bgth2rcd13ifvqch0","pricing_plan_id":"free"},{"bike_id":"d8e15f4d-6288-40f7-b291-05a2913ccdfb","system_id":"levelo_inurba_marseille","lat":43.307945,"lon":5.376487,"is_reserved":false,"is_disabled":false,"rental_uris":{"android":"levelo://app?vid=d8e15f4d-6288-40f7-b291-05a2913ccdfb","ios":"levelo://app?vid=d8e15f4d-6288-40f7-b291-05a2913ccdfb"},"vehicle_type_id":"4","last_reported":1700845592,"current_range_meters":29200,"station_id":"ce4bgv92rcd13ifvqcq0","pricing_plan_id":"free"},{"bike_id":"9c14ff96-8f39-45db-a70b-3e98eb554753","system_id":"levelo_inurba_marseille","lat":43.30304,"lon":5.368987,"is_reserved":false,"is_disabled":false,"rental_uris":{"android":"levelo://app?vid=9c14ff96-8f39-45db-a70b-3e98eb554753","ios":"levelo://app?vid=9c14ff96-8f39-45db-a70b-3e98eb554753"},"vehicle_type_id":"4","last_reported":1700845592,"current_range_meters":11600,"station_id":"ce4bgqh2rcd13ifvqc5g","pricing_plan_id":"free"},{"bike_id":"07cbee22-4a9f-4e1e-bed4-5cb1bd73290b","system_id":"levelo_inurba_marseille","lat":43.30272,"lon":5.36906,"is_reserved":false,"is_disabled":false,"rental_uris":{"android":"levelo://app?vid=07cbee22-4a9f-4e1e-bed4-5cb1bd73290b","ios":"levelo://app?vid=07cbee22-4a9f-4e1e-bed4-5cb1bd73290b"},"vehicle_type_id":"4","last_reported":1700845592,"current_range_meters":20400,"station_id":"","pricing_plan_id":"free"},{"bike_id":"40651570-2caa-481e-83f2-ed9b577fc84a","system_id":"levelo_inurba_marseille","lat":43.323814,"lon":5.374642,"is_reserved":false,"is_disabled":false,"rental_uris":{"android":"levelo://app?vid=40651570-2caa-481e-83f2-ed9b577fc84a","ios":"levelo://app?vid=40651570-2caa-481e-83f2-ed9b577fc84a"},"vehicle_type_id":"4","last_reported":1700845592,"current_range_meters":13200,"station_id":"","pricing_plan_id":"free"},{"bike_id":"6b93a2a8-0b64-4c4f-9291-bd08ab3ac611","system_id":"levelo_inurba_marseille","lat":43.3136,"lon":5.38471,"is_reserved":false,"is_disabled":false,"rental_uris":{"android":"levelo://app?vid=6b93a2a8-0b64-4c4f-9291-bd08ab3ac611","ios":"levelo://app?vid=6b93a2a8-0b64-4c4f-9291-bd08ab3ac611"},"vehicle_type_id":"4","last_reported":1700845592,"current_range_meters":12800,"station_id":"ce4bgt92rcd13ifvqcf0","pricing_plan_id":"free"},{"bike_id":"bcf0a0a6-2ce9-4867-9f17-bfb7b870b05c","system_id":"levelo_inurba_marseille","lat":43.313571,"lon":5.384829,"is_reserved":false,"is_disabled":false,"rental_uris":{"android":"levelo://app?vid=bcf0a0a6-2ce9-4867-9f17-bfb7b870b05c","ios":"levelo://app?vid=bcf0a0a6-2ce9-4867-9f17-bfb7b870b05c"},"vehicle_type_id":"4","last_reported":1700845592,"current_range_meters":18800,"station_id":"ce4bgt92rcd13ifvqcf0","pricing_plan_id":"free"},{"bike_id":"ac830d2c-ad88-4980-b621-56550530413e","system_id":"levelo_inurba_marseille","lat":43.299312,"lon":5.365513,"is_reserved":false,"is_disabled":false,"rental_uris":{"android":"levelo://app?vid=ac830d2c-ad88-4980-b621-56550530413e","ios":"levelo://app?vid=ac830d2c-ad88-4980-b621-56550530413e"},"vehicle_type_id":"4","last_reported":1700845592,"current_range_meters":9600,"station_id":"ce4bgm92rcd13ifvqbr0","pricing_plan_id":"free"},{"bike_id":"98d9a7f3-d05c-488e-9443-90076c7c779d","system_id":"levelo_inurba_marseille","lat":43.298433,"lon":5.362774,"is_reserved":false,"is_disabled":false,"rental_uris":{"android":"levelo://app?vid=98d9a7f3-d05c-488e-9443-90076c7c779d","ios":"levelo://app?vid=98d9a7f3-d05c-488e-9443-90076c7c779d"},"vehicle_type_id":"4","last_reported":1700845592,"current_range_meters":5200,"station_id":"ce4bgpp2rcd13ifvqc3g","pricing_plan_id":"free"},{"bike_id":"1a40b385-68ba-48d5-a1cb-20965b2f9dc5","system_id":"levelo_inurba_marseille","lat":43.320421,"lon":5.384193,"is_reserved":false,"is_disabled":false,"rental_uris":{"android":"levelo://app?vid=1a40b385-68ba-48d5-a1cb-20965b2f9dc5","ios":"levelo://app?vid=1a40b385-68ba-48d5-a1cb-20965b2f9dc5"},"vehicle_type_id":"4","last_reported":1700845592,"current_range_meters":800,"station_id":"","pricing_plan_id":"free"},{"bike_id":"d809876b-a962-422c-9549-d842a4ffc4be","system_id":"levelo_inurba_marseille","lat":43.29908,"lon":5.37468,"is_reserved":false,"is_disabled":false,"rental_uris":{"android":"levelo://app?vid=d809876b-a962-422c-9549-d842a4ffc4be","ios":"levelo://app?vid=d809876b-a962-422c-9549-d842a4ffc4be"},"vehicle_type_id":"4","last_reported":1700845592,"current_range_meters":6000,"station_id":"ce4bgjh2rcd13ifvqbg0","pricing_plan_id":"free"},{"bike_id":"5795743c-dad9-4aec-8999-9376e64526ef","system_id":"levelo_inurba_marseille","lat":43.299243,"lon":5.37481,"is_reserved":false,"is_disabled":false,"rental_uris":{"android":"levelo://app?vid=5795743c-dad9-4aec-8999-9376e64526ef","ios":"levelo://app?vid=5795743c-dad9-4aec-8999-9376e64526ef"},"vehicle_type_id":"4","last_reported":1700845592,"current_range_meters":800,"station_id":"ce4bgjh2rcd13ifvqbg0","pricing_plan_id":"free"},{"bike_id":"57f07daa-f979-41b2-bf81-49ff7a829b2a","system_id":"levelo_inurba_marseille","lat":43.322896,"lon":5.38271,"is_reserved":false,"is_disabled":false,"rental_uris":{"android":"levelo://app?vid=57f07daa-f979-41b2-bf81-49ff7a829b2a","ios":"levelo://app?vid=57f07daa-f979-41b2-bf81-49ff7a829b2a"},"vehicle_type_id":"4","last_reported":1700845592,"current_range_meters":6400,"station_id":"ce4bhr12rcd13ifvqhqg","pricing_plan_id":"free"},{"bike_id":"22dcc355-c6c3-4950-90c4-bd4abfc9165f","system_id":"levelo_inurba_marseille","lat":43.328371,"lon":5.366909,"is_reserved":false,"is_disabled":false,"rental_uris":{"android":"levelo://app?vid=22dcc355-c6c3-4950-90c4-bd4abfc9165f","ios":"levelo://app?vid=22dcc355-c6c3-4950-90c4-bd4abfc9165f"},"vehicle_type_id":"4","last_reported":1700845592,"current_range_meters":0,"station_id":"ce4bhs92rcd13ifvqi0g","pricing_plan_id":"free"},{"bike_id":"17eaad21-6c53-40cb-ae2e-4bb5c21133fe","system_id":"levelo_inurba_marseille","lat":43.297163,"lon":5.365866,"is_reserved":false,"is_disabled":false,"rental_uris":{"android":"levelo://app?vid=17eaad21-6c53-40cb-ae2e-4bb5c21133fe","ios":"levelo://app?vid=17eaad21-6c53-40cb-ae2e-4bb5c21133fe"},"vehicle_type_id":"4","last_reported":1700845592,"current_range_meters":31200,"station_id":"ce4bgn12rcd13ifvqbt0","pricing_plan_id":"free"},{"bike_id":"8eccf735-9f13-4d66-89ee-04a7bf59eec2","system_id":"levelo_inurba_marseille","lat":43.32336,"lon":5.383017,"is_reserved":false,"is_disabled":false,"rental_uris":{"android":"levelo://app?vid=8eccf735-9f13-4d66-89ee-04a7bf59eec2","ios":"levelo://app?vid=8eccf735-9f13-4d66-89ee-04a7bf59eec2"},"vehicle_type_id":"4","last_reported":1700845592,"current_range_meters":31200,"station_id":"","pricing_plan_id":"free"},{"bike_id":"4d7509f5-9559-42ca-a60d-bef9e80f0981","system_id":"levelo_inurba_marseille","lat":43.2996,"lon":5.37923,"is_reserved":false,"is_disabled":false,"rental_uris":{"android":"levelo://app?vid=4d7509f5-9559-42ca-a60d-bef9e80f0981","ios":"levelo://app?vid=4d7509f5-9559-42ca-a60d-bef9e80f0981"},"vehicle_type_id":"4","last_reported":1700845592,"current_range_meters":0,"station_id":"","pricing_plan_id":"free"},{"bike_id":"d3044786-2431-4822-96f8-37c5954b4b4c","system_id":"levelo_inurba_marseille","lat":43.3234,"lon":5.38328,"is_reserved":false,"is_disabled":false,"rental_uris":{"android":"levelo://app?vid=d3044786-2431-4822-96f8-37c5954b4b4c","ios":"levelo://app?vid=d3044786-2431-4822-96f8-37c5954b4b4c"},"vehicle_type_id":"4","last_reported":1700845592,"current_range_meters":29600,"station_id":"","pricing_plan_id":"free"},{"bike_id":"a4603200-a956-4b27-bc52-8f22fc00857f","system_id":"levelo_inurba_marseille","lat":43.29602,"lon":5.36826,"is_reserved":false,"is_disabled":false,"rental_uris":{"android":"levelo://app?vid=a4603200-a956-4b27-bc52-8f22fc00857f","ios":"levelo://app?vid=a4603200-a956-4b27-bc52-8f22fc00857f"},"vehicle_type_id":"4","last_reported":1700845592,"current_range_meters":13200,"station_id":"","pricing_plan_id":"free"},{"bike_id":"a0021df7-a6c8-4e69-8abf-5cf8a86c043f","system_id":"levelo_inurba_marseille","lat":43.30956,"lon":5.39031,"is_reserved":false,"is_disabled":false,"rental_uris":{"android":"levelo://app?vid=a0021df7-a6c8-4e69-8abf-5cf8a86c043f","ios":"levelo://app?vid=a0021df7-a6c8-4e69-8abf-5cf8a86c043f"},"vehicle_type_id":"4","last_reported":1700845592,"current_range_meters":31200,"station_id":"ce4bgup2rcd13ifvqco0","pricing_plan_id":"free"},{"bike_id":"ff822368-00cb-4dfa-8697-959628b6f270","system_id":"levelo_inurba_marseille","lat":43.32913,"lon":5.35911,"is_reserved":false,"is_disabled":false,"rental_uris":{"android":"levelo://app?vid=ff822368-00cb-4dfa-8697-959628b6f270","ios":"levelo://app?vid=ff822368-00cb-4dfa-8697-959628b6f270"},"vehicle_type_id":"4","last_reported":1700845592,"current_range_meters":20800,"station_id":"","pricing_plan_id":"free"},{"bike_id":"eefe7c29-cd61-4d4e-8b64-3a78d07b8576","system_id":"levelo_inurba_marseille","lat":43.296921,"lon":5.376579,"is_reserved":false,"is_disabled":false,"rental_uris":{"android":"levelo://app?vid=eefe7c29-cd61-4d4e-8b64-3a78d07b8576","ios":"levelo://app?vid=eefe7c29-cd61-4d4e-8b64-3a78d07b8576"},"vehicle_type_id":"4","last_reported":1700845592,"current_range_meters":0,"station_id":"ce4bgkh2rcd13ifvqbl0","pricing_plan_id":"free"},{"bike_id":"6691fc5c-1166-4093-8d07-bb509178cc97","system_id":"levelo_inurba_marseille","lat":43.298037,"lon":5.381066,"is_reserved":false,"is_disabled":false,"rental_uris":{"android":"levelo://app?vid=6691fc5c-1166-4093-8d07-bb509178cc97","ios":"levelo://app?vid=6691fc5c-1166-4093-8d07-bb509178cc97"},"vehicle_type_id":"4","last_reported":1700845592,"current_range_meters":24400,"station_id":"ce4bgip2rcd13ifvqbb0","pricing_plan_id":"free"},{"bike_id":"6ed4c866-f812-4111-88e5-96a009b5d47e","system_id":"levelo_inurba_marseille","lat":43.304274,"lon":5.388873,"is_reserved":false,"is_disabled":false,"rental_uris":{"android":"levelo://app?vid=6ed4c866-f812-4111-88e5-96a009b5d47e","ios":"levelo://app?vid=6ed4c866-f812-4111-88e5-96a009b5d47e"},"vehicle_type_id":"4","last_reported":1700845592,"current_range_meters":0,"station_id":"ce4bgk12rcd13ifvqbi0","pricing_plan_id":"free"},{"bike_id":"c36acf9b-d510-41d3-8376-baafb3a80ee5","system_id":"levelo_inurba_marseille","lat":43.299717,"lon":5.384845,"is_reserved":false,"is_disabled":false,"rental_uris":{"android":"levelo://app?vid=c36acf9b-d510-41d3-8376-baafb3a80ee5","ios":"levelo://app?vid=c36acf9b-d510-41d3-8376-baafb3a80ee5"},"vehicle_type_id":"4","last_reported":1700845592,"current_range_meters":0,"station_id":"ce4bgj92rcd13ifvqbd0","pricing_plan_id":"free"},{"bike_id":"6b621983-5e9e-42f7-990d-ad5a093820d2","system_id":"levelo_inurba_marseille","lat":43.293801,"lon":5.363066,"is_reserved":false,"is_disabled":false,"rental_uris":{"android":"levelo://app?vid=6b621983-5e9e-42f7-990d-ad5a093820d2","ios":"levelo://app?vid=6b621983-5e9e-42f7-990d-ad5a093820d2"},"vehicle_type_id":"4","last_reported":1700845592,"current_range_meters":4000,"station_id":"","pricing_plan_id":"free"},{"bike_id":"3e7fce3a-6f1f-440c-b1f0-7f00c4d6e71a","system_id":"levelo_inurba_marseille","lat":43.304296,"lon":5.397513,"is_reserved":false,"is_disabled":false,"rental_uris":{"android":"levelo://app?vid=3e7fce3a-6f1f-440c-b1f0-7f00c4d6e71a","ios":"levelo://app?vid=3e7fce3a-6f1f-440c-b1f0-7f00c4d6e71a"},"vehicle_type_id":"4","last_reported":1700845592,"current_range_meters":22800,"station_id":"ce4bh092rcd13ifvqd20","pricing_plan_id":"free"},{"bike_id":"80dfccfe-f3d3-484f-919c-511419ecfb2d","system_id":"levelo_inurba_marseille","lat":43.293259,"lon":5.371586,"is_reserved":false,"is_disabled":false,"rental_uris":{"android":"levelo://app?vid=80dfccfe-f3d3-484f-919c-511419ecfb2d","ios":"levelo://app?vid=80dfccfe-f3d3-484f-919c-511419ecfb2d"},"vehicle_type_id":"4","last_reported":1700845592,"current_range_meters":28800,"station_id":"ce4bgh92rcd13ifvqb40","pricing_plan_id":"free"},{"bike_id":"004703fc-e515-4176-a270-6f0ef9d52c09","system_id":"levelo_inurba_marseille","lat":43.30311,"lon":5.39207,"is_reserved":false,"is_disabled":false,"rental_uris":{"android":"levelo://app?vid=004703fc-e515-4176-a270-6f0ef9d52c09","ios":"levelo://app?vid=004703fc-e515-4176-a270-6f0ef9d52c09"},"vehicle_type_id":"4","last_reported":1700845592,"current_range_meters":0,"station_id":"ce4bgkh2rcd13ifvqbk0","pricing_plan_id":"free"},{"bike_id":"a6cf121d-dff4-4199-8228-8918b47acd99","system_id":"levelo_inurba_marseille","lat":43.300852,"lon":5.390859,"is_reserved":false,"is_disabled":false,"rental_uris":{"android":"levelo://app?vid=a6cf121d-dff4-4199-8228-8918b47acd99","ios":"levelo://app?vid=a6cf121d-dff4-4199-8228-8918b47acd99"},"vehicle_type_id":"4","last_reported":1700845592,"current_range_meters":24800,"station_id":"ce4bh192rcd13ifvqdb0","pricing_plan_id":"free"},{"bike_id":"0a995d7f-bd38-4de2-99cc-8d12fee89188","system_id":"levelo_inurba_marseille","lat":43.298764,"lon":5.388973,"is_reserved":false,"is_disabled":false,"rental_uris":{"android":"levelo://app?vid=0a995d7f-bd38-4de2-99cc-8d12fee89188","ios":"levelo://app?vid=0a995d7f-bd38-4de2-99cc-8d12fee89188"},"vehicle_type_id":"4","last_reported":1700845592,"current_range_meters":20800,"station_id":"ce4bh392rcd13ifvqdl0","pricing_plan_id":"free"},{"bike_id":"43c50d94-7387-4cb1-bf6d-9565bc938ca0","system_id":"levelo_inurba_marseille","lat":43.292663,"lon":5.376394,"is_reserved":false,"is_disabled":false,"rental_uris":{"android":"levelo://app?vid=43c50d94-7387-4cb1-bf6d-9565bc938ca0","ios":"levelo://app?vid=43c50d94-7387-4cb1-bf6d-9565bc938ca0"},"vehicle_type_id":"4","last_reported":1700845592,"current_range_meters":20400,"station_id":"ce4bgi12rcd13ifvqb80","pricing_plan_id":"free"},{"bike_id":"48049225-cd4c-4cdf-8273-3920fc46cb1e","system_id":"levelo_inurba_marseille","lat":43.29872,"lon":5.38903,"is_reserved":false,"is_disabled":false,"rental_uris":{"android":"levelo://app?vid=48049225-cd4c-4cdf-8273-3920fc46cb1e","ios":"levelo://app?vid=48049225-cd4c-4cdf-8273-3920fc46cb1e"},"vehicle_type_id":"4","last_reported":1700845592,"current_range_meters":13200,"station_id":"ce4bh392rcd13ifvqdl0","pricing_plan_id":"free"},{"bike_id":"178eb7c0-6a62-4bf1-a56f-a82d0e477eba","system_id":"levelo_inurba_marseille","lat":43.333593,"lon":5.360035,"is_reserved":false,"is_disabled":false,"rental_uris":{"android":"levelo://app?vid=178eb7c0-6a62-4bf1-a56f-a82d0e477eba","ios":"levelo://app?vid=178eb7c0-6a62-4bf1-a56f-a82d0e477eba"},"vehicle_type_id":"4","last_reported":1700845592,"current_range_meters":4000,"station_id":"","pricing_plan_id":"free"},{"bike_id":"a2f3f204-fb4f-4e6f-ba22-de5fab3cf64c","system_id":"levelo_inurba_marseille","lat":43.29201,"lon":5.3579,"is_reserved":false,"is_disabled":false,"rental_uris":{"android":"levelo://app?vid=a2f3f204-fb4f-4e6f-ba22-de5fab3cf64c","ios":"levelo://app?vid=a2f3f204-fb4f-4e6f-ba22-de5fab3cf64c"},"vehicle_type_id":"4","last_reported":1700845592,"current_range_meters":15600,"station_id":"ce4bhb12rcd13ifvqel0","pricing_plan_id":"free"},{"bike_id":"b170a411-a5ee-408d-916a-69b7963a8676","system_id":"levelo_inurba_marseille","lat":43.309038,"lon":5.396546,"is_reserved":false,"is_disabled":false,"rental_uris":{"android":"levelo://app?vid=b170a411-a5ee-408d-916a-69b7963a8676","ios":"levelo://app?vid=b170a411-a5ee-408d-916a-69b7963a8676"},"vehicle_type_id":"4","last_reported":1700845592,"current_range_meters":16000,"station_id":"ce4bh012rcd13ifvqcv0","pricing_plan_id":"free"},{"bike_id":"1d10a1b1-d55f-4279-928a-9c6858f32ca9","system_id":"levelo_inurba_marseille","lat":43.33211,"lon":5.38112,"is_reserved":false,"is_disabled":false,"rental_uris":{"android":"levelo://app?vid=1d10a1b1-d55f-4279-928a-9c6858f32ca9","ios":"levelo://app?vid=1d10a1b1-d55f-4279-928a-9c6858f32ca9"},"vehicle_type_id":"4","last_reported":1700845592,"current_range_meters":0,"station_id":"","pricing_plan_id":"free"},{"bike_id":"1f49fb3e-6391-4e2d-9086-f3983c9a9329","system_id":"levelo_inurba_marseille","lat":43.29529,"lon":5.385581,"is_reserved":false,"is_disabled":false,"rental_uris":{"android":"levelo://app?vid=1f49fb3e-6391-4e2d-9086-f3983c9a9329","ios":"levelo://app?vid=1f49fb3e-6391-4e2d-9086-f3983c9a9329"},"vehicle_type_id":"4","last_reported":1700845592,"current_range_meters":30400,"station_id":"ce4bgih2rcd13ifvqba0","pricing_plan_id":"free"},{"bike_id":"f9d6f870-3a6b-4066-953d-699b3c4fde63","system_id":"levelo_inurba_marseille","lat":43.29529,"lon":5.385581,"is_reserved":false,"is_disabled":false,"rental_uris":{"android":"levelo://app?vid=f9d6f870-3a6b-4066-953d-699b3c4fde63","ios":"levelo://app?vid=f9d6f870-3a6b-4066-953d-699b3c4fde63"},"vehicle_type_id":"4","last_reported":1700845592,"current_range_meters":26800,"station_id":"ce4bgih2rcd13ifvqba0","pricing_plan_id":"free"},{"bike_id":"ce58d276-b958-49f6-9d7d-612d437fdf16","system_id":"levelo_inurba_marseille","lat":43.298764,"lon":5.388973,"is_reserved":false,"is_disabled":false,"rental_uris":{"android":"levelo://app?vid=ce58d276-b958-49f6-9d7d-612d437fdf16","ios":"levelo://app?vid=ce58d276-b958-49f6-9d7d-612d437fdf16"},"vehicle_type_id":"4","last_reported":1700845592,"current_range_meters":6800,"station_id":"ce4bh392rcd13ifvqdl0","pricing_plan_id":"free"},{"bike_id":"9ac48132-4453-447f-ab0d-2c0bde513061","system_id":"levelo_inurba_marseille","lat":43.294162,"lon":5.386292,"is_reserved":false,"is_disabled":false,"rental_uris":{"android":"levelo://app?vid=9ac48132-4453-447f-ab0d-2c0bde513061","ios":"levelo://app?vid=9ac48132-4453-447f-ab0d-2c0bde513061"},"vehicle_type_id":"4","last_reported":1700845592,"current_range_meters":12000,"station_id":"ce4bh2h2rcd13ifvqdh0","pricing_plan_id":"free"},{"bike_id":"2c409700-fc9f-4264-af11-eb106618cdfa","system_id":"levelo_inurba_marseille","lat":43.29416,"lon":5.38632,"is_reserved":false,"is_disabled":false,"rental_uris":{"android":"levelo://app?vid=2c409700-fc9f-4264-af11-eb106618cdfa","ios":"levelo://app?vid=2c409700-fc9f-4264-af11-eb106618cdfa"},"vehicle_type_id":"4","last_reported":1700845592,"current_range_meters":31200,"station_id":"ce4bh2h2rcd13ifvqdh0","pricing_plan_id":"free"},{"bike_id":"81b56c2d-ec79-406c-a2b2-0c657836a180","system_id":"levelo_inurba_marseille","lat":43.292644,"lon":5.384257,"is_reserved":false,"is_disabled":false,"rental_uris":{"android":"levelo://app?vid=81b56c2d-ec79-406c-a2b2-0c657836a180","ios":"levelo://app?vid=81b56c2d-ec79-406c-a2b2-0c657836a180"},"vehicle_type_id":"4","last_reported":1700845592,"current_range_meters":400,"station_id":"ce4bh692rcd13ifvqea0","pricing_plan_id":"free"},{"bike_id":"12c8e903-644c-4586-b7b9-a99beb142c7f","system_id":"levelo_inurba_marseille","lat":43.292644,"lon":5.384257,"is_reserved":false,"is_disabled":false,"rental_uris":{"android":"levelo://app?vid=12c8e903-644c-4586-b7b9-a99beb142c7f","ios":"levelo://app?vid=12c8e903-644c-4586-b7b9-a99beb142c7f"},"vehicle_type_id":"4","last_reported":1700845592,"current_range_meters":19200,"station_id":"ce4bh692rcd13ifvqea0","pricing_plan_id":"free"},{"bike_id":"4f080e12-3419-4997-bd7e-b716121d92a2","system_id":"levelo_inurba_marseille","lat":43.330391,"lon":5.3892,"is_reserved":false,"is_disabled":false,"rental_uris":{"android":"levelo://app?vid=4f080e12-3419-4997-bd7e-b716121d92a2","ios":"levelo://app?vid=4f080e12-3419-4997-bd7e-b716121d92a2"},"vehicle_type_id":"4","last_reported":1700845592,"current_range_meters":0,"station_id":"ce4bhr92rcd13ifvqhrg","pricing_plan_id":"free"},{"bike_id":"5c3fd063-6e60-465e-b6e4-aa32bd226fd0","system_id":"levelo_inurba_marseille","lat":43.330442,"lon":5.389148,"is_reserved":false,"is_disabled":false,"rental_uris":{"android":"levelo://app?vid=5c3fd063-6e60-465e-b6e4-aa32bd226fd0","ios":"levelo://app?vid=5c3fd063-6e60-465e-b6e4-aa32bd226fd0"},"vehicle_type_id":"4","last_reported":1700845592,"current_range_meters":30400,"station_id":"ce4bhr92rcd13ifvqhrg","pricing_plan_id":"free"},{"bike_id":"77337df3-29b7-4004-b02a-bbad576ed4b1","system_id":"levelo_inurba_marseille","lat":43.28856,"lon":5.358371,"is_reserved":false,"is_disabled":false,"rental_uris":{"android":"levelo://app?vid=77337df3-29b7-4004-b02a-bbad576ed4b1","ios":"levelo://app?vid=77337df3-29b7-4004-b02a-bbad576ed4b1"},"vehicle_type_id":"4","last_reported":1700845592,"current_range_meters":12800,"station_id":"ce4bhb12rcd13ifvqem0","pricing_plan_id":"free"},{"bike_id":"bf1bc5f3-b01d-4664-8428-678a47cdc34e","system_id":"levelo_inurba_marseille","lat":43.33742,"lon":5.37462,"is_reserved":false,"is_disabled":false,"rental_uris":{"android":"levelo://app?vid=bf1bc5f3-b01d-4664-8428-678a47cdc34e","ios":"levelo://app?vid=bf1bc5f3-b01d-4664-8428-678a47cdc34e"},"vehicle_type_id":"4","last_reported":1700845592,"current_range_meters":30000,"station_id":"","pricing_plan_id":"free"},{"bike_id":"c1a8aa0a-595a-450b-ac47-20253974fcea","system_id":"levelo_inurba_marseille","lat":43.33745,"lon":5.37444,"is_reserved":false,"is_disabled":false,"rental_uris":{"android":"levelo://app?vid=c1a8aa0a-595a-450b-ac47-20253974fcea","ios":"levelo://app?vid=c1a8aa0a-595a-450b-ac47-20253974fcea"},"vehicle_type_id":"4","last_reported":1700845592,"current_range_meters":24400,"station_id":"","pricing_plan_id":"free"},{"bike_id":"41bc16b2-0876-4341-91d5-343902801537","system_id":"levelo_inurba_marseille","lat":43.30931,"lon":5.40143,"is_reserved":false,"is_disabled":false,"rental_uris":{"android":"levelo://app?vid=41bc16b2-0876-4341-91d5-343902801537","ios":"levelo://app?vid=41bc16b2-0876-4341-91d5-343902801537"},"vehicle_type_id":"4","last_reported":1700845592,"current_range_meters":28400,"station_id":"ce4bgvp2rcd13ifvqct0","pricing_plan_id":"free"},{"bike_id":"a0a312cb-4bd6-45b0-8c4a-4984cdfc6616","system_id":"levelo_inurba_marseille","lat":43.309371,"lon":5.401449,"is_reserved":false,"is_disabled":false,"rental_uris":{"android":"levelo://app?vid=a0a312cb-4bd6-45b0-8c4a-4984cdfc6616","ios":"levelo://app?vid=a0a312cb-4bd6-45b0-8c4a-4984cdfc6616"},"vehicle_type_id":"4","last_reported":1700845592,"current_range_meters":28800,"station_id":"ce4bgvp2rcd13ifvqct0","pricing_plan_id":"free"},{"bike_id":"6d892d9f-8bb7-466b-91e4-6b4cd5e06b20","system_id":"levelo_inurba_marseille","lat":43.337758,"lon":5.37415,"is_reserved":false,"is_disabled":false,"rental_uris":{"android":"levelo://app?vid=6d892d9f-8bb7-466b-91e4-6b4cd5e06b20","ios":"levelo://app?vid=6d892d9f-8bb7-466b-91e4-6b4cd5e06b20"},"vehicle_type_id":"4","last_reported":1700845592,"current_range_meters":23600,"station_id":"","pricing_plan_id":"free"},{"bike_id":"cd953101-f590-48bd-ba3f-8b454d43d20d","system_id":"levelo_inurba_marseille","lat":43.301117,"lon":5.398795,"is_reserved":false,"is_disabled":false,"rental_uris":{"android":"levelo://app?vid=cd953101-f590-48bd-ba3f-8b454d43d20d","ios":"levelo://app?vid=cd953101-f590-48bd-ba3f-8b454d43d20d"},"vehicle_type_id":"4","last_reported":1700845592,"current_range_meters":16000,"station_id":"ce4bh0h2rcd13ifvqd40","pricing_plan_id":"free"},{"bike_id":"2236b2ba-3efd-4e66-be8b-bf71ca0e49c4","system_id":"levelo_inurba_marseille","lat":43.337849,"lon":5.37434,"is_reserved":false,"is_disabled":false,"rental_uris":{"android":"levelo://app?vid=2236b2ba-3efd-4e66-be8b-bf71ca0e49c4","ios":"levelo://app?vid=2236b2ba-3efd-4e66-be8b-bf71ca0e49c4"},"vehicle_type_id":"4","last_reported":1700845592,"current_range_meters":23600,"station_id":"","pricing_plan_id":"free"},{"bike_id":"6907cd85-588b-4065-a1b9-d36b4dccc68e","system_id":"levelo_inurba_marseille","lat":43.301117,"lon":5.398795,"is_reserved":false,"is_disabled":false,"rental_uris":{"android":"levelo://app?vid=6907cd85-588b-4065-a1b9-d36b4dccc68e","ios":"levelo://app?vid=6907cd85-588b-4065-a1b9-d36b4dccc68e"},"vehicle_type_id":"4","last_reported":1700845592,"current_range_meters":5600,"station_id":"ce4bh0h2rcd13ifvqd40","pricing_plan_id":"free"},{"bike_id":"3e70bddd-7005-4b10-9770-5395eccc684c","system_id":"levelo_inurba_marseille","lat":43.28727,"lon":5.36078,"is_reserved":false,"is_disabled":false,"rental_uris":{"android":"levelo://app?vid=3e70bddd-7005-4b10-9770-5395eccc684c","ios":"levelo://app?vid=3e70bddd-7005-4b10-9770-5395eccc684c"},"vehicle_type_id":"4","last_reported":1700845592,"current_range_meters":13600,"station_id":"cki0cbj6b192h4jlfktg","pricing_plan_id":"free"},{"bike_id":"26e614ae-3870-41a6-9646-dec166df60d7","system_id":"levelo_inurba_marseille","lat":43.28727,"lon":5.36078,"is_reserved":false,"is_disabled":false,"rental_uris":{"android":"levelo://app?vid=26e614ae-3870-41a6-9646-dec166df60d7","ios":"levelo://app?vid=26e614ae-3870-41a6-9646-dec166df60d7"},"vehicle_type_id":"4","last_reported":1700845592,"current_range_meters":27600,"station_id":"cki0cbj6b192h4jlfktg","pricing_plan_id":"free"},{"bike_id":"9c82e784-18b4-4710-9edd-9359c83a16c4","system_id":"levelo_inurba_marseille","lat":43.28727,"lon":5.36078,"is_reserved":false,"is_disabled":false,"rental_uris":{"android":"levelo://app?vid=9c82e784-18b4-4710-9edd-9359c83a16c4","ios":"levelo://app?vid=9c82e784-18b4-4710-9edd-9359c83a16c4"},"vehicle_type_id":"4","last_reported":1700845592,"current_range_meters":26800,"station_id":"cki0cbj6b192h4jlfktg","pricing_plan_id":"free"},{"bike_id":"417ce9f1-2ba8-44bf-9265-afae519104ec","system_id":"levelo_inurba_marseille","lat":43.286591,"lon":5.363346,"is_reserved":false,"is_disabled":false,"rental_uris":{"android":"levelo://app?vid=417ce9f1-2ba8-44bf-9265-afae519104ec","ios":"levelo://app?vid=417ce9f1-2ba8-44bf-9265-afae519104ec"},"vehicle_type_id":"4","last_reported":1700845592,"current_range_meters":2000,"station_id":"ce4bhah2rcd13ifvqej0","pricing_plan_id":"free"},{"bike_id":"3014e86e-14cc-4475-9f69-3889850bb3f3","system_id":"levelo_inurba_marseille","lat":43.295196,"lon":5.39397,"is_reserved":false,"is_disabled":false,"rental_uris":{"android":"levelo://app?vid=3014e86e-14cc-4475-9f69-3889850bb3f3","ios":"levelo://app?vid=3014e86e-14cc-4475-9f69-3889850bb3f3"},"vehicle_type_id":"4","last_reported":1700845592,"current_range_meters":20400,"station_id":"ce4bh292rcd13ifvqdf0","pricing_plan_id":"free"},{"bike_id":"3fc2ff44-a250-4f5d-b91c-19cfc80ee4ce","system_id":"levelo_inurba_marseille","lat":43.286591,"lon":5.363346,"is_reserved":false,"is_disabled":false,"rental_uris":{"android":"levelo://app?vid=3fc2ff44-a250-4f5d-b91c-19cfc80ee4ce","ios":"levelo://app?vid=3fc2ff44-a250-4f5d-b91c-19cfc80ee4ce"},"vehicle_type_id":"4","last_reported":1700845592,"current_range_meters":20000,"station_id":"ce4bhah2rcd13ifvqej0","pricing_plan_id":"free"},{"bike_id":"0201c160-28fd-4aa3-8184-0d5dbd07d71a","system_id":"levelo_inurba_marseille","lat":43.302759,"lon":5.400793,"is_reserved":false,"is_disabled":false,"rental_uris":{"android":"levelo://app?vid=0201c160-28fd-4aa3-8184-0d5dbd07d71a","ios":"levelo://app?vid=0201c160-28fd-4aa3-8184-0d5dbd07d71a"},"vehicle_type_id":"4","last_reported":1700845592,"current_range_meters":30400,"station_id":"ce4bgvh2rcd13ifvqcs0","pricing_plan_id":"free"},{"bike_id":"1504c115-c61c-40a2-8b77-5e7beb1c12e9","system_id":"levelo_inurba_marseille","lat":43.28619,"lon":5.37063,"is_reserved":false,"is_disabled":false,"rental_uris":{"android":"levelo://app?vid=1504c115-c61c-40a2-8b77-5e7beb1c12e9","ios":"levelo://app?vid=1504c115-c61c-40a2-8b77-5e7beb1c12e9"},"vehicle_type_id":"4","last_reported":1700845592,"current_range_meters":10000,"station_id":"ce4bht12rcd13ifvqi60","pricing_plan_id":"free"},{"bike_id":"cfd94465-6ec4-49ce-be7c-f09dcb0038cc","system_id":"levelo_inurba_marseille","lat":43.302759,"lon":5.400793,"is_reserved":false,"is_disabled":false,"rental_uris":{"android":"levelo://app?vid=cfd94465-6ec4-49ce-be7c-f09dcb0038cc","ios":"levelo://app?vid=cfd94465-6ec4-49ce-be7c-f09dcb0038cc"},"vehicle_type_id":"4","last_reported":1700845592,"current_range_meters":31200,"station_id":"ce4bgvh2rcd13ifvqcs0","pricing_plan_id":"free"},{"bike_id":"1adcfe5d-ef0a-42f0-ad4f-83098bf49b4e","system_id":"levelo_inurba_marseille","lat":43.28612,"lon":5.37066,"is_reserved":false,"is_disabled":false,"rental_uris":{"android":"levelo://app?vid=1adcfe5d-ef0a-42f0-ad4f-83098bf49b4e","ios":"levelo://app?vid=1adcfe5d-ef0a-42f0-ad4f-83098bf49b4e"},"vehicle_type_id":"4","last_reported":1700845592,"current_range_meters":12400,"station_id":"ce4bht12rcd13ifvqi60","pricing_plan_id":"free"},{"bike_id":"9f3ea0ae-761e-43b1-ad64-979f3efc0236","system_id":"levelo_inurba_marseille","lat":43.330513,"lon":5.396187,"is_reserved":false,"is_disabled":false,"rental_uris":{"android":"levelo://app?vid=9f3ea0ae-761e-43b1-ad64-979f3efc0236","ios":"levelo://app?vid=9f3ea0ae-761e-43b1-ad64-979f3efc0236"},"vehicle_type_id":"4","last_reported":1700845592,"current_range_meters":26000,"station_id":"","pricing_plan_id":"free"},{"bike_id":"ef79c081-fe59-4b22-8722-415e4c3164de","system_id":"levelo_inurba_marseille","lat":43.291994,"lon":5.392907,"is_reserved":false,"is_disabled":false,"rental_uris":{"android":"levelo://app?vid=ef79c081-fe59-4b22-8722-415e4c3164de","ios":"levelo://app?vid=ef79c081-fe59-4b22-8722-415e4c3164de"},"vehicle_type_id":"4","last_reported":1700845592,"current_range_meters":16000,"station_id":"ce4bh192rcd13ifvqdd0","pricing_plan_id":"free"},{"bike_id":"3e584417-6abd-49d8-945f-1e68f55ee37f","system_id":"levelo_inurba_marseille","lat":43.284534,"lon":5.358662,"is_reserved":false,"is_disabled":false,"rental_uris":{"android":"levelo://app?vid=3e584417-6abd-49d8-945f-1e68f55ee37f","ios":"levelo://app?vid=3e584417-6abd-49d8-945f-1e68f55ee37f"},"vehicle_type_id":"4","last_reported":1700845592,"current_range_meters":18400,"station_id":"ce4bhah2rcd13ifvqei0","pricing_plan_id":"free"},{"bike_id":"c5d3fc5a-1e34-4b4f-a13d-195c4b55d840","system_id":"levelo_inurba_marseille","lat":43.284538,"lon":5.358657,"is_reserved":false,"is_disabled":false,"rental_uris":{"android":"levelo://app?vid=c5d3fc5a-1e34-4b4f-a13d-195c4b55d840","ios":"levelo://app?vid=c5d3fc5a-1e34-4b4f-a13d-195c4b55d840"},"vehicle_type_id":"4","last_reported":1700845592,"current_range_meters":0,"station_id":"ce4bhah2rcd13ifvqei0","pricing_plan_id":"free"},{"bike_id":"e6fda00e-fcf8-465b-bf29-930c3c4da11c","system_id":"levelo_inurba_marseille","lat":43.284534,"lon":5.358662,"is_reserved":false,"is_disabled":false,"rental_uris":{"android":"levelo://app?vid=e6fda00e-fcf8-465b-bf29-930c3c4da11c","ios":"levelo://app?vid=e6fda00e-fcf8-465b-bf29-930c3c4da11c"},"vehicle_type_id":"4","last_reported":1700845592,"current_range_meters":14000,"station_id":"ce4bhah2rcd13ifvqei0","pricing_plan_id":"free"},{"bike_id":"37ff114d-e4f2-4925-9a7a-3f82acf8890f","system_id":"levelo_inurba_marseille","lat":43.28616,"lon":5.3511,"is_reserved":false,"is_disabled":false,"rental_uris":{"android":"levelo://app?vid=37ff114d-e4f2-4925-9a7a-3f82acf8890f","ios":"levelo://app?vid=37ff114d-e4f2-4925-9a7a-3f82acf8890f"},"vehicle_type_id":"4","last_reported":1700845592,"current_range_meters":20400,"station_id":"ce4bhch2rcd13ifvqeug","pricing_plan_id":"free"},{"bike_id":"da1cfd50-26a5-40a8-b83a-eb36b86a433b","system_id":"levelo_inurba_marseille","lat":43.28614,"lon":5.35105,"is_reserved":false,"is_disabled":false,"rental_uris":{"android":"levelo://app?vid=da1cfd50-26a5-40a8-b83a-eb36b86a433b","ios":"levelo://app?vid=da1cfd50-26a5-40a8-b83a-eb36b86a433b"},"vehicle_type_id":"4","last_reported":1700845592,"current_range_meters":26000,"station_id":"ce4bhch2rcd13ifvqeug","pricing_plan_id":"free"},{"bike_id":"e8caa0bb-8176-445f-9f23-b711c843ed20","system_id":"levelo_inurba_marseille","lat":43.28609,"lon":5.35109,"is_reserved":false,"is_disabled":false,"rental_uris":{"android":"levelo://app?vid=e8caa0bb-8176-445f-9f23-b711c843ed20","ios":"levelo://app?vid=e8caa0bb-8176-445f-9f23-b711c843ed20"},"vehicle_type_id":"4","last_reported":1700845592,"current_range_meters":20800,"station_id":"ce4bhch2rcd13ifvqeug","pricing_plan_id":"free"},{"bike_id":"fccf47e4-cc4f-482b-bdc5-1b8f4c05b55b","system_id":"levelo_inurba_marseille","lat":43.28675,"lon":5.38671,"is_reserved":false,"is_disabled":false,"rental_uris":{"android":"levelo://app?vid=fccf47e4-cc4f-482b-bdc5-1b8f4c05b55b","ios":"levelo://app?vid=fccf47e4-cc4f-482b-bdc5-1b8f4c05b55b"},"vehicle_type_id":"4","last_reported":1700845592,"current_range_meters":0,"station_id":"ce4bh492rcd13ifvqdug","pricing_plan_id":"free"},{"bike_id":"f4cf22ad-b93a-4bd0-85f7-e84065af39cd","system_id":"levelo_inurba_marseille","lat":43.286595,"lon":5.386795,"is_reserved":false,"is_disabled":false,"rental_uris":{"android":"levelo://app?vid=f4cf22ad-b93a-4bd0-85f7-e84065af39cd","ios":"levelo://app?vid=f4cf22ad-b93a-4bd0-85f7-e84065af39cd"},"vehicle_type_id":"4","last_reported":1700845592,"current_range_meters":0,"station_id":"ce4bh492rcd13ifvqdug","pricing_plan_id":"free"},{"bike_id":"f45257ec-05f5-48a6-bd01-0ebbb5fcf70a","system_id":"levelo_inurba_marseille","lat":43.33717,"lon":5.391857,"is_reserved":false,"is_disabled":false,"rental_uris":{"android":"levelo://app?vid=f45257ec-05f5-48a6-bd01-0ebbb5fcf70a","ios":"levelo://app?vid=f45257ec-05f5-48a6-bd01-0ebbb5fcf70a"},"vehicle_type_id":"4","last_reported":1700845592,"current_range_meters":28800,"station_id":"ce4bhr92rcd13ifvqhsg","pricing_plan_id":"free"},{"bike_id":"60fb846c-95d4-493d-8ff0-fc77dde513c4","system_id":"levelo_inurba_marseille","lat":43.337168,"lon":5.391825,"is_reserved":false,"is_disabled":false,"rental_uris":{"android":"levelo://app?vid=60fb846c-95d4-493d-8ff0-fc77dde513c4","ios":"levelo://app?vid=60fb846c-95d4-493d-8ff0-fc77dde513c4"},"vehicle_type_id":"4","last_reported":1700845592,"current_range_meters":9600,"station_id":"ce4bhr92rcd13ifvqhsg","pricing_plan_id":"free"},{"bike_id":"1f14c497-7581-49dd-88b0-b1c9a41a4e60","system_id":"levelo_inurba_marseille","lat":43.323464,"lon":5.406297,"is_reserved":false,"is_disabled":false,"rental_uris":{"android":"levelo://app?vid=1f14c497-7581-49dd-88b0-b1c9a41a4e60","ios":"levelo://app?vid=1f14c497-7581-49dd-88b0-b1c9a41a4e60"},"vehicle_type_id":"4","last_reported":1700845592,"current_range_meters":1200,"station_id":"ce4bhq92rcd13ifvqhjg","pricing_plan_id":"free"},{"bike_id":"e509dbf9-fdca-41ad-8a20-eaf44cddfd28","system_id":"levelo_inurba_marseille","lat":43.283494,"lon":5.380945,"is_reserved":false,"is_disabled":false,"rental_uris":{"android":"levelo://app?vid=e509dbf9-fdca-41ad-8a20-eaf44cddfd28","ios":"levelo://app?vid=e509dbf9-fdca-41ad-8a20-eaf44cddfd28"},"vehicle_type_id":"4","last_reported":1700845592,"current_range_meters":25200,"station_id":"ce4bh412rcd13ifvqdr0","pricing_plan_id":"free"},{"bike_id":"131884d1-3181-47a1-9298-e34d35ba0298","system_id":"levelo_inurba_marseille","lat":43.284219,"lon":5.3497,"is_reserved":false,"is_disabled":false,"rental_uris":{"android":"levelo://app?vid=131884d1-3181-47a1-9298-e34d35ba0298","ios":"levelo://app?vid=131884d1-3181-47a1-9298-e34d35ba0298"},"vehicle_type_id":"4","last_reported":1700845592,"current_range_meters":10000,"station_id":"ce4bhbh2rcd13ifvqepg","pricing_plan_id":"free"},{"bike_id":"f29d170a-5580-4179-bca4-d39e41a2b79f","system_id":"levelo_inurba_marseille","lat":43.284217,"lon":5.349697,"is_reserved":false,"is_disabled":false,"rental_uris":{"android":"levelo://app?vid=f29d170a-5580-4179-bca4-d39e41a2b79f","ios":"levelo://app?vid=f29d170a-5580-4179-bca4-d39e41a2b79f"},"vehicle_type_id":"4","last_reported":1700845592,"current_range_meters":21200,"station_id":"ce4bhbh2rcd13ifvqepg","pricing_plan_id":"free"},{"bike_id":"e2284003-4e46-4e0a-93e7-73d05c3666d9","system_id":"levelo_inurba_marseille","lat":43.33508,"lon":5.397755,"is_reserved":false,"is_disabled":false,"rental_uris":{"android":"levelo://app?vid=e2284003-4e46-4e0a-93e7-73d05c3666d9","ios":"levelo://app?vid=e2284003-4e46-4e0a-93e7-73d05c3666d9"},"vehicle_type_id":"4","last_reported":1700845592,"current_range_meters":25600,"station_id":"","pricing_plan_id":"free"},{"bike_id":"b4bc6c19-20e6-4b1e-b989-40d4ba171e93","system_id":"levelo_inurba_marseille","lat":43.33527,"lon":5.397593,"is_reserved":false,"is_disabled":false,"rental_uris":{"android":"levelo://app?vid=b4bc6c19-20e6-4b1e-b989-40d4ba171e93","ios":"levelo://app?vid=b4bc6c19-20e6-4b1e-b989-40d4ba171e93"},"vehicle_type_id":"4","last_reported":1700845592,"current_range_meters":7200,"station_id":"","pricing_plan_id":"free"},{"bike_id":"3b44a4c1-40ac-4f50-806a-4279ed57bca6","system_id":"levelo_inurba_marseille","lat":43.282754,"lon":5.350519,"is_reserved":false,"is_disabled":false,"rental_uris":{"android":"levelo://app?vid=3b44a4c1-40ac-4f50-806a-4279ed57bca6","ios":"levelo://app?vid=3b44a4c1-40ac-4f50-806a-4279ed57bca6"},"vehicle_type_id":"4","last_reported":1700845592,"current_range_meters":14000,"station_id":"ce4bhbp2rcd13ifvqerg","pricing_plan_id":"free"},{"bike_id":"c670c0e7-e79f-4b5b-989e-b9f8bcc47586","system_id":"levelo_inurba_marseille","lat":43.323464,"lon":5.406297,"is_reserved":false,"is_disabled":false,"rental_uris":{"android":"levelo://app?vid=c670c0e7-e79f-4b5b-989e-b9f8bcc47586","ios":"levelo://app?vid=c670c0e7-e79f-4b5b-989e-b9f8bcc47586"},"vehicle_type_id":"4","last_reported":1700845592,"current_range_meters":1200,"station_id":"ce4bhq92rcd13ifvqhjg","pricing_plan_id":"free"},{"bike_id":"4565cb37-b6db-4bc4-a21c-faca0bb81fc3","system_id":"levelo_inurba_marseille","lat":43.281044,"lon":5.378308,"is_reserved":false,"is_disabled":false,"rental_uris":{"android":"levelo://app?vid=4565cb37-b6db-4bc4-a21c-faca0bb81fc3","ios":"levelo://app?vid=4565cb37-b6db-4bc4-a21c-faca0bb81fc3"},"vehicle_type_id":"4","last_reported":1700845592,"current_range_meters":25200,"station_id":"ce4bha12rcd13ifvqee0","pricing_plan_id":"free"},{"bike_id":"b1f8a801-92af-4a11-a36f-df10375a9462","system_id":"levelo_inurba_marseille","lat":43.281044,"lon":5.378308,"is_reserved":false,"is_disabled":false,"rental_uris":{"android":"levelo://app?vid=b1f8a801-92af-4a11-a36f-df10375a9462","ios":"levelo://app?vid=b1f8a801-92af-4a11-a36f-df10375a9462"},"vehicle_type_id":"4","last_reported":1700845592,"current_range_meters":4000,"station_id":"ce4bha12rcd13ifvqee0","pricing_plan_id":"free"},{"bike_id":"2839bc53-33ad-4ece-8646-06d0fc28dd49","system_id":"levelo_inurba_marseille","lat":43.28101,"lon":5.37833,"is_reserved":false,"is_disabled":false,"rental_uris":{"android":"levelo://app?vid=2839bc53-33ad-4ece-8646-06d0fc28dd49","ios":"levelo://app?vid=2839bc53-33ad-4ece-8646-06d0fc28dd49"},"vehicle_type_id":"4","last_reported":1700845592,"current_range_meters":11200,"station_id":"ce4bha12rcd13ifvqee0","pricing_plan_id":"free"},{"bike_id":"a534731a-e981-4413-9883-7b27a8b408f8","system_id":"levelo_inurba_marseille","lat":43.284462,"lon":5.392121,"is_reserved":false,"is_disabled":false,"rental_uris":{"android":"levelo://app?vid=a534731a-e981-4413-9883-7b27a8b408f8","ios":"levelo://app?vid=a534731a-e981-4413-9883-7b27a8b408f8"},"vehicle_type_id":"4","last_reported":1700845592,"current_range_meters":17200,"station_id":"ce4bhoh2rcd13ifvqh5g","pricing_plan_id":"free"},{"bike_id":"e8997d84-e9e0-4aaa-a76a-c6d2af7271c7","system_id":"levelo_inurba_marseille","lat":43.298842,"lon":5.410174,"is_reserved":false,"is_disabled":false,"rental_uris":{"android":"levelo://app?vid=e8997d84-e9e0-4aaa-a76a-c6d2af7271c7","ios":"levelo://app?vid=e8997d84-e9e0-4aaa-a76a-c6d2af7271c7"},"vehicle_type_id":"4","last_reported":1700845592,"current_range_meters":0,"station_id":"","pricing_plan_id":"free"},{"bike_id":"f7392f21-ad28-4388-b361-1f842b495875","system_id":"levelo_inurba_marseille","lat":43.29268,"lon":5.40896,"is_reserved":false,"is_disabled":false,"rental_uris":{"android":"levelo://app?vid=f7392f21-ad28-4388-b361-1f842b495875","ios":"levelo://app?vid=f7392f21-ad28-4388-b361-1f842b495875"},"vehicle_type_id":"4","last_reported":1700845592,"current_range_meters":12000,"station_id":"ce4bh192rcd13ifvqdc0","pricing_plan_id":"free"},{"bike_id":"c0bc1450-c3d1-48f4-b803-84167dabbd20","system_id":"levelo_inurba_marseille","lat":43.292571,"lon":5.409107,"is_reserved":false,"is_disabled":false,"rental_uris":{"android":"levelo://app?vid=c0bc1450-c3d1-48f4-b803-84167dabbd20","ios":"levelo://app?vid=c0bc1450-c3d1-48f4-b803-84167dabbd20"},"vehicle_type_id":"4","last_reported":1700845592,"current_range_meters":22000,"station_id":"ce4bh192rcd13ifvqdc0","pricing_plan_id":"free"},{"bike_id":"82e457ca-da13-48f5-a2e6-6647ecd9275e","system_id":"levelo_inurba_marseille","lat":43.292571,"lon":5.409107,"is_reserved":false,"is_disabled":false,"rental_uris":{"android":"levelo://app?vid=82e457ca-da13-48f5-a2e6-6647ecd9275e","ios":"levelo://app?vid=82e457ca-da13-48f5-a2e6-6647ecd9275e"},"vehicle_type_id":"4","last_reported":1700845592,"current_range_meters":1200,"station_id":"ce4bh192rcd13ifvqdc0","pricing_plan_id":"free"},{"bike_id":"6648461e-dc3c-4d95-9bcf-ed1931a6779e","system_id":"levelo_inurba_marseille","lat":43.292571,"lon":5.409107,"is_reserved":false,"is_disabled":false,"rental_uris":{"android":"levelo://app?vid=6648461e-dc3c-4d95-9bcf-ed1931a6779e","ios":"levelo://app?vid=6648461e-dc3c-4d95-9bcf-ed1931a6779e"},"vehicle_type_id":"4","last_reported":1700845592,"current_range_meters":4800,"station_id":"ce4bh192rcd13ifvqdc0","pricing_plan_id":"free"},{"bike_id":"b9e95d9d-3620-47ba-8951-2556ae454f47","system_id":"levelo_inurba_marseille","lat":43.292571,"lon":5.409107,"is_reserved":false,"is_disabled":false,"rental_uris":{"android":"levelo://app?vid=b9e95d9d-3620-47ba-8951-2556ae454f47","ios":"levelo://app?vid=b9e95d9d-3620-47ba-8951-2556ae454f47"},"vehicle_type_id":"4","last_reported":1700845592,"current_range_meters":14000,"station_id":"ce4bh192rcd13ifvqdc0","pricing_plan_id":"free"},{"bike_id":"e2a0ea41-9c47-4707-9832-da74f9fb79a2","system_id":"levelo_inurba_marseille","lat":43.280784,"lon":5.396622,"is_reserved":false,"is_disabled":false,"rental_uris":{"android":"levelo://app?vid=e2a0ea41-9c47-4707-9832-da74f9fb79a2","ios":"levelo://app?vid=e2a0ea41-9c47-4707-9832-da74f9fb79a2"},"vehicle_type_id":"4","last_reported":1700845592,"current_range_meters":10000,"station_id":"ce4bho12rcd13ifvqh2g","pricing_plan_id":"free"},{"bike_id":"80024bed-14a9-42be-bfa8-099ec53584a9","system_id":"levelo_inurba_marseille","lat":43.303837,"lon":5.418724,"is_reserved":false,"is_disabled":false,"rental_uris":{"android":"levelo://app?vid=80024bed-14a9-42be-bfa8-099ec53584a9","ios":"levelo://app?vid=80024bed-14a9-42be-bfa8-099ec53584a9"},"vehicle_type_id":"4","last_reported":1700845592,"current_range_meters":0,"station_id":"ce4bhop2rcd13ifvqh7g","pricing_plan_id":"free"},{"bike_id":"9106bce2-5d59-43f7-a671-5306ed256107","system_id":"levelo_inurba_marseille","lat":43.278401,"lon":5.392152,"is_reserved":false,"is_disabled":false,"rental_uris":{"android":"levelo://app?vid=9106bce2-5d59-43f7-a671-5306ed256107","ios":"levelo://app?vid=9106bce2-5d59-43f7-a671-5306ed256107"},"vehicle_type_id":"4","last_reported":1700845592,"current_range_meters":22800,"station_id":"ce4bhjp2rcd13ifvqga0","pricing_plan_id":"free"},{"bike_id":"c540750d-f3f7-4704-9e76-799967fa97d7","system_id":"levelo_inurba_marseille","lat":43.278401,"lon":5.392152,"is_reserved":false,"is_disabled":false,"rental_uris":{"android":"levelo://app?vid=c540750d-f3f7-4704-9e76-799967fa97d7","ios":"levelo://app?vid=c540750d-f3f7-4704-9e76-799967fa97d7"},"vehicle_type_id":"4","last_reported":1700845592,"current_range_meters":2400,"station_id":"ce4bhjp2rcd13ifvqga0","pricing_plan_id":"free"},{"bike_id":"4f474316-bef2-4eda-b835-33c5d92c77ae","system_id":"levelo_inurba_marseille","lat":43.278401,"lon":5.392152,"is_reserved":false,"is_disabled":false,"rental_uris":{"android":"levelo://app?vid=4f474316-bef2-4eda-b835-33c5d92c77ae","ios":"levelo://app?vid=4f474316-bef2-4eda-b835-33c5d92c77ae"},"vehicle_type_id":"4","last_reported":1700845592,"current_range_meters":8000,"station_id":"ce4bhjp2rcd13ifvqga0","pricing_plan_id":"free"},{"bike_id":"4e4b61a0-18e8-4f8e-852d-b0373c9e215e","system_id":"levelo_inurba_marseille","lat":43.27999,"lon":5.4001,"is_reserved":false,"is_disabled":false,"rental_uris":{"android":"levelo://app?vid=4e4b61a0-18e8-4f8e-852d-b0373c9e215e","ios":"levelo://app?vid=4e4b61a0-18e8-4f8e-852d-b0373c9e215e"},"vehicle_type_id":"4","last_reported":1700845592,"current_range_meters":5600,"station_id":"ce4bho92rcd13ifvqh4g","pricing_plan_id":"free"},{"bike_id":"fc8a50fc-7fb9-4b58-ae5e-3658ebaf4b71","system_id":"levelo_inurba_marseille","lat":43.34181,"lon":5.40612,"is_reserved":false,"is_disabled":false,"rental_uris":{"android":"levelo://app?vid=fc8a50fc-7fb9-4b58-ae5e-3658ebaf4b71","ios":"levelo://app?vid=fc8a50fc-7fb9-4b58-ae5e-3658ebaf4b71"},"vehicle_type_id":"4","last_reported":1700845592,"current_range_meters":1200,"station_id":"","pricing_plan_id":"free"},{"bike_id":"32f8db4b-dac1-4c43-9e8e-4661ac0d01ff","system_id":"levelo_inurba_marseille","lat":43.295511,"lon":5.422926,"is_reserved":false,"is_disabled":false,"rental_uris":{"android":"levelo://app?vid=32f8db4b-dac1-4c43-9e8e-4661ac0d01ff","ios":"levelo://app?vid=32f8db4b-dac1-4c43-9e8e-4661ac0d01ff"},"vehicle_type_id":"4","last_reported":1700845592,"current_range_meters":16400,"station_id":"ce4bhph2rcd13ifvqhdg","pricing_plan_id":"free"},{"bike_id":"c99c6bb4-ba40-4aa1-8adb-e4f264770cd6","system_id":"levelo_inurba_marseille","lat":43.278145,"lon":5.407247,"is_reserved":false,"is_disabled":false,"rental_uris":{"android":"levelo://app?vid=c99c6bb4-ba40-4aa1-8adb-e4f264770cd6","ios":"levelo://app?vid=c99c6bb4-ba40-4aa1-8adb-e4f264770cd6"},"vehicle_type_id":"4","last_reported":1700845592,"current_range_meters":0,"station_id":"ce4bhnh2rcd13ifvqgtg","pricing_plan_id":"free"},{"bike_id":"1019bb32-ad05-4b0e-ad14-1a59bab7ef00","system_id":"levelo_inurba_marseille","lat":43.27942,"lon":5.41058,"is_reserved":false,"is_disabled":false,"rental_uris":{"android":"levelo://app?vid=1019bb32-ad05-4b0e-ad14-1a59bab7ef00","ios":"levelo://app?vid=1019bb32-ad05-4b0e-ad14-1a59bab7ef00"},"vehicle_type_id":"4","last_reported":1700845592,"current_range_meters":13200,"station_id":"ce4bhnp2rcd13ifvqh0g","pricing_plan_id":"free"},{"bike_id":"07e0a15b-2ff2-4d7e-8d65-29837af8cb29","system_id":"levelo_inurba_marseille","lat":43.269319,"lon":5.389397,"is_reserved":false,"is_disabled":false,"rental_uris":{"android":"levelo://app?vid=07e0a15b-2ff2-4d7e-8d65-29837af8cb29","ios":"levelo://app?vid=07e0a15b-2ff2-4d7e-8d65-29837af8cb29"},"vehicle_type_id":"4","last_reported":1700845592,"current_range_meters":20000,"station_id":"ce4bhhh2rcd13ifvqfl0","pricing_plan_id":"free"},{"bike_id":"118822d8-6e1e-4e74-a488-66c0b9bac4ea","system_id":"levelo_inurba_marseille","lat":43.29397,"lon":5.426408,"is_reserved":false,"is_disabled":false,"rental_uris":{"android":"levelo://app?vid=118822d8-6e1e-4e74-a488-66c0b9bac4ea","ios":"levelo://app?vid=118822d8-6e1e-4e74-a488-66c0b9bac4ea"},"vehicle_type_id":"4","last_reported":1700845592,"current_range_meters":23200,"station_id":"","pricing_plan_id":"free"},{"bike_id":"28e8ce00-6b21-4e06-9930-c7c4408cc650","system_id":"levelo_inurba_marseille","lat":43.326174,"lon":5.430584,"is_reserved":false,"is_disabled":false,"rental_uris":{"android":"levelo://app?vid=28e8ce00-6b21-4e06-9930-c7c4408cc650","ios":"levelo://app?vid=28e8ce00-6b21-4e06-9930-c7c4408cc650"},"vehicle_type_id":"4","last_reported":1700845592,"current_range_meters":0,"station_id":"","pricing_plan_id":"free"},{"bike_id":"7afe43a1-af59-4574-903a-3e7f143a34df","system_id":"levelo_inurba_marseille","lat":43.267966,"lon":5.393976,"is_reserved":false,"is_disabled":false,"rental_uris":{"android":"levelo://app?vid=7afe43a1-af59-4574-903a-3e7f143a34df","ios":"levelo://app?vid=7afe43a1-af59-4574-903a-3e7f143a34df"},"vehicle_type_id":"4","last_reported":1700845592,"current_range_meters":6400,"station_id":"ce4bhh12rcd13ifvqfg0","pricing_plan_id":"free"},{"bike_id":"ee42487c-d84e-4745-860b-c85c39442b9b","system_id":"levelo_inurba_marseille","lat":43.267966,"lon":5.393976,"is_reserved":false,"is_disabled":false,"rental_uris":{"android":"levelo://app?vid=ee42487c-d84e-4745-860b-c85c39442b9b","ios":"levelo://app?vid=ee42487c-d84e-4745-860b-c85c39442b9b"},"vehicle_type_id":"4","last_reported":1700845592,"current_range_meters":30400,"station_id":"ce4bhh12rcd13ifvqfg0","pricing_plan_id":"free"},{"bike_id":"c85f7616-3a9e-47a4-ae16-28a03e51ab4f","system_id":"levelo_inurba_marseille","lat":43.29211,"lon":5.42824,"is_reserved":false,"is_disabled":false,"rental_uris":{"android":"levelo://app?vid=c85f7616-3a9e-47a4-ae16-28a03e51ab4f","ios":"levelo://app?vid=c85f7616-3a9e-47a4-ae16-28a03e51ab4f"},"vehicle_type_id":"4","last_reported":1700845592,"current_range_meters":14800,"station_id":"","pricing_plan_id":"free"},{"bike_id":"2b5f0b27-ae58-4e9e-bd76-c585f78e8a73","system_id":"levelo_inurba_marseille","lat":43.26386,"lon":5.37454,"is_reserved":false,"is_disabled":false,"rental_uris":{"android":"levelo://app?vid=2b5f0b27-ae58-4e9e-bd76-c585f78e8a73","ios":"levelo://app?vid=2b5f0b27-ae58-4e9e-bd76-c585f78e8a73"},"vehicle_type_id":"4","last_reported":1700845592,"current_range_meters":14000,"station_id":"","pricing_plan_id":"free"},{"bike_id":"4a71b939-1f4c-4f6a-9735-874a00d1c488","system_id":"levelo_inurba_marseille","lat":43.26573,"lon":5.39017,"is_reserved":false,"is_disabled":false,"rental_uris":{"android":"levelo://app?vid=4a71b939-1f4c-4f6a-9735-874a00d1c488","ios":"levelo://app?vid=4a71b939-1f4c-4f6a-9735-874a00d1c488"},"vehicle_type_id":"4","last_reported":1700845592,"current_range_meters":0,"station_id":"ce4bhe12rcd13ifvqf30","pricing_plan_id":"free"},{"bike_id":"8bb5fb4c-f033-472d-9384-8c187d29c15f","system_id":"levelo_inurba_marseille","lat":43.308051,"lon":5.43527,"is_reserved":false,"is_disabled":false,"rental_uris":{"android":"levelo://app?vid=8bb5fb4c-f033-472d-9384-8c187d29c15f","ios":"levelo://app?vid=8bb5fb4c-f033-472d-9384-8c187d29c15f"},"vehicle_type_id":"4","last_reported":1700845592,"current_range_meters":31200,"station_id":"ce4bhph2rcd13ifvqheg","pricing_plan_id":"free"},{"bike_id":"a6cf9b04-855d-4dc5-9c72-ce4a8e5bbb9c","system_id":"levelo_inurba_marseille","lat":43.31714,"lon":5.43695,"is_reserved":false,"is_disabled":false,"rental_uris":{"android":"levelo://app?vid=a6cf9b04-855d-4dc5-9c72-ce4a8e5bbb9c","ios":"levelo://app?vid=a6cf9b04-855d-4dc5-9c72-ce4a8e5bbb9c"},"vehicle_type_id":"4","last_reported":1700845592,"current_range_meters":2400,"station_id":"ce4bhp92rcd13ifvqhcg","pricing_plan_id":"free"},{"bike_id":"d67469ee-5362-4610-a163-fe05ae3cf4f7","system_id":"levelo_inurba_marseille","lat":43.317104,"lon":5.436818,"is_reserved":false,"is_disabled":false,"rental_uris":{"android":"levelo://app?vid=d67469ee-5362-4610-a163-fe05ae3cf4f7","ios":"levelo://app?vid=d67469ee-5362-4610-a163-fe05ae3cf4f7"},"vehicle_type_id":"4","last_reported":1700845592,"current_range_meters":1600,"station_id":"ce4bhp92rcd13ifvqhcg","pricing_plan_id":"free"},{"bike_id":"f23d8119-b478-4639-98c5-6883279f9f84","system_id":"levelo_inurba_marseille","lat":43.31711,"lon":5.43708,"is_reserved":false,"is_disabled":false,"rental_uris":{"android":"levelo://app?vid=f23d8119-b478-4639-98c5-6883279f9f84","ios":"levelo://app?vid=f23d8119-b478-4639-98c5-6883279f9f84"},"vehicle_type_id":"4","last_reported":1700845592,"current_range_meters":25600,"station_id":"ce4bhp92rcd13ifvqhcg","pricing_plan_id":"free"},{"bike_id":"ed30d6a1-b23a-49e5-9c83-5546be72a734","system_id":"levelo_inurba_marseille","lat":43.31712,"lon":5.4371,"is_reserved":false,"is_disabled":false,"rental_uris":{"android":"levelo://app?vid=ed30d6a1-b23a-49e5-9c83-5546be72a734","ios":"levelo://app?vid=ed30d6a1-b23a-49e5-9c83-5546be72a734"},"vehicle_type_id":"4","last_reported":1700845592,"current_range_meters":23600,"station_id":"ce4bhp92rcd13ifvqhcg","pricing_plan_id":"free"},{"bike_id":"13a90169-b0ee-403d-a8e0-ffbddc0a1ca8","system_id":"levelo_inurba_marseille","lat":43.31708,"lon":5.43711,"is_reserved":false,"is_disabled":false,"rental_uris":{"android":"levelo://app?vid=13a90169-b0ee-403d-a8e0-ffbddc0a1ca8","ios":"levelo://app?vid=13a90169-b0ee-403d-a8e0-ffbddc0a1ca8"},"vehicle_type_id":"4","last_reported":1700845592,"current_range_meters":0,"station_id":"ce4bhp92rcd13ifvqhcg","pricing_plan_id":"free"},{"bike_id":"4d0fdd47-bdc7-4f98-927b-b6af6b4aefed","system_id":"levelo_inurba_marseille","lat":43.271368,"lon":5.40928,"is_reserved":false,"is_disabled":false,"rental_uris":{"android":"levelo://app?vid=4d0fdd47-bdc7-4f98-927b-b6af6b4aefed","ios":"levelo://app?vid=4d0fdd47-bdc7-4f98-927b-b6af6b4aefed"},"vehicle_type_id":"4","last_reported":1700845592,"current_range_meters":0,"station_id":"ce4bhl12rcd13ifvqgf0","pricing_plan_id":"free"},{"bike_id":"216b55fe-33a4-4c52-9ed2-cc41c9aa23d5","system_id":"levelo_inurba_marseille","lat":43.267959,"lon":5.402687,"is_reserved":false,"is_disabled":false,"rental_uris":{"android":"levelo://app?vid=216b55fe-33a4-4c52-9ed2-cc41c9aa23d5","ios":"levelo://app?vid=216b55fe-33a4-4c52-9ed2-cc41c9aa23d5"},"vehicle_type_id":"4","last_reported":1700845592,"current_range_meters":25200,"station_id":"ce501612rcd8frsf0b60","pricing_plan_id":"free"},{"bike_id":"ba384039-1271-4c34-9a4e-80638b944b85","system_id":"levelo_inurba_marseille","lat":43.267959,"lon":5.402685,"is_reserved":false,"is_disabled":false,"rental_uris":{"android":"levelo://app?vid=ba384039-1271-4c34-9a4e-80638b944b85","ios":"levelo://app?vid=ba384039-1271-4c34-9a4e-80638b944b85"},"vehicle_type_id":"4","last_reported":1700845592,"current_range_meters":14000,"station_id":"ce501612rcd8frsf0b60","pricing_plan_id":"free"},{"bike_id":"d0bb53f7-f1b8-4609-a668-27efdac67f66","system_id":"levelo_inurba_marseille","lat":43.26301,"lon":5.38842,"is_reserved":false,"is_disabled":false,"rental_uris":{"android":"levelo://app?vid=d0bb53f7-f1b8-4609-a668-27efdac67f66","ios":"levelo://app?vid=d0bb53f7-f1b8-4609-a668-27efdac67f66"},"vehicle_type_id":"4","last_reported":1700845592,"current_range_meters":0,"station_id":"","pricing_plan_id":"free"},{"bike_id":"1e272c67-0721-4a45-a082-8c54474509d1","system_id":"levelo_inurba_marseille","lat":43.29901,"lon":5.436851,"is_reserved":false,"is_disabled":false,"rental_uris":{"android":"levelo://app?vid=1e272c67-0721-4a45-a082-8c54474509d1","ios":"levelo://app?vid=1e272c67-0721-4a45-a082-8c54474509d1"},"vehicle_type_id":"4","last_reported":1700845592,"current_range_meters":0,"station_id":"ce4bhpp2rcd13ifvqhfg","pricing_plan_id":"free"},{"bike_id":"7b3a93ae-ea0c-4816-9348-8bedf5ebb05b","system_id":"levelo_inurba_marseille","lat":43.281566,"lon":5.426437,"is_reserved":false,"is_disabled":false,"rental_uris":{"android":"levelo://app?vid=7b3a93ae-ea0c-4816-9348-8bedf5ebb05b","ios":"levelo://app?vid=7b3a93ae-ea0c-4816-9348-8bedf5ebb05b"},"vehicle_type_id":"4","last_reported":1700845592,"current_range_meters":3600,"station_id":"ce4bhnh2rcd13ifvqgug","pricing_plan_id":"free"},{"bike_id":"7cc9cd61-c4b5-42b2-a634-fcd7e4a788b6","system_id":"levelo_inurba_marseille","lat":43.28156,"lon":5.42644,"is_reserved":false,"is_disabled":false,"rental_uris":{"android":"levelo://app?vid=7cc9cd61-c4b5-42b2-a634-fcd7e4a788b6","ios":"levelo://app?vid=7cc9cd61-c4b5-42b2-a634-fcd7e4a788b6"},"vehicle_type_id":"4","last_reported":1700845592,"current_range_meters":23600,"station_id":"ce4bhnh2rcd13ifvqgug","pricing_plan_id":"free"},{"bike_id":"2496f70c-ec07-44fb-9b04-b20b54c5e53f","system_id":"levelo_inurba_marseille","lat":43.281548,"lon":5.42643,"is_reserved":false,"is_disabled":false,"rental_uris":{"android":"levelo://app?vid=2496f70c-ec07-44fb-9b04-b20b54c5e53f","ios":"levelo://app?vid=2496f70c-ec07-44fb-9b04-b20b54c5e53f"},"vehicle_type_id":"4","last_reported":1700845592,"current_range_meters":25600,"station_id":"ce4bhnh2rcd13ifvqgug","pricing_plan_id":"free"},{"bike_id":"5b695211-cee6-414c-8d21-2a49f6b61949","system_id":"levelo_inurba_marseille","lat":43.281548,"lon":5.42643,"is_reserved":false,"is_disabled":false,"rental_uris":{"android":"levelo://app?vid=5b695211-cee6-414c-8d21-2a49f6b61949","ios":"levelo://app?vid=5b695211-cee6-414c-8d21-2a49f6b61949"},"vehicle_type_id":"4","last_reported":1700845592,"current_range_meters":10000,"station_id":"ce4bhnh2rcd13ifvqgug","pricing_plan_id":"free"},{"bike_id":"5ac38179-4d98-4b89-80f2-dc6cd474e479","system_id":"levelo_inurba_marseille","lat":43.28155,"lon":5.42647,"is_reserved":false,"is_disabled":false,"rental_uris":{"android":"levelo://app?vid=5ac38179-4d98-4b89-80f2-dc6cd474e479","ios":"levelo://app?vid=5ac38179-4d98-4b89-80f2-dc6cd474e479"},"vehicle_type_id":"4","last_reported":1700845592,"current_range_meters":21200,"station_id":"ce4bhnh2rcd13ifvqgug","pricing_plan_id":"free"},{"bike_id":"57e79899-8ad3-45b7-9635-8cfec915ab09","system_id":"levelo_inurba_marseille","lat":43.281548,"lon":5.42643,"is_reserved":false,"is_disabled":false,"rental_uris":{"android":"levelo://app?vid=57e79899-8ad3-45b7-9635-8cfec915ab09","ios":"levelo://app?vid=57e79899-8ad3-45b7-9635-8cfec915ab09"},"vehicle_type_id":"4","last_reported":1700845592,"current_range_meters":27600,"station_id":"ce4bhnh2rcd13ifvqgug","pricing_plan_id":"free"},{"bike_id":"6181795c-d57f-4dce-a524-f46690bf06cb","system_id":"levelo_inurba_marseille","lat":43.281548,"lon":5.42643,"is_reserved":false,"is_disabled":false,"rental_uris":{"android":"levelo://app?vid=6181795c-d57f-4dce-a524-f46690bf06cb","ios":"levelo://app?vid=6181795c-d57f-4dce-a524-f46690bf06cb"},"vehicle_type_id":"4","last_reported":1700845592,"current_range_meters":28000,"station_id":"ce4bhnh2rcd13ifvqgug","pricing_plan_id":"free"},{"bike_id":"c0621491-07b7-4db6-80ca-50be63922fb7","system_id":"levelo_inurba_marseille","lat":43.2607,"lon":5.393983,"is_reserved":false,"is_disabled":false,"rental_uris":{"android":"levelo://app?vid=c0621491-07b7-4db6-80ca-50be63922fb7","ios":"levelo://app?vid=c0621491-07b7-4db6-80ca-50be63922fb7"},"vehicle_type_id":"4","last_reported":1700845592,"current_range_meters":12000,"station_id":"ce4bhh92rcd13ifvqfj0","pricing_plan_id":"free"},{"bike_id":"2f08033a-dd91-43f2-b6d1-e66a392434a9","system_id":"levelo_inurba_marseille","lat":43.275028,"lon":5.424534,"is_reserved":false,"is_disabled":false,"rental_uris":{"android":"levelo://app?vid=2f08033a-dd91-43f2-b6d1-e66a392434a9","ios":"levelo://app?vid=2f08033a-dd91-43f2-b6d1-e66a392434a9"},"vehicle_type_id":"4","last_reported":1700845592,"current_range_meters":13600,"station_id":"ce4bhn92rcd13ifvqgrg","pricing_plan_id":"free"},{"bike_id":"1966b1c1-e56a-4cc5-9b9e-b713ec0ec264","system_id":"levelo_inurba_marseille","lat":43.26078,"lon":5.39769,"is_reserved":false,"is_disabled":false,"rental_uris":{"android":"levelo://app?vid=1966b1c1-e56a-4cc5-9b9e-b713ec0ec264","ios":"levelo://app?vid=1966b1c1-e56a-4cc5-9b9e-b713ec0ec264"},"vehicle_type_id":"4","last_reported":1700845592,"current_range_meters":15600,"station_id":"ce4bhi12rcd13ifvqfq0","pricing_plan_id":"free"},{"bike_id":"5222d22d-ea51-42c9-a544-e3afe0618140","system_id":"levelo_inurba_marseille","lat":43.25583,"lon":5.38228,"is_reserved":false,"is_disabled":false,"rental_uris":{"android":"levelo://app?vid=5222d22d-ea51-42c9-a544-e3afe0618140","ios":"levelo://app?vid=5222d22d-ea51-42c9-a544-e3afe0618140"},"vehicle_type_id":"4","last_reported":1700845592,"current_range_meters":26400,"station_id":"ce4bhih2rcd13ifvqfs0","pricing_plan_id":"free"},{"bike_id":"95f99215-70cc-4b2a-a8cb-31684f9dce20","system_id":"levelo_inurba_marseille","lat":43.25576,"lon":5.38232,"is_reserved":false,"is_disabled":false,"rental_uris":{"android":"levelo://app?vid=95f99215-70cc-4b2a-a8cb-31684f9dce20","ios":"levelo://app?vid=95f99215-70cc-4b2a-a8cb-31684f9dce20"},"vehicle_type_id":"4","last_reported":1700845592,"current_range_meters":28000,"station_id":"ce4bhih2rcd13ifvqfs0","pricing_plan_id":"free"},{"bike_id":"ffde74f0-4d88-472d-8f4c-459bd9a997c6","system_id":"levelo_inurba_marseille","lat":43.25572,"lon":5.38225,"is_reserved":false,"is_disabled":false,"rental_uris":{"android":"levelo://app?vid=ffde74f0-4d88-472d-8f4c-459bd9a997c6","ios":"levelo://app?vid=ffde74f0-4d88-472d-8f4c-459bd9a997c6"},"vehicle_type_id":"4","last_reported":1700845592,"current_range_meters":16400,"station_id":"ce4bhih2rcd13ifvqfs0","pricing_plan_id":"free"},{"bike_id":"781c79ba-987b-41ea-bd7a-89cd886f675f","system_id":"levelo_inurba_marseille","lat":43.254947,"lon":5.376454,"is_reserved":false,"is_disabled":false,"rental_uris":{"android":"levelo://app?vid=781c79ba-987b-41ea-bd7a-89cd886f675f","ios":"levelo://app?vid=781c79ba-987b-41ea-bd7a-89cd886f675f"},"vehicle_type_id":"4","last_reported":1700845592,"current_range_meters":25600,"station_id":"ce4bhh12rcd13ifvqff0","pricing_plan_id":"free"},{"bike_id":"761c0585-d314-4547-9fd3-be1703132e70","system_id":"levelo_inurba_marseille","lat":43.254947,"lon":5.376454,"is_reserved":false,"is_disabled":false,"rental_uris":{"android":"levelo://app?vid=761c0585-d314-4547-9fd3-be1703132e70","ios":"levelo://app?vid=761c0585-d314-4547-9fd3-be1703132e70"},"vehicle_type_id":"4","last_reported":1700845592,"current_range_meters":27600,"station_id":"ce4bhh12rcd13ifvqff0","pricing_plan_id":"free"},{"bike_id":"2d65c7e7-8aaf-4ae4-92d0-613f5dce94da","system_id":"levelo_inurba_marseille","lat":43.254947,"lon":5.376454,"is_reserved":false,"is_disabled":false,"rental_uris":{"android":"levelo://app?vid=2d65c7e7-8aaf-4ae4-92d0-613f5dce94da","ios":"levelo://app?vid=2d65c7e7-8aaf-4ae4-92d0-613f5dce94da"},"vehicle_type_id":"4","last_reported":1700845592,"current_range_meters":29200,"station_id":"ce4bhh12rcd13ifvqff0","pricing_plan_id":"free"},{"bike_id":"49cf8f67-d996-4067-9019-a07117a861eb","system_id":"levelo_inurba_marseille","lat":43.254947,"lon":5.376454,"is_reserved":false,"is_disabled":false,"rental_uris":{"android":"levelo://app?vid=49cf8f67-d996-4067-9019-a07117a861eb","ios":"levelo://app?vid=49cf8f67-d996-4067-9019-a07117a861eb"},"vehicle_type_id":"4","last_reported":1700845592,"current_range_meters":31600,"station_id":"ce4bhh12rcd13ifvqff0","pricing_plan_id":"free"},{"bike_id":"f77c5a20-ba8a-4a60-9519-3569eebb96e4","system_id":"levelo_inurba_marseille","lat":43.254947,"lon":5.376454,"is_reserved":false,"is_disabled":false,"rental_uris":{"android":"levelo://app?vid=f77c5a20-ba8a-4a60-9519-3569eebb96e4","ios":"levelo://app?vid=f77c5a20-ba8a-4a60-9519-3569eebb96e4"},"vehicle_type_id":"4","last_reported":1700845592,"current_range_meters":31600,"station_id":"ce4bhh12rcd13ifvqff0","pricing_plan_id":"free"},{"bike_id":"bc425730-c005-4be1-b204-7402c7ff4c7d","system_id":"levelo_inurba_marseille","lat":43.258716,"lon":5.398906,"is_reserved":false,"is_disabled":false,"rental_uris":{"android":"levelo://app?vid=bc425730-c005-4be1-b204-7402c7ff4c7d","ios":"levelo://app?vid=bc425730-c005-4be1-b204-7402c7ff4c7d"},"vehicle_type_id":"4","last_reported":1700845592,"current_range_meters":0,"station_id":"ce4bhl92rcd13ifvqghg","pricing_plan_id":"free"},{"bike_id":"416f017b-2a0f-453f-8655-0bf8992430a7","system_id":"levelo_inurba_marseille","lat":43.258658,"lon":5.398935,"is_reserved":false,"is_disabled":false,"rental_uris":{"android":"levelo://app?vid=416f017b-2a0f-453f-8655-0bf8992430a7","ios":"levelo://app?vid=416f017b-2a0f-453f-8655-0bf8992430a7"},"vehicle_type_id":"4","last_reported":1700845592,"current_range_meters":31200,"station_id":"ce4bhl92rcd13ifvqghg","pricing_plan_id":"free"},{"bike_id":"6ff27e72-5fb3-47e2-9294-4a4a1d7a08e2","system_id":"levelo_inurba_marseille","lat":43.258658,"lon":5.398935,"is_reserved":false,"is_disabled":false,"rental_uris":{"android":"levelo://app?vid=6ff27e72-5fb3-47e2-9294-4a4a1d7a08e2","ios":"levelo://app?vid=6ff27e72-5fb3-47e2-9294-4a4a1d7a08e2"},"vehicle_type_id":"4","last_reported":1700845592,"current_range_meters":28000,"station_id":"ce4bhl92rcd13ifvqghg","pricing_plan_id":"free"},{"bike_id":"0283111f-e9f7-4261-be73-ba52da8fdb23","system_id":"levelo_inurba_marseille","lat":43.258658,"lon":5.398935,"is_reserved":false,"is_disabled":false,"rental_uris":{"android":"levelo://app?vid=0283111f-e9f7-4261-be73-ba52da8fdb23","ios":"levelo://app?vid=0283111f-e9f7-4261-be73-ba52da8fdb23"},"vehicle_type_id":"4","last_reported":1700845592,"current_range_meters":29200,"station_id":"ce4bhl92rcd13ifvqghg","pricing_plan_id":"free"},{"bike_id":"9afa909d-3124-4478-882f-28ce5bb8f17c","system_id":"levelo_inurba_marseille","lat":43.257079,"lon":5.411051,"is_reserved":false,"is_disabled":false,"rental_uris":{"android":"levelo://app?vid=9afa909d-3124-4478-882f-28ce5bb8f17c","ios":"levelo://app?vid=9afa909d-3124-4478-882f-28ce5bb8f17c"},"vehicle_type_id":"4","last_reported":1700845592,"current_range_meters":27600,"station_id":"ce4bhkp2rcd13ifvqgd0","pricing_plan_id":"free"},{"bike_id":"4f0e5786-fde1-4c44-b08c-cc35faa901f7","system_id":"levelo_inurba_marseille","lat":43.2481,"lon":5.37448,"is_reserved":false,"is_disabled":false,"rental_uris":{"android":"levelo://app?vid=4f0e5786-fde1-4c44-b08c-cc35faa901f7","ios":"levelo://app?vid=4f0e5786-fde1-4c44-b08c-cc35faa901f7"},"vehicle_type_id":"4","last_reported":1700845592,"current_range_meters":24800,"station_id":"ce4bhgh2rcd13ifvqfb0","pricing_plan_id":"free"},{"bike_id":"c6627950-4b36-4b0c-b614-1e1e4bc830c0","system_id":"levelo_inurba_marseille","lat":43.2481,"lon":5.37453,"is_reserved":false,"is_disabled":false,"rental_uris":{"android":"levelo://app?vid=c6627950-4b36-4b0c-b614-1e1e4bc830c0","ios":"levelo://app?vid=c6627950-4b36-4b0c-b614-1e1e4bc830c0"},"vehicle_type_id":"4","last_reported":1700845592,"current_range_meters":24000,"station_id":"ce4bhgh2rcd13ifvqfb0","pricing_plan_id":"free"},{"bike_id":"bf56510b-236d-4e21-95da-3995f931863f","system_id":"levelo_inurba_marseille","lat":43.2479,"lon":5.374457,"is_reserved":false,"is_disabled":false,"rental_uris":{"android":"levelo://app?vid=bf56510b-236d-4e21-95da-3995f931863f","ios":"levelo://app?vid=bf56510b-236d-4e21-95da-3995f931863f"},"vehicle_type_id":"4","last_reported":1700845592,"current_range_meters":1600,"station_id":"ce4bhgh2rcd13ifvqfb0","pricing_plan_id":"free"},{"bike_id":"38e01a34-6515-4afd-bfe2-090b66e4a4cd","system_id":"levelo_inurba_marseille","lat":43.24803,"lon":5.37456,"is_reserved":false,"is_disabled":false,"rental_uris":{"android":"levelo://app?vid=38e01a34-6515-4afd-bfe2-090b66e4a4cd","ios":"levelo://app?vid=38e01a34-6515-4afd-bfe2-090b66e4a4cd"},"vehicle_type_id":"4","last_reported":1700845592,"current_range_meters":30800,"station_id":"ce4bhgh2rcd13ifvqfb0","pricing_plan_id":"free"},{"bike_id":"fceb39cb-5ded-4b60-9b83-503bfc89a98e","system_id":"levelo_inurba_marseille","lat":43.2479,"lon":5.374457,"is_reserved":false,"is_disabled":false,"rental_uris":{"android":"levelo://app?vid=fceb39cb-5ded-4b60-9b83-503bfc89a98e","ios":"levelo://app?vid=fceb39cb-5ded-4b60-9b83-503bfc89a98e"},"vehicle_type_id":"4","last_reported":1700845592,"current_range_meters":30400,"station_id":"ce4bhgh2rcd13ifvqfb0","pricing_plan_id":"free"},{"bike_id":"893ad0b7-5ba6-460f-baa6-cd269c4a005a","system_id":"levelo_inurba_marseille","lat":43.250966,"lon":5.395186,"is_reserved":false,"is_disabled":false,"rental_uris":{"android":"levelo://app?vid=893ad0b7-5ba6-460f-baa6-cd269c4a005a","ios":"levelo://app?vid=893ad0b7-5ba6-460f-baa6-cd269c4a005a"},"vehicle_type_id":"4","last_reported":1700845592,"current_range_meters":19600,"station_id":"ce4bhm12rcd13ifvqgkg","pricing_plan_id":"free"},{"bike_id":"fc9ac422-6652-4899-9669-f380056efa1f","system_id":"levelo_inurba_marseille","lat":43.250966,"lon":5.395186,"is_reserved":false,"is_disabled":false,"rental_uris":{"android":"levelo://app?vid=fc9ac422-6652-4899-9669-f380056efa1f","ios":"levelo://app?vid=fc9ac422-6652-4899-9669-f380056efa1f"},"vehicle_type_id":"4","last_reported":1700845592,"current_range_meters":6400,"station_id":"ce4bhm12rcd13ifvqgkg","pricing_plan_id":"free"},{"bike_id":"4ef0619b-5e9b-4bba-b8d3-4779dab6deef","system_id":"levelo_inurba_marseille","lat":43.25087,"lon":5.3952,"is_reserved":false,"is_disabled":false,"rental_uris":{"android":"levelo://app?vid=4ef0619b-5e9b-4bba-b8d3-4779dab6deef","ios":"levelo://app?vid=4ef0619b-5e9b-4bba-b8d3-4779dab6deef"},"vehicle_type_id":"4","last_reported":1700845592,"current_range_meters":11200,"station_id":"ce4bhm12rcd13ifvqgkg","pricing_plan_id":"free"},{"bike_id":"06bdcf0e-5a9a-4369-8e9b-bf176d97953b","system_id":"levelo_inurba_marseille","lat":43.250966,"lon":5.395186,"is_reserved":false,"is_disabled":false,"rental_uris":{"android":"levelo://app?vid=06bdcf0e-5a9a-4369-8e9b-bf176d97953b","ios":"levelo://app?vid=06bdcf0e-5a9a-4369-8e9b-bf176d97953b"},"vehicle_type_id":"4","last_reported":1700845592,"current_range_meters":30800,"station_id":"ce4bhm12rcd13ifvqgkg","pricing_plan_id":"free"},{"bike_id":"42f49140-9965-47cd-8af7-3e161c2f7b46","system_id":"levelo_inurba_marseille","lat":43.250966,"lon":5.395186,"is_reserved":false,"is_disabled":false,"rental_uris":{"android":"levelo://app?vid=42f49140-9965-47cd-8af7-3e161c2f7b46","ios":"levelo://app?vid=42f49140-9965-47cd-8af7-3e161c2f7b46"},"vehicle_type_id":"4","last_reported":1700845592,"current_range_meters":25600,"station_id":"ce4bhm12rcd13ifvqgkg","pricing_plan_id":"free"},{"bike_id":"957b7262-74a7-4086-b66e-ee2415a42a5a","system_id":"levelo_inurba_marseille","lat":43.250966,"lon":5.395186,"is_reserved":false,"is_disabled":false,"rental_uris":{"android":"levelo://app?vid=957b7262-74a7-4086-b66e-ee2415a42a5a","ios":"levelo://app?vid=957b7262-74a7-4086-b66e-ee2415a42a5a"},"vehicle_type_id":"4","last_reported":1700845592,"current_range_meters":31200,"station_id":"ce4bhm12rcd13ifvqgkg","pricing_plan_id":"free"},{"bike_id":"eae92935-d2e4-436e-884b-389e9d56d41a","system_id":"levelo_inurba_marseille","lat":43.250966,"lon":5.395186,"is_reserved":false,"is_disabled":false,"rental_uris":{"android":"levelo://app?vid=eae92935-d2e4-436e-884b-389e9d56d41a","ios":"levelo://app?vid=eae92935-d2e4-436e-884b-389e9d56d41a"},"vehicle_type_id":"4","last_reported":1700845592,"current_range_meters":31200,"station_id":"ce4bhm12rcd13ifvqgkg","pricing_plan_id":"free"},{"bike_id":"8b2f4673-8019-49f3-a802-e81090c5d1b9","system_id":"levelo_inurba_marseille","lat":43.246541,"lon":5.376736,"is_reserved":false,"is_disabled":false,"rental_uris":{"android":"levelo://app?vid=8b2f4673-8019-49f3-a802-e81090c5d1b9","ios":"levelo://app?vid=8b2f4673-8019-49f3-a802-e81090c5d1b9"},"vehicle_type_id":"4","last_reported":1700845592,"current_range_meters":16000,"station_id":"","pricing_plan_id":"free"},{"bike_id":"2fba04cd-a1f2-44f8-9b32-66a175f2fc67","system_id":"levelo_inurba_marseille","lat":43.24665,"lon":5.38167,"is_reserved":false,"is_disabled":false,"rental_uris":{"android":"levelo://app?vid=2fba04cd-a1f2-44f8-9b32-66a175f2fc67","ios":"levelo://app?vid=2fba04cd-a1f2-44f8-9b32-66a175f2fc67"},"vehicle_type_id":"4","last_reported":1700845592,"current_range_meters":24800,"station_id":"","pricing_plan_id":"free"},{"bike_id":"30a4ebec-a8c2-4094-a877-2b01422fa19c","system_id":"levelo_inurba_marseille","lat":43.25102,"lon":5.403214,"is_reserved":false,"is_disabled":false,"rental_uris":{"android":"levelo://app?vid=30a4ebec-a8c2-4094-a877-2b01422fa19c","ios":"levelo://app?vid=30a4ebec-a8c2-4094-a877-2b01422fa19c"},"vehicle_type_id":"4","last_reported":1700845592,"current_range_meters":25600,"station_id":"ce4bhlh2rcd13ifvqgig","pricing_plan_id":"free"},{"bike_id":"4d898e9b-66c5-481b-9dc8-442d2e9b0dc6","system_id":"levelo_inurba_marseille","lat":43.25102,"lon":5.403214,"is_reserved":false,"is_disabled":false,"rental_uris":{"android":"levelo://app?vid=4d898e9b-66c5-481b-9dc8-442d2e9b0dc6","ios":"levelo://app?vid=4d898e9b-66c5-481b-9dc8-442d2e9b0dc6"},"vehicle_type_id":"4","last_reported":1700845592,"current_range_meters":8400,"station_id":"ce4bhlh2rcd13ifvqgig","pricing_plan_id":"free"},{"bike_id":"7d5c5c0b-8b9d-4672-8cfc-ea2ac3fdc780","system_id":"levelo_inurba_marseille","lat":43.25102,"lon":5.403214,"is_reserved":false,"is_disabled":false,"rental_uris":{"android":"levelo://app?vid=7d5c5c0b-8b9d-4672-8cfc-ea2ac3fdc780","ios":"levelo://app?vid=7d5c5c0b-8b9d-4672-8cfc-ea2ac3fdc780"},"vehicle_type_id":"4","last_reported":1700845592,"current_range_meters":19200,"station_id":"ce4bhlh2rcd13ifvqgig","pricing_plan_id":"free"},{"bike_id":"15742252-95da-4bdb-8112-ce95178755dc","system_id":"levelo_inurba_marseille","lat":43.23967,"lon":5.36631,"is_reserved":false,"is_disabled":false,"rental_uris":{"android":"levelo://app?vid=15742252-95da-4bdb-8112-ce95178755dc","ios":"levelo://app?vid=15742252-95da-4bdb-8112-ce95178755dc"},"vehicle_type_id":"4","last_reported":1700845592,"current_range_meters":9200,"station_id":"ce4bhi12rcd13ifvqfp0","pricing_plan_id":"free"},{"bike_id":"56b0f98d-ecc1-47fa-bd3e-9dc560c42354","system_id":"levelo_inurba_marseille","lat":43.23963,"lon":5.36642,"is_reserved":false,"is_disabled":false,"rental_uris":{"android":"levelo://app?vid=56b0f98d-ecc1-47fa-bd3e-9dc560c42354","ios":"levelo://app?vid=56b0f98d-ecc1-47fa-bd3e-9dc560c42354"},"vehicle_type_id":"4","last_reported":1700845592,"current_range_meters":20800,"station_id":"ce4bhi12rcd13ifvqfp0","pricing_plan_id":"free"},{"bike_id":"3ef70aed-f117-47c7-8cf5-f087e626237b","system_id":"levelo_inurba_marseille","lat":43.239626,"lon":5.366431,"is_reserved":false,"is_disabled":false,"rental_uris":{"android":"levelo://app?vid=3ef70aed-f117-47c7-8cf5-f087e626237b","ios":"levelo://app?vid=3ef70aed-f117-47c7-8cf5-f087e626237b"},"vehicle_type_id":"4","last_reported":1700845592,"current_range_meters":11600,"station_id":"ce4bhi12rcd13ifvqfp0","pricing_plan_id":"free"},{"bike_id":"1c07a5ad-1fa3-4b2f-ad72-6a07be76875e","system_id":"levelo_inurba_marseille","lat":43.23962,"lon":5.36636,"is_reserved":false,"is_disabled":false,"rental_uris":{"android":"levelo://app?vid=1c07a5ad-1fa3-4b2f-ad72-6a07be76875e","ios":"levelo://app?vid=1c07a5ad-1fa3-4b2f-ad72-6a07be76875e"},"vehicle_type_id":"4","last_reported":1700845592,"current_range_meters":17600,"station_id":"ce4bhi12rcd13ifvqfp0","pricing_plan_id":"free"},{"bike_id":"124f1bf7-9af9-4782-a052-dd6aa38caf9d","system_id":"levelo_inurba_marseille","lat":43.23961,"lon":5.3664,"is_reserved":false,"is_disabled":false,"rental_uris":{"android":"levelo://app?vid=124f1bf7-9af9-4782-a052-dd6aa38caf9d","ios":"levelo://app?vid=124f1bf7-9af9-4782-a052-dd6aa38caf9d"},"vehicle_type_id":"4","last_reported":1700845592,"current_range_meters":29600,"station_id":"ce4bhi12rcd13ifvqfp0","pricing_plan_id":"free"},{"bike_id":"884cad8c-9715-4994-b1f8-a21278fa1a1d","system_id":"levelo_inurba_marseille","lat":43.23961,"lon":5.36637,"is_reserved":false,"is_disabled":false,"rental_uris":{"android":"levelo://app?vid=884cad8c-9715-4994-b1f8-a21278fa1a1d","ios":"levelo://app?vid=884cad8c-9715-4994-b1f8-a21278fa1a1d"},"vehicle_type_id":"4","last_reported":1700845592,"current_range_meters":27600,"station_id":"ce4bhi12rcd13ifvqfp0","pricing_plan_id":"free"},{"bike_id":"3c7fa71f-eea3-4dca-beba-593f51f59c9c","system_id":"levelo_inurba_marseille","lat":43.2396,"lon":5.36636,"is_reserved":false,"is_disabled":false,"rental_uris":{"android":"levelo://app?vid=3c7fa71f-eea3-4dca-beba-593f51f59c9c","ios":"levelo://app?vid=3c7fa71f-eea3-4dca-beba-593f51f59c9c"},"vehicle_type_id":"4","last_reported":1700845592,"current_range_meters":15600,"station_id":"ce4bhi12rcd13ifvqfp0","pricing_plan_id":"free"},{"bike_id":"1a7a1613-1624-4afd-bf68-9497936761e0","system_id":"levelo_inurba_marseille","lat":43.23959,"lon":5.36635,"is_reserved":false,"is_disabled":false,"rental_uris":{"android":"levelo://app?vid=1a7a1613-1624-4afd-bf68-9497936761e0","ios":"levelo://app?vid=1a7a1613-1624-4afd-bf68-9497936761e0"},"vehicle_type_id":"4","last_reported":1700845592,"current_range_meters":15200,"station_id":"ce4bhi12rcd13ifvqfp0","pricing_plan_id":"free"},{"bike_id":"8904bfdf-f635-49c0-b8a9-6f183c7a093b","system_id":"levelo_inurba_marseille","lat":43.239586,"lon":5.366378,"is_reserved":false,"is_disabled":false,"rental_uris":{"android":"levelo://app?vid=8904bfdf-f635-49c0-b8a9-6f183c7a093b","ios":"levelo://app?vid=8904bfdf-f635-49c0-b8a9-6f183c7a093b"},"vehicle_type_id":"4","last_reported":1700845592,"current_range_meters":29200,"station_id":"ce4bhi12rcd13ifvqfp0","pricing_plan_id":"free"},{"bike_id":"cb03ff43-27e2-4738-93e1-3d7cedf7c707","system_id":"levelo_inurba_marseille","lat":43.241782,"lon":5.397264,"is_reserved":false,"is_disabled":false,"rental_uris":{"android":"levelo://app?vid=cb03ff43-27e2-4738-93e1-3d7cedf7c707","ios":"levelo://app?vid=cb03ff43-27e2-4738-93e1-3d7cedf7c707"},"vehicle_type_id":"4","last_reported":1700845592,"current_range_meters":6400,"station_id":"ce4bhn12rcd13ifvqgpg","pricing_plan_id":"free"},{"bike_id":"9cdbed77-3299-4e57-8f82-c5ca59b8cc87","system_id":"levelo_inurba_marseille","lat":43.241782,"lon":5.397264,"is_reserved":false,"is_disabled":false,"rental_uris":{"android":"levelo://app?vid=9cdbed77-3299-4e57-8f82-c5ca59b8cc87","ios":"levelo://app?vid=9cdbed77-3299-4e57-8f82-c5ca59b8cc87"},"vehicle_type_id":"4","last_reported":1700845592,"current_range_meters":2800,"station_id":"ce4bhn12rcd13ifvqgpg","pricing_plan_id":"free"},{"bike_id":"76da77ba-a8a2-45d9-bea0-75d9631bba15","system_id":"levelo_inurba_marseille","lat":43.231923,"lon":5.355545,"is_reserved":false,"is_disabled":false,"rental_uris":{"android":"levelo://app?vid=76da77ba-a8a2-45d9-bea0-75d9631bba15","ios":"levelo://app?vid=76da77ba-a8a2-45d9-bea0-75d9631bba15"},"vehicle_type_id":"4","last_reported":1700845592,"current_range_meters":14000,"station_id":"ce4bhu92rcd13ifvqi70","pricing_plan_id":"free"},{"bike_id":"48217564-eee6-47a9-ae01-f8f1659e40db","system_id":"levelo_inurba_marseille","lat":43.231923,"lon":5.355545,"is_reserved":false,"is_disabled":false,"rental_uris":{"android":"levelo://app?vid=48217564-eee6-47a9-ae01-f8f1659e40db","ios":"levelo://app?vid=48217564-eee6-47a9-ae01-f8f1659e40db"},"vehicle_type_id":"4","last_reported":1700845592,"current_range_meters":18000,"station_id":"ce4bhu92rcd13ifvqi70","pricing_plan_id":"free"},{"bike_id":"e5e514e7-58d5-4766-902e-a692950e8b38","system_id":"levelo_inurba_marseille","lat":43.23199,"lon":5.35554,"is_reserved":false,"is_disabled":false,"rental_uris":{"android":"levelo://app?vid=e5e514e7-58d5-4766-902e-a692950e8b38","ios":"levelo://app?vid=e5e514e7-58d5-4766-902e-a692950e8b38"},"vehicle_type_id":"4","last_reported":1700845592,"current_range_meters":28800,"station_id":"ce4bhu92rcd13ifvqi70","pricing_plan_id":"free"},{"bike_id":"edd2b3c8-67fd-4064-8af7-f698e6d9963c","system_id":"levelo_inurba_marseille","lat":43.231919,"lon":5.355532,"is_reserved":false,"is_disabled":false,"rental_uris":{"android":"levelo://app?vid=edd2b3c8-67fd-4064-8af7-f698e6d9963c","ios":"levelo://app?vid=edd2b3c8-67fd-4064-8af7-f698e6d9963c"},"vehicle_type_id":"4","last_reported":1700845592,"current_range_meters":25200,"station_id":"ce4bhu92rcd13ifvqi70","pricing_plan_id":"free"},{"bike_id":"b6ad3896-d180-4d39-a4d6-8a7be3e8c6bd","system_id":"levelo_inurba_marseille","lat":43.231923,"lon":5.355545,"is_reserved":false,"is_disabled":false,"rental_uris":{"android":"levelo://app?vid=b6ad3896-d180-4d39-a4d6-8a7be3e8c6bd","ios":"levelo://app?vid=b6ad3896-d180-4d39-a4d6-8a7be3e8c6bd"},"vehicle_type_id":"4","last_reported":1700845592,"current_range_meters":14000,"station_id":"ce4bhu92rcd13ifvqi70","pricing_plan_id":"free"},{"bike_id":"86718dc6-43ab-49a1-8fbe-1577d523865f","system_id":"levelo_inurba_marseille","lat":43.231919,"lon":5.355532,"is_reserved":false,"is_disabled":false,"rental_uris":{"android":"levelo://app?vid=86718dc6-43ab-49a1-8fbe-1577d523865f","ios":"levelo://app?vid=86718dc6-43ab-49a1-8fbe-1577d523865f"},"vehicle_type_id":"4","last_reported":1700845592,"current_range_meters":0,"station_id":"ce4bhu92rcd13ifvqi70","pricing_plan_id":"free"},{"bike_id":"dcc8f0d2-659c-44cb-9a1d-9d57ae623781","system_id":"levelo_inurba_marseille","lat":43.23195,"lon":5.35553,"is_reserved":false,"is_disabled":false,"rental_uris":{"android":"levelo://app?vid=dcc8f0d2-659c-44cb-9a1d-9d57ae623781","ios":"levelo://app?vid=dcc8f0d2-659c-44cb-9a1d-9d57ae623781"},"vehicle_type_id":"4","last_reported":1700845592,"current_range_meters":23600,"station_id":"ce4bhu92rcd13ifvqi70","pricing_plan_id":"free"},{"bike_id":"0a349838-8936-442e-8a55-c173dbb54834","system_id":"levelo_inurba_marseille","lat":43.231919,"lon":5.355532,"is_reserved":false,"is_disabled":false,"rental_uris":{"android":"levelo://app?vid=0a349838-8936-442e-8a55-c173dbb54834","ios":"levelo://app?vid=0a349838-8936-442e-8a55-c173dbb54834"},"vehicle_type_id":"4","last_reported":1700845592,"current_range_meters":29600,"station_id":"ce4bhu92rcd13ifvqi70","pricing_plan_id":"free"},{"bike_id":"aeb874ed-5a67-45f7-94cd-1c1e110219bc","system_id":"levelo_inurba_marseille","lat":43.231919,"lon":5.355532,"is_reserved":false,"is_disabled":false,"rental_uris":{"android":"levelo://app?vid=aeb874ed-5a67-45f7-94cd-1c1e110219bc","ios":"levelo://app?vid=aeb874ed-5a67-45f7-94cd-1c1e110219bc"},"vehicle_type_id":"4","last_reported":1700845592,"current_range_meters":31200,"station_id":"ce4bhu92rcd13ifvqi70","pricing_plan_id":"free"},{"bike_id":"0c6b2677-ce68-4f02-9a73-e017061e320e","system_id":"levelo_inurba_marseille","lat":43.231793,"lon":5.400044,"is_reserved":false,"is_disabled":false,"rental_uris":{"android":"levelo://app?vid=0c6b2677-ce68-4f02-9a73-e017061e320e","ios":"levelo://app?vid=0c6b2677-ce68-4f02-9a73-e017061e320e"},"vehicle_type_id":"4","last_reported":1700845592,"current_range_meters":31200,"station_id":"ce4bhn12rcd13ifvqgqg","pricing_plan_id":"free"},{"bike_id":"9780e49b-8eb6-4c96-95ee-9b6d1e553d68","system_id":"levelo_inurba_marseille","lat":43.231794,"lon":5.400052,"is_reserved":false,"is_disabled":false,"rental_uris":{"android":"levelo://app?vid=9780e49b-8eb6-4c96-95ee-9b6d1e553d68","ios":"levelo://app?vid=9780e49b-8eb6-4c96-95ee-9b6d1e553d68"},"vehicle_type_id":"4","last_reported":1700845592,"current_range_meters":26800,"station_id":"ce4bhn12rcd13ifvqgqg","pricing_plan_id":"free"},{"bike_id":"216d01e0-0894-4b88-9379-35377c1f196b","system_id":"levelo_inurba_marseille","lat":43.231794,"lon":5.400052,"is_reserved":false,"is_disabled":false,"rental_uris":{"android":"levelo://app?vid=216d01e0-0894-4b88-9379-35377c1f196b","ios":"levelo://app?vid=216d01e0-0894-4b88-9379-35377c1f196b"},"vehicle_type_id":"4","last_reported":1700845592,"current_range_meters":31600,"station_id":"ce4bhn12rcd13ifvqgqg","pricing_plan_id":"free"},{"bike_id":"42b71bb2-3e67-452d-bdb5-18d18eec3243","system_id":"levelo_inurba_marseille","lat":43.231794,"lon":5.400052,"is_reserved":false,"is_disabled":false,"rental_uris":{"android":"levelo://app?vid=42b71bb2-3e67-452d-bdb5-18d18eec3243","ios":"levelo://app?vid=42b71bb2-3e67-452d-bdb5-18d18eec3243"},"vehicle_type_id":"4","last_reported":1700845592,"current_range_meters":30400,"station_id":"ce4bhn12rcd13ifvqgqg","pricing_plan_id":"free"},{"bike_id":"df7e6c4d-a3bc-48a2-a471-a72390a84d34","system_id":"levelo_inurba_marseille","lat":43.231793,"lon":5.400044,"is_reserved":false,"is_disabled":false,"rental_uris":{"android":"levelo://app?vid=df7e6c4d-a3bc-48a2-a471-a72390a84d34","ios":"levelo://app?vid=df7e6c4d-a3bc-48a2-a471-a72390a84d34"},"vehicle_type_id":"4","last_reported":1700845592,"current_range_meters":22400,"station_id":"ce4bhn12rcd13ifvqgqg","pricing_plan_id":"free"},{"bike_id":"9c2bf53e-bbf1-4349-bc38-b78a298e6986","system_id":"levelo_inurba_marseille","lat":43.231793,"lon":5.400044,"is_reserved":false,"is_disabled":false,"rental_uris":{"android":"levelo://app?vid=9c2bf53e-bbf1-4349-bc38-b78a298e6986","ios":"levelo://app?vid=9c2bf53e-bbf1-4349-bc38-b78a298e6986"},"vehicle_type_id":"4","last_reported":1700845592,"current_range_meters":31200,"station_id":"ce4bhn12rcd13ifvqgqg","pricing_plan_id":"free"},{"bike_id":"330a00ea-2930-409e-9e01-e23d5e12ceb5","system_id":"levelo_inurba_marseille","lat":43.231794,"lon":5.400052,"is_reserved":false,"is_disabled":false,"rental_uris":{"android":"levelo://app?vid=330a00ea-2930-409e-9e01-e23d5e12ceb5","ios":"levelo://app?vid=330a00ea-2930-409e-9e01-e23d5e12ceb5"},"vehicle_type_id":"4","last_reported":1700845592,"current_range_meters":24000,"station_id":"ce4bhn12rcd13ifvqgqg","pricing_plan_id":"free"},{"bike_id":"0d65e76d-9880-4e2c-a36d-b8425499c90e","system_id":"levelo_inurba_marseille","lat":43.231793,"lon":5.400044,"is_reserved":false,"is_disabled":false,"rental_uris":{"android":"levelo://app?vid=0d65e76d-9880-4e2c-a36d-b8425499c90e","ios":"levelo://app?vid=0d65e76d-9880-4e2c-a36d-b8425499c90e"},"vehicle_type_id":"4","last_reported":1700845592,"current_range_meters":16800,"station_id":"ce4bhn12rcd13ifvqgqg","pricing_plan_id":"free"},{"bike_id":"379d09eb-92b5-4354-8d2d-37d06c982dcd","system_id":"levelo_inurba_marseille","lat":43.231793,"lon":5.400044,"is_reserved":false,"is_disabled":false,"rental_uris":{"android":"levelo://app?vid=379d09eb-92b5-4354-8d2d-37d06c982dcd","ios":"levelo://app?vid=379d09eb-92b5-4354-8d2d-37d06c982dcd"},"vehicle_type_id":"4","last_reported":1700845592,"current_range_meters":18000,"station_id":"ce4bhn12rcd13ifvqgqg","pricing_plan_id":"free"},{"bike_id":"37e6a089-bbff-4b26-a2ae-332c62d0185b","system_id":"levelo_inurba_marseille","lat":43.231793,"lon":5.400044,"is_reserved":false,"is_disabled":false,"rental_uris":{"android":"levelo://app?vid=37e6a089-bbff-4b26-a2ae-332c62d0185b","ios":"levelo://app?vid=37e6a089-bbff-4b26-a2ae-332c62d0185b"},"vehicle_type_id":"4","last_reported":1700845592,"current_range_meters":27200,"station_id":"ce4bhn12rcd13ifvqgqg","pricing_plan_id":"free"},{"bike_id":"0945036d-9858-4086-b41b-ec6e60edb8ad","system_id":"levelo_inurba_marseille","lat":43.231794,"lon":5.400052,"is_reserved":false,"is_disabled":false,"rental_uris":{"android":"levelo://app?vid=0945036d-9858-4086-b41b-ec6e60edb8ad","ios":"levelo://app?vid=0945036d-9858-4086-b41b-ec6e60edb8ad"},"vehicle_type_id":"4","last_reported":1700845592,"current_range_meters":30000,"station_id":"ce4bhn12rcd13ifvqgqg","pricing_plan_id":"free"},{"bike_id":"4b6183ea-c306-4c26-8d63-aae6ff185ad2","system_id":"levelo_inurba_marseille","lat":43.231794,"lon":5.400052,"is_reserved":false,"is_disabled":false,"rental_uris":{"android":"levelo://app?vid=4b6183ea-c306-4c26-8d63-aae6ff185ad2","ios":"levelo://app?vid=4b6183ea-c306-4c26-8d63-aae6ff185ad2"},"vehicle_type_id":"4","last_reported":1700845592,"current_range_meters":15600,"station_id":"ce4bhn12rcd13ifvqgqg","pricing_plan_id":"free"},{"bike_id":"b08916c8-e7dd-4d0d-997a-0c74ed1c58de","system_id":"levelo_inurba_marseille","lat":43.231562,"lon":5.436933,"is_reserved":false,"is_disabled":false,"rental_uris":{"android":"levelo://app?vid=b08916c8-e7dd-4d0d-997a-0c74ed1c58de","ios":"levelo://app?vid=b08916c8-e7dd-4d0d-997a-0c74ed1c58de"},"vehicle_type_id":"4","last_reported":1700845592,"current_range_meters":0,"station_id":"ce4bhmp2rcd13ifvqgog","pricing_plan_id":"free"}]}}