{"last_updated":1677381580,"ttl":30,"version":"2.2","data":{"bikes":[{"bike_id":"5f2ecbe1-147d-418c-b52a-f57d430e76c1","system_id":"levelo_inurba_marseille","lat":43.312239,"lon":5.368562,"is_reserved":false,"is_disabled":false,"rental_uris":{"android":"levelo://app?vid=5f2ecbe1-147d-418c-b52a-f57d430e76c1","ios":"levelo://app?vid=5f2ecbe1-147d-418c-b52a-f57d430e76c1"},"vehicle_type_id":"4","last_reported":1677381580,"current_range_meters":30800,"station_id":"ce4bgl92rcd13ifvqbq0","pricing_plan_id":"free"},{"bike_id":"306e833c-13e6-401f-a12f-137231267a13","system_id":"levelo_inurba_marseille","lat":43.312239,"lon":5.368562,"is_reserved":false,"is_disabled":false,"rental_uris":{"android":"levelo://app?vid=306e833c-13e6-401f-a12f-137231267a13","ios":"levelo://app?vid=306e833c-13e6-401f-a12f-137231267a13"},"vehicle_type_id":"4","last_reported":1677381580,"current_range_meters":3200,"station_id":"ce4bgl92rcd13ifvqbq0","pricing_plan_id":"free"},{"bike_id":"ec0845b4-426f-4b57-bfb4-62a00d15e664","system_id":"levelo_inurba_marseille","lat":43.312239,"lon":5.368562,"is_reserved":false,"is_disabled":false,"rental_uris":{"android":"levelo://app?vid=ec0845b4-426f-4b57-bfb4-62a00d15e664","ios":"levelo://app?vid=ec0845b4-426f-4b57-bfb4-62a00d15e664"},"vehicle_type_id":"4","last_reported":1677381580,"current_range_meters":6400,"station_id":"ce4bgl92rcd13ifvqbq0","pricing_plan_id":"free"},{"bike_id":"1691c4a0-7d44-4131-ab51-bf3210bab0f8","system_id":"levelo_inurba_marseille","lat":43.312239,"lon":5.368562,"is_reserved":false,"is_disabled":false,"rental_uris":{"android":"levelo://app?vid=1691c4a0-7d44-4131-ab51-bf3210bab0f8","ios":"levelo://app?vid=1691c4a0-7d44-4131-ab51-bf3210bab0f8"},"vehicle_type_id":"4","last_reported":1677381580,"current_range_meters":31600,"station_id":"ce4bgl92rcd13ifvqbq0","pricing_plan_id":"free"},{"bike_id":"08db279a-16d4-48ac-8105-68b0346c4a6e","system_id":"levelo_inurba_marseille","lat":43.309589,"lon":5.390258,"is_reserved":false,"is_disabled":false,"rental_uris":{"android":"levelo://app?vid=08db279a-16d4-48ac-8105-68b0346c4a6e","ios":"levelo://app?vid=08db279a-16d4-48ac-8105-68b0346c4a6e"},"vehicle_type_id":"4","last_reported":1677381580,"current_range_meters":29200,"station_id":"ce4bgup2rcd13ifvqco0","pricing_plan_id":"free"},{"bike_id":"12968513-37ef-418e-8ac9-a50a21d84b0d","system_id":"levelo_inurba_marseille","lat":43.309076,"lon":5.368465,"is_reserved":false,"is_disabled":false,"rental_uris":{"android":"levelo://app?vid=12968513-37ef-418e-8ac9-a50a21d84b0d","ios":"levelo://app?vid=12968513-37ef-418e-8ac9-a50a21d84b0d"},"vehicle_type_id":"4","last_reported":1677381580,"current_range_meters":28800,"station_id":"ce4bgn92rcd13ifvqbvg","pricing_plan_id":"free"},{"bike_id":"647e6991-bd0b-4b74-8a8a-e6b1abf363c3","system_id":"levelo_inurba_marseille","lat":43.309076,"lon":5.368465,"is_reserved":false,"is_disabled":false,"rental_uris":{"android":"levelo://app?vid=647e6991-bd0b-4b74-8a8a-e6b1abf363c3","ios":"levelo://app?vid=647e6991-bd0b-4b74-8a8a-e6b1abf363c3"},"vehicle_type_id":"4","last_reported":1677381580,"current_range_meters":0,"station_id":"ce4bgn92rcd13ifvqbvg","pricing_plan_id":"free"},{"bike_id":"3ddf2caf-d514-4c98-8894-51b962055e98","system_id":"levelo_inurba_marseille","lat":43.30903,"lon":5.36847,"is_reserved":false,"is_disabled":false,"rental_uris":{"android":"levelo://app?vid=3ddf2caf-d514-4c98-8894-51b962055e98","ios":"levelo://app?vid=3ddf2caf-d514-4c98-8894-51b962055e98"},"vehicle_type_id":"4","last_reported":1677381580,"current_range_meters":0,"station_id":"ce4bgn92rcd13ifvqbvg","pricing_plan_id":"free"},{"bike_id":"d5a55838-6284-48ef-bed3-71e82492a26f","system_id":"levelo_inurba_marseille","lat":43.314811,"lon":5.373103,"is_reserved":false,"is_disabled":false,"rental_uris":{"android":"levelo://app?vid=d5a55838-6284-48ef-bed3-71e82492a26f","ios":"levelo://app?vid=d5a55838-6284-48ef-bed3-71e82492a26f"},"vehicle_type_id":"4","last_reported":1677381580,"current_range_meters":29200,"station_id":"ce4bgt12rcd13ifvqcd0","pricing_plan_id":"free"},{"bike_id":"ceb392d7-9f5f-428b-8ac9-0c53c18aa0ec","system_id":"levelo_inurba_marseille","lat":43.314811,"lon":5.373103,"is_reserved":false,"is_disabled":false,"rental_uris":{"android":"levelo://app?vid=ceb392d7-9f5f-428b-8ac9-0c53c18aa0ec","ios":"levelo://app?vid=ceb392d7-9f5f-428b-8ac9-0c53c18aa0ec"},"vehicle_type_id":"4","last_reported":1677381580,"current_range_meters":4400,"station_id":"ce4bgt12rcd13ifvqcd0","pricing_plan_id":"free"},{"bike_id":"dc40c43f-075f-4b57-aaf9-459684d7ec20","system_id":"levelo_inurba_marseille","lat":43.314811,"lon":5.373103,"is_reserved":false,"is_disabled":false,"rental_uris":{"android":"levelo://app?vid=dc40c43f-075f-4b57-aaf9-459684d7ec20","ios":"levelo://app?vid=dc40c43f-075f-4b57-aaf9-459684d7ec20"},"vehicle_type_id":"4","last_reported":1677381580,"current_range_meters":9600,"station_id":"ce4bgt12rcd13ifvqcd0","pricing_plan_id":"free"},{"bike_id":"b1900d81-247b-480c-bc84-4cea73ae4150","system_id":"levelo_inurba_marseille","lat":43.314811,"lon":5.373103,"is_reserved":false,"is_disabled":false,"rental_uris":{"android":"levelo://app?vid=b1900d81-247b-480c-bc84-4cea73ae4150","ios":"levelo://app?vid=b1900d81-247b-480c-bc84-4cea73ae4150"},"vehicle_type_id":"4","last_reported":1677381580,"current_range_meters":10800,"station_id":"ce4bgt12rcd13ifvqcd0","pricing_plan_id":"free"},{"bike_id":"fb27ff8e-3dd6-4de5-ab0d-8e6d7bfc3fde","system_id":"levelo_inurba_marseille","lat":43.314811,"lon":5.373103,"is_reserved":false,"is_disabled":false,"rental_uris":{"android":"levelo://app?vid=fb27ff8e-3dd6-4de5-ab0d-8e6d7bfc3fde","ios":"levelo://app?vid=fb27ff8e-3dd6-4de5-ab0d-8e6d7bfc3fde"},"vehicle_type_id":"4","last_reported":1677381580,"current_range_meters":6800,"station_id":"ce4bgt12rcd13ifvqcd0","pricing_plan_id":"free"},{"bike_id":"1c60f6db-1344-4cdb-b5a7-630e1363e93b","system_id":"levelo_inurba_marseille","lat":43.314811,"lon":5.373103,"is_reserved":false,"is_disabled":false,"rental_uris":{"android":"levelo://app?vid=1c60f6db-1344-4cdb-b5a7-630e1363e93b","ios":"levelo://app?vid=1c60f6db-1344-4cdb-b5a7-630e1363e93b"},"vehicle_type_id":"4","last_reported":1677381580,"current_range_meters":23200,"station_id":"ce4bgt12rcd13ifvqcd0","pricing_plan_id":"free"},{"bike_id":"c44c5d3d-82dc-4ea8-8b13-4dee7205ea0f","system_id":"levelo_inurba_marseille","lat":43.314811,"lon":5.373103,"is_reserved":false,"is_disabled":false,"rental_uris":{"android":"levelo://app?vid=c44c5d3d-82dc-4ea8-8b13-4dee7205ea0f","ios":"levelo://app?vid=c44c5d3d-82dc-4ea8-8b13-4dee7205ea0f"},"vehicle_type_id":"4","last_reported":1677381580,"current_range_meters":19200,"station_id":"ce4bgt12rcd13ifvqcd0","pricing_plan_id":"free"},{"bike_id":"634fbe71-2b95-4a18-abfe-aec8694e3e7e","system_id":"levelo_inurba_marseille","lat":43.314811,"lon":5.373103,"is_reserved":false,"is_disabled":false,"rental_uris":{"android":"levelo://app?vid=634fbe71-2b95-4a18-abfe-aec8694e3e7e","ios":"levelo://app?vid=634fbe71-2b95-4a18-abfe-aec8694e3e7e"},"vehicle_type_id":"4","last_reported":1677381580,"current_range_meters":0,"station_id":"ce4bgt12rcd13ifvqcd0","pricing_plan_id":"free"},{"bike_id":"58f68b28-61fb-49d4-bf64-a75636a99237","system_id":"levelo_inurba_marseille","lat":43.314811,"lon":5.373103,"is_reserved":false,"is_disabled":false,"rental_uris":{"android":"levelo://app?vid=58f68b28-61fb-49d4-bf64-a75636a99237","ios":"levelo://app?vid=58f68b28-61fb-49d4-bf64-a75636a99237"},"vehicle_type_id":"4","last_reported":1677381580,"current_range_meters":24000,"station_id":"ce4bgt12rcd13ifvqcd0","pricing_plan_id":"free"},{"bike_id":"41a36e8f-5ba3-48aa-a9a5-bb178f5effed","system_id":"levelo_inurba_marseille","lat":43.31488,"lon":5.3731,"is_reserved":false,"is_disabled":false,"rental_uris":{"android":"levelo://app?vid=41a36e8f-5ba3-48aa-a9a5-bb178f5effed","ios":"levelo://app?vid=41a36e8f-5ba3-48aa-a9a5-bb178f5effed"},"vehicle_type_id":"4","last_reported":1677381580,"current_range_meters":0,"station_id":"ce4bgt12rcd13ifvqcd0","pricing_plan_id":"free"},{"bike_id":"e8186cbc-3731-4be2-b99b-d54b82ef15bd","system_id":"levelo_inurba_marseille","lat":43.30898,"lon":5.37187,"is_reserved":false,"is_disabled":false,"rental_uris":{"android":"levelo://app?vid=e8186cbc-3731-4be2-b99b-d54b82ef15bd","ios":"levelo://app?vid=e8186cbc-3731-4be2-b99b-d54b82ef15bd"},"vehicle_type_id":"4","last_reported":1677381580,"current_range_meters":3200,"station_id":"","pricing_plan_id":"free"},{"bike_id":"cf2635de-b927-4f1e-b049-29a347f019d9","system_id":"levelo_inurba_marseille","lat":43.308614,"lon":5.372098,"is_reserved":false,"is_disabled":false,"rental_uris":{"android":"levelo://app?vid=cf2635de-b927-4f1e-b049-29a347f019d9","ios":"levelo://app?vid=cf2635de-b927-4f1e-b049-29a347f019d9"},"vehicle_type_id":"4","last_reported":1677381580,"current_range_meters":26000,"station_id":"ce4bguh2rcd13ifvqckg","pricing_plan_id":"free"},{"bike_id":"b8d91555-2e76-4466-9aad-2462406ee06d","system_id":"levelo_inurba_marseille","lat":43.308614,"lon":5.372098,"is_reserved":false,"is_disabled":false,"rental_uris":{"android":"levelo://app?vid=b8d91555-2e76-4466-9aad-2462406ee06d","ios":"levelo://app?vid=b8d91555-2e76-4466-9aad-2462406ee06d"},"vehicle_type_id":"4","last_reported":1677381580,"current_range_meters":0,"station_id":"ce4bguh2rcd13ifvqckg","pricing_plan_id":"free"},{"bike_id":"16cb7486-88fc-4fc5-aeb9-dd2fddcfd60d","system_id":"levelo_inurba_marseille","lat":43.308614,"lon":5.372098,"is_reserved":false,"is_disabled":false,"rental_uris":{"android":"levelo://app?vid=16cb7486-88fc-4fc5-aeb9-dd2fddcfd60d","ios":"levelo://app?vid=16cb7486-88fc-4fc5-aeb9-dd2fddcfd60d"},"vehicle_type_id":"4","last_reported":1677381580,"current_range_meters":0,"station_id":"ce4bguh2rcd13ifvqckg","pricing_plan_id":"free"},{"bike_id":"aed2c2b7-caa1-4831-bb45-e8fc4347cce5","system_id":"levelo_inurba_marseille","lat":43.308614,"lon":5.372098,"is_reserved":false,"is_disabled":false,"rental_uris":{"android":"levelo://app?vid=aed2c2b7-caa1-4831-bb45-e8fc4347cce5","ios":"levelo://app?vid=aed2c2b7-caa1-4831-bb45-e8fc4347cce5"},"vehicle_type_id":"4","last_reported":1677381580,"current_range_meters":12800,"station_id":"ce4bguh2rcd13ifvqckg","pricing_plan_id":"free"},{"bike_id":"09108bf0-6561-463b-81c5-392ff0b5348d","system_id":"levelo_inurba_marseille","lat":43.308614,"lon":5.372098,"is_reserved":false,"is_disabled":false,"rental_uris":{"android":"levelo://app?vid=09108bf0-6561-463b-81c5-392ff0b5348d","ios":"levelo://app?vid=09108bf0-6561-463b-81c5-392ff0b5348d"},"vehicle_type_id":"4","last_reported":1677381580,"current_range_meters":24000,"station_id":"ce4bguh2rcd13ifvqckg","pricing_plan_id":"free"},{"bike_id":"1fc67af9-d569-4d60-af90-7220eab46e00","system_id":"levelo_inurba_marseille","lat":43.305989,"lon":5.37225,"is_reserved":false,"is_disabled":false,"rental_uris":{"android":"levelo://app?vid=1fc67af9-d569-4d60-af90-7220eab46e00","ios":"levelo://app?vid=1fc67af9-d569-4d60-af90-7220eab46e00"},"vehicle_type_id":"4","last_reported":1677381580,"current_range_meters":25600,"station_id":"ce4bgqh2rcd13ifvqc4g","pricing_plan_id":"free"},{"bike_id":"cc55aa2f-90dc-447e-9bad-a961a716a2a8","system_id":"levelo_inurba_marseille","lat":43.306058,"lon":5.372158,"is_reserved":false,"is_disabled":false,"rental_uris":{"android":"levelo://app?vid=cc55aa2f-90dc-447e-9bad-a961a716a2a8","ios":"levelo://app?vid=cc55aa2f-90dc-447e-9bad-a961a716a2a8"},"vehicle_type_id":"4","last_reported":1677381580,"current_range_meters":12400,"station_id":"ce4bgqh2rcd13ifvqc4g","pricing_plan_id":"free"},{"bike_id":"4127cad3-5a33-4220-936e-55acab2f8289","system_id":"levelo_inurba_marseille","lat":43.306058,"lon":5.372162,"is_reserved":false,"is_disabled":false,"rental_uris":{"android":"levelo://app?vid=4127cad3-5a33-4220-936e-55acab2f8289","ios":"levelo://app?vid=4127cad3-5a33-4220-936e-55acab2f8289"},"vehicle_type_id":"4","last_reported":1677381580,"current_range_meters":20800,"station_id":"","pricing_plan_id":"free"},{"bike_id":"0e3f74ba-769a-4bfd-b396-b5ada89008e8","system_id":"levelo_inurba_marseille","lat":43.30607,"lon":5.3722,"is_reserved":false,"is_disabled":false,"rental_uris":{"android":"levelo://app?vid=0e3f74ba-769a-4bfd-b396-b5ada89008e8","ios":"levelo://app?vid=0e3f74ba-769a-4bfd-b396-b5ada89008e8"},"vehicle_type_id":"4","last_reported":1677381580,"current_range_meters":28800,"station_id":"ce4bgqh2rcd13ifvqc4g","pricing_plan_id":"free"},{"bike_id":"8f2eabc2-dbf4-4521-94c4-06830ec67f4e","system_id":"levelo_inurba_marseille","lat":43.305989,"lon":5.37225,"is_reserved":false,"is_disabled":false,"rental_uris":{"android":"levelo://app?vid=8f2eabc2-dbf4-4521-94c4-06830ec67f4e","ios":"levelo://app?vid=8f2eabc2-dbf4-4521-94c4-06830ec67f4e"},"vehicle_type_id":"4","last_reported":1677381580,"current_range_meters":30800,"station_id":"ce4bgqh2rcd13ifvqc4g","pricing_plan_id":"free"},{"bike_id":"68d8e95b-af0e-435e-ade1-8de3250855e6","system_id":"levelo_inurba_marseille","lat":43.305989,"lon":5.37225,"is_reserved":false,"is_disabled":false,"rental_uris":{"android":"levelo://app?vid=68d8e95b-af0e-435e-ade1-8de3250855e6","ios":"levelo://app?vid=68d8e95b-af0e-435e-ade1-8de3250855e6"},"vehicle_type_id":"4","last_reported":1677381580,"current_range_meters":5600,"station_id":"ce4bgqh2rcd13ifvqc4g","pricing_plan_id":"free"},{"bike_id":"606fca81-1850-4b4d-8e3a-4da290fe53f3","system_id":"levelo_inurba_marseille","lat":43.305989,"lon":5.37225,"is_reserved":false,"is_disabled":false,"rental_uris":{"android":"levelo://app?vid=606fca81-1850-4b4d-8e3a-4da290fe53f3","ios":"levelo://app?vid=606fca81-1850-4b4d-8e3a-4da290fe53f3"},"vehicle_type_id":"4","last_reported":1677381580,"current_range_meters":18800,"station_id":"ce4bgqh2rcd13ifvqc4g","pricing_plan_id":"free"},{"bike_id":"7551c97e-9c02-4445-8efc-aca3faead3e8","system_id":"levelo_inurba_marseille","lat":43.305989,"lon":5.37225,"is_reserved":false,"is_disabled":false,"rental_uris":{"android":"levelo://app?vid=7551c97e-9c02-4445-8efc-aca3faead3e8","ios":"levelo://app?vid=7551c97e-9c02-4445-8efc-aca3faead3e8"},"vehicle_type_id":"4","last_reported":1677381580,"current_range_meters":14000,"station_id":"ce4bgqh2rcd13ifvqc4g","pricing_plan_id":"free"},{"bike_id":"1254b5c6-38b5-4ec0-b8ca-cbe2fd879831","system_id":"levelo_inurba_marseille","lat":43.305989,"lon":5.37225,"is_reserved":false,"is_disabled":false,"rental_uris":{"android":"levelo://app?vid=1254b5c6-38b5-4ec0-b8ca-cbe2fd879831","ios":"levelo://app?vid=1254b5c6-38b5-4ec0-b8ca-cbe2fd879831"},"vehicle_type_id":"4","last_reported":1677381580,"current_range_meters":16000,"station_id":"ce4bgqh2rcd13ifvqc4g","pricing_plan_id":"free"},{"bike_id":"4e7c24b5-9242-41f5-9778-cd55ab68ab93","system_id":"levelo_inurba_marseille","lat":43.316937,"lon":5.376574,"is_reserved":false,"is_disabled":false,"rental_uris":{"android":"levelo://app?vid=4e7c24b5-9242-41f5-9778-cd55ab68ab93","ios":"levelo://app?vid=4e7c24b5-9242-41f5-9778-cd55ab68ab93"},"vehicle_type_id":"4","last_reported":1677381580,"current_range_meters":0,"station_id":"","pricing_plan_id":"free"},{"bike_id":"18bc6d10-df91-4169-b91d-72981778f68b","system_id":"levelo_inurba_marseille","lat":43.301939,"lon":5.366286,"is_reserved":false,"is_disabled":false,"rental_uris":{"android":"levelo://app?vid=18bc6d10-df91-4169-b91d-72981778f68b","ios":"levelo://app?vid=18bc6d10-df91-4169-b91d-72981778f68b"},"vehicle_type_id":"4","last_reported":1677381580,"current_range_meters":1600,"station_id":"ce4bgrh2rcd13ifvqc8g","pricing_plan_id":"free"},{"bike_id":"6a08fd4d-df42-4b31-947c-7649b9f4a576","system_id":"levelo_inurba_marseille","lat":43.301939,"lon":5.366286,"is_reserved":false,"is_disabled":false,"rental_uris":{"android":"levelo://app?vid=6a08fd4d-df42-4b31-947c-7649b9f4a576","ios":"levelo://app?vid=6a08fd4d-df42-4b31-947c-7649b9f4a576"},"vehicle_type_id":"4","last_reported":1677381580,"current_range_meters":31600,"station_id":"ce4bgrh2rcd13ifvqc8g","pricing_plan_id":"free"},{"bike_id":"5f1dfe38-b8d5-4e67-8340-6b6f8c472aea","system_id":"levelo_inurba_marseille","lat":43.301939,"lon":5.366286,"is_reserved":false,"is_disabled":false,"rental_uris":{"android":"levelo://app?vid=5f1dfe38-b8d5-4e67-8340-6b6f8c472aea","ios":"levelo://app?vid=5f1dfe38-b8d5-4e67-8340-6b6f8c472aea"},"vehicle_type_id":"4","last_reported":1677381580,"current_range_meters":26800,"station_id":"ce4bgrh2rcd13ifvqc8g","pricing_plan_id":"free"},{"bike_id":"0eb82cb0-2441-46cf-8efb-d91d5c4a05e5","system_id":"levelo_inurba_marseille","lat":43.308012,"lon":5.381511,"is_reserved":false,"is_disabled":false,"rental_uris":{"android":"levelo://app?vid=0eb82cb0-2441-46cf-8efb-d91d5c4a05e5","ios":"levelo://app?vid=0eb82cb0-2441-46cf-8efb-d91d5c4a05e5"},"vehicle_type_id":"4","last_reported":1677381580,"current_range_meters":7200,"station_id":"ce4bgt12rcd13ifvqce0","pricing_plan_id":"free"},{"bike_id":"3ce4fa90-b447-401f-9a24-766535def6e0","system_id":"levelo_inurba_marseille","lat":43.308012,"lon":5.381511,"is_reserved":false,"is_disabled":false,"rental_uris":{"android":"levelo://app?vid=3ce4fa90-b447-401f-9a24-766535def6e0","ios":"levelo://app?vid=3ce4fa90-b447-401f-9a24-766535def6e0"},"vehicle_type_id":"4","last_reported":1677381580,"current_range_meters":4400,"station_id":"ce4bgt12rcd13ifvqce0","pricing_plan_id":"free"},{"bike_id":"fc829350-8224-448d-88f3-ab8cdd709ea5","system_id":"levelo_inurba_marseille","lat":43.308012,"lon":5.381511,"is_reserved":false,"is_disabled":false,"rental_uris":{"android":"levelo://app?vid=fc829350-8224-448d-88f3-ab8cdd709ea5","ios":"levelo://app?vid=fc829350-8224-448d-88f3-ab8cdd709ea5"},"vehicle_type_id":"4","last_reported":1677381580,"current_range_meters":7200,"station_id":"ce4bgt12rcd13ifvqce0","pricing_plan_id":"free"},{"bike_id":"497d7509-7312-492b-b86e-0e50e13de9bb","system_id":"levelo_inurba_marseille","lat":43.308012,"lon":5.381511,"is_reserved":false,"is_disabled":false,"rental_uris":{"android":"levelo://app?vid=497d7509-7312-492b-b86e-0e50e13de9bb","ios":"levelo://app?vid=497d7509-7312-492b-b86e-0e50e13de9bb"},"vehicle_type_id":"4","last_reported":1677381580,"current_range_meters":15600,"station_id":"ce4bgt12rcd13ifvqce0","pricing_plan_id":"free"},{"bike_id":"7b8f73ab-2561-428b-991b-9b3b851110cb","system_id":"levelo_inurba_marseille","lat":43.308012,"lon":5.381511,"is_reserved":false,"is_disabled":false,"rental_uris":{"android":"levelo://app?vid=7b8f73ab-2561-428b-991b-9b3b851110cb","ios":"levelo://app?vid=7b8f73ab-2561-428b-991b-9b3b851110cb"},"vehicle_type_id":"4","last_reported":1677381580,"current_range_meters":7200,"station_id":"ce4bgt12rcd13ifvqce0","pricing_plan_id":"free"},{"bike_id":"07cd78b3-3e05-4fbd-8db6-72bf834a24af","system_id":"levelo_inurba_marseille","lat":43.308012,"lon":5.381511,"is_reserved":false,"is_disabled":false,"rental_uris":{"android":"levelo://app?vid=07cd78b3-3e05-4fbd-8db6-72bf834a24af","ios":"levelo://app?vid=07cd78b3-3e05-4fbd-8db6-72bf834a24af"},"vehicle_type_id":"4","last_reported":1677381580,"current_range_meters":8800,"station_id":"ce4bgt12rcd13ifvqce0","pricing_plan_id":"free"},{"bike_id":"4c5711fc-a0b2-4e82-bdc0-155caf0736c1","system_id":"levelo_inurba_marseille","lat":43.308012,"lon":5.381511,"is_reserved":false,"is_disabled":false,"rental_uris":{"android":"levelo://app?vid=4c5711fc-a0b2-4e82-bdc0-155caf0736c1","ios":"levelo://app?vid=4c5711fc-a0b2-4e82-bdc0-155caf0736c1"},"vehicle_type_id":"4","last_reported":1677381580,"current_range_meters":20800,"station_id":"ce4bgt12rcd13ifvqce0","pricing_plan_id":"free"},{"bike_id":"cf072469-0fc2-48b8-b7d8-8a3006d14ce5","system_id":"levelo_inurba_marseille","lat":43.308012,"lon":5.381511,"is_reserved":false,"is_disabled":false,"rental_uris":{"android":"levelo://app?vid=cf072469-0fc2-48b8-b7d8-8a3006d14ce5","ios":"levelo://app?vid=cf072469-0fc2-48b8-b7d8-8a3006d14ce5"},"vehicle_type_id":"4","last_reported":1677381580,"current_range_meters":10400,"station_id":"ce4bgt12rcd13ifvqce0","pricing_plan_id":"free"},{"bike_id":"02394f55-ec80-464c-baf0-881349d1d529","system_id":"levelo_inurba_marseille","lat":43.308012,"lon":5.381511,"is_reserved":false,"is_disabled":false,"rental_uris":{"android":"levelo://app?vid=02394f55-ec80-464c-baf0-881349d1d529","ios":"levelo://app?vid=02394f55-ec80-464c-baf0-881349d1d529"},"vehicle_type_id":"4","last_reported":1677381580,"current_range_meters":4800,"station_id":"ce4bgt12rcd13ifvqce0","pricing_plan_id":"free"},{"bike_id":"9bb4b6b0-eb67-45a4-9f3e-4118264019e9","system_id":"levelo_inurba_marseille","lat":43.308012,"lon":5.381511,"is_reserved":false,"is_disabled":false,"rental_uris":{"android":"levelo://app?vid=9bb4b6b0-eb67-45a4-9f3e-4118264019e9","ios":"levelo://app?vid=9bb4b6b0-eb67-45a4-9f3e-4118264019e9"},"vehicle_type_id":"4","last_reported":1677381580,"current_range_meters":8400,"station_id":"ce4bgt12rcd13ifvqce0","pricing_plan_id":"free"},{"bike_id":"96b61ca2-2b1e-4c1e-bd2c-1028cebf5b4e","system_id":"levelo_inurba_marseille","lat":43.308012,"lon":5.381511,"is_reserved":false,"is_disabled":false,"rental_uris":{"android":"levelo://app?vid=96b61ca2-2b1e-4c1e-bd2c-1028cebf5b4e","ios":"levelo://app?vid=96b61ca2-2b1e-4c1e-bd2c-1028cebf5b4e"},"vehicle_type_id":"4","last_reported":1677381580,"current_range_meters":11200,"station_id":"ce4bgt12rcd13ifvqce0","pricing_plan_id":"free"},{"bike_id":"41ac8b6e-2249-48f4-8a65-6426f631bf45","system_id":"levelo_inurba_marseille","lat":43.308012,"lon":5.381511,"is_reserved":false,"is_disabled":false,"rental_uris":{"android":"levelo://app?vid=41ac8b6e-2249-48f4-8a65-6426f631bf45","ios":"levelo://app?vid=41ac8b6e-2249-48f4-8a65-6426f631bf45"},"vehicle_type_id":"4","last_reported":1677381580,"current_range_meters":20000,"station_id":"ce4bgt12rcd13ifvqce0","pricing_plan_id":"free"},{"bike_id":"e11d22f2-1b88-434c-945f-9872300d4726","system_id":"levelo_inurba_marseille","lat":43.308012,"lon":5.381511,"is_reserved":false,"is_disabled":false,"rental_uris":{"android":"levelo://app?vid=e11d22f2-1b88-434c-945f-9872300d4726","ios":"levelo://app?vid=e11d22f2-1b88-434c-945f-9872300d4726"},"vehicle_type_id":"4","last_reported":1677381580,"current_range_meters":6400,"station_id":"ce4bgt12rcd13ifvqce0","pricing_plan_id":"free"},{"bike_id":"f8a43502-0c99-419f-a3dd-a29c435cd8dc","system_id":"levelo_inurba_marseille","lat":43.304606,"lon":5.379026,"is_reserved":false,"is_disabled":false,"rental_uris":{"android":"levelo://app?vid=f8a43502-0c99-419f-a3dd-a29c435cd8dc","ios":"levelo://app?vid=f8a43502-0c99-419f-a3dd-a29c435cd8dc"},"vehicle_type_id":"4","last_reported":1677381580,"current_range_meters":27600,"station_id":"ce4bgup2rcd13ifvqcn0","pricing_plan_id":"free"},{"bike_id":"e48499bc-ad17-4626-9112-00767b7849f2","system_id":"levelo_inurba_marseille","lat":43.304606,"lon":5.379026,"is_reserved":false,"is_disabled":false,"rental_uris":{"android":"levelo://app?vid=e48499bc-ad17-4626-9112-00767b7849f2","ios":"levelo://app?vid=e48499bc-ad17-4626-9112-00767b7849f2"},"vehicle_type_id":"4","last_reported":1677381580,"current_range_meters":32000,"station_id":"ce4bgup2rcd13ifvqcn0","pricing_plan_id":"free"},{"bike_id":"5bf9fa5f-df8e-494e-8543-69e5d3722629","system_id":"levelo_inurba_marseille","lat":43.304606,"lon":5.379026,"is_reserved":false,"is_disabled":false,"rental_uris":{"android":"levelo://app?vid=5bf9fa5f-df8e-494e-8543-69e5d3722629","ios":"levelo://app?vid=5bf9fa5f-df8e-494e-8543-69e5d3722629"},"vehicle_type_id":"4","last_reported":1677381580,"current_range_meters":25200,"station_id":"ce4bgup2rcd13ifvqcn0","pricing_plan_id":"free"},{"bike_id":"86a5b119-7020-4f41-8629-84c3c047e629","system_id":"levelo_inurba_marseille","lat":43.304606,"lon":5.379026,"is_reserved":false,"is_disabled":false,"rental_uris":{"android":"levelo://app?vid=86a5b119-7020-4f41-8629-84c3c047e629","ios":"levelo://app?vid=86a5b119-7020-4f41-8629-84c3c047e629"},"vehicle_type_id":"4","last_reported":1677381580,"current_range_meters":18800,"station_id":"ce4bgup2rcd13ifvqcn0","pricing_plan_id":"free"},{"bike_id":"21907fc5-d4d2-471c-9104-052a562aa2f2","system_id":"levelo_inurba_marseille","lat":43.316462,"lon":5.382783,"is_reserved":false,"is_disabled":false,"rental_uris":{"android":"levelo://app?vid=21907fc5-d4d2-471c-9104-052a562aa2f2","ios":"levelo://app?vid=21907fc5-d4d2-471c-9104-052a562aa2f2"},"vehicle_type_id":"4","last_reported":1677381580,"current_range_meters":26400,"station_id":"","pricing_plan_id":"free"},{"bike_id":"5f0e9cfe-98cb-4f5c-80cc-d084f5a14fff","system_id":"levelo_inurba_marseille","lat":43.30143,"lon":5.37413,"is_reserved":false,"is_disabled":false,"rental_uris":{"android":"levelo://app?vid=5f0e9cfe-98cb-4f5c-80cc-d084f5a14fff","ios":"levelo://app?vid=5f0e9cfe-98cb-4f5c-80cc-d084f5a14fff"},"vehicle_type_id":"4","last_reported":1677381580,"current_range_meters":13600,"station_id":"ce4bgs92rcd13ifvqcc0","pricing_plan_id":"free"},{"bike_id":"fc62795b-be17-4148-b58c-c980e9a9324b","system_id":"levelo_inurba_marseille","lat":43.313571,"lon":5.384829,"is_reserved":false,"is_disabled":false,"rental_uris":{"android":"levelo://app?vid=fc62795b-be17-4148-b58c-c980e9a9324b","ios":"levelo://app?vid=fc62795b-be17-4148-b58c-c980e9a9324b"},"vehicle_type_id":"4","last_reported":1677381580,"current_range_meters":0,"station_id":"ce4bgt92rcd13ifvqcf0","pricing_plan_id":"free"},{"bike_id":"b5104934-024b-4b51-ac9d-4323219470b6","system_id":"levelo_inurba_marseille","lat":43.313571,"lon":5.384829,"is_reserved":false,"is_disabled":false,"rental_uris":{"android":"levelo://app?vid=b5104934-024b-4b51-ac9d-4323219470b6","ios":"levelo://app?vid=b5104934-024b-4b51-ac9d-4323219470b6"},"vehicle_type_id":"4","last_reported":1677381580,"current_range_meters":12800,"station_id":"ce4bgt92rcd13ifvqcf0","pricing_plan_id":"free"},{"bike_id":"5fc40874-2556-4551-a67a-0e08e015cbdc","system_id":"levelo_inurba_marseille","lat":43.313571,"lon":5.384829,"is_reserved":false,"is_disabled":false,"rental_uris":{"android":"levelo://app?vid=5fc40874-2556-4551-a67a-0e08e015cbdc","ios":"levelo://app?vid=5fc40874-2556-4551-a67a-0e08e015cbdc"},"vehicle_type_id":"4","last_reported":1677381580,"current_range_meters":15600,"station_id":"ce4bgt92rcd13ifvqcf0","pricing_plan_id":"free"},{"bike_id":"7fce9bc7-f5f7-49a8-87f0-e16abe13293c","system_id":"levelo_inurba_marseille","lat":43.313571,"lon":5.384829,"is_reserved":false,"is_disabled":false,"rental_uris":{"android":"levelo://app?vid=7fce9bc7-f5f7-49a8-87f0-e16abe13293c","ios":"levelo://app?vid=7fce9bc7-f5f7-49a8-87f0-e16abe13293c"},"vehicle_type_id":"4","last_reported":1677381580,"current_range_meters":6000,"station_id":"ce4bgt92rcd13ifvqcf0","pricing_plan_id":"free"},{"bike_id":"55143d06-666a-4fd3-a7eb-7b8bee8cfcb7","system_id":"levelo_inurba_marseille","lat":43.29852,"lon":5.36281,"is_reserved":false,"is_disabled":false,"rental_uris":{"android":"levelo://app?vid=55143d06-666a-4fd3-a7eb-7b8bee8cfcb7","ios":"levelo://app?vid=55143d06-666a-4fd3-a7eb-7b8bee8cfcb7"},"vehicle_type_id":"4","last_reported":1677381580,"current_range_meters":7600,"station_id":"ce4bgpp2rcd13ifvqc3g","pricing_plan_id":"free"},{"bike_id":"0377f8d2-a0da-4c09-af6d-1abc4e6ed21b","system_id":"levelo_inurba_marseille","lat":43.29851,"lon":5.36277,"is_reserved":false,"is_disabled":false,"rental_uris":{"android":"levelo://app?vid=0377f8d2-a0da-4c09-af6d-1abc4e6ed21b","ios":"levelo://app?vid=0377f8d2-a0da-4c09-af6d-1abc4e6ed21b"},"vehicle_type_id":"4","last_reported":1677381580,"current_range_meters":24400,"station_id":"ce4bgpp2rcd13ifvqc3g","pricing_plan_id":"free"},{"bike_id":"c34d9359-7f76-40b3-8fcf-20b2858ff9b7","system_id":"levelo_inurba_marseille","lat":43.2985,"lon":5.36283,"is_reserved":false,"is_disabled":false,"rental_uris":{"android":"levelo://app?vid=c34d9359-7f76-40b3-8fcf-20b2858ff9b7","ios":"levelo://app?vid=c34d9359-7f76-40b3-8fcf-20b2858ff9b7"},"vehicle_type_id":"4","last_reported":1677381580,"current_range_meters":25600,"station_id":"ce4bgpp2rcd13ifvqc3g","pricing_plan_id":"free"},{"bike_id":"ba0202cb-7bbe-4a19-9dde-0da9cf577abf","system_id":"levelo_inurba_marseille","lat":43.2985,"lon":5.36282,"is_reserved":false,"is_disabled":false,"rental_uris":{"android":"levelo://app?vid=ba0202cb-7bbe-4a19-9dde-0da9cf577abf","ios":"levelo://app?vid=ba0202cb-7bbe-4a19-9dde-0da9cf577abf"},"vehicle_type_id":"4","last_reported":1677381580,"current_range_meters":9600,"station_id":"ce4bgpp2rcd13ifvqc3g","pricing_plan_id":"free"},{"bike_id":"2eb3ad4b-37cb-4a81-94c0-a9b9851ba695","system_id":"levelo_inurba_marseille","lat":43.298489,"lon":5.362832,"is_reserved":false,"is_disabled":false,"rental_uris":{"android":"levelo://app?vid=2eb3ad4b-37cb-4a81-94c0-a9b9851ba695","ios":"levelo://app?vid=2eb3ad4b-37cb-4a81-94c0-a9b9851ba695"},"vehicle_type_id":"4","last_reported":1677381580,"current_range_meters":22000,"station_id":"ce4bgpp2rcd13ifvqc3g","pricing_plan_id":"free"},{"bike_id":"88c2dc93-ce69-40c2-a5de-0cba4735aec5","system_id":"levelo_inurba_marseille","lat":43.305364,"lon":5.384119,"is_reserved":false,"is_disabled":false,"rental_uris":{"android":"levelo://app?vid=88c2dc93-ce69-40c2-a5de-0cba4735aec5","ios":"levelo://app?vid=88c2dc93-ce69-40c2-a5de-0cba4735aec5"},"vehicle_type_id":"4","last_reported":1677381580,"current_range_meters":8000,"station_id":"ce4bgg92rcd13ifvqb30","pricing_plan_id":"free"},{"bike_id":"de8f0124-661e-442b-861a-9f9d653e3415","system_id":"levelo_inurba_marseille","lat":43.305364,"lon":5.384119,"is_reserved":false,"is_disabled":false,"rental_uris":{"android":"levelo://app?vid=de8f0124-661e-442b-861a-9f9d653e3415","ios":"levelo://app?vid=de8f0124-661e-442b-861a-9f9d653e3415"},"vehicle_type_id":"4","last_reported":1677381580,"current_range_meters":12400,"station_id":"ce4bgg92rcd13ifvqb30","pricing_plan_id":"free"},{"bike_id":"7bdbcc9c-cbd7-4591-9b6a-8e25fb857791","system_id":"levelo_inurba_marseille","lat":43.305364,"lon":5.384119,"is_reserved":false,"is_disabled":false,"rental_uris":{"android":"levelo://app?vid=7bdbcc9c-cbd7-4591-9b6a-8e25fb857791","ios":"levelo://app?vid=7bdbcc9c-cbd7-4591-9b6a-8e25fb857791"},"vehicle_type_id":"4","last_reported":1677381580,"current_range_meters":8000,"station_id":"ce4bgg92rcd13ifvqb30","pricing_plan_id":"free"},{"bike_id":"b77f95c3-a651-44d9-9b82-161bf97bee29","system_id":"levelo_inurba_marseille","lat":43.305364,"lon":5.384119,"is_reserved":false,"is_disabled":false,"rental_uris":{"android":"levelo://app?vid=b77f95c3-a651-44d9-9b82-161bf97bee29","ios":"levelo://app?vid=b77f95c3-a651-44d9-9b82-161bf97bee29"},"vehicle_type_id":"4","last_reported":1677381580,"current_range_meters":0,"station_id":"ce4bgg92rcd13ifvqb30","pricing_plan_id":"free"},{"bike_id":"6f56bbec-3938-4adb-9700-24eb452345dc","system_id":"levelo_inurba_marseille","lat":43.305403,"lon":5.384303,"is_reserved":false,"is_disabled":false,"rental_uris":{"android":"levelo://app?vid=6f56bbec-3938-4adb-9700-24eb452345dc","ios":"levelo://app?vid=6f56bbec-3938-4adb-9700-24eb452345dc"},"vehicle_type_id":"4","last_reported":1677381580,"current_range_meters":0,"station_id":"","pricing_plan_id":"free"},{"bike_id":"dd481308-6964-42ad-aa0e-c64861b2f32c","system_id":"levelo_inurba_marseille","lat":43.29844,"lon":5.36275,"is_reserved":false,"is_disabled":false,"rental_uris":{"android":"levelo://app?vid=dd481308-6964-42ad-aa0e-c64861b2f32c","ios":"levelo://app?vid=dd481308-6964-42ad-aa0e-c64861b2f32c"},"vehicle_type_id":"4","last_reported":1677381580,"current_range_meters":10400,"station_id":"ce4bgpp2rcd13ifvqc3g","pricing_plan_id":"free"},{"bike_id":"6e525175-cb45-4a70-821a-15f6733f8838","system_id":"levelo_inurba_marseille","lat":43.305364,"lon":5.384119,"is_reserved":false,"is_disabled":false,"rental_uris":{"android":"levelo://app?vid=6e525175-cb45-4a70-821a-15f6733f8838","ios":"levelo://app?vid=6e525175-cb45-4a70-821a-15f6733f8838"},"vehicle_type_id":"4","last_reported":1677381580,"current_range_meters":21200,"station_id":"ce4bgg92rcd13ifvqb30","pricing_plan_id":"free"},{"bike_id":"0880c3d6-5e32-4ea8-b5dd-676b0e7ffe0e","system_id":"levelo_inurba_marseille","lat":43.29844,"lon":5.36272,"is_reserved":false,"is_disabled":false,"rental_uris":{"android":"levelo://app?vid=0880c3d6-5e32-4ea8-b5dd-676b0e7ffe0e","ios":"levelo://app?vid=0880c3d6-5e32-4ea8-b5dd-676b0e7ffe0e"},"vehicle_type_id":"4","last_reported":1677381580,"current_range_meters":2800,"station_id":"","pricing_plan_id":"free"},{"bike_id":"d654ec34-145b-4b11-96f0-79df6e61d985","system_id":"levelo_inurba_marseille","lat":43.29843,"lon":5.36278,"is_reserved":false,"is_disabled":false,"rental_uris":{"android":"levelo://app?vid=d654ec34-145b-4b11-96f0-79df6e61d985","ios":"levelo://app?vid=d654ec34-145b-4b11-96f0-79df6e61d985"},"vehicle_type_id":"4","last_reported":1677381580,"current_range_meters":25200,"station_id":"","pricing_plan_id":"free"},{"bike_id":"bb9c9d25-11f3-4144-b241-213c4e582624","system_id":"levelo_inurba_marseille","lat":43.305364,"lon":5.384119,"is_reserved":false,"is_disabled":false,"rental_uris":{"android":"levelo://app?vid=bb9c9d25-11f3-4144-b241-213c4e582624","ios":"levelo://app?vid=bb9c9d25-11f3-4144-b241-213c4e582624"},"vehicle_type_id":"4","last_reported":1677381580,"current_range_meters":6800,"station_id":"ce4bgg92rcd13ifvqb30","pricing_plan_id":"free"},{"bike_id":"8acc8726-5569-4ea9-b1ed-e0c317081a70","system_id":"levelo_inurba_marseille","lat":43.298402,"lon":5.362671,"is_reserved":false,"is_disabled":false,"rental_uris":{"android":"levelo://app?vid=8acc8726-5569-4ea9-b1ed-e0c317081a70","ios":"levelo://app?vid=8acc8726-5569-4ea9-b1ed-e0c317081a70"},"vehicle_type_id":"4","last_reported":1677381580,"current_range_meters":27600,"station_id":"ce4bgpp2rcd13ifvqc3g","pricing_plan_id":"free"},{"bike_id":"b528343a-5283-4b54-89a4-9ff9027c59d6","system_id":"levelo_inurba_marseille","lat":43.311722,"lon":5.387247,"is_reserved":false,"is_disabled":false,"rental_uris":{"android":"levelo://app?vid=b528343a-5283-4b54-89a4-9ff9027c59d6","ios":"levelo://app?vid=b528343a-5283-4b54-89a4-9ff9027c59d6"},"vehicle_type_id":"4","last_reported":1677381580,"current_range_meters":29200,"station_id":"ce4bgv12rcd13ifvqcp0","pricing_plan_id":"free"},{"bike_id":"8c6f6e3a-b48d-4c43-a480-a35f8f9f7578","system_id":"levelo_inurba_marseille","lat":43.305329,"lon":5.384356,"is_reserved":false,"is_disabled":false,"rental_uris":{"android":"levelo://app?vid=8c6f6e3a-b48d-4c43-a480-a35f8f9f7578","ios":"levelo://app?vid=8c6f6e3a-b48d-4c43-a480-a35f8f9f7578"},"vehicle_type_id":"4","last_reported":1677381580,"current_range_meters":30800,"station_id":"ce4bgg92rcd13ifvqb30","pricing_plan_id":"free"},{"bike_id":"ddbfbe75-7914-4c2e-9d47-ec29e9baaca4","system_id":"levelo_inurba_marseille","lat":43.311722,"lon":5.387247,"is_reserved":false,"is_disabled":false,"rental_uris":{"android":"levelo://app?vid=ddbfbe75-7914-4c2e-9d47-ec29e9baaca4","ios":"levelo://app?vid=ddbfbe75-7914-4c2e-9d47-ec29e9baaca4"},"vehicle_type_id":"4","last_reported":1677381580,"current_range_meters":28000,"station_id":"ce4bgv12rcd13ifvqcp0","pricing_plan_id":"free"},{"bike_id":"2991cb57-bffe-409c-ab4e-d766389952db","system_id":"levelo_inurba_marseille","lat":43.311722,"lon":5.387247,"is_reserved":false,"is_disabled":false,"rental_uris":{"android":"levelo://app?vid=2991cb57-bffe-409c-ab4e-d766389952db","ios":"levelo://app?vid=2991cb57-bffe-409c-ab4e-d766389952db"},"vehicle_type_id":"4","last_reported":1677381580,"current_range_meters":19600,"station_id":"ce4bgv12rcd13ifvqcp0","pricing_plan_id":"free"},{"bike_id":"197af0d6-5467-4203-a676-cdf599dc91a3","system_id":"levelo_inurba_marseille","lat":43.328371,"lon":5.366909,"is_reserved":false,"is_disabled":false,"rental_uris":{"android":"levelo://app?vid=197af0d6-5467-4203-a676-cdf599dc91a3","ios":"levelo://app?vid=197af0d6-5467-4203-a676-cdf599dc91a3"},"vehicle_type_id":"4","last_reported":1677381580,"current_range_meters":23200,"station_id":"ce4bhs92rcd13ifvqi0g","pricing_plan_id":"free"},{"bike_id":"b0fdd08f-ad1c-4f07-8737-19a1b8e7f7a3","system_id":"levelo_inurba_marseille","lat":43.328371,"lon":5.366909,"is_reserved":false,"is_disabled":false,"rental_uris":{"android":"levelo://app?vid=b0fdd08f-ad1c-4f07-8737-19a1b8e7f7a3","ios":"levelo://app?vid=b0fdd08f-ad1c-4f07-8737-19a1b8e7f7a3"},"vehicle_type_id":"4","last_reported":1677381580,"current_range_meters":6400,"station_id":"ce4bhs92rcd13ifvqi0g","pricing_plan_id":"free"},{"bike_id":"e6b3f4ea-1861-433c-a8e8-62d731ab80e1","system_id":"levelo_inurba_marseille","lat":43.328371,"lon":5.366909,"is_reserved":false,"is_disabled":false,"rental_uris":{"android":"levelo://app?vid=e6b3f4ea-1861-433c-a8e8-62d731ab80e1","ios":"levelo://app?vid=e6b3f4ea-1861-433c-a8e8-62d731ab80e1"},"vehicle_type_id":"4","last_reported":1677381580,"current_range_meters":20800,"station_id":"ce4bhs92rcd13ifvqi0g","pricing_plan_id":"free"},{"bike_id":"fb7c1281-44b6-48f3-a05f-cc21e6fd009b","system_id":"levelo_inurba_marseille","lat":43.328371,"lon":5.366909,"is_reserved":false,"is_disabled":false,"rental_uris":{"android":"levelo://app?vid=fb7c1281-44b6-48f3-a05f-cc21e6fd009b","ios":"levelo://app?vid=fb7c1281-44b6-48f3-a05f-cc21e6fd009b"},"vehicle_type_id":"4","last_reported":1677381580,"current_range_meters":14400,"station_id":"ce4bhs92rcd13ifvqi0g","pricing_plan_id":"free"},{"bike_id":"45ea00c2-1072-4a0b-acc6-56898a9f5178","system_id":"levelo_inurba_marseille","lat":43.328371,"lon":5.366909,"is_reserved":false,"is_disabled":false,"rental_uris":{"android":"levelo://app?vid=45ea00c2-1072-4a0b-acc6-56898a9f5178","ios":"levelo://app?vid=45ea00c2-1072-4a0b-acc6-56898a9f5178"},"vehicle_type_id":"4","last_reported":1677381580,"current_range_meters":16400,"station_id":"ce4bhs92rcd13ifvqi0g","pricing_plan_id":"free"},{"bike_id":"bc69dcbf-c5e7-473e-9c3a-5cb1899b37fd","system_id":"levelo_inurba_marseille","lat":43.328371,"lon":5.366909,"is_reserved":false,"is_disabled":false,"rental_uris":{"android":"levelo://app?vid=bc69dcbf-c5e7-473e-9c3a-5cb1899b37fd","ios":"levelo://app?vid=bc69dcbf-c5e7-473e-9c3a-5cb1899b37fd"},"vehicle_type_id":"4","last_reported":1677381580,"current_range_meters":8400,"station_id":"ce4bhs92rcd13ifvqi0g","pricing_plan_id":"free"},{"bike_id":"52f5446f-7797-46b6-81be-14f4f341e138","system_id":"levelo_inurba_marseille","lat":43.328371,"lon":5.366909,"is_reserved":false,"is_disabled":false,"rental_uris":{"android":"levelo://app?vid=52f5446f-7797-46b6-81be-14f4f341e138","ios":"levelo://app?vid=52f5446f-7797-46b6-81be-14f4f341e138"},"vehicle_type_id":"4","last_reported":1677381580,"current_range_meters":18000,"station_id":"ce4bhs92rcd13ifvqi0g","pricing_plan_id":"free"},{"bike_id":"ebd11181-84a3-47b4-8b2e-bf6d389cfbcd","system_id":"levelo_inurba_marseille","lat":43.328371,"lon":5.366909,"is_reserved":false,"is_disabled":false,"rental_uris":{"android":"levelo://app?vid=ebd11181-84a3-47b4-8b2e-bf6d389cfbcd","ios":"levelo://app?vid=ebd11181-84a3-47b4-8b2e-bf6d389cfbcd"},"vehicle_type_id":"4","last_reported":1677381580,"current_range_meters":16800,"station_id":"ce4bhs92rcd13ifvqi0g","pricing_plan_id":"free"},{"bike_id":"1d264247-bd52-4a78-bfd0-64324839d730","system_id":"levelo_inurba_marseille","lat":43.328371,"lon":5.366909,"is_reserved":false,"is_disabled":false,"rental_uris":{"android":"levelo://app?vid=1d264247-bd52-4a78-bfd0-64324839d730","ios":"levelo://app?vid=1d264247-bd52-4a78-bfd0-64324839d730"},"vehicle_type_id":"4","last_reported":1677381580,"current_range_meters":9600,"station_id":"ce4bhs92rcd13ifvqi0g","pricing_plan_id":"free"},{"bike_id":"bc9c1b55-928c-4fce-a6ef-d6a72636c5c8","system_id":"levelo_inurba_marseille","lat":43.328371,"lon":5.366909,"is_reserved":false,"is_disabled":false,"rental_uris":{"android":"levelo://app?vid=bc9c1b55-928c-4fce-a6ef-d6a72636c5c8","ios":"levelo://app?vid=bc9c1b55-928c-4fce-a6ef-d6a72636c5c8"},"vehicle_type_id":"4","last_reported":1677381580,"current_range_meters":0,"station_id":"ce4bhs92rcd13ifvqi0g","pricing_plan_id":"free"},{"bike_id":"37b329ef-726b-45ed-8520-2998c5c0e83b","system_id":"levelo_inurba_marseille","lat":43.328371,"lon":5.366909,"is_reserved":false,"is_disabled":false,"rental_uris":{"android":"levelo://app?vid=37b329ef-726b-45ed-8520-2998c5c0e83b","ios":"levelo://app?vid=37b329ef-726b-45ed-8520-2998c5c0e83b"},"vehicle_type_id":"4","last_reported":1677381580,"current_range_meters":12400,"station_id":"ce4bhs92rcd13ifvqi0g","pricing_plan_id":"free"},{"bike_id":"ea0e675a-6b3e-4aac-812d-51d81478604c","system_id":"levelo_inurba_marseille","lat":43.328371,"lon":5.366909,"is_reserved":false,"is_disabled":false,"rental_uris":{"android":"levelo://app?vid=ea0e675a-6b3e-4aac-812d-51d81478604c","ios":"levelo://app?vid=ea0e675a-6b3e-4aac-812d-51d81478604c"},"vehicle_type_id":"4","last_reported":1677381580,"current_range_meters":0,"station_id":"ce4bhs92rcd13ifvqi0g","pricing_plan_id":"free"},{"bike_id":"f19306d7-fd0a-4119-987e-e5d54183dff3","system_id":"levelo_inurba_marseille","lat":43.2968,"lon":5.37291,"is_reserved":false,"is_disabled":false,"rental_uris":{"android":"levelo://app?vid=f19306d7-fd0a-4119-987e-e5d54183dff3","ios":"levelo://app?vid=f19306d7-fd0a-4119-987e-e5d54183dff3"},"vehicle_type_id":"4","last_reported":1677381580,"current_range_meters":26000,"station_id":"ce4bgk12rcd13ifvqbj0","pricing_plan_id":"free"},{"bike_id":"9aceb814-60a5-4fc4-a777-2a3ce8740dd9","system_id":"levelo_inurba_marseille","lat":43.296833,"lon":5.372853,"is_reserved":false,"is_disabled":false,"rental_uris":{"android":"levelo://app?vid=9aceb814-60a5-4fc4-a777-2a3ce8740dd9","ios":"levelo://app?vid=9aceb814-60a5-4fc4-a777-2a3ce8740dd9"},"vehicle_type_id":"4","last_reported":1677381580,"current_range_meters":14400,"station_id":"","pricing_plan_id":"free"},{"bike_id":"8923493c-c9e9-4b95-96ab-7ab559d1fe50","system_id":"levelo_inurba_marseille","lat":43.29573,"lon":5.367355,"is_reserved":false,"is_disabled":false,"rental_uris":{"android":"levelo://app?vid=8923493c-c9e9-4b95-96ab-7ab559d1fe50","ios":"levelo://app?vid=8923493c-c9e9-4b95-96ab-7ab559d1fe50"},"vehicle_type_id":"4","last_reported":1677381580,"current_range_meters":28400,"station_id":"ce4bgph2rcd13ifvqc2g","pricing_plan_id":"free"},{"bike_id":"0b321a66-26df-458e-88b4-1fc007ed6203","system_id":"levelo_inurba_marseille","lat":43.30143,"lon":5.37413,"is_reserved":false,"is_disabled":false,"rental_uris":{"android":"levelo://app?vid=0b321a66-26df-458e-88b4-1fc007ed6203","ios":"levelo://app?vid=0b321a66-26df-458e-88b4-1fc007ed6203"},"vehicle_type_id":"4","last_reported":1677381580,"current_range_meters":4800,"station_id":"ce4bgs92rcd13ifvqcc0","pricing_plan_id":"free"},{"bike_id":"dc51deb8-790f-45c1-a43f-927bb8c633e9","system_id":"levelo_inurba_marseille","lat":43.299028,"lon":5.381509,"is_reserved":false,"is_disabled":false,"rental_uris":{"android":"levelo://app?vid=dc51deb8-790f-45c1-a43f-927bb8c633e9","ios":"levelo://app?vid=dc51deb8-790f-45c1-a43f-927bb8c633e9"},"vehicle_type_id":"4","last_reported":1677381580,"current_range_meters":24800,"station_id":"ce4bgj12rcd13ifvqbc0","pricing_plan_id":"free"},{"bike_id":"5663270b-2716-4ab6-980e-429515c52785","system_id":"levelo_inurba_marseille","lat":43.317557,"lon":5.390173,"is_reserved":false,"is_disabled":false,"rental_uris":{"android":"levelo://app?vid=5663270b-2716-4ab6-980e-429515c52785","ios":"levelo://app?vid=5663270b-2716-4ab6-980e-429515c52785"},"vehicle_type_id":"4","last_reported":1677381580,"current_range_meters":8400,"station_id":"ce4bhqp2rcd13ifvqhng","pricing_plan_id":"free"},{"bike_id":"b89171df-5f7e-4a7d-9c17-57c3788b09bb","system_id":"levelo_inurba_marseille","lat":43.317575,"lon":5.390152,"is_reserved":false,"is_disabled":false,"rental_uris":{"android":"levelo://app?vid=b89171df-5f7e-4a7d-9c17-57c3788b09bb","ios":"levelo://app?vid=b89171df-5f7e-4a7d-9c17-57c3788b09bb"},"vehicle_type_id":"4","last_reported":1677381580,"current_range_meters":13200,"station_id":"ce4bhqp2rcd13ifvqhng","pricing_plan_id":"free"},{"bike_id":"2462aeb6-1704-4631-ace6-35607356d0b8","system_id":"levelo_inurba_marseille","lat":43.31757,"lon":5.39017,"is_reserved":false,"is_disabled":false,"rental_uris":{"android":"levelo://app?vid=2462aeb6-1704-4631-ace6-35607356d0b8","ios":"levelo://app?vid=2462aeb6-1704-4631-ace6-35607356d0b8"},"vehicle_type_id":"4","last_reported":1677381580,"current_range_meters":19600,"station_id":"ce4bhqp2rcd13ifvqhng","pricing_plan_id":"free"},{"bike_id":"87772f18-9dab-44b7-9a12-4ef0c7d43669","system_id":"levelo_inurba_marseille","lat":43.317594,"lon":5.390168,"is_reserved":false,"is_disabled":false,"rental_uris":{"android":"levelo://app?vid=87772f18-9dab-44b7-9a12-4ef0c7d43669","ios":"levelo://app?vid=87772f18-9dab-44b7-9a12-4ef0c7d43669"},"vehicle_type_id":"4","last_reported":1677381580,"current_range_meters":16800,"station_id":"ce4bhqp2rcd13ifvqhng","pricing_plan_id":"free"},{"bike_id":"1a2b00bc-908a-4a86-9ee9-b40d16f29e0d","system_id":"levelo_inurba_marseille","lat":43.317588,"lon":5.390182,"is_reserved":false,"is_disabled":false,"rental_uris":{"android":"levelo://app?vid=1a2b00bc-908a-4a86-9ee9-b40d16f29e0d","ios":"levelo://app?vid=1a2b00bc-908a-4a86-9ee9-b40d16f29e0d"},"vehicle_type_id":"4","last_reported":1677381580,"current_range_meters":12800,"station_id":"ce4bhqp2rcd13ifvqhng","pricing_plan_id":"free"},{"bike_id":"f9a9e3f9-6e1a-4198-9a72-588053242598","system_id":"levelo_inurba_marseille","lat":43.317591,"lon":5.390192,"is_reserved":false,"is_disabled":false,"rental_uris":{"android":"levelo://app?vid=f9a9e3f9-6e1a-4198-9a72-588053242598","ios":"levelo://app?vid=f9a9e3f9-6e1a-4198-9a72-588053242598"},"vehicle_type_id":"4","last_reported":1677381580,"current_range_meters":21600,"station_id":"ce4bhqp2rcd13ifvqhng","pricing_plan_id":"free"},{"bike_id":"e243036c-cce6-42ac-8687-d275e78800c7","system_id":"levelo_inurba_marseille","lat":43.31755,"lon":5.390221,"is_reserved":false,"is_disabled":false,"rental_uris":{"android":"levelo://app?vid=e243036c-cce6-42ac-8687-d275e78800c7","ios":"levelo://app?vid=e243036c-cce6-42ac-8687-d275e78800c7"},"vehicle_type_id":"4","last_reported":1677381580,"current_range_meters":17600,"station_id":"ce4bhqp2rcd13ifvqhng","pricing_plan_id":"free"},{"bike_id":"599496d7-56e1-4a76-8768-f04cd9ef75e3","system_id":"levelo_inurba_marseille","lat":43.317569,"lon":5.390218,"is_reserved":false,"is_disabled":false,"rental_uris":{"android":"levelo://app?vid=599496d7-56e1-4a76-8768-f04cd9ef75e3","ios":"levelo://app?vid=599496d7-56e1-4a76-8768-f04cd9ef75e3"},"vehicle_type_id":"4","last_reported":1677381580,"current_range_meters":10000,"station_id":"ce4bhqp2rcd13ifvqhng","pricing_plan_id":"free"},{"bike_id":"46955032-0912-4f5c-a227-b02e5d059e5d","system_id":"levelo_inurba_marseille","lat":43.29805,"lon":5.381,"is_reserved":false,"is_disabled":false,"rental_uris":{"android":"levelo://app?vid=46955032-0912-4f5c-a227-b02e5d059e5d","ios":"levelo://app?vid=46955032-0912-4f5c-a227-b02e5d059e5d"},"vehicle_type_id":"4","last_reported":1677381580,"current_range_meters":28400,"station_id":"ce4bgip2rcd13ifvqbb0","pricing_plan_id":"free"},{"bike_id":"423e8992-fa32-46c0-bd39-9963434f2960","system_id":"levelo_inurba_marseille","lat":43.29801,"lon":5.38101,"is_reserved":false,"is_disabled":false,"rental_uris":{"android":"levelo://app?vid=423e8992-fa32-46c0-bd39-9963434f2960","ios":"levelo://app?vid=423e8992-fa32-46c0-bd39-9963434f2960"},"vehicle_type_id":"4","last_reported":1677381580,"current_range_meters":14400,"station_id":"ce4bgip2rcd13ifvqbb0","pricing_plan_id":"free"},{"bike_id":"63143cc6-9528-49c8-a23d-ce48915e9849","system_id":"levelo_inurba_marseille","lat":43.298037,"lon":5.381066,"is_reserved":false,"is_disabled":false,"rental_uris":{"android":"levelo://app?vid=63143cc6-9528-49c8-a23d-ce48915e9849","ios":"levelo://app?vid=63143cc6-9528-49c8-a23d-ce48915e9849"},"vehicle_type_id":"4","last_reported":1677381580,"current_range_meters":10400,"station_id":"ce4bgip2rcd13ifvqbb0","pricing_plan_id":"free"},{"bike_id":"66c54a42-1395-4d6c-965f-006a4d43c4b8","system_id":"levelo_inurba_marseille","lat":43.297905,"lon":5.381187,"is_reserved":false,"is_disabled":false,"rental_uris":{"android":"levelo://app?vid=66c54a42-1395-4d6c-965f-006a4d43c4b8","ios":"levelo://app?vid=66c54a42-1395-4d6c-965f-006a4d43c4b8"},"vehicle_type_id":"4","last_reported":1677381580,"current_range_meters":0,"station_id":"ce4bgip2rcd13ifvqbb0","pricing_plan_id":"free"},{"bike_id":"909f9288-c4eb-415b-acd4-aa3688f16305","system_id":"levelo_inurba_marseille","lat":43.296003,"lon":5.377045,"is_reserved":false,"is_disabled":false,"rental_uris":{"android":"levelo://app?vid=909f9288-c4eb-415b-acd4-aa3688f16305","ios":"levelo://app?vid=909f9288-c4eb-415b-acd4-aa3688f16305"},"vehicle_type_id":"4","last_reported":1677381580,"current_range_meters":0,"station_id":"ce4bgi92rcd13ifvqb90","pricing_plan_id":"free"},{"bike_id":"2a49910c-3ed8-4103-aa66-407d82c9c65b","system_id":"levelo_inurba_marseille","lat":43.32367,"lon":5.388836,"is_reserved":false,"is_disabled":false,"rental_uris":{"android":"levelo://app?vid=2a49910c-3ed8-4103-aa66-407d82c9c65b","ios":"levelo://app?vid=2a49910c-3ed8-4103-aa66-407d82c9c65b"},"vehicle_type_id":"4","last_reported":1677381580,"current_range_meters":12800,"station_id":"ce4bhqp2rcd13ifvqhog","pricing_plan_id":"free"},{"bike_id":"28776fb4-0ae8-44dc-b7d7-08dc007fcbf7","system_id":"levelo_inurba_marseille","lat":43.32367,"lon":5.388836,"is_reserved":false,"is_disabled":false,"rental_uris":{"android":"levelo://app?vid=28776fb4-0ae8-44dc-b7d7-08dc007fcbf7","ios":"levelo://app?vid=28776fb4-0ae8-44dc-b7d7-08dc007fcbf7"},"vehicle_type_id":"4","last_reported":1677381580,"current_range_meters":12800,"station_id":"ce4bhqp2rcd13ifvqhog","pricing_plan_id":"free"},{"bike_id":"4735e82d-bbe8-42b2-a67c-e92248e4784c","system_id":"levelo_inurba_marseille","lat":43.32367,"lon":5.388836,"is_reserved":false,"is_disabled":false,"rental_uris":{"android":"levelo://app?vid=4735e82d-bbe8-42b2-a67c-e92248e4784c","ios":"levelo://app?vid=4735e82d-bbe8-42b2-a67c-e92248e4784c"},"vehicle_type_id":"4","last_reported":1677381580,"current_range_meters":0,"station_id":"ce4bhqp2rcd13ifvqhog","pricing_plan_id":"free"},{"bike_id":"b0e467e3-64f5-4407-92e3-08ad49e4d550","system_id":"levelo_inurba_marseille","lat":43.32367,"lon":5.388836,"is_reserved":false,"is_disabled":false,"rental_uris":{"android":"levelo://app?vid=b0e467e3-64f5-4407-92e3-08ad49e4d550","ios":"levelo://app?vid=b0e467e3-64f5-4407-92e3-08ad49e4d550"},"vehicle_type_id":"4","last_reported":1677381580,"current_range_meters":16800,"station_id":"ce4bhqp2rcd13ifvqhog","pricing_plan_id":"free"},{"bike_id":"28b099a1-5913-444c-972c-14da9e033704","system_id":"levelo_inurba_marseille","lat":43.32367,"lon":5.388836,"is_reserved":false,"is_disabled":false,"rental_uris":{"android":"levelo://app?vid=28b099a1-5913-444c-972c-14da9e033704","ios":"levelo://app?vid=28b099a1-5913-444c-972c-14da9e033704"},"vehicle_type_id":"4","last_reported":1677381580,"current_range_meters":18800,"station_id":"ce4bhqp2rcd13ifvqhog","pricing_plan_id":"free"},{"bike_id":"ea8bdd10-4bc6-49ce-8fb6-cf808ec64aaf","system_id":"levelo_inurba_marseille","lat":43.32367,"lon":5.388836,"is_reserved":false,"is_disabled":false,"rental_uris":{"android":"levelo://app?vid=ea8bdd10-4bc6-49ce-8fb6-cf808ec64aaf","ios":"levelo://app?vid=ea8bdd10-4bc6-49ce-8fb6-cf808ec64aaf"},"vehicle_type_id":"4","last_reported":1677381580,"current_range_meters":23600,"station_id":"ce4bhqp2rcd13ifvqhog","pricing_plan_id":"free"},{"bike_id":"f453c687-7c1d-47c7-9222-bd062c3e7ed6","system_id":"levelo_inurba_marseille","lat":43.32367,"lon":5.388836,"is_reserved":false,"is_disabled":false,"rental_uris":{"android":"levelo://app?vid=f453c687-7c1d-47c7-9222-bd062c3e7ed6","ios":"levelo://app?vid=f453c687-7c1d-47c7-9222-bd062c3e7ed6"},"vehicle_type_id":"4","last_reported":1677381580,"current_range_meters":2000,"station_id":"ce4bhqp2rcd13ifvqhog","pricing_plan_id":"free"},{"bike_id":"3988895e-fc8a-48c3-81bd-783ac9a24d5e","system_id":"levelo_inurba_marseille","lat":43.32363,"lon":5.38886,"is_reserved":false,"is_disabled":false,"rental_uris":{"android":"levelo://app?vid=3988895e-fc8a-48c3-81bd-783ac9a24d5e","ios":"levelo://app?vid=3988895e-fc8a-48c3-81bd-783ac9a24d5e"},"vehicle_type_id":"4","last_reported":1677381580,"current_range_meters":17600,"station_id":"","pricing_plan_id":"free"},{"bike_id":"23aee82b-940e-4b7a-9da3-eac043665492","system_id":"levelo_inurba_marseille","lat":43.32367,"lon":5.388836,"is_reserved":false,"is_disabled":false,"rental_uris":{"android":"levelo://app?vid=23aee82b-940e-4b7a-9da3-eac043665492","ios":"levelo://app?vid=23aee82b-940e-4b7a-9da3-eac043665492"},"vehicle_type_id":"4","last_reported":1677381580,"current_range_meters":28000,"station_id":"ce4bhqp2rcd13ifvqhog","pricing_plan_id":"free"},{"bike_id":"bca13de0-db2d-44a3-bb73-4d8f4cf973e4","system_id":"levelo_inurba_marseille","lat":43.32367,"lon":5.388836,"is_reserved":false,"is_disabled":false,"rental_uris":{"android":"levelo://app?vid=bca13de0-db2d-44a3-bb73-4d8f4cf973e4","ios":"levelo://app?vid=bca13de0-db2d-44a3-bb73-4d8f4cf973e4"},"vehicle_type_id":"4","last_reported":1677381580,"current_range_meters":25600,"station_id":"ce4bhqp2rcd13ifvqhog","pricing_plan_id":"free"},{"bike_id":"82e5d3ec-d7ab-4785-a4eb-0a19362c2561","system_id":"levelo_inurba_marseille","lat":43.29389,"lon":5.37301,"is_reserved":false,"is_disabled":false,"rental_uris":{"android":"levelo://app?vid=82e5d3ec-d7ab-4785-a4eb-0a19362c2561","ios":"levelo://app?vid=82e5d3ec-d7ab-4785-a4eb-0a19362c2561"},"vehicle_type_id":"4","last_reported":1677381580,"current_range_meters":12400,"station_id":"","pricing_plan_id":"free"},{"bike_id":"b11777e5-6592-4a32-9271-8fd7fb345e14","system_id":"levelo_inurba_marseille","lat":43.32367,"lon":5.388836,"is_reserved":false,"is_disabled":false,"rental_uris":{"android":"levelo://app?vid=b11777e5-6592-4a32-9271-8fd7fb345e14","ios":"levelo://app?vid=b11777e5-6592-4a32-9271-8fd7fb345e14"},"vehicle_type_id":"4","last_reported":1677381580,"current_range_meters":10000,"station_id":"ce4bhqp2rcd13ifvqhog","pricing_plan_id":"free"},{"bike_id":"7a3a2026-67fc-473c-9b4d-54111d7b39a4","system_id":"levelo_inurba_marseille","lat":43.296107,"lon":5.381231,"is_reserved":false,"is_disabled":false,"rental_uris":{"android":"levelo://app?vid=7a3a2026-67fc-473c-9b4d-54111d7b39a4","ios":"levelo://app?vid=7a3a2026-67fc-473c-9b4d-54111d7b39a4"},"vehicle_type_id":"4","last_reported":1677381580,"current_range_meters":0,"station_id":"ce4bgl12rcd13ifvqbo0","pricing_plan_id":"free"},{"bike_id":"bd74425b-5bc6-4c17-9f25-727b42192c2b","system_id":"levelo_inurba_marseille","lat":43.305994,"lon":5.393687,"is_reserved":false,"is_disabled":false,"rental_uris":{"android":"levelo://app?vid=bd74425b-5bc6-4c17-9f25-727b42192c2b","ios":"levelo://app?vid=bd74425b-5bc6-4c17-9f25-727b42192c2b"},"vehicle_type_id":"4","last_reported":1677381580,"current_range_meters":10000,"station_id":"ce4bh0p2rcd13ifvqd80","pricing_plan_id":"free"},{"bike_id":"8e141ab0-26f6-4870-8280-64847b4ea617","system_id":"levelo_inurba_marseille","lat":43.30598,"lon":5.39349,"is_reserved":false,"is_disabled":false,"rental_uris":{"android":"levelo://app?vid=8e141ab0-26f6-4870-8280-64847b4ea617","ios":"levelo://app?vid=8e141ab0-26f6-4870-8280-64847b4ea617"},"vehicle_type_id":"4","last_reported":1677381580,"current_range_meters":14800,"station_id":"","pricing_plan_id":"free"},{"bike_id":"8884ffdb-e382-4e61-90e9-99c285b157ab","system_id":"levelo_inurba_marseille","lat":43.305994,"lon":5.393687,"is_reserved":false,"is_disabled":false,"rental_uris":{"android":"levelo://app?vid=8884ffdb-e382-4e61-90e9-99c285b157ab","ios":"levelo://app?vid=8884ffdb-e382-4e61-90e9-99c285b157ab"},"vehicle_type_id":"4","last_reported":1677381580,"current_range_meters":30000,"station_id":"ce4bh0p2rcd13ifvqd80","pricing_plan_id":"free"},{"bike_id":"a6b9ea40-ae5d-4372-af69-546e85960761","system_id":"levelo_inurba_marseille","lat":43.305994,"lon":5.393687,"is_reserved":false,"is_disabled":false,"rental_uris":{"android":"levelo://app?vid=a6b9ea40-ae5d-4372-af69-546e85960761","ios":"levelo://app?vid=a6b9ea40-ae5d-4372-af69-546e85960761"},"vehicle_type_id":"4","last_reported":1677381580,"current_range_meters":32000,"station_id":"ce4bh0p2rcd13ifvqd80","pricing_plan_id":"free"},{"bike_id":"87bb9746-caf6-452e-8db4-94e53896937c","system_id":"levelo_inurba_marseille","lat":43.305989,"lon":5.393519,"is_reserved":false,"is_disabled":false,"rental_uris":{"android":"levelo://app?vid=87bb9746-caf6-452e-8db4-94e53896937c","ios":"levelo://app?vid=87bb9746-caf6-452e-8db4-94e53896937c"},"vehicle_type_id":"4","last_reported":1677381580,"current_range_meters":3200,"station_id":"ce4bh0p2rcd13ifvqd80","pricing_plan_id":"free"},{"bike_id":"927df60d-0e63-4ae4-bc69-d3558dfc4ac9","system_id":"levelo_inurba_marseille","lat":43.305994,"lon":5.393687,"is_reserved":false,"is_disabled":false,"rental_uris":{"android":"levelo://app?vid=927df60d-0e63-4ae4-bc69-d3558dfc4ac9","ios":"levelo://app?vid=927df60d-0e63-4ae4-bc69-d3558dfc4ac9"},"vehicle_type_id":"4","last_reported":1677381580,"current_range_meters":30400,"station_id":"ce4bh0p2rcd13ifvqd80","pricing_plan_id":"free"},{"bike_id":"8b34865d-e204-4cd7-bdc9-93c32b915cb1","system_id":"levelo_inurba_marseille","lat":43.305994,"lon":5.393687,"is_reserved":false,"is_disabled":false,"rental_uris":{"android":"levelo://app?vid=8b34865d-e204-4cd7-bdc9-93c32b915cb1","ios":"levelo://app?vid=8b34865d-e204-4cd7-bdc9-93c32b915cb1"},"vehicle_type_id":"4","last_reported":1677381580,"current_range_meters":30400,"station_id":"ce4bh0p2rcd13ifvqd80","pricing_plan_id":"free"},{"bike_id":"cf8644be-5587-40fb-9815-e0bea64700d9","system_id":"levelo_inurba_marseille","lat":43.305958,"lon":5.393551,"is_reserved":false,"is_disabled":false,"rental_uris":{"android":"levelo://app?vid=cf8644be-5587-40fb-9815-e0bea64700d9","ios":"levelo://app?vid=cf8644be-5587-40fb-9815-e0bea64700d9"},"vehicle_type_id":"4","last_reported":1677381580,"current_range_meters":29200,"station_id":"ce4bh0p2rcd13ifvqd80","pricing_plan_id":"free"},{"bike_id":"760936d3-cde0-48db-9700-ea47db57de2b","system_id":"levelo_inurba_marseille","lat":43.306,"lon":5.393573,"is_reserved":false,"is_disabled":false,"rental_uris":{"android":"levelo://app?vid=760936d3-cde0-48db-9700-ea47db57de2b","ios":"levelo://app?vid=760936d3-cde0-48db-9700-ea47db57de2b"},"vehicle_type_id":"4","last_reported":1677381580,"current_range_meters":18800,"station_id":"ce4bh0p2rcd13ifvqd80","pricing_plan_id":"free"},{"bike_id":"1100632c-8db8-4717-9b17-f1dfba904b32","system_id":"levelo_inurba_marseille","lat":43.305994,"lon":5.393687,"is_reserved":false,"is_disabled":false,"rental_uris":{"android":"levelo://app?vid=1100632c-8db8-4717-9b17-f1dfba904b32","ios":"levelo://app?vid=1100632c-8db8-4717-9b17-f1dfba904b32"},"vehicle_type_id":"4","last_reported":1677381580,"current_range_meters":32000,"station_id":"ce4bh0p2rcd13ifvqd80","pricing_plan_id":"free"},{"bike_id":"f7d73ad9-f820-4d8c-bfd1-01c92ee5bedb","system_id":"levelo_inurba_marseille","lat":43.305994,"lon":5.393687,"is_reserved":false,"is_disabled":false,"rental_uris":{"android":"levelo://app?vid=f7d73ad9-f820-4d8c-bfd1-01c92ee5bedb","ios":"levelo://app?vid=f7d73ad9-f820-4d8c-bfd1-01c92ee5bedb"},"vehicle_type_id":"4","last_reported":1677381580,"current_range_meters":17200,"station_id":"ce4bh0p2rcd13ifvqd80","pricing_plan_id":"free"},{"bike_id":"9b5a3d61-f61c-4ac3-be08-93eb4c8553ab","system_id":"levelo_inurba_marseille","lat":43.305994,"lon":5.393687,"is_reserved":false,"is_disabled":false,"rental_uris":{"android":"levelo://app?vid=9b5a3d61-f61c-4ac3-be08-93eb4c8553ab","ios":"levelo://app?vid=9b5a3d61-f61c-4ac3-be08-93eb4c8553ab"},"vehicle_type_id":"4","last_reported":1677381580,"current_range_meters":30800,"station_id":"ce4bh0p2rcd13ifvqd80","pricing_plan_id":"free"},{"bike_id":"fea6a02c-c5ae-46ac-965b-7f3d4dc79468","system_id":"levelo_inurba_marseille","lat":43.305994,"lon":5.393687,"is_reserved":false,"is_disabled":false,"rental_uris":{"android":"levelo://app?vid=fea6a02c-c5ae-46ac-965b-7f3d4dc79468","ios":"levelo://app?vid=fea6a02c-c5ae-46ac-965b-7f3d4dc79468"},"vehicle_type_id":"4","last_reported":1677381580,"current_range_meters":31600,"station_id":"ce4bh0p2rcd13ifvqd80","pricing_plan_id":"free"},{"bike_id":"8bbab868-f737-4969-b27e-f14d63e5a21b","system_id":"levelo_inurba_marseille","lat":43.305994,"lon":5.393687,"is_reserved":false,"is_disabled":false,"rental_uris":{"android":"levelo://app?vid=8bbab868-f737-4969-b27e-f14d63e5a21b","ios":"levelo://app?vid=8bbab868-f737-4969-b27e-f14d63e5a21b"},"vehicle_type_id":"4","last_reported":1677381580,"current_range_meters":28400,"station_id":"ce4bh0p2rcd13ifvqd80","pricing_plan_id":"free"},{"bike_id":"f1d2124a-f417-4b42-90ee-e66ec54c7714","system_id":"levelo_inurba_marseille","lat":43.30595,"lon":5.3936,"is_reserved":false,"is_disabled":false,"rental_uris":{"android":"levelo://app?vid=f1d2124a-f417-4b42-90ee-e66ec54c7714","ios":"levelo://app?vid=f1d2124a-f417-4b42-90ee-e66ec54c7714"},"vehicle_type_id":"4","last_reported":1677381580,"current_range_meters":6400,"station_id":"ce4bh0p2rcd13ifvqd80","pricing_plan_id":"free"},{"bike_id":"e6be2a40-34c1-4752-9533-faf406418176","system_id":"levelo_inurba_marseille","lat":43.305994,"lon":5.393687,"is_reserved":false,"is_disabled":false,"rental_uris":{"android":"levelo://app?vid=e6be2a40-34c1-4752-9533-faf406418176","ios":"levelo://app?vid=e6be2a40-34c1-4752-9533-faf406418176"},"vehicle_type_id":"4","last_reported":1677381580,"current_range_meters":16400,"station_id":"ce4bh0p2rcd13ifvqd80","pricing_plan_id":"free"},{"bike_id":"268adbf0-28c2-4df7-8ff7-4b21d43db22c","system_id":"levelo_inurba_marseille","lat":43.305994,"lon":5.393687,"is_reserved":false,"is_disabled":false,"rental_uris":{"android":"levelo://app?vid=268adbf0-28c2-4df7-8ff7-4b21d43db22c","ios":"levelo://app?vid=268adbf0-28c2-4df7-8ff7-4b21d43db22c"},"vehicle_type_id":"4","last_reported":1677381580,"current_range_meters":24400,"station_id":"ce4bh0p2rcd13ifvqd80","pricing_plan_id":"free"},{"bike_id":"87360da6-517f-4e77-a109-06d1094f1a23","system_id":"levelo_inurba_marseille","lat":43.2936,"lon":5.37835,"is_reserved":false,"is_disabled":false,"rental_uris":{"android":"levelo://app?vid=87360da6-517f-4e77-a109-06d1094f1a23","ios":"levelo://app?vid=87360da6-517f-4e77-a109-06d1094f1a23"},"vehicle_type_id":"4","last_reported":1677381580,"current_range_meters":9200,"station_id":"ce4bgjh2rcd13ifvqbf0","pricing_plan_id":"free"},{"bike_id":"a804294e-5746-481e-abf8-26c1d14ad2db","system_id":"levelo_inurba_marseille","lat":43.292311,"lon":5.360731,"is_reserved":false,"is_disabled":false,"rental_uris":{"android":"levelo://app?vid=a804294e-5746-481e-abf8-26c1d14ad2db","ios":"levelo://app?vid=a804294e-5746-481e-abf8-26c1d14ad2db"},"vehicle_type_id":"4","last_reported":1677381580,"current_range_meters":27200,"station_id":"ce4bhbh2rcd13ifvqeqg","pricing_plan_id":"free"},{"bike_id":"f8e499b2-fcac-4504-83fc-6dd46e073259","system_id":"levelo_inurba_marseille","lat":43.300968,"lon":5.3908,"is_reserved":false,"is_disabled":false,"rental_uris":{"android":"levelo://app?vid=f8e499b2-fcac-4504-83fc-6dd46e073259","ios":"levelo://app?vid=f8e499b2-fcac-4504-83fc-6dd46e073259"},"vehicle_type_id":"4","last_reported":1677381580,"current_range_meters":0,"station_id":"","pricing_plan_id":"free"},{"bike_id":"39b4561d-464f-4426-9a47-057cb24d8485","system_id":"levelo_inurba_marseille","lat":43.292311,"lon":5.360731,"is_reserved":false,"is_disabled":false,"rental_uris":{"android":"levelo://app?vid=39b4561d-464f-4426-9a47-057cb24d8485","ios":"levelo://app?vid=39b4561d-464f-4426-9a47-057cb24d8485"},"vehicle_type_id":"4","last_reported":1677381580,"current_range_meters":1200,"station_id":"ce4bhbh2rcd13ifvqeqg","pricing_plan_id":"free"},{"bike_id":"15ab484c-6dca-464f-a1e1-6cbf651a474b","system_id":"levelo_inurba_marseille","lat":43.30085,"lon":5.390856,"is_reserved":false,"is_disabled":false,"rental_uris":{"android":"levelo://app?vid=15ab484c-6dca-464f-a1e1-6cbf651a474b","ios":"levelo://app?vid=15ab484c-6dca-464f-a1e1-6cbf651a474b"},"vehicle_type_id":"4","last_reported":1677381580,"current_range_meters":6000,"station_id":"ce4bh192rcd13ifvqdb0","pricing_plan_id":"free"},{"bike_id":"71e15c05-f240-486e-824e-b1107322a29b","system_id":"levelo_inurba_marseille","lat":43.292311,"lon":5.360731,"is_reserved":false,"is_disabled":false,"rental_uris":{"android":"levelo://app?vid=71e15c05-f240-486e-824e-b1107322a29b","ios":"levelo://app?vid=71e15c05-f240-486e-824e-b1107322a29b"},"vehicle_type_id":"4","last_reported":1677381580,"current_range_meters":14000,"station_id":"ce4bhbh2rcd13ifvqeqg","pricing_plan_id":"free"},{"bike_id":"cb4b6d47-0fcd-43aa-a81f-f6993f4cd313","system_id":"levelo_inurba_marseille","lat":43.30087,"lon":5.39083,"is_reserved":false,"is_disabled":false,"rental_uris":{"android":"levelo://app?vid=cb4b6d47-0fcd-43aa-a81f-f6993f4cd313","ios":"levelo://app?vid=cb4b6d47-0fcd-43aa-a81f-f6993f4cd313"},"vehicle_type_id":"4","last_reported":1677381580,"current_range_meters":26400,"station_id":"ce4bh192rcd13ifvqdb0","pricing_plan_id":"free"},{"bike_id":"d579e036-b0b4-4831-b442-7ee5c03349a2","system_id":"levelo_inurba_marseille","lat":43.292311,"lon":5.360731,"is_reserved":false,"is_disabled":false,"rental_uris":{"android":"levelo://app?vid=d579e036-b0b4-4831-b442-7ee5c03349a2","ios":"levelo://app?vid=d579e036-b0b4-4831-b442-7ee5c03349a2"},"vehicle_type_id":"4","last_reported":1677381580,"current_range_meters":27200,"station_id":"ce4bhbh2rcd13ifvqeqg","pricing_plan_id":"free"},{"bike_id":"75e9115a-7638-4970-b107-71d15dd72526","system_id":"levelo_inurba_marseille","lat":43.298764,"lon":5.388973,"is_reserved":false,"is_disabled":false,"rental_uris":{"android":"levelo://app?vid=75e9115a-7638-4970-b107-71d15dd72526","ios":"levelo://app?vid=75e9115a-7638-4970-b107-71d15dd72526"},"vehicle_type_id":"4","last_reported":1677381580,"current_range_meters":13200,"station_id":"ce4bh392rcd13ifvqdl0","pricing_plan_id":"free"},{"bike_id":"ec02ce0c-89d9-4d79-8d21-be933411fda8","system_id":"levelo_inurba_marseille","lat":43.311267,"lon":5.39627,"is_reserved":false,"is_disabled":false,"rental_uris":{"android":"levelo://app?vid=ec02ce0c-89d9-4d79-8d21-be933411fda8","ios":"levelo://app?vid=ec02ce0c-89d9-4d79-8d21-be933411fda8"},"vehicle_type_id":"4","last_reported":1677381580,"current_range_meters":0,"station_id":"","pricing_plan_id":"free"},{"bike_id":"acd92e58-0bc8-407f-80c2-4c48e124d5de","system_id":"levelo_inurba_marseille","lat":43.295123,"lon":5.384511,"is_reserved":false,"is_disabled":false,"rental_uris":{"android":"levelo://app?vid=acd92e58-0bc8-407f-80c2-4c48e124d5de","ios":"levelo://app?vid=acd92e58-0bc8-407f-80c2-4c48e124d5de"},"vehicle_type_id":"4","last_reported":1677381580,"current_range_meters":28400,"station_id":"","pricing_plan_id":"free"},{"bike_id":"5200ad86-3315-49a8-9296-5c464de3b0b3","system_id":"levelo_inurba_marseille","lat":43.313291,"lon":5.396838,"is_reserved":false,"is_disabled":false,"rental_uris":{"android":"levelo://app?vid=5200ad86-3315-49a8-9296-5c464de3b0b3","ios":"levelo://app?vid=5200ad86-3315-49a8-9296-5c464de3b0b3"},"vehicle_type_id":"4","last_reported":1677381580,"current_range_meters":10800,"station_id":"ce4bgvp2rcd13ifvqcu0","pricing_plan_id":"free"},{"bike_id":"029c1f22-62c2-4e09-abe8-d56e29707d9f","system_id":"levelo_inurba_marseille","lat":43.313299,"lon":5.396873,"is_reserved":false,"is_disabled":false,"rental_uris":{"android":"levelo://app?vid=029c1f22-62c2-4e09-abe8-d56e29707d9f","ios":"levelo://app?vid=029c1f22-62c2-4e09-abe8-d56e29707d9f"},"vehicle_type_id":"4","last_reported":1677381580,"current_range_meters":29600,"station_id":"","pricing_plan_id":"free"},{"bike_id":"28a74390-a7a5-4b95-b686-b855570fd46b","system_id":"levelo_inurba_marseille","lat":43.313292,"lon":5.396892,"is_reserved":false,"is_disabled":false,"rental_uris":{"android":"levelo://app?vid=28a74390-a7a5-4b95-b686-b855570fd46b","ios":"levelo://app?vid=28a74390-a7a5-4b95-b686-b855570fd46b"},"vehicle_type_id":"4","last_reported":1677381580,"current_range_meters":6000,"station_id":"","pricing_plan_id":"free"},{"bike_id":"d70da080-ab36-4311-ab24-10dd4bc8e4e1","system_id":"levelo_inurba_marseille","lat":43.313291,"lon":5.396838,"is_reserved":false,"is_disabled":false,"rental_uris":{"android":"levelo://app?vid=d70da080-ab36-4311-ab24-10dd4bc8e4e1","ios":"levelo://app?vid=d70da080-ab36-4311-ab24-10dd4bc8e4e1"},"vehicle_type_id":"4","last_reported":1677381580,"current_range_meters":20800,"station_id":"ce4bgvp2rcd13ifvqcu0","pricing_plan_id":"free"},{"bike_id":"de9c7f90-27cf-4b91-8a9b-c1bdbf90f803","system_id":"levelo_inurba_marseille","lat":43.31328,"lon":5.39694,"is_reserved":false,"is_disabled":false,"rental_uris":{"android":"levelo://app?vid=de9c7f90-27cf-4b91-8a9b-c1bdbf90f803","ios":"levelo://app?vid=de9c7f90-27cf-4b91-8a9b-c1bdbf90f803"},"vehicle_type_id":"4","last_reported":1677381580,"current_range_meters":16000,"station_id":"ce4bgvp2rcd13ifvqcu0","pricing_plan_id":"free"},{"bike_id":"c7c1a0f3-8756-47d1-9afc-d6f49894bed6","system_id":"levelo_inurba_marseille","lat":43.31331,"lon":5.39694,"is_reserved":false,"is_disabled":false,"rental_uris":{"android":"levelo://app?vid=c7c1a0f3-8756-47d1-9afc-d6f49894bed6","ios":"levelo://app?vid=c7c1a0f3-8756-47d1-9afc-d6f49894bed6"},"vehicle_type_id":"4","last_reported":1677381580,"current_range_meters":2800,"station_id":"ce4bgvp2rcd13ifvqcu0","pricing_plan_id":"free"},{"bike_id":"77cb256e-1df6-4b1f-bff8-3c8cb35db646","system_id":"levelo_inurba_marseille","lat":43.31323,"lon":5.39697,"is_reserved":false,"is_disabled":false,"rental_uris":{"android":"levelo://app?vid=77cb256e-1df6-4b1f-bff8-3c8cb35db646","ios":"levelo://app?vid=77cb256e-1df6-4b1f-bff8-3c8cb35db646"},"vehicle_type_id":"4","last_reported":1677381580,"current_range_meters":20000,"station_id":"ce4bgvp2rcd13ifvqcu0","pricing_plan_id":"free"},{"bike_id":"6bc1036a-4182-4deb-8b81-4bdb532e4651","system_id":"levelo_inurba_marseille","lat":43.313291,"lon":5.396838,"is_reserved":false,"is_disabled":false,"rental_uris":{"android":"levelo://app?vid=6bc1036a-4182-4deb-8b81-4bdb532e4651","ios":"levelo://app?vid=6bc1036a-4182-4deb-8b81-4bdb532e4651"},"vehicle_type_id":"4","last_reported":1677381580,"current_range_meters":9200,"station_id":"ce4bgvp2rcd13ifvqcu0","pricing_plan_id":"free"},{"bike_id":"1cf152d3-b827-4881-bce7-15a3bb411e1a","system_id":"levelo_inurba_marseille","lat":43.31327,"lon":5.397,"is_reserved":false,"is_disabled":false,"rental_uris":{"android":"levelo://app?vid=1cf152d3-b827-4881-bce7-15a3bb411e1a","ios":"levelo://app?vid=1cf152d3-b827-4881-bce7-15a3bb411e1a"},"vehicle_type_id":"4","last_reported":1677381580,"current_range_meters":6400,"station_id":"","pricing_plan_id":"free"},{"bike_id":"15945d5e-f78f-4f66-a649-b8bb7ad98d80","system_id":"levelo_inurba_marseille","lat":43.322771,"lon":5.3937,"is_reserved":false,"is_disabled":false,"rental_uris":{"android":"levelo://app?vid=15945d5e-f78f-4f66-a649-b8bb7ad98d80","ios":"levelo://app?vid=15945d5e-f78f-4f66-a649-b8bb7ad98d80"},"vehicle_type_id":"4","last_reported":1677381580,"current_range_meters":0,"station_id":"","pricing_plan_id":"free"},{"bike_id":"8c8862c6-641a-4f2c-a20b-c574990c1eaf","system_id":"levelo_inurba_marseille","lat":43.29529,"lon":5.385581,"is_reserved":false,"is_disabled":false,"rental_uris":{"android":"levelo://app?vid=8c8862c6-641a-4f2c-a20b-c574990c1eaf","ios":"levelo://app?vid=8c8862c6-641a-4f2c-a20b-c574990c1eaf"},"vehicle_type_id":"4","last_reported":1677381580,"current_range_meters":0,"station_id":"ce4bgih2rcd13ifvqba0","pricing_plan_id":"free"},{"bike_id":"d1631906-a316-4fcc-afaa-8e5954bd58f0","system_id":"levelo_inurba_marseille","lat":43.29529,"lon":5.385581,"is_reserved":false,"is_disabled":false,"rental_uris":{"android":"levelo://app?vid=d1631906-a316-4fcc-afaa-8e5954bd58f0","ios":"levelo://app?vid=d1631906-a316-4fcc-afaa-8e5954bd58f0"},"vehicle_type_id":"4","last_reported":1677381580,"current_range_meters":29600,"station_id":"ce4bgih2rcd13ifvqba0","pricing_plan_id":"free"},{"bike_id":"8bdee7e4-0f7d-4905-9493-f678ce745f7a","system_id":"levelo_inurba_marseille","lat":43.290671,"lon":5.371671,"is_reserved":false,"is_disabled":false,"rental_uris":{"android":"levelo://app?vid=8bdee7e4-0f7d-4905-9493-f678ce745f7a","ios":"levelo://app?vid=8bdee7e4-0f7d-4905-9493-f678ce745f7a"},"vehicle_type_id":"4","last_reported":1677381580,"current_range_meters":0,"station_id":"ce4bh5p2rcd13ifvqe4g","pricing_plan_id":"free"},{"bike_id":"9d3f7c93-9bf5-42c1-87c7-cab516b18120","system_id":"levelo_inurba_marseille","lat":43.32248,"lon":5.394587,"is_reserved":false,"is_disabled":false,"rental_uris":{"android":"levelo://app?vid=9d3f7c93-9bf5-42c1-87c7-cab516b18120","ios":"levelo://app?vid=9d3f7c93-9bf5-42c1-87c7-cab516b18120"},"vehicle_type_id":"4","last_reported":1677381580,"current_range_meters":6000,"station_id":"","pricing_plan_id":"free"},{"bike_id":"ba0f1f0f-dfc9-4b3d-b2d8-d98fb87290d0","system_id":"levelo_inurba_marseille","lat":43.290625,"lon":5.37157,"is_reserved":false,"is_disabled":false,"rental_uris":{"android":"levelo://app?vid=ba0f1f0f-dfc9-4b3d-b2d8-d98fb87290d0","ios":"levelo://app?vid=ba0f1f0f-dfc9-4b3d-b2d8-d98fb87290d0"},"vehicle_type_id":"4","last_reported":1677381580,"current_range_meters":0,"station_id":"","pricing_plan_id":"free"},{"bike_id":"0d28b8c2-3426-4c1d-89df-4d40d435fb97","system_id":"levelo_inurba_marseille","lat":43.302008,"lon":5.394694,"is_reserved":false,"is_disabled":false,"rental_uris":{"android":"levelo://app?vid=0d28b8c2-3426-4c1d-89df-4d40d435fb97","ios":"levelo://app?vid=0d28b8c2-3426-4c1d-89df-4d40d435fb97"},"vehicle_type_id":"4","last_reported":1677381580,"current_range_meters":14000,"station_id":"ce4bh0p2rcd13ifvqd70","pricing_plan_id":"free"},{"bike_id":"144987dd-f3cd-444e-8cca-a674cb052883","system_id":"levelo_inurba_marseille","lat":43.30209,"lon":5.39475,"is_reserved":false,"is_disabled":false,"rental_uris":{"android":"levelo://app?vid=144987dd-f3cd-444e-8cca-a674cb052883","ios":"levelo://app?vid=144987dd-f3cd-444e-8cca-a674cb052883"},"vehicle_type_id":"4","last_reported":1677381580,"current_range_meters":9200,"station_id":"ce4bh0p2rcd13ifvqd70","pricing_plan_id":"free"},{"bike_id":"c620836d-4a49-4139-a630-0ff7378409e5","system_id":"levelo_inurba_marseille","lat":43.302008,"lon":5.394694,"is_reserved":false,"is_disabled":false,"rental_uris":{"android":"levelo://app?vid=c620836d-4a49-4139-a630-0ff7378409e5","ios":"levelo://app?vid=c620836d-4a49-4139-a630-0ff7378409e5"},"vehicle_type_id":"4","last_reported":1677381580,"current_range_meters":31200,"station_id":"ce4bh0p2rcd13ifvqd70","pricing_plan_id":"free"},{"bike_id":"b1bd16fa-8b1e-4f43-9c04-b9fcb8989911","system_id":"levelo_inurba_marseille","lat":43.302008,"lon":5.394694,"is_reserved":false,"is_disabled":false,"rental_uris":{"android":"levelo://app?vid=b1bd16fa-8b1e-4f43-9c04-b9fcb8989911","ios":"levelo://app?vid=b1bd16fa-8b1e-4f43-9c04-b9fcb8989911"},"vehicle_type_id":"4","last_reported":1677381580,"current_range_meters":29200,"station_id":"ce4bh0p2rcd13ifvqd70","pricing_plan_id":"free"},{"bike_id":"3146e103-6bda-4725-b696-97a4471ed3e8","system_id":"levelo_inurba_marseille","lat":43.290624,"lon":5.359245,"is_reserved":false,"is_disabled":false,"rental_uris":{"android":"levelo://app?vid=3146e103-6bda-4725-b696-97a4471ed3e8","ios":"levelo://app?vid=3146e103-6bda-4725-b696-97a4471ed3e8"},"vehicle_type_id":"4","last_reported":1677381580,"current_range_meters":14400,"station_id":"ce4bha92rcd13ifvqeg0","pricing_plan_id":"free"},{"bike_id":"bf21bd6b-ca05-41ae-92ad-5fa012abff91","system_id":"levelo_inurba_marseille","lat":43.290624,"lon":5.359245,"is_reserved":false,"is_disabled":false,"rental_uris":{"android":"levelo://app?vid=bf21bd6b-ca05-41ae-92ad-5fa012abff91","ios":"levelo://app?vid=bf21bd6b-ca05-41ae-92ad-5fa012abff91"},"vehicle_type_id":"4","last_reported":1677381580,"current_range_meters":18800,"station_id":"ce4bha92rcd13ifvqeg0","pricing_plan_id":"free"},{"bike_id":"2bed954b-3226-4ec3-809e-cba88e159f24","system_id":"levelo_inurba_marseille","lat":43.290624,"lon":5.359245,"is_reserved":false,"is_disabled":false,"rental_uris":{"android":"levelo://app?vid=2bed954b-3226-4ec3-809e-cba88e159f24","ios":"levelo://app?vid=2bed954b-3226-4ec3-809e-cba88e159f24"},"vehicle_type_id":"4","last_reported":1677381580,"current_range_meters":0,"station_id":"ce4bha92rcd13ifvqeg0","pricing_plan_id":"free"},{"bike_id":"971d5c29-5060-4c15-8d2b-77db9f7da873","system_id":"levelo_inurba_marseille","lat":43.290624,"lon":5.359245,"is_reserved":false,"is_disabled":false,"rental_uris":{"android":"levelo://app?vid=971d5c29-5060-4c15-8d2b-77db9f7da873","ios":"levelo://app?vid=971d5c29-5060-4c15-8d2b-77db9f7da873"},"vehicle_type_id":"4","last_reported":1677381580,"current_range_meters":0,"station_id":"ce4bha92rcd13ifvqeg0","pricing_plan_id":"free"},{"bike_id":"f05582a2-61bd-4f02-bc8c-7fba82de4885","system_id":"levelo_inurba_marseille","lat":43.290624,"lon":5.359245,"is_reserved":false,"is_disabled":false,"rental_uris":{"android":"levelo://app?vid=f05582a2-61bd-4f02-bc8c-7fba82de4885","ios":"levelo://app?vid=f05582a2-61bd-4f02-bc8c-7fba82de4885"},"vehicle_type_id":"4","last_reported":1677381580,"current_range_meters":15200,"station_id":"ce4bha92rcd13ifvqeg0","pricing_plan_id":"free"},{"bike_id":"623b35e3-1dff-4262-b32e-d3456ee75bf8","system_id":"levelo_inurba_marseille","lat":43.290624,"lon":5.359245,"is_reserved":false,"is_disabled":false,"rental_uris":{"android":"levelo://app?vid=623b35e3-1dff-4262-b32e-d3456ee75bf8","ios":"levelo://app?vid=623b35e3-1dff-4262-b32e-d3456ee75bf8"},"vehicle_type_id":"4","last_reported":1677381580,"current_range_meters":26400,"station_id":"ce4bha92rcd13ifvqeg0","pricing_plan_id":"free"},{"bike_id":"88f25408-31cb-4083-a572-d9f9f6cf483f","system_id":"levelo_inurba_marseille","lat":43.292644,"lon":5.384257,"is_reserved":false,"is_disabled":false,"rental_uris":{"android":"levelo://app?vid=88f25408-31cb-4083-a572-d9f9f6cf483f","ios":"levelo://app?vid=88f25408-31cb-4083-a572-d9f9f6cf483f"},"vehicle_type_id":"4","last_reported":1677381580,"current_range_meters":1600,"station_id":"ce4bh692rcd13ifvqea0","pricing_plan_id":"free"},{"bike_id":"0925cf84-77d7-4d6c-925a-5b61d352e742","system_id":"levelo_inurba_marseille","lat":43.33029,"lon":5.38919,"is_reserved":false,"is_disabled":false,"rental_uris":{"android":"levelo://app?vid=0925cf84-77d7-4d6c-925a-5b61d352e742","ios":"levelo://app?vid=0925cf84-77d7-4d6c-925a-5b61d352e742"},"vehicle_type_id":"4","last_reported":1677381580,"current_range_meters":27600,"station_id":"ce4bhr92rcd13ifvqhrg","pricing_plan_id":"free"},{"bike_id":"78d54cf5-9503-486e-90a1-743cf3cf28a2","system_id":"levelo_inurba_marseille","lat":43.33039,"lon":5.38917,"is_reserved":false,"is_disabled":false,"rental_uris":{"android":"levelo://app?vid=78d54cf5-9503-486e-90a1-743cf3cf28a2","ios":"levelo://app?vid=78d54cf5-9503-486e-90a1-743cf3cf28a2"},"vehicle_type_id":"4","last_reported":1677381580,"current_range_meters":22000,"station_id":"ce4bhr92rcd13ifvqhrg","pricing_plan_id":"free"},{"bike_id":"2b863f53-57c1-44f7-b7c8-600df4e99549","system_id":"levelo_inurba_marseille","lat":43.33046,"lon":5.389086,"is_reserved":false,"is_disabled":false,"rental_uris":{"android":"levelo://app?vid=2b863f53-57c1-44f7-b7c8-600df4e99549","ios":"levelo://app?vid=2b863f53-57c1-44f7-b7c8-600df4e99549"},"vehicle_type_id":"4","last_reported":1677381580,"current_range_meters":22400,"station_id":"ce4bhr92rcd13ifvqhrg","pricing_plan_id":"free"},{"bike_id":"32dd0ea3-ccb7-4190-bcff-ac3eb04fd5f2","system_id":"levelo_inurba_marseille","lat":43.330442,"lon":5.389148,"is_reserved":false,"is_disabled":false,"rental_uris":{"android":"levelo://app?vid=32dd0ea3-ccb7-4190-bcff-ac3eb04fd5f2","ios":"levelo://app?vid=32dd0ea3-ccb7-4190-bcff-ac3eb04fd5f2"},"vehicle_type_id":"4","last_reported":1677381580,"current_range_meters":24400,"station_id":"ce4bhr92rcd13ifvqhrg","pricing_plan_id":"free"},{"bike_id":"8461d0f6-110a-4de9-b117-fd3aa336038d","system_id":"levelo_inurba_marseille","lat":43.3304,"lon":5.38919,"is_reserved":false,"is_disabled":false,"rental_uris":{"android":"levelo://app?vid=8461d0f6-110a-4de9-b117-fd3aa336038d","ios":"levelo://app?vid=8461d0f6-110a-4de9-b117-fd3aa336038d"},"vehicle_type_id":"4","last_reported":1677381580,"current_range_meters":26400,"station_id":"ce4bhr92rcd13ifvqhrg","pricing_plan_id":"free"},{"bike_id":"d18b8f8c-a421-4dbf-a7dd-6c439f04d5b7","system_id":"levelo_inurba_marseille","lat":43.33046,"lon":5.3891,"is_reserved":false,"is_disabled":false,"rental_uris":{"android":"levelo://app?vid=d18b8f8c-a421-4dbf-a7dd-6c439f04d5b7","ios":"levelo://app?vid=d18b8f8c-a421-4dbf-a7dd-6c439f04d5b7"},"vehicle_type_id":"4","last_reported":1677381580,"current_range_meters":23200,"station_id":"ce4bhr92rcd13ifvqhrg","pricing_plan_id":"free"},{"bike_id":"15c5e29d-d5d9-413a-81f9-91860e739b12","system_id":"levelo_inurba_marseille","lat":43.330442,"lon":5.389148,"is_reserved":false,"is_disabled":false,"rental_uris":{"android":"levelo://app?vid=15c5e29d-d5d9-413a-81f9-91860e739b12","ios":"levelo://app?vid=15c5e29d-d5d9-413a-81f9-91860e739b12"},"vehicle_type_id":"4","last_reported":1677381580,"current_range_meters":6400,"station_id":"ce4bhr92rcd13ifvqhrg","pricing_plan_id":"free"},{"bike_id":"d73198b9-dd98-4b25-b2a5-422f72f2ac2a","system_id":"levelo_inurba_marseille","lat":43.330442,"lon":5.389148,"is_reserved":false,"is_disabled":false,"rental_uris":{"android":"levelo://app?vid=d73198b9-dd98-4b25-b2a5-422f72f2ac2a","ios":"levelo://app?vid=d73198b9-dd98-4b25-b2a5-422f72f2ac2a"},"vehicle_type_id":"4","last_reported":1677381580,"current_range_meters":6800,"station_id":"ce4bhr92rcd13ifvqhrg","pricing_plan_id":"free"},{"bike_id":"1d865dd6-ff67-4c9d-99dc-5d97286d7632","system_id":"levelo_inurba_marseille","lat":43.330442,"lon":5.389148,"is_reserved":false,"is_disabled":false,"rental_uris":{"android":"levelo://app?vid=1d865dd6-ff67-4c9d-99dc-5d97286d7632","ios":"levelo://app?vid=1d865dd6-ff67-4c9d-99dc-5d97286d7632"},"vehicle_type_id":"4","last_reported":1677381580,"current_range_meters":26000,"station_id":"ce4bhr92rcd13ifvqhrg","pricing_plan_id":"free"},{"bike_id":"dc7005b4-0ad4-4588-84be-cdf49e6b3034","system_id":"levelo_inurba_marseille","lat":43.33045,"lon":5.38913,"is_reserved":false,"is_disabled":false,"rental_uris":{"android":"levelo://app?vid=dc7005b4-0ad4-4588-84be-cdf49e6b3034","ios":"levelo://app?vid=dc7005b4-0ad4-4588-84be-cdf49e6b3034"},"vehicle_type_id":"4","last_reported":1677381580,"current_range_meters":10400,"station_id":"ce4bhr92rcd13ifvqhrg","pricing_plan_id":"free"},{"bike_id":"8cc8f183-c3b4-4bfa-91ca-5093726b7cc1","system_id":"levelo_inurba_marseille","lat":43.33047,"lon":5.3891,"is_reserved":false,"is_disabled":false,"rental_uris":{"android":"levelo://app?vid=8cc8f183-c3b4-4bfa-91ca-5093726b7cc1","ios":"levelo://app?vid=8cc8f183-c3b4-4bfa-91ca-5093726b7cc1"},"vehicle_type_id":"4","last_reported":1677381580,"current_range_meters":20400,"station_id":"ce4bhr92rcd13ifvqhrg","pricing_plan_id":"free"},{"bike_id":"be71a320-75a7-41b6-8bdb-d0d2bb66a24f","system_id":"levelo_inurba_marseille","lat":43.33046,"lon":5.38912,"is_reserved":false,"is_disabled":false,"rental_uris":{"android":"levelo://app?vid=be71a320-75a7-41b6-8bdb-d0d2bb66a24f","ios":"levelo://app?vid=be71a320-75a7-41b6-8bdb-d0d2bb66a24f"},"vehicle_type_id":"4","last_reported":1677381580,"current_range_meters":18800,"station_id":"ce4bhr92rcd13ifvqhrg","pricing_plan_id":"free"},{"bike_id":"395d9b35-52f5-411a-944d-07ae513be6d0","system_id":"levelo_inurba_marseille","lat":43.330442,"lon":5.389148,"is_reserved":false,"is_disabled":false,"rental_uris":{"android":"levelo://app?vid=395d9b35-52f5-411a-944d-07ae513be6d0","ios":"levelo://app?vid=395d9b35-52f5-411a-944d-07ae513be6d0"},"vehicle_type_id":"4","last_reported":1677381580,"current_range_meters":18800,"station_id":"ce4bhr92rcd13ifvqhrg","pricing_plan_id":"free"},{"bike_id":"5501c4b9-f6e9-465e-ab63-aa699ee9e63d","system_id":"levelo_inurba_marseille","lat":43.33047,"lon":5.38911,"is_reserved":false,"is_disabled":false,"rental_uris":{"android":"levelo://app?vid=5501c4b9-f6e9-465e-ab63-aa699ee9e63d","ios":"levelo://app?vid=5501c4b9-f6e9-465e-ab63-aa699ee9e63d"},"vehicle_type_id":"4","last_reported":1677381580,"current_range_meters":28000,"station_id":"ce4bhr92rcd13ifvqhrg","pricing_plan_id":"free"},{"bike_id":"0058f929-a4f4-406f-b23b-9a33c244f448","system_id":"levelo_inurba_marseille","lat":43.33046,"lon":5.38913,"is_reserved":false,"is_disabled":false,"rental_uris":{"android":"levelo://app?vid=0058f929-a4f4-406f-b23b-9a33c244f448","ios":"levelo://app?vid=0058f929-a4f4-406f-b23b-9a33c244f448"},"vehicle_type_id":"4","last_reported":1677381580,"current_range_meters":14800,"station_id":"ce4bhr92rcd13ifvqhrg","pricing_plan_id":"free"},{"bike_id":"3865cb84-cc40-40a3-80b0-00a7b1446131","system_id":"levelo_inurba_marseille","lat":43.33039,"lon":5.38924,"is_reserved":false,"is_disabled":false,"rental_uris":{"android":"levelo://app?vid=3865cb84-cc40-40a3-80b0-00a7b1446131","ios":"levelo://app?vid=3865cb84-cc40-40a3-80b0-00a7b1446131"},"vehicle_type_id":"4","last_reported":1677381580,"current_range_meters":28000,"station_id":"ce4bhr92rcd13ifvqhrg","pricing_plan_id":"free"},{"bike_id":"e8b96989-a206-4e6e-96de-45ccb611757d","system_id":"levelo_inurba_marseille","lat":43.33047,"lon":5.389129,"is_reserved":false,"is_disabled":false,"rental_uris":{"android":"levelo://app?vid=e8b96989-a206-4e6e-96de-45ccb611757d","ios":"levelo://app?vid=e8b96989-a206-4e6e-96de-45ccb611757d"},"vehicle_type_id":"4","last_reported":1677381580,"current_range_meters":22400,"station_id":"ce4bhr92rcd13ifvqhrg","pricing_plan_id":"free"},{"bike_id":"c5eaa6e5-2655-43e0-a4d8-28a8044276cf","system_id":"levelo_inurba_marseille","lat":43.330442,"lon":5.389148,"is_reserved":false,"is_disabled":false,"rental_uris":{"android":"levelo://app?vid=c5eaa6e5-2655-43e0-a4d8-28a8044276cf","ios":"levelo://app?vid=c5eaa6e5-2655-43e0-a4d8-28a8044276cf"},"vehicle_type_id":"4","last_reported":1677381580,"current_range_meters":7200,"station_id":"ce4bhr92rcd13ifvqhrg","pricing_plan_id":"free"},{"bike_id":"1cbc397d-bbc0-40b9-b8ab-069aba319336","system_id":"levelo_inurba_marseille","lat":43.330498,"lon":5.389096,"is_reserved":false,"is_disabled":false,"rental_uris":{"android":"levelo://app?vid=1cbc397d-bbc0-40b9-b8ab-069aba319336","ios":"levelo://app?vid=1cbc397d-bbc0-40b9-b8ab-069aba319336"},"vehicle_type_id":"4","last_reported":1677381580,"current_range_meters":12800,"station_id":"ce4bhr92rcd13ifvqhrg","pricing_plan_id":"free"},{"bike_id":"39b8c3a8-bf9d-4e69-aaa8-f6ed0b40ab72","system_id":"levelo_inurba_marseille","lat":43.33047,"lon":5.38914,"is_reserved":false,"is_disabled":false,"rental_uris":{"android":"levelo://app?vid=39b8c3a8-bf9d-4e69-aaa8-f6ed0b40ab72","ios":"levelo://app?vid=39b8c3a8-bf9d-4e69-aaa8-f6ed0b40ab72"},"vehicle_type_id":"4","last_reported":1677381580,"current_range_meters":19200,"station_id":"ce4bhr92rcd13ifvqhrg","pricing_plan_id":"free"},{"bike_id":"505d1333-12e8-4c53-85df-319b762b0fc5","system_id":"levelo_inurba_marseille","lat":43.33042,"lon":5.38922,"is_reserved":false,"is_disabled":false,"rental_uris":{"android":"levelo://app?vid=505d1333-12e8-4c53-85df-319b762b0fc5","ios":"levelo://app?vid=505d1333-12e8-4c53-85df-319b762b0fc5"},"vehicle_type_id":"4","last_reported":1677381580,"current_range_meters":17600,"station_id":"ce4bhr92rcd13ifvqhrg","pricing_plan_id":"free"},{"bike_id":"4a05fafd-097c-491d-b0ce-4e444805fac9","system_id":"levelo_inurba_marseille","lat":43.33043,"lon":5.38921,"is_reserved":false,"is_disabled":false,"rental_uris":{"android":"levelo://app?vid=4a05fafd-097c-491d-b0ce-4e444805fac9","ios":"levelo://app?vid=4a05fafd-097c-491d-b0ce-4e444805fac9"},"vehicle_type_id":"4","last_reported":1677381580,"current_range_meters":21600,"station_id":"ce4bhr92rcd13ifvqhrg","pricing_plan_id":"free"},{"bike_id":"e5b56d11-91b9-4806-bc8e-991a030edc14","system_id":"levelo_inurba_marseille","lat":43.33041,"lon":5.38925,"is_reserved":false,"is_disabled":false,"rental_uris":{"android":"levelo://app?vid=e5b56d11-91b9-4806-bc8e-991a030edc14","ios":"levelo://app?vid=e5b56d11-91b9-4806-bc8e-991a030edc14"},"vehicle_type_id":"4","last_reported":1677381580,"current_range_meters":19600,"station_id":"ce4bhr92rcd13ifvqhrg","pricing_plan_id":"free"},{"bike_id":"3ba821fc-3587-4c55-ac4e-9e6c1727f494","system_id":"levelo_inurba_marseille","lat":43.330442,"lon":5.389148,"is_reserved":false,"is_disabled":false,"rental_uris":{"android":"levelo://app?vid=3ba821fc-3587-4c55-ac4e-9e6c1727f494","ios":"levelo://app?vid=3ba821fc-3587-4c55-ac4e-9e6c1727f494"},"vehicle_type_id":"4","last_reported":1677381580,"current_range_meters":16400,"station_id":"ce4bhr92rcd13ifvqhrg","pricing_plan_id":"free"},{"bike_id":"4ff4b905-6214-4d55-8490-50f1aa552805","system_id":"levelo_inurba_marseille","lat":43.33051,"lon":5.38911,"is_reserved":false,"is_disabled":false,"rental_uris":{"android":"levelo://app?vid=4ff4b905-6214-4d55-8490-50f1aa552805","ios":"levelo://app?vid=4ff4b905-6214-4d55-8490-50f1aa552805"},"vehicle_type_id":"4","last_reported":1677381580,"current_range_meters":26400,"station_id":"ce4bhr92rcd13ifvqhrg","pricing_plan_id":"free"},{"bike_id":"71985252-e8ed-4633-ae2c-0c3f20833843","system_id":"levelo_inurba_marseille","lat":43.330442,"lon":5.389148,"is_reserved":false,"is_disabled":false,"rental_uris":{"android":"levelo://app?vid=71985252-e8ed-4633-ae2c-0c3f20833843","ios":"levelo://app?vid=71985252-e8ed-4633-ae2c-0c3f20833843"},"vehicle_type_id":"4","last_reported":1677381580,"current_range_meters":28800,"station_id":"ce4bhr92rcd13ifvqhrg","pricing_plan_id":"free"},{"bike_id":"770a62e2-d56b-472e-bfbc-1ca78e1901a1","system_id":"levelo_inurba_marseille","lat":43.33045,"lon":5.38921,"is_reserved":false,"is_disabled":false,"rental_uris":{"android":"levelo://app?vid=770a62e2-d56b-472e-bfbc-1ca78e1901a1","ios":"levelo://app?vid=770a62e2-d56b-472e-bfbc-1ca78e1901a1"},"vehicle_type_id":"4","last_reported":1677381580,"current_range_meters":22400,"station_id":"ce4bhr92rcd13ifvqhrg","pricing_plan_id":"free"},{"bike_id":"6eff16cf-b95f-4647-917b-82ba5d44eb74","system_id":"levelo_inurba_marseille","lat":43.33049,"lon":5.38918,"is_reserved":false,"is_disabled":false,"rental_uris":{"android":"levelo://app?vid=6eff16cf-b95f-4647-917b-82ba5d44eb74","ios":"levelo://app?vid=6eff16cf-b95f-4647-917b-82ba5d44eb74"},"vehicle_type_id":"4","last_reported":1677381580,"current_range_meters":23600,"station_id":"ce4bhr92rcd13ifvqhrg","pricing_plan_id":"free"},{"bike_id":"3a45e837-4e0d-487c-970b-a6f78d48220a","system_id":"levelo_inurba_marseille","lat":43.289741,"lon":5.378306,"is_reserved":false,"is_disabled":false,"rental_uris":{"android":"levelo://app?vid=3a45e837-4e0d-487c-970b-a6f78d48220a","ios":"levelo://app?vid=3a45e837-4e0d-487c-970b-a6f78d48220a"},"vehicle_type_id":"4","last_reported":1677381580,"current_range_meters":0,"station_id":"ce4bh9p2rcd13ifvqed0","pricing_plan_id":"free"},{"bike_id":"fda73354-cb02-41af-8b16-592c6c9d0e16","system_id":"levelo_inurba_marseille","lat":43.289743,"lon":5.378304,"is_reserved":false,"is_disabled":false,"rental_uris":{"android":"levelo://app?vid=fda73354-cb02-41af-8b16-592c6c9d0e16","ios":"levelo://app?vid=fda73354-cb02-41af-8b16-592c6c9d0e16"},"vehicle_type_id":"4","last_reported":1677381580,"current_range_meters":30800,"station_id":"ce4bh9p2rcd13ifvqed0","pricing_plan_id":"free"},{"bike_id":"4f609daf-f5b2-4ca8-8bfc-906bdcb909bd","system_id":"levelo_inurba_marseille","lat":43.28855,"lon":5.358503,"is_reserved":false,"is_disabled":false,"rental_uris":{"android":"levelo://app?vid=4f609daf-f5b2-4ca8-8bfc-906bdcb909bd","ios":"levelo://app?vid=4f609daf-f5b2-4ca8-8bfc-906bdcb909bd"},"vehicle_type_id":"4","last_reported":1677381580,"current_range_meters":16000,"station_id":"","pricing_plan_id":"free"},{"bike_id":"c01acb10-5c02-4290-960a-ce01f7c98db8","system_id":"levelo_inurba_marseille","lat":43.288525,"lon":5.358455,"is_reserved":false,"is_disabled":false,"rental_uris":{"android":"levelo://app?vid=c01acb10-5c02-4290-960a-ce01f7c98db8","ios":"levelo://app?vid=c01acb10-5c02-4290-960a-ce01f7c98db8"},"vehicle_type_id":"4","last_reported":1677381580,"current_range_meters":31600,"station_id":"","pricing_plan_id":"free"},{"bike_id":"e6a7894d-7abc-4955-9558-973e1e5d0657","system_id":"levelo_inurba_marseille","lat":43.288457,"lon":5.358483,"is_reserved":false,"is_disabled":false,"rental_uris":{"android":"levelo://app?vid=e6a7894d-7abc-4955-9558-973e1e5d0657","ios":"levelo://app?vid=e6a7894d-7abc-4955-9558-973e1e5d0657"},"vehicle_type_id":"4","last_reported":1677381580,"current_range_meters":23600,"station_id":"ce4bhb12rcd13ifvqem0","pricing_plan_id":"free"},{"bike_id":"a2d8452f-42bb-4f1a-959f-271d95e2b300","system_id":"levelo_inurba_marseille","lat":43.30642,"lon":5.401031,"is_reserved":false,"is_disabled":false,"rental_uris":{"android":"levelo://app?vid=a2d8452f-42bb-4f1a-959f-271d95e2b300","ios":"levelo://app?vid=a2d8452f-42bb-4f1a-959f-271d95e2b300"},"vehicle_type_id":"4","last_reported":1677381580,"current_range_meters":23200,"station_id":"ce4bh112rcd13ifvqda0","pricing_plan_id":"free"},{"bike_id":"0e33e615-e8f9-4f7d-9d66-bc9dcc5b559b","system_id":"levelo_inurba_marseille","lat":43.30639,"lon":5.400917,"is_reserved":false,"is_disabled":false,"rental_uris":{"android":"levelo://app?vid=0e33e615-e8f9-4f7d-9d66-bc9dcc5b559b","ios":"levelo://app?vid=0e33e615-e8f9-4f7d-9d66-bc9dcc5b559b"},"vehicle_type_id":"4","last_reported":1677381580,"current_range_meters":1600,"station_id":"ce4bh112rcd13ifvqda0","pricing_plan_id":"free"},{"bike_id":"0bb36b04-ad03-4601-9176-243ebe6edeb3","system_id":"levelo_inurba_marseille","lat":43.301117,"lon":5.398795,"is_reserved":false,"is_disabled":false,"rental_uris":{"android":"levelo://app?vid=0bb36b04-ad03-4601-9176-243ebe6edeb3","ios":"levelo://app?vid=0bb36b04-ad03-4601-9176-243ebe6edeb3"},"vehicle_type_id":"4","last_reported":1677381580,"current_range_meters":27200,"station_id":"ce4bh0h2rcd13ifvqd40","pricing_plan_id":"free"},{"bike_id":"70a179bd-c685-4a8b-9b37-ed028bfda47f","system_id":"levelo_inurba_marseille","lat":43.301117,"lon":5.398795,"is_reserved":false,"is_disabled":false,"rental_uris":{"android":"levelo://app?vid=70a179bd-c685-4a8b-9b37-ed028bfda47f","ios":"levelo://app?vid=70a179bd-c685-4a8b-9b37-ed028bfda47f"},"vehicle_type_id":"4","last_reported":1677381580,"current_range_meters":17600,"station_id":"ce4bh0h2rcd13ifvqd40","pricing_plan_id":"free"},{"bike_id":"59406b8f-c335-4d6d-9610-4f2fc98ae24a","system_id":"levelo_inurba_marseille","lat":43.301117,"lon":5.398795,"is_reserved":false,"is_disabled":false,"rental_uris":{"android":"levelo://app?vid=59406b8f-c335-4d6d-9610-4f2fc98ae24a","ios":"levelo://app?vid=59406b8f-c335-4d6d-9610-4f2fc98ae24a"},"vehicle_type_id":"4","last_reported":1677381580,"current_range_meters":24000,"station_id":"ce4bh0h2rcd13ifvqd40","pricing_plan_id":"free"},{"bike_id":"37faaeba-d259-4298-aa77-f1356ce81421","system_id":"levelo_inurba_marseille","lat":43.301117,"lon":5.398795,"is_reserved":false,"is_disabled":false,"rental_uris":{"android":"levelo://app?vid=37faaeba-d259-4298-aa77-f1356ce81421","ios":"levelo://app?vid=37faaeba-d259-4298-aa77-f1356ce81421"},"vehicle_type_id":"4","last_reported":1677381580,"current_range_meters":25200,"station_id":"ce4bh0h2rcd13ifvqd40","pricing_plan_id":"free"},{"bike_id":"c05b76f6-8fae-431f-b0be-5702adc18f09","system_id":"levelo_inurba_marseille","lat":43.301117,"lon":5.398795,"is_reserved":false,"is_disabled":false,"rental_uris":{"android":"levelo://app?vid=c05b76f6-8fae-431f-b0be-5702adc18f09","ios":"levelo://app?vid=c05b76f6-8fae-431f-b0be-5702adc18f09"},"vehicle_type_id":"4","last_reported":1677381580,"current_range_meters":29600,"station_id":"ce4bh0h2rcd13ifvqd40","pricing_plan_id":"free"},{"bike_id":"0cfa2e7e-b3b8-4e1c-a8e9-dad2b0d0f711","system_id":"levelo_inurba_marseille","lat":43.301117,"lon":5.398795,"is_reserved":false,"is_disabled":false,"rental_uris":{"android":"levelo://app?vid=0cfa2e7e-b3b8-4e1c-a8e9-dad2b0d0f711","ios":"levelo://app?vid=0cfa2e7e-b3b8-4e1c-a8e9-dad2b0d0f711"},"vehicle_type_id":"4","last_reported":1677381580,"current_range_meters":27600,"station_id":"ce4bh0h2rcd13ifvqd40","pricing_plan_id":"free"},{"bike_id":"16f05d97-22ef-4a85-be02-7784913efc0c","system_id":"levelo_inurba_marseille","lat":43.298681,"lon":5.397225,"is_reserved":false,"is_disabled":false,"rental_uris":{"android":"levelo://app?vid=16f05d97-22ef-4a85-be02-7784913efc0c","ios":"levelo://app?vid=16f05d97-22ef-4a85-be02-7784913efc0c"},"vehicle_type_id":"4","last_reported":1677381580,"current_range_meters":26400,"station_id":"ce4bh0h2rcd13ifvqd50","pricing_plan_id":"free"},{"bike_id":"401a8cf6-9dd9-4de6-8e60-737de78e518e","system_id":"levelo_inurba_marseille","lat":43.298681,"lon":5.397225,"is_reserved":false,"is_disabled":false,"rental_uris":{"android":"levelo://app?vid=401a8cf6-9dd9-4de6-8e60-737de78e518e","ios":"levelo://app?vid=401a8cf6-9dd9-4de6-8e60-737de78e518e"},"vehicle_type_id":"4","last_reported":1677381580,"current_range_meters":11200,"station_id":"ce4bh0h2rcd13ifvqd50","pricing_plan_id":"free"},{"bike_id":"2e57995a-08fc-4443-8bc8-195595ec7bcd","system_id":"levelo_inurba_marseille","lat":43.298681,"lon":5.397225,"is_reserved":false,"is_disabled":false,"rental_uris":{"android":"levelo://app?vid=2e57995a-08fc-4443-8bc8-195595ec7bcd","ios":"levelo://app?vid=2e57995a-08fc-4443-8bc8-195595ec7bcd"},"vehicle_type_id":"4","last_reported":1677381580,"current_range_meters":26800,"station_id":"ce4bh0h2rcd13ifvqd50","pricing_plan_id":"free"},{"bike_id":"2b2951ab-4f43-43f9-931a-3ad796fcd4dd","system_id":"levelo_inurba_marseille","lat":43.298681,"lon":5.397225,"is_reserved":false,"is_disabled":false,"rental_uris":{"android":"levelo://app?vid=2b2951ab-4f43-43f9-931a-3ad796fcd4dd","ios":"levelo://app?vid=2b2951ab-4f43-43f9-931a-3ad796fcd4dd"},"vehicle_type_id":"4","last_reported":1677381580,"current_range_meters":6800,"station_id":"ce4bh0h2rcd13ifvqd50","pricing_plan_id":"free"},{"bike_id":"9deaee6f-6429-4e35-9bf0-91980896f943","system_id":"levelo_inurba_marseille","lat":43.298681,"lon":5.397225,"is_reserved":false,"is_disabled":false,"rental_uris":{"android":"levelo://app?vid=9deaee6f-6429-4e35-9bf0-91980896f943","ios":"levelo://app?vid=9deaee6f-6429-4e35-9bf0-91980896f943"},"vehicle_type_id":"4","last_reported":1677381580,"current_range_meters":27600,"station_id":"ce4bh0h2rcd13ifvqd50","pricing_plan_id":"free"},{"bike_id":"1c3cdc41-dcb6-4b86-b9d6-21ea630fa699","system_id":"levelo_inurba_marseille","lat":43.298681,"lon":5.397225,"is_reserved":false,"is_disabled":false,"rental_uris":{"android":"levelo://app?vid=1c3cdc41-dcb6-4b86-b9d6-21ea630fa699","ios":"levelo://app?vid=1c3cdc41-dcb6-4b86-b9d6-21ea630fa699"},"vehicle_type_id":"4","last_reported":1677381580,"current_range_meters":28400,"station_id":"ce4bh0h2rcd13ifvqd50","pricing_plan_id":"free"},{"bike_id":"c3c75df7-c46f-4e7d-9def-48855c3fbc7f","system_id":"levelo_inurba_marseille","lat":43.335373,"lon":5.385446,"is_reserved":false,"is_disabled":false,"rental_uris":{"android":"levelo://app?vid=c3c75df7-c46f-4e7d-9def-48855c3fbc7f","ios":"levelo://app?vid=c3c75df7-c46f-4e7d-9def-48855c3fbc7f"},"vehicle_type_id":"4","last_reported":1677381580,"current_range_meters":7200,"station_id":"","pricing_plan_id":"free"},{"bike_id":"70a190a3-e9b4-4b28-bae0-2212b3193c85","system_id":"levelo_inurba_marseille","lat":43.295236,"lon":5.394015,"is_reserved":false,"is_disabled":false,"rental_uris":{"android":"levelo://app?vid=70a190a3-e9b4-4b28-bae0-2212b3193c85","ios":"levelo://app?vid=70a190a3-e9b4-4b28-bae0-2212b3193c85"},"vehicle_type_id":"4","last_reported":1677381580,"current_range_meters":30800,"station_id":"ce4bh212rcd13ifvqde0","pricing_plan_id":"free"},{"bike_id":"452a8237-0b53-49ca-a403-244c8b8ff036","system_id":"levelo_inurba_marseille","lat":43.29521,"lon":5.394,"is_reserved":false,"is_disabled":false,"rental_uris":{"android":"levelo://app?vid=452a8237-0b53-49ca-a403-244c8b8ff036","ios":"levelo://app?vid=452a8237-0b53-49ca-a403-244c8b8ff036"},"vehicle_type_id":"4","last_reported":1677381580,"current_range_meters":4000,"station_id":"ce4bh212rcd13ifvqde0","pricing_plan_id":"free"},