{"last_updated":1738141786,"ttl":60,"version":"2.2","data":{"bikes":[{"bike_id":"f80f68fe-d05c-47e9-8931-ac3ef28d2b2e","system_id":"levelo_inurba_marseille","lat":43.3017,"lon":5.36624,"is_reserved":false,"is_disabled":false,"rental_uris":{"android":"levelo://app?vid=f80f68fe-d05c-47e9-8931-ac3ef28d2b2e","ios":"levelo://app?vid=f80f68fe-d05c-47e9-8931-ac3ef28d2b2e"},"vehicle_type_id":"4","last_reported":1738141786,"current_range_meters":30800,"station_id":"ce4bgrh2rcd13ifvqc8g","pricing_plan_id":"cebpf4jnsgd1na2vs0mg"},{"bike_id":"e673b806-a247-4a7b-b816-c317e5da9f94","system_id":"levelo_inurba_marseille","lat":43.24659,"lon":5.38149,"is_reserved":false,"is_disabled":false,"rental_uris":{"android":"levelo://app?vid=e673b806-a247-4a7b-b816-c317e5da9f94","ios":"levelo://app?vid=e673b806-a247-4a7b-b816-c317e5da9f94"},"vehicle_type_id":"4","last_reported":1738141786,"current_range_meters":23200,"station_id":"ce4bhih2rcd13ifvqfr0","pricing_plan_id":"cebpf4jnsgd1na2vs0mg"},{"bike_id":"3cb0fac2-5ab3-4435-9fe9-af517f0263ee","system_id":"levelo_inurba_marseille","lat":43.28933,"lon":5.39658,"is_reserved":false,"is_disabled":true,"rental_uris":{"android":"levelo://app?vid=3cb0fac2-5ab3-4435-9fe9-af517f0263ee","ios":"levelo://app?vid=3cb0fac2-5ab3-4435-9fe9-af517f0263ee"},"vehicle_type_id":"4","last_reported":1738141786,"current_range_meters":35600,"station_id":"ce4bh3h2rcd13ifvqdn0","pricing_plan_id":"cebpf4jnsgd1na2vs0mg"},{"bike_id":"77a227d4-24f8-4b28-a9f7-850a3a5a6295","system_id":"levelo_inurba_marseille","lat":43.25002,"lon":5.38926,"is_reserved":false,"is_disabled":false,"rental_uris":{"android":"levelo://app?vid=77a227d4-24f8-4b28-a9f7-850a3a5a6295","ios":"levelo://app?vid=77a227d4-24f8-4b28-a9f7-850a3a5a6295"},"vehicle_type_id":"4","last_reported":1738141786,"current_range_meters":32400,"station_id":"ce4bhgp2rcd13ifvqfd0","pricing_plan_id":"cebpf4jnsgd1na2vs0mg"},{"bike_id":"e95ca0ab-7e54-4161-8301-71138155f3b2","system_id":"levelo_inurba_marseille","lat":43.29724,"lon":5.3769,"is_reserved":false,"is_disabled":false,"rental_uris":{"android":"levelo://app?vid=e95ca0ab-7e54-4161-8301-71138155f3b2","ios":"levelo://app?vid=e95ca0ab-7e54-4161-8301-71138155f3b2"},"vehicle_type_id":"4","last_reported":1738141786,"current_range_meters":30000,"station_id":"ce4bgkh2rcd13ifvqbl0","pricing_plan_id":"cebpf4jnsgd1na2vs0mg"},{"bike_id":"fe3ebb9b-08b6-493c-9a93-713d6a609bdf","system_id":"levelo_inurba_marseille","lat":43.29222,"lon":5.36069,"is_reserved":false,"is_disabled":false,"rental_uris":{"android":"levelo://app?vid=fe3ebb9b-08b6-493c-9a93-713d6a609bdf","ios":"levelo://app?vid=fe3ebb9b-08b6-493c-9a93-713d6a609bdf"},"vehicle_type_id":"4","last_reported":1738141786,"current_range_meters":38800,"station_id":"ce4bhbh2rcd13ifvqeqg","pricing_plan_id":"cebpf4jnsgd1na2vs0mg"},{"bike_id":"56f49f8b-4bf2-4d84-97ce-54c8a66ab5f7","system_id":"levelo_inurba_marseille","lat":43.29989,"lon":5.37181,"is_reserved":false,"is_disabled":false,"rental_uris":{"android":"levelo://app?vid=56f49f8b-4bf2-4d84-97ce-54c8a66ab5f7","ios":"levelo://app?vid=56f49f8b-4bf2-4d84-97ce-54c8a66ab5f7"},"vehicle_type_id":"4","last_reported":1738141786,"current_range_meters":7200,"station_id":"ce4bgr92rcd13ifvqc7g","pricing_plan_id":"cebpf4jnsgd1na2vs0mg"},{"bike_id":"e6310977-c603-4a2a-94c1-0bef12b48698","system_id":"levelo_inurba_marseille","lat":43.24068,"lon":5.37774,"is_reserved":false,"is_disabled":false,"rental_uris":{"android":"levelo://app?vid=e6310977-c603-4a2a-94c1-0bef12b48698","ios":"levelo://app?vid=e6310977-c603-4a2a-94c1-0bef12b48698"},"vehicle_type_id":"4","last_reported":1738141786,"current_range_meters":39200,"station_id":"ce4bhnp2rcd13ifvqgvg","pricing_plan_id":"cebpf4jnsgd1na2vs0mg"},{"bike_id":"f7f8117f-03ef-415e-85c6-2eeaf165e4f2","system_id":"levelo_inurba_marseille","lat":43.26228,"lon":5.40447,"is_reserved":false,"is_disabled":true,"rental_uris":{"android":"levelo://app?vid=f7f8117f-03ef-415e-85c6-2eeaf165e4f2","ios":"levelo://app?vid=f7f8117f-03ef-415e-85c6-2eeaf165e4f2"},"vehicle_type_id":"4","last_reported":1738141786,"current_range_meters":29600,"station_id":"ce4bhmh2rcd13ifvqgmg","pricing_plan_id":"cebpf4jnsgd1na2vs0mg"},{"bike_id":"60b94ec1-a2e5-42fc-ad7c-d66b2ada9c44","system_id":"levelo_inurba_marseille","lat":43.2396,"lon":5.36652,"is_reserved":false,"is_disabled":false,"rental_uris":{"android":"levelo://app?vid=60b94ec1-a2e5-42fc-ad7c-d66b2ada9c44","ios":"levelo://app?vid=60b94ec1-a2e5-42fc-ad7c-d66b2ada9c44"},"vehicle_type_id":"4","last_reported":1738141786,"current_range_meters":4800,"station_id":"ce4bhi12rcd13ifvqfp0","pricing_plan_id":"cebpf4jnsgd1na2vs0mg"},{"bike_id":"1c691f34-b581-43fa-9960-cfc896fbdb5c","system_id":"levelo_inurba_marseille","lat":43.30528,"lon":5.36529,"is_reserved":false,"is_disabled":false,"rental_uris":{"android":"levelo://app?vid=1c691f34-b581-43fa-9960-cfc896fbdb5c","ios":"levelo://app?vid=1c691f34-b581-43fa-9960-cfc896fbdb5c"},"vehicle_type_id":"4","last_reported":1738141786,"current_range_meters":39200,"station_id":"ce4bgs12rcd13ifvqcag","pricing_plan_id":"cebpf4jnsgd1na2vs0mg"},{"bike_id":"d77faba5-2b0c-430f-ad22-bcf40b90e74c","system_id":"levelo_inurba_marseille","lat":43.27798,"lon":5.4074,"is_reserved":false,"is_disabled":true,"rental_uris":{"android":"levelo://app?vid=d77faba5-2b0c-430f-ad22-bcf40b90e74c","ios":"levelo://app?vid=d77faba5-2b0c-430f-ad22-bcf40b90e74c"},"vehicle_type_id":"4","last_reported":1738141786,"current_range_meters":36000,"station_id":"ce4bhnh2rcd13ifvqgtg","pricing_plan_id":"cebpf4jnsgd1na2vs0mg"},{"bike_id":"d64fe0b3-0658-4486-802d-44aa5d4a3168","system_id":"levelo_inurba_marseille","lat":43.24998,"lon":5.38942,"is_reserved":false,"is_disabled":false,"rental_uris":{"android":"levelo://app?vid=d64fe0b3-0658-4486-802d-44aa5d4a3168","ios":"levelo://app?vid=d64fe0b3-0658-4486-802d-44aa5d4a3168"},"vehicle_type_id":"4","last_reported":1738141786,"current_range_meters":36800,"station_id":"ce4bhgp2rcd13ifvqfd0","pricing_plan_id":"cebpf4jnsgd1na2vs0mg"},{"bike_id":"f93041b9-b8e0-42d2-8838-ad70483b616d","system_id":"levelo_inurba_marseille","lat":43.26777,"lon":5.39416,"is_reserved":false,"is_disabled":false,"rental_uris":{"android":"levelo://app?vid=f93041b9-b8e0-42d2-8838-ad70483b616d","ios":"levelo://app?vid=f93041b9-b8e0-42d2-8838-ad70483b616d"},"vehicle_type_id":"4","last_reported":1738141786,"current_range_meters":18800,"station_id":"ce4bhh12rcd13ifvqfg0","pricing_plan_id":"cebpf4jnsgd1na2vs0mg"},{"bike_id":"ea0a3ced-60f0-4e3f-8caa-a7794ff37020","system_id":"levelo_inurba_marseille","lat":43.28945,"lon":5.37872,"is_reserved":false,"is_disabled":false,"rental_uris":{"android":"levelo://app?vid=ea0a3ced-60f0-4e3f-8caa-a7794ff37020","ios":"levelo://app?vid=ea0a3ced-60f0-4e3f-8caa-a7794ff37020"},"vehicle_type_id":"4","last_reported":1738141786,"current_range_meters":36800,"station_id":"ce4bh9p2rcd13ifvqed0","pricing_plan_id":"cebpf4jnsgd1na2vs0mg"},{"bike_id":"89cdc235-09fd-4457-b2c9-240cdad9a50b","system_id":"levelo_inurba_marseille","lat":43.30151,"lon":5.38088,"is_reserved":false,"is_disabled":false,"rental_uris":{"android":"levelo://app?vid=89cdc235-09fd-4457-b2c9-240cdad9a50b","ios":"levelo://app?vid=89cdc235-09fd-4457-b2c9-240cdad9a50b"},"vehicle_type_id":"4","last_reported":1738141786,"current_range_meters":39200,"station_id":"ce4bgjp2rcd13ifvqbh0","pricing_plan_id":"cebpf4jnsgd1na2vs0mg"},{"bike_id":"df517269-7978-40e7-92b9-aba0b6440d0d","system_id":"levelo_inurba_marseille","lat":43.27371,"lon":5.36252,"is_reserved":false,"is_disabled":false,"rental_uris":{"android":"levelo://app?vid=df517269-7978-40e7-92b9-aba0b6440d0d","ios":"levelo://app?vid=df517269-7978-40e7-92b9-aba0b6440d0d"},"vehicle_type_id":"4","last_reported":1738141786,"current_range_meters":31200,"station_id":"ce4bhbh2rcd13ifvqeo0","pricing_plan_id":"cebpf4jnsgd1na2vs0mg"},{"bike_id":"96c6d005-88bb-4fd6-98f4-0a014c553eb8","system_id":"levelo_inurba_marseille","lat":43.3305,"lon":5.3903,"is_reserved":false,"is_disabled":false,"rental_uris":{"android":"levelo://app?vid=96c6d005-88bb-4fd6-98f4-0a014c553eb8","ios":"levelo://app?vid=96c6d005-88bb-4fd6-98f4-0a014c553eb8"},"vehicle_type_id":"4","last_reported":1738141786,"current_range_meters":38800,"station_id":"ce4bhr92rcd13ifvqhrg","pricing_plan_id":"cebpf4jnsgd1na2vs0mg"},{"bike_id":"431fcadf-3903-4ee1-a30c-4f91781eb5a1","system_id":"levelo_inurba_marseille","lat":43.32534,"lon":5.41422,"is_reserved":false,"is_disabled":false,"rental_uris":{"android":"levelo://app?vid=431fcadf-3903-4ee1-a30c-4f91781eb5a1","ios":"levelo://app?vid=431fcadf-3903-4ee1-a30c-4f91781eb5a1"},"vehicle_type_id":"4","last_reported":1738141786,"current_range_meters":33600,"station_id":"ce4bhq12rcd13ifvqhhg","pricing_plan_id":"cebpf4jnsgd1na2vs0mg"},{"bike_id":"b40c35fe-c470-42e7-a7a1-f4c3e646ecc8","system_id":"levelo_inurba_marseille","lat":43.31076,"lon":5.42444,"is_reserved":false,"is_disabled":false,"rental_uris":{"android":"levelo://app?vid=b40c35fe-c470-42e7-a7a1-f4c3e646ecc8","ios":"levelo://app?vid=b40c35fe-c470-42e7-a7a1-f4c3e646ecc8"},"vehicle_type_id":"4","last_reported":1738141786,"current_range_meters":9600,"station_id":"ce4bhp92rcd13ifvqhag","pricing_plan_id":"cebpf4jnsgd1na2vs0mg"},{"bike_id":"4fee5b2c-113a-4e93-8885-ff5a6a124d4d","system_id":"levelo_inurba_marseille","lat":43.27497,"lon":5.42456,"is_reserved":false,"is_disabled":false,"rental_uris":{"android":"levelo://app?vid=4fee5b2c-113a-4e93-8885-ff5a6a124d4d","ios":"levelo://app?vid=4fee5b2c-113a-4e93-8885-ff5a6a124d4d"},"vehicle_type_id":"4","last_reported":1738141786,"current_range_meters":9200,"station_id":"ce4bhn92rcd13ifvqgrg","pricing_plan_id":"cebpf4jnsgd1na2vs0mg"},{"bike_id":"e05d3339-457c-46fa-9827-97d4d0e79dfd","system_id":"levelo_inurba_marseille","lat":43.25856,"lon":5.39916,"is_reserved":false,"is_disabled":false,"rental_uris":{"android":"levelo://app?vid=e05d3339-457c-46fa-9827-97d4d0e79dfd","ios":"levelo://app?vid=e05d3339-457c-46fa-9827-97d4d0e79dfd"},"vehicle_type_id":"4","last_reported":1738141786,"current_range_meters":38800,"station_id":"ce4bhl92rcd13ifvqghg","pricing_plan_id":"cebpf4jnsgd1na2vs0mg"},{"bike_id":"68c61547-82e3-4820-a64c-61733a3707ff","system_id":"levelo_inurba_marseille","lat":43.27509,"lon":5.42464,"is_reserved":false,"is_disabled":false,"rental_uris":{"android":"levelo://app?vid=68c61547-82e3-4820-a64c-61733a3707ff","ios":"levelo://app?vid=68c61547-82e3-4820-a64c-61733a3707ff"},"vehicle_type_id":"4","last_reported":1738141786,"current_range_meters":25600,"station_id":"ce4bhn92rcd13ifvqgrg","pricing_plan_id":"cebpf4jnsgd1na2vs0mg"},{"bike_id":"7dd6c993-b878-4097-bf21-43aba62e680a","system_id":"levelo_inurba_marseille","lat":43.30903,"lon":5.36834,"is_reserved":false,"is_disabled":false,"rental_uris":{"android":"levelo://app?vid=7dd6c993-b878-4097-bf21-43aba62e680a","ios":"levelo://app?vid=7dd6c993-b878-4097-bf21-43aba62e680a"},"vehicle_type_id":"4","last_reported":1738141786,"current_range_meters":24000,"station_id":"ce4bgn92rcd13ifvqbvg","pricing_plan_id":"cebpf4jnsgd1na2vs0mg"},{"bike_id":"7b755feb-61ac-402f-b96a-d28fa888de91","system_id":"levelo_inurba_marseille","lat":43.30179,"lon":5.36623,"is_reserved":false,"is_disabled":false,"rental_uris":{"android":"levelo://app?vid=7b755feb-61ac-402f-b96a-d28fa888de91","ios":"levelo://app?vid=7b755feb-61ac-402f-b96a-d28fa888de91"},"vehicle_type_id":"4","last_reported":1738141786,"current_range_meters":28800,"station_id":"ce4bgrh2rcd13ifvqc8g","pricing_plan_id":"cebpf4jnsgd1na2vs0mg"},{"bike_id":"0a35e13e-7ac4-41c5-852f-a143f236e88c","system_id":"levelo_inurba_marseille","lat":43.30942,"lon":5.39034,"is_reserved":false,"is_disabled":false,"rental_uris":{"android":"levelo://app?vid=0a35e13e-7ac4-41c5-852f-a143f236e88c","ios":"levelo://app?vid=0a35e13e-7ac4-41c5-852f-a143f236e88c"},"vehicle_type_id":"4","last_reported":1738141786,"current_range_meters":20000,"station_id":"ce4bgup2rcd13ifvqco0","pricing_plan_id":"cebpf4jnsgd1na2vs0mg"},{"bike_id":"62fdd3d8-969e-43e3-8a49-e36e0271c5f1","system_id":"levelo_inurba_marseille","lat":43.25574,"lon":5.38235,"is_reserved":false,"is_disabled":false,"rental_uris":{"android":"levelo://app?vid=62fdd3d8-969e-43e3-8a49-e36e0271c5f1","ios":"levelo://app?vid=62fdd3d8-969e-43e3-8a49-e36e0271c5f1"},"vehicle_type_id":"4","last_reported":1738141786,"current_range_meters":20800,"station_id":"ce4bhih2rcd13ifvqfs0","pricing_plan_id":"cebpf4jnsgd1na2vs0mg"},{"bike_id":"ff76dca8-f551-47fa-b9e9-6464a1a4a294","system_id":"levelo_inurba_marseille","lat":43.24666,"lon":5.38168,"is_reserved":false,"is_disabled":false,"rental_uris":{"android":"levelo://app?vid=ff76dca8-f551-47fa-b9e9-6464a1a4a294","ios":"levelo://app?vid=ff76dca8-f551-47fa-b9e9-6464a1a4a294"},"vehicle_type_id":"4","last_reported":1738141786,"current_range_meters":39200,"station_id":"ce4bhih2rcd13ifvqfr0","pricing_plan_id":"cebpf4jnsgd1na2vs0mg"},{"bike_id":"500a2ada-0930-4684-8535-655aa1d2e704","system_id":"levelo_inurba_marseille","lat":43.30452,"lon":5.37906,"is_reserved":false,"is_disabled":true,"rental_uris":{"android":"levelo://app?vid=500a2ada-0930-4684-8535-655aa1d2e704","ios":"levelo://app?vid=500a2ada-0930-4684-8535-655aa1d2e704"},"vehicle_type_id":"4","last_reported":1738141786,"current_range_meters":38800,"station_id":"ce4bgup2rcd13ifvqcn0","pricing_plan_id":"cebpf4jnsgd1na2vs0mg"},{"bike_id":"cca1a460-386b-4c26-a848-10ea11937197","system_id":"levelo_inurba_marseille","lat":43.28959,"lon":5.37831,"is_reserved":false,"is_disabled":false,"rental_uris":{"android":"levelo://app?vid=cca1a460-386b-4c26-a848-10ea11937197","ios":"levelo://app?vid=cca1a460-386b-4c26-a848-10ea11937197"},"vehicle_type_id":"4","last_reported":1738141786,"current_range_meters":28000,"station_id":"ce4bh9p2rcd13ifvqed0","pricing_plan_id":"cebpf4jnsgd1na2vs0mg"},{"bike_id":"4869fb0f-4146-402c-84ed-833e60286dc8","system_id":"levelo_inurba_marseille","lat":43.30881,"lon":5.37188,"is_reserved":false,"is_disabled":false,"rental_uris":{"android":"levelo://app?vid=4869fb0f-4146-402c-84ed-833e60286dc8","ios":"levelo://app?vid=4869fb0f-4146-402c-84ed-833e60286dc8"},"vehicle_type_id":"4","last_reported":1738141786,"current_range_meters":38800,"station_id":"ce4bguh2rcd13ifvqckg","pricing_plan_id":"cebpf4jnsgd1na2vs0mg"},{"bike_id":"b33ff862-b404-4434-a3e7-c73e43df9fda","system_id":"levelo_inurba_marseille","lat":43.31361,"lon":5.38498,"is_reserved":false,"is_disabled":false,"rental_uris":{"android":"levelo://app?vid=b33ff862-b404-4434-a3e7-c73e43df9fda","ios":"levelo://app?vid=b33ff862-b404-4434-a3e7-c73e43df9fda"},"vehicle_type_id":"4","last_reported":1738141786,"current_range_meters":37600,"station_id":"ce4bgt92rcd13ifvqcf0","pricing_plan_id":"cebpf4jnsgd1na2vs0mg"},{"bike_id":"5d4915e0-4a9f-4c36-821a-8bde58abc3cd","system_id":"levelo_inurba_marseille","lat":43.25088,"lon":5.40342,"is_reserved":false,"is_disabled":true,"rental_uris":{"android":"levelo://app?vid=5d4915e0-4a9f-4c36-821a-8bde58abc3cd","ios":"levelo://app?vid=5d4915e0-4a9f-4c36-821a-8bde58abc3cd"},"vehicle_type_id":"4","last_reported":1738141786,"current_range_meters":10800,"station_id":"ce4bhlh2rcd13ifvqgig","pricing_plan_id":"cebpf4jnsgd1na2vs0mg"},{"bike_id":"b6ffbcad-9371-46a8-899d-8ed92473acd5","system_id":"levelo_inurba_marseille","lat":43.32473,"lon":5.36602,"is_reserved":false,"is_disabled":false,"rental_uris":{"android":"levelo://app?vid=b6ffbcad-9371-46a8-899d-8ed92473acd5","ios":"levelo://app?vid=b6ffbcad-9371-46a8-899d-8ed92473acd5"},"vehicle_type_id":"4","last_reported":1738141786,"current_range_meters":24000,"station_id":"ce4bhs12rcd13ifvqhvg","pricing_plan_id":"cebpf4jnsgd1na2vs0mg"},{"bike_id":"75f78423-7bb1-46bc-9291-8f61438106b2","system_id":"levelo_inurba_marseille","lat":43.33026,"lon":5.3904,"is_reserved":false,"is_disabled":false,"rental_uris":{"android":"levelo://app?vid=75f78423-7bb1-46bc-9291-8f61438106b2","ios":"levelo://app?vid=75f78423-7bb1-46bc-9291-8f61438106b2"},"vehicle_type_id":"4","last_reported":1738141786,"current_range_meters":26800,"station_id":"ce4bhr92rcd13ifvqhrg","pricing_plan_id":"cebpf4jnsgd1na2vs0mg"},{"bike_id":"148d85a2-d701-448b-9576-351bed3ebe96","system_id":"levelo_inurba_marseille","lat":43.25936,"lon":5.40897,"is_reserved":false,"is_disabled":false,"rental_uris":{"android":"levelo://app?vid=148d85a2-d701-448b-9576-351bed3ebe96","ios":"levelo://app?vid=148d85a2-d701-448b-9576-351bed3ebe96"},"vehicle_type_id":"4","last_reported":1738141786,"current_range_meters":32000,"station_id":"ce4bhm92rcd13ifvqglg","pricing_plan_id":"cebpf4jnsgd1na2vs0mg"},{"bike_id":"896cd925-72cf-4706-97b0-d25c4ad56ffa","system_id":"levelo_inurba_marseille","lat":43.30904,"lon":5.36846,"is_reserved":false,"is_disabled":false,"rental_uris":{"android":"levelo://app?vid=896cd925-72cf-4706-97b0-d25c4ad56ffa","ios":"levelo://app?vid=896cd925-72cf-4706-97b0-d25c4ad56ffa"},"vehicle_type_id":"4","last_reported":1738141786,"current_range_meters":38000,"station_id":"ce4bgn92rcd13ifvqbvg","pricing_plan_id":"cebpf4jnsgd1na2vs0mg"},{"bike_id":"8906b01c-c546-42d8-8a71-d3e4c23c32f6","system_id":"levelo_inurba_marseille","lat":43.24379,"lon":5.37075,"is_reserved":false,"is_disabled":false,"rental_uris":{"android":"levelo://app?vid=8906b01c-c546-42d8-8a71-d3e4c23c32f6","ios":"levelo://app?vid=8906b01c-c546-42d8-8a71-d3e4c23c32f6"},"vehicle_type_id":"4","last_reported":1738141786,"current_range_meters":38800,"station_id":"ce4bhhh2rcd13ifvqfk0","pricing_plan_id":"cebpf4jnsgd1na2vs0mg"},{"bike_id":"09cfce2d-3169-4c50-8d94-7e4d1e8e2062","system_id":"levelo_inurba_marseille","lat":43.28939,"lon":5.39635,"is_reserved":false,"is_disabled":false,"rental_uris":{"android":"levelo://app?vid=09cfce2d-3169-4c50-8d94-7e4d1e8e2062","ios":"levelo://app?vid=09cfce2d-3169-4c50-8d94-7e4d1e8e2062"},"vehicle_type_id":"4","last_reported":1738141786,"current_range_meters":18000,"station_id":"ce4bh3h2rcd13ifvqdn0","pricing_plan_id":"cebpf4jnsgd1na2vs0mg"},{"bike_id":"f3e70ecb-1e57-42cd-a919-c3fffcbacfc7","system_id":"levelo_inurba_marseille","lat":43.28983,"lon":5.37854,"is_reserved":false,"is_disabled":false,"rental_uris":{"android":"levelo://app?vid=f3e70ecb-1e57-42cd-a919-c3fffcbacfc7","ios":"levelo://app?vid=f3e70ecb-1e57-42cd-a919-c3fffcbacfc7"},"vehicle_type_id":"4","last_reported":1738141786,"current_range_meters":38800,"station_id":"ce4bh9p2rcd13ifvqed0","pricing_plan_id":"cebpf4jnsgd1na2vs0mg"},{"bike_id":"d6af585f-c468-474f-9bf8-9417f47a5f4b","system_id":"levelo_inurba_marseille","lat":43.31338,"lon":5.36741,"is_reserved":false,"is_disabled":false,"rental_uris":{"android":"levelo://app?vid=d6af585f-c468-474f-9bf8-9417f47a5f4b","ios":"levelo://app?vid=d6af585f-c468-474f-9bf8-9417f47a5f4b"},"vehicle_type_id":"4","last_reported":1738141786,"current_range_meters":38400,"station_id":"ce4bgr92rcd13ifvqc6g","pricing_plan_id":"cebpf4jnsgd1na2vs0mg"},{"bike_id":"ce4ce052-86c8-446e-8eb4-59cc9a697e38","system_id":"levelo_inurba_marseille","lat":43.31341,"lon":5.36704,"is_reserved":false,"is_disabled":false,"rental_uris":{"android":"levelo://app?vid=ce4ce052-86c8-446e-8eb4-59cc9a697e38","ios":"levelo://app?vid=ce4ce052-86c8-446e-8eb4-59cc9a697e38"},"vehicle_type_id":"4","last_reported":1738141786,"current_range_meters":26000,"station_id":"ce4bgr92rcd13ifvqc6g","pricing_plan_id":"cebpf4jnsgd1na2vs0mg"},{"bike_id":"3c6336fe-eb72-435e-95d3-a1bde11ea3e3","system_id":"levelo_inurba_marseille","lat":43.30388,"lon":5.41896,"is_reserved":false,"is_disabled":true,"rental_uris":{"android":"levelo://app?vid=3c6336fe-eb72-435e-95d3-a1bde11ea3e3","ios":"levelo://app?vid=3c6336fe-eb72-435e-95d3-a1bde11ea3e3"},"vehicle_type_id":"4","last_reported":1738141786,"current_range_meters":0,"station_id":"ce4bhop2rcd13ifvqh7g","pricing_plan_id":"cebpf4jnsgd1na2vs0mg"},{"bike_id":"cdaf732f-9180-4276-893c-6a3e1c36505d","system_id":"levelo_inurba_marseille","lat":43.30529,"lon":5.36539,"is_reserved":false,"is_disabled":false,"rental_uris":{"android":"levelo://app?vid=cdaf732f-9180-4276-893c-6a3e1c36505d","ios":"levelo://app?vid=cdaf732f-9180-4276-893c-6a3e1c36505d"},"vehicle_type_id":"4","last_reported":1738141786,"current_range_meters":38800,"station_id":"ce4bgs12rcd13ifvqcag","pricing_plan_id":"cebpf4jnsgd1na2vs0mg"},{"bike_id":"efed7597-62fb-419f-8ed4-4975314f708d","system_id":"levelo_inurba_marseille","lat":43.31893,"lon":5.40747,"is_reserved":false,"is_disabled":false,"rental_uris":{"android":"levelo://app?vid=efed7597-62fb-419f-8ed4-4975314f708d","ios":"levelo://app?vid=efed7597-62fb-419f-8ed4-4975314f708d"},"vehicle_type_id":"4","last_reported":1738141786,"current_range_meters":37600,"station_id":"ce4bhq12rcd13ifvqhig","pricing_plan_id":"cebpf4jnsgd1na2vs0mg"},{"bike_id":"1d3d6cfb-1973-4ef0-b19e-3b4fa3b6b11c","system_id":"levelo_inurba_marseille","lat":43.23951,"lon":5.36647,"is_reserved":false,"is_disabled":false,"rental_uris":{"android":"levelo://app?vid=1d3d6cfb-1973-4ef0-b19e-3b4fa3b6b11c","ios":"levelo://app?vid=1d3d6cfb-1973-4ef0-b19e-3b4fa3b6b11c"},"vehicle_type_id":"4","last_reported":1738141786,"current_range_meters":7200,"station_id":"ce4bhi12rcd13ifvqfp0","pricing_plan_id":"cebpf4jnsgd1na2vs0mg"},{"bike_id":"ea28d915-aa85-43de-939e-07c581db3611","system_id":"levelo_inurba_marseille","lat":43.27067,"lon":5.42284,"is_reserved":false,"is_disabled":false,"rental_uris":{"android":"levelo://app?vid=ea28d915-aa85-43de-939e-07c581db3611","ios":"levelo://app?vid=ea28d915-aa85-43de-939e-07c581db3611"},"vehicle_type_id":"4","last_reported":1738141786,"current_range_meters":36800,"station_id":"ce4bhk92rcd13ifvqgb0","pricing_plan_id":"cebpf4jnsgd1na2vs0mg"},{"bike_id":"0ffd64a2-a304-418a-8f80-9559a19bd293","system_id":"levelo_inurba_marseille","lat":43.27209,"lon":5.39189,"is_reserved":false,"is_disabled":false,"rental_uris":{"android":"levelo://app?vid=0ffd64a2-a304-418a-8f80-9559a19bd293","ios":"levelo://app?vid=0ffd64a2-a304-418a-8f80-9559a19bd293"},"vehicle_type_id":"4","last_reported":1738141786,"current_range_meters":24000,"station_id":"ce4bhhp2rcd13ifvqfm0","pricing_plan_id":"cebpf4jnsgd1na2vs0mg"},{"bike_id":"1e2debfe-2eb7-4e90-a13c-558254702e80","system_id":"levelo_inurba_marseille","lat":43.26563,"lon":5.37288,"is_reserved":false,"is_disabled":false,"rental_uris":{"android":"levelo://app?vid=1e2debfe-2eb7-4e90-a13c-558254702e80","ios":"levelo://app?vid=1e2debfe-2eb7-4e90-a13c-558254702e80"},"vehicle_type_id":"4","last_reported":1738141786,"current_range_meters":32800,"station_id":"ce4bhg12rcd13ifvqf70","pricing_plan_id":"cebpf4jnsgd1na2vs0mg"},{"bike_id":"17ce0d9c-21b4-475e-bc10-60f978ae3a74","system_id":"levelo_inurba_marseille","lat":43.27495,"lon":5.42455,"is_reserved":false,"is_disabled":false,"rental_uris":{"android":"levelo://app?vid=17ce0d9c-21b4-475e-bc10-60f978ae3a74","ios":"levelo://app?vid=17ce0d9c-21b4-475e-bc10-60f978ae3a74"},"vehicle_type_id":"4","last_reported":1738141786,"current_range_meters":36400,"station_id":"ce4bhn92rcd13ifvqgrg","pricing_plan_id":"cebpf4jnsgd1na2vs0mg"},{"bike_id":"2726ab7d-4283-49db-be89-c5e6b97f39e0","system_id":"levelo_inurba_marseille","lat":43.29711,"lon":5.37685,"is_reserved":false,"is_disabled":false,"rental_uris":{"android":"levelo://app?vid=2726ab7d-4283-49db-be89-c5e6b97f39e0","ios":"levelo://app?vid=2726ab7d-4283-49db-be89-c5e6b97f39e0"},"vehicle_type_id":"4","last_reported":1738141786,"current_range_meters":32000,"station_id":"ce4bgkh2rcd13ifvqbl0","pricing_plan_id":"cebpf4jnsgd1na2vs0mg"},{"bike_id":"e835236d-8c05-4699-a23f-d68da3e42016","system_id":"levelo_inurba_marseille","lat":43.25559,"lon":5.38239,"is_reserved":false,"is_disabled":false,"rental_uris":{"android":"levelo://app?vid=e835236d-8c05-4699-a23f-d68da3e42016","ios":"levelo://app?vid=e835236d-8c05-4699-a23f-d68da3e42016"},"vehicle_type_id":"4","last_reported":1738141786,"current_range_meters":29600,"station_id":"ce4bhih2rcd13ifvqfs0","pricing_plan_id":"cebpf4jnsgd1na2vs0mg"},{"bike_id":"c8a3a0ed-dff2-4f3c-87dc-2e6b47b1ad28","system_id":"levelo_inurba_marseille","lat":43.337444,"lon":5.374475,"is_reserved":false,"is_disabled":true,"rental_uris":{"android":"levelo://app?vid=c8a3a0ed-dff2-4f3c-87dc-2e6b47b1ad28","ios":"levelo://app?vid=c8a3a0ed-dff2-4f3c-87dc-2e6b47b1ad28"},"vehicle_type_id":"4","last_reported":1738141786,"current_range_meters":1600,"station_id":"","pricing_plan_id":"cebpf4jnsgd1na2vs0mg"},{"bike_id":"061a807c-1db8-46c7-beec-da6308b151ea","system_id":"levelo_inurba_marseille","lat":43.29583,"lon":5.38095,"is_reserved":false,"is_disabled":true,"rental_uris":{"android":"levelo://app?vid=061a807c-1db8-46c7-beec-da6308b151ea","ios":"levelo://app?vid=061a807c-1db8-46c7-beec-da6308b151ea"},"vehicle_type_id":"4","last_reported":1738141786,"current_range_meters":28800,"station_id":"ce4bgl12rcd13ifvqbo0","pricing_plan_id":"cebpf4jnsgd1na2vs0mg"},{"bike_id":"d323c514-0964-4830-ab1c-7976c00b8559","system_id":"levelo_inurba_marseille","lat":43.23156,"lon":5.43738,"is_reserved":false,"is_disabled":false,"rental_uris":{"android":"levelo://app?vid=d323c514-0964-4830-ab1c-7976c00b8559","ios":"levelo://app?vid=d323c514-0964-4830-ab1c-7976c00b8559"},"vehicle_type_id":"4","last_reported":1738141786,"current_range_meters":38800,"station_id":"ce4bhmp2rcd13ifvqgog","pricing_plan_id":"cebpf4jnsgd1na2vs0mg"},{"bike_id":"d6ac53c8-af07-463b-8abd-5cea81dd7c64","system_id":"levelo_inurba_marseille","lat":43.27935,"lon":5.41052,"is_reserved":false,"is_disabled":false,"rental_uris":{"android":"levelo://app?vid=d6ac53c8-af07-463b-8abd-5cea81dd7c64","ios":"levelo://app?vid=d6ac53c8-af07-463b-8abd-5cea81dd7c64"},"vehicle_type_id":"4","last_reported":1738141786,"current_range_meters":30000,"station_id":"ce4bhnp2rcd13ifvqh0g","pricing_plan_id":"cebpf4jnsgd1na2vs0mg"},{"bike_id":"e708a6c7-7a9d-4297-99fa-8ff59eaff6b4","system_id":"levelo_inurba_marseille","lat":43.33043,"lon":5.39035,"is_reserved":false,"is_disabled":false,"rental_uris":{"android":"levelo://app?vid=e708a6c7-7a9d-4297-99fa-8ff59eaff6b4","ios":"levelo://app?vid=e708a6c7-7a9d-4297-99fa-8ff59eaff6b4"},"vehicle_type_id":"4","last_reported":1738141786,"current_range_meters":20800,"station_id":"ce4bhr92rcd13ifvqhrg","pricing_plan_id":"cebpf4jnsgd1na2vs0mg"},{"bike_id":"aad06d88-b0e8-46f2-bae1-fd514dd621a4","system_id":"levelo_inurba_marseille","lat":43.24072,"lon":5.37752,"is_reserved":false,"is_disabled":false,"rental_uris":{"android":"levelo://app?vid=aad06d88-b0e8-46f2-bae1-fd514dd621a4","ios":"levelo://app?vid=aad06d88-b0e8-46f2-bae1-fd514dd621a4"},"vehicle_type_id":"4","last_reported":1738141786,"current_range_meters":29600,"station_id":"","pricing_plan_id":"cebpf4jnsgd1na2vs0mg"},{"bike_id":"e055110e-8e50-4402-9b32-8745c1542d21","system_id":"levelo_inurba_marseille","lat":43.23961,"lon":5.36632,"is_reserved":false,"is_disabled":false,"rental_uris":{"android":"levelo://app?vid=e055110e-8e50-4402-9b32-8745c1542d21","ios":"levelo://app?vid=e055110e-8e50-4402-9b32-8745c1542d21"},"vehicle_type_id":"4","last_reported":1738141786,"current_range_meters":38000,"station_id":"ce4bhi12rcd13ifvqfp0","pricing_plan_id":"cebpf4jnsgd1na2vs0mg"},{"bike_id":"4af47e37-e152-4ab1-a20e-15b113150682","system_id":"levelo_inurba_marseille","lat":43.30542,"lon":5.36706,"is_reserved":false,"is_disabled":false,"rental_uris":{"android":"levelo://app?vid=4af47e37-e152-4ab1-a20e-15b113150682","ios":"levelo://app?vid=4af47e37-e152-4ab1-a20e-15b113150682"},"vehicle_type_id":"4","last_reported":1738141786,"current_range_meters":39200,"station_id":"ce4bgrp2rcd13ifvqc9g","pricing_plan_id":"cebpf4jnsgd1na2vs0mg"},{"bike_id":"18cebd9a-6e7e-4db1-8404-7b1a1d6b3eaa","system_id":"levelo_inurba_marseille","lat":43.29313,"lon":5.37182,"is_reserved":false,"is_disabled":false,"rental_uris":{"android":"levelo://app?vid=18cebd9a-6e7e-4db1-8404-7b1a1d6b3eaa","ios":"levelo://app?vid=18cebd9a-6e7e-4db1-8404-7b1a1d6b3eaa"},"vehicle_type_id":"4","last_reported":1738141786,"current_range_meters":28400,"station_id":"ce4bgh92rcd13ifvqb40","pricing_plan_id":"cebpf4jnsgd1na2vs0mg"},{"bike_id":"b55d6d5e-174b-4a91-aae1-fb6de283d1df","system_id":"levelo_inurba_marseille","lat":43.325366,"lon":5.414267,"is_reserved":false,"is_disabled":false,"rental_uris":{"android":"levelo://app?vid=b55d6d5e-174b-4a91-aae1-fb6de283d1df","ios":"levelo://app?vid=b55d6d5e-174b-4a91-aae1-fb6de283d1df"},"vehicle_type_id":"4","last_reported":1738141786,"current_range_meters":39200,"station_id":"ce4bhq12rcd13ifvqhhg","pricing_plan_id":"cebpf4jnsgd1na2vs0mg"},{"bike_id":"a99754b0-533c-4b68-ad89-42118685fbc7","system_id":"levelo_inurba_marseille","lat":43.28011,"lon":5.41668,"is_reserved":false,"is_disabled":true,"rental_uris":{"android":"levelo://app?vid=a99754b0-533c-4b68-ad89-42118685fbc7","ios":"levelo://app?vid=a99754b0-533c-4b68-ad89-42118685fbc7"},"vehicle_type_id":"4","last_reported":1738141786,"current_range_meters":0,"station_id":"ce4bho12rcd13ifvqh1g","pricing_plan_id":"cebpf4jnsgd1na2vs0mg"},{"bike_id":"ef6456ab-a20a-4498-b8b0-de627bc5d3cd","system_id":"levelo_inurba_marseille","lat":43.29304,"lon":5.37179,"is_reserved":false,"is_disabled":false,"rental_uris":{"android":"levelo://app?vid=ef6456ab-a20a-4498-b8b0-de627bc5d3cd","ios":"levelo://app?vid=ef6456ab-a20a-4498-b8b0-de627bc5d3cd"},"vehicle_type_id":"4","last_reported":1738141786,"current_range_meters":30000,"station_id":"ce4bgh92rcd13ifvqb40","pricing_plan_id":"cebpf4jnsgd1na2vs0mg"},{"bike_id":"5b3233ab-dded-42d1-a805-3278eb23fcd8","system_id":"levelo_inurba_marseille","lat":43.30187,"lon":5.36602,"is_reserved":false,"is_disabled":true,"rental_uris":{"android":"levelo://app?vid=5b3233ab-dded-42d1-a805-3278eb23fcd8","ios":"levelo://app?vid=5b3233ab-dded-42d1-a805-3278eb23fcd8"},"vehicle_type_id":"4","last_reported":1738141786,"current_range_meters":36800,"station_id":"ce4bgrh2rcd13ifvqc8g","pricing_plan_id":"cebpf4jnsgd1na2vs0mg"},{"bike_id":"a217eca2-76bf-464c-aef5-0f63397f1780","system_id":"levelo_inurba_marseille","lat":43.29894,"lon":5.43675,"is_reserved":false,"is_disabled":false,"rental_uris":{"android":"levelo://app?vid=a217eca2-76bf-464c-aef5-0f63397f1780","ios":"levelo://app?vid=a217eca2-76bf-464c-aef5-0f63397f1780"},"vehicle_type_id":"4","last_reported":1738141786,"current_range_meters":16000,"station_id":"ce4bhpp2rcd13ifvqhfg","pricing_plan_id":"cebpf4jnsgd1na2vs0mg"},{"bike_id":"6087eac1-5596-4bac-81f3-6e4270a420d5","system_id":"levelo_inurba_marseille","lat":43.29778,"lon":5.37289,"is_reserved":false,"is_disabled":false,"rental_uris":{"android":"levelo://app?vid=6087eac1-5596-4bac-81f3-6e4270a420d5","ios":"levelo://app?vid=6087eac1-5596-4bac-81f3-6e4270a420d5"},"vehicle_type_id":"4","last_reported":1738141786,"current_range_meters":6000,"station_id":"","pricing_plan_id":"cebpf4jnsgd1na2vs0mg"},{"bike_id":"9838cc78-2b53-49d3-ae13-82df62c4fd64","system_id":"levelo_inurba_marseille","lat":43.28412,"lon":5.40934,"is_reserved":false,"is_disabled":true,"rental_uris":{"android":"levelo://app?vid=9838cc78-2b53-49d3-ae13-82df62c4fd64","ios":"levelo://app?vid=9838cc78-2b53-49d3-ae13-82df62c4fd64"},"vehicle_type_id":"4","last_reported":1738141786,"current_range_meters":0,"station_id":"","pricing_plan_id":"cebpf4jnsgd1na2vs0mg"},{"bike_id":"36b1b887-95ca-4f5b-9bce-ab9a935af47a","system_id":"levelo_inurba_marseille","lat":43.23149,"lon":5.43714,"is_reserved":false,"is_disabled":false,"rental_uris":{"android":"levelo://app?vid=36b1b887-95ca-4f5b-9bce-ab9a935af47a","ios":"levelo://app?vid=36b1b887-95ca-4f5b-9bce-ab9a935af47a"},"vehicle_type_id":"4","last_reported":1738141786,"current_range_meters":19600,"station_id":"ce4bhmp2rcd13ifvqgog","pricing_plan_id":"cebpf4jnsgd1na2vs0mg"},{"bike_id":"c06e2d34-5665-416e-8204-5a977ba1d030","system_id":"levelo_inurba_marseille","lat":43.32631,"lon":5.41358,"is_reserved":false,"is_disabled":false,"rental_uris":{"android":"levelo://app?vid=c06e2d34-5665-416e-8204-5a977ba1d030","ios":"levelo://app?vid=c06e2d34-5665-416e-8204-5a977ba1d030"},"vehicle_type_id":"4","last_reported":1738141786,"current_range_meters":3200,"station_id":"","pricing_plan_id":"cebpf4jnsgd1na2vs0mg"},{"bike_id":"44d70056-f722-4d8f-80f9-afd89c389591","system_id":"levelo_inurba_marseille","lat":43.330198,"lon":5.390433,"is_reserved":false,"is_disabled":false,"rental_uris":{"android":"levelo://app?vid=44d70056-f722-4d8f-80f9-afd89c389591","ios":"levelo://app?vid=44d70056-f722-4d8f-80f9-afd89c389591"},"vehicle_type_id":"4","last_reported":1738141786,"current_range_meters":17200,"station_id":"ce4bhr92rcd13ifvqhrg","pricing_plan_id":"cebpf4jnsgd1na2vs0mg"},{"bike_id":"cb4b9878-96ef-4892-8d93-336dc7a1cc89","system_id":"levelo_inurba_marseille","lat":43.34034,"lon":5.35384,"is_reserved":false,"is_disabled":false,"rental_uris":{"android":"levelo://app?vid=cb4b9878-96ef-4892-8d93-336dc7a1cc89","ios":"levelo://app?vid=cb4b9878-96ef-4892-8d93-336dc7a1cc89"},"vehicle_type_id":"4","last_reported":1738141786,"current_range_meters":32400,"station_id":"","pricing_plan_id":"cebpf4jnsgd1na2vs0mg"},{"bike_id":"8ec13af6-5026-4ebc-b641-8436ed8dde5c","system_id":"levelo_inurba_marseille","lat":43.25931,"lon":5.40909,"is_reserved":false,"is_disabled":false,"rental_uris":{"android":"levelo://app?vid=8ec13af6-5026-4ebc-b641-8436ed8dde5c","ios":"levelo://app?vid=8ec13af6-5026-4ebc-b641-8436ed8dde5c"},"vehicle_type_id":"4","last_reported":1738141786,"current_range_meters":16000,"station_id":"ce4bhm92rcd13ifvqglg","pricing_plan_id":"cebpf4jnsgd1na2vs0mg"},{"bike_id":"cebc1cc3-2475-48cb-aa41-05d47858d44e","system_id":"levelo_inurba_marseille","lat":43.2989,"lon":5.43665,"is_reserved":false,"is_disabled":false,"rental_uris":{"android":"levelo://app?vid=cebc1cc3-2475-48cb-aa41-05d47858d44e","ios":"levelo://app?vid=cebc1cc3-2475-48cb-aa41-05d47858d44e"},"vehicle_type_id":"4","last_reported":1738141786,"current_range_meters":27600,"station_id":"ce4bhpp2rcd13ifvqhfg","pricing_plan_id":"cebpf4jnsgd1na2vs0mg"},{"bike_id":"e80cdd67-73a4-4d6f-9d11-3e3617a2c1c2","system_id":"levelo_inurba_marseille","lat":43.30438,"lon":5.37932,"is_reserved":false,"is_disabled":false,"rental_uris":{"android":"levelo://app?vid=e80cdd67-73a4-4d6f-9d11-3e3617a2c1c2","ios":"levelo://app?vid=e80cdd67-73a4-4d6f-9d11-3e3617a2c1c2"},"vehicle_type_id":"4","last_reported":1738141786,"current_range_meters":17200,"station_id":"ce4bgup2rcd13ifvqcn0","pricing_plan_id":"cebpf4jnsgd1na2vs0mg"},{"bike_id":"694a17d9-0ad0-4d49-94dd-ce534034c9c7","system_id":"levelo_inurba_marseille","lat":43.31486,"lon":5.37305,"is_reserved":false,"is_disabled":false,"rental_uris":{"android":"levelo://app?vid=694a17d9-0ad0-4d49-94dd-ce534034c9c7","ios":"levelo://app?vid=694a17d9-0ad0-4d49-94dd-ce534034c9c7"},"vehicle_type_id":"4","last_reported":1738141786,"current_range_meters":14800,"station_id":"ce4bgt12rcd13ifvqcd0","pricing_plan_id":"cebpf4jnsgd1na2vs0mg"},{"bike_id":"d09fbc8b-1664-4bee-b0d4-ddf0f6322931","system_id":"levelo_inurba_marseille","lat":43.30548,"lon":5.36544,"is_reserved":false,"is_disabled":false,"rental_uris":{"android":"levelo://app?vid=d09fbc8b-1664-4bee-b0d4-ddf0f6322931","ios":"levelo://app?vid=d09fbc8b-1664-4bee-b0d4-ddf0f6322931"},"vehicle_type_id":"4","last_reported":1738141786,"current_range_meters":29600,"station_id":"ce4bgs12rcd13ifvqcag","pricing_plan_id":"cebpf4jnsgd1na2vs0mg"},{"bike_id":"5f4419c4-2604-4153-a71a-fae1b13a820c","system_id":"levelo_inurba_marseille","lat":43.273077,"lon":5.39101,"is_reserved":false,"is_disabled":true,"rental_uris":{"android":"levelo://app?vid=5f4419c4-2604-4153-a71a-fae1b13a820c","ios":"levelo://app?vid=5f4419c4-2604-4153-a71a-fae1b13a820c"},"vehicle_type_id":"4","last_reported":1738141786,"current_range_meters":1600,"station_id":"ce4bhgp2rcd13ifvqfe0","pricing_plan_id":"cebpf4jnsgd1na2vs0mg"},{"bike_id":"07556ea4-01ed-4d53-81d9-893d9b6d23fa","system_id":"levelo_inurba_marseille","lat":43.2315,"lon":5.43714,"is_reserved":false,"is_disabled":false,"rental_uris":{"android":"levelo://app?vid=07556ea4-01ed-4d53-81d9-893d9b6d23fa","ios":"levelo://app?vid=07556ea4-01ed-4d53-81d9-893d9b6d23fa"},"vehicle_type_id":"4","last_reported":1738141786,"current_range_meters":11200,"station_id":"ce4bhmp2rcd13ifvqgog","pricing_plan_id":"cebpf4jnsgd1na2vs0mg"},{"bike_id":"f27914d2-c6fd-46d1-af35-a519802c2452","system_id":"levelo_inurba_marseille","lat":43.2466,"lon":5.3816,"is_reserved":false,"is_disabled":false,"rental_uris":{"android":"levelo://app?vid=f27914d2-c6fd-46d1-af35-a519802c2452","ios":"levelo://app?vid=f27914d2-c6fd-46d1-af35-a519802c2452"},"vehicle_type_id":"4","last_reported":1738141786,"current_range_meters":38000,"station_id":"ce4bhih2rcd13ifvqfr0","pricing_plan_id":"cebpf4jnsgd1na2vs0mg"},{"bike_id":"6077467c-7074-4f45-87db-adb3cf561683","system_id":"levelo_inurba_marseille","lat":43.2943,"lon":5.38613,"is_reserved":false,"is_disabled":true,"rental_uris":{"android":"levelo://app?vid=6077467c-7074-4f45-87db-adb3cf561683","ios":"levelo://app?vid=6077467c-7074-4f45-87db-adb3cf561683"},"vehicle_type_id":"4","last_reported":1738141786,"current_range_meters":19200,"station_id":"ce4bh2h2rcd13ifvqdh0","pricing_plan_id":"cebpf4jnsgd1na2vs0mg"},{"bike_id":"2e0a8b86-b457-48a0-8577-213b01080398","system_id":"levelo_inurba_marseille","lat":43.23198,"lon":5.35563,"is_reserved":false,"is_disabled":false,"rental_uris":{"android":"levelo://app?vid=2e0a8b86-b457-48a0-8577-213b01080398","ios":"levelo://app?vid=2e0a8b86-b457-48a0-8577-213b01080398"},"vehicle_type_id":"4","last_reported":1738141786,"current_range_meters":39200,"station_id":"ce4bhu92rcd13ifvqi70","pricing_plan_id":"cebpf4jnsgd1na2vs0mg"},{"bike_id":"b3f1797d-01be-4a68-adfb-c13de74e21a5","system_id":"levelo_inurba_marseille","lat":43.29924,"lon":5.36541,"is_reserved":false,"is_disabled":false,"rental_uris":{"android":"levelo://app?vid=b3f1797d-01be-4a68-adfb-c13de74e21a5","ios":"levelo://app?vid=b3f1797d-01be-4a68-adfb-c13de74e21a5"},"vehicle_type_id":"4","last_reported":1738141786,"current_range_meters":28800,"station_id":"ce4bgm92rcd13ifvqbr0","pricing_plan_id":"cebpf4jnsgd1na2vs0mg"},{"bike_id":"76e822b8-0cb9-4b9d-afe9-f501d7c6369f","system_id":"levelo_inurba_marseille","lat":43.2733,"lon":5.39171,"is_reserved":false,"is_disabled":true,"rental_uris":{"android":"levelo://app?vid=76e822b8-0cb9-4b9d-afe9-f501d7c6369f","ios":"levelo://app?vid=76e822b8-0cb9-4b9d-afe9-f501d7c6369f"},"vehicle_type_id":"4","last_reported":1738141786,"current_range_meters":24000,"station_id":"","pricing_plan_id":"cebpf4jnsgd1na2vs0mg"},{"bike_id":"d979d8d2-ec65-47af-9229-e4270aab279a","system_id":"levelo_inurba_marseille","lat":43.23064,"lon":5.35485,"is_reserved":false,"is_disabled":false,"rental_uris":{"android":"levelo://app?vid=d979d8d2-ec65-47af-9229-e4270aab279a","ios":"levelo://app?vid=d979d8d2-ec65-47af-9229-e4270aab279a"},"vehicle_type_id":"4","last_reported":1738141786,"current_range_meters":19600,"station_id":"cpo3342slgdg3j2ifvpg","pricing_plan_id":"cebpf4jnsgd1na2vs0mg"},{"bike_id":"beec82ff-6bac-4064-befa-4bdf4421761b","system_id":"levelo_inurba_marseille","lat":43.31741,"lon":5.42394,"is_reserved":false,"is_disabled":false,"rental_uris":{"android":"levelo://app?vid=beec82ff-6bac-4064-befa-4bdf4421761b","ios":"levelo://app?vid=beec82ff-6bac-4064-befa-4bdf4421761b"},"vehicle_type_id":"4","last_reported":1738141786,"current_range_meters":36400,"station_id":"ce4bhp92rcd13ifvqhbg","pricing_plan_id":"cebpf4jnsgd1na2vs0mg"},{"bike_id":"be2dd1aa-606f-4d53-b515-925f744ba08e","system_id":"levelo_inurba_marseille","lat":43.24071,"lon":5.37754,"is_reserved":false,"is_disabled":false,"rental_uris":{"android":"levelo://app?vid=be2dd1aa-606f-4d53-b515-925f744ba08e","ios":"levelo://app?vid=be2dd1aa-606f-4d53-b515-925f744ba08e"},"vehicle_type_id":"4","last_reported":1738141786,"current_range_meters":24000,"station_id":"","pricing_plan_id":"cebpf4jnsgd1na2vs0mg"},{"bike_id":"64be77f4-07a5-4d4b-b2d0-0608076ab689","system_id":"levelo_inurba_marseille","lat":43.30275,"lon":5.37711,"is_reserved":false,"is_disabled":false,"rental_uris":{"android":"levelo://app?vid=64be77f4-07a5-4d4b-b2d0-0608076ab689","ios":"levelo://app?vid=64be77f4-07a5-4d4b-b2d0-0608076ab689"},"vehicle_type_id":"4","last_reported":1738141786,"current_range_meters":19200,"station_id":"ce4bguh2rcd13ifvqcj0","pricing_plan_id":"cebpf4jnsgd1na2vs0mg"},{"bike_id":"8400d4d1-f3a9-4908-b181-0eb6fc5d39c8","system_id":"levelo_inurba_marseille","lat":43.30552,"lon":5.36695,"is_reserved":false,"is_disabled":false,"rental_uris":{"android":"levelo://app?vid=8400d4d1-f3a9-4908-b181-0eb6fc5d39c8","ios":"levelo://app?vid=8400d4d1-f3a9-4908-b181-0eb6fc5d39c8"},"vehicle_type_id":"4","last_reported":1738141786,"current_range_meters":26800,"station_id":"ce4bgrp2rcd13ifvqc9g","pricing_plan_id":"cebpf4jnsgd1na2vs0mg"},{"bike_id":"c92f3ed1-1832-45b1-95ae-e066a3c304bb","system_id":"levelo_inurba_marseille","lat":43.33012,"lon":5.39056,"is_reserved":false,"is_disabled":false,"rental_uris":{"android":"levelo://app?vid=c92f3ed1-1832-45b1-95ae-e066a3c304bb","ios":"levelo://app?vid=c92f3ed1-1832-45b1-95ae-e066a3c304bb"},"vehicle_type_id":"4","last_reported":1738141786,"current_range_meters":36400,"station_id":"ce4bhr92rcd13ifvqhrg","pricing_plan_id":"cebpf4jnsgd1na2vs0mg"},{"bike_id":"1e86e161-8dbf-4321-92e1-b9beb9a2d46b","system_id":"levelo_inurba_marseille","lat":43.31352,"lon":5.3671,"is_reserved":false,"is_disabled":false,"rental_uris":{"android":"levelo://app?vid=1e86e161-8dbf-4321-92e1-b9beb9a2d46b","ios":"levelo://app?vid=1e86e161-8dbf-4321-92e1-b9beb9a2d46b"},"vehicle_type_id":"4","last_reported":1738141786,"current_range_meters":36400,"station_id":"ce4bgr92rcd13ifvqc6g","pricing_plan_id":"cebpf4jnsgd1na2vs0mg"},{"bike_id":"e159c371-532a-4365-b2d5-c1222e0189e5","system_id":"levelo_inurba_marseille","lat":43.29372,"lon":5.37849,"is_reserved":false,"is_disabled":false,"rental_uris":{"android":"levelo://app?vid=e159c371-532a-4365-b2d5-c1222e0189e5","ios":"levelo://app?vid=e159c371-532a-4365-b2d5-c1222e0189e5"},"vehicle_type_id":"4","last_reported":1738141786,"current_range_meters":10800,"station_id":"ce4bgjh2rcd13ifvqbf0","pricing_plan_id":"cebpf4jnsgd1na2vs0mg"},{"bike_id":"617b909a-ed46-4be2-b827-4cc0100e62ca","system_id":"levelo_inurba_marseille","lat":43.2955,"lon":5.42295,"is_reserved":false,"is_disabled":false,"rental_uris":{"android":"levelo://app?vid=617b909a-ed46-4be2-b827-4cc0100e62ca","ios":"levelo://app?vid=617b909a-ed46-4be2-b827-4cc0100e62ca"},"vehicle_type_id":"4","last_reported":1738141786,"current_range_meters":4400,"station_id":"ce4bhph2rcd13ifvqhdg","pricing_plan_id":"cebpf4jnsgd1na2vs0mg"},{"bike_id":"b16829f3-dc38-4a8c-9bf1-f26d827f5228","system_id":"levelo_inurba_marseille","lat":43.30278,"lon":5.37715,"is_reserved":false,"is_disabled":false,"rental_uris":{"android":"levelo://app?vid=b16829f3-dc38-4a8c-9bf1-f26d827f5228","ios":"levelo://app?vid=b16829f3-dc38-4a8c-9bf1-f26d827f5228"},"vehicle_type_id":"4","last_reported":1738141786,"current_range_meters":38400,"station_id":"ce4bguh2rcd13ifvqcj0","pricing_plan_id":"cebpf4jnsgd1na2vs0mg"},{"bike_id":"66e69199-96a9-4a16-9f1b-6109e5c14768","system_id":"levelo_inurba_marseille","lat":43.28731,"lon":5.37934,"is_reserved":false,"is_disabled":false,"rental_uris":{"android":"levelo://app?vid=66e69199-96a9-4a16-9f1b-6109e5c14768","ios":"levelo://app?vid=66e69199-96a9-4a16-9f1b-6109e5c14768"},"vehicle_type_id":"4","last_reported":1738141786,"current_range_meters":18000,"station_id":"ce4bh9p2rcd13ifvqec0","pricing_plan_id":"cebpf4jnsgd1na2vs0mg"},{"bike_id":"d8b1c3f9-ff6e-4179-8423-4ba0d2a2af0e","system_id":"levelo_inurba_marseille","lat":43.337253,"lon":5.391778,"is_reserved":false,"is_disabled":false,"rental_uris":{"android":"levelo://app?vid=d8b1c3f9-ff6e-4179-8423-4ba0d2a2af0e","ios":"levelo://app?vid=d8b1c3f9-ff6e-4179-8423-4ba0d2a2af0e"},"vehicle_type_id":"4","last_reported":1738141786,"current_range_meters":39200,"station_id":"ce4bhr92rcd13ifvqhsg","pricing_plan_id":"cebpf4jnsgd1na2vs0mg"},{"bike_id":"0520144e-bf2b-4b58-84b0-019fdf524ecd","system_id":"levelo_inurba_marseille","lat":43.25576,"lon":5.38228,"is_reserved":false,"is_disabled":false,"rental_uris":{"android":"levelo://app?vid=0520144e-bf2b-4b58-84b0-019fdf524ecd","ios":"levelo://app?vid=0520144e-bf2b-4b58-84b0-019fdf524ecd"},"vehicle_type_id":"4","last_reported":1738141786,"current_range_meters":24000,"station_id":"ce4bhih2rcd13ifvqfs0","pricing_plan_id":"cebpf4jnsgd1na2vs0mg"},{"bike_id":"ffa99bc8-be11-4af6-8115-5e881fa4d214","system_id":"levelo_inurba_marseille","lat":43.24674,"lon":5.38155,"is_reserved":false,"is_disabled":false,"rental_uris":{"android":"levelo://app?vid=ffa99bc8-be11-4af6-8115-5e881fa4d214","ios":"levelo://app?vid=ffa99bc8-be11-4af6-8115-5e881fa4d214"},"vehicle_type_id":"4","last_reported":1738141786,"current_range_meters":8800,"station_id":"ce4bhih2rcd13ifvqfr0","pricing_plan_id":"cebpf4jnsgd1na2vs0mg"},{"bike_id":"ddeeb021-3aa5-4692-ac65-d696b9db8d28","system_id":"levelo_inurba_marseille","lat":43.33023,"lon":5.39054,"is_reserved":false,"is_disabled":false,"rental_uris":{"android":"levelo://app?vid=ddeeb021-3aa5-4692-ac65-d696b9db8d28","ios":"levelo://app?vid=ddeeb021-3aa5-4692-ac65-d696b9db8d28"},"vehicle_type_id":"4","last_reported":1738141786,"current_range_meters":36800,"station_id":"ce4bhr92rcd13ifvqhrg","pricing_plan_id":"cebpf4jnsgd1na2vs0mg"},{"bike_id":"91394c05-5d2c-4802-8f5f-6f60929bbe7d","system_id":"levelo_inurba_marseille","lat":43.26768,"lon":5.39486,"is_reserved":false,"is_disabled":false,"rental_uris":{"android":"levelo://app?vid=91394c05-5d2c-4802-8f5f-6f60929bbe7d","ios":"levelo://app?vid=91394c05-5d2c-4802-8f5f-6f60929bbe7d"},"vehicle_type_id":"4","last_reported":1738141786,"current_range_meters":38000,"station_id":"ce4bhh12rcd13ifvqfg0","pricing_plan_id":"cebpf4jnsgd1na2vs0mg"},{"bike_id":"a30e66db-ca6e-4769-8c50-b29766a8c503","system_id":"levelo_inurba_marseille","lat":43.31343,"lon":5.3673,"is_reserved":false,"is_disabled":false,"rental_uris":{"android":"levelo://app?vid=a30e66db-ca6e-4769-8c50-b29766a8c503","ios":"levelo://app?vid=a30e66db-ca6e-4769-8c50-b29766a8c503"},"vehicle_type_id":"4","last_reported":1738141786,"current_range_meters":25200,"station_id":"ce4bgr92rcd13ifvqc6g","pricing_plan_id":"cebpf4jnsgd1na2vs0mg"},{"bike_id":"ff93a380-1955-4dc0-87c7-a483fc66ba37","system_id":"levelo_inurba_marseille","lat":43.29624,"lon":5.37718,"is_reserved":false,"is_disabled":false,"rental_uris":{"android":"levelo://app?vid=ff93a380-1955-4dc0-87c7-a483fc66ba37","ios":"levelo://app?vid=ff93a380-1955-4dc0-87c7-a483fc66ba37"},"vehicle_type_id":"4","last_reported":1738141786,"current_range_meters":12800,"station_id":"ce4bgi92rcd13ifvqb90","pricing_plan_id":"cebpf4jnsgd1na2vs0mg"},{"bike_id":"f4dd74a9-a4e1-4171-8564-2f3d5f39ace6","system_id":"levelo_inurba_marseille","lat":43.2781,"lon":5.40714,"is_reserved":false,"is_disabled":false,"rental_uris":{"android":"levelo://app?vid=f4dd74a9-a4e1-4171-8564-2f3d5f39ace6","ios":"levelo://app?vid=f4dd74a9-a4e1-4171-8564-2f3d5f39ace6"},"vehicle_type_id":"4","last_reported":1738141786,"current_range_meters":28000,"station_id":"ce4bhnh2rcd13ifvqgtg","pricing_plan_id":"cebpf4jnsgd1na2vs0mg"},{"bike_id":"222bee95-cf24-41bb-973f-e90eb444e827","system_id":"levelo_inurba_marseille","lat":43.27815,"lon":5.40736,"is_reserved":false,"is_disabled":false,"rental_uris":{"android":"levelo://app?vid=222bee95-cf24-41bb-973f-e90eb444e827","ios":"levelo://app?vid=222bee95-cf24-41bb-973f-e90eb444e827"},"vehicle_type_id":"4","last_reported":1738141786,"current_range_meters":37600,"station_id":"ce4bhnh2rcd13ifvqgtg","pricing_plan_id":"cebpf4jnsgd1na2vs0mg"},{"bike_id":"3c9c9088-9c27-4609-bc62-8218c0dc2be8","system_id":"levelo_inurba_marseille","lat":43.23191,"lon":5.35582,"is_reserved":false,"is_disabled":false,"rental_uris":{"android":"levelo://app?vid=3c9c9088-9c27-4609-bc62-8218c0dc2be8","ios":"levelo://app?vid=3c9c9088-9c27-4609-bc62-8218c0dc2be8"},"vehicle_type_id":"4","last_reported":1738141786,"current_range_meters":29600,"station_id":"ce4bhu92rcd13ifvqi70","pricing_plan_id":"cebpf4jnsgd1na2vs0mg"},{"bike_id":"cd0f46c4-e05f-4a8b-8cac-6491de2ffe72","system_id":"levelo_inurba_marseille","lat":43.26936,"lon":5.38918,"is_reserved":false,"is_disabled":false,"rental_uris":{"android":"levelo://app?vid=cd0f46c4-e05f-4a8b-8cac-6491de2ffe72","ios":"levelo://app?vid=cd0f46c4-e05f-4a8b-8cac-6491de2ffe72"},"vehicle_type_id":"4","last_reported":1738141786,"current_range_meters":36000,"station_id":"ce4bhhh2rcd13ifvqfl0","pricing_plan_id":"cebpf4jnsgd1na2vs0mg"},{"bike_id":"4411ff6a-64c2-4799-a3f2-7b1c9e2faadd","system_id":"levelo_inurba_marseille","lat":43.27914,"lon":5.39598,"is_reserved":false,"is_disabled":true,"rental_uris":{"android":"levelo://app?vid=4411ff6a-64c2-4799-a3f2-7b1c9e2faadd","ios":"levelo://app?vid=4411ff6a-64c2-4799-a3f2-7b1c9e2faadd"},"vehicle_type_id":"4","last_reported":1738141786,"current_range_meters":1600,"station_id":"ce4bhf92rcd13ifvqf40","pricing_plan_id":"cebpf4jnsgd1na2vs0mg"},{"bike_id":"15af56a0-50cc-4287-938a-57061c15f0c6","system_id":"levelo_inurba_marseille","lat":43.33006,"lon":5.39061,"is_reserved":false,"is_disabled":false,"rental_uris":{"android":"levelo://app?vid=15af56a0-50cc-4287-938a-57061c15f0c6","ios":"levelo://app?vid=15af56a0-50cc-4287-938a-57061c15f0c6"},"vehicle_type_id":"4","last_reported":1738141786,"current_range_meters":32000,"station_id":"ce4bhr92rcd13ifvqhrg","pricing_plan_id":"cebpf4jnsgd1na2vs0mg"},{"bike_id":"0a1aa439-2592-48d7-9ac2-a7a7a7965e0e","system_id":"levelo_inurba_marseille","lat":43.29902,"lon":5.38154,"is_reserved":false,"is_disabled":false,"rental_uris":{"android":"levelo://app?vid=0a1aa439-2592-48d7-9ac2-a7a7a7965e0e","ios":"levelo://app?vid=0a1aa439-2592-48d7-9ac2-a7a7a7965e0e"},"vehicle_type_id":"4","last_reported":1738141786,"current_range_meters":36400,"station_id":"ce4bgj12rcd13ifvqbc0","pricing_plan_id":"cebpf4jnsgd1na2vs0mg"},{"bike_id":"a847ab9e-553b-47fa-9589-9ee8c06523da","system_id":"levelo_inurba_marseille","lat":43.28354,"lon":5.38101,"is_reserved":false,"is_disabled":false,"rental_uris":{"android":"levelo://app?vid=a847ab9e-553b-47fa-9589-9ee8c06523da","ios":"levelo://app?vid=a847ab9e-553b-47fa-9589-9ee8c06523da"},"vehicle_type_id":"4","last_reported":1738141786,"current_range_meters":17200,"station_id":"ce4bh412rcd13ifvqdr0","pricing_plan_id":"cebpf4jnsgd1na2vs0mg"},{"bike_id":"7427c665-2cc8-4882-8959-647a0d86024a","system_id":"levelo_inurba_marseille","lat":43.303618,"lon":5.418756,"is_reserved":false,"is_disabled":false,"rental_uris":{"android":"levelo://app?vid=7427c665-2cc8-4882-8959-647a0d86024a","ios":"levelo://app?vid=7427c665-2cc8-4882-8959-647a0d86024a"},"vehicle_type_id":"4","last_reported":1738141786,"current_range_meters":38800,"station_id":"ce4bhop2rcd13ifvqh7g","pricing_plan_id":"cebpf4jnsgd1na2vs0mg"},{"bike_id":"7156cab0-668f-4557-a92c-f351fb294cd4","system_id":"levelo_inurba_marseille","lat":43.24392,"lon":5.370507,"is_reserved":false,"is_disabled":false,"rental_uris":{"android":"levelo://app?vid=7156cab0-668f-4557-a92c-f351fb294cd4","ios":"levelo://app?vid=7156cab0-668f-4557-a92c-f351fb294cd4"},"vehicle_type_id":"4","last_reported":1738141786,"current_range_meters":38800,"station_id":"ce4bhhh2rcd13ifvqfk0","pricing_plan_id":"cebpf4jnsgd1na2vs0mg"},{"bike_id":"53d46465-1c69-4274-9bb5-d6a4feb5e603","system_id":"levelo_inurba_marseille","lat":43.31345,"lon":5.367316,"is_reserved":false,"is_disabled":false,"rental_uris":{"android":"levelo://app?vid=53d46465-1c69-4274-9bb5-d6a4feb5e603","ios":"levelo://app?vid=53d46465-1c69-4274-9bb5-d6a4feb5e603"},"vehicle_type_id":"4","last_reported":1738141786,"current_range_meters":38800,"station_id":"ce4bgr92rcd13ifvqc6g","pricing_plan_id":"cebpf4jnsgd1na2vs0mg"},{"bike_id":"0e286095-0818-4ab7-a2d5-e0c249a69d01","system_id":"levelo_inurba_marseille","lat":43.30311,"lon":5.36908,"is_reserved":false,"is_disabled":false,"rental_uris":{"android":"levelo://app?vid=0e286095-0818-4ab7-a2d5-e0c249a69d01","ios":"levelo://app?vid=0e286095-0818-4ab7-a2d5-e0c249a69d01"},"vehicle_type_id":"4","last_reported":1738141786,"current_range_meters":11200,"station_id":"ce4bgqh2rcd13ifvqc5g","pricing_plan_id":"cebpf4jnsgd1na2vs0mg"},{"bike_id":"062acaa4-8533-423f-9d09-91cd05437850","system_id":"levelo_inurba_marseille","lat":43.3297,"lon":5.39062,"is_reserved":false,"is_disabled":true,"rental_uris":{"android":"levelo://app?vid=062acaa4-8533-423f-9d09-91cd05437850","ios":"levelo://app?vid=062acaa4-8533-423f-9d09-91cd05437850"},"vehicle_type_id":"4","last_reported":1738141786,"current_range_meters":6800,"station_id":"ce4bhr92rcd13ifvqhrg","pricing_plan_id":"cebpf4jnsgd1na2vs0mg"},{"bike_id":"0af62a67-6c01-4ed8-a80e-cc3294fada48","system_id":"levelo_inurba_marseille","lat":43.26562,"lon":5.39011,"is_reserved":false,"is_disabled":false,"rental_uris":{"android":"levelo://app?vid=0af62a67-6c01-4ed8-a80e-cc3294fada48","ios":"levelo://app?vid=0af62a67-6c01-4ed8-a80e-cc3294fada48"},"vehicle_type_id":"4","last_reported":1738141786,"current_range_meters":8800,"station_id":"ce4bhe12rcd13ifvqf30","pricing_plan_id":"cebpf4jnsgd1na2vs0mg"},{"bike_id":"b24cdb87-6e5a-49e1-b393-2351fc987f1e","system_id":"levelo_inurba_marseille","lat":43.295198,"lon":5.38496,"is_reserved":false,"is_disabled":false,"rental_uris":{"android":"levelo://app?vid=b24cdb87-6e5a-49e1-b393-2351fc987f1e","ios":"levelo://app?vid=b24cdb87-6e5a-49e1-b393-2351fc987f1e"},"vehicle_type_id":"4","last_reported":1738141786,"current_range_meters":38800,"station_id":"ce4bgih2rcd13ifvqba0","pricing_plan_id":"cebpf4jnsgd1na2vs0mg"},{"bike_id":"05b11dd3-6a9c-4f38-8b8d-f8ec90669833","system_id":"levelo_inurba_marseille","lat":43.33581,"lon":5.41018,"is_reserved":false,"is_disabled":false,"rental_uris":{"android":"levelo://app?vid=05b11dd3-6a9c-4f38-8b8d-f8ec90669833","ios":"levelo://app?vid=05b11dd3-6a9c-4f38-8b8d-f8ec90669833"},"vehicle_type_id":"4","last_reported":1738141786,"current_range_meters":36400,"station_id":"ce4bhqh2rcd13ifvqhmg","pricing_plan_id":"cebpf4jnsgd1na2vs0mg"},{"bike_id":"24de690c-442a-4c52-a6f3-3bb00c9edf0d","system_id":"levelo_inurba_marseille","lat":43.28854,"lon":5.35871,"is_reserved":false,"is_disabled":false,"rental_uris":{"android":"levelo://app?vid=24de690c-442a-4c52-a6f3-3bb00c9edf0d","ios":"levelo://app?vid=24de690c-442a-4c52-a6f3-3bb00c9edf0d"},"vehicle_type_id":"4","last_reported":1738141786,"current_range_meters":38400,"station_id":"ce4bhb12rcd13ifvqem0","pricing_plan_id":"cebpf4jnsgd1na2vs0mg"},{"bike_id":"4055047e-0c4f-4698-b155-f0ccf6649608","system_id":"levelo_inurba_marseille","lat":43.29505,"lon":5.39418,"is_reserved":false,"is_disabled":true,"rental_uris":{"android":"levelo://app?vid=4055047e-0c4f-4698-b155-f0ccf6649608","ios":"levelo://app?vid=4055047e-0c4f-4698-b155-f0ccf6649608"},"vehicle_type_id":"4","last_reported":1738141786,"current_range_meters":28000,"station_id":"ce4bh292rcd13ifvqdf0","pricing_plan_id":"cebpf4jnsgd1na2vs0mg"},{"bike_id":"2256710f-428a-4b6c-afaf-f485da875c48","system_id":"levelo_inurba_marseille","lat":43.28604,"lon":5.35104,"is_reserved":false,"is_disabled":false,"rental_uris":{"android":"levelo://app?vid=2256710f-428a-4b6c-afaf-f485da875c48","ios":"levelo://app?vid=2256710f-428a-4b6c-afaf-f485da875c48"},"vehicle_type_id":"4","last_reported":1738141786,"current_range_meters":10800,"station_id":"ce4bhch2rcd13ifvqeug","pricing_plan_id":"cebpf4jnsgd1na2vs0mg"},{"bike_id":"ab2c796a-c23b-4a3a-9534-777b873d6a05","system_id":"levelo_inurba_marseille","lat":43.24174,"lon":5.36417,"is_reserved":false,"is_disabled":false,"rental_uris":{"android":"levelo://app?vid=ab2c796a-c23b-4a3a-9534-777b873d6a05","ios":"levelo://app?vid=ab2c796a-c23b-4a3a-9534-777b873d6a05"},"vehicle_type_id":"4","last_reported":1738141786,"current_range_meters":16800,"station_id":"cpo36qri1sfpv3e86is0","pricing_plan_id":"cebpf4jnsgd1na2vs0mg"},{"bike_id":"eae93a2e-3d54-4c14-b5bd-7b0326eb0d03","system_id":"levelo_inurba_marseille","lat":43.29351,"lon":5.37856,"is_reserved":false,"is_disabled":true,"rental_uris":{"android":"levelo://app?vid=eae93a2e-3d54-4c14-b5bd-7b0326eb0d03","ios":"levelo://app?vid=eae93a2e-3d54-4c14-b5bd-7b0326eb0d03"},"vehicle_type_id":"4","last_reported":1738141786,"current_range_meters":16400,"station_id":"ce4bgjh2rcd13ifvqbf0","pricing_plan_id":"cebpf4jnsgd1na2vs0mg"},{"bike_id":"8dc2acd3-1b02-4448-b157-b06fe514afd9","system_id":"levelo_inurba_marseille","lat":43.24673,"lon":5.38158,"is_reserved":false,"is_disabled":false,"rental_uris":{"android":"levelo://app?vid=8dc2acd3-1b02-4448-b157-b06fe514afd9","ios":"levelo://app?vid=8dc2acd3-1b02-4448-b157-b06fe514afd9"},"vehicle_type_id":"4","last_reported":1738141786,"current_range_meters":34000,"station_id":"ce4bhih2rcd13ifvqfr0","pricing_plan_id":"cebpf4jnsgd1na2vs0mg"},{"bike_id":"b243d420-2f08-4ede-aa72-0a80fa8b9ddb","system_id":"levelo_inurba_marseille","lat":43.26682,"lon":5.38273,"is_reserved":false,"is_disabled":false,"rental_uris":{"android":"levelo://app?vid=b243d420-2f08-4ede-aa72-0a80fa8b9ddb","ios":"levelo://app?vid=b243d420-2f08-4ede-aa72-0a80fa8b9ddb"},"vehicle_type_id":"4","last_reported":1738141786,"current_range_meters":16400,"station_id":"ce4bhg92rcd13ifvqf90","pricing_plan_id":"cebpf4jnsgd1na2vs0mg"},{"bike_id":"e3f1d91f-451f-46b6-aff1-711820a9ab09","system_id":"levelo_inurba_marseille","lat":43.30952,"lon":5.39049,"is_reserved":false,"is_disabled":false,"rental_uris":{"android":"levelo://app?vid=e3f1d91f-451f-46b6-aff1-711820a9ab09","ios":"levelo://app?vid=e3f1d91f-451f-46b6-aff1-711820a9ab09"},"vehicle_type_id":"4","last_reported":1738141786,"current_range_meters":2800,"station_id":"ce4bgup2rcd13ifvqco0","pricing_plan_id":"cebpf4jnsgd1na2vs0mg"},{"bike_id":"7023018f-a9cc-4d01-b59d-de75cc5a9d8d","system_id":"levelo_inurba_marseille","lat":43.30141,"lon":5.38094,"is_reserved":false,"is_disabled":false,"rental_uris":{"android":"levelo://app?vid=7023018f-a9cc-4d01-b59d-de75cc5a9d8d","ios":"levelo://app?vid=7023018f-a9cc-4d01-b59d-de75cc5a9d8d"},"vehicle_type_id":"4","last_reported":1738141786,"current_range_meters":34800,"station_id":"ce4bgjp2rcd13ifvqbh0","pricing_plan_id":"cebpf4jnsgd1na2vs0mg"},{"bike_id":"24d4f5ef-361b-4b35-a071-0fe3b8f26f07","system_id":"levelo_inurba_marseille","lat":43.27496,"lon":5.42455,"is_reserved":false,"is_disabled":false,"rental_uris":{"android":"levelo://app?vid=24d4f5ef-361b-4b35-a071-0fe3b8f26f07","ios":"levelo://app?vid=24d4f5ef-361b-4b35-a071-0fe3b8f26f07"},"vehicle_type_id":"4","last_reported":1738141786,"current_range_meters":39200,"station_id":"ce4bhn92rcd13ifvqgrg","pricing_plan_id":"cebpf4jnsgd1na2vs0mg"},{"bike_id":"fe1cc2f0-0a29-47aa-bb62-60adbf31ee09","system_id":"levelo_inurba_marseille","lat":43.27488,"lon":5.42465,"is_reserved":false,"is_disabled":false,"rental_uris":{"android":"levelo://app?vid=fe1cc2f0-0a29-47aa-bb62-60adbf31ee09","ios":"levelo://app?vid=fe1cc2f0-0a29-47aa-bb62-60adbf31ee09"},"vehicle_type_id":"4","last_reported":1738141786,"current_range_meters":21600,"station_id":"ce4bhn92rcd13ifvqgrg","pricing_plan_id":"cebpf4jnsgd1na2vs0mg"},{"bike_id":"d9ef2b50-8677-48e8-9305-30387e08f9f2","system_id":"levelo_inurba_marseille","lat":43.30192,"lon":5.36606,"is_reserved":false,"is_disabled":false,"rental_uris":{"android":"levelo://app?vid=d9ef2b50-8677-48e8-9305-30387e08f9f2","ios":"levelo://app?vid=d9ef2b50-8677-48e8-9305-30387e08f9f2"},"vehicle_type_id":"4","last_reported":1738141786,"current_range_meters":36000,"station_id":"ce4bgrh2rcd13ifvqc8g","pricing_plan_id":"cebpf4jnsgd1na2vs0mg"},{"bike_id":"f0f07e84-01c4-443b-852b-4e00b882c1d8","system_id":"levelo_inurba_marseille","lat":43.30798,"lon":5.43536,"is_reserved":false,"is_disabled":false,"rental_uris":{"android":"levelo://app?vid=f0f07e84-01c4-443b-852b-4e00b882c1d8","ios":"levelo://app?vid=f0f07e84-01c4-443b-852b-4e00b882c1d8"},"vehicle_type_id":"4","last_reported":1738141786,"current_range_meters":38800,"station_id":"ce4bhph2rcd13ifvqheg","pricing_plan_id":"cebpf4jnsgd1na2vs0mg"},{"bike_id":"07d3ef5b-81f6-45ec-91d1-c42d4e295b17","system_id":"levelo_inurba_marseille","lat":43.24647,"lon":5.38894,"is_reserved":false,"is_disabled":false,"rental_uris":{"android":"levelo://app?vid=07d3ef5b-81f6-45ec-91d1-c42d4e295b17","ios":"levelo://app?vid=07d3ef5b-81f6-45ec-91d1-c42d4e295b17"},"vehicle_type_id":"4","last_reported":1738141786,"current_range_meters":8400,"station_id":"ce4bhg12rcd13ifvqf60","pricing_plan_id":"cebpf4jnsgd1na2vs0mg"},{"bike_id":"8378b129-9c0d-44b5-9c61-be207ba082f3","system_id":"levelo_inurba_marseille","lat":43.24047,"lon":5.37711,"is_reserved":false,"is_disabled":false,"rental_uris":{"android":"levelo://app?vid=8378b129-9c0d-44b5-9c61-be207ba082f3","ios":"levelo://app?vid=8378b129-9c0d-44b5-9c61-be207ba082f3"},"vehicle_type_id":"4","last_reported":1738141786,"current_range_meters":16400,"station_id":"ce4bhnp2rcd13ifvqgvg","pricing_plan_id":"cebpf4jnsgd1na2vs0mg"},{"bike_id":"31f25430-2e79-410e-8d5b-d047541882f4","system_id":"levelo_inurba_marseille","lat":43.31484,"lon":5.37306,"is_reserved":false,"is_disabled":false,"rental_uris":{"android":"levelo://app?vid=31f25430-2e79-410e-8d5b-d047541882f4","ios":"levelo://app?vid=31f25430-2e79-410e-8d5b-d047541882f4"},"vehicle_type_id":"4","last_reported":1738141786,"current_range_meters":38800,"station_id":"ce4bgt12rcd13ifvqcd0","pricing_plan_id":"cebpf4jnsgd1na2vs0mg"},{"bike_id":"3afe2907-14fe-40b0-8ce8-247215ed16c8","system_id":"levelo_inurba_marseille","lat":43.26916,"lon":5.38936,"is_reserved":false,"is_disabled":true,"rental_uris":{"android":"levelo://app?vid=3afe2907-14fe-40b0-8ce8-247215ed16c8","ios":"levelo://app?vid=3afe2907-14fe-40b0-8ce8-247215ed16c8"},"vehicle_type_id":"4","last_reported":1738141786,"current_range_meters":6000,"station_id":"ce4bhhh2rcd13ifvqfl0","pricing_plan_id":"cebpf4jnsgd1na2vs0mg"},{"bike_id":"e8e1f7c6-d773-4c38-bfcc-4a6d773355ce","system_id":"levelo_inurba_marseille","lat":43.22938,"lon":5.35397,"is_reserved":false,"is_disabled":false,"rental_uris":{"android":"levelo://app?vid=e8e1f7c6-d773-4c38-bfcc-4a6d773355ce","ios":"levelo://app?vid=e8e1f7c6-d773-4c38-bfcc-4a6d773355ce"},"vehicle_type_id":"4","last_reported":1738141786,"current_range_meters":39200,"station_id":"cpo3532slgdg3j2ikp40","pricing_plan_id":"cebpf4jnsgd1na2vs0mg"},{"bike_id":"65a4fd37-d87a-41db-b970-5d3a9a8b7aa1","system_id":"levelo_inurba_marseille","lat":43.23184,"lon":5.35563,"is_reserved":false,"is_disabled":false,"rental_uris":{"android":"levelo://app?vid=65a4fd37-d87a-41db-b970-5d3a9a8b7aa1","ios":"levelo://app?vid=65a4fd37-d87a-41db-b970-5d3a9a8b7aa1"},"vehicle_type_id":"4","last_reported":1738141786,"current_range_meters":11200,"station_id":"ce4bhu92rcd13ifvqi70","pricing_plan_id":"cebpf4jnsgd1na2vs0mg"},{"bike_id":"3db96b0b-b0cf-4283-a863-386edecd0027","system_id":"levelo_inurba_marseille","lat":43.23151,"lon":5.43738,"is_reserved":false,"is_disabled":false,"rental_uris":{"android":"levelo://app?vid=3db96b0b-b0cf-4283-a863-386edecd0027","ios":"levelo://app?vid=3db96b0b-b0cf-4283-a863-386edecd0027"},"vehicle_type_id":"4","last_reported":1738141786,"current_range_meters":19600,"station_id":"ce4bhmp2rcd13ifvqgog","pricing_plan_id":"cebpf4jnsgd1na2vs0mg"},{"bike_id":"cc26c524-9981-41d6-9e25-17cb40d9e550","system_id":"levelo_inurba_marseille","lat":43.24804,"lon":5.37462,"is_reserved":false,"is_disabled":false,"rental_uris":{"android":"levelo://app?vid=cc26c524-9981-41d6-9e25-17cb40d9e550","ios":"levelo://app?vid=cc26c524-9981-41d6-9e25-17cb40d9e550"},"vehicle_type_id":"4","last_reported":1738141786,"current_range_meters":24400,"station_id":"ce4bhgh2rcd13ifvqfb0","pricing_plan_id":"cebpf4jnsgd1na2vs0mg"},{"bike_id":"8b6a2e22-7314-494c-be31-0722e29d3f36","system_id":"levelo_inurba_marseille","lat":43.27981,"lon":5.40031,"is_reserved":false,"is_disabled":false,"rental_uris":{"android":"levelo://app?vid=8b6a2e22-7314-494c-be31-0722e29d3f36","ios":"levelo://app?vid=8b6a2e22-7314-494c-be31-0722e29d3f36"},"vehicle_type_id":"4","last_reported":1738141786,"current_range_meters":3600,"station_id":"ce4bho92rcd13ifvqh4g","pricing_plan_id":"cebpf4jnsgd1na2vs0mg"},{"bike_id":"6f0c45a6-e2a6-46d4-ac91-52cbf3e6b3fb","system_id":"levelo_inurba_marseille","lat":43.29164,"lon":5.37174,"is_reserved":false,"is_disabled":false,"rental_uris":{"android":"levelo://app?vid=6f0c45a6-e2a6-46d4-ac91-52cbf3e6b3fb","ios":"levelo://app?vid=6f0c45a6-e2a6-46d4-ac91-52cbf3e6b3fb"},"vehicle_type_id":"4","last_reported":1738141786,"current_range_meters":27600,"station_id":"ce4bha92rcd13ifvqeh0","pricing_plan_id":"cebpf4jnsgd1na2vs0mg"},{"bike_id":"dd195832-ff3f-4763-a260-74003ef7ff4c","system_id":"levelo_inurba_marseille","lat":43.29219,"lon":5.36084,"is_reserved":false,"is_disabled":false,"rental_uris":{"android":"levelo://app?vid=dd195832-ff3f-4763-a260-74003ef7ff4c","ios":"levelo://app?vid=dd195832-ff3f-4763-a260-74003ef7ff4c"},"vehicle_type_id":"4","last_reported":1738141786,"current_range_meters":34800,"station_id":"ce4bhbh2rcd13ifvqeqg","pricing_plan_id":"cebpf4jnsgd1na2vs0mg"},{"bike_id":"504dea5b-3c2a-489e-8275-d8db04b04cbd","system_id":"levelo_inurba_marseille","lat":43.28718,"lon":5.38418,"is_reserved":false,"is_disabled":false,"rental_uris":{"android":"levelo://app?vid=504dea5b-3c2a-489e-8275-d8db04b04cbd","ios":"levelo://app?vid=504dea5b-3c2a-489e-8275-d8db04b04cbd"},"vehicle_type_id":"4","last_reported":1738141786,"current_range_meters":35200,"station_id":"","pricing_plan_id":"cebpf4jnsgd1na2vs0mg"},{"bike_id":"9598fac0-d605-444b-a6ae-9103f2d4ff61","system_id":"levelo_inurba_marseille","lat":43.27423,"lon":5.39425,"is_reserved":false,"is_disabled":false,"rental_uris":{"android":"levelo://app?vid=9598fac0-d605-444b-a6ae-9103f2d4ff61","ios":"levelo://app?vid=9598fac0-d605-444b-a6ae-9103f2d4ff61"},"vehicle_type_id":"4","last_reported":1738141786,"current_range_meters":38400,"station_id":"ce4bhdp2rcd13ifvqf20","pricing_plan_id":"cebpf4jnsgd1na2vs0mg"},{"bike_id":"24808ffd-a683-445e-8577-a20ef0674bec","system_id":"levelo_inurba_marseille","lat":43.30275,"lon":5.37716,"is_reserved":false,"is_disabled":false,"rental_uris":{"android":"levelo://app?vid=24808ffd-a683-445e-8577-a20ef0674bec","ios":"levelo://app?vid=24808ffd-a683-445e-8577-a20ef0674bec"},"vehicle_type_id":"4","last_reported":1738141786,"current_range_meters":36000,"station_id":"ce4bguh2rcd13ifvqcj0","pricing_plan_id":"cebpf4jnsgd1na2vs0mg"},{"bike_id":"3bee4485-5796-46ad-a9f6-fae4ffbd959c","system_id":"levelo_inurba_marseille","lat":43.27491,"lon":5.42453,"is_reserved":false,"is_disabled":false,"rental_uris":{"android":"levelo://app?vid=3bee4485-5796-46ad-a9f6-fae4ffbd959c","ios":"levelo://app?vid=3bee4485-5796-46ad-a9f6-fae4ffbd959c"},"vehicle_type_id":"4","last_reported":1738141786,"current_range_meters":28400,"station_id":"ce4bhn92rcd13ifvqgrg","pricing_plan_id":"cebpf4jnsgd1na2vs0mg"},{"bike_id":"8a75c218-745e-4d5a-8531-47bf77bd2d40","system_id":"levelo_inurba_marseille","lat":43.24649,"lon":5.3891,"is_reserved":false,"is_disabled":false,"rental_uris":{"android":"levelo://app?vid=8a75c218-745e-4d5a-8531-47bf77bd2d40","ios":"levelo://app?vid=8a75c218-745e-4d5a-8531-47bf77bd2d40"},"vehicle_type_id":"4","last_reported":1738141786,"current_range_meters":27600,"station_id":"ce4bhg12rcd13ifvqf60","pricing_plan_id":"cebpf4jnsgd1na2vs0mg"},{"bike_id":"71f34f72-d3b7-46a5-9bd4-1fe057b3152f","system_id":"levelo_inurba_marseille","lat":43.229341,"lon":5.3538,"is_reserved":false,"is_disabled":false,"rental_uris":{"android":"levelo://app?vid=71f34f72-d3b7-46a5-9bd4-1fe057b3152f","ios":"levelo://app?vid=71f34f72-d3b7-46a5-9bd4-1fe057b3152f"},"vehicle_type_id":"4","last_reported":1738141786,"current_range_meters":39200,"station_id":"cpo3532slgdg3j2ikp40","pricing_plan_id":"cebpf4jnsgd1na2vs0mg"},{"bike_id":"375295ed-ef8c-4086-a0ac-e478c215ff21","system_id":"levelo_inurba_marseille","lat":43.31358,"lon":5.38489,"is_reserved":false,"is_disabled":true,"rental_uris":{"android":"levelo://app?vid=375295ed-ef8c-4086-a0ac-e478c215ff21","ios":"levelo://app?vid=375295ed-ef8c-4086-a0ac-e478c215ff21"},"vehicle_type_id":"4","last_reported":1738141786,"current_range_meters":1200,"station_id":"ce4bgt92rcd13ifvqcf0","pricing_plan_id":"cebpf4jnsgd1na2vs0mg"},{"bike_id":"20029bdd-9f9c-4ff9-86e4-5ba6ed30f46a","system_id":"levelo_inurba_marseille","lat":43.23144,"lon":5.43727,"is_reserved":false,"is_disabled":true,"rental_uris":{"android":"levelo://app?vid=20029bdd-9f9c-4ff9-86e4-5ba6ed30f46a","ios":"levelo://app?vid=20029bdd-9f9c-4ff9-86e4-5ba6ed30f46a"},"vehicle_type_id":"4","last_reported":1738141786,"current_range_meters":0,"station_id":"ce4bhmp2rcd13ifvqgog","pricing_plan_id":"cebpf4jnsgd1na2vs0mg"},{"bike_id":"3e9807cc-deb4-4a9a-bbea-c5ca08903cd0","system_id":"levelo_inurba_marseille","lat":43.3108,"lon":5.42431,"is_reserved":false,"is_disabled":false,"rental_uris":{"android":"levelo://app?vid=3e9807cc-deb4-4a9a-bbea-c5ca08903cd0","ios":"levelo://app?vid=3e9807cc-deb4-4a9a-bbea-c5ca08903cd0"},"vehicle_type_id":"4","last_reported":1738141786,"current_range_meters":18000,"station_id":"ce4bhp92rcd13ifvqhag","pricing_plan_id":"cebpf4jnsgd1na2vs0mg"},{"bike_id":"68055a81-c893-4175-837a-7e68a51b0a98","system_id":"levelo_inurba_marseille","lat":43.28348,"lon":5.38114,"is_reserved":false,"is_disabled":false,"rental_uris":{"android":"levelo://app?vid=68055a81-c893-4175-837a-7e68a51b0a98","ios":"levelo://app?vid=68055a81-c893-4175-837a-7e68a51b0a98"},"vehicle_type_id":"4","last_reported":1738141786,"current_range_meters":14400,"station_id":"ce4bh412rcd13ifvqdr0","pricing_plan_id":"cebpf4jnsgd1na2vs0mg"},{"bike_id":"21bf5864-23fd-4610-ba4b-43ba8ec88e36","system_id":"levelo_inurba_marseille","lat":43.29845,"lon":5.38069,"is_reserved":false,"is_disabled":false,"rental_uris":{"android":"levelo://app?vid=21bf5864-23fd-4610-ba4b-43ba8ec88e36","ios":"levelo://app?vid=21bf5864-23fd-4610-ba4b-43ba8ec88e36"},"vehicle_type_id":"4","last_reported":1738141786,"current_range_meters":34800,"station_id":"","pricing_plan_id":"cebpf4jnsgd1na2vs0mg"},{"bike_id":"92d77aac-c1cf-42fc-be7e-7fb6243deed4","system_id":"levelo_inurba_marseille","lat":43.30942,"lon":5.39008,"is_reserved":false,"is_disabled":false,"rental_uris":{"android":"levelo://app?vid=92d77aac-c1cf-42fc-be7e-7fb6243deed4","ios":"levelo://app?vid=92d77aac-c1cf-42fc-be7e-7fb6243deed4"},"vehicle_type_id":"4","last_reported":1738141786,"current_range_meters":22000,"station_id":"ce4bgup2rcd13ifvqco0","pricing_plan_id":"cebpf4jnsgd1na2vs0mg"},{"bike_id":"df130783-4f70-4e27-8a19-3889a8240639","system_id":"levelo_inurba_marseille","lat":43.30602,"lon":5.37222,"is_reserved":false,"is_disabled":false,"rental_uris":{"android":"levelo://app?vid=df130783-4f70-4e27-8a19-3889a8240639","ios":"levelo://app?vid=df130783-4f70-4e27-8a19-3889a8240639"},"vehicle_type_id":"4","last_reported":1738141786,"current_range_meters":10000,"station_id":"ce4bgqh2rcd13ifvqc4g","pricing_plan_id":"cebpf4jnsgd1na2vs0mg"},{"bike_id":"3fb74e29-7f1d-4c67-8af5-0bb8332df870","system_id":"levelo_inurba_marseille","lat":43.24401,"lon":5.3707,"is_reserved":false,"is_disabled":false,"rental_uris":{"android":"levelo://app?vid=3fb74e29-7f1d-4c67-8af5-0bb8332df870","ios":"levelo://app?vid=3fb74e29-7f1d-4c67-8af5-0bb8332df870"},"vehicle_type_id":"4","last_reported":1738141786,"current_range_meters":22800,"station_id":"ce4bhhh2rcd13ifvqfk0","pricing_plan_id":"cebpf4jnsgd1na2vs0mg"},{"bike_id":"f9e88736-0428-4dc5-a6f3-7b446ecd0f0d","system_id":"levelo_inurba_marseille","lat":43.33604,"lon":5.41003,"is_reserved":false,"is_disabled":false,"rental_uris":{"android":"levelo://app?vid=f9e88736-0428-4dc5-a6f3-7b446ecd0f0d","ios":"levelo://app?vid=f9e88736-0428-4dc5-a6f3-7b446ecd0f0d"},"vehicle_type_id":"4","last_reported":1738141786,"current_range_meters":10800,"station_id":"ce4bhqh2rcd13ifvqhmg","pricing_plan_id":"cebpf4jnsgd1na2vs0mg"},{"bike_id":"73e3775a-a4ad-48db-8256-fb0b8f2a3cbd","system_id":"levelo_inurba_marseille","lat":43.31355,"lon":5.38507,"is_reserved":false,"is_disabled":true,"rental_uris":{"android":"levelo://app?vid=73e3775a-a4ad-48db-8256-fb0b8f2a3cbd","ios":"levelo://app?vid=73e3775a-a4ad-48db-8256-fb0b8f2a3cbd"},"vehicle_type_id":"4","last_reported":1738141786,"current_range_meters":34000,"station_id":"ce4bgt92rcd13ifvqcf0","pricing_plan_id":"cebpf4jnsgd1na2vs0mg"},{"bike_id":"a1f25abd-5197-4524-ac53-ad8743bef105","system_id":"levelo_inurba_marseille","lat":43.29891,"lon":5.43661,"is_reserved":false,"is_disabled":true,"rental_uris":{"android":"levelo://app?vid=a1f25abd-5197-4524-ac53-ad8743bef105","ios":"levelo://app?vid=a1f25abd-5197-4524-ac53-ad8743bef105"},"vehicle_type_id":"4","last_reported":1738141786,"current_range_meters":35200,"station_id":"ce4bhpp2rcd13ifvqhfg","pricing_plan_id":"cebpf4jnsgd1na2vs0mg"},{"bike_id":"5b4f2f8c-2a9b-4cc2-b6cc-1ff207bf40f1","system_id":"levelo_inurba_marseille","lat":43.30298,"lon":5.37701,"is_reserved":false,"is_disabled":false,"rental_uris":{"android":"levelo://app?vid=5b4f2f8c-2a9b-4cc2-b6cc-1ff207bf40f1","ios":"levelo://app?vid=5b4f2f8c-2a9b-4cc2-b6cc-1ff207bf40f1"},"vehicle_type_id":"4","last_reported":1738141786,"current_range_meters":16400,"station_id":"ce4bguh2rcd13ifvqcj0","pricing_plan_id":"cebpf4jnsgd1na2vs0mg"},{"bike_id":"f758916d-7680-40a3-9582-cd262e26db01","system_id":"levelo_inurba_marseille","lat":43.32455,"lon":5.3656,"is_reserved":false,"is_disabled":false,"rental_uris":{"android":"levelo://app?vid=f758916d-7680-40a3-9582-cd262e26db01","ios":"levelo://app?vid=f758916d-7680-40a3-9582-cd262e26db01"},"vehicle_type_id":"4","last_reported":1738141786,"current_range_meters":39200,"station_id":"ce4bhs12rcd13ifvqhvg","pricing_plan_id":"cebpf4jnsgd1na2vs0mg"},{"bike_id":"bdddf215-203d-43c3-93dc-953ad8b0e105","system_id":"levelo_inurba_marseille","lat":43.23185,"lon":5.39986,"is_reserved":false,"is_disabled":false,"rental_uris":{"android":"levelo://app?vid=bdddf215-203d-43c3-93dc-953ad8b0e105","ios":"levelo://app?vid=bdddf215-203d-43c3-93dc-953ad8b0e105"},"vehicle_type_id":"4","last_reported":1738141786,"current_range_meters":22800,"station_id":"ce4bhn12rcd13ifvqgqg","pricing_plan_id":"cebpf4jnsgd1na2vs0mg"},{"bike_id":"ff68af14-5554-4f8d-a3de-4549d987f602","system_id":"levelo_inurba_marseille","lat":43.29904,"lon":5.43703,"is_reserved":false,"is_disabled":false,"rental_uris":{"android":"levelo://app?vid=ff68af14-5554-4f8d-a3de-4549d987f602","ios":"levelo://app?vid=ff68af14-5554-4f8d-a3de-4549d987f602"},"vehicle_type_id":"4","last_reported":1738141786,"current_range_meters":32000,"station_id":"ce4bhpp2rcd13ifvqhfg","pricing_plan_id":"cebpf4jnsgd1na2vs0mg"},{"bike_id":"296acca2-a355-4830-bc97-a6939a85f573","system_id":"levelo_inurba_marseille","lat":43.25571,"lon":5.38251,"is_reserved":false,"is_disabled":false,"rental_uris":{"android":"levelo://app?vid=296acca2-a355-4830-bc97-a6939a85f573","ios":"levelo://app?vid=296acca2-a355-4830-bc97-a6939a85f573"},"vehicle_type_id":"4","last_reported":1738141786,"current_range_meters":24800,"station_id":"ce4bhih2rcd13ifvqfs0","pricing_plan_id":"cebpf4jnsgd1na2vs0mg"},{"bike_id":"e2aa4144-f725-4497-81a8-6271243a9220","system_id":"levelo_inurba_marseille","lat":43.28268,"lon":5.40836,"is_reserved":false,"is_disabled":false,"rental_uris":{"android":"levelo://app?vid=e2aa4144-f725-4497-81a8-6271243a9220","ios":"levelo://app?vid=e2aa4144-f725-4497-81a8-6271243a9220"},"vehicle_type_id":"4","last_reported":1738141786,"current_range_meters":27200,"station_id":"","pricing_plan_id":"cebpf4jnsgd1na2vs0mg"},{"bike_id":"40c8e9ac-7bee-4230-ab8a-18ff89063193","system_id":"levelo_inurba_marseille","lat":43.31679,"lon":5.40473,"is_reserved":false,"is_disabled":false,"rental_uris":{"android":"levelo://app?vid=40c8e9ac-7bee-4230-ab8a-18ff89063193","ios":"levelo://app?vid=40c8e9ac-7bee-4230-ab8a-18ff89063193"},"vehicle_type_id":"4","last_reported":1738141786,"current_range_meters":8400,"station_id":"ce4bh012rcd13ifvqd00","pricing_plan_id":"cebpf4jnsgd1na2vs0mg"},{"bike_id":"f4478125-cd78-44aa-a654-3e65176dd05d","system_id":"levelo_inurba_marseille","lat":43.27994,"lon":5.41664,"is_reserved":false,"is_disabled":false,"rental_uris":{"android":"levelo://app?vid=f4478125-cd78-44aa-a654-3e65176dd05d","ios":"levelo://app?vid=f4478125-cd78-44aa-a654-3e65176dd05d"},"vehicle_type_id":"4","last_reported":1738141786,"current_range_meters":39200,"station_id":"ce4bho12rcd13ifvqh1g","pricing_plan_id":"cebpf4jnsgd1na2vs0mg"},{"bike_id":"bbe409bc-e7f4-4785-a5d2-fbcb7d2118c2","system_id":"levelo_inurba_marseille","lat":43.30483,"lon":5.37904,"is_reserved":false,"is_disabled":false,"rental_uris":{"android":"levelo://app?vid=bbe409bc-e7f4-4785-a5d2-fbcb7d2118c2","ios":"levelo://app?vid=bbe409bc-e7f4-4785-a5d2-fbcb7d2118c2"},"vehicle_type_id":"4","last_reported":1738141786,"current_range_meters":29600,"station_id":"ce4bgup2rcd13ifvqcn0","pricing_plan_id":"cebpf4jnsgd1na2vs0mg"},{"bike_id":"f6a37afb-46f4-467b-8e7a-93a51698bb2e","system_id":"levelo_inurba_marseille","lat":43.2884,"lon":5.35856,"is_reserved":false,"is_disabled":false,"rental_uris":{"android":"levelo://app?vid=f6a37afb-46f4-467b-8e7a-93a51698bb2e","ios":"levelo://app?vid=f6a37afb-46f4-467b-8e7a-93a51698bb2e"},"vehicle_type_id":"4","last_reported":1738141786,"current_range_meters":24800,"station_id":"ce4bhb12rcd13ifvqem0","pricing_plan_id":"cebpf4jnsgd1na2vs0mg"},{"bike_id":"3d95239f-7aae-4c5a-bf4d-ca1ab46f24f8","system_id":"levelo_inurba_marseille","lat":43.278146,"lon":5.407108,"is_reserved":false,"is_disabled":false,"rental_uris":{"android":"levelo://app?vid=3d95239f-7aae-4c5a-bf4d-ca1ab46f24f8","ios":"levelo://app?vid=3d95239f-7aae-4c5a-bf4d-ca1ab46f24f8"},"vehicle_type_id":"4","last_reported":1738141786,"current_range_meters":28400,"station_id":"ce4bhnh2rcd13ifvqgtg","pricing_plan_id":"cebpf4jnsgd1na2vs0mg"},{"bike_id":"60ce30e7-9301-4ca8-982f-21e0e801cbbe","system_id":"levelo_inurba_marseille","lat":43.299,"lon":5.37477,"is_reserved":false,"is_disabled":false,"rental_uris":{"android":"levelo://app?vid=60ce30e7-9301-4ca8-982f-21e0e801cbbe","ios":"levelo://app?vid=60ce30e7-9301-4ca8-982f-21e0e801cbbe"},"vehicle_type_id":"4","last_reported":1738141786,"current_range_meters":38400,"station_id":"ce4bgjh2rcd13ifvqbg0","pricing_plan_id":"cebpf4jnsgd1na2vs0mg"},{"bike_id":"053833af-ba3d-4612-b908-e90298b33a73","system_id":"levelo_inurba_marseille","lat":43.30542,"lon":5.3654,"is_reserved":false,"is_disabled":false,"rental_uris":{"android":"levelo://app?vid=053833af-ba3d-4612-b908-e90298b33a73","ios":"levelo://app?vid=053833af-ba3d-4612-b908-e90298b33a73"},"vehicle_type_id":"4","last_reported":1738141786,"current_range_meters":22800,"station_id":"ce4bgs12rcd13ifvqcag","pricing_plan_id":"cebpf4jnsgd1na2vs0mg"},{"bike_id":"c25e5d10-1e73-4133-a1bc-3b0eebf03463","system_id":"levelo_inurba_marseille","lat":43.23959,"lon":5.36653,"is_reserved":false,"is_disabled":true,"rental_uris":{"android":"levelo://app?vid=c25e5d10-1e73-4133-a1bc-3b0eebf03463","ios":"levelo://app?vid=c25e5d10-1e73-4133-a1bc-3b0eebf03463"},"vehicle_type_id":"4","last_reported":1738141786,"current_range_meters":10000,"station_id":"ce4bhi12rcd13ifvqfp0","pricing_plan_id":"cebpf4jnsgd1na2vs0mg"},{"bike_id":"2ccb8303-d419-4828-aaee-4a8c4a5783d9","system_id":"levelo_inurba_marseille","lat":43.24064,"lon":5.37765,"is_reserved":false,"is_disabled":false,"rental_uris":{"android":"levelo://app?vid=2ccb8303-d419-4828-aaee-4a8c4a5783d9","ios":"levelo://app?vid=2ccb8303-d419-4828-aaee-4a8c4a5783d9"},"vehicle_type_id":"4","last_reported":1738141786,"current_range_meters":32800,"station_id":"","pricing_plan_id":"cebpf4jnsgd1na2vs0mg"},{"bike_id":"e3c5a10e-948d-477c-91ce-8c835a7fe362","system_id":"levelo_inurba_marseille","lat":43.280913,"lon":5.396605,"is_reserved":false,"is_disabled":true,"rental_uris":{"android":"levelo://app?vid=e3c5a10e-948d-477c-91ce-8c835a7fe362","ios":"levelo://app?vid=e3c5a10e-948d-477c-91ce-8c835a7fe362"},"vehicle_type_id":"4","last_reported":1738141786,"current_range_meters":0,"station_id":"ce4bho12rcd13ifvqh2g","pricing_plan_id":"cebpf4jnsgd1na2vs0mg"},{"bike_id":"80929be9-f3e9-4af2-a894-50d95fa73bcd","system_id":"levelo_inurba_marseille","lat":43.24076,"lon":5.37755,"is_reserved":false,"is_disabled":false,"rental_uris":{"android":"levelo://app?vid=80929be9-f3e9-4af2-a894-50d95fa73bcd","ios":"levelo://app?vid=80929be9-f3e9-4af2-a894-50d95fa73bcd"},"vehicle_type_id":"4","last_reported":1738141786,"current_range_meters":23200,"station_id":"","pricing_plan_id":"cebpf4jnsgd1na2vs0mg"},{"bike_id":"7c2a1be0-d0fd-495c-a134-af6592031327","system_id":"levelo_inurba_marseille","lat":43.29379,"lon":5.37835,"is_reserved":false,"is_disabled":false,"rental_uris":{"android":"levelo://app?vid=7c2a1be0-d0fd-495c-a134-af6592031327","ios":"levelo://app?vid=7c2a1be0-d0fd-495c-a134-af6592031327"},"vehicle_type_id":"4","last_reported":1738141786,"current_range_meters":31200,"station_id":"ce4bgjh2rcd13ifvqbf0","pricing_plan_id":"cebpf4jnsgd1na2vs0mg"},{"bike_id":"1e7882da-a016-4654-9a16-4361fd531dc2","system_id":"levelo_inurba_marseille","lat":43.27185,"lon":5.40998,"is_reserved":false,"is_disabled":false,"rental_uris":{"android":"levelo://app?vid=1e7882da-a016-4654-9a16-4361fd531dc2","ios":"levelo://app?vid=1e7882da-a016-4654-9a16-4361fd531dc2"},"vehicle_type_id":"4","last_reported":1738141786,"current_range_meters":24800,"station_id":"ce4bhl12rcd13ifvqgf0","pricing_plan_id":"cebpf4jnsgd1na2vs0mg"},{"bike_id":"d7932d4d-88a1-4cff-b158-c84881509b22","system_id":"levelo_inurba_marseille","lat":43.30288,"lon":5.36916,"is_reserved":false,"is_disabled":false,"rental_uris":{"android":"levelo://app?vid=d7932d4d-88a1-4cff-b158-c84881509b22","ios":"levelo://app?vid=d7932d4d-88a1-4cff-b158-c84881509b22"},"vehicle_type_id":"4","last_reported":1738141786,"current_range_meters":28000,"station_id":"ce4bgqh2rcd13ifvqc5g","pricing_plan_id":"cebpf4jnsgd1na2vs0mg"},{"bike_id":"e98bcae3-a7e1-45c1-8127-fba6130bc1d6","system_id":"levelo_inurba_marseille","lat":43.29259,"lon":5.36856,"is_reserved":false,"is_disabled":false,"rental_uris":{"android":"levelo://app?vid=e98bcae3-a7e1-45c1-8127-fba6130bc1d6","ios":"levelo://app?vid=e98bcae3-a7e1-45c1-8127-fba6130bc1d6"},"vehicle_type_id":"4","last_reported":1738141786,"current_range_meters":34800,"station_id":"ce4bhbp2rcd13ifvqesg","pricing_plan_id":"cebpf4jnsgd1na2vs0mg"},{"bike_id":"fb92b986-a6e9-4a5f-b841-750c8cc56328","system_id":"levelo_inurba_marseille","lat":43.26495,"lon":5.39601,"is_reserved":false,"is_disabled":false,"rental_uris":{"android":"levelo://app?vid=fb92b986-a6e9-4a5f-b841-750c8cc56328","ios":"levelo://app?vid=fb92b986-a6e9-4a5f-b841-750c8cc56328"},"vehicle_type_id":"4","last_reported":1738141786,"current_range_meters":38800,"station_id":"ce4bhi12rcd13ifvqfq0","pricing_plan_id":"cebpf4jnsgd1na2vs0mg"},{"bike_id":"dc7c1c67-58fd-4b23-90e5-a1f21ef47cbc","system_id":"levelo_inurba_marseille","lat":43.29601,"lon":5.36744,"is_reserved":false,"is_disabled":true,"rental_uris":{"android":"levelo://app?vid=dc7c1c67-58fd-4b23-90e5-a1f21ef47cbc","ios":"levelo://app?vid=dc7c1c67-58fd-4b23-90e5-a1f21ef47cbc"},"vehicle_type_id":"4","last_reported":1738141786,"current_range_meters":24000,"station_id":"ce4bgph2rcd13ifvqc2g","pricing_plan_id":"cebpf4jnsgd1na2vs0mg"},{"bike_id":"477bbd5b-096a-4dce-b719-0fae268d6d85","system_id":"levelo_inurba_marseille","lat":43.30457,"lon":5.37912,"is_reserved":false,"is_disabled":false,"rental_uris":{"android":"levelo://app?vid=477bbd5b-096a-4dce-b719-0fae268d6d85","ios":"levelo://app?vid=477bbd5b-096a-4dce-b719-0fae268d6d85"},"vehicle_type_id":"4","last_reported":1738141786,"current_range_meters":38000,"station_id":"ce4bgup2rcd13ifvqcn0","pricing_plan_id":"cebpf4jnsgd1na2vs0mg"},{"bike_id":"17e47042-8c77-4541-a11d-5ae1a42c0ff2","system_id":"levelo_inurba_marseille","lat":43.27485,"lon":5.42455,"is_reserved":false,"is_disabled":true,"rental_uris":{"android":"levelo://app?vid=17e47042-8c77-4541-a11d-5ae1a42c0ff2","ios":"levelo://app?vid=17e47042-8c77-4541-a11d-5ae1a42c0ff2"},"vehicle_type_id":"4","last_reported":1738141786,"current_range_meters":0,"station_id":"ce4bhn92rcd13ifvqgrg","pricing_plan_id":"cebpf4jnsgd1na2vs0mg"},{"bike_id":"b891a845-22ae-4964-87fe-61c6bc3a8303","system_id":"levelo_inurba_marseille","lat":43.27811,"lon":5.40715,"is_reserved":false,"is_disabled":false,"rental_uris":{"android":"levelo://app?vid=b891a845-22ae-4964-87fe-61c6bc3a8303","ios":"levelo://app?vid=b891a845-22ae-4964-87fe-61c6bc3a8303"},"vehicle_type_id":"4","last_reported":1738141786,"current_range_meters":33200,"station_id":"ce4bhnh2rcd13ifvqgtg","pricing_plan_id":"cebpf4jnsgd1na2vs0mg"},{"bike_id":"138d3fde-4941-45ce-ab30-6cd5c9c4eb78","system_id":"levelo_inurba_marseille","lat":43.29545,"lon":5.42279,"is_reserved":false,"is_disabled":false,"rental_uris":{"android":"levelo://app?vid=138d3fde-4941-45ce-ab30-6cd5c9c4eb78","ios":"levelo://app?vid=138d3fde-4941-45ce-ab30-6cd5c9c4eb78"},"vehicle_type_id":"4","last_reported":1738141786,"current_range_meters":38800,"station_id":"ce4bhph2rcd13ifvqhdg","pricing_plan_id":"cebpf4jnsgd1na2vs0mg"},{"bike_id":"84e53b70-f8f3-491d-a490-f13cad8d073a","system_id":"levelo_inurba_marseille","lat":43.31368,"lon":5.3669,"is_reserved":false,"is_disabled":true,"rental_uris":{"android":"levelo://app?vid=84e53b70-f8f3-491d-a490-f13cad8d073a","ios":"levelo://app?vid=84e53b70-f8f3-491d-a490-f13cad8d073a"},"vehicle_type_id":"4","last_reported":1738141786,"current_range_meters":24800,"station_id":"ce4bgr92rcd13ifvqc6g","pricing_plan_id":"cebpf4jnsgd1na2vs0mg"},{"bike_id":"1932502a-a386-4bd4-8041-b68d3b661876","system_id":"levelo_inurba_marseille","lat":43.23185,"lon":5.35617,"is_reserved":false,"is_disabled":false,"rental_uris":{"android":"levelo://app?vid=1932502a-a386-4bd4-8041-b68d3b661876","ios":"levelo://app?vid=1932502a-a386-4bd4-8041-b68d3b661876"},"vehicle_type_id":"4","last_reported":1738141786,"current_range_meters":22400,"station_id":"ce4bhu92rcd13ifvqi70","pricing_plan_id":"cebpf4jnsgd1na2vs0mg"},{"bike_id":"3ad10b32-c1b1-4c7a-9f3c-30dcc350bc0c","system_id":"levelo_inurba_marseille","lat":43.27951,"lon":5.41053,"is_reserved":false,"is_disabled":false,"rental_uris":{"android":"levelo://app?vid=3ad10b32-c1b1-4c7a-9f3c-30dcc350bc0c","ios":"levelo://app?vid=3ad10b32-c1b1-4c7a-9f3c-30dcc350bc0c"},"vehicle_type_id":"4","last_reported":1738141786,"current_range_meters":12400,"station_id":"ce4bhnp2rcd13ifvqh0g","pricing_plan_id":"cebpf4jnsgd1na2vs0mg"},{"bike_id":"0f4b3813-faf4-4a38-a8d2-313659685248","system_id":"levelo_inurba_marseille","lat":43.30411,"lon":5.41288,"is_reserved":false,"is_disabled":false,"rental_uris":{"android":"levelo://app?vid=0f4b3813-faf4-4a38-a8d2-313659685248","ios":"levelo://app?vid=0f4b3813-faf4-4a38-a8d2-313659685248"},"vehicle_type_id":"4","last_reported":1738141786,"current_range_meters":32000,"station_id":"ce4bhop2rcd13ifvqh8g","pricing_plan_id":"cebpf4jnsgd1na2vs0mg"},{"bike_id":"34b4ae99-6814-4bf5-bae3-5796e36b1513","system_id":"levelo_inurba_marseille","lat":43.29269,"lon":5.40128,"is_reserved":false,"is_disabled":false,"rental_uris":{"android":"levelo://app?vid=34b4ae99-6814-4bf5-bae3-5796e36b1513","ios":"levelo://app?vid=34b4ae99-6814-4bf5-bae3-5796e36b1513"},"vehicle_type_id":"4","last_reported":1738141786,"current_range_meters":3600,"station_id":"ce4bh312rcd13ifvqdk0","pricing_plan_id":"cebpf4jnsgd1na2vs0mg"},{"bike_id":"b988a070-ec1d-4020-9bd5-d00746b70e50","system_id":"levelo_inurba_marseille","lat":43.24068,"lon":5.3777,"is_reserved":false,"is_disabled":false,"rental_uris":{"android":"levelo://app?vid=b988a070-ec1d-4020-9bd5-d00746b70e50","ios":"levelo://app?vid=b988a070-ec1d-4020-9bd5-d00746b70e50"},"vehicle_type_id":"4","last_reported":1738141786,"current_range_meters":38800,"station_id":"","pricing_plan_id":"cebpf4jnsgd1na2vs0mg"},{"bike_id":"f19c00b2-4831-4ead-a4a4-2906bfac98c3","system_id":"levelo_inurba_marseille","lat":43.3053,"lon":5.36545,"is_reserved":false,"is_disabled":false,"rental_uris":{"android":"levelo://app?vid=f19c00b2-4831-4ead-a4a4-2906bfac98c3","ios":"levelo://app?vid=f19c00b2-4831-4ead-a4a4-2906bfac98c3"},"vehicle_type_id":"4","last_reported":1738141786,"current_range_meters":12400,"station_id":"ce4bgs12rcd13ifvqcag","pricing_plan_id":"cebpf4jnsgd1na2vs0mg"},{"bike_id":"05aff781-9191-4632-ad87-76bf911c0c4e","system_id":"levelo_inurba_marseille","lat":43.27492,"lon":5.42469,"is_reserved":false,"is_disabled":false,"rental_uris":{"android":"levelo://app?vid=05aff781-9191-4632-ad87-76bf911c0c4e","ios":"levelo://app?vid=05aff781-9191-4632-ad87-76bf911c0c4e"},"vehicle_type_id":"4","last_reported":1738141786,"current_range_meters":30800,"station_id":"ce4bhn92rcd13ifvqgrg","pricing_plan_id":"cebpf4jnsgd1na2vs0mg"},{"bike_id":"bee525ca-1448-447f-ac5f-23a60aa78ee7","system_id":"levelo_inurba_marseille","lat":43.31486,"lon":5.37315,"is_reserved":false,"is_disabled":false,"rental_uris":{"android":"levelo://app?vid=bee525ca-1448-447f-ac5f-23a60aa78ee7","ios":"levelo://app?vid=bee525ca-1448-447f-ac5f-23a60aa78ee7"},"vehicle_type_id":"4","last_reported":1738141786,"current_range_meters":8800,"station_id":"ce4bgt12rcd13ifvqcd0","pricing_plan_id":"cebpf4jnsgd1na2vs0mg"},{"bike_id":"b7b20454-2237-40c4-b8ed-89dbfbf9ec67","system_id":"levelo_inurba_marseille","lat":43.2957,"lon":5.39982,"is_reserved":false,"is_disabled":false,"rental_uris":{"android":"levelo://app?vid=b7b20454-2237-40c4-b8ed-89dbfbf9ec67","ios":"levelo://app?vid=b7b20454-2237-40c4-b8ed-89dbfbf9ec67"},"vehicle_type_id":"4","last_reported":1738141786,"current_range_meters":29600,"station_id":"ce4bh312rcd13ifvqdj0","pricing_plan_id":"cebpf4jnsgd1na2vs0mg"},{"bike_id":"5513389d-c0fe-4b3d-9c89-ea31d72d8cd3","system_id":"levelo_inurba_marseille","lat":43.28932,"lon":5.39624,"is_reserved":false,"is_disabled":false,"rental_uris":{"android":"levelo://app?vid=5513389d-c0fe-4b3d-9c89-ea31d72d8cd3","ios":"levelo://app?vid=5513389d-c0fe-4b3d-9c89-ea31d72d8cd3"},"vehicle_type_id":"4","last_reported":1738141786,"current_range_meters":29600,"station_id":"ce4bh3h2rcd13ifvqdn0","pricing_plan_id":"cebpf4jnsgd1na2vs0mg"},{"bike_id":"283c25d8-9fc5-495b-9825-5a72a68442bd","system_id":"levelo_inurba_marseille","lat":43.29266,"lon":5.40915,"is_reserved":false,"is_disabled":true,"rental_uris":{"android":"levelo://app?vid=283c25d8-9fc5-495b-9825-5a72a68442bd","ios":"levelo://app?vid=283c25d8-9fc5-495b-9825-5a72a68442bd"},"vehicle_type_id":"4","last_reported":1738141786,"current_range_meters":38000,"station_id":"ce4bh192rcd13ifvqdc0","pricing_plan_id":"cebpf4jnsgd1na2vs0mg"},{"bike_id":"61bff1fb-024f-42b1-9dd1-e5a3bdf564db","system_id":"levelo_inurba_marseille","lat":43.26691,"lon":5.3826,"is_reserved":false,"is_disabled":false,"rental_uris":{"android":"levelo://app?vid=61bff1fb-024f-42b1-9dd1-e5a3bdf564db","ios":"levelo://app?vid=61bff1fb-024f-42b1-9dd1-e5a3bdf564db"},"vehicle_type_id":"4","last_reported":1738141786,"current_range_meters":38800,"station_id":"ce4bhg92rcd13ifvqf90","pricing_plan_id":"cebpf4jnsgd1na2vs0mg"},{"bike_id":"e3e26aee-15e1-425c-a48f-db58aa520742","system_id":"levelo_inurba_marseille","lat":43.23063,"lon":5.35502,"is_reserved":false,"is_disabled":false,"rental_uris":{"android":"levelo://app?vid=e3e26aee-15e1-425c-a48f-db58aa520742","ios":"levelo://app?vid=e3e26aee-15e1-425c-a48f-db58aa520742"},"vehicle_type_id":"4","last_reported":1738141786,"current_range_meters":34800,"station_id":"cpo3342slgdg3j2ifvpg","pricing_plan_id":"cebpf4jnsgd1na2vs0mg"},{"bike_id":"566e23ec-1d41-4cca-b6b1-4c286a9b4684","system_id":"levelo_inurba_marseille","lat":43.25727,"lon":5.41089,"is_reserved":false,"is_disabled":false,"rental_uris":{"android":"levelo://app?vid=566e23ec-1d41-4cca-b6b1-4c286a9b4684","ios":"levelo://app?vid=566e23ec-1d41-4cca-b6b1-4c286a9b4684"},"vehicle_type_id":"4","last_reported":1738141786,"current_range_meters":38800,"station_id":"ce4bhkp2rcd13ifvqgd0","pricing_plan_id":"cebpf4jnsgd1na2vs0mg"},{"bike_id":"406f1379-7e5f-40c8-b8c8-3f0d17a7f0fa","system_id":"levelo_inurba_marseille","lat":43.27551,"lon":5.38426,"is_reserved":false,"is_disabled":true,"rental_uris":{"android":"levelo://app?vid=406f1379-7e5f-40c8-b8c8-3f0d17a7f0fa","ios":"levelo://app?vid=406f1379-7e5f-40c8-b8c8-3f0d17a7f0fa"},"vehicle_type_id":"4","last_reported":1738141786,"current_range_meters":38000,"station_id":"ce4bhh92rcd13ifvqfi0","pricing_plan_id":"cebpf4jnsgd1na2vs0mg"},{"bike_id":"008429e0-dc1c-4e59-aa4f-57f86b05eef6","system_id":"levelo_inurba_marseille","lat":43.24069,"lon":5.3775,"is_reserved":false,"is_disabled":false,"rental_uris":{"android":"levelo://app?vid=008429e0-dc1c-4e59-aa4f-57f86b05eef6","ios":"levelo://app?vid=008429e0-dc1c-4e59-aa4f-57f86b05eef6"},"vehicle_type_id":"4","last_reported":1738141786,"current_range_meters":36400,"station_id":"ce4bhnp2rcd13ifvqgvg","pricing_plan_id":"cebpf4jnsgd1na2vs0mg"},{"bike_id":"df2653fe-4fdf-43fd-a7c1-0f1c8d8556c5","system_id":"levelo_inurba_marseille","lat":43.33033,"lon":5.39048,"is_reserved":false,"is_disabled":false,"rental_uris":{"android":"levelo://app?vid=df2653fe-4fdf-43fd-a7c1-0f1c8d8556c5","ios":"levelo://app?vid=df2653fe-4fdf-43fd-a7c1-0f1c8d8556c5"},"vehicle_type_id":"4","last_reported":1738141786,"current_range_meters":36800,"station_id":"ce4bhr92rcd13ifvqhrg","pricing_plan_id":"cebpf4jnsgd1na2vs0mg"},{"bike_id":"7c78a755-c7f5-4f07-a96b-621451d47948","system_id":"levelo_inurba_marseille","lat":43.29897,"lon":5.43666,"is_reserved":false,"is_disabled":false,"rental_uris":{"android":"levelo://app?vid=7c78a755-c7f5-4f07-a96b-621451d47948","ios":"levelo://app?vid=7c78a755-c7f5-4f07-a96b-621451d47948"},"vehicle_type_id":"4","last_reported":1738141786,"current_range_meters":18800,"station_id":"ce4bhpp2rcd13ifvqhfg","pricing_plan_id":"cebpf4jnsgd1na2vs0mg"},{"bike_id":"070e1a29-4fa8-4fbc-8021-88e998b5aa41","system_id":"levelo_inurba_marseille","lat":43.30808,"lon":5.38164,"is_reserved":false,"is_disabled":false,"rental_uris":{"android":"levelo://app?vid=070e1a29-4fa8-4fbc-8021-88e998b5aa41","ios":"levelo://app?vid=070e1a29-4fa8-4fbc-8021-88e998b5aa41"},"vehicle_type_id":"4","last_reported":1738141786,"current_range_meters":36800,"station_id":"ce4bgt12rcd13ifvqce0","pricing_plan_id":"cebpf4jnsgd1na2vs0mg"},{"bike_id":"3d1fcd99-fa1f-402d-be1e-7639922ccd47","system_id":"levelo_inurba_marseille","lat":43.22906,"lon":5.35387,"is_reserved":false,"is_disabled":false,"rental_uris":{"android":"levelo://app?vid=3d1fcd99-fa1f-402d-be1e-7639922ccd47","ios":"levelo://app?vid=3d1fcd99-fa1f-402d-be1e-7639922ccd47"},"vehicle_type_id":"4","last_reported":1738141786,"current_range_meters":37600,"station_id":"cpo3532slgdg3j2ikp40","pricing_plan_id":"cebpf4jnsgd1na2vs0mg"},{"bike_id":"c00b60cf-28ff-4781-aac3-83a1e08f4e67","system_id":"levelo_inurba_marseille","lat":43.30946,"lon":5.3903,"is_reserved":false,"is_disabled":false,"rental_uris":{"android":"levelo://app?vid=c00b60cf-28ff-4781-aac3-83a1e08f4e67","ios":"levelo://app?vid=c00b60cf-28ff-4781-aac3-83a1e08f4e67"},"vehicle_type_id":"4","last_reported":1738141786,"current_range_meters":35200,"station_id":"ce4bgup2rcd13ifvqco0","pricing_plan_id":"cebpf4jnsgd1na2vs0mg"},{"bike_id":"2e37b0d2-8751-4445-aa1b-b3f8e099ffd5","system_id":"levelo_inurba_marseille","lat":43.27421,"lon":5.39417,"is_reserved":false,"is_disabled":false,"rental_uris":{"android":"levelo://app?vid=2e37b0d2-8751-4445-aa1b-b3f8e099ffd5","ios":"levelo://app?vid=2e37b0d2-8751-4445-aa1b-b3f8e099ffd5"},"vehicle_type_id":"4","last_reported":1738141786,"current_range_meters":27200,"station_id":"ce4bhdp2rcd13ifvqf20","pricing_plan_id":"cebpf4jnsgd1na2vs0mg"},{"bike_id":"803e03d8-7d2e-4feb-ac46-774902d16dee","system_id":"levelo_inurba_marseille","lat":43.33731,"lon":5.37442,"is_reserved":false,"is_disabled":true,"rental_uris":{"android":"levelo://app?vid=803e03d8-7d2e-4feb-ac46-774902d16dee","ios":"levelo://app?vid=803e03d8-7d2e-4feb-ac46-774902d16dee"},"vehicle_type_id":"4","last_reported":1738141786,"current_range_meters":34000,"station_id":"","pricing_plan_id":"cebpf4jnsgd1na2vs0mg"},{"bike_id":"9a71b288-309d-4f57-b5bb-981ea81914d0","system_id":"levelo_inurba_marseille","lat":43.30946,"lon":5.39043,"is_reserved":false,"is_disabled":false,"rental_uris":{"android":"levelo://app?vid=9a71b288-309d-4f57-b5bb-981ea81914d0","ios":"levelo://app?vid=9a71b288-309d-4f57-b5bb-981ea81914d0"},"vehicle_type_id":"4","last_reported":1738141786,"current_range_meters":38000,"station_id":"ce4bgup2rcd13ifvqco0","pricing_plan_id":"cebpf4jnsgd1na2vs0mg"},{"bike_id":"ff1e303e-f01b-45b4-953d-3439c6552787","system_id":"levelo_inurba_marseille","lat":43.26921,"lon":5.40265,"is_reserved":false,"is_disabled":false,"rental_uris":{"android":"levelo://app?vid=ff1e303e-f01b-45b4-953d-3439c6552787","ios":"levelo://app?vid=ff1e303e-f01b-45b4-953d-3439c6552787"},"vehicle_type_id":"4","last_reported":1738141786,"current_range_meters":30000,"station_id":"cjm6bp8fraef2m0cb0m0","pricing_plan_id":"cebpf4jnsgd1na2vs0mg"},{"bike_id":"6d1da78d-00cf-4bf6-8937-cad8764c7ccc","system_id":"levelo_inurba_marseille","lat":43.30306,"lon":5.36901,"is_reserved":false,"is_disabled":false,"rental_uris":{"android":"levelo://app?vid=6d1da78d-00cf-4bf6-8937-cad8764c7ccc","ios":"levelo://app?vid=6d1da78d-00cf-4bf6-8937-cad8764c7ccc"},"vehicle_type_id":"4","last_reported":1738141786,"current_range_meters":11200,"station_id":"ce4bgqh2rcd13ifvqc5g","pricing_plan_id":"cebpf4jnsgd1na2vs0mg"},{"bike_id":"3622e152-b5be-42cb-bc60-3cf0f1d519df","system_id":"levelo_inurba_marseille","lat":43.26677,"lon":5.38275,"is_reserved":false,"is_disabled":false,"rental_uris":{"android":"levelo://app?vid=3622e152-b5be-42cb-bc60-3cf0f1d519df","ios":"levelo://app?vid=3622e152-b5be-42cb-bc60-3cf0f1d519df"},"vehicle_type_id":"4","last_reported":1738141786,"current_range_meters":39200,"station_id":"ce4bhg92rcd13ifvqf90","pricing_plan_id":"cebpf4jnsgd1na2vs0mg"},{"bike_id":"707d2b5d-3ace-45cc-b2c5-34dc15973444","system_id":"levelo_inurba_marseille","lat":43.32538,"lon":5.41433,"is_reserved":false,"is_disabled":false,"rental_uris":{"android":"levelo://app?vid=707d2b5d-3ace-45cc-b2c5-34dc15973444","ios":"levelo://app?vid=707d2b5d-3ace-45cc-b2c5-34dc15973444"},"vehicle_type_id":"4","last_reported":1738141786,"current_range_meters":17200,"station_id":"ce4bhq12rcd13ifvqhhg","pricing_plan_id":"cebpf4jnsgd1na2vs0mg"},{"bike_id":"5bbde3cf-eb6a-4f89-b733-d41c921122f3","system_id":"levelo_inurba_marseille","lat":43.28344,"lon":5.38098,"is_reserved":false,"is_disabled":false,"rental_uris":{"android":"levelo://app?vid=5bbde3cf-eb6a-4f89-b733-d41c921122f3","ios":"levelo://app?vid=5bbde3cf-eb6a-4f89-b733-d41c921122f3"},"vehicle_type_id":"4","last_reported":1738141786,"current_range_meters":29600,"station_id":"ce4bh412rcd13ifvqdr0","pricing_plan_id":"cebpf4jnsgd1na2vs0mg"},{"bike_id":"2b833396-ff25-4e46-9295-e03dc3a4726d","system_id":"levelo_inurba_marseille","lat":43.32478,"lon":5.36592,"is_reserved":false,"is_disabled":true,"rental_uris":{"android":"levelo://app?vid=2b833396-ff25-4e46-9295-e03dc3a4726d","ios":"levelo://app?vid=2b833396-ff25-4e46-9295-e03dc3a4726d"},"vehicle_type_id":"4","last_reported":1738141786,"current_range_meters":39200,"station_id":"ce4bhs12rcd13ifvqhvg","pricing_plan_id":"cebpf4jnsgd1na2vs0mg"},{"bike_id":"c0c568de-606c-46e0-925f-17c29aae1bcc","system_id":"levelo_inurba_marseille","lat":43.3015,"lon":5.38084,"is_reserved":false,"is_disabled":false,"rental_uris":{"android":"levelo://app?vid=c0c568de-606c-46e0-925f-17c29aae1bcc","ios":"levelo://app?vid=c0c568de-606c-46e0-925f-17c29aae1bcc"},"vehicle_type_id":"4","last_reported":1738141786,"current_range_meters":38000,"station_id":"ce4bgjp2rcd13ifvqbh0","pricing_plan_id":"cebpf4jnsgd1na2vs0mg"},{"bike_id":"90788ee8-b849-42ca-8c9c-22d4914a79d3","system_id":"levelo_inurba_marseille","lat":43.23962,"lon":5.36634,"is_reserved":false,"is_disabled":false,"rental_uris":{"android":"levelo://app?vid=90788ee8-b849-42ca-8c9c-22d4914a79d3","ios":"levelo://app?vid=90788ee8-b849-42ca-8c9c-22d4914a79d3"},"vehicle_type_id":"4","last_reported":1738141786,"current_range_meters":22000,"station_id":"ce4bhi12rcd13ifvqfp0","pricing_plan_id":"cebpf4jnsgd1na2vs0mg"},