{"last_updated":1692720481,"ttl":30,"version":"2.2","data":{"bikes":[{"bike_id":"f22ca441-4e4e-4660-b824-b2f46943e54d","system_id":"levelo_inurba_marseille","lat":43.312239,"lon":5.368562,"is_reserved":false,"is_disabled":false,"rental_uris":{"android":"levelo://app?vid=f22ca441-4e4e-4660-b824-b2f46943e54d","ios":"levelo://app?vid=f22ca441-4e4e-4660-b824-b2f46943e54d"},"vehicle_type_id":"4","last_reported":1692720484,"current_range_meters":31200,"station_id":"ce4bgl92rcd13ifvqbq0","pricing_plan_id":"free"},{"bike_id":"c4e4251a-ed60-44e2-9a4f-73ffeb17e661","system_id":"levelo_inurba_marseille","lat":43.314811,"lon":5.373103,"is_reserved":false,"is_disabled":false,"rental_uris":{"android":"levelo://app?vid=c4e4251a-ed60-44e2-9a4f-73ffeb17e661","ios":"levelo://app?vid=c4e4251a-ed60-44e2-9a4f-73ffeb17e661"},"vehicle_type_id":"4","last_reported":1692720484,"current_range_meters":31200,"station_id":"ce4bgt12rcd13ifvqcd0","pricing_plan_id":"free"},{"bike_id":"d2be997d-44d2-40a5-bb20-02aeaaf65fa5","system_id":"levelo_inurba_marseille","lat":43.314811,"lon":5.373103,"is_reserved":false,"is_disabled":false,"rental_uris":{"android":"levelo://app?vid=d2be997d-44d2-40a5-bb20-02aeaaf65fa5","ios":"levelo://app?vid=d2be997d-44d2-40a5-bb20-02aeaaf65fa5"},"vehicle_type_id":"4","last_reported":1692720484,"current_range_meters":31200,"station_id":"ce4bgt12rcd13ifvqcd0","pricing_plan_id":"free"},{"bike_id":"1368a3e0-28f3-4e5e-b011-498f6c766530","system_id":"levelo_inurba_marseille","lat":43.314811,"lon":5.373103,"is_reserved":false,"is_disabled":false,"rental_uris":{"android":"levelo://app?vid=1368a3e0-28f3-4e5e-b011-498f6c766530","ios":"levelo://app?vid=1368a3e0-28f3-4e5e-b011-498f6c766530"},"vehicle_type_id":"4","last_reported":1692720484,"current_range_meters":19600,"station_id":"ce4bgt12rcd13ifvqcd0","pricing_plan_id":"free"},{"bike_id":"19123ef0-eb86-46ed-9024-9f6bc6ba0268","system_id":"levelo_inurba_marseille","lat":43.314811,"lon":5.373104,"is_reserved":false,"is_disabled":false,"rental_uris":{"android":"levelo://app?vid=19123ef0-eb86-46ed-9024-9f6bc6ba0268","ios":"levelo://app?vid=19123ef0-eb86-46ed-9024-9f6bc6ba0268"},"vehicle_type_id":"4","last_reported":1692720484,"current_range_meters":19200,"station_id":"ce4bgt12rcd13ifvqcd0","pricing_plan_id":"free"},{"bike_id":"8e54f9d8-2e32-4b94-8648-41ed53d56bac","system_id":"levelo_inurba_marseille","lat":43.314811,"lon":5.373104,"is_reserved":false,"is_disabled":false,"rental_uris":{"android":"levelo://app?vid=8e54f9d8-2e32-4b94-8648-41ed53d56bac","ios":"levelo://app?vid=8e54f9d8-2e32-4b94-8648-41ed53d56bac"},"vehicle_type_id":"4","last_reported":1692720484,"current_range_meters":26000,"station_id":"ce4bgt12rcd13ifvqcd0","pricing_plan_id":"free"},{"bike_id":"46740717-cd70-47aa-90e0-377232f2cae9","system_id":"levelo_inurba_marseille","lat":43.30979,"lon":5.37523,"is_reserved":false,"is_disabled":false,"rental_uris":{"android":"levelo://app?vid=46740717-cd70-47aa-90e0-377232f2cae9","ios":"levelo://app?vid=46740717-cd70-47aa-90e0-377232f2cae9"},"vehicle_type_id":"4","last_reported":1692720484,"current_range_meters":24400,"station_id":"","pricing_plan_id":"free"},{"bike_id":"9fbe6e18-d192-44c2-98b5-cafb68b41aa4","system_id":"levelo_inurba_marseille","lat":43.30547,"lon":5.36531,"is_reserved":false,"is_disabled":false,"rental_uris":{"android":"levelo://app?vid=9fbe6e18-d192-44c2-98b5-cafb68b41aa4","ios":"levelo://app?vid=9fbe6e18-d192-44c2-98b5-cafb68b41aa4"},"vehicle_type_id":"4","last_reported":1692720484,"current_range_meters":26800,"station_id":"ce4bgs12rcd13ifvqcag","pricing_plan_id":"free"},{"bike_id":"2ea15f08-b1c7-4396-8ddc-807f9676418a","system_id":"levelo_inurba_marseille","lat":43.305706,"lon":5.365654,"is_reserved":false,"is_disabled":false,"rental_uris":{"android":"levelo://app?vid=2ea15f08-b1c7-4396-8ddc-807f9676418a","ios":"levelo://app?vid=2ea15f08-b1c7-4396-8ddc-807f9676418a"},"vehicle_type_id":"4","last_reported":1692720484,"current_range_meters":800,"station_id":"ce4bgs12rcd13ifvqcag","pricing_plan_id":"free"},{"bike_id":"e8211030-0ab9-4b99-99ec-c35257400282","system_id":"levelo_inurba_marseille","lat":43.305706,"lon":5.365654,"is_reserved":false,"is_disabled":false,"rental_uris":{"android":"levelo://app?vid=e8211030-0ab9-4b99-99ec-c35257400282","ios":"levelo://app?vid=e8211030-0ab9-4b99-99ec-c35257400282"},"vehicle_type_id":"4","last_reported":1692720484,"current_range_meters":6000,"station_id":"ce4bgs12rcd13ifvqcag","pricing_plan_id":"free"},{"bike_id":"4b3c9d7e-cf07-409f-8a4e-3aea98fdbe36","system_id":"levelo_inurba_marseille","lat":43.311125,"lon":5.377624,"is_reserved":false,"is_disabled":false,"rental_uris":{"android":"levelo://app?vid=4b3c9d7e-cf07-409f-8a4e-3aea98fdbe36","ios":"levelo://app?vid=4b3c9d7e-cf07-409f-8a4e-3aea98fdbe36"},"vehicle_type_id":"4","last_reported":1692720484,"current_range_meters":1200,"station_id":"ce4bgt92rcd13ifvqcg0","pricing_plan_id":"free"},{"bike_id":"d296570f-a0e5-48db-8e5d-127829758c7c","system_id":"levelo_inurba_marseille","lat":43.307945,"lon":5.376487,"is_reserved":false,"is_disabled":false,"rental_uris":{"android":"levelo://app?vid=d296570f-a0e5-48db-8e5d-127829758c7c","ios":"levelo://app?vid=d296570f-a0e5-48db-8e5d-127829758c7c"},"vehicle_type_id":"4","last_reported":1692720484,"current_range_meters":12800,"station_id":"ce4bgv92rcd13ifvqcq0","pricing_plan_id":"free"},{"bike_id":"67e3e492-5923-4e7c-bad1-2c434a4ad97a","system_id":"levelo_inurba_marseille","lat":43.30787,"lon":5.37654,"is_reserved":false,"is_disabled":false,"rental_uris":{"android":"levelo://app?vid=67e3e492-5923-4e7c-bad1-2c434a4ad97a","ios":"levelo://app?vid=67e3e492-5923-4e7c-bad1-2c434a4ad97a"},"vehicle_type_id":"4","last_reported":1692720484,"current_range_meters":28000,"station_id":"ce4bgv92rcd13ifvqcq0","pricing_plan_id":"free"},{"bike_id":"37033d89-7799-4440-881a-fd642f17fa21","system_id":"levelo_inurba_marseille","lat":43.30781,"lon":5.37652,"is_reserved":false,"is_disabled":false,"rental_uris":{"android":"levelo://app?vid=37033d89-7799-4440-881a-fd642f17fa21","ios":"levelo://app?vid=37033d89-7799-4440-881a-fd642f17fa21"},"vehicle_type_id":"4","last_reported":1692720484,"current_range_meters":24400,"station_id":"ce4bgv92rcd13ifvqcq0","pricing_plan_id":"free"},{"bike_id":"502c42a6-18b9-4765-9ae2-651bb338e23d","system_id":"levelo_inurba_marseille","lat":43.317075,"lon":5.377367,"is_reserved":false,"is_disabled":false,"rental_uris":{"android":"levelo://app?vid=502c42a6-18b9-4765-9ae2-651bb338e23d","ios":"levelo://app?vid=502c42a6-18b9-4765-9ae2-651bb338e23d"},"vehicle_type_id":"4","last_reported":1692720484,"current_range_meters":16000,"station_id":"ce4bgth2rcd13ifvqch0","pricing_plan_id":"free"},{"bike_id":"874e34a8-80c1-4d79-8e18-aa1bd38adad4","system_id":"levelo_inurba_marseille","lat":43.317065,"lon":5.377313,"is_reserved":false,"is_disabled":false,"rental_uris":{"android":"levelo://app?vid=874e34a8-80c1-4d79-8e18-aa1bd38adad4","ios":"levelo://app?vid=874e34a8-80c1-4d79-8e18-aa1bd38adad4"},"vehicle_type_id":"4","last_reported":1692720484,"current_range_meters":0,"station_id":"ce4bgth2rcd13ifvqch0","pricing_plan_id":"free"},{"bike_id":"c4b030e3-cbec-46d9-a581-33d015edac1f","system_id":"levelo_inurba_marseille","lat":43.308068,"lon":5.38141,"is_reserved":false,"is_disabled":false,"rental_uris":{"android":"levelo://app?vid=c4b030e3-cbec-46d9-a581-33d015edac1f","ios":"levelo://app?vid=c4b030e3-cbec-46d9-a581-33d015edac1f"},"vehicle_type_id":"4","last_reported":1692720484,"current_range_meters":400,"station_id":"ce4bgt12rcd13ifvqce0","pricing_plan_id":"free"},{"bike_id":"3440c1df-0a89-4693-9840-12676b95c510","system_id":"levelo_inurba_marseille","lat":43.307898,"lon":5.381549,"is_reserved":false,"is_disabled":false,"rental_uris":{"android":"levelo://app?vid=3440c1df-0a89-4693-9840-12676b95c510","ios":"levelo://app?vid=3440c1df-0a89-4693-9840-12676b95c510"},"vehicle_type_id":"4","last_reported":1692720484,"current_range_meters":0,"station_id":"ce4bgt92rcd13ifvqcg0","pricing_plan_id":"free"},{"bike_id":"a4a9c0d5-42b8-431d-9e63-d22a4e78236f","system_id":"levelo_inurba_marseille","lat":43.299468,"lon":5.365599,"is_reserved":false,"is_disabled":false,"rental_uris":{"android":"levelo://app?vid=a4a9c0d5-42b8-431d-9e63-d22a4e78236f","ios":"levelo://app?vid=a4a9c0d5-42b8-431d-9e63-d22a4e78236f"},"vehicle_type_id":"4","last_reported":1692720484,"current_range_meters":25200,"station_id":"ce4bgm92rcd13ifvqbr0","pricing_plan_id":"free"},{"bike_id":"59c3cf74-6510-4312-8264-4f21fc9c7a6c","system_id":"levelo_inurba_marseille","lat":43.299444,"lon":5.365653,"is_reserved":false,"is_disabled":false,"rental_uris":{"android":"levelo://app?vid=59c3cf74-6510-4312-8264-4f21fc9c7a6c","ios":"levelo://app?vid=59c3cf74-6510-4312-8264-4f21fc9c7a6c"},"vehicle_type_id":"4","last_reported":1692720484,"current_range_meters":20800,"station_id":"ce4bgm92rcd13ifvqbr0","pricing_plan_id":"free"},{"bike_id":"48636904-10fd-4629-b694-96375127c501","system_id":"levelo_inurba_marseille","lat":43.299442,"lon":5.365659,"is_reserved":false,"is_disabled":false,"rental_uris":{"android":"levelo://app?vid=48636904-10fd-4629-b694-96375127c501","ios":"levelo://app?vid=48636904-10fd-4629-b694-96375127c501"},"vehicle_type_id":"4","last_reported":1692720484,"current_range_meters":27600,"station_id":"ce4bgm92rcd13ifvqbr0","pricing_plan_id":"free"},{"bike_id":"3bc58bd7-6fe9-4847-bf9d-e43727ad0051","system_id":"levelo_inurba_marseille","lat":43.299222,"lon":5.365554,"is_reserved":false,"is_disabled":false,"rental_uris":{"android":"levelo://app?vid=3bc58bd7-6fe9-4847-bf9d-e43727ad0051","ios":"levelo://app?vid=3bc58bd7-6fe9-4847-bf9d-e43727ad0051"},"vehicle_type_id":"4","last_reported":1692720484,"current_range_meters":27600,"station_id":"ce4bgm92rcd13ifvqbr0","pricing_plan_id":"free"},{"bike_id":"ee3c19a9-1337-4ecf-a160-0ea30cb72bcc","system_id":"levelo_inurba_marseille","lat":43.299222,"lon":5.365554,"is_reserved":false,"is_disabled":false,"rental_uris":{"android":"levelo://app?vid=ee3c19a9-1337-4ecf-a160-0ea30cb72bcc","ios":"levelo://app?vid=ee3c19a9-1337-4ecf-a160-0ea30cb72bcc"},"vehicle_type_id":"4","last_reported":1692720484,"current_range_meters":19200,"station_id":"ce4bgm92rcd13ifvqbr0","pricing_plan_id":"free"},{"bike_id":"c09e5bcf-db01-456c-a15f-21b1b1e1bb24","system_id":"levelo_inurba_marseille","lat":43.299364,"lon":5.365649,"is_reserved":false,"is_disabled":false,"rental_uris":{"android":"levelo://app?vid=c09e5bcf-db01-456c-a15f-21b1b1e1bb24","ios":"levelo://app?vid=c09e5bcf-db01-456c-a15f-21b1b1e1bb24"},"vehicle_type_id":"4","last_reported":1692720484,"current_range_meters":21200,"station_id":"ce4bgm92rcd13ifvqbr0","pricing_plan_id":"free"},{"bike_id":"95dc9ecf-047e-4c3a-bb12-a5676cb36ad4","system_id":"levelo_inurba_marseille","lat":43.3216,"lon":5.38166,"is_reserved":false,"is_disabled":false,"rental_uris":{"android":"levelo://app?vid=95dc9ecf-047e-4c3a-bb12-a5676cb36ad4","ios":"levelo://app?vid=95dc9ecf-047e-4c3a-bb12-a5676cb36ad4"},"vehicle_type_id":"4","last_reported":1692720484,"current_range_meters":6800,"station_id":"","pricing_plan_id":"free"},{"bike_id":"60c25d77-05e2-422e-b34f-33103fa953ce","system_id":"levelo_inurba_marseille","lat":43.29853,"lon":5.36289,"is_reserved":false,"is_disabled":false,"rental_uris":{"android":"levelo://app?vid=60c25d77-05e2-422e-b34f-33103fa953ce","ios":"levelo://app?vid=60c25d77-05e2-422e-b34f-33103fa953ce"},"vehicle_type_id":"4","last_reported":1692720484,"current_range_meters":28000,"station_id":"ce4bgpp2rcd13ifvqc3g","pricing_plan_id":"free"},{"bike_id":"b885f463-e8c5-42cc-902f-7152167ce1c7","system_id":"levelo_inurba_marseille","lat":43.299243,"lon":5.37481,"is_reserved":false,"is_disabled":false,"rental_uris":{"android":"levelo://app?vid=b885f463-e8c5-42cc-902f-7152167ce1c7","ios":"levelo://app?vid=b885f463-e8c5-42cc-902f-7152167ce1c7"},"vehicle_type_id":"4","last_reported":1692720484,"current_range_meters":31200,"station_id":"ce4bgjh2rcd13ifvqbg0","pricing_plan_id":"free"},{"bike_id":"48773837-8a01-4137-95bb-600dc54ff51e","system_id":"levelo_inurba_marseille","lat":43.32293,"lon":5.38245,"is_reserved":false,"is_disabled":false,"rental_uris":{"android":"levelo://app?vid=48773837-8a01-4137-95bb-600dc54ff51e","ios":"levelo://app?vid=48773837-8a01-4137-95bb-600dc54ff51e"},"vehicle_type_id":"4","last_reported":1692720484,"current_range_meters":28000,"station_id":"ce4bhr12rcd13ifvqhqg","pricing_plan_id":"free"},{"bike_id":"8bcf9cf7-1543-4ae7-aa4b-2516edc50a09","system_id":"levelo_inurba_marseille","lat":43.32826,"lon":5.36692,"is_reserved":false,"is_disabled":false,"rental_uris":{"android":"levelo://app?vid=8bcf9cf7-1543-4ae7-aa4b-2516edc50a09","ios":"levelo://app?vid=8bcf9cf7-1543-4ae7-aa4b-2516edc50a09"},"vehicle_type_id":"4","last_reported":1692720484,"current_range_meters":11200,"station_id":"ce4bhs92rcd13ifvqi0g","pricing_plan_id":"free"},{"bike_id":"eb70974a-c524-46d9-b5be-026bf2b9f1f4","system_id":"levelo_inurba_marseille","lat":43.32832,"lon":5.36696,"is_reserved":false,"is_disabled":false,"rental_uris":{"android":"levelo://app?vid=eb70974a-c524-46d9-b5be-026bf2b9f1f4","ios":"levelo://app?vid=eb70974a-c524-46d9-b5be-026bf2b9f1f4"},"vehicle_type_id":"4","last_reported":1692720484,"current_range_meters":20400,"station_id":"ce4bhs92rcd13ifvqi0g","pricing_plan_id":"free"},{"bike_id":"c4f64bda-f78b-44c7-8bdb-9d067cd420a4","system_id":"levelo_inurba_marseille","lat":43.32833,"lon":5.36677,"is_reserved":false,"is_disabled":false,"rental_uris":{"android":"levelo://app?vid=c4f64bda-f78b-44c7-8bdb-9d067cd420a4","ios":"levelo://app?vid=c4f64bda-f78b-44c7-8bdb-9d067cd420a4"},"vehicle_type_id":"4","last_reported":1692720484,"current_range_meters":24400,"station_id":"ce4bhs92rcd13ifvqi0g","pricing_plan_id":"free"},{"bike_id":"dd789220-e7b5-42c1-b9dc-dc4243148021","system_id":"levelo_inurba_marseille","lat":43.297163,"lon":5.365866,"is_reserved":false,"is_disabled":false,"rental_uris":{"android":"levelo://app?vid=dd789220-e7b5-42c1-b9dc-dc4243148021","ios":"levelo://app?vid=dd789220-e7b5-42c1-b9dc-dc4243148021"},"vehicle_type_id":"4","last_reported":1692720484,"current_range_meters":31200,"station_id":"ce4bgn12rcd13ifvqbt0","pricing_plan_id":"free"},{"bike_id":"a520c0e4-9a3e-4c8b-a582-27a7a0b5eb34","system_id":"levelo_inurba_marseille","lat":43.32848,"lon":5.36678,"is_reserved":false,"is_disabled":false,"rental_uris":{"android":"levelo://app?vid=a520c0e4-9a3e-4c8b-a582-27a7a0b5eb34","ios":"levelo://app?vid=a520c0e4-9a3e-4c8b-a582-27a7a0b5eb34"},"vehicle_type_id":"4","last_reported":1692720484,"current_range_meters":16800,"station_id":"ce4bhs92rcd13ifvqi0g","pricing_plan_id":"free"},{"bike_id":"bb155e93-116e-494a-9911-2df351c7dae8","system_id":"levelo_inurba_marseille","lat":43.29626,"lon":5.37162,"is_reserved":false,"is_disabled":false,"rental_uris":{"android":"levelo://app?vid=bb155e93-116e-494a-9911-2df351c7dae8","ios":"levelo://app?vid=bb155e93-116e-494a-9911-2df351c7dae8"},"vehicle_type_id":"4","last_reported":1692720484,"current_range_meters":28800,"station_id":"","pricing_plan_id":"free"},{"bike_id":"f7f517e8-f9d9-47c7-bb4f-977516ccfb7d","system_id":"levelo_inurba_marseille","lat":43.296131,"lon":5.370773,"is_reserved":false,"is_disabled":false,"rental_uris":{"android":"levelo://app?vid=f7f517e8-f9d9-47c7-bb4f-977516ccfb7d","ios":"levelo://app?vid=f7f517e8-f9d9-47c7-bb4f-977516ccfb7d"},"vehicle_type_id":"4","last_reported":1692720484,"current_range_meters":19600,"station_id":"ce4bgnh2rcd13ifvqc0g","pricing_plan_id":"free"},{"bike_id":"d3139180-8ba9-4c91-b6e4-8baae3c22113","system_id":"levelo_inurba_marseille","lat":43.29623,"lon":5.37153,"is_reserved":false,"is_disabled":false,"rental_uris":{"android":"levelo://app?vid=d3139180-8ba9-4c91-b6e4-8baae3c22113","ios":"levelo://app?vid=d3139180-8ba9-4c91-b6e4-8baae3c22113"},"vehicle_type_id":"4","last_reported":1692720484,"current_range_meters":30400,"station_id":"","pricing_plan_id":"free"},{"bike_id":"2c93ce6f-c5e1-4ec9-9941-ebb7469bb8f2","system_id":"levelo_inurba_marseille","lat":43.31744,"lon":5.39004,"is_reserved":false,"is_disabled":false,"rental_uris":{"android":"levelo://app?vid=2c93ce6f-c5e1-4ec9-9941-ebb7469bb8f2","ios":"levelo://app?vid=2c93ce6f-c5e1-4ec9-9941-ebb7469bb8f2"},"vehicle_type_id":"4","last_reported":1692720484,"current_range_meters":26800,"station_id":"ce4bhqp2rcd13ifvqhng","pricing_plan_id":"free"},{"bike_id":"a4df99ce-0488-49dd-a888-94686f562e88","system_id":"levelo_inurba_marseille","lat":43.29568,"lon":5.37497,"is_reserved":false,"is_disabled":false,"rental_uris":{"android":"levelo://app?vid=a4df99ce-0488-49dd-a888-94686f562e88","ios":"levelo://app?vid=a4df99ce-0488-49dd-a888-94686f562e88"},"vehicle_type_id":"4","last_reported":1692720484,"current_range_meters":30400,"station_id":"ce4bgh92rcd13ifvqb50","pricing_plan_id":"free"},{"bike_id":"e3d9ed97-0919-4bd0-88f4-8b98c7f7924e","system_id":"levelo_inurba_marseille","lat":43.309038,"lon":5.396546,"is_reserved":false,"is_disabled":false,"rental_uris":{"android":"levelo://app?vid=e3d9ed97-0919-4bd0-88f4-8b98c7f7924e","ios":"levelo://app?vid=e3d9ed97-0919-4bd0-88f4-8b98c7f7924e"},"vehicle_type_id":"4","last_reported":1692720484,"current_range_meters":24400,"station_id":"ce4bh012rcd13ifvqcv0","pricing_plan_id":"free"},{"bike_id":"c0151a4a-f5cc-4158-b0eb-74d09c466385","system_id":"levelo_inurba_marseille","lat":43.296263,"lon":5.377094,"is_reserved":false,"is_disabled":false,"rental_uris":{"android":"levelo://app?vid=c0151a4a-f5cc-4158-b0eb-74d09c466385","ios":"levelo://app?vid=c0151a4a-f5cc-4158-b0eb-74d09c466385"},"vehicle_type_id":"4","last_reported":1692720484,"current_range_meters":19600,"station_id":"ce4bgi92rcd13ifvqb90","pricing_plan_id":"free"},{"bike_id":"00883cd9-a56a-4720-bb55-237d0136a4a1","system_id":"levelo_inurba_marseille","lat":43.32367,"lon":5.388836,"is_reserved":false,"is_disabled":false,"rental_uris":{"android":"levelo://app?vid=00883cd9-a56a-4720-bb55-237d0136a4a1","ios":"levelo://app?vid=00883cd9-a56a-4720-bb55-237d0136a4a1"},"vehicle_type_id":"4","last_reported":1692720484,"current_range_meters":13200,"station_id":"ce4bhqp2rcd13ifvqhog","pricing_plan_id":"free"},{"bike_id":"d97cd9b4-0c3c-4d11-9a9a-6d72cf9f12d9","system_id":"levelo_inurba_marseille","lat":43.292749,"lon":5.368398,"is_reserved":false,"is_disabled":false,"rental_uris":{"android":"levelo://app?vid=d97cd9b4-0c3c-4d11-9a9a-6d72cf9f12d9","ios":"levelo://app?vid=d97cd9b4-0c3c-4d11-9a9a-6d72cf9f12d9"},"vehicle_type_id":"4","last_reported":1692720484,"current_range_meters":9200,"station_id":"ce4bhbp2rcd13ifvqesg","pricing_plan_id":"free"},{"bike_id":"6c76a33c-43bd-4e9b-8c61-85a4bd8683f4","system_id":"levelo_inurba_marseille","lat":43.29308,"lon":5.371809,"is_reserved":false,"is_disabled":false,"rental_uris":{"android":"levelo://app?vid=6c76a33c-43bd-4e9b-8c61-85a4bd8683f4","ios":"levelo://app?vid=6c76a33c-43bd-4e9b-8c61-85a4bd8683f4"},"vehicle_type_id":"4","last_reported":1692720484,"current_range_meters":31200,"station_id":"ce4bgh92rcd13ifvqb40","pricing_plan_id":"free"},{"bike_id":"ac389af0-e60a-4333-84bb-5bc768df03f8","system_id":"levelo_inurba_marseille","lat":43.292749,"lon":5.368398,"is_reserved":false,"is_disabled":false,"rental_uris":{"android":"levelo://app?vid=ac389af0-e60a-4333-84bb-5bc768df03f8","ios":"levelo://app?vid=ac389af0-e60a-4333-84bb-5bc768df03f8"},"vehicle_type_id":"4","last_reported":1692720484,"current_range_meters":8400,"station_id":"ce4bhbp2rcd13ifvqesg","pricing_plan_id":"free"},{"bike_id":"81d75c78-6eb6-4e98-9585-5e4210f13644","system_id":"levelo_inurba_marseille","lat":43.292749,"lon":5.368402,"is_reserved":false,"is_disabled":false,"rental_uris":{"android":"levelo://app?vid=81d75c78-6eb6-4e98-9585-5e4210f13644","ios":"levelo://app?vid=81d75c78-6eb6-4e98-9585-5e4210f13644"},"vehicle_type_id":"4","last_reported":1692720484,"current_range_meters":28000,"station_id":"ce4bhbp2rcd13ifvqesg","pricing_plan_id":"free"},{"bike_id":"d8519647-19ce-4c78-b0d1-6a2314908389","system_id":"levelo_inurba_marseille","lat":43.31878,"lon":5.39342,"is_reserved":false,"is_disabled":false,"rental_uris":{"android":"levelo://app?vid=d8519647-19ce-4c78-b0d1-6a2314908389","ios":"levelo://app?vid=d8519647-19ce-4c78-b0d1-6a2314908389"},"vehicle_type_id":"4","last_reported":1692720484,"current_range_meters":26800,"station_id":"","pricing_plan_id":"free"},{"bike_id":"38fef587-7cc5-4800-b069-87b8f296a10a","system_id":"levelo_inurba_marseille","lat":43.29301,"lon":5.37479,"is_reserved":false,"is_disabled":false,"rental_uris":{"android":"levelo://app?vid=38fef587-7cc5-4800-b069-87b8f296a10a","ios":"levelo://app?vid=38fef587-7cc5-4800-b069-87b8f296a10a"},"vehicle_type_id":"4","last_reported":1692720484,"current_range_meters":31200,"station_id":"ce4bgi12rcd13ifvqb70","pricing_plan_id":"free"},{"bike_id":"39fbc1a4-6601-4b68-9366-3b1684a26a2f","system_id":"levelo_inurba_marseille","lat":43.305994,"lon":5.393687,"is_reserved":false,"is_disabled":false,"rental_uris":{"android":"levelo://app?vid=39fbc1a4-6601-4b68-9366-3b1684a26a2f","ios":"levelo://app?vid=39fbc1a4-6601-4b68-9366-3b1684a26a2f"},"vehicle_type_id":"4","last_reported":1692720484,"current_range_meters":24000,"station_id":"ce4bh0p2rcd13ifvqd80","pricing_plan_id":"free"},{"bike_id":"0724f352-a262-45b7-9b71-9a09ff17d945","system_id":"levelo_inurba_marseille","lat":43.30298,"lon":5.39211,"is_reserved":false,"is_disabled":false,"rental_uris":{"android":"levelo://app?vid=0724f352-a262-45b7-9b71-9a09ff17d945","ios":"levelo://app?vid=0724f352-a262-45b7-9b71-9a09ff17d945"},"vehicle_type_id":"4","last_reported":1692720484,"current_range_meters":31200,"station_id":"ce4bgkh2rcd13ifvqbk0","pricing_plan_id":"free"},{"bike_id":"81586475-e1f7-4d87-8927-91e4febd2b3e","system_id":"levelo_inurba_marseille","lat":43.311722,"lon":5.387247,"is_reserved":false,"is_disabled":false,"rental_uris":{"android":"levelo://app?vid=81586475-e1f7-4d87-8927-91e4febd2b3e","ios":"levelo://app?vid=81586475-e1f7-4d87-8927-91e4febd2b3e"},"vehicle_type_id":"4","last_reported":1692720484,"current_range_meters":30000,"station_id":"ce4bgv12rcd13ifvqcp0","pricing_plan_id":"free"},{"bike_id":"65554f08-e5b6-4873-8b68-308e60e36735","system_id":"levelo_inurba_marseille","lat":43.291675,"lon":5.371583,"is_reserved":false,"is_disabled":false,"rental_uris":{"android":"levelo://app?vid=65554f08-e5b6-4873-8b68-308e60e36735","ios":"levelo://app?vid=65554f08-e5b6-4873-8b68-308e60e36735"},"vehicle_type_id":"4","last_reported":1692720484,"current_range_meters":23200,"station_id":"ce4bha92rcd13ifvqeh0","pricing_plan_id":"free"},{"bike_id":"160efc86-9782-472e-99f0-6833b9d7b5cb","system_id":"levelo_inurba_marseille","lat":43.29455,"lon":5.383,"is_reserved":false,"is_disabled":false,"rental_uris":{"android":"levelo://app?vid=160efc86-9782-472e-99f0-6833b9d7b5cb","ios":"levelo://app?vid=160efc86-9782-472e-99f0-6833b9d7b5cb"},"vehicle_type_id":"4","last_reported":1692720484,"current_range_meters":10400,"station_id":"","pricing_plan_id":"free"},{"bike_id":"46621bef-cb3e-4f2e-bc41-75527e8bebfe","system_id":"levelo_inurba_marseille","lat":43.291994,"lon":5.357886,"is_reserved":false,"is_disabled":false,"rental_uris":{"android":"levelo://app?vid=46621bef-cb3e-4f2e-bc41-75527e8bebfe","ios":"levelo://app?vid=46621bef-cb3e-4f2e-bc41-75527e8bebfe"},"vehicle_type_id":"4","last_reported":1692720484,"current_range_meters":10800,"station_id":"ce4bhb12rcd13ifvqel0","pricing_plan_id":"free"},{"bike_id":"5979625b-508f-4355-9a27-438b75b97f53","system_id":"levelo_inurba_marseille","lat":43.290779,"lon":5.371482,"is_reserved":false,"is_disabled":false,"rental_uris":{"android":"levelo://app?vid=5979625b-508f-4355-9a27-438b75b97f53","ios":"levelo://app?vid=5979625b-508f-4355-9a27-438b75b97f53"},"vehicle_type_id":"4","last_reported":1692720484,"current_range_meters":23200,"station_id":"ce4bh5p2rcd13ifvqe4g","pricing_plan_id":"free"},{"bike_id":"39b5b5cf-86ef-48ea-a176-58e554756417","system_id":"levelo_inurba_marseille","lat":43.30213,"lon":5.39464,"is_reserved":false,"is_disabled":false,"rental_uris":{"android":"levelo://app?vid=39b5b5cf-86ef-48ea-a176-58e554756417","ios":"levelo://app?vid=39b5b5cf-86ef-48ea-a176-58e554756417"},"vehicle_type_id":"4","last_reported":1692720484,"current_range_meters":31200,"station_id":"ce4bh0p2rcd13ifvqd70","pricing_plan_id":"free"},{"bike_id":"75f7c254-a6a7-4954-a278-b91d93e0ba16","system_id":"levelo_inurba_marseille","lat":43.30215,"lon":5.39468,"is_reserved":false,"is_disabled":false,"rental_uris":{"android":"levelo://app?vid=75f7c254-a6a7-4954-a278-b91d93e0ba16","ios":"levelo://app?vid=75f7c254-a6a7-4954-a278-b91d93e0ba16"},"vehicle_type_id":"4","last_reported":1692720484,"current_range_meters":12000,"station_id":"ce4bh0p2rcd13ifvqd70","pricing_plan_id":"free"},{"bike_id":"0efca0d8-6f32-43fa-ba12-a742a42051c6","system_id":"levelo_inurba_marseille","lat":43.290631,"lon":5.359244,"is_reserved":false,"is_disabled":false,"rental_uris":{"android":"levelo://app?vid=0efca0d8-6f32-43fa-ba12-a742a42051c6","ios":"levelo://app?vid=0efca0d8-6f32-43fa-ba12-a742a42051c6"},"vehicle_type_id":"4","last_reported":1692720484,"current_range_meters":15600,"station_id":"ce4bha92rcd13ifvqeg0","pricing_plan_id":"free"},{"bike_id":"e8aa809e-5a31-4a13-b377-2ebf8afea908","system_id":"levelo_inurba_marseille","lat":43.290631,"lon":5.359244,"is_reserved":false,"is_disabled":false,"rental_uris":{"android":"levelo://app?vid=e8aa809e-5a31-4a13-b377-2ebf8afea908","ios":"levelo://app?vid=e8aa809e-5a31-4a13-b377-2ebf8afea908"},"vehicle_type_id":"4","last_reported":1692720484,"current_range_meters":18400,"station_id":"ce4bha92rcd13ifvqeg0","pricing_plan_id":"free"},{"bike_id":"7e598db8-4ddb-4503-a8ca-f68ea528a26a","system_id":"levelo_inurba_marseille","lat":43.289184,"lon":5.366408,"is_reserved":false,"is_disabled":false,"rental_uris":{"android":"levelo://app?vid=7e598db8-4ddb-4503-a8ca-f68ea528a26a","ios":"levelo://app?vid=7e598db8-4ddb-4503-a8ca-f68ea528a26a"},"vehicle_type_id":"4","last_reported":1692720484,"current_range_meters":3200,"station_id":"ce4bhap2rcd13ifvqek0","pricing_plan_id":"free"},{"bike_id":"64358803-e406-4a42-9ceb-f80ba38f4001","system_id":"levelo_inurba_marseille","lat":43.289184,"lon":5.366408,"is_reserved":false,"is_disabled":false,"rental_uris":{"android":"levelo://app?vid=64358803-e406-4a42-9ceb-f80ba38f4001","ios":"levelo://app?vid=64358803-e406-4a42-9ceb-f80ba38f4001"},"vehicle_type_id":"4","last_reported":1692720484,"current_range_meters":2800,"station_id":"ce4bhap2rcd13ifvqek0","pricing_plan_id":"free"},{"bike_id":"c4959edf-c032-4427-9850-a4c1400088ea","system_id":"levelo_inurba_marseille","lat":43.292644,"lon":5.384257,"is_reserved":false,"is_disabled":false,"rental_uris":{"android":"levelo://app?vid=c4959edf-c032-4427-9850-a4c1400088ea","ios":"levelo://app?vid=c4959edf-c032-4427-9850-a4c1400088ea"},"vehicle_type_id":"4","last_reported":1692720484,"current_range_meters":2800,"station_id":"ce4bh692rcd13ifvqea0","pricing_plan_id":"free"},{"bike_id":"131031c5-c844-4a3d-87cb-c3ce05800651","system_id":"levelo_inurba_marseille","lat":43.292576,"lon":5.384467,"is_reserved":false,"is_disabled":false,"rental_uris":{"android":"levelo://app?vid=131031c5-c844-4a3d-87cb-c3ce05800651","ios":"levelo://app?vid=131031c5-c844-4a3d-87cb-c3ce05800651"},"vehicle_type_id":"4","last_reported":1692720484,"current_range_meters":2000,"station_id":"","pricing_plan_id":"free"},{"bike_id":"ae12a8f0-200d-4c74-9e8f-dd19d9d9f868","system_id":"levelo_inurba_marseille","lat":43.30509,"lon":5.39808,"is_reserved":false,"is_disabled":false,"rental_uris":{"android":"levelo://app?vid=ae12a8f0-200d-4c74-9e8f-dd19d9d9f868","ios":"levelo://app?vid=ae12a8f0-200d-4c74-9e8f-dd19d9d9f868"},"vehicle_type_id":"4","last_reported":1692720484,"current_range_meters":6000,"station_id":"","pricing_plan_id":"free"},{"bike_id":"845aae74-d4e3-4b5b-be10-990c1a3c2086","system_id":"levelo_inurba_marseille","lat":43.33044,"lon":5.38909,"is_reserved":false,"is_disabled":false,"rental_uris":{"android":"levelo://app?vid=845aae74-d4e3-4b5b-be10-990c1a3c2086","ios":"levelo://app?vid=845aae74-d4e3-4b5b-be10-990c1a3c2086"},"vehicle_type_id":"4","last_reported":1692720484,"current_range_meters":30000,"station_id":"ce4bhr92rcd13ifvqhrg","pricing_plan_id":"free"},{"bike_id":"7ac95083-ab67-40e1-bed3-765ad8375501","system_id":"levelo_inurba_marseille","lat":43.290103,"lon":5.356114,"is_reserved":false,"is_disabled":false,"rental_uris":{"android":"levelo://app?vid=7ac95083-ab67-40e1-bed3-765ad8375501","ios":"levelo://app?vid=7ac95083-ab67-40e1-bed3-765ad8375501"},"vehicle_type_id":"4","last_reported":1692720484,"current_range_meters":26800,"station_id":"ce4bhb92rcd13ifvqen0","pricing_plan_id":"free"},{"bike_id":"7691d65d-d321-467f-86e8-b26ac6013c5b","system_id":"levelo_inurba_marseille","lat":43.33043,"lon":5.38917,"is_reserved":false,"is_disabled":false,"rental_uris":{"android":"levelo://app?vid=7691d65d-d321-467f-86e8-b26ac6013c5b","ios":"levelo://app?vid=7691d65d-d321-467f-86e8-b26ac6013c5b"},"vehicle_type_id":"4","last_reported":1692720484,"current_range_meters":28400,"station_id":"ce4bhr92rcd13ifvqhrg","pricing_plan_id":"free"},{"bike_id":"b0e0ae0a-2bc1-4a56-890f-24dc2485e7d8","system_id":"levelo_inurba_marseille","lat":43.33041,"lon":5.38921,"is_reserved":false,"is_disabled":false,"rental_uris":{"android":"levelo://app?vid=b0e0ae0a-2bc1-4a56-890f-24dc2485e7d8","ios":"levelo://app?vid=b0e0ae0a-2bc1-4a56-890f-24dc2485e7d8"},"vehicle_type_id":"4","last_reported":1692720484,"current_range_meters":25600,"station_id":"ce4bhr92rcd13ifvqhrg","pricing_plan_id":"free"},{"bike_id":"856f3c8d-21d6-4acf-a255-c22dda35e3c3","system_id":"levelo_inurba_marseille","lat":43.297815,"lon":5.393548,"is_reserved":false,"is_disabled":false,"rental_uris":{"android":"levelo://app?vid=856f3c8d-21d6-4acf-a255-c22dda35e3c3","ios":"levelo://app?vid=856f3c8d-21d6-4acf-a255-c22dda35e3c3"},"vehicle_type_id":"4","last_reported":1692720484,"current_range_meters":28800,"station_id":"chh1huq6cuj3fo74tm60","pricing_plan_id":"free"},{"bike_id":"13018d12-c8ba-4392-97be-8e4b339d4bc8","system_id":"levelo_inurba_marseille","lat":43.29529,"lon":5.39034,"is_reserved":false,"is_disabled":false,"rental_uris":{"android":"levelo://app?vid=13018d12-c8ba-4392-97be-8e4b339d4bc8","ios":"levelo://app?vid=13018d12-c8ba-4392-97be-8e4b339d4bc8"},"vehicle_type_id":"4","last_reported":1692720484,"current_range_meters":27600,"station_id":"ce4bh3p2rcd13ifvqdp0","pricing_plan_id":"free"},{"bike_id":"c61a3dd6-c9ad-401e-b1f4-f01856ffa7f0","system_id":"levelo_inurba_marseille","lat":43.295169,"lon":5.390426,"is_reserved":false,"is_disabled":false,"rental_uris":{"android":"levelo://app?vid=c61a3dd6-c9ad-401e-b1f4-f01856ffa7f0","ios":"levelo://app?vid=c61a3dd6-c9ad-401e-b1f4-f01856ffa7f0"},"vehicle_type_id":"4","last_reported":1692720484,"current_range_meters":18800,"station_id":"ce4bh3p2rcd13ifvqdp0","pricing_plan_id":"free"},{"bike_id":"0a676965-df78-4f37-ab0b-61455c2add6a","system_id":"levelo_inurba_marseille","lat":43.295169,"lon":5.390426,"is_reserved":false,"is_disabled":false,"rental_uris":{"android":"levelo://app?vid=0a676965-df78-4f37-ab0b-61455c2add6a","ios":"levelo://app?vid=0a676965-df78-4f37-ab0b-61455c2add6a"},"vehicle_type_id":"4","last_reported":1692720484,"current_range_meters":15600,"station_id":"ce4bh3p2rcd13ifvqdp0","pricing_plan_id":"free"},{"bike_id":"1c613973-e3b3-43b3-9d11-92d4a26d7002","system_id":"levelo_inurba_marseille","lat":43.28856,"lon":5.358371,"is_reserved":false,"is_disabled":false,"rental_uris":{"android":"levelo://app?vid=1c613973-e3b3-43b3-9d11-92d4a26d7002","ios":"levelo://app?vid=1c613973-e3b3-43b3-9d11-92d4a26d7002"},"vehicle_type_id":"4","last_reported":1692720484,"current_range_meters":25200,"station_id":"ce4bhb12rcd13ifvqem0","pricing_plan_id":"free"},{"bike_id":"21fa2dcc-31d6-407a-a178-e34946ce771c","system_id":"levelo_inurba_marseille","lat":43.28856,"lon":5.358371,"is_reserved":false,"is_disabled":false,"rental_uris":{"android":"levelo://app?vid=21fa2dcc-31d6-407a-a178-e34946ce771c","ios":"levelo://app?vid=21fa2dcc-31d6-407a-a178-e34946ce771c"},"vehicle_type_id":"4","last_reported":1692720484,"current_range_meters":22400,"station_id":"ce4bhb12rcd13ifvqem0","pricing_plan_id":"free"},{"bike_id":"50fe1aa2-24b8-4206-940d-11ed83538c3b","system_id":"levelo_inurba_marseille","lat":43.28853,"lon":5.35852,"is_reserved":false,"is_disabled":false,"rental_uris":{"android":"levelo://app?vid=50fe1aa2-24b8-4206-940d-11ed83538c3b","ios":"levelo://app?vid=50fe1aa2-24b8-4206-940d-11ed83538c3b"},"vehicle_type_id":"4","last_reported":1692720484,"current_range_meters":24000,"station_id":"ce4bhb12rcd13ifvqem0","pricing_plan_id":"free"},{"bike_id":"1552fbcd-4014-4a80-9cc7-03326871bbb9","system_id":"levelo_inurba_marseille","lat":43.28856,"lon":5.358371,"is_reserved":false,"is_disabled":false,"rental_uris":{"android":"levelo://app?vid=1552fbcd-4014-4a80-9cc7-03326871bbb9","ios":"levelo://app?vid=1552fbcd-4014-4a80-9cc7-03326871bbb9"},"vehicle_type_id":"4","last_reported":1692720484,"current_range_meters":29200,"station_id":"ce4bhb12rcd13ifvqem0","pricing_plan_id":"free"},{"bike_id":"c33237db-5a74-417c-aaa4-e55e112e4852","system_id":"levelo_inurba_marseille","lat":43.28856,"lon":5.358371,"is_reserved":false,"is_disabled":false,"rental_uris":{"android":"levelo://app?vid=c33237db-5a74-417c-aaa4-e55e112e4852","ios":"levelo://app?vid=c33237db-5a74-417c-aaa4-e55e112e4852"},"vehicle_type_id":"4","last_reported":1692720484,"current_range_meters":10400,"station_id":"ce4bhb12rcd13ifvqem0","pricing_plan_id":"free"},{"bike_id":"c90b663e-9e74-46dc-8091-7b267a4ceaec","system_id":"levelo_inurba_marseille","lat":43.282754,"lon":5.350519,"is_reserved":false,"is_disabled":false,"rental_uris":{"android":"levelo://app?vid=c90b663e-9e74-46dc-8091-7b267a4ceaec","ios":"levelo://app?vid=c90b663e-9e74-46dc-8091-7b267a4ceaec"},"vehicle_type_id":"4","last_reported":1692720484,"current_range_meters":9200,"station_id":"ce4bhbp2rcd13ifvqerg","pricing_plan_id":"free"},{"bike_id":"c60e1654-3906-492c-8b7d-3d946b868a19","system_id":"levelo_inurba_marseille","lat":43.301117,"lon":5.398795,"is_reserved":false,"is_disabled":false,"rental_uris":{"android":"levelo://app?vid=c60e1654-3906-492c-8b7d-3d946b868a19","ios":"levelo://app?vid=c60e1654-3906-492c-8b7d-3d946b868a19"},"vehicle_type_id":"4","last_reported":1692720484,"current_range_meters":1600,"station_id":"ce4bh0h2rcd13ifvqd40","pricing_plan_id":"free"},{"bike_id":"e68bdb96-87f6-4ccb-91c1-6c35e8660404","system_id":"levelo_inurba_marseille","lat":43.301117,"lon":5.398795,"is_reserved":false,"is_disabled":false,"rental_uris":{"android":"levelo://app?vid=e68bdb96-87f6-4ccb-91c1-6c35e8660404","ios":"levelo://app?vid=e68bdb96-87f6-4ccb-91c1-6c35e8660404"},"vehicle_type_id":"4","last_reported":1692720484,"current_range_meters":13600,"station_id":"ce4bh0h2rcd13ifvqd40","pricing_plan_id":"free"},{"bike_id":"ef97c2c3-f8b3-476a-969e-090a09b774bf","system_id":"levelo_inurba_marseille","lat":43.286961,"lon":5.373785,"is_reserved":false,"is_disabled":false,"rental_uris":{"android":"levelo://app?vid=ef97c2c3-f8b3-476a-969e-090a09b774bf","ios":"levelo://app?vid=ef97c2c3-f8b3-476a-969e-090a09b774bf"},"vehicle_type_id":"4","last_reported":1692720484,"current_range_meters":14800,"station_id":"ce4bh3p2rcd13ifvqdq0","pricing_plan_id":"free"},{"bike_id":"a6afc93a-7eec-44a5-b6df-6b1ff588fdca","system_id":"levelo_inurba_marseille","lat":43.298681,"lon":5.397225,"is_reserved":false,"is_disabled":false,"rental_uris":{"android":"levelo://app?vid=a6afc93a-7eec-44a5-b6df-6b1ff588fdca","ios":"levelo://app?vid=a6afc93a-7eec-44a5-b6df-6b1ff588fdca"},"vehicle_type_id":"4","last_reported":1692720484,"current_range_meters":2400,"station_id":"ce4bh0h2rcd13ifvqd50","pricing_plan_id":"free"},{"bike_id":"75199276-b705-4ad7-b6a9-49aeaa84628a","system_id":"levelo_inurba_marseille","lat":43.286591,"lon":5.363346,"is_reserved":false,"is_disabled":false,"rental_uris":{"android":"levelo://app?vid=75199276-b705-4ad7-b6a9-49aeaa84628a","ios":"levelo://app?vid=75199276-b705-4ad7-b6a9-49aeaa84628a"},"vehicle_type_id":"4","last_reported":1692720484,"current_range_meters":28800,"station_id":"ce4bhah2rcd13ifvqej0","pricing_plan_id":"free"},{"bike_id":"ce7f906e-da31-4b3d-acf7-9616f4802948","system_id":"levelo_inurba_marseille","lat":43.298681,"lon":5.397225,"is_reserved":false,"is_disabled":false,"rental_uris":{"android":"levelo://app?vid=ce7f906e-da31-4b3d-acf7-9616f4802948","ios":"levelo://app?vid=ce7f906e-da31-4b3d-acf7-9616f4802948"},"vehicle_type_id":"4","last_reported":1692720484,"current_range_meters":26000,"station_id":"ce4bh0h2rcd13ifvqd50","pricing_plan_id":"free"},{"bike_id":"63a55652-4181-4493-84b4-a582f82dafbe","system_id":"levelo_inurba_marseille","lat":43.286961,"lon":5.373785,"is_reserved":false,"is_disabled":false,"rental_uris":{"android":"levelo://app?vid=63a55652-4181-4493-84b4-a582f82dafbe","ios":"levelo://app?vid=63a55652-4181-4493-84b4-a582f82dafbe"},"vehicle_type_id":"4","last_reported":1692720484,"current_range_meters":24000,"station_id":"ce4bh3p2rcd13ifvqdq0","pricing_plan_id":"free"},{"bike_id":"a041d171-547b-4203-98f0-e3e177cac9df","system_id":"levelo_inurba_marseille","lat":43.295196,"lon":5.39397,"is_reserved":false,"is_disabled":false,"rental_uris":{"android":"levelo://app?vid=a041d171-547b-4203-98f0-e3e177cac9df","ios":"levelo://app?vid=a041d171-547b-4203-98f0-e3e177cac9df"},"vehicle_type_id":"4","last_reported":1692720484,"current_range_meters":26400,"station_id":"ce4bh292rcd13ifvqdf0","pricing_plan_id":"free"},{"bike_id":"8b5d4d01-fc30-415b-ae97-7ad900ca008f","system_id":"levelo_inurba_marseille","lat":43.295196,"lon":5.39397,"is_reserved":false,"is_disabled":false,"rental_uris":{"android":"levelo://app?vid=8b5d4d01-fc30-415b-ae97-7ad900ca008f","ios":"levelo://app?vid=8b5d4d01-fc30-415b-ae97-7ad900ca008f"},"vehicle_type_id":"4","last_reported":1692720484,"current_range_meters":24000,"station_id":"ce4bh292rcd13ifvqdf0","pricing_plan_id":"free"},{"bike_id":"aafe72ca-7d7b-499e-9cd8-5cd3eeaa1bee","system_id":"levelo_inurba_marseille","lat":43.302759,"lon":5.400793,"is_reserved":false,"is_disabled":false,"rental_uris":{"android":"levelo://app?vid=aafe72ca-7d7b-499e-9cd8-5cd3eeaa1bee","ios":"levelo://app?vid=aafe72ca-7d7b-499e-9cd8-5cd3eeaa1bee"},"vehicle_type_id":"4","last_reported":1692720484,"current_range_meters":2400,"station_id":"ce4bgvh2rcd13ifvqcs0","pricing_plan_id":"free"},{"bike_id":"7029f3c9-66d6-4bbc-beab-faba0a72cb53","system_id":"levelo_inurba_marseille","lat":43.290345,"lon":5.38646,"is_reserved":false,"is_disabled":false,"rental_uris":{"android":"levelo://app?vid=7029f3c9-66d6-4bbc-beab-faba0a72cb53","ios":"levelo://app?vid=7029f3c9-66d6-4bbc-beab-faba0a72cb53"},"vehicle_type_id":"4","last_reported":1692720484,"current_range_meters":7600,"station_id":"ce4bh4p2rcd13ifvqe0g","pricing_plan_id":"free"},{"bike_id":"7f3a94ed-cf82-4904-b528-2ab8dbce6659","system_id":"levelo_inurba_marseille","lat":43.29026,"lon":5.38639,"is_reserved":false,"is_disabled":false,"rental_uris":{"android":"levelo://app?vid=7f3a94ed-cf82-4904-b528-2ab8dbce6659","ios":"levelo://app?vid=7f3a94ed-cf82-4904-b528-2ab8dbce6659"},"vehicle_type_id":"4","last_reported":1692720484,"current_range_meters":22800,"station_id":"","pricing_plan_id":"free"},{"bike_id":"b4d526eb-38d7-479e-9bc5-f93f036960a2","system_id":"levelo_inurba_marseille","lat":43.302759,"lon":5.400793,"is_reserved":false,"is_disabled":false,"rental_uris":{"android":"levelo://app?vid=b4d526eb-38d7-479e-9bc5-f93f036960a2","ios":"levelo://app?vid=b4d526eb-38d7-479e-9bc5-f93f036960a2"},"vehicle_type_id":"4","last_reported":1692720484,"current_range_meters":13600,"station_id":"ce4bgvh2rcd13ifvqcs0","pricing_plan_id":"free"},{"bike_id":"54dba959-db57-4709-87c6-8bbe0ec3bbfc","system_id":"levelo_inurba_marseille","lat":43.287184,"lon":5.37937,"is_reserved":false,"is_disabled":false,"rental_uris":{"android":"levelo://app?vid=54dba959-db57-4709-87c6-8bbe0ec3bbfc","ios":"levelo://app?vid=54dba959-db57-4709-87c6-8bbe0ec3bbfc"},"vehicle_type_id":"4","last_reported":1692720484,"current_range_meters":800,"station_id":"ce4bh9p2rcd13ifvqec0","pricing_plan_id":"free"},{"bike_id":"bcb01398-34d6-48f8-9fc1-b29ea1fea7a4","system_id":"levelo_inurba_marseille","lat":43.287184,"lon":5.37937,"is_reserved":false,"is_disabled":false,"rental_uris":{"android":"levelo://app?vid=bcb01398-34d6-48f8-9fc1-b29ea1fea7a4","ios":"levelo://app?vid=bcb01398-34d6-48f8-9fc1-b29ea1fea7a4"},"vehicle_type_id":"4","last_reported":1692720484,"current_range_meters":18800,"station_id":"ce4bh9p2rcd13ifvqec0","pricing_plan_id":"free"},{"bike_id":"8b7a2b4f-546d-4fd0-ad55-2ff8ffd536cb","system_id":"levelo_inurba_marseille","lat":43.287184,"lon":5.37937,"is_reserved":false,"is_disabled":false,"rental_uris":{"android":"levelo://app?vid=8b7a2b4f-546d-4fd0-ad55-2ff8ffd536cb","ios":"levelo://app?vid=8b7a2b4f-546d-4fd0-ad55-2ff8ffd536cb"},"vehicle_type_id":"4","last_reported":1692720484,"current_range_meters":18000,"station_id":"ce4bh9p2rcd13ifvqec0","pricing_plan_id":"free"},{"bike_id":"ba2db1fe-a160-4b96-b9e1-664fc19cea58","system_id":"levelo_inurba_marseille","lat":43.287185,"lon":5.379373,"is_reserved":false,"is_disabled":false,"rental_uris":{"android":"levelo://app?vid=ba2db1fe-a160-4b96-b9e1-664fc19cea58","ios":"levelo://app?vid=ba2db1fe-a160-4b96-b9e1-664fc19cea58"},"vehicle_type_id":"4","last_reported":1692720484,"current_range_meters":15600,"station_id":"ce4bh9p2rcd13ifvqec0","pricing_plan_id":"free"},{"bike_id":"0d41508b-5ff7-445c-acfa-5688d202334e","system_id":"levelo_inurba_marseille","lat":43.28713,"lon":5.37941,"is_reserved":false,"is_disabled":false,"rental_uris":{"android":"levelo://app?vid=0d41508b-5ff7-445c-acfa-5688d202334e","ios":"levelo://app?vid=0d41508b-5ff7-445c-acfa-5688d202334e"},"vehicle_type_id":"4","last_reported":1692720484,"current_range_meters":2000,"station_id":"","pricing_plan_id":"free"},{"bike_id":"7da9e437-1e79-4b5f-9ab0-65254ac17dd7","system_id":"levelo_inurba_marseille","lat":43.31648,"lon":5.40437,"is_reserved":false,"is_disabled":false,"rental_uris":{"android":"levelo://app?vid=7da9e437-1e79-4b5f-9ab0-65254ac17dd7","ios":"levelo://app?vid=7da9e437-1e79-4b5f-9ab0-65254ac17dd7"},"vehicle_type_id":"4","last_reported":1692720484,"current_range_meters":31600,"station_id":"ce4bh012rcd13ifvqd00","pricing_plan_id":"free"},{"bike_id":"1c48c146-e01e-40d0-a743-c3428a600569","system_id":"levelo_inurba_marseille","lat":43.284538,"lon":5.358657,"is_reserved":false,"is_disabled":false,"rental_uris":{"android":"levelo://app?vid=1c48c146-e01e-40d0-a743-c3428a600569","ios":"levelo://app?vid=1c48c146-e01e-40d0-a743-c3428a600569"},"vehicle_type_id":"4","last_reported":1692720484,"current_range_meters":3200,"station_id":"ce4bhah2rcd13ifvqei0","pricing_plan_id":"free"},{"bike_id":"81fca833-f817-4ab8-84a6-ea1b96cc6fd6","system_id":"levelo_inurba_marseille","lat":43.284538,"lon":5.358657,"is_reserved":false,"is_disabled":false,"rental_uris":{"android":"levelo://app?vid=81fca833-f817-4ab8-84a6-ea1b96cc6fd6","ios":"levelo://app?vid=81fca833-f817-4ab8-84a6-ea1b96cc6fd6"},"vehicle_type_id":"4","last_reported":1692720484,"current_range_meters":7200,"station_id":"ce4bhah2rcd13ifvqei0","pricing_plan_id":"free"},{"bike_id":"83e86dc2-594a-4fcc-99d6-592c0a53e025","system_id":"levelo_inurba_marseille","lat":43.294314,"lon":5.397498,"is_reserved":false,"is_disabled":false,"rental_uris":{"android":"levelo://app?vid=83e86dc2-594a-4fcc-99d6-592c0a53e025","ios":"levelo://app?vid=83e86dc2-594a-4fcc-99d6-592c0a53e025"},"vehicle_type_id":"4","last_reported":1692720484,"current_range_meters":11200,"station_id":"ce4bh3h2rcd13ifvqdo0","pricing_plan_id":"free"},{"bike_id":"f15fa71e-cc70-49d2-9f2d-f7baf6c8f7db","system_id":"levelo_inurba_marseille","lat":43.294314,"lon":5.397498,"is_reserved":false,"is_disabled":false,"rental_uris":{"android":"levelo://app?vid=f15fa71e-cc70-49d2-9f2d-f7baf6c8f7db","ios":"levelo://app?vid=f15fa71e-cc70-49d2-9f2d-f7baf6c8f7db"},"vehicle_type_id":"4","last_reported":1692720484,"current_range_meters":18000,"station_id":"ce4bh3h2rcd13ifvqdo0","pricing_plan_id":"free"},{"bike_id":"131705e6-f384-49d0-aa24-36e8a7d17912","system_id":"levelo_inurba_marseille","lat":43.2862,"lon":5.35111,"is_reserved":false,"is_disabled":false,"rental_uris":{"android":"levelo://app?vid=131705e6-f384-49d0-aa24-36e8a7d17912","ios":"levelo://app?vid=131705e6-f384-49d0-aa24-36e8a7d17912"},"vehicle_type_id":"4","last_reported":1692720484,"current_range_meters":10400,"station_id":"ce4bhch2rcd13ifvqeug","pricing_plan_id":"free"},{"bike_id":"0d6821ab-9dca-42f2-9888-aef2badebd20","system_id":"levelo_inurba_marseille","lat":43.2862,"lon":5.35106,"is_reserved":false,"is_disabled":false,"rental_uris":{"android":"levelo://app?vid=0d6821ab-9dca-42f2-9888-aef2badebd20","ios":"levelo://app?vid=0d6821ab-9dca-42f2-9888-aef2badebd20"},"vehicle_type_id":"4","last_reported":1692720484,"current_range_meters":29600,"station_id":"ce4bhch2rcd13ifvqeug","pricing_plan_id":"free"},{"bike_id":"8078e323-ec50-4871-9a9f-fa3b24975a11","system_id":"levelo_inurba_marseille","lat":43.285856,"lon":5.350771,"is_reserved":false,"is_disabled":false,"rental_uris":{"android":"levelo://app?vid=8078e323-ec50-4871-9a9f-fa3b24975a11","ios":"levelo://app?vid=8078e323-ec50-4871-9a9f-fa3b24975a11"},"vehicle_type_id":"4","last_reported":1692720484,"current_range_meters":31200,"station_id":"ce4bhch2rcd13ifvqeug","pricing_plan_id":"free"},{"bike_id":"2fb706f0-92b0-43c0-a0ec-c39aa0db220c","system_id":"levelo_inurba_marseille","lat":43.2862,"lon":5.35103,"is_reserved":false,"is_disabled":false,"rental_uris":{"android":"levelo://app?vid=2fb706f0-92b0-43c0-a0ec-c39aa0db220c","ios":"levelo://app?vid=2fb706f0-92b0-43c0-a0ec-c39aa0db220c"},"vehicle_type_id":"4","last_reported":1692720484,"current_range_meters":28400,"station_id":"ce4bhch2rcd13ifvqeug","pricing_plan_id":"free"},{"bike_id":"f670e8c9-f8b6-4b4a-897a-e6ffe2931da8","system_id":"levelo_inurba_marseille","lat":43.28617,"lon":5.3511,"is_reserved":false,"is_disabled":false,"rental_uris":{"android":"levelo://app?vid=f670e8c9-f8b6-4b4a-897a-e6ffe2931da8","ios":"levelo://app?vid=f670e8c9-f8b6-4b4a-897a-e6ffe2931da8"},"vehicle_type_id":"4","last_reported":1692720484,"current_range_meters":26000,"station_id":"ce4bhch2rcd13ifvqeug","pricing_plan_id":"free"},{"bike_id":"25918e11-4dea-4965-9979-d793dd53b173","system_id":"levelo_inurba_marseille","lat":43.28619,"lon":5.351,"is_reserved":false,"is_disabled":false,"rental_uris":{"android":"levelo://app?vid=25918e11-4dea-4965-9979-d793dd53b173","ios":"levelo://app?vid=25918e11-4dea-4965-9979-d793dd53b173"},"vehicle_type_id":"4","last_reported":1692720484,"current_range_meters":31200,"station_id":"ce4bhch2rcd13ifvqeug","pricing_plan_id":"free"},{"bike_id":"6bbe974b-7c27-4a29-a7ee-11a5e4f31584","system_id":"levelo_inurba_marseille","lat":43.28619,"lon":5.351,"is_reserved":false,"is_disabled":false,"rental_uris":{"android":"levelo://app?vid=6bbe974b-7c27-4a29-a7ee-11a5e4f31584","ios":"levelo://app?vid=6bbe974b-7c27-4a29-a7ee-11a5e4f31584"},"vehicle_type_id":"4","last_reported":1692720484,"current_range_meters":24800,"station_id":"ce4bhch2rcd13ifvqeug","pricing_plan_id":"free"},{"bike_id":"0629c5b9-f673-46ff-a93d-942d4a6f321c","system_id":"levelo_inurba_marseille","lat":43.28619,"lon":5.35099,"is_reserved":false,"is_disabled":false,"rental_uris":{"android":"levelo://app?vid=0629c5b9-f673-46ff-a93d-942d4a6f321c","ios":"levelo://app?vid=0629c5b9-f673-46ff-a93d-942d4a6f321c"},"vehicle_type_id":"4","last_reported":1692720484,"current_range_meters":31200,"station_id":"ce4bhch2rcd13ifvqeug","pricing_plan_id":"free"},{"bike_id":"52c236de-7130-4d40-a6bf-f0b9e6085659","system_id":"levelo_inurba_marseille","lat":43.28617,"lon":5.35104,"is_reserved":false,"is_disabled":false,"rental_uris":{"android":"levelo://app?vid=52c236de-7130-4d40-a6bf-f0b9e6085659","ios":"levelo://app?vid=52c236de-7130-4d40-a6bf-f0b9e6085659"},"vehicle_type_id":"4","last_reported":1692720484,"current_range_meters":17200,"station_id":"ce4bhch2rcd13ifvqeug","pricing_plan_id":"free"},{"bike_id":"faa9f4c1-9f99-4256-aa53-07103553689a","system_id":"levelo_inurba_marseille","lat":43.28616,"lon":5.35105,"is_reserved":false,"is_disabled":false,"rental_uris":{"android":"levelo://app?vid=faa9f4c1-9f99-4256-aa53-07103553689a","ios":"levelo://app?vid=faa9f4c1-9f99-4256-aa53-07103553689a"},"vehicle_type_id":"4","last_reported":1692720484,"current_range_meters":14400,"station_id":"ce4bhch2rcd13ifvqeug","pricing_plan_id":"free"},{"bike_id":"bd9be685-db05-4921-86d6-17a18186f3d5","system_id":"levelo_inurba_marseille","lat":43.28618,"lon":5.35098,"is_reserved":false,"is_disabled":false,"rental_uris":{"android":"levelo://app?vid=bd9be685-db05-4921-86d6-17a18186f3d5","ios":"levelo://app?vid=bd9be685-db05-4921-86d6-17a18186f3d5"},"vehicle_type_id":"4","last_reported":1692720484,"current_range_meters":30000,"station_id":"ce4bhch2rcd13ifvqeug","pricing_plan_id":"free"},{"bike_id":"c7c2cf17-253f-4b8d-a47d-7136af8156af","system_id":"levelo_inurba_marseille","lat":43.28615,"lon":5.35104,"is_reserved":false,"is_disabled":false,"rental_uris":{"android":"levelo://app?vid=c7c2cf17-253f-4b8d-a47d-7136af8156af","ios":"levelo://app?vid=c7c2cf17-253f-4b8d-a47d-7136af8156af"},"vehicle_type_id":"4","last_reported":1692720484,"current_range_meters":25200,"station_id":"ce4bhch2rcd13ifvqeug","pricing_plan_id":"free"},{"bike_id":"9f447a9f-be6b-4b1d-b9ef-d87fa99811a2","system_id":"levelo_inurba_marseille","lat":43.28612,"lon":5.35111,"is_reserved":false,"is_disabled":false,"rental_uris":{"android":"levelo://app?vid=9f447a9f-be6b-4b1d-b9ef-d87fa99811a2","ios":"levelo://app?vid=9f447a9f-be6b-4b1d-b9ef-d87fa99811a2"},"vehicle_type_id":"4","last_reported":1692720484,"current_range_meters":13200,"station_id":"ce4bhch2rcd13ifvqeug","pricing_plan_id":"free"},{"bike_id":"111d18bb-72d4-440a-a602-10dbebf1f0cb","system_id":"levelo_inurba_marseille","lat":43.28616,"lon":5.35098,"is_reserved":false,"is_disabled":false,"rental_uris":{"android":"levelo://app?vid=111d18bb-72d4-440a-a602-10dbebf1f0cb","ios":"levelo://app?vid=111d18bb-72d4-440a-a602-10dbebf1f0cb"},"vehicle_type_id":"4","last_reported":1692720484,"current_range_meters":22000,"station_id":"ce4bhch2rcd13ifvqeug","pricing_plan_id":"free"},{"bike_id":"35eec3a1-aa54-4990-8eb4-78e6c0dd24d0","system_id":"levelo_inurba_marseille","lat":43.28616,"lon":5.35096,"is_reserved":false,"is_disabled":false,"rental_uris":{"android":"levelo://app?vid=35eec3a1-aa54-4990-8eb4-78e6c0dd24d0","ios":"levelo://app?vid=35eec3a1-aa54-4990-8eb4-78e6c0dd24d0"},"vehicle_type_id":"4","last_reported":1692720484,"current_range_meters":18400,"station_id":"ce4bhch2rcd13ifvqeug","pricing_plan_id":"free"},{"bike_id":"f92c4d62-67b8-48d5-a447-e53302a3a1b3","system_id":"levelo_inurba_marseille","lat":43.28614,"lon":5.35102,"is_reserved":false,"is_disabled":false,"rental_uris":{"android":"levelo://app?vid=f92c4d62-67b8-48d5-a447-e53302a3a1b3","ios":"levelo://app?vid=f92c4d62-67b8-48d5-a447-e53302a3a1b3"},"vehicle_type_id":"4","last_reported":1692720484,"current_range_meters":14800,"station_id":"ce4bhch2rcd13ifvqeug","pricing_plan_id":"free"},{"bike_id":"4c280fed-1d3b-41fb-a4ff-55ff4161035f","system_id":"levelo_inurba_marseille","lat":43.28613,"lon":5.35105,"is_reserved":false,"is_disabled":false,"rental_uris":{"android":"levelo://app?vid=4c280fed-1d3b-41fb-a4ff-55ff4161035f","ios":"levelo://app?vid=4c280fed-1d3b-41fb-a4ff-55ff4161035f"},"vehicle_type_id":"4","last_reported":1692720484,"current_range_meters":6000,"station_id":"ce4bhch2rcd13ifvqeug","pricing_plan_id":"free"},{"bike_id":"6636bc4f-b515-49f1-91c3-418da5015f7e","system_id":"levelo_inurba_marseille","lat":43.295713,"lon":5.399639,"is_reserved":false,"is_disabled":false,"rental_uris":{"android":"levelo://app?vid=6636bc4f-b515-49f1-91c3-418da5015f7e","ios":"levelo://app?vid=6636bc4f-b515-49f1-91c3-418da5015f7e"},"vehicle_type_id":"4","last_reported":1692720484,"current_range_meters":1200,"station_id":"ce4bh312rcd13ifvqdj0","pricing_plan_id":"free"},{"bike_id":"07730106-e1db-4a5f-bbb0-421ac04b1e24","system_id":"levelo_inurba_marseille","lat":43.28611,"lon":5.35099,"is_reserved":false,"is_disabled":false,"rental_uris":{"android":"levelo://app?vid=07730106-e1db-4a5f-bbb0-421ac04b1e24","ios":"levelo://app?vid=07730106-e1db-4a5f-bbb0-421ac04b1e24"},"vehicle_type_id":"4","last_reported":1692720484,"current_range_meters":31200,"station_id":"ce4bhch2rcd13ifvqeug","pricing_plan_id":"free"},{"bike_id":"c79fc806-2366-454a-b3bb-184194542a76","system_id":"levelo_inurba_marseille","lat":43.283998,"lon":5.375062,"is_reserved":false,"is_disabled":false,"rental_uris":{"android":"levelo://app?vid=c79fc806-2366-454a-b3bb-184194542a76","ios":"levelo://app?vid=c79fc806-2366-454a-b3bb-184194542a76"},"vehicle_type_id":"4","last_reported":1692720484,"current_range_meters":28400,"station_id":"ce4bh412rcd13ifvqds0","pricing_plan_id":"free"},{"bike_id":"9feeda98-59bc-4417-b4b9-0ba6b87fd99f","system_id":"levelo_inurba_marseille","lat":43.284151,"lon":5.375005,"is_reserved":false,"is_disabled":false,"rental_uris":{"android":"levelo://app?vid=9feeda98-59bc-4417-b4b9-0ba6b87fd99f","ios":"levelo://app?vid=9feeda98-59bc-4417-b4b9-0ba6b87fd99f"},"vehicle_type_id":"4","last_reported":1692720484,"current_range_meters":13200,"station_id":"ce4bh412rcd13ifvqds0","pricing_plan_id":"free"},{"bike_id":"2363d3b5-6c15-401a-a59c-ee80bd4af927","system_id":"levelo_inurba_marseille","lat":43.28415,"lon":5.37522,"is_reserved":false,"is_disabled":false,"rental_uris":{"android":"levelo://app?vid=2363d3b5-6c15-401a-a59c-ee80bd4af927","ios":"levelo://app?vid=2363d3b5-6c15-401a-a59c-ee80bd4af927"},"vehicle_type_id":"4","last_reported":1692720484,"current_range_meters":8800,"station_id":"ce4bh412rcd13ifvqds0","pricing_plan_id":"free"},{"bike_id":"07a56b11-adca-48a9-ba25-d9571a649c41","system_id":"levelo_inurba_marseille","lat":43.283998,"lon":5.375062,"is_reserved":false,"is_disabled":false,"rental_uris":{"android":"levelo://app?vid=07a56b11-adca-48a9-ba25-d9571a649c41","ios":"levelo://app?vid=07a56b11-adca-48a9-ba25-d9571a649c41"},"vehicle_type_id":"4","last_reported":1692720484,"current_range_meters":0,"station_id":"ce4bh412rcd13ifvqds0","pricing_plan_id":"free"},{"bike_id":"78dcff5c-b6fe-4b54-bc30-90b5cc95887f","system_id":"levelo_inurba_marseille","lat":43.283998,"lon":5.375062,"is_reserved":false,"is_disabled":false,"rental_uris":{"android":"levelo://app?vid=78dcff5c-b6fe-4b54-bc30-90b5cc95887f","ios":"levelo://app?vid=78dcff5c-b6fe-4b54-bc30-90b5cc95887f"},"vehicle_type_id":"4","last_reported":1692720484,"current_range_meters":17600,"station_id":"ce4bh412rcd13ifvqds0","pricing_plan_id":"free"},{"bike_id":"888fed6e-b32d-42ce-b3cf-c01ae2b300f9","system_id":"levelo_inurba_marseille","lat":43.28403,"lon":5.37512,"is_reserved":false,"is_disabled":false,"rental_uris":{"android":"levelo://app?vid=888fed6e-b32d-42ce-b3cf-c01ae2b300f9","ios":"levelo://app?vid=888fed6e-b32d-42ce-b3cf-c01ae2b300f9"},"vehicle_type_id":"4","last_reported":1692720484,"current_range_meters":3600,"station_id":"ce4bh412rcd13ifvqds0","pricing_plan_id":"free"},{"bike_id":"c9d9be77-825b-4479-8062-9363a13e7128","system_id":"levelo_inurba_marseille","lat":43.28401,"lon":5.37512,"is_reserved":false,"is_disabled":false,"rental_uris":{"android":"levelo://app?vid=c9d9be77-825b-4479-8062-9363a13e7128","ios":"levelo://app?vid=c9d9be77-825b-4479-8062-9363a13e7128"},"vehicle_type_id":"4","last_reported":1692720484,"current_range_meters":22000,"station_id":"ce4bh412rcd13ifvqds0","pricing_plan_id":"free"},{"bike_id":"c7d8dcd1-b68a-4252-90d2-02123df2710a","system_id":"levelo_inurba_marseille","lat":43.295713,"lon":5.399639,"is_reserved":false,"is_disabled":false,"rental_uris":{"android":"levelo://app?vid=c7d8dcd1-b68a-4252-90d2-02123df2710a","ios":"levelo://app?vid=c7d8dcd1-b68a-4252-90d2-02123df2710a"},"vehicle_type_id":"4","last_reported":1692720484,"current_range_meters":13600,"station_id":"ce4bh312rcd13ifvqdj0","pricing_plan_id":"free"},{"bike_id":"f931b1e4-b086-456e-92e9-412506f891d3","system_id":"levelo_inurba_marseille","lat":43.319179,"lon":5.407725,"is_reserved":false,"is_disabled":false,"rental_uris":{"android":"levelo://app?vid=f931b1e4-b086-456e-92e9-412506f891d3","ios":"levelo://app?vid=f931b1e4-b086-456e-92e9-412506f891d3"},"vehicle_type_id":"4","last_reported":1692720484,"current_range_meters":18400,"station_id":"ce4bhq12rcd13ifvqhig","pricing_plan_id":"free"},{"bike_id":"5898ffc0-0911-42a9-9d22-e2a8fb4da97f","system_id":"levelo_inurba_marseille","lat":43.319179,"lon":5.407725,"is_reserved":false,"is_disabled":false,"rental_uris":{"android":"levelo://app?vid=5898ffc0-0911-42a9-9d22-e2a8fb4da97f","ios":"levelo://app?vid=5898ffc0-0911-42a9-9d22-e2a8fb4da97f"},"vehicle_type_id":"4","last_reported":1692720484,"current_range_meters":27200,"station_id":"ce4bhq12rcd13ifvqhig","pricing_plan_id":"free"},{"bike_id":"4ca4c199-2b71-4416-99ae-754c8af0d44a","system_id":"levelo_inurba_marseille","lat":43.28503,"lon":5.35086,"is_reserved":false,"is_disabled":false,"rental_uris":{"android":"levelo://app?vid=4ca4c199-2b71-4416-99ae-754c8af0d44a","ios":"levelo://app?vid=4ca4c199-2b71-4416-99ae-754c8af0d44a"},"vehicle_type_id":"4","last_reported":1692720484,"current_range_meters":20000,"station_id":"","pricing_plan_id":"free"},{"bike_id":"9b736ed2-d601-448e-bdf6-cae1c14ab18b","system_id":"levelo_inurba_marseille","lat":43.30309,"lon":5.40623,"is_reserved":false,"is_disabled":false,"rental_uris":{"android":"levelo://app?vid=9b736ed2-d601-448e-bdf6-cae1c14ab18b","ios":"levelo://app?vid=9b736ed2-d601-448e-bdf6-cae1c14ab18b"},"vehicle_type_id":"4","last_reported":1692720484,"current_range_meters":7200,"station_id":"","pricing_plan_id":"free"},{"bike_id":"e73595c3-c7a3-494c-a441-dc925776ba8f","system_id":"levelo_inurba_marseille","lat":43.32178,"lon":5.4069,"is_reserved":false,"is_disabled":false,"rental_uris":{"android":"levelo://app?vid=e73595c3-c7a3-494c-a441-dc925776ba8f","ios":"levelo://app?vid=e73595c3-c7a3-494c-a441-dc925776ba8f"},"vehicle_type_id":"4","last_reported":1692720484,"current_range_meters":30000,"station_id":"","pricing_plan_id":"free"},{"bike_id":"bf99eff7-f48b-408d-b9ce-e998b753632b","system_id":"levelo_inurba_marseille","lat":43.33717,"lon":5.391857,"is_reserved":false,"is_disabled":false,"rental_uris":{"android":"levelo://app?vid=bf99eff7-f48b-408d-b9ce-e998b753632b","ios":"levelo://app?vid=bf99eff7-f48b-408d-b9ce-e998b753632b"},"vehicle_type_id":"4","last_reported":1692720484,"current_range_meters":8000,"station_id":"ce4bhr92rcd13ifvqhsg","pricing_plan_id":"free"},{"bike_id":"d06327ac-253c-40f7-8f93-f40f6c0ae589","system_id":"levelo_inurba_marseille","lat":43.29803,"lon":5.40399,"is_reserved":false,"is_disabled":false,"rental_uris":{"android":"levelo://app?vid=d06327ac-253c-40f7-8f93-f40f6c0ae589","ios":"levelo://app?vid=d06327ac-253c-40f7-8f93-f40f6c0ae589"},"vehicle_type_id":"4","last_reported":1692720484,"current_range_meters":29200,"station_id":"ce4bh112rcd13ifvqd90","pricing_plan_id":"free"},{"bike_id":"81207e02-e329-4cea-9b6c-33ba9c0267d2","system_id":"levelo_inurba_marseille","lat":43.284793,"lon":5.384119,"is_reserved":false,"is_disabled":false,"rental_uris":{"android":"levelo://app?vid=81207e02-e329-4cea-9b6c-33ba9c0267d2","ios":"levelo://app?vid=81207e02-e329-4cea-9b6c-33ba9c0267d2"},"vehicle_type_id":"4","last_reported":1692720484,"current_range_meters":31200,"station_id":"ce4bh512rcd13ifvqe3g","pricing_plan_id":"free"},{"bike_id":"be4afc8b-c325-43f9-8156-b14e570a4c29","system_id":"levelo_inurba_marseille","lat":43.28855,"lon":5.39308,"is_reserved":false,"is_disabled":false,"rental_uris":{"android":"levelo://app?vid=be4afc8b-c325-43f9-8156-b14e570a4c29","ios":"levelo://app?vid=be4afc8b-c325-43f9-8156-b14e570a4c29"},"vehicle_type_id":"4","last_reported":1692720484,"current_range_meters":4000,"station_id":"ce4bh2p2rcd13ifvqdi0","pricing_plan_id":"free"},{"bike_id":"2ea73967-988f-4f1a-aa76-7f33a11c4098","system_id":"levelo_inurba_marseille","lat":43.30674,"lon":5.40846,"is_reserved":false,"is_disabled":false,"rental_uris":{"android":"levelo://app?vid=2ea73967-988f-4f1a-aa76-7f33a11c4098","ios":"levelo://app?vid=2ea73967-988f-4f1a-aa76-7f33a11c4098"},"vehicle_type_id":"4","last_reported":1692720484,"current_range_meters":19200,"station_id":"","pricing_plan_id":"free"},{"bike_id":"92bf6422-0f8a-42ad-aa77-9ff30a1d32ae","system_id":"levelo_inurba_marseille","lat":43.284219,"lon":5.3497,"is_reserved":false,"is_disabled":false,"rental_uris":{"android":"levelo://app?vid=92bf6422-0f8a-42ad-aa77-9ff30a1d32ae","ios":"levelo://app?vid=92bf6422-0f8a-42ad-aa77-9ff30a1d32ae"},"vehicle_type_id":"4","last_reported":1692720484,"current_range_meters":31200,"station_id":"ce4bhbh2rcd13ifvqepg","pricing_plan_id":"free"},{"bike_id":"55d18651-dd85-4404-95ee-25622f724c4e","system_id":"levelo_inurba_marseille","lat":43.28423,"lon":5.34977,"is_reserved":false,"is_disabled":false,"rental_uris":{"android":"levelo://app?vid=55d18651-dd85-4404-95ee-25622f724c4e","ios":"levelo://app?vid=55d18651-dd85-4404-95ee-25622f724c4e"},"vehicle_type_id":"4","last_reported":1692720484,"current_range_meters":7200,"station_id":"ce4bhbh2rcd13ifvqepg","pricing_plan_id":"free"},{"bike_id":"0192ed1e-271e-4602-b673-284e31db0614","system_id":"levelo_inurba_marseille","lat":43.2842,"lon":5.34986,"is_reserved":false,"is_disabled":false,"rental_uris":{"android":"levelo://app?vid=0192ed1e-271e-4602-b673-284e31db0614","ios":"levelo://app?vid=0192ed1e-271e-4602-b673-284e31db0614"},"vehicle_type_id":"4","last_reported":1692720484,"current_range_meters":15600,"station_id":"ce4bhbh2rcd13ifvqepg","pricing_plan_id":"free"},{"bike_id":"505b2579-c3f1-4cac-89d1-6e18521825a9","system_id":"levelo_inurba_marseille","lat":43.28421,"lon":5.34979,"is_reserved":false,"is_disabled":false,"rental_uris":{"android":"levelo://app?vid=505b2579-c3f1-4cac-89d1-6e18521825a9","ios":"levelo://app?vid=505b2579-c3f1-4cac-89d1-6e18521825a9"},"vehicle_type_id":"4","last_reported":1692720484,"current_range_meters":19200,"station_id":"ce4bhbh2rcd13ifvqepg","pricing_plan_id":"free"},{"bike_id":"69f7af38-b6e6-49d0-a607-e66df3369a9c","system_id":"levelo_inurba_marseille","lat":43.284219,"lon":5.3497,"is_reserved":false,"is_disabled":false,"rental_uris":{"android":"levelo://app?vid=69f7af38-b6e6-49d0-a607-e66df3369a9c","ios":"levelo://app?vid=69f7af38-b6e6-49d0-a607-e66df3369a9c"},"vehicle_type_id":"4","last_reported":1692720484,"current_range_meters":29200,"station_id":"ce4bhbh2rcd13ifvqepg","pricing_plan_id":"free"},{"bike_id":"3dfe7921-ccd7-4c4b-85f3-ea4b59f7060c","system_id":"levelo_inurba_marseille","lat":43.284219,"lon":5.3497,"is_reserved":false,"is_disabled":false,"rental_uris":{"android":"levelo://app?vid=3dfe7921-ccd7-4c4b-85f3-ea4b59f7060c","ios":"levelo://app?vid=3dfe7921-ccd7-4c4b-85f3-ea4b59f7060c"},"vehicle_type_id":"4","last_reported":1692720484,"current_range_meters":20400,"station_id":"ce4bhbh2rcd13ifvqepg","pricing_plan_id":"free"},{"bike_id":"3ac58c3a-6cdc-4901-a81c-c8142912851c","system_id":"levelo_inurba_marseille","lat":43.284219,"lon":5.3497,"is_reserved":false,"is_disabled":false,"rental_uris":{"android":"levelo://app?vid=3ac58c3a-6cdc-4901-a81c-c8142912851c","ios":"levelo://app?vid=3ac58c3a-6cdc-4901-a81c-c8142912851c"},"vehicle_type_id":"4","last_reported":1692720484,"current_range_meters":21600,"station_id":"ce4bhbh2rcd13ifvqepg","pricing_plan_id":"free"},{"bike_id":"67427477-7a73-4378-bb50-f1edb7a3aecc","system_id":"levelo_inurba_marseille","lat":43.28419,"lon":5.34979,"is_reserved":false,"is_disabled":false,"rental_uris":{"android":"levelo://app?vid=67427477-7a73-4378-bb50-f1edb7a3aecc","ios":"levelo://app?vid=67427477-7a73-4378-bb50-f1edb7a3aecc"},"vehicle_type_id":"4","last_reported":1692720484,"current_range_meters":25200,"station_id":"ce4bhbh2rcd13ifvqepg","pricing_plan_id":"free"},{"bike_id":"3c3b5488-e143-4795-80b1-ce2c083d17bb","system_id":"levelo_inurba_marseille","lat":43.28418,"lon":5.34981,"is_reserved":false,"is_disabled":false,"rental_uris":{"android":"levelo://app?vid=3c3b5488-e143-4795-80b1-ce2c083d17bb","ios":"levelo://app?vid=3c3b5488-e143-4795-80b1-ce2c083d17bb"},"vehicle_type_id":"4","last_reported":1692720484,"current_range_meters":22800,"station_id":"ce4bhbh2rcd13ifvqepg","pricing_plan_id":"free"},{"bike_id":"3b9a36a8-4b3f-4ab9-bdf1-a3d9a86ad504","system_id":"levelo_inurba_marseille","lat":43.28418,"lon":5.3498,"is_reserved":false,"is_disabled":false,"rental_uris":{"android":"levelo://app?vid=3b9a36a8-4b3f-4ab9-bdf1-a3d9a86ad504","ios":"levelo://app?vid=3b9a36a8-4b3f-4ab9-bdf1-a3d9a86ad504"},"vehicle_type_id":"4","last_reported":1692720484,"current_range_meters":31200,"station_id":"ce4bhbh2rcd13ifvqepg","pricing_plan_id":"free"},{"bike_id":"a47739e2-5a65-4fff-8649-aa681873a54e","system_id":"levelo_inurba_marseille","lat":43.28419,"lon":5.34975,"is_reserved":false,"is_disabled":false,"rental_uris":{"android":"levelo://app?vid=a47739e2-5a65-4fff-8649-aa681873a54e","ios":"levelo://app?vid=a47739e2-5a65-4fff-8649-aa681873a54e"},"vehicle_type_id":"4","last_reported":1692720484,"current_range_meters":31200,"station_id":"ce4bhbh2rcd13ifvqepg","pricing_plan_id":"free"},{"bike_id":"caedbf0c-5924-49f2-87f6-20bcf512388b","system_id":"levelo_inurba_marseille","lat":43.28416,"lon":5.34984,"is_reserved":false,"is_disabled":false,"rental_uris":{"android":"levelo://app?vid=caedbf0c-5924-49f2-87f6-20bcf512388b","ios":"levelo://app?vid=caedbf0c-5924-49f2-87f6-20bcf512388b"},"vehicle_type_id":"4","last_reported":1692720484,"current_range_meters":0,"station_id":"ce4bhbh2rcd13ifvqepg","pricing_plan_id":"free"},{"bike_id":"c93d23e8-67b2-4473-bf55-4bfd785bb4b8","system_id":"levelo_inurba_marseille","lat":43.28416,"lon":5.34981,"is_reserved":false,"is_disabled":false,"rental_uris":{"android":"levelo://app?vid=c93d23e8-67b2-4473-bf55-4bfd785bb4b8","ios":"levelo://app?vid=c93d23e8-67b2-4473-bf55-4bfd785bb4b8"},"vehicle_type_id":"4","last_reported":1692720484,"current_range_meters":22800,"station_id":"ce4bhbh2rcd13ifvqepg","pricing_plan_id":"free"},{"bike_id":"d2a2b9ca-0650-4e4c-8d79-ae988df407a0","system_id":"levelo_inurba_marseille","lat":43.28414,"lon":5.34987,"is_reserved":false,"is_disabled":false,"rental_uris":{"android":"levelo://app?vid=d2a2b9ca-0650-4e4c-8d79-ae988df407a0","ios":"levelo://app?vid=d2a2b9ca-0650-4e4c-8d79-ae988df407a0"},"vehicle_type_id":"4","last_reported":1692720484,"current_range_meters":12000,"station_id":"ce4bhbh2rcd13ifvqepg","pricing_plan_id":"free"},{"bike_id":"e04eb3af-77fe-44b3-8a7b-d7c5f3f05e9f","system_id":"levelo_inurba_marseille","lat":43.28416,"lon":5.34975,"is_reserved":false,"is_disabled":false,"rental_uris":{"android":"levelo://app?vid=e04eb3af-77fe-44b3-8a7b-d7c5f3f05e9f","ios":"levelo://app?vid=e04eb3af-77fe-44b3-8a7b-d7c5f3f05e9f"},"vehicle_type_id":"4","last_reported":1692720484,"current_range_meters":7200,"station_id":"ce4bhbh2rcd13ifvqepg","pricing_plan_id":"free"},{"bike_id":"7e598581-f8a0-4027-b919-b32ae9288629","system_id":"levelo_inurba_marseille","lat":43.284219,"lon":5.3497,"is_reserved":false,"is_disabled":false,"rental_uris":{"android":"levelo://app?vid=7e598581-f8a0-4027-b919-b32ae9288629","ios":"levelo://app?vid=7e598581-f8a0-4027-b919-b32ae9288629"},"vehicle_type_id":"4","last_reported":1692720484,"current_range_meters":30800,"station_id":"ce4bhbh2rcd13ifvqepg","pricing_plan_id":"free"},{"bike_id":"4fcb4746-7a84-4590-9ec0-d0b8a5569ff3","system_id":"levelo_inurba_marseille","lat":43.28414,"lon":5.34981,"is_reserved":false,"is_disabled":false,"rental_uris":{"android":"levelo://app?vid=4fcb4746-7a84-4590-9ec0-d0b8a5569ff3","ios":"levelo://app?vid=4fcb4746-7a84-4590-9ec0-d0b8a5569ff3"},"vehicle_type_id":"4","last_reported":1692720484,"current_range_meters":13200,"station_id":"ce4bhbh2rcd13ifvqepg","pricing_plan_id":"free"},{"bike_id":"c5bd5e89-3edb-4513-9b6c-ed9b625acc77","system_id":"levelo_inurba_marseille","lat":43.284217,"lon":5.349697,"is_reserved":false,"is_disabled":false,"rental_uris":{"android":"levelo://app?vid=c5bd5e89-3edb-4513-9b6c-ed9b625acc77","ios":"levelo://app?vid=c5bd5e89-3edb-4513-9b6c-ed9b625acc77"},"vehicle_type_id":"4","last_reported":1692720484,"current_range_meters":19600,"station_id":"ce4bhbh2rcd13ifvqepg","pricing_plan_id":"free"},{"bike_id":"244436c1-153b-4811-8f1d-a75c8279267c","system_id":"levelo_inurba_marseille","lat":43.28412,"lon":5.34981,"is_reserved":false,"is_disabled":false,"rental_uris":{"android":"levelo://app?vid=244436c1-153b-4811-8f1d-a75c8279267c","ios":"levelo://app?vid=244436c1-153b-4811-8f1d-a75c8279267c"},"vehicle_type_id":"4","last_reported":1692720484,"current_range_meters":16400,"station_id":"ce4bhbh2rcd13ifvqepg","pricing_plan_id":"free"},{"bike_id":"d3daf003-9d6a-40bb-a0e7-00fdd9d0fafd","system_id":"levelo_inurba_marseille","lat":43.284217,"lon":5.349697,"is_reserved":false,"is_disabled":false,"rental_uris":{"android":"levelo://app?vid=d3daf003-9d6a-40bb-a0e7-00fdd9d0fafd","ios":"levelo://app?vid=d3daf003-9d6a-40bb-a0e7-00fdd9d0fafd"},"vehicle_type_id":"4","last_reported":1692720484,"current_range_meters":16000,"station_id":"ce4bhbh2rcd13ifvqepg","pricing_plan_id":"free"},{"bike_id":"f50aca5f-cf5b-4020-925f-826a2e34874f","system_id":"levelo_inurba_marseille","lat":43.289363,"lon":5.396322,"is_reserved":false,"is_disabled":false,"rental_uris":{"android":"levelo://app?vid=f50aca5f-cf5b-4020-925f-826a2e34874f","ios":"levelo://app?vid=f50aca5f-cf5b-4020-925f-826a2e34874f"},"vehicle_type_id":"4","last_reported":1692720484,"current_range_meters":31200,"station_id":"ce4bh3h2rcd13ifvqdn0","pricing_plan_id":"free"},{"bike_id":"79ae07f7-3d9b-456b-927e-8e880eafedba","system_id":"levelo_inurba_marseille","lat":43.32572,"lon":5.40673,"is_reserved":false,"is_disabled":false,"rental_uris":{"android":"levelo://app?vid=79ae07f7-3d9b-456b-927e-8e880eafedba","ios":"levelo://app?vid=79ae07f7-3d9b-456b-927e-8e880eafedba"},"vehicle_type_id":"4","last_reported":1692720484,"current_range_meters":800,"station_id":"","pricing_plan_id":"free"},{"bike_id":"45e7d3d6-2a8b-43a4-a356-557b8e1fb5cb","system_id":"levelo_inurba_marseille","lat":43.28283,"lon":5.3507,"is_reserved":false,"is_disabled":false,"rental_uris":{"android":"levelo://app?vid=45e7d3d6-2a8b-43a4-a356-557b8e1fb5cb","ios":"levelo://app?vid=45e7d3d6-2a8b-43a4-a356-557b8e1fb5cb"},"vehicle_type_id":"4","last_reported":1692720484,"current_range_meters":20400,"station_id":"ce4bhbp2rcd13ifvqerg","pricing_plan_id":"free"},{"bike_id":"7dd32657-ffa0-47e6-ad10-53a769a68f30","system_id":"levelo_inurba_marseille","lat":43.282744,"lon":5.350533,"is_reserved":false,"is_disabled":false,"rental_uris":{"android":"levelo://app?vid=7dd32657-ffa0-47e6-ad10-53a769a68f30","ios":"levelo://app?vid=7dd32657-ffa0-47e6-ad10-53a769a68f30"},"vehicle_type_id":"4","last_reported":1692720484,"current_range_meters":23600,"station_id":"ce4bhbp2rcd13ifvqerg","pricing_plan_id":"free"},{"bike_id":"1035af15-2745-405b-87fd-84d93eb24a6e","system_id":"levelo_inurba_marseille","lat":43.282744,"lon":5.350533,"is_reserved":false,"is_disabled":false,"rental_uris":{"android":"levelo://app?vid=1035af15-2745-405b-87fd-84d93eb24a6e","ios":"levelo://app?vid=1035af15-2745-405b-87fd-84d93eb24a6e"},"vehicle_type_id":"4","last_reported":1692720484,"current_range_meters":9200,"station_id":"ce4bhbp2rcd13ifvqerg","pricing_plan_id":"free"},{"bike_id":"765d74f8-405d-4e38-ba5a-392579c5f282","system_id":"levelo_inurba_marseille","lat":43.28278,"lon":5.35065,"is_reserved":false,"is_disabled":false,"rental_uris":{"android":"levelo://app?vid=765d74f8-405d-4e38-ba5a-392579c5f282","ios":"levelo://app?vid=765d74f8-405d-4e38-ba5a-392579c5f282"},"vehicle_type_id":"4","last_reported":1692720484,"current_range_meters":31200,"station_id":"ce4bhbp2rcd13ifvqerg","pricing_plan_id":"free"},{"bike_id":"a1ecd9b9-d75d-4beb-93c9-16b72c60f041","system_id":"levelo_inurba_marseille","lat":43.28274,"lon":5.3507,"is_reserved":false,"is_disabled":false,"rental_uris":{"android":"levelo://app?vid=a1ecd9b9-d75d-4beb-93c9-16b72c60f041","ios":"levelo://app?vid=a1ecd9b9-d75d-4beb-93c9-16b72c60f041"},"vehicle_type_id":"4","last_reported":1692720484,"current_range_meters":31200,"station_id":"ce4bhbp2rcd13ifvqerg","pricing_plan_id":"free"},{"bike_id":"031212e7-e4dd-47a0-a878-7cf31f5eccd5","system_id":"levelo_inurba_marseille","lat":43.28275,"lon":5.35066,"is_reserved":false,"is_disabled":false,"rental_uris":{"android":"levelo://app?vid=031212e7-e4dd-47a0-a878-7cf31f5eccd5","ios":"levelo://app?vid=031212e7-e4dd-47a0-a878-7cf31f5eccd5"},"vehicle_type_id":"4","last_reported":1692720484,"current_range_meters":31200,"station_id":"ce4bhbp2rcd13ifvqerg","pricing_plan_id":"free"},{"bike_id":"8ba3eac1-39b3-4dad-9912-42885ea7f59d","system_id":"levelo_inurba_marseille","lat":43.28278,"lon":5.35055,"is_reserved":false,"is_disabled":false,"rental_uris":{"android":"levelo://app?vid=8ba3eac1-39b3-4dad-9912-42885ea7f59d","ios":"levelo://app?vid=8ba3eac1-39b3-4dad-9912-42885ea7f59d"},"vehicle_type_id":"4","last_reported":1692720484,"current_range_meters":23200,"station_id":"ce4bhbp2rcd13ifvqerg","pricing_plan_id":"free"},{"bike_id":"4f76bb8b-534a-4667-99f2-697a723881bd","system_id":"levelo_inurba_marseille","lat":43.28275,"lon":5.35063,"is_reserved":false,"is_disabled":false,"rental_uris":{"android":"levelo://app?vid=4f76bb8b-534a-4667-99f2-697a723881bd","ios":"levelo://app?vid=4f76bb8b-534a-4667-99f2-697a723881bd"},"vehicle_type_id":"4","last_reported":1692720484,"current_range_meters":31200,"station_id":"ce4bhbp2rcd13ifvqerg","pricing_plan_id":"free"},{"bike_id":"bd124cff-f6b3-48f1-b343-b34bb8f17740","system_id":"levelo_inurba_marseille","lat":43.28275,"lon":5.3506,"is_reserved":false,"is_disabled":false,"rental_uris":{"android":"levelo://app?vid=bd124cff-f6b3-48f1-b343-b34bb8f17740","ios":"levelo://app?vid=bd124cff-f6b3-48f1-b343-b34bb8f17740"},"vehicle_type_id":"4","last_reported":1692720484,"current_range_meters":22000,"station_id":"ce4bhbp2rcd13ifvqerg","pricing_plan_id":"free"},{"bike_id":"28851f45-fcdd-4ad6-a884-7271806f58f0","system_id":"levelo_inurba_marseille","lat":43.28271,"lon":5.35072,"is_reserved":false,"is_disabled":false,"rental_uris":{"android":"levelo://app?vid=28851f45-fcdd-4ad6-a884-7271806f58f0","ios":"levelo://app?vid=28851f45-fcdd-4ad6-a884-7271806f58f0"},"vehicle_type_id":"4","last_reported":1692720484,"current_range_meters":30800,"station_id":"ce4bhbp2rcd13ifvqerg","pricing_plan_id":"free"},{"bike_id":"31d3c370-a569-421c-b780-634aa5d193d1","system_id":"levelo_inurba_marseille","lat":43.28272,"lon":5.35066,"is_reserved":false,"is_disabled":false,"rental_uris":{"android":"levelo://app?vid=31d3c370-a569-421c-b780-634aa5d193d1","ios":"levelo://app?vid=31d3c370-a569-421c-b780-634aa5d193d1"},"vehicle_type_id":"4","last_reported":1692720484,"current_range_meters":21600,"station_id":"ce4bhbp2rcd13ifvqerg","pricing_plan_id":"free"},{"bike_id":"88940920-727e-47f8-bee6-24feedff1167","system_id":"levelo_inurba_marseille","lat":43.282754,"lon":5.350519,"is_reserved":false,"is_disabled":false,"rental_uris":{"android":"levelo://app?vid=88940920-727e-47f8-bee6-24feedff1167","ios":"levelo://app?vid=88940920-727e-47f8-bee6-24feedff1167"},"vehicle_type_id":"4","last_reported":1692720484,"current_range_meters":29600,"station_id":"ce4bhbp2rcd13ifvqerg","pricing_plan_id":"free"},{"bike_id":"adb02310-ec46-4c08-ae4a-1c17ae81fec1","system_id":"levelo_inurba_marseille","lat":43.282744,"lon":5.350533,"is_reserved":false,"is_disabled":false,"rental_uris":{"android":"levelo://app?vid=adb02310-ec46-4c08-ae4a-1c17ae81fec1","ios":"levelo://app?vid=adb02310-ec46-4c08-ae4a-1c17ae81fec1"},"vehicle_type_id":"4","last_reported":1692720484,"current_range_meters":2800,"station_id":"ce4bhbp2rcd13ifvqerg","pricing_plan_id":"free"},{"bike_id":"ab62284f-fdec-4ce9-a71a-a48cd2981802","system_id":"levelo_inurba_marseille","lat":43.2827,"lon":5.3507,"is_reserved":false,"is_disabled":false,"rental_uris":{"android":"levelo://app?vid=ab62284f-fdec-4ce9-a71a-a48cd2981802","ios":"levelo://app?vid=ab62284f-fdec-4ce9-a71a-a48cd2981802"},"vehicle_type_id":"4","last_reported":1692720484,"current_range_meters":800,"station_id":"ce4bhbp2rcd13ifvqerg","pricing_plan_id":"free"},{"bike_id":"60657b80-7b7b-427f-a08e-6a93cabf41c9","system_id":"levelo_inurba_marseille","lat":43.282754,"lon":5.350519,"is_reserved":false,"is_disabled":false,"rental_uris":{"android":"levelo://app?vid=60657b80-7b7b-427f-a08e-6a93cabf41c9","ios":"levelo://app?vid=60657b80-7b7b-427f-a08e-6a93cabf41c9"},"vehicle_type_id":"4","last_reported":1692720484,"current_range_meters":19200,"station_id":"ce4bhbp2rcd13ifvqerg","pricing_plan_id":"free"},{"bike_id":"5a8cf80a-f2f0-40d7-9b2c-918aab18fc5f","system_id":"levelo_inurba_marseille","lat":43.28271,"lon":5.35063,"is_reserved":false,"is_disabled":false,"rental_uris":{"android":"levelo://app?vid=5a8cf80a-f2f0-40d7-9b2c-918aab18fc5f","ios":"levelo://app?vid=5a8cf80a-f2f0-40d7-9b2c-918aab18fc5f"},"vehicle_type_id":"4","last_reported":1692720484,"current_range_meters":11200,"station_id":"ce4bhbp2rcd13ifvqerg","pricing_plan_id":"free"},{"bike_id":"a648e4b9-af93-4b28-982e-e42c178ed1d0","system_id":"levelo_inurba_marseille","lat":43.2827,"lon":5.35063,"is_reserved":false,"is_disabled":false,"rental_uris":{"android":"levelo://app?vid=a648e4b9-af93-4b28-982e-e42c178ed1d0","ios":"levelo://app?vid=a648e4b9-af93-4b28-982e-e42c178ed1d0"},"vehicle_type_id":"4","last_reported":1692720484,"current_range_meters":31200,"station_id":"ce4bhbp2rcd13ifvqerg","pricing_plan_id":"free"},{"bike_id":"bcf4f588-6ed1-44f6-8caf-e08422e00fcb","system_id":"levelo_inurba_marseille","lat":43.28271,"lon":5.35056,"is_reserved":false,"is_disabled":false,"rental_uris":{"android":"levelo://app?vid=bcf4f588-6ed1-44f6-8caf-e08422e00fcb","ios":"levelo://app?vid=bcf4f588-6ed1-44f6-8caf-e08422e00fcb"},"vehicle_type_id":"4","last_reported":1692720484,"current_range_meters":31200,"station_id":"ce4bhbp2rcd13ifvqerg","pricing_plan_id":"free"},{"bike_id":"a452a221-3ffe-4fa4-a2b7-285227d1ba6d","system_id":"levelo_inurba_marseille","lat":43.282744,"lon":5.350533,"is_reserved":false,"is_disabled":false,"rental_uris":{"android":"levelo://app?vid=a452a221-3ffe-4fa4-a2b7-285227d1ba6d","ios":"levelo://app?vid=a452a221-3ffe-4fa4-a2b7-285227d1ba6d"},"vehicle_type_id":"4","last_reported":1692720484,"current_range_meters":2000,"station_id":"ce4bhbp2rcd13ifvqerg","pricing_plan_id":"free"},{"bike_id":"0bb5163f-a5dc-482a-b256-516cebc16337","system_id":"levelo_inurba_marseille","lat":43.282744,"lon":5.350533,"is_reserved":false,"is_disabled":false,"rental_uris":{"android":"levelo://app?vid=0bb5163f-a5dc-482a-b256-516cebc16337","ios":"levelo://app?vid=0bb5163f-a5dc-482a-b256-516cebc16337"},"vehicle_type_id":"4","last_reported":1692720484,"current_range_meters":28000,"station_id":"ce4bhbp2rcd13ifvqerg","pricing_plan_id":"free"},{"bike_id":"9c752e9c-f94a-4d55-93f0-146a66baa5b8","system_id":"levelo_inurba_marseille","lat":43.282744,"lon":5.350533,"is_reserved":false,"is_disabled":false,"rental_uris":{"android":"levelo://app?vid=9c752e9c-f94a-4d55-93f0-146a66baa5b8","ios":"levelo://app?vid=9c752e9c-f94a-4d55-93f0-146a66baa5b8"},"vehicle_type_id":"4","last_reported":1692720484,"current_range_meters":12000,"station_id":"ce4bhbp2rcd13ifvqerg","pricing_plan_id":"free"},{"bike_id":"91f22b12-a1ff-45cd-b990-20eb6964688d","system_id":"levelo_inurba_marseille","lat":43.28266,"lon":5.35064,"is_reserved":false,"is_disabled":false,"rental_uris":{"android":"levelo://app?vid=91f22b12-a1ff-45cd-b990-20eb6964688d","ios":"levelo://app?vid=91f22b12-a1ff-45cd-b990-20eb6964688d"},"vehicle_type_id":"4","last_reported":1692720484,"current_range_meters":31200,"station_id":"ce4bhbp2rcd13ifvqerg","pricing_plan_id":"free"},{"bike_id":"ff7fae91-73d9-48ff-8a01-508039ea7b75","system_id":"levelo_inurba_marseille","lat":43.28264,"lon":5.35069,"is_reserved":false,"is_disabled":false,"rental_uris":{"android":"levelo://app?vid=ff7fae91-73d9-48ff-8a01-508039ea7b75","ios":"levelo://app?vid=ff7fae91-73d9-48ff-8a01-508039ea7b75"},"vehicle_type_id":"4","last_reported":1692720484,"current_range_meters":0,"station_id":"ce4bhbp2rcd13ifvqerg","pricing_plan_id":"free"},{"bike_id":"f621ded8-b170-4083-a60c-f975b682a3ed","system_id":"levelo_inurba_marseille","lat":43.282744,"lon":5.350533,"is_reserved":false,"is_disabled":false,"rental_uris":{"android":"levelo://app?vid=f621ded8-b170-4083-a60c-f975b682a3ed","ios":"levelo://app?vid=f621ded8-b170-4083-a60c-f975b682a3ed"},"vehicle_type_id":"4","last_reported":1692720484,"current_range_meters":26400,"station_id":"ce4bhbp2rcd13ifvqerg","pricing_plan_id":"free"},{"bike_id":"875fc2e0-4d63-44d9-b01c-51bee62c383f","system_id":"levelo_inurba_marseille","lat":43.282744,"lon":5.350533,"is_reserved":false,"is_disabled":false,"rental_uris":{"android":"levelo://app?vid=875fc2e0-4d63-44d9-b01c-51bee62c383f","ios":"levelo://app?vid=875fc2e0-4d63-44d9-b01c-51bee62c383f"},"vehicle_type_id":"4","last_reported":1692720484,"current_range_meters":20800,"station_id":"ce4bhbp2rcd13ifvqerg","pricing_plan_id":"free"},{"bike_id":"b0b226d6-c590-42d6-a7d0-c9de4153d77f","system_id":"levelo_inurba_marseille","lat":43.282744,"lon":5.350533,"is_reserved":false,"is_disabled":false,"rental_uris":{"android":"levelo://app?vid=b0b226d6-c590-42d6-a7d0-c9de4153d77f","ios":"levelo://app?vid=b0b226d6-c590-42d6-a7d0-c9de4153d77f"},"vehicle_type_id":"4","last_reported":1692720484,"current_range_meters":32000,"station_id":"ce4bhbp2rcd13ifvqerg","pricing_plan_id":"free"},{"bike_id":"2b1aa41a-cbc9-4920-9db2-a4bbea444c0c","system_id":"levelo_inurba_marseille","lat":43.28265,"lon":5.35063,"is_reserved":false,"is_disabled":false,"rental_uris":{"android":"levelo://app?vid=2b1aa41a-cbc9-4920-9db2-a4bbea444c0c","ios":"levelo://app?vid=2b1aa41a-cbc9-4920-9db2-a4bbea444c0c"},"vehicle_type_id":"4","last_reported":1692720484,"current_range_meters":31200,"station_id":"ce4bhbp2rcd13ifvqerg","pricing_plan_id":"free"},{"bike_id":"f4339a41-ac28-41dc-873b-32beacd416c4","system_id":"levelo_inurba_marseille","lat":43.282744,"lon":5.350533,"is_reserved":false,"is_disabled":false,"rental_uris":{"android":"levelo://app?vid=f4339a41-ac28-41dc-873b-32beacd416c4","ios":"levelo://app?vid=f4339a41-ac28-41dc-873b-32beacd416c4"},"vehicle_type_id":"4","last_reported":1692720484,"current_range_meters":31600,"station_id":"ce4bhbp2rcd13ifvqerg","pricing_plan_id":"free"},{"bike_id":"97665d79-dc46-4992-8999-8c7f31b1a802","system_id":"levelo_inurba_marseille","lat":43.28266,"lon":5.35047,"is_reserved":false,"is_disabled":false,"rental_uris":{"android":"levelo://app?vid=97665d79-dc46-4992-8999-8c7f31b1a802","ios":"levelo://app?vid=97665d79-dc46-4992-8999-8c7f31b1a802"},"vehicle_type_id":"4","last_reported":1692720484,"current_range_meters":31200,"station_id":"ce4bhbp2rcd13ifvqerg","pricing_plan_id":"free"},{"bike_id":"a65e7466-a096-4ee9-8631-2f3590960859","system_id":"levelo_inurba_marseille","lat":43.282744,"lon":5.350533,"is_reserved":false,"is_disabled":false,"rental_uris":{"android":"levelo://app?vid=a65e7466-a096-4ee9-8631-2f3590960859","ios":"levelo://app?vid=a65e7466-a096-4ee9-8631-2f3590960859"},"vehicle_type_id":"4","last_reported":1692720484,"current_range_meters":25600,"station_id":"ce4bhbp2rcd13ifvqerg","pricing_plan_id":"free"},{"bike_id":"fe32dc0d-c3f3-47f0-aeef-361e483c9751","system_id":"levelo_inurba_marseille","lat":43.28036,"lon":5.36938,"is_reserved":false,"is_disabled":false,"rental_uris":{"android":"levelo://app?vid=fe32dc0d-c3f3-47f0-aeef-361e483c9751","ios":"levelo://app?vid=fe32dc0d-c3f3-47f0-aeef-361e483c9751"},"vehicle_type_id":"4","last_reported":1692720484,"current_range_meters":22400,"station_id":"","pricing_plan_id":"free"},{"bike_id":"a11fee1d-d4da-443b-be7a-e8edec069d32","system_id":"levelo_inurba_marseille","lat":43.282754,"lon":5.350519,"is_reserved":false,"is_disabled":false,"rental_uris":{"android":"levelo://app?vid=a11fee1d-d4da-443b-be7a-e8edec069d32","ios":"levelo://app?vid=a11fee1d-d4da-443b-be7a-e8edec069d32"},"vehicle_type_id":"4","last_reported":1692720484,"current_range_meters":14800,"station_id":"ce4bhbp2rcd13ifvqerg","pricing_plan_id":"free"},{"bike_id":"5fe403f8-7659-426b-a24f-0deb7251c87b","system_id":"levelo_inurba_marseille","lat":43.282744,"lon":5.350533,"is_reserved":false,"is_disabled":false,"rental_uris":{"android":"levelo://app?vid=5fe403f8-7659-426b-a24f-0deb7251c87b","ios":"levelo://app?vid=5fe403f8-7659-426b-a24f-0deb7251c87b"},"vehicle_type_id":"4","last_reported":1692720484,"current_range_meters":10400,"station_id":"ce4bhbp2rcd13ifvqerg","pricing_plan_id":"free"},{"bike_id":"1527a32d-ff00-487d-a754-af614335ea58","system_id":"levelo_inurba_marseille","lat":43.28032,"lon":5.36935,"is_reserved":false,"is_disabled":false,"rental_uris":{"android":"levelo://app?vid=1527a32d-ff00-487d-a754-af614335ea58","ios":"levelo://app?vid=1527a32d-ff00-487d-a754-af614335ea58"},"vehicle_type_id":"4","last_reported":1692720484,"current_range_meters":8000,"station_id":"ce4bha12rcd13ifvqef0","pricing_plan_id":"free"},{"bike_id":"9f46cfde-4f76-4076-bade-5765c2d3d473","system_id":"levelo_inurba_marseille","lat":43.28039,"lon":5.369297,"is_reserved":false,"is_disabled":false,"rental_uris":{"android":"levelo://app?vid=9f46cfde-4f76-4076-bade-5765c2d3d473","ios":"levelo://app?vid=9f46cfde-4f76-4076-bade-5765c2d3d473"},"vehicle_type_id":"4","last_reported":1692720484,"current_range_meters":31200,"station_id":"ce4bha12rcd13ifvqef0","pricing_plan_id":"free"},{"bike_id":"cf42d125-44e0-446b-a2f1-74ebb627777a","system_id":"levelo_inurba_marseille","lat":43.290412,"lon":5.399633,"is_reserved":false,"is_disabled":false,"rental_uris":{"android":"levelo://app?vid=cf42d125-44e0-446b-a2f1-74ebb627777a","ios":"levelo://app?vid=cf42d125-44e0-446b-a2f1-74ebb627777a"},"vehicle_type_id":"4","last_reported":1692720484,"current_range_meters":17600,"station_id":"ce4bh392rcd13ifvqdm0","pricing_plan_id":"free"},{"bike_id":"09ef2647-6aa0-4f92-9a76-bdfb0266a298","system_id":"levelo_inurba_marseille","lat":43.29041,"lon":5.399634,"is_reserved":false,"is_disabled":false,"rental_uris":{"android":"levelo://app?vid=09ef2647-6aa0-4f92-9a76-bdfb0266a298","ios":"levelo://app?vid=09ef2647-6aa0-4f92-9a76-bdfb0266a298"},"vehicle_type_id":"4","last_reported":1692720484,"current_range_meters":14800,"station_id":"ce4bh392rcd13ifvqdm0","pricing_plan_id":"free"},{"bike_id":"f163d54a-cf3e-4b3c-8683-43cce9cd99b9","system_id":"levelo_inurba_marseille","lat":43.284462,"lon":5.392121,"is_reserved":false,"is_disabled":false,"rental_uris":{"android":"levelo://app?vid=f163d54a-cf3e-4b3c-8683-43cce9cd99b9","ios":"levelo://app?vid=f163d54a-cf3e-4b3c-8683-43cce9cd99b9"},"vehicle_type_id":"4","last_reported":1692720484,"current_range_meters":12000,"station_id":"ce4bhoh2rcd13ifvqh5g","pricing_plan_id":"free"},{"bike_id":"988e0a01-b67a-4ceb-a87b-41a9cdc216ce","system_id":"levelo_inurba_marseille","lat":43.2845,"lon":5.39204,"is_reserved":false,"is_disabled":false,"rental_uris":{"android":"levelo://app?vid=988e0a01-b67a-4ceb-a87b-41a9cdc216ce","ios":"levelo://app?vid=988e0a01-b67a-4ceb-a87b-41a9cdc216ce"},"vehicle_type_id":"4","last_reported":1692720484,"current_range_meters":29200,"station_id":"","pricing_plan_id":"free"},{"bike_id":"243eeef1-7e88-4077-a63c-4e3ba13d458e","system_id":"levelo_inurba_marseille","lat":43.284462,"lon":5.392121,"is_reserved":false,"is_disabled":false,"rental_uris":{"android":"levelo://app?vid=243eeef1-7e88-4077-a63c-4e3ba13d458e","ios":"levelo://app?vid=243eeef1-7e88-4077-a63c-4e3ba13d458e"},"vehicle_type_id":"4","last_reported":1692720484,"current_range_meters":0,"station_id":"ce4bhoh2rcd13ifvqh5g","pricing_plan_id":"free"},{"bike_id":"75c6f366-bf05-482f-a433-673b37bcac37","system_id":"levelo_inurba_marseille","lat":43.28573,"lon":5.394992,"is_reserved":false,"is_disabled":false,"rental_uris":{"android":"levelo://app?vid=75c6f366-bf05-482f-a433-673b37bcac37","ios":"levelo://app?vid=75c6f366-bf05-482f-a433-673b37bcac37"},"vehicle_type_id":"4","last_reported":1692720484,"current_range_meters":20000,"station_id":"ce4bh292rcd13ifvqdg0","pricing_plan_id":"free"},{"bike_id":"99e017dc-afd5-4eac-a82c-6e77f898744c","system_id":"levelo_inurba_marseille","lat":43.285742,"lon":5.395004,"is_reserved":false,"is_disabled":false,"rental_uris":{"android":"levelo://app?vid=99e017dc-afd5-4eac-a82c-6e77f898744c","ios":"levelo://app?vid=99e017dc-afd5-4eac-a82c-6e77f898744c"},"vehicle_type_id":"4","last_reported":1692720484,"current_range_meters":10400,"station_id":"ce4bh292rcd13ifvqdg0","pricing_plan_id":"free"},{"bike_id":"f8ef4f78-badc-40d1-a4a9-077301466e56","system_id":"levelo_inurba_marseille","lat":43.32662,"lon":5.40978,"is_reserved":false,"is_disabled":false,"rental_uris":{"android":"levelo://app?vid=f8ef4f78-badc-40d1-a4a9-077301466e56","ios":"levelo://app?vid=f8ef4f78-badc-40d1-a4a9-077301466e56"},"vehicle_type_id":"4","last_reported":1692720484,"current_range_meters":800,"station_id":"ce4bhpp2rcd13ifvqhgg","pricing_plan_id":"free"},{"bike_id":"0a90d00c-e166-4a21-b644-52bb25bcaf10","system_id":"levelo_inurba_marseille","lat":43.304188,"lon":5.412904,"is_reserved":false,"is_disabled":false,"rental_uris":{"android":"levelo://app?vid=0a90d00c-e166-4a21-b644-52bb25bcaf10","ios":"levelo://app?vid=0a90d00c-e166-4a21-b644-52bb25bcaf10"},"vehicle_type_id":"4","last_reported":1692720484,"current_range_meters":29600,"station_id":"ce4bhop2rcd13ifvqh8g","pricing_plan_id":"free"},{"bike_id":"32766861-2e0a-4758-ac35-a34041c63bb0","system_id":"levelo_inurba_marseille","lat":43.304188,"lon":5.412904,"is_reserved":false,"is_disabled":false,"rental_uris":{"android":"levelo://app?vid=32766861-2e0a-4758-ac35-a34041c63bb0","ios":"levelo://app?vid=32766861-2e0a-4758-ac35-a34041c63bb0"},"vehicle_type_id":"4","last_reported":1692720484,"current_range_meters":14400,"station_id":"ce4bhop2rcd13ifvqh8g","pricing_plan_id":"free"},{"bike_id":"67a727a1-8736-42bf-a560-68d0d0bf1201","system_id":"levelo_inurba_marseille","lat":43.304188,"lon":5.412904,"is_reserved":false,"is_disabled":false,"rental_uris":{"android":"levelo://app?vid=67a727a1-8736-42bf-a560-68d0d0bf1201","ios":"levelo://app?vid=67a727a1-8736-42bf-a560-68d0d0bf1201"},"vehicle_type_id":"4","last_reported":1692720484,"current_range_meters":800,"station_id":"ce4bhop2rcd13ifvqh8g","pricing_plan_id":"free"},{"bike_id":"f2feafc4-c356-4828-a2ba-b2f129215730","system_id":"levelo_inurba_marseille","lat":43.304188,"lon":5.412904,"is_reserved":false,"is_disabled":false,"rental_uris":{"android":"levelo://app?vid=f2feafc4-c356-4828-a2ba-b2f129215730","ios":"levelo://app?vid=f2feafc4-c356-4828-a2ba-b2f129215730"},"vehicle_type_id":"4","last_reported":1692720484,"current_range_meters":31200,"station_id":"ce4bhop2rcd13ifvqh8g","pricing_plan_id":"free"},{"bike_id":"3c03defe-9bbe-492c-9a3a-afad4c5535a4","system_id":"levelo_inurba_marseille","lat":43.304188,"lon":5.412904,"is_reserved":false,"is_disabled":false,"rental_uris":{"android":"levelo://app?vid=3c03defe-9bbe-492c-9a3a-afad4c5535a4","ios":"levelo://app?vid=3c03defe-9bbe-492c-9a3a-afad4c5535a4"},"vehicle_type_id":"4","last_reported":1692720484,"current_range_meters":31200,"station_id":"ce4bhop2rcd13ifvqh8g","pricing_plan_id":"free"},{"bike_id":"4a2f45c8-1bf2-4886-a0ef-5a1d56e798b5","system_id":"levelo_inurba_marseille","lat":43.304188,"lon":5.412904,"is_reserved":false,"is_disabled":false,"rental_uris":{"android":"levelo://app?vid=4a2f45c8-1bf2-4886-a0ef-5a1d56e798b5","ios":"levelo://app?vid=4a2f45c8-1bf2-4886-a0ef-5a1d56e798b5"},"vehicle_type_id":"4","last_reported":1692720484,"current_range_meters":31200,"station_id":"ce4bhop2rcd13ifvqh8g","pricing_plan_id":"free"},{"bike_id":"25be3361-8c5c-4417-8ed8-fa50a9b085f4","system_id":"levelo_inurba_marseille","lat":43.287106,"lon":5.399947,"is_reserved":false,"is_disabled":false,"rental_uris":{"android":"levelo://app?vid=25be3361-8c5c-4417-8ed8-fa50a9b085f4","ios":"levelo://app?vid=25be3361-8c5c-4417-8ed8-fa50a9b085f4"},"vehicle_type_id":"4","last_reported":1692720484,"current_range_meters":23200,"station_id":"","pricing_plan_id":"free"},{"bike_id":"b41e48a9-e301-4cc2-be8f-a40968fa8125","system_id":"levelo_inurba_marseille","lat":43.295511,"lon":5.422926,"is_reserved":false,"is_disabled":false,"rental_uris":{"android":"levelo://app?vid=b41e48a9-e301-4cc2-be8f-a40968fa8125","ios":"levelo://app?vid=b41e48a9-e301-4cc2-be8f-a40968fa8125"},"vehicle_type_id":"4","last_reported":1692720484,"current_range_meters":3200,"station_id":"ce4bhph2rcd13ifvqhdg","pricing_plan_id":"free"},{"bike_id":"c9f73367-2a01-4163-a5e7-84f0af15a679","system_id":"levelo_inurba_marseille","lat":43.279742,"lon":5.38744,"is_reserved":false,"is_disabled":false,"rental_uris":{"android":"levelo://app?vid=c9f73367-2a01-4163-a5e7-84f0af15a679","ios":"levelo://app?vid=c9f73367-2a01-4163-a5e7-84f0af15a679"},"vehicle_type_id":"4","last_reported":1692720484,"current_range_meters":24400,"station_id":"ce4bhg12rcd13ifvqf80","pricing_plan_id":"free"},{"bike_id":"c327718a-8fe6-4791-a349-aba0f8f94e82","system_id":"levelo_inurba_marseille","lat":43.279742,"lon":5.38744,"is_reserved":false,"is_disabled":false,"rental_uris":{"android":"levelo://app?vid=c327718a-8fe6-4791-a349-aba0f8f94e82","ios":"levelo://app?vid=c327718a-8fe6-4791-a349-aba0f8f94e82"},"vehicle_type_id":"4","last_reported":1692720484,"current_range_meters":25200,"station_id":"ce4bhg12rcd13ifvqf80","pricing_plan_id":"free"},{"bike_id":"31bf0504-0853-4b02-837a-ef5dba781361","system_id":"levelo_inurba_marseille","lat":43.32036,"lon":5.41566,"is_reserved":false,"is_disabled":false,"rental_uris":{"android":"levelo://app?vid=31bf0504-0853-4b02-837a-ef5dba781361","ios":"levelo://app?vid=31bf0504-0853-4b02-837a-ef5dba781361"},"vehicle_type_id":"4","last_reported":1692720484,"current_range_meters":28800,"station_id":"ce4bhq92rcd13ifvqhkg","pricing_plan_id":"free"},{"bike_id":"1bbde968-30e7-4b6a-b32f-31f0c5a07776","system_id":"levelo_inurba_marseille","lat":43.32052,"lon":5.41562,"is_reserved":false,"is_disabled":false,"rental_uris":{"android":"levelo://app?vid=1bbde968-30e7-4b6a-b32f-31f0c5a07776","ios":"levelo://app?vid=1bbde968-30e7-4b6a-b32f-31f0c5a07776"},"vehicle_type_id":"4","last_reported":1692720484,"current_range_meters":24800,"station_id":"ce4bhq92rcd13ifvqhkg","pricing_plan_id":"free"},{"bike_id":"0b5dc344-30a3-4a3d-83b4-d8616049215a","system_id":"levelo_inurba_marseille","lat":43.32042,"lon":5.41569,"is_reserved":false,"is_disabled":false,"rental_uris":{"android":"levelo://app?vid=0b5dc344-30a3-4a3d-83b4-d8616049215a","ios":"levelo://app?vid=0b5dc344-30a3-4a3d-83b4-d8616049215a"},"vehicle_type_id":"4","last_reported":1692720484,"current_range_meters":17200,"station_id":"ce4bhq92rcd13ifvqhkg","pricing_plan_id":"free"},{"bike_id":"8594cf74-9cd2-4dfc-b47f-e9b2a9760683","system_id":"levelo_inurba_marseille","lat":43.292571,"lon":5.409107,"is_reserved":false,"is_disabled":false,"rental_uris":{"android":"levelo://app?vid=8594cf74-9cd2-4dfc-b47f-e9b2a9760683","ios":"levelo://app?vid=8594cf74-9cd2-4dfc-b47f-e9b2a9760683"},"vehicle_type_id":"4","last_reported":1692720484,"current_range_meters":28400,"station_id":"ce4bh192rcd13ifvqdc0","pricing_plan_id":"free"},{"bike_id":"c153ee17-4ae2-4cbb-98c2-4810629286f7","system_id":"levelo_inurba_marseille","lat":43.27618,"lon":5.361009,"is_reserved":false,"is_disabled":false,"rental_uris":{"android":"levelo://app?vid=c153ee17-4ae2-4cbb-98c2-4810629286f7","ios":"levelo://app?vid=c153ee17-4ae2-4cbb-98c2-4810629286f7"},"vehicle_type_id":"4","last_reported":1692720484,"current_range_meters":2800,"station_id":"ce4bgj92rcd13ifvqbe0","pricing_plan_id":"free"},{"bike_id":"69676102-b3eb-48b3-8bf5-50f3b1502d68","system_id":"levelo_inurba_marseille","lat":43.280784,"lon":5.396622,"is_reserved":false,"is_disabled":false,"rental_uris":{"android":"levelo://app?vid=69676102-b3eb-48b3-8bf5-50f3b1502d68","ios":"levelo://app?vid=69676102-b3eb-48b3-8bf5-50f3b1502d68"},"vehicle_type_id":"4","last_reported":1692720484,"current_range_meters":2000,"station_id":"ce4bho12rcd13ifvqh2g","pricing_plan_id":"free"},{"bike_id":"62f64769-fd49-465e-9cd6-1fa64f6c17bf","system_id":"levelo_inurba_marseille","lat":43.280784,"lon":5.396622,"is_reserved":false,"is_disabled":false,"rental_uris":{"android":"levelo://app?vid=62f64769-fd49-465e-9cd6-1fa64f6c17bf","ios":"levelo://app?vid=62f64769-fd49-465e-9cd6-1fa64f6c17bf"},"vehicle_type_id":"4","last_reported":1692720484,"current_range_meters":31200,"station_id":"ce4bho12rcd13ifvqh2g","pricing_plan_id":"free"},{"bike_id":"c5c6b279-c489-49c1-bda7-cda594a427a0","system_id":"levelo_inurba_marseille","lat":43.280784,"lon":5.396622,"is_reserved":false,"is_disabled":false,"rental_uris":{"android":"levelo://app?vid=c5c6b279-c489-49c1-bda7-cda594a427a0","ios":"levelo://app?vid=c5c6b279-c489-49c1-bda7-cda594a427a0"},"vehicle_type_id":"4","last_reported":1692720484,"current_range_meters":9600,"station_id":"ce4bho12rcd13ifvqh2g","pricing_plan_id":"free"},{"bike_id":"cadf3307-8e33-451f-81b5-bd0e5f0ec514","system_id":"levelo_inurba_marseille","lat":43.278401,"lon":5.392152,"is_reserved":false,"is_disabled":false,"rental_uris":{"android":"levelo://app?vid=cadf3307-8e33-451f-81b5-bd0e5f0ec514","ios":"levelo://app?vid=cadf3307-8e33-451f-81b5-bd0e5f0ec514"},"vehicle_type_id":"4","last_reported":1692720484,"current_range_meters":14400,"station_id":"ce4bhjp2rcd13ifvqga0","pricing_plan_id":"free"},{"bike_id":"1829174e-ceb3-47f4-934c-b776866303b9","system_id":"levelo_inurba_marseille","lat":43.278399,"lon":5.392139,"is_reserved":false,"is_disabled":false,"rental_uris":{"android":"levelo://app?vid=1829174e-ceb3-47f4-934c-b776866303b9","ios":"levelo://app?vid=1829174e-ceb3-47f4-934c-b776866303b9"},"vehicle_type_id":"4","last_reported":1692720484,"current_range_meters":3600,"station_id":"ce4bhjp2rcd13ifvqga0","pricing_plan_id":"free"},{"bike_id":"c3d6fbd1-1295-4f94-98c4-e10cdc31063b","system_id":"levelo_inurba_marseille","lat":43.27382,"lon":5.36253,"is_reserved":false,"is_disabled":false,"rental_uris":{"android":"levelo://app?vid=c3d6fbd1-1295-4f94-98c4-e10cdc31063b","ios":"levelo://app?vid=c3d6fbd1-1295-4f94-98c4-e10cdc31063b"},"vehicle_type_id":"4","last_reported":1692720484,"current_range_meters":28000,"station_id":"ce4bhbh2rcd13ifvqeo0","pricing_plan_id":"free"},{"bike_id":"fddecc83-d53d-4653-babb-c5672c6d986a","system_id":"levelo_inurba_marseille","lat":43.27377,"lon":5.36254,"is_reserved":false,"is_disabled":false,"rental_uris":{"android":"levelo://app?vid=fddecc83-d53d-4653-babb-c5672c6d986a","ios":"levelo://app?vid=fddecc83-d53d-4653-babb-c5672c6d986a"},"vehicle_type_id":"4","last_reported":1692720484,"current_range_meters":18400,"station_id":"ce4bhbh2rcd13ifvqeo0","pricing_plan_id":"free"},{"bike_id":"e01daa41-e06b-4978-a996-c1cd5843d6c6","system_id":"levelo_inurba_marseille","lat":43.27377,"lon":5.36241,"is_reserved":false,"is_disabled":false,"rental_uris":{"android":"levelo://app?vid=e01daa41-e06b-4978-a996-c1cd5843d6c6","ios":"levelo://app?vid=e01daa41-e06b-4978-a996-c1cd5843d6c6"},"vehicle_type_id":"4","last_reported":1692720484,"current_range_meters":31200,"station_id":"ce4bhbh2rcd13ifvqeo0","pricing_plan_id":"free"},{"bike_id":"d59dc4ba-b6a5-4776-ac60-0a47343b7168","system_id":"levelo_inurba_marseille","lat":43.273613,"lon":5.362705,"is_reserved":false,"is_disabled":false,"rental_uris":{"android":"levelo://app?vid=d59dc4ba-b6a5-4776-ac60-0a47343b7168","ios":"levelo://app?vid=d59dc4ba-b6a5-4776-ac60-0a47343b7168"},"vehicle_type_id":"4","last_reported":1692720484,"current_range_meters":32000,"station_id":"ce4bhbh2rcd13ifvqeo0","pricing_plan_id":"free"},{"bike_id":"8694761a-23b2-4085-8948-1671c2cf9b9f","system_id":"levelo_inurba_marseille","lat":43.273613,"lon":5.362705,"is_reserved":false,"is_disabled":false,"rental_uris":{"android":"levelo://app?vid=8694761a-23b2-4085-8948-1671c2cf9b9f","ios":"levelo://app?vid=8694761a-23b2-4085-8948-1671c2cf9b9f"},"vehicle_type_id":"4","last_reported":1692720484,"current_range_meters":22400,"station_id":"ce4bhbh2rcd13ifvqeo0","pricing_plan_id":"free"},