{"last_updated":1702912051,"ttl":30,"version":"2.2","data":{"bikes":[{"bike_id":"af6f2c7f-30ef-42ec-90d1-7d7d0c717e84","system_id":"levelo_inurba_marseille","lat":43.31337,"lon":5.36714,"is_reserved":false,"is_disabled":false,"rental_uris":{"android":"levelo://app?vid=af6f2c7f-30ef-42ec-90d1-7d7d0c717e84","ios":"levelo://app?vid=af6f2c7f-30ef-42ec-90d1-7d7d0c717e84"},"vehicle_type_id":"4","last_reported":1702912051,"current_range_meters":21600,"station_id":"ce4bgr92rcd13ifvqc6g","pricing_plan_id":"free"},{"bike_id":"4fc9f832-7db8-4188-af64-2e5c98dde42e","system_id":"levelo_inurba_marseille","lat":43.313391,"lon":5.36706,"is_reserved":false,"is_disabled":false,"rental_uris":{"android":"levelo://app?vid=4fc9f832-7db8-4188-af64-2e5c98dde42e","ios":"levelo://app?vid=4fc9f832-7db8-4188-af64-2e5c98dde42e"},"vehicle_type_id":"4","last_reported":1702912051,"current_range_meters":30400,"station_id":"ce4bgr92rcd13ifvqc6g","pricing_plan_id":"free"},{"bike_id":"2a35484a-0926-4daa-abd1-ee8694286426","system_id":"levelo_inurba_marseille","lat":43.31341,"lon":5.367098,"is_reserved":false,"is_disabled":false,"rental_uris":{"android":"levelo://app?vid=2a35484a-0926-4daa-abd1-ee8694286426","ios":"levelo://app?vid=2a35484a-0926-4daa-abd1-ee8694286426"},"vehicle_type_id":"4","last_reported":1702912051,"current_range_meters":22800,"station_id":"ce4bgr92rcd13ifvqc6g","pricing_plan_id":"free"},{"bike_id":"e223c69a-1d61-4a03-811f-5db9cad1005b","system_id":"levelo_inurba_marseille","lat":43.31341,"lon":5.367098,"is_reserved":false,"is_disabled":false,"rental_uris":{"android":"levelo://app?vid=e223c69a-1d61-4a03-811f-5db9cad1005b","ios":"levelo://app?vid=e223c69a-1d61-4a03-811f-5db9cad1005b"},"vehicle_type_id":"4","last_reported":1702912051,"current_range_meters":31200,"station_id":"ce4bgr92rcd13ifvqc6g","pricing_plan_id":"free"},{"bike_id":"993482b7-cfc4-4090-857a-dce3e7e54f70","system_id":"levelo_inurba_marseille","lat":43.3136,"lon":5.36811,"is_reserved":false,"is_disabled":false,"rental_uris":{"android":"levelo://app?vid=993482b7-cfc4-4090-857a-dce3e7e54f70","ios":"levelo://app?vid=993482b7-cfc4-4090-857a-dce3e7e54f70"},"vehicle_type_id":"4","last_reported":1702912051,"current_range_meters":0,"station_id":"","pricing_plan_id":"free"},{"bike_id":"b0833f58-3b9f-4a9d-afde-e3b3fb5cd235","system_id":"levelo_inurba_marseille","lat":43.309039,"lon":5.371797,"is_reserved":false,"is_disabled":false,"rental_uris":{"android":"levelo://app?vid=b0833f58-3b9f-4a9d-afde-e3b3fb5cd235","ios":"levelo://app?vid=b0833f58-3b9f-4a9d-afde-e3b3fb5cd235"},"vehicle_type_id":"4","last_reported":1702912051,"current_range_meters":26000,"station_id":"ce4bguh2rcd13ifvqckg","pricing_plan_id":"free"},{"bike_id":"daa5806f-aee4-43af-9b3a-34b2a40379cb","system_id":"levelo_inurba_marseille","lat":43.309039,"lon":5.371797,"is_reserved":false,"is_disabled":false,"rental_uris":{"android":"levelo://app?vid=daa5806f-aee4-43af-9b3a-34b2a40379cb","ios":"levelo://app?vid=daa5806f-aee4-43af-9b3a-34b2a40379cb"},"vehicle_type_id":"4","last_reported":1702912051,"current_range_meters":1600,"station_id":"ce4bguh2rcd13ifvqckg","pricing_plan_id":"free"},{"bike_id":"0338bf91-b024-42c2-a31e-1d4e9b3ad77c","system_id":"levelo_inurba_marseille","lat":43.305714,"lon":5.365633,"is_reserved":false,"is_disabled":false,"rental_uris":{"android":"levelo://app?vid=0338bf91-b024-42c2-a31e-1d4e9b3ad77c","ios":"levelo://app?vid=0338bf91-b024-42c2-a31e-1d4e9b3ad77c"},"vehicle_type_id":"4","last_reported":1702912051,"current_range_meters":14400,"station_id":"ce4bgs12rcd13ifvqcag","pricing_plan_id":"free"},{"bike_id":"d00f9be6-b3f6-4268-b029-0fc6be4262c3","system_id":"levelo_inurba_marseille","lat":43.30538,"lon":5.36711,"is_reserved":false,"is_disabled":false,"rental_uris":{"android":"levelo://app?vid=d00f9be6-b3f6-4268-b029-0fc6be4262c3","ios":"levelo://app?vid=d00f9be6-b3f6-4268-b029-0fc6be4262c3"},"vehicle_type_id":"4","last_reported":1702912051,"current_range_meters":26000,"station_id":"ce4bgrp2rcd13ifvqc9g","pricing_plan_id":"free"},{"bike_id":"11a806ad-fe2a-4b5b-bcb3-cd29788622e8","system_id":"levelo_inurba_marseille","lat":43.305706,"lon":5.365654,"is_reserved":false,"is_disabled":false,"rental_uris":{"android":"levelo://app?vid=11a806ad-fe2a-4b5b-bcb3-cd29788622e8","ios":"levelo://app?vid=11a806ad-fe2a-4b5b-bcb3-cd29788622e8"},"vehicle_type_id":"4","last_reported":1702912051,"current_range_meters":5600,"station_id":"ce4bgs12rcd13ifvqcag","pricing_plan_id":"free"},{"bike_id":"33a125b2-2570-4af8-832a-d04c6a64a50f","system_id":"levelo_inurba_marseille","lat":43.305706,"lon":5.365654,"is_reserved":false,"is_disabled":false,"rental_uris":{"android":"levelo://app?vid=33a125b2-2570-4af8-832a-d04c6a64a50f","ios":"levelo://app?vid=33a125b2-2570-4af8-832a-d04c6a64a50f"},"vehicle_type_id":"4","last_reported":1702912051,"current_range_meters":12000,"station_id":"ce4bgs12rcd13ifvqcag","pricing_plan_id":"free"},{"bike_id":"955e4ab2-16e5-44e8-a986-a2f50ff96c06","system_id":"levelo_inurba_marseille","lat":43.305382,"lon":5.365389,"is_reserved":false,"is_disabled":false,"rental_uris":{"android":"levelo://app?vid=955e4ab2-16e5-44e8-a986-a2f50ff96c06","ios":"levelo://app?vid=955e4ab2-16e5-44e8-a986-a2f50ff96c06"},"vehicle_type_id":"4","last_reported":1702912051,"current_range_meters":7600,"station_id":"","pricing_plan_id":"free"},{"bike_id":"e4e22efc-6241-4bd0-bc0c-80dcf1669b9a","system_id":"levelo_inurba_marseille","lat":43.305368,"lon":5.367343,"is_reserved":false,"is_disabled":false,"rental_uris":{"android":"levelo://app?vid=e4e22efc-6241-4bd0-bc0c-80dcf1669b9a","ios":"levelo://app?vid=e4e22efc-6241-4bd0-bc0c-80dcf1669b9a"},"vehicle_type_id":"4","last_reported":1702912051,"current_range_meters":0,"station_id":"ce4bgrp2rcd13ifvqc9g","pricing_plan_id":"free"},{"bike_id":"46af1944-b734-441e-96c0-29f081dcb998","system_id":"levelo_inurba_marseille","lat":43.3052,"lon":5.3671,"is_reserved":false,"is_disabled":false,"rental_uris":{"android":"levelo://app?vid=46af1944-b734-441e-96c0-29f081dcb998","ios":"levelo://app?vid=46af1944-b734-441e-96c0-29f081dcb998"},"vehicle_type_id":"4","last_reported":1702912051,"current_range_meters":16000,"station_id":"ce4bgrp2rcd13ifvqc9g","pricing_plan_id":"free"},{"bike_id":"7975d01e-f8f4-4b20-9d10-f06edb4947b9","system_id":"levelo_inurba_marseille","lat":43.317075,"lon":5.377367,"is_reserved":false,"is_disabled":false,"rental_uris":{"android":"levelo://app?vid=7975d01e-f8f4-4b20-9d10-f06edb4947b9","ios":"levelo://app?vid=7975d01e-f8f4-4b20-9d10-f06edb4947b9"},"vehicle_type_id":"4","last_reported":1702912051,"current_range_meters":28800,"station_id":"ce4bgth2rcd13ifvqch0","pricing_plan_id":"free"},{"bike_id":"f845128f-13fd-450d-911c-c17198a8712f","system_id":"levelo_inurba_marseille","lat":43.317075,"lon":5.377367,"is_reserved":false,"is_disabled":false,"rental_uris":{"android":"levelo://app?vid=f845128f-13fd-450d-911c-c17198a8712f","ios":"levelo://app?vid=f845128f-13fd-450d-911c-c17198a8712f"},"vehicle_type_id":"4","last_reported":1702912051,"current_range_meters":31600,"station_id":"ce4bgth2rcd13ifvqch0","pricing_plan_id":"free"},{"bike_id":"33ddfdcd-714c-4e37-9159-f6ec1a6f3948","system_id":"levelo_inurba_marseille","lat":43.317075,"lon":5.377367,"is_reserved":false,"is_disabled":false,"rental_uris":{"android":"levelo://app?vid=33ddfdcd-714c-4e37-9159-f6ec1a6f3948","ios":"levelo://app?vid=33ddfdcd-714c-4e37-9159-f6ec1a6f3948"},"vehicle_type_id":"4","last_reported":1702912051,"current_range_meters":20400,"station_id":"ce4bgth2rcd13ifvqch0","pricing_plan_id":"free"},{"bike_id":"c3d1e602-1b8f-479f-a7d3-3677cfd51745","system_id":"levelo_inurba_marseille","lat":43.317075,"lon":5.377367,"is_reserved":false,"is_disabled":false,"rental_uris":{"android":"levelo://app?vid=c3d1e602-1b8f-479f-a7d3-3677cfd51745","ios":"levelo://app?vid=c3d1e602-1b8f-479f-a7d3-3677cfd51745"},"vehicle_type_id":"4","last_reported":1702912051,"current_range_meters":26400,"station_id":"ce4bgth2rcd13ifvqch0","pricing_plan_id":"free"},{"bike_id":"0347294b-2523-49f1-b765-4732b50d00b6","system_id":"levelo_inurba_marseille","lat":43.317075,"lon":5.377367,"is_reserved":false,"is_disabled":false,"rental_uris":{"android":"levelo://app?vid=0347294b-2523-49f1-b765-4732b50d00b6","ios":"levelo://app?vid=0347294b-2523-49f1-b765-4732b50d00b6"},"vehicle_type_id":"4","last_reported":1702912051,"current_range_meters":31200,"station_id":"ce4bgth2rcd13ifvqch0","pricing_plan_id":"free"},{"bike_id":"085e54ac-2fb1-4d9c-9e29-65b76a9cdbc4","system_id":"levelo_inurba_marseille","lat":43.301939,"lon":5.366286,"is_reserved":false,"is_disabled":false,"rental_uris":{"android":"levelo://app?vid=085e54ac-2fb1-4d9c-9e29-65b76a9cdbc4","ios":"levelo://app?vid=085e54ac-2fb1-4d9c-9e29-65b76a9cdbc4"},"vehicle_type_id":"4","last_reported":1702912051,"current_range_meters":30400,"station_id":"ce4bgrh2rcd13ifvqc8g","pricing_plan_id":"free"},{"bike_id":"58964417-d611-4878-b14e-6202aa088dde","system_id":"levelo_inurba_marseille","lat":43.31004,"lon":5.38169,"is_reserved":false,"is_disabled":false,"rental_uris":{"android":"levelo://app?vid=58964417-d611-4878-b14e-6202aa088dde","ios":"levelo://app?vid=58964417-d611-4878-b14e-6202aa088dde"},"vehicle_type_id":"4","last_reported":1702912051,"current_range_meters":30800,"station_id":"","pricing_plan_id":"free"},{"bike_id":"e3d8e78e-dbf8-49d9-a855-2aa24afd53f7","system_id":"levelo_inurba_marseille","lat":43.308036,"lon":5.381468,"is_reserved":false,"is_disabled":false,"rental_uris":{"android":"levelo://app?vid=e3d8e78e-dbf8-49d9-a855-2aa24afd53f7","ios":"levelo://app?vid=e3d8e78e-dbf8-49d9-a855-2aa24afd53f7"},"vehicle_type_id":"4","last_reported":1702912051,"current_range_meters":24400,"station_id":"ce4bgt12rcd13ifvqce0","pricing_plan_id":"free"},{"bike_id":"42dac427-4e02-4cd7-a700-1edd5896ac65","system_id":"levelo_inurba_marseille","lat":43.30796,"lon":5.38147,"is_reserved":false,"is_disabled":false,"rental_uris":{"android":"levelo://app?vid=42dac427-4e02-4cd7-a700-1edd5896ac65","ios":"levelo://app?vid=42dac427-4e02-4cd7-a700-1edd5896ac65"},"vehicle_type_id":"4","last_reported":1702912051,"current_range_meters":400,"station_id":"ce4bgt12rcd13ifvqce0","pricing_plan_id":"free"},{"bike_id":"e948b30d-1a90-481c-97a4-344af8a38ce0","system_id":"levelo_inurba_marseille","lat":43.30801,"lon":5.38152,"is_reserved":false,"is_disabled":false,"rental_uris":{"android":"levelo://app?vid=e948b30d-1a90-481c-97a4-344af8a38ce0","ios":"levelo://app?vid=e948b30d-1a90-481c-97a4-344af8a38ce0"},"vehicle_type_id":"4","last_reported":1702912051,"current_range_meters":20400,"station_id":"ce4bgt12rcd13ifvqce0","pricing_plan_id":"free"},{"bike_id":"50bfa1a5-c441-4051-9737-2bd55f92cd48","system_id":"levelo_inurba_marseille","lat":43.304606,"lon":5.379026,"is_reserved":false,"is_disabled":false,"rental_uris":{"android":"levelo://app?vid=50bfa1a5-c441-4051-9737-2bd55f92cd48","ios":"levelo://app?vid=50bfa1a5-c441-4051-9737-2bd55f92cd48"},"vehicle_type_id":"4","last_reported":1702912051,"current_range_meters":31200,"station_id":"ce4bgup2rcd13ifvqcn0","pricing_plan_id":"free"},{"bike_id":"2f441b85-ea7e-42e6-b267-258b004c3126","system_id":"levelo_inurba_marseille","lat":43.304606,"lon":5.379026,"is_reserved":false,"is_disabled":false,"rental_uris":{"android":"levelo://app?vid=2f441b85-ea7e-42e6-b267-258b004c3126","ios":"levelo://app?vid=2f441b85-ea7e-42e6-b267-258b004c3126"},"vehicle_type_id":"4","last_reported":1702912051,"current_range_meters":31200,"station_id":"ce4bgup2rcd13ifvqcn0","pricing_plan_id":"free"},{"bike_id":"85ca73bf-0a9b-4f34-9cd8-07328c5faa7b","system_id":"levelo_inurba_marseille","lat":43.304606,"lon":5.379026,"is_reserved":false,"is_disabled":false,"rental_uris":{"android":"levelo://app?vid=85ca73bf-0a9b-4f34-9cd8-07328c5faa7b","ios":"levelo://app?vid=85ca73bf-0a9b-4f34-9cd8-07328c5faa7b"},"vehicle_type_id":"4","last_reported":1702912051,"current_range_meters":31200,"station_id":"ce4bgup2rcd13ifvqcn0","pricing_plan_id":"free"},{"bike_id":"2dda5b9b-170c-4869-9962-d6c75fe23d40","system_id":"levelo_inurba_marseille","lat":43.30772,"lon":5.38184,"is_reserved":false,"is_disabled":false,"rental_uris":{"android":"levelo://app?vid=2dda5b9b-170c-4869-9962-d6c75fe23d40","ios":"levelo://app?vid=2dda5b9b-170c-4869-9962-d6c75fe23d40"},"vehicle_type_id":"4","last_reported":1702912051,"current_range_meters":24800,"station_id":"","pricing_plan_id":"free"},{"bike_id":"05ae035b-b4c5-45d9-a1c8-14c01015d14b","system_id":"levelo_inurba_marseille","lat":43.304606,"lon":5.379026,"is_reserved":false,"is_disabled":false,"rental_uris":{"android":"levelo://app?vid=05ae035b-b4c5-45d9-a1c8-14c01015d14b","ios":"levelo://app?vid=05ae035b-b4c5-45d9-a1c8-14c01015d14b"},"vehicle_type_id":"4","last_reported":1702912051,"current_range_meters":17600,"station_id":"ce4bgup2rcd13ifvqcn0","pricing_plan_id":"free"},{"bike_id":"17b02403-5828-43a1-8060-26c23f30ff46","system_id":"levelo_inurba_marseille","lat":43.304606,"lon":5.379026,"is_reserved":false,"is_disabled":false,"rental_uris":{"android":"levelo://app?vid=17b02403-5828-43a1-8060-26c23f30ff46","ios":"levelo://app?vid=17b02403-5828-43a1-8060-26c23f30ff46"},"vehicle_type_id":"4","last_reported":1702912051,"current_range_meters":22800,"station_id":"ce4bgup2rcd13ifvqcn0","pricing_plan_id":"free"},{"bike_id":"a17cb683-4c81-4c15-8a91-c7dafd84900b","system_id":"levelo_inurba_marseille","lat":43.304606,"lon":5.379026,"is_reserved":false,"is_disabled":false,"rental_uris":{"android":"levelo://app?vid=a17cb683-4c81-4c15-8a91-c7dafd84900b","ios":"levelo://app?vid=a17cb683-4c81-4c15-8a91-c7dafd84900b"},"vehicle_type_id":"4","last_reported":1702912051,"current_range_meters":22400,"station_id":"ce4bgup2rcd13ifvqcn0","pricing_plan_id":"free"},{"bike_id":"07a376be-02e2-44de-a85d-9e028c589ebd","system_id":"levelo_inurba_marseille","lat":43.32483,"lon":5.3656,"is_reserved":false,"is_disabled":false,"rental_uris":{"android":"levelo://app?vid=07a376be-02e2-44de-a85d-9e028c589ebd","ios":"levelo://app?vid=07a376be-02e2-44de-a85d-9e028c589ebd"},"vehicle_type_id":"4","last_reported":1702912051,"current_range_meters":4800,"station_id":"ce4bhs12rcd13ifvqhvg","pricing_plan_id":"free"},{"bike_id":"8b97c3f1-bb5f-4c4b-bae8-74bcb68230ca","system_id":"levelo_inurba_marseille","lat":43.310647,"lon":5.383352,"is_reserved":false,"is_disabled":false,"rental_uris":{"android":"levelo://app?vid=8b97c3f1-bb5f-4c4b-bae8-74bcb68230ca","ios":"levelo://app?vid=8b97c3f1-bb5f-4c4b-bae8-74bcb68230ca"},"vehicle_type_id":"4","last_reported":1702912051,"current_range_meters":800,"station_id":"","pricing_plan_id":"free"},{"bike_id":"e385a076-bed4-4b4f-a53b-50382a0387c3","system_id":"levelo_inurba_marseille","lat":43.31504,"lon":5.38393,"is_reserved":false,"is_disabled":false,"rental_uris":{"android":"levelo://app?vid=e385a076-bed4-4b4f-a53b-50382a0387c3","ios":"levelo://app?vid=e385a076-bed4-4b4f-a53b-50382a0387c3"},"vehicle_type_id":"4","last_reported":1702912051,"current_range_meters":14000,"station_id":"","pricing_plan_id":"free"},{"bike_id":"ef157e0f-7f03-4f2a-b5bc-11570eb6b3f8","system_id":"levelo_inurba_marseille","lat":43.313571,"lon":5.384829,"is_reserved":false,"is_disabled":false,"rental_uris":{"android":"levelo://app?vid=ef157e0f-7f03-4f2a-b5bc-11570eb6b3f8","ios":"levelo://app?vid=ef157e0f-7f03-4f2a-b5bc-11570eb6b3f8"},"vehicle_type_id":"4","last_reported":1702912051,"current_range_meters":25600,"station_id":"ce4bgt92rcd13ifvqcf0","pricing_plan_id":"free"},{"bike_id":"bdbc360e-8690-4b10-88f3-8f14540f3e21","system_id":"levelo_inurba_marseille","lat":43.313571,"lon":5.384829,"is_reserved":false,"is_disabled":false,"rental_uris":{"android":"levelo://app?vid=bdbc360e-8690-4b10-88f3-8f14540f3e21","ios":"levelo://app?vid=bdbc360e-8690-4b10-88f3-8f14540f3e21"},"vehicle_type_id":"4","last_reported":1702912051,"current_range_meters":30000,"station_id":"ce4bgt92rcd13ifvqcf0","pricing_plan_id":"free"},{"bike_id":"ca774dfa-4923-47f4-af65-f86eedb7bb87","system_id":"levelo_inurba_marseille","lat":43.298433,"lon":5.362774,"is_reserved":false,"is_disabled":false,"rental_uris":{"android":"levelo://app?vid=ca774dfa-4923-47f4-af65-f86eedb7bb87","ios":"levelo://app?vid=ca774dfa-4923-47f4-af65-f86eedb7bb87"},"vehicle_type_id":"4","last_reported":1702912051,"current_range_meters":8800,"station_id":"ce4bgpp2rcd13ifvqc3g","pricing_plan_id":"free"},{"bike_id":"819cb438-2e9c-4e0b-902b-5e19ef554d5c","system_id":"levelo_inurba_marseille","lat":43.305445,"lon":5.384362,"is_reserved":false,"is_disabled":false,"rental_uris":{"android":"levelo://app?vid=819cb438-2e9c-4e0b-902b-5e19ef554d5c","ios":"levelo://app?vid=819cb438-2e9c-4e0b-902b-5e19ef554d5c"},"vehicle_type_id":"4","last_reported":1702912051,"current_range_meters":6400,"station_id":"ce4bgg92rcd13ifvqb30","pricing_plan_id":"free"},{"bike_id":"bb50e0f4-646f-4210-9051-42d2f8d6d21a","system_id":"levelo_inurba_marseille","lat":43.305364,"lon":5.384119,"is_reserved":false,"is_disabled":false,"rental_uris":{"android":"levelo://app?vid=bb50e0f4-646f-4210-9051-42d2f8d6d21a","ios":"levelo://app?vid=bb50e0f4-646f-4210-9051-42d2f8d6d21a"},"vehicle_type_id":"4","last_reported":1702912051,"current_range_meters":4800,"station_id":"ce4bgg92rcd13ifvqb30","pricing_plan_id":"free"},{"bike_id":"3b26bd49-4fea-4d7e-9958-71a8fda04baf","system_id":"levelo_inurba_marseille","lat":43.299243,"lon":5.37481,"is_reserved":false,"is_disabled":false,"rental_uris":{"android":"levelo://app?vid=3b26bd49-4fea-4d7e-9958-71a8fda04baf","ios":"levelo://app?vid=3b26bd49-4fea-4d7e-9958-71a8fda04baf"},"vehicle_type_id":"4","last_reported":1702912051,"current_range_meters":14000,"station_id":"ce4bgjh2rcd13ifvqbg0","pricing_plan_id":"free"},{"bike_id":"d1546589-7c47-4051-8a1a-0018139d189d","system_id":"levelo_inurba_marseille","lat":43.297794,"lon":5.370888,"is_reserved":false,"is_disabled":false,"rental_uris":{"android":"levelo://app?vid=d1546589-7c47-4051-8a1a-0018139d189d","ios":"levelo://app?vid=d1546589-7c47-4051-8a1a-0018139d189d"},"vehicle_type_id":"4","last_reported":1702912051,"current_range_meters":19600,"station_id":"ce4bgop2rcd13ifvqc1g","pricing_plan_id":"free"},{"bike_id":"1c4e0be7-4a56-4d58-8b2f-9899334fc7b6","system_id":"levelo_inurba_marseille","lat":43.32825,"lon":5.36675,"is_reserved":false,"is_disabled":false,"rental_uris":{"android":"levelo://app?vid=1c4e0be7-4a56-4d58-8b2f-9899334fc7b6","ios":"levelo://app?vid=1c4e0be7-4a56-4d58-8b2f-9899334fc7b6"},"vehicle_type_id":"4","last_reported":1702912051,"current_range_meters":21200,"station_id":"ce4bhs92rcd13ifvqi0g","pricing_plan_id":"free"},{"bike_id":"8749397c-1e02-4a65-99a7-4686840828d1","system_id":"levelo_inurba_marseille","lat":43.32827,"lon":5.36691,"is_reserved":false,"is_disabled":false,"rental_uris":{"android":"levelo://app?vid=8749397c-1e02-4a65-99a7-4686840828d1","ios":"levelo://app?vid=8749397c-1e02-4a65-99a7-4686840828d1"},"vehicle_type_id":"4","last_reported":1702912051,"current_range_meters":18000,"station_id":"ce4bhs92rcd13ifvqi0g","pricing_plan_id":"free"},{"bike_id":"30d083c1-04e2-44a3-928a-ccb93083c16d","system_id":"levelo_inurba_marseille","lat":43.296921,"lon":5.376579,"is_reserved":false,"is_disabled":false,"rental_uris":{"android":"levelo://app?vid=30d083c1-04e2-44a3-928a-ccb93083c16d","ios":"levelo://app?vid=30d083c1-04e2-44a3-928a-ccb93083c16d"},"vehicle_type_id":"4","last_reported":1702912051,"current_range_meters":400,"station_id":"ce4bgkh2rcd13ifvqbl0","pricing_plan_id":"free"},{"bike_id":"0a454923-371e-43f8-8c8a-67103d581c80","system_id":"levelo_inurba_marseille","lat":43.29701,"lon":5.37697,"is_reserved":false,"is_disabled":false,"rental_uris":{"android":"levelo://app?vid=0a454923-371e-43f8-8c8a-67103d581c80","ios":"levelo://app?vid=0a454923-371e-43f8-8c8a-67103d581c80"},"vehicle_type_id":"4","last_reported":1702912051,"current_range_meters":4000,"station_id":"ce4bgkh2rcd13ifvqbl0","pricing_plan_id":"free"},{"bike_id":"293722bc-2ff5-4dc8-b024-b87ed8c6d0eb","system_id":"levelo_inurba_marseille","lat":43.309589,"lon":5.390258,"is_reserved":false,"is_disabled":false,"rental_uris":{"android":"levelo://app?vid=293722bc-2ff5-4dc8-b024-b87ed8c6d0eb","ios":"levelo://app?vid=293722bc-2ff5-4dc8-b024-b87ed8c6d0eb"},"vehicle_type_id":"4","last_reported":1702912051,"current_range_meters":0,"station_id":"ce4bgup2rcd13ifvqco0","pricing_plan_id":"free"},{"bike_id":"ea53b361-e9e5-4e19-a8c2-c4dd1aeab319","system_id":"levelo_inurba_marseille","lat":43.317557,"lon":5.390173,"is_reserved":false,"is_disabled":false,"rental_uris":{"android":"levelo://app?vid=ea53b361-e9e5-4e19-a8c2-c4dd1aeab319","ios":"levelo://app?vid=ea53b361-e9e5-4e19-a8c2-c4dd1aeab319"},"vehicle_type_id":"4","last_reported":1702912051,"current_range_meters":14400,"station_id":"ce4bhqp2rcd13ifvqhng","pricing_plan_id":"free"},{"bike_id":"e62dea4f-317e-489d-a433-acb22a495d31","system_id":"levelo_inurba_marseille","lat":43.317557,"lon":5.390173,"is_reserved":false,"is_disabled":false,"rental_uris":{"android":"levelo://app?vid=e62dea4f-317e-489d-a433-acb22a495d31","ios":"levelo://app?vid=e62dea4f-317e-489d-a433-acb22a495d31"},"vehicle_type_id":"4","last_reported":1702912051,"current_range_meters":20000,"station_id":"ce4bhqp2rcd13ifvqhng","pricing_plan_id":"free"},{"bike_id":"99d4f4c6-4916-4a39-a7a7-1eddbb54dd59","system_id":"levelo_inurba_marseille","lat":43.29805,"lon":5.3809,"is_reserved":false,"is_disabled":false,"rental_uris":{"android":"levelo://app?vid=99d4f4c6-4916-4a39-a7a7-1eddbb54dd59","ios":"levelo://app?vid=99d4f4c6-4916-4a39-a7a7-1eddbb54dd59"},"vehicle_type_id":"4","last_reported":1702912051,"current_range_meters":16000,"station_id":"ce4bgip2rcd13ifvqbb0","pricing_plan_id":"free"},{"bike_id":"8192c9ab-26e3-460a-945d-34272266ce3d","system_id":"levelo_inurba_marseille","lat":43.296277,"lon":5.377108,"is_reserved":false,"is_disabled":false,"rental_uris":{"android":"levelo://app?vid=8192c9ab-26e3-460a-945d-34272266ce3d","ios":"levelo://app?vid=8192c9ab-26e3-460a-945d-34272266ce3d"},"vehicle_type_id":"4","last_reported":1702912051,"current_range_meters":16400,"station_id":"ce4bgi92rcd13ifvqb90","pricing_plan_id":"free"},{"bike_id":"dbb50ab1-ece1-4b26-af30-216f953e2d84","system_id":"levelo_inurba_marseille","lat":43.29785,"lon":5.38099,"is_reserved":false,"is_disabled":false,"rental_uris":{"android":"levelo://app?vid=dbb50ab1-ece1-4b26-af30-216f953e2d84","ios":"levelo://app?vid=dbb50ab1-ece1-4b26-af30-216f953e2d84"},"vehicle_type_id":"4","last_reported":1702912051,"current_range_meters":24800,"station_id":"ce4bgip2rcd13ifvqbb0","pricing_plan_id":"free"},{"bike_id":"88a24cc2-cd60-4a54-a3c9-19e4beca8906","system_id":"levelo_inurba_marseille","lat":43.296263,"lon":5.377094,"is_reserved":false,"is_disabled":false,"rental_uris":{"android":"levelo://app?vid=88a24cc2-cd60-4a54-a3c9-19e4beca8906","ios":"levelo://app?vid=88a24cc2-cd60-4a54-a3c9-19e4beca8906"},"vehicle_type_id":"4","last_reported":1702912051,"current_range_meters":400,"station_id":"ce4bgi92rcd13ifvqb90","pricing_plan_id":"free"},{"bike_id":"b97eb0ab-3e69-42f2-bf45-68e6c9a95c53","system_id":"levelo_inurba_marseille","lat":43.295748,"lon":5.37522,"is_reserved":false,"is_disabled":false,"rental_uris":{"android":"levelo://app?vid=b97eb0ab-3e69-42f2-bf45-68e6c9a95c53","ios":"levelo://app?vid=b97eb0ab-3e69-42f2-bf45-68e6c9a95c53"},"vehicle_type_id":"4","last_reported":1702912051,"current_range_meters":1600,"station_id":"ce4bgh92rcd13ifvqb50","pricing_plan_id":"free"},{"bike_id":"f68cfa7f-6eac-428e-9e92-236c41e2099e","system_id":"levelo_inurba_marseille","lat":43.299707,"lon":5.384859,"is_reserved":false,"is_disabled":false,"rental_uris":{"android":"levelo://app?vid=f68cfa7f-6eac-428e-9e92-236c41e2099e","ios":"levelo://app?vid=f68cfa7f-6eac-428e-9e92-236c41e2099e"},"vehicle_type_id":"4","last_reported":1702912051,"current_range_meters":2400,"station_id":"ce4bgj92rcd13ifvqbd0","pricing_plan_id":"free"},{"bike_id":"06fb852c-e817-45a4-b8ff-78607bb90794","system_id":"levelo_inurba_marseille","lat":43.299724,"lon":5.384848,"is_reserved":false,"is_disabled":false,"rental_uris":{"android":"levelo://app?vid=06fb852c-e817-45a4-b8ff-78607bb90794","ios":"levelo://app?vid=06fb852c-e817-45a4-b8ff-78607bb90794"},"vehicle_type_id":"4","last_reported":1702912051,"current_range_meters":11200,"station_id":"ce4bgj92rcd13ifvqbd0","pricing_plan_id":"free"},{"bike_id":"27bbac5e-bd3a-47ec-ae76-fa613290b550","system_id":"levelo_inurba_marseille","lat":43.29973,"lon":5.38499,"is_reserved":false,"is_disabled":false,"rental_uris":{"android":"levelo://app?vid=27bbac5e-bd3a-47ec-ae76-fa613290b550","ios":"levelo://app?vid=27bbac5e-bd3a-47ec-ae76-fa613290b550"},"vehicle_type_id":"4","last_reported":1702912051,"current_range_meters":0,"station_id":"ce4bgj92rcd13ifvqbd0","pricing_plan_id":"free"},{"bike_id":"31dac95c-429c-4063-9757-d0dca39eb8b8","system_id":"levelo_inurba_marseille","lat":43.299717,"lon":5.384845,"is_reserved":false,"is_disabled":false,"rental_uris":{"android":"levelo://app?vid=31dac95c-429c-4063-9757-d0dca39eb8b8","ios":"levelo://app?vid=31dac95c-429c-4063-9757-d0dca39eb8b8"},"vehicle_type_id":"4","last_reported":1702912051,"current_range_meters":24800,"station_id":"ce4bgj92rcd13ifvqbd0","pricing_plan_id":"free"},{"bike_id":"e9f35549-c27b-4e39-90ee-5b45ea6e514c","system_id":"levelo_inurba_marseille","lat":43.30759,"lon":5.39231,"is_reserved":false,"is_disabled":false,"rental_uris":{"android":"levelo://app?vid=e9f35549-c27b-4e39-90ee-5b45ea6e514c","ios":"levelo://app?vid=e9f35549-c27b-4e39-90ee-5b45ea6e514c"},"vehicle_type_id":"4","last_reported":1702912051,"current_range_meters":17200,"station_id":"","pricing_plan_id":"free"},{"bike_id":"035e3f81-5a5a-4499-9445-7f1c4b7f1b4d","system_id":"levelo_inurba_marseille","lat":43.29602,"lon":5.381084,"is_reserved":false,"is_disabled":false,"rental_uris":{"android":"levelo://app?vid=035e3f81-5a5a-4499-9445-7f1c4b7f1b4d","ios":"levelo://app?vid=035e3f81-5a5a-4499-9445-7f1c4b7f1b4d"},"vehicle_type_id":"4","last_reported":1702912051,"current_range_meters":13600,"station_id":"ce4bgl12rcd13ifvqbo0","pricing_plan_id":"free"},{"bike_id":"20c00798-f748-4513-93c5-723e0128bf47","system_id":"levelo_inurba_marseille","lat":43.292749,"lon":5.368398,"is_reserved":false,"is_disabled":false,"rental_uris":{"android":"levelo://app?vid=20c00798-f748-4513-93c5-723e0128bf47","ios":"levelo://app?vid=20c00798-f748-4513-93c5-723e0128bf47"},"vehicle_type_id":"4","last_reported":1702912051,"current_range_meters":20800,"station_id":"ce4bhbp2rcd13ifvqesg","pricing_plan_id":"free"},{"bike_id":"7e56b56a-9a99-4129-909d-60c90008b8cc","system_id":"levelo_inurba_marseille","lat":43.30602,"lon":5.39361,"is_reserved":false,"is_disabled":false,"rental_uris":{"android":"levelo://app?vid=7e56b56a-9a99-4129-909d-60c90008b8cc","ios":"levelo://app?vid=7e56b56a-9a99-4129-909d-60c90008b8cc"},"vehicle_type_id":"4","last_reported":1702912051,"current_range_meters":0,"station_id":"ce4bh0p2rcd13ifvqd80","pricing_plan_id":"free"},{"bike_id":"0d542b5c-f0e8-4064-9227-b29fffc29c0e","system_id":"levelo_inurba_marseille","lat":43.2936,"lon":5.37835,"is_reserved":false,"is_disabled":false,"rental_uris":{"android":"levelo://app?vid=0d542b5c-f0e8-4064-9227-b29fffc29c0e","ios":"levelo://app?vid=0d542b5c-f0e8-4064-9227-b29fffc29c0e"},"vehicle_type_id":"4","last_reported":1702912051,"current_range_meters":10800,"station_id":"ce4bgjh2rcd13ifvqbf0","pricing_plan_id":"free"},{"bike_id":"0dd94d24-fb4a-4b8e-95a2-226fc46f3bd1","system_id":"levelo_inurba_marseille","lat":43.2936,"lon":5.37835,"is_reserved":false,"is_disabled":false,"rental_uris":{"android":"levelo://app?vid=0dd94d24-fb4a-4b8e-95a2-226fc46f3bd1","ios":"levelo://app?vid=0dd94d24-fb4a-4b8e-95a2-226fc46f3bd1"},"vehicle_type_id":"4","last_reported":1702912051,"current_range_meters":16000,"station_id":"ce4bgjh2rcd13ifvqbf0","pricing_plan_id":"free"},{"bike_id":"e17fbfc0-a573-4e15-8e6e-ec0b3978d59a","system_id":"levelo_inurba_marseille","lat":43.29228,"lon":5.36061,"is_reserved":false,"is_disabled":false,"rental_uris":{"android":"levelo://app?vid=e17fbfc0-a573-4e15-8e6e-ec0b3978d59a","ios":"levelo://app?vid=e17fbfc0-a573-4e15-8e6e-ec0b3978d59a"},"vehicle_type_id":"4","last_reported":1702912051,"current_range_meters":22400,"station_id":"ce4bhbh2rcd13ifvqeqg","pricing_plan_id":"free"},{"bike_id":"40686e74-ff96-4df7-a0f4-34fcd31f4f6f","system_id":"levelo_inurba_marseille","lat":43.292311,"lon":5.360731,"is_reserved":false,"is_disabled":false,"rental_uris":{"android":"levelo://app?vid=40686e74-ff96-4df7-a0f4-34fcd31f4f6f","ios":"levelo://app?vid=40686e74-ff96-4df7-a0f4-34fcd31f4f6f"},"vehicle_type_id":"4","last_reported":1702912051,"current_range_meters":29600,"station_id":"ce4bhbh2rcd13ifvqeqg","pricing_plan_id":"free"},{"bike_id":"f2f27d72-c786-4f29-8ad1-d9c902027594","system_id":"levelo_inurba_marseille","lat":43.300852,"lon":5.390859,"is_reserved":false,"is_disabled":false,"rental_uris":{"android":"levelo://app?vid=f2f27d72-c786-4f29-8ad1-d9c902027594","ios":"levelo://app?vid=f2f27d72-c786-4f29-8ad1-d9c902027594"},"vehicle_type_id":"4","last_reported":1702912051,"current_range_meters":14400,"station_id":"ce4bh192rcd13ifvqdb0","pricing_plan_id":"free"},{"bike_id":"933fffce-fde6-4d7b-bcf8-3f8f185818c7","system_id":"levelo_inurba_marseille","lat":43.30085,"lon":5.390856,"is_reserved":false,"is_disabled":false,"rental_uris":{"android":"levelo://app?vid=933fffce-fde6-4d7b-bcf8-3f8f185818c7","ios":"levelo://app?vid=933fffce-fde6-4d7b-bcf8-3f8f185818c7"},"vehicle_type_id":"4","last_reported":1702912051,"current_range_meters":29200,"station_id":"ce4bh192rcd13ifvqdb0","pricing_plan_id":"free"},{"bike_id":"36346fe9-cb3a-4c1f-9cf2-50ac817a069c","system_id":"levelo_inurba_marseille","lat":43.291675,"lon":5.371583,"is_reserved":false,"is_disabled":false,"rental_uris":{"android":"levelo://app?vid=36346fe9-cb3a-4c1f-9cf2-50ac817a069c","ios":"levelo://app?vid=36346fe9-cb3a-4c1f-9cf2-50ac817a069c"},"vehicle_type_id":"4","last_reported":1702912051,"current_range_meters":0,"station_id":"ce4bha92rcd13ifvqeh0","pricing_plan_id":"free"},{"bike_id":"416ac2e3-5ee3-4927-b5e8-f6dd424317f6","system_id":"levelo_inurba_marseille","lat":43.29865,"lon":5.38911,"is_reserved":false,"is_disabled":false,"rental_uris":{"android":"levelo://app?vid=416ac2e3-5ee3-4927-b5e8-f6dd424317f6","ios":"levelo://app?vid=416ac2e3-5ee3-4927-b5e8-f6dd424317f6"},"vehicle_type_id":"4","last_reported":1702912051,"current_range_meters":22400,"station_id":"","pricing_plan_id":"free"},{"bike_id":"063f5faa-9d04-49de-b8f5-a286d9d5173a","system_id":"levelo_inurba_marseille","lat":43.309038,"lon":5.396546,"is_reserved":false,"is_disabled":false,"rental_uris":{"android":"levelo://app?vid=063f5faa-9d04-49de-b8f5-a286d9d5173a","ios":"levelo://app?vid=063f5faa-9d04-49de-b8f5-a286d9d5173a"},"vehicle_type_id":"4","last_reported":1702912051,"current_range_meters":3200,"station_id":"ce4bh012rcd13ifvqcv0","pricing_plan_id":"free"},{"bike_id":"37362067-4e64-4800-9520-eb837c7069cf","system_id":"levelo_inurba_marseille","lat":43.309038,"lon":5.396546,"is_reserved":false,"is_disabled":false,"rental_uris":{"android":"levelo://app?vid=37362067-4e64-4800-9520-eb837c7069cf","ios":"levelo://app?vid=37362067-4e64-4800-9520-eb837c7069cf"},"vehicle_type_id":"4","last_reported":1702912051,"current_range_meters":2800,"station_id":"ce4bh012rcd13ifvqcv0","pricing_plan_id":"free"},{"bike_id":"97b7faf7-8910-4b4a-91f8-307ce5346185","system_id":"levelo_inurba_marseille","lat":43.29529,"lon":5.385581,"is_reserved":false,"is_disabled":false,"rental_uris":{"android":"levelo://app?vid=97b7faf7-8910-4b4a-91f8-307ce5346185","ios":"levelo://app?vid=97b7faf7-8910-4b4a-91f8-307ce5346185"},"vehicle_type_id":"4","last_reported":1702912051,"current_range_meters":20400,"station_id":"ce4bgih2rcd13ifvqba0","pricing_plan_id":"free"},{"bike_id":"1f08aaa7-e487-4411-adce-41ce2bb91469","system_id":"levelo_inurba_marseille","lat":43.29529,"lon":5.385581,"is_reserved":false,"is_disabled":false,"rental_uris":{"android":"levelo://app?vid=1f08aaa7-e487-4411-adce-41ce2bb91469","ios":"levelo://app?vid=1f08aaa7-e487-4411-adce-41ce2bb91469"},"vehicle_type_id":"4","last_reported":1702912051,"current_range_meters":13600,"station_id":"ce4bgih2rcd13ifvqba0","pricing_plan_id":"free"},{"bike_id":"0079b257-0c2f-47f2-ab15-cdb35d3ca76e","system_id":"levelo_inurba_marseille","lat":43.29529,"lon":5.385581,"is_reserved":false,"is_disabled":false,"rental_uris":{"android":"levelo://app?vid=0079b257-0c2f-47f2-ab15-cdb35d3ca76e","ios":"levelo://app?vid=0079b257-0c2f-47f2-ab15-cdb35d3ca76e"},"vehicle_type_id":"4","last_reported":1702912051,"current_range_meters":24400,"station_id":"ce4bgih2rcd13ifvqba0","pricing_plan_id":"free"},{"bike_id":"0a37d818-f553-4180-aefd-29d533b969f6","system_id":"levelo_inurba_marseille","lat":43.29529,"lon":5.385581,"is_reserved":false,"is_disabled":false,"rental_uris":{"android":"levelo://app?vid=0a37d818-f553-4180-aefd-29d533b969f6","ios":"levelo://app?vid=0a37d818-f553-4180-aefd-29d533b969f6"},"vehicle_type_id":"4","last_reported":1702912051,"current_range_meters":24000,"station_id":"ce4bgih2rcd13ifvqba0","pricing_plan_id":"free"},{"bike_id":"21b40038-3c7f-4e10-9902-5d0c500949f1","system_id":"levelo_inurba_marseille","lat":43.302008,"lon":5.394694,"is_reserved":false,"is_disabled":false,"rental_uris":{"android":"levelo://app?vid=21b40038-3c7f-4e10-9902-5d0c500949f1","ios":"levelo://app?vid=21b40038-3c7f-4e10-9902-5d0c500949f1"},"vehicle_type_id":"4","last_reported":1702912051,"current_range_meters":24000,"station_id":"ce4bh0p2rcd13ifvqd70","pricing_plan_id":"free"},{"bike_id":"3f1d972a-04b3-4064-a740-c857792ef627","system_id":"levelo_inurba_marseille","lat":43.302008,"lon":5.394694,"is_reserved":false,"is_disabled":false,"rental_uris":{"android":"levelo://app?vid=3f1d972a-04b3-4064-a740-c857792ef627","ios":"levelo://app?vid=3f1d972a-04b3-4064-a740-c857792ef627"},"vehicle_type_id":"4","last_reported":1702912051,"current_range_meters":26800,"station_id":"ce4bh0p2rcd13ifvqd70","pricing_plan_id":"free"},{"bike_id":"8518f3a4-44fb-4f0b-ab8e-4aeb94c88b7e","system_id":"levelo_inurba_marseille","lat":43.29529,"lon":5.385581,"is_reserved":false,"is_disabled":false,"rental_uris":{"android":"levelo://app?vid=8518f3a4-44fb-4f0b-ab8e-4aeb94c88b7e","ios":"levelo://app?vid=8518f3a4-44fb-4f0b-ab8e-4aeb94c88b7e"},"vehicle_type_id":"4","last_reported":1702912051,"current_range_meters":27600,"station_id":"ce4bgih2rcd13ifvqba0","pricing_plan_id":"free"},{"bike_id":"e822044e-8889-4191-a637-41c32090e9d1","system_id":"levelo_inurba_marseille","lat":43.290327,"lon":5.375711,"is_reserved":false,"is_disabled":false,"rental_uris":{"android":"levelo://app?vid=e822044e-8889-4191-a637-41c32090e9d1","ios":"levelo://app?vid=e822044e-8889-4191-a637-41c32090e9d1"},"vehicle_type_id":"4","last_reported":1702912051,"current_range_meters":25200,"station_id":"ce4bh692rcd13ifvqe90","pricing_plan_id":"free"},{"bike_id":"8b514836-7d6b-4b18-a087-79874e35d8b6","system_id":"levelo_inurba_marseille","lat":43.290327,"lon":5.375711,"is_reserved":false,"is_disabled":false,"rental_uris":{"android":"levelo://app?vid=8b514836-7d6b-4b18-a087-79874e35d8b6","ios":"levelo://app?vid=8b514836-7d6b-4b18-a087-79874e35d8b6"},"vehicle_type_id":"4","last_reported":1702912051,"current_range_meters":24000,"station_id":"ce4bh692rcd13ifvqe90","pricing_plan_id":"free"},{"bike_id":"2cca3f43-2c5c-4483-b02d-b17c29831347","system_id":"levelo_inurba_marseille","lat":43.290327,"lon":5.375711,"is_reserved":false,"is_disabled":false,"rental_uris":{"android":"levelo://app?vid=2cca3f43-2c5c-4483-b02d-b17c29831347","ios":"levelo://app?vid=2cca3f43-2c5c-4483-b02d-b17c29831347"},"vehicle_type_id":"4","last_reported":1702912051,"current_range_meters":29200,"station_id":"ce4bh692rcd13ifvqe90","pricing_plan_id":"free"},{"bike_id":"84bf230a-f5c8-4b95-af72-16e087b02642","system_id":"levelo_inurba_marseille","lat":43.294162,"lon":5.386292,"is_reserved":false,"is_disabled":false,"rental_uris":{"android":"levelo://app?vid=84bf230a-f5c8-4b95-af72-16e087b02642","ios":"levelo://app?vid=84bf230a-f5c8-4b95-af72-16e087b02642"},"vehicle_type_id":"4","last_reported":1702912051,"current_range_meters":11600,"station_id":"ce4bh2h2rcd13ifvqdh0","pricing_plan_id":"free"},{"bike_id":"55a507b4-2e3a-4653-a249-b8694177d34c","system_id":"levelo_inurba_marseille","lat":43.28941,"lon":5.36634,"is_reserved":false,"is_disabled":false,"rental_uris":{"android":"levelo://app?vid=55a507b4-2e3a-4653-a249-b8694177d34c","ios":"levelo://app?vid=55a507b4-2e3a-4653-a249-b8694177d34c"},"vehicle_type_id":"4","last_reported":1702912051,"current_range_meters":26800,"station_id":"ce4bhap2rcd13ifvqek0","pricing_plan_id":"free"},{"bike_id":"c52cb444-72a8-4e4c-a897-4226b84985bd","system_id":"levelo_inurba_marseille","lat":43.28937,"lon":5.36628,"is_reserved":false,"is_disabled":false,"rental_uris":{"android":"levelo://app?vid=c52cb444-72a8-4e4c-a897-4226b84985bd","ios":"levelo://app?vid=c52cb444-72a8-4e4c-a897-4226b84985bd"},"vehicle_type_id":"4","last_reported":1702912051,"current_range_meters":20000,"station_id":"ce4bhap2rcd13ifvqek0","pricing_plan_id":"free"},{"bike_id":"138bf7c3-acce-4cca-b922-2c84e34ee718","system_id":"levelo_inurba_marseille","lat":43.289415,"lon":5.364075,"is_reserved":false,"is_disabled":false,"rental_uris":{"android":"levelo://app?vid=138bf7c3-acce-4cca-b922-2c84e34ee718","ios":"levelo://app?vid=138bf7c3-acce-4cca-b922-2c84e34ee718"},"vehicle_type_id":"4","last_reported":1702912051,"current_range_meters":2400,"station_id":"ce4bhc92rcd13ifvqetg","pricing_plan_id":"free"},{"bike_id":"fc1a093f-38d1-4c7a-a3e4-252cb4ba1001","system_id":"levelo_inurba_marseille","lat":43.289408,"lon":5.364107,"is_reserved":false,"is_disabled":false,"rental_uris":{"android":"levelo://app?vid=fc1a093f-38d1-4c7a-a3e4-252cb4ba1001","ios":"levelo://app?vid=fc1a093f-38d1-4c7a-a3e4-252cb4ba1001"},"vehicle_type_id":"4","last_reported":1702912051,"current_range_meters":4400,"station_id":"ce4bhc92rcd13ifvqetg","pricing_plan_id":"free"},{"bike_id":"e1a432ce-c1e6-44e5-9147-55c83512656c","system_id":"levelo_inurba_marseille","lat":43.289394,"lon":5.36395,"is_reserved":false,"is_disabled":false,"rental_uris":{"android":"levelo://app?vid=e1a432ce-c1e6-44e5-9147-55c83512656c","ios":"levelo://app?vid=e1a432ce-c1e6-44e5-9147-55c83512656c"},"vehicle_type_id":"4","last_reported":1702912051,"current_range_meters":21200,"station_id":"ce4bhc92rcd13ifvqetg","pricing_plan_id":"free"},{"bike_id":"53161f65-3476-40c5-9ebf-1b8ed7ee18cf","system_id":"levelo_inurba_marseille","lat":43.28935,"lon":5.36398,"is_reserved":false,"is_disabled":false,"rental_uris":{"android":"levelo://app?vid=53161f65-3476-40c5-9ebf-1b8ed7ee18cf","ios":"levelo://app?vid=53161f65-3476-40c5-9ebf-1b8ed7ee18cf"},"vehicle_type_id":"4","last_reported":1702912051,"current_range_meters":14800,"station_id":"ce4bhc92rcd13ifvqetg","pricing_plan_id":"free"},{"bike_id":"5f54efbe-abf2-4620-a027-446533efa657","system_id":"levelo_inurba_marseille","lat":43.292642,"lon":5.384254,"is_reserved":false,"is_disabled":false,"rental_uris":{"android":"levelo://app?vid=5f54efbe-abf2-4620-a027-446533efa657","ios":"levelo://app?vid=5f54efbe-abf2-4620-a027-446533efa657"},"vehicle_type_id":"4","last_reported":1702912051,"current_range_meters":17200,"station_id":"ce4bh692rcd13ifvqea0","pricing_plan_id":"free"},{"bike_id":"cf5c9730-3daa-40a2-9027-c782ea16f1c2","system_id":"levelo_inurba_marseille","lat":43.29004,"lon":5.35614,"is_reserved":false,"is_disabled":false,"rental_uris":{"android":"levelo://app?vid=cf5c9730-3daa-40a2-9027-c782ea16f1c2","ios":"levelo://app?vid=cf5c9730-3daa-40a2-9027-c782ea16f1c2"},"vehicle_type_id":"4","last_reported":1702912051,"current_range_meters":25200,"station_id":"ce4bhb92rcd13ifvqen0","pricing_plan_id":"free"},{"bike_id":"f44ee945-bd63-4f6c-8914-5f31df6b27ac","system_id":"levelo_inurba_marseille","lat":43.29003,"lon":5.35612,"is_reserved":false,"is_disabled":false,"rental_uris":{"android":"levelo://app?vid=f44ee945-bd63-4f6c-8914-5f31df6b27ac","ios":"levelo://app?vid=f44ee945-bd63-4f6c-8914-5f31df6b27ac"},"vehicle_type_id":"4","last_reported":1702912051,"current_range_meters":0,"station_id":"ce4bhb92rcd13ifvqen0","pricing_plan_id":"free"},{"bike_id":"8f731bc1-40ca-42e8-85c1-fa193021b9d8","system_id":"levelo_inurba_marseille","lat":43.289957,"lon":5.356359,"is_reserved":false,"is_disabled":false,"rental_uris":{"android":"levelo://app?vid=8f731bc1-40ca-42e8-85c1-fa193021b9d8","ios":"levelo://app?vid=8f731bc1-40ca-42e8-85c1-fa193021b9d8"},"vehicle_type_id":"4","last_reported":1702912051,"current_range_meters":2800,"station_id":"ce4bhb92rcd13ifvqen0","pricing_plan_id":"free"},{"bike_id":"af07e301-9cc9-4e8a-a14f-282d03642539","system_id":"levelo_inurba_marseille","lat":43.29522,"lon":5.390193,"is_reserved":false,"is_disabled":false,"rental_uris":{"android":"levelo://app?vid=af07e301-9cc9-4e8a-a14f-282d03642539","ios":"levelo://app?vid=af07e301-9cc9-4e8a-a14f-282d03642539"},"vehicle_type_id":"4","last_reported":1702912051,"current_range_meters":31200,"station_id":"ce4bh3p2rcd13ifvqdp0","pricing_plan_id":"free"},{"bike_id":"4a193f6d-9372-4276-813a-fee69cf490dc","system_id":"levelo_inurba_marseille","lat":43.297815,"lon":5.393548,"is_reserved":false,"is_disabled":false,"rental_uris":{"android":"levelo://app?vid=4a193f6d-9372-4276-813a-fee69cf490dc","ios":"levelo://app?vid=4a193f6d-9372-4276-813a-fee69cf490dc"},"vehicle_type_id":"4","last_reported":1702912051,"current_range_meters":20000,"station_id":"chh1huq6cuj3fo74tm60","pricing_plan_id":"free"},{"bike_id":"ff88d79f-8651-4ab9-9941-cec7a7a11beb","system_id":"levelo_inurba_marseille","lat":43.295169,"lon":5.390426,"is_reserved":false,"is_disabled":false,"rental_uris":{"android":"levelo://app?vid=ff88d79f-8651-4ab9-9941-cec7a7a11beb","ios":"levelo://app?vid=ff88d79f-8651-4ab9-9941-cec7a7a11beb"},"vehicle_type_id":"4","last_reported":1702912051,"current_range_meters":26000,"station_id":"ce4bh3p2rcd13ifvqdp0","pricing_plan_id":"free"},{"bike_id":"fa9e6159-1bec-4a2d-afa0-1c60e63d0ec9","system_id":"levelo_inurba_marseille","lat":43.3074,"lon":5.39994,"is_reserved":false,"is_disabled":false,"rental_uris":{"android":"levelo://app?vid=fa9e6159-1bec-4a2d-afa0-1c60e63d0ec9","ios":"levelo://app?vid=fa9e6159-1bec-4a2d-afa0-1c60e63d0ec9"},"vehicle_type_id":"4","last_reported":1702912051,"current_range_meters":28800,"station_id":"ce4bgip2rcd13ifvqbb0","pricing_plan_id":"free"},{"bike_id":"78fbdeaf-6977-49c3-8929-79cfb707e2ff","system_id":"levelo_inurba_marseille","lat":43.2901,"lon":5.381269,"is_reserved":false,"is_disabled":false,"rental_uris":{"android":"levelo://app?vid=78fbdeaf-6977-49c3-8929-79cfb707e2ff","ios":"levelo://app?vid=78fbdeaf-6977-49c3-8929-79cfb707e2ff"},"vehicle_type_id":"4","last_reported":1702912051,"current_range_meters":6800,"station_id":"ce4bh4p2rcd13ifvqe1g","pricing_plan_id":"free"},{"bike_id":"c7c4a14c-f2f2-44f5-8aa9-dfd42e6fc41d","system_id":"levelo_inurba_marseille","lat":43.2901,"lon":5.381269,"is_reserved":false,"is_disabled":false,"rental_uris":{"android":"levelo://app?vid=c7c4a14c-f2f2-44f5-8aa9-dfd42e6fc41d","ios":"levelo://app?vid=c7c4a14c-f2f2-44f5-8aa9-dfd42e6fc41d"},"vehicle_type_id":"4","last_reported":1702912051,"current_range_meters":2000,"station_id":"ce4bh4p2rcd13ifvqe1g","pricing_plan_id":"free"},{"bike_id":"98f2e80c-db00-41c3-8139-ac0882e65225","system_id":"levelo_inurba_marseille","lat":43.29027,"lon":5.38146,"is_reserved":false,"is_disabled":false,"rental_uris":{"android":"levelo://app?vid=98f2e80c-db00-41c3-8139-ac0882e65225","ios":"levelo://app?vid=98f2e80c-db00-41c3-8139-ac0882e65225"},"vehicle_type_id":"4","last_reported":1702912051,"current_range_meters":13200,"station_id":"ce4bh4p2rcd13ifvqe1g","pricing_plan_id":"free"},{"bike_id":"6e6ecede-2939-4f64-8d8c-231bbeaea984","system_id":"levelo_inurba_marseille","lat":43.28858,"lon":5.3585,"is_reserved":false,"is_disabled":false,"rental_uris":{"android":"levelo://app?vid=6e6ecede-2939-4f64-8d8c-231bbeaea984","ios":"levelo://app?vid=6e6ecede-2939-4f64-8d8c-231bbeaea984"},"vehicle_type_id":"4","last_reported":1702912051,"current_range_meters":14000,"station_id":"ce4bhb12rcd13ifvqem0","pricing_plan_id":"free"},{"bike_id":"b71fd3bb-336f-42e0-aedf-fb7aa030af8d","system_id":"levelo_inurba_marseille","lat":43.28856,"lon":5.35852,"is_reserved":false,"is_disabled":false,"rental_uris":{"android":"levelo://app?vid=b71fd3bb-336f-42e0-aedf-fb7aa030af8d","ios":"levelo://app?vid=b71fd3bb-336f-42e0-aedf-fb7aa030af8d"},"vehicle_type_id":"4","last_reported":1702912051,"current_range_meters":2400,"station_id":"ce4bhb12rcd13ifvqem0","pricing_plan_id":"free"},{"bike_id":"fce170a4-6d80-4280-a24d-63d8dbed3fbc","system_id":"levelo_inurba_marseille","lat":43.28853,"lon":5.35846,"is_reserved":false,"is_disabled":false,"rental_uris":{"android":"levelo://app?vid=fce170a4-6d80-4280-a24d-63d8dbed3fbc","ios":"levelo://app?vid=fce170a4-6d80-4280-a24d-63d8dbed3fbc"},"vehicle_type_id":"4","last_reported":1702912051,"current_range_meters":24800,"station_id":"ce4bhb12rcd13ifvqem0","pricing_plan_id":"free"},{"bike_id":"fc8d24bb-0c26-4688-9bac-affcc075aa4d","system_id":"levelo_inurba_marseille","lat":43.33744,"lon":5.37451,"is_reserved":false,"is_disabled":false,"rental_uris":{"android":"levelo://app?vid=fc8d24bb-0c26-4688-9bac-affcc075aa4d","ios":"levelo://app?vid=fc8d24bb-0c26-4688-9bac-affcc075aa4d"},"vehicle_type_id":"4","last_reported":1702912051,"current_range_meters":28800,"station_id":"","pricing_plan_id":"free"},{"bike_id":"fc7a04d7-a1ce-4604-99b6-d97b31636a57","system_id":"levelo_inurba_marseille","lat":43.30642,"lon":5.401031,"is_reserved":false,"is_disabled":false,"rental_uris":{"android":"levelo://app?vid=fc7a04d7-a1ce-4604-99b6-d97b31636a57","ios":"levelo://app?vid=fc7a04d7-a1ce-4604-99b6-d97b31636a57"},"vehicle_type_id":"4","last_reported":1702912051,"current_range_meters":23200,"station_id":"ce4bh112rcd13ifvqda0","pricing_plan_id":"free"},{"bike_id":"180edefc-203b-4d05-aae4-f60fda4db5ba","system_id":"levelo_inurba_marseille","lat":43.30652,"lon":5.40104,"is_reserved":false,"is_disabled":false,"rental_uris":{"android":"levelo://app?vid=180edefc-203b-4d05-aae4-f60fda4db5ba","ios":"levelo://app?vid=180edefc-203b-4d05-aae4-f60fda4db5ba"},"vehicle_type_id":"4","last_reported":1702912051,"current_range_meters":9200,"station_id":"","pricing_plan_id":"free"},{"bike_id":"d83dc7ba-82fa-4e8b-89fe-c0b5bd95d556","system_id":"levelo_inurba_marseille","lat":43.30642,"lon":5.401031,"is_reserved":false,"is_disabled":false,"rental_uris":{"android":"levelo://app?vid=d83dc7ba-82fa-4e8b-89fe-c0b5bd95d556","ios":"levelo://app?vid=d83dc7ba-82fa-4e8b-89fe-c0b5bd95d556"},"vehicle_type_id":"4","last_reported":1702912051,"current_range_meters":28800,"station_id":"ce4bh112rcd13ifvqda0","pricing_plan_id":"free"},{"bike_id":"1e3792d4-0e40-47d4-90f4-cd87559b2c10","system_id":"levelo_inurba_marseille","lat":43.30133,"lon":5.39861,"is_reserved":false,"is_disabled":false,"rental_uris":{"android":"levelo://app?vid=1e3792d4-0e40-47d4-90f4-cd87559b2c10","ios":"levelo://app?vid=1e3792d4-0e40-47d4-90f4-cd87559b2c10"},"vehicle_type_id":"4","last_reported":1702912051,"current_range_meters":24000,"station_id":"ce4bh0h2rcd13ifvqd40","pricing_plan_id":"free"},{"bike_id":"4fe37183-220c-457f-9160-2f0b74752835","system_id":"levelo_inurba_marseille","lat":43.28727,"lon":5.36078,"is_reserved":false,"is_disabled":false,"rental_uris":{"android":"levelo://app?vid=4fe37183-220c-457f-9160-2f0b74752835","ios":"levelo://app?vid=4fe37183-220c-457f-9160-2f0b74752835"},"vehicle_type_id":"4","last_reported":1702912051,"current_range_meters":400,"station_id":"cki0cbj6b192h4jlfktg","pricing_plan_id":"free"},{"bike_id":"906e7035-6466-4459-9506-4026fe333bf1","system_id":"levelo_inurba_marseille","lat":43.29876,"lon":5.3973,"is_reserved":false,"is_disabled":false,"rental_uris":{"android":"levelo://app?vid=906e7035-6466-4459-9506-4026fe333bf1","ios":"levelo://app?vid=906e7035-6466-4459-9506-4026fe333bf1"},"vehicle_type_id":"4","last_reported":1702912051,"current_range_meters":0,"station_id":"ce4bh0h2rcd13ifvqd50","pricing_plan_id":"free"},{"bike_id":"04d7def3-b04b-4433-b43f-6bf6a0d2c0e5","system_id":"levelo_inurba_marseille","lat":43.298681,"lon":5.397225,"is_reserved":false,"is_disabled":false,"rental_uris":{"android":"levelo://app?vid=04d7def3-b04b-4433-b43f-6bf6a0d2c0e5","ios":"levelo://app?vid=04d7def3-b04b-4433-b43f-6bf6a0d2c0e5"},"vehicle_type_id":"4","last_reported":1702912051,"current_range_meters":23200,"station_id":"ce4bh0h2rcd13ifvqd50","pricing_plan_id":"free"},{"bike_id":"2c6f0341-f2ba-47f2-93b9-8d4a948ae75a","system_id":"levelo_inurba_marseille","lat":43.286961,"lon":5.373785,"is_reserved":false,"is_disabled":false,"rental_uris":{"android":"levelo://app?vid=2c6f0341-f2ba-47f2-93b9-8d4a948ae75a","ios":"levelo://app?vid=2c6f0341-f2ba-47f2-93b9-8d4a948ae75a"},"vehicle_type_id":"4","last_reported":1702912051,"current_range_meters":20400,"station_id":"ce4bh3p2rcd13ifvqdq0","pricing_plan_id":"free"},{"bike_id":"9a887796-8192-49cc-ba05-ecf02b54e5c0","system_id":"levelo_inurba_marseille","lat":43.286961,"lon":5.373785,"is_reserved":false,"is_disabled":false,"rental_uris":{"android":"levelo://app?vid=9a887796-8192-49cc-ba05-ecf02b54e5c0","ios":"levelo://app?vid=9a887796-8192-49cc-ba05-ecf02b54e5c0"},"vehicle_type_id":"4","last_reported":1702912051,"current_range_meters":6000,"station_id":"ce4bh3p2rcd13ifvqdq0","pricing_plan_id":"free"},{"bike_id":"3819a9b3-ca2a-4131-adf3-be0e45d7c90f","system_id":"levelo_inurba_marseille","lat":43.290345,"lon":5.38646,"is_reserved":false,"is_disabled":false,"rental_uris":{"android":"levelo://app?vid=3819a9b3-ca2a-4131-adf3-be0e45d7c90f","ios":"levelo://app?vid=3819a9b3-ca2a-4131-adf3-be0e45d7c90f"},"vehicle_type_id":"4","last_reported":1702912051,"current_range_meters":24400,"station_id":"ce4bh4p2rcd13ifvqe0g","pricing_plan_id":"free"},{"bike_id":"4a45f869-94a8-4547-b572-67805cf52fdd","system_id":"levelo_inurba_marseille","lat":43.290345,"lon":5.38646,"is_reserved":false,"is_disabled":false,"rental_uris":{"android":"levelo://app?vid=4a45f869-94a8-4547-b572-67805cf52fdd","ios":"levelo://app?vid=4a45f869-94a8-4547-b572-67805cf52fdd"},"vehicle_type_id":"4","last_reported":1702912051,"current_range_meters":26800,"station_id":"ce4bh4p2rcd13ifvqe0g","pricing_plan_id":"free"},{"bike_id":"ab94a2ce-62b5-4a0c-824f-1d2eac7f2754","system_id":"levelo_inurba_marseille","lat":43.290345,"lon":5.38646,"is_reserved":false,"is_disabled":false,"rental_uris":{"android":"levelo://app?vid=ab94a2ce-62b5-4a0c-824f-1d2eac7f2754","ios":"levelo://app?vid=ab94a2ce-62b5-4a0c-824f-1d2eac7f2754"},"vehicle_type_id":"4","last_reported":1702912051,"current_range_meters":18400,"station_id":"ce4bh4p2rcd13ifvqe0g","pricing_plan_id":"free"},{"bike_id":"aa1ee429-abab-4b18-bf26-eb900d28aaf6","system_id":"levelo_inurba_marseille","lat":43.284538,"lon":5.358657,"is_reserved":false,"is_disabled":false,"rental_uris":{"android":"levelo://app?vid=aa1ee429-abab-4b18-bf26-eb900d28aaf6","ios":"levelo://app?vid=aa1ee429-abab-4b18-bf26-eb900d28aaf6"},"vehicle_type_id":"4","last_reported":1702912051,"current_range_meters":29600,"station_id":"ce4bhah2rcd13ifvqei0","pricing_plan_id":"free"},{"bike_id":"735641cd-c4c6-4b00-b424-bed28e46715d","system_id":"levelo_inurba_marseille","lat":43.284538,"lon":5.358657,"is_reserved":false,"is_disabled":false,"rental_uris":{"android":"levelo://app?vid=735641cd-c4c6-4b00-b424-bed28e46715d","ios":"levelo://app?vid=735641cd-c4c6-4b00-b424-bed28e46715d"},"vehicle_type_id":"4","last_reported":1702912051,"current_range_meters":800,"station_id":"ce4bhah2rcd13ifvqei0","pricing_plan_id":"free"},{"bike_id":"df0ce0b0-8ace-4435-bd6a-465884fb3816","system_id":"levelo_inurba_marseille","lat":43.284534,"lon":5.358662,"is_reserved":false,"is_disabled":false,"rental_uris":{"android":"levelo://app?vid=df0ce0b0-8ace-4435-bd6a-465884fb3816","ios":"levelo://app?vid=df0ce0b0-8ace-4435-bd6a-465884fb3816"},"vehicle_type_id":"4","last_reported":1702912051,"current_range_meters":31200,"station_id":"ce4bhah2rcd13ifvqei0","pricing_plan_id":"free"},{"bike_id":"ca65fbb8-4c79-4d40-9c1f-caca31888427","system_id":"levelo_inurba_marseille","lat":43.284534,"lon":5.358662,"is_reserved":false,"is_disabled":false,"rental_uris":{"android":"levelo://app?vid=ca65fbb8-4c79-4d40-9c1f-caca31888427","ios":"levelo://app?vid=ca65fbb8-4c79-4d40-9c1f-caca31888427"},"vehicle_type_id":"4","last_reported":1702912051,"current_range_meters":3200,"station_id":"ce4bhah2rcd13ifvqei0","pricing_plan_id":"free"},{"bike_id":"ef51117d-5354-4dae-acdf-181d9d094a8d","system_id":"levelo_inurba_marseille","lat":43.284538,"lon":5.358657,"is_reserved":false,"is_disabled":false,"rental_uris":{"android":"levelo://app?vid=ef51117d-5354-4dae-acdf-181d9d094a8d","ios":"levelo://app?vid=ef51117d-5354-4dae-acdf-181d9d094a8d"},"vehicle_type_id":"4","last_reported":1702912051,"current_range_meters":5200,"station_id":"ce4bhah2rcd13ifvqei0","pricing_plan_id":"free"},{"bike_id":"db37a9dc-d15e-4bc0-8b51-7cd008f04e89","system_id":"levelo_inurba_marseille","lat":43.283998,"lon":5.375062,"is_reserved":false,"is_disabled":false,"rental_uris":{"android":"levelo://app?vid=db37a9dc-d15e-4bc0-8b51-7cd008f04e89","ios":"levelo://app?vid=db37a9dc-d15e-4bc0-8b51-7cd008f04e89"},"vehicle_type_id":"4","last_reported":1702912051,"current_range_meters":4000,"station_id":"ce4bh412rcd13ifvqds0","pricing_plan_id":"free"},{"bike_id":"671c35e0-95e5-4887-bcf2-be49b150441a","system_id":"levelo_inurba_marseille","lat":43.28411,"lon":5.37523,"is_reserved":false,"is_disabled":false,"rental_uris":{"android":"levelo://app?vid=671c35e0-95e5-4887-bcf2-be49b150441a","ios":"levelo://app?vid=671c35e0-95e5-4887-bcf2-be49b150441a"},"vehicle_type_id":"4","last_reported":1702912051,"current_range_meters":12400,"station_id":"ce4bh412rcd13ifvqds0","pricing_plan_id":"free"},{"bike_id":"0defacfc-85ba-4d9b-9aba-955ee8606894","system_id":"levelo_inurba_marseille","lat":43.295713,"lon":5.399639,"is_reserved":false,"is_disabled":false,"rental_uris":{"android":"levelo://app?vid=0defacfc-85ba-4d9b-9aba-955ee8606894","ios":"levelo://app?vid=0defacfc-85ba-4d9b-9aba-955ee8606894"},"vehicle_type_id":"4","last_reported":1702912051,"current_range_meters":4800,"station_id":"ce4bh312rcd13ifvqdj0","pricing_plan_id":"free"},{"bike_id":"2dfa5049-0e1b-4839-b5c3-156910a65dbd","system_id":"levelo_inurba_marseille","lat":43.33218,"lon":5.397067,"is_reserved":false,"is_disabled":false,"rental_uris":{"android":"levelo://app?vid=2dfa5049-0e1b-4839-b5c3-156910a65dbd","ios":"levelo://app?vid=2dfa5049-0e1b-4839-b5c3-156910a65dbd"},"vehicle_type_id":"4","last_reported":1702912051,"current_range_meters":4800,"station_id":"","pricing_plan_id":"free"},{"bike_id":"f6c04c15-612b-4838-8183-a056a39516b3","system_id":"levelo_inurba_marseille","lat":43.295713,"lon":5.399639,"is_reserved":false,"is_disabled":false,"rental_uris":{"android":"levelo://app?vid=f6c04c15-612b-4838-8183-a056a39516b3","ios":"levelo://app?vid=f6c04c15-612b-4838-8183-a056a39516b3"},"vehicle_type_id":"4","last_reported":1702912051,"current_range_meters":18800,"station_id":"ce4bh312rcd13ifvqdj0","pricing_plan_id":"free"},{"bike_id":"2c3a449d-7326-40f3-bc81-a0d210539ebb","system_id":"levelo_inurba_marseille","lat":43.286595,"lon":5.386795,"is_reserved":false,"is_disabled":false,"rental_uris":{"android":"levelo://app?vid=2c3a449d-7326-40f3-bc81-a0d210539ebb","ios":"levelo://app?vid=2c3a449d-7326-40f3-bc81-a0d210539ebb"},"vehicle_type_id":"4","last_reported":1702912051,"current_range_meters":0,"station_id":"ce4bh492rcd13ifvqdug","pricing_plan_id":"free"},{"bike_id":"76ed1a54-38dd-49ea-983c-422ba156661a","system_id":"levelo_inurba_marseille","lat":43.319179,"lon":5.407725,"is_reserved":false,"is_disabled":false,"rental_uris":{"android":"levelo://app?vid=76ed1a54-38dd-49ea-983c-422ba156661a","ios":"levelo://app?vid=76ed1a54-38dd-49ea-983c-422ba156661a"},"vehicle_type_id":"4","last_reported":1702912051,"current_range_meters":22000,"station_id":"ce4bhq12rcd13ifvqhig","pricing_plan_id":"free"},{"bike_id":"c489507f-c310-4fc6-9558-9b80a81af1d9","system_id":"levelo_inurba_marseille","lat":43.323464,"lon":5.406297,"is_reserved":false,"is_disabled":false,"rental_uris":{"android":"levelo://app?vid=c489507f-c310-4fc6-9558-9b80a81af1d9","ios":"levelo://app?vid=c489507f-c310-4fc6-9558-9b80a81af1d9"},"vehicle_type_id":"4","last_reported":1702912051,"current_range_meters":30400,"station_id":"ce4bhq92rcd13ifvqhjg","pricing_plan_id":"free"},{"bike_id":"67ab9e0c-3ef0-4e8f-bb50-9248238d93ea","system_id":"levelo_inurba_marseille","lat":43.284793,"lon":5.384113,"is_reserved":false,"is_disabled":false,"rental_uris":{"android":"levelo://app?vid=67ab9e0c-3ef0-4e8f-bb50-9248238d93ea","ios":"levelo://app?vid=67ab9e0c-3ef0-4e8f-bb50-9248238d93ea"},"vehicle_type_id":"4","last_reported":1702912051,"current_range_meters":26400,"station_id":"ce4bh512rcd13ifvqe3g","pricing_plan_id":"free"},{"bike_id":"e650b402-c53c-42a9-a139-f7ce5cc87872","system_id":"levelo_inurba_marseille","lat":43.288501,"lon":5.393087,"is_reserved":false,"is_disabled":false,"rental_uris":{"android":"levelo://app?vid=e650b402-c53c-42a9-a139-f7ce5cc87872","ios":"levelo://app?vid=e650b402-c53c-42a9-a139-f7ce5cc87872"},"vehicle_type_id":"4","last_reported":1702912051,"current_range_meters":26400,"station_id":"ce4bh2p2rcd13ifvqdi0","pricing_plan_id":"free"},{"bike_id":"7337027e-274d-407e-9d7d-0c9afa036e25","system_id":"levelo_inurba_marseille","lat":43.284217,"lon":5.349697,"is_reserved":false,"is_disabled":false,"rental_uris":{"android":"levelo://app?vid=7337027e-274d-407e-9d7d-0c9afa036e25","ios":"levelo://app?vid=7337027e-274d-407e-9d7d-0c9afa036e25"},"vehicle_type_id":"4","last_reported":1702912051,"current_range_meters":29600,"station_id":"ce4bhbh2rcd13ifvqepg","pricing_plan_id":"free"},{"bike_id":"1a23e290-f5d2-46d4-8f68-0532ce140f03","system_id":"levelo_inurba_marseille","lat":43.284219,"lon":5.3497,"is_reserved":false,"is_disabled":false,"rental_uris":{"android":"levelo://app?vid=1a23e290-f5d2-46d4-8f68-0532ce140f03","ios":"levelo://app?vid=1a23e290-f5d2-46d4-8f68-0532ce140f03"},"vehicle_type_id":"4","last_reported":1702912051,"current_range_meters":24400,"station_id":"ce4bhbh2rcd13ifvqepg","pricing_plan_id":"free"},{"bike_id":"fac9de41-c4b5-4840-9231-8ddf6aa65173","system_id":"levelo_inurba_marseille","lat":43.284219,"lon":5.3497,"is_reserved":false,"is_disabled":false,"rental_uris":{"android":"levelo://app?vid=fac9de41-c4b5-4840-9231-8ddf6aa65173","ios":"levelo://app?vid=fac9de41-c4b5-4840-9231-8ddf6aa65173"},"vehicle_type_id":"4","last_reported":1702912051,"current_range_meters":1600,"station_id":"ce4bhbh2rcd13ifvqepg","pricing_plan_id":"free"},{"bike_id":"ff389810-ea92-4c33-8b66-6a4a00d9f6d1","system_id":"levelo_inurba_marseille","lat":43.284219,"lon":5.3497,"is_reserved":false,"is_disabled":false,"rental_uris":{"android":"levelo://app?vid=ff389810-ea92-4c33-8b66-6a4a00d9f6d1","ios":"levelo://app?vid=ff389810-ea92-4c33-8b66-6a4a00d9f6d1"},"vehicle_type_id":"4","last_reported":1702912051,"current_range_meters":15200,"station_id":"ce4bhbh2rcd13ifvqepg","pricing_plan_id":"free"},{"bike_id":"4750a7db-0b58-45be-b2a6-7f7ae8d3db56","system_id":"levelo_inurba_marseille","lat":43.284219,"lon":5.3497,"is_reserved":false,"is_disabled":false,"rental_uris":{"android":"levelo://app?vid=4750a7db-0b58-45be-b2a6-7f7ae8d3db56","ios":"levelo://app?vid=4750a7db-0b58-45be-b2a6-7f7ae8d3db56"},"vehicle_type_id":"4","last_reported":1702912051,"current_range_meters":23600,"station_id":"ce4bhbh2rcd13ifvqepg","pricing_plan_id":"free"},{"bike_id":"63937f00-79aa-4dea-877e-5d1eecd0759e","system_id":"levelo_inurba_marseille","lat":43.306412,"lon":5.401035,"is_reserved":false,"is_disabled":false,"rental_uris":{"android":"levelo://app?vid=63937f00-79aa-4dea-877e-5d1eecd0759e","ios":"levelo://app?vid=63937f00-79aa-4dea-877e-5d1eecd0759e"},"vehicle_type_id":"4","last_reported":1702912051,"current_range_meters":26800,"station_id":"ce4bh112rcd13ifvqda0","pricing_plan_id":"free"},{"bike_id":"a0bec646-0125-408b-b56d-0a047095710c","system_id":"levelo_inurba_marseille","lat":43.289363,"lon":5.396322,"is_reserved":false,"is_disabled":false,"rental_uris":{"android":"levelo://app?vid=a0bec646-0125-408b-b56d-0a047095710c","ios":"levelo://app?vid=a0bec646-0125-408b-b56d-0a047095710c"},"vehicle_type_id":"4","last_reported":1702912051,"current_range_meters":23200,"station_id":"ce4bh3h2rcd13ifvqdn0","pricing_plan_id":"free"},{"bike_id":"54e228ea-8bfb-4ca7-a3e5-17c6e54fe905","system_id":"levelo_inurba_marseille","lat":43.289363,"lon":5.396322,"is_reserved":false,"is_disabled":false,"rental_uris":{"android":"levelo://app?vid=54e228ea-8bfb-4ca7-a3e5-17c6e54fe905","ios":"levelo://app?vid=54e228ea-8bfb-4ca7-a3e5-17c6e54fe905"},"vehicle_type_id":"4","last_reported":1702912051,"current_range_meters":20000,"station_id":"ce4bh3h2rcd13ifvqdn0","pricing_plan_id":"free"},{"bike_id":"b8a7f913-d0e1-46c0-963e-2b0140f7af58","system_id":"levelo_inurba_marseille","lat":43.292724,"lon":5.401131,"is_reserved":false,"is_disabled":false,"rental_uris":{"android":"levelo://app?vid=b8a7f913-d0e1-46c0-963e-2b0140f7af58","ios":"levelo://app?vid=b8a7f913-d0e1-46c0-963e-2b0140f7af58"},"vehicle_type_id":"4","last_reported":1702912051,"current_range_meters":23200,"station_id":"ce4bh312rcd13ifvqdk0","pricing_plan_id":"free"},{"bike_id":"b9bfd02b-a632-45b4-8af4-7a4230210704","system_id":"levelo_inurba_marseille","lat":43.28286,"lon":5.35054,"is_reserved":false,"is_disabled":false,"rental_uris":{"android":"levelo://app?vid=b9bfd02b-a632-45b4-8af4-7a4230210704","ios":"levelo://app?vid=b9bfd02b-a632-45b4-8af4-7a4230210704"},"vehicle_type_id":"4","last_reported":1702912051,"current_range_meters":25200,"station_id":"ce4bhbp2rcd13ifvqerg","pricing_plan_id":"free"},{"bike_id":"7d7005f4-3e1e-4305-a5e3-685a76835627","system_id":"levelo_inurba_marseille","lat":43.282744,"lon":5.350533,"is_reserved":false,"is_disabled":false,"rental_uris":{"android":"levelo://app?vid=7d7005f4-3e1e-4305-a5e3-685a76835627","ios":"levelo://app?vid=7d7005f4-3e1e-4305-a5e3-685a76835627"},"vehicle_type_id":"4","last_reported":1702912051,"current_range_meters":15600,"station_id":"ce4bhbp2rcd13ifvqerg","pricing_plan_id":"free"},{"bike_id":"882f0d7d-c61a-4995-ad4d-e09625353a21","system_id":"levelo_inurba_marseille","lat":43.283502,"lon":5.386471,"is_reserved":false,"is_disabled":false,"rental_uris":{"android":"levelo://app?vid=882f0d7d-c61a-4995-ad4d-e09625353a21","ios":"levelo://app?vid=882f0d7d-c61a-4995-ad4d-e09625353a21"},"vehicle_type_id":"4","last_reported":1702912051,"current_range_meters":20800,"station_id":"ce4bh492rcd13ifvqdvg","pricing_plan_id":"free"},{"bike_id":"1031608e-8c4f-4fe6-a6c6-3b734460756f","system_id":"levelo_inurba_marseille","lat":43.28262,"lon":5.35055,"is_reserved":false,"is_disabled":false,"rental_uris":{"android":"levelo://app?vid=1031608e-8c4f-4fe6-a6c6-3b734460756f","ios":"levelo://app?vid=1031608e-8c4f-4fe6-a6c6-3b734460756f"},"vehicle_type_id":"4","last_reported":1702912051,"current_range_meters":28400,"station_id":"ce4bhbp2rcd13ifvqerg","pricing_plan_id":"free"},{"bike_id":"f6bff80d-a2fd-4e1f-b814-90de36e11a15","system_id":"levelo_inurba_marseille","lat":43.29041,"lon":5.399634,"is_reserved":false,"is_disabled":false,"rental_uris":{"android":"levelo://app?vid=f6bff80d-a2fd-4e1f-b814-90de36e11a15","ios":"levelo://app?vid=f6bff80d-a2fd-4e1f-b814-90de36e11a15"},"vehicle_type_id":"4","last_reported":1702912051,"current_range_meters":28400,"station_id":"ce4bh392rcd13ifvqdm0","pricing_plan_id":"free"},{"bike_id":"f1d2142b-b297-4f5a-8765-0bf0e0e13ab7","system_id":"levelo_inurba_marseille","lat":43.304188,"lon":5.412904,"is_reserved":false,"is_disabled":false,"rental_uris":{"android":"levelo://app?vid=f1d2142b-b297-4f5a-8765-0bf0e0e13ab7","ios":"levelo://app?vid=f1d2142b-b297-4f5a-8765-0bf0e0e13ab7"},"vehicle_type_id":"4","last_reported":1702912051,"current_range_meters":6800,"station_id":"ce4bhop2rcd13ifvqh8g","pricing_plan_id":"free"},{"bike_id":"6968aa60-fcac-4e85-a54e-4a2c1101ee9e","system_id":"levelo_inurba_marseille","lat":43.304188,"lon":5.412904,"is_reserved":false,"is_disabled":false,"rental_uris":{"android":"levelo://app?vid=6968aa60-fcac-4e85-a54e-4a2c1101ee9e","ios":"levelo://app?vid=6968aa60-fcac-4e85-a54e-4a2c1101ee9e"},"vehicle_type_id":"4","last_reported":1702912051,"current_range_meters":23600,"station_id":"ce4bhop2rcd13ifvqh8g","pricing_plan_id":"free"},{"bike_id":"21c1b077-8180-40b6-8ff3-4df45ead6cad","system_id":"levelo_inurba_marseille","lat":43.299579,"lon":5.413255,"is_reserved":false,"is_disabled":false,"rental_uris":{"android":"levelo://app?vid=21c1b077-8180-40b6-8ff3-4df45ead6cad","ios":"levelo://app?vid=21c1b077-8180-40b6-8ff3-4df45ead6cad"},"vehicle_type_id":"4","last_reported":1702912051,"current_range_meters":19600,"station_id":"ce4bhp12rcd13ifvqh9g","pricing_plan_id":"free"},{"bike_id":"749ff3a9-d0cb-4631-9b53-b87baed4525d","system_id":"levelo_inurba_marseille","lat":43.299579,"lon":5.413255,"is_reserved":false,"is_disabled":false,"rental_uris":{"android":"levelo://app?vid=749ff3a9-d0cb-4631-9b53-b87baed4525d","ios":"levelo://app?vid=749ff3a9-d0cb-4631-9b53-b87baed4525d"},"vehicle_type_id":"4","last_reported":1702912051,"current_range_meters":19200,"station_id":"ce4bhp12rcd13ifvqh9g","pricing_plan_id":"free"},{"bike_id":"b18040a8-f371-44b6-8542-61e417c28d69","system_id":"levelo_inurba_marseille","lat":43.27971,"lon":5.38737,"is_reserved":false,"is_disabled":false,"rental_uris":{"android":"levelo://app?vid=b18040a8-f371-44b6-8542-61e417c28d69","ios":"levelo://app?vid=b18040a8-f371-44b6-8542-61e417c28d69"},"vehicle_type_id":"4","last_reported":1702912051,"current_range_meters":24000,"station_id":"ce4bhg12rcd13ifvqf80","pricing_plan_id":"free"},{"bike_id":"3030ae8f-0a2f-47ff-92d2-3ae9585c5c9e","system_id":"levelo_inurba_marseille","lat":43.320045,"lon":5.415046,"is_reserved":false,"is_disabled":false,"rental_uris":{"android":"levelo://app?vid=3030ae8f-0a2f-47ff-92d2-3ae9585c5c9e","ios":"levelo://app?vid=3030ae8f-0a2f-47ff-92d2-3ae9585c5c9e"},"vehicle_type_id":"4","last_reported":1702912051,"current_range_meters":9600,"station_id":"ce4bhq92rcd13ifvqhkg","pricing_plan_id":"free"},{"bike_id":"4a6329f1-4c5e-45ff-8592-af125a2a5608","system_id":"levelo_inurba_marseille","lat":43.279742,"lon":5.38744,"is_reserved":false,"is_disabled":false,"rental_uris":{"android":"levelo://app?vid=4a6329f1-4c5e-45ff-8592-af125a2a5608","ios":"levelo://app?vid=4a6329f1-4c5e-45ff-8592-af125a2a5608"},"vehicle_type_id":"4","last_reported":1702912051,"current_range_meters":18800,"station_id":"ce4bhg12rcd13ifvqf80","pricing_plan_id":"free"},{"bike_id":"fda28d4f-fb50-4fab-96b5-ff2d9e8dbe8e","system_id":"levelo_inurba_marseille","lat":43.292569,"lon":5.409107,"is_reserved":false,"is_disabled":false,"rental_uris":{"android":"levelo://app?vid=fda28d4f-fb50-4fab-96b5-ff2d9e8dbe8e","ios":"levelo://app?vid=fda28d4f-fb50-4fab-96b5-ff2d9e8dbe8e"},"vehicle_type_id":"4","last_reported":1702912051,"current_range_meters":5200,"station_id":"ce4bh192rcd13ifvqdc0","pricing_plan_id":"free"},{"bike_id":"224bcffd-86fc-4c77-ac09-12306f63094d","system_id":"levelo_inurba_marseille","lat":43.32548,"lon":5.4144,"is_reserved":false,"is_disabled":false,"rental_uris":{"android":"levelo://app?vid=224bcffd-86fc-4c77-ac09-12306f63094d","ios":"levelo://app?vid=224bcffd-86fc-4c77-ac09-12306f63094d"},"vehicle_type_id":"4","last_reported":1702912051,"current_range_meters":31200,"station_id":"ce4bhq12rcd13ifvqhhg","pricing_plan_id":"free"},{"bike_id":"510fb32a-395c-4fa8-a6f6-7135260e69f8","system_id":"levelo_inurba_marseille","lat":43.280784,"lon":5.396622,"is_reserved":false,"is_disabled":false,"rental_uris":{"android":"levelo://app?vid=510fb32a-395c-4fa8-a6f6-7135260e69f8","ios":"levelo://app?vid=510fb32a-395c-4fa8-a6f6-7135260e69f8"},"vehicle_type_id":"4","last_reported":1702912051,"current_range_meters":28000,"station_id":"ce4bho12rcd13ifvqh2g","pricing_plan_id":"free"},{"bike_id":"a9eba0c7-f4e4-4cb5-8d13-8c38734bc358","system_id":"levelo_inurba_marseille","lat":43.273613,"lon":5.362705,"is_reserved":false,"is_disabled":false,"rental_uris":{"android":"levelo://app?vid=a9eba0c7-f4e4-4cb5-8d13-8c38734bc358","ios":"levelo://app?vid=a9eba0c7-f4e4-4cb5-8d13-8c38734bc358"},"vehicle_type_id":"4","last_reported":1702912051,"current_range_meters":9600,"station_id":"ce4bhbh2rcd13ifvqeo0","pricing_plan_id":"free"},{"bike_id":"35caacd5-cdec-42de-8bb9-5780076d2df8","system_id":"levelo_inurba_marseille","lat":43.273613,"lon":5.362705,"is_reserved":false,"is_disabled":false,"rental_uris":{"android":"levelo://app?vid=35caacd5-cdec-42de-8bb9-5780076d2df8","ios":"levelo://app?vid=35caacd5-cdec-42de-8bb9-5780076d2df8"},"vehicle_type_id":"4","last_reported":1702912051,"current_range_meters":23200,"station_id":"ce4bhbh2rcd13ifvqeo0","pricing_plan_id":"free"},{"bike_id":"c10fc228-4450-41cb-b4c8-3c011922da4a","system_id":"levelo_inurba_marseille","lat":43.336134,"lon":5.410341,"is_reserved":false,"is_disabled":false,"rental_uris":{"android":"levelo://app?vid=c10fc228-4450-41cb-b4c8-3c011922da4a","ios":"levelo://app?vid=c10fc228-4450-41cb-b4c8-3c011922da4a"},"vehicle_type_id":"4","last_reported":1702912051,"current_range_meters":29200,"station_id":"ce4bhqh2rcd13ifvqhmg","pricing_plan_id":"free"},{"bike_id":"ba23a49f-f752-40f9-b881-d731ba920e07","system_id":"levelo_inurba_marseille","lat":43.324406,"lon":5.419757,"is_reserved":false,"is_disabled":false,"rental_uris":{"android":"levelo://app?vid=ba23a49f-f752-40f9-b881-d731ba920e07","ios":"levelo://app?vid=ba23a49f-f752-40f9-b881-d731ba920e07"},"vehicle_type_id":"4","last_reported":1702912051,"current_range_meters":28000,"station_id":"","pricing_plan_id":"free"},{"bike_id":"45669a11-f945-4e3c-89e6-8a7ec3366831","system_id":"levelo_inurba_marseille","lat":43.279952,"lon":5.400085,"is_reserved":false,"is_disabled":false,"rental_uris":{"android":"levelo://app?vid=45669a11-f945-4e3c-89e6-8a7ec3366831","ios":"levelo://app?vid=45669a11-f945-4e3c-89e6-8a7ec3366831"},"vehicle_type_id":"4","last_reported":1702912051,"current_range_meters":30800,"station_id":"ce4bho92rcd13ifvqh4g","pricing_plan_id":"free"},{"bike_id":"c86c6c50-f70e-4473-a698-ebe42bdc8921","system_id":"levelo_inurba_marseille","lat":43.279975,"lon":5.40009,"is_reserved":false,"is_disabled":false,"rental_uris":{"android":"levelo://app?vid=c86c6c50-f70e-4473-a698-ebe42bdc8921","ios":"levelo://app?vid=c86c6c50-f70e-4473-a698-ebe42bdc8921"},"vehicle_type_id":"4","last_reported":1702912051,"current_range_meters":16400,"station_id":"ce4bho92rcd13ifvqh4g","pricing_plan_id":"free"},{"bike_id":"3ca2c2d2-99b0-4aa6-a05d-e30f02e6a7fb","system_id":"levelo_inurba_marseille","lat":43.276092,"lon":5.395289,"is_reserved":false,"is_disabled":false,"rental_uris":{"android":"levelo://app?vid=3ca2c2d2-99b0-4aa6-a05d-e30f02e6a7fb","ios":"levelo://app?vid=3ca2c2d2-99b0-4aa6-a05d-e30f02e6a7fb"},"vehicle_type_id":"4","last_reported":1702912051,"current_range_meters":13200,"station_id":"","pricing_plan_id":"free"},{"bike_id":"5c1cbe91-a0d5-4f45-96f1-be7aa0df0ea6","system_id":"levelo_inurba_marseille","lat":43.30415,"lon":5.42542,"is_reserved":false,"is_disabled":false,"rental_uris":{"android":"levelo://app?vid=5c1cbe91-a0d5-4f45-96f1-be7aa0df0ea6","ios":"levelo://app?vid=5c1cbe91-a0d5-4f45-96f1-be7aa0df0ea6"},"vehicle_type_id":"4","last_reported":1702912051,"current_range_meters":25600,"station_id":"ce4bhoh2rcd13ifvqh6g","pricing_plan_id":"free"},{"bike_id":"c5b44840-1601-43ac-abe9-c1e5b739efac","system_id":"levelo_inurba_marseille","lat":43.295523,"lon":5.422926,"is_reserved":false,"is_disabled":false,"rental_uris":{"android":"levelo://app?vid=c5b44840-1601-43ac-abe9-c1e5b739efac","ios":"levelo://app?vid=c5b44840-1601-43ac-abe9-c1e5b739efac"},"vehicle_type_id":"4","last_reported":1702912051,"current_range_meters":26400,"station_id":"ce4bhph2rcd13ifvqhdg","pricing_plan_id":"free"},{"bike_id":"9cbe5e87-404e-4c09-afbe-5ee44247e5dc","system_id":"levelo_inurba_marseille","lat":43.295523,"lon":5.422926,"is_reserved":false,"is_disabled":false,"rental_uris":{"android":"levelo://app?vid=9cbe5e87-404e-4c09-afbe-5ee44247e5dc","ios":"levelo://app?vid=9cbe5e87-404e-4c09-afbe-5ee44247e5dc"},"vehicle_type_id":"4","last_reported":1702912051,"current_range_meters":31200,"station_id":"ce4bhph2rcd13ifvqhdg","pricing_plan_id":"free"},{"bike_id":"628a1844-4de6-4ff8-b7b8-44bb12a39376","system_id":"levelo_inurba_marseille","lat":43.295511,"lon":5.422926,"is_reserved":false,"is_disabled":false,"rental_uris":{"android":"levelo://app?vid=628a1844-4de6-4ff8-b7b8-44bb12a39376","ios":"levelo://app?vid=628a1844-4de6-4ff8-b7b8-44bb12a39376"},"vehicle_type_id":"4","last_reported":1702912051,"current_range_meters":31200,"station_id":"ce4bhph2rcd13ifvqhdg","pricing_plan_id":"free"},{"bike_id":"fb094048-824a-49d1-905f-084ec3753a88","system_id":"levelo_inurba_marseille","lat":43.295523,"lon":5.422926,"is_reserved":false,"is_disabled":false,"rental_uris":{"android":"levelo://app?vid=fb094048-824a-49d1-905f-084ec3753a88","ios":"levelo://app?vid=fb094048-824a-49d1-905f-084ec3753a88"},"vehicle_type_id":"4","last_reported":1702912051,"current_range_meters":24800,"station_id":"ce4bhph2rcd13ifvqhdg","pricing_plan_id":"free"},{"bike_id":"35f4c7df-1dd1-49cd-b086-e9b64d14ba25","system_id":"levelo_inurba_marseille","lat":43.295511,"lon":5.422926,"is_reserved":false,"is_disabled":false,"rental_uris":{"android":"levelo://app?vid=35f4c7df-1dd1-49cd-b086-e9b64d14ba25","ios":"levelo://app?vid=35f4c7df-1dd1-49cd-b086-e9b64d14ba25"},"vehicle_type_id":"4","last_reported":1702912051,"current_range_meters":26000,"station_id":"ce4bhph2rcd13ifvqhdg","pricing_plan_id":"free"},{"bike_id":"9b8f5ce3-81d5-4ecb-80a2-771cfce35fc0","system_id":"levelo_inurba_marseille","lat":43.29547,"lon":5.42283,"is_reserved":false,"is_disabled":false,"rental_uris":{"android":"levelo://app?vid=9b8f5ce3-81d5-4ecb-80a2-771cfce35fc0","ios":"levelo://app?vid=9b8f5ce3-81d5-4ecb-80a2-771cfce35fc0"},"vehicle_type_id":"4","last_reported":1702912051,"current_range_meters":25600,"station_id":"ce4bhph2rcd13ifvqhdg","pricing_plan_id":"free"},{"bike_id":"7c5e5a9a-9f39-4a14-9573-d5b8ab599dd5","system_id":"levelo_inurba_marseille","lat":43.27188,"lon":5.39224,"is_reserved":false,"is_disabled":false,"rental_uris":{"android":"levelo://app?vid=7c5e5a9a-9f39-4a14-9573-d5b8ab599dd5","ios":"levelo://app?vid=7c5e5a9a-9f39-4a14-9573-d5b8ab599dd5"},"vehicle_type_id":"4","last_reported":1702912051,"current_range_meters":14000,"station_id":"ce4bhhp2rcd13ifvqfm0","pricing_plan_id":"free"},{"bike_id":"5fa474d5-f070-4086-b105-0c3f476d6cce","system_id":"levelo_inurba_marseille","lat":43.27817,"lon":5.407,"is_reserved":false,"is_disabled":false,"rental_uris":{"android":"levelo://app?vid=5fa474d5-f070-4086-b105-0c3f476d6cce","ios":"levelo://app?vid=5fa474d5-f070-4086-b105-0c3f476d6cce"},"vehicle_type_id":"4","last_reported":1702912051,"current_range_meters":31200,"station_id":"ce4bhnh2rcd13ifvqgtg","pricing_plan_id":"free"},{"bike_id":"93a98c92-4490-4d78-a0b9-2ad0636f76cf","system_id":"levelo_inurba_marseille","lat":43.278128,"lon":5.407195,"is_reserved":false,"is_disabled":false,"rental_uris":{"android":"levelo://app?vid=93a98c92-4490-4d78-a0b9-2ad0636f76cf","ios":"levelo://app?vid=93a98c92-4490-4d78-a0b9-2ad0636f76cf"},"vehicle_type_id":"4","last_reported":1702912051,"current_range_meters":29200,"station_id":"ce4bhnh2rcd13ifvqgtg","pricing_plan_id":"free"},{"bike_id":"0dd289f2-7f07-4556-8e26-e0ef8090caba","system_id":"levelo_inurba_marseille","lat":43.27956,"lon":5.41047,"is_reserved":false,"is_disabled":false,"rental_uris":{"android":"levelo://app?vid=0dd289f2-7f07-4556-8e26-e0ef8090caba","ios":"levelo://app?vid=0dd289f2-7f07-4556-8e26-e0ef8090caba"},"vehicle_type_id":"4","last_reported":1702912051,"current_range_meters":27200,"station_id":"ce4bhnp2rcd13ifvqh0g","pricing_plan_id":"free"},{"bike_id":"5c858c44-933a-42c9-86d5-9b8b7901abbe","system_id":"levelo_inurba_marseille","lat":43.269319,"lon":5.389397,"is_reserved":false,"is_disabled":false,"rental_uris":{"android":"levelo://app?vid=5c858c44-933a-42c9-86d5-9b8b7901abbe","ios":"levelo://app?vid=5c858c44-933a-42c9-86d5-9b8b7901abbe"},"vehicle_type_id":"4","last_reported":1702912051,"current_range_meters":16400,"station_id":"ce4bhhh2rcd13ifvqfl0","pricing_plan_id":"free"},{"bike_id":"db774753-4382-453e-a138-c32d538f9839","system_id":"levelo_inurba_marseille","lat":43.358673,"lon":5.356887,"is_reserved":false,"is_disabled":false,"rental_uris":{"android":"levelo://app?vid=db774753-4382-453e-a138-c32d538f9839","ios":"levelo://app?vid=db774753-4382-453e-a138-c32d538f9839"},"vehicle_type_id":"4","last_reported":1702912051,"current_range_meters":9200,"station_id":"","pricing_plan_id":"free"},{"bike_id":"d211cdf8-0c66-4add-b430-4325b2a769f9","system_id":"levelo_inurba_marseille","lat":43.26681,"lon":5.382694,"is_reserved":false,"is_disabled":false,"rental_uris":{"android":"levelo://app?vid=d211cdf8-0c66-4add-b430-4325b2a769f9","ios":"levelo://app?vid=d211cdf8-0c66-4add-b430-4325b2a769f9"},"vehicle_type_id":"4","last_reported":1702912051,"current_range_meters":22400,"station_id":"ce4bhg92rcd13ifvqf90","pricing_plan_id":"free"},{"bike_id":"fa346148-7d92-470c-a012-2ebe18068fe2","system_id":"levelo_inurba_marseille","lat":43.267966,"lon":5.393976,"is_reserved":false,"is_disabled":false,"rental_uris":{"android":"levelo://app?vid=fa346148-7d92-470c-a012-2ebe18068fe2","ios":"levelo://app?vid=fa346148-7d92-470c-a012-2ebe18068fe2"},"vehicle_type_id":"4","last_reported":1702912051,"current_range_meters":22400,"station_id":"ce4bhh12rcd13ifvqfg0","pricing_plan_id":"free"},{"bike_id":"7a4d1ec5-2036-4a3e-944d-1ac76f41ce77","system_id":"levelo_inurba_marseille","lat":43.267966,"lon":5.393976,"is_reserved":false,"is_disabled":false,"rental_uris":{"android":"levelo://app?vid=7a4d1ec5-2036-4a3e-944d-1ac76f41ce77","ios":"levelo://app?vid=7a4d1ec5-2036-4a3e-944d-1ac76f41ce77"},"vehicle_type_id":"4","last_reported":1702912051,"current_range_meters":28400,"station_id":"ce4bhh12rcd13ifvqfg0","pricing_plan_id":"free"},{"bike_id":"2871a8fc-087e-4485-85af-eefab4cf07b7","system_id":"levelo_inurba_marseille","lat":43.267966,"lon":5.393976,"is_reserved":false,"is_disabled":false,"rental_uris":{"android":"levelo://app?vid=2871a8fc-087e-4485-85af-eefab4cf07b7","ios":"levelo://app?vid=2871a8fc-087e-4485-85af-eefab4cf07b7"},"vehicle_type_id":"4","last_reported":1702912051,"current_range_meters":0,"station_id":"ce4bhh12rcd13ifvqfg0","pricing_plan_id":"free"},{"bike_id":"8046100e-8d8b-4d12-b31f-962aa2bb75d3","system_id":"levelo_inurba_marseille","lat":43.267966,"lon":5.393976,"is_reserved":false,"is_disabled":false,"rental_uris":{"android":"levelo://app?vid=8046100e-8d8b-4d12-b31f-962aa2bb75d3","ios":"levelo://app?vid=8046100e-8d8b-4d12-b31f-962aa2bb75d3"},"vehicle_type_id":"4","last_reported":1702912051,"current_range_meters":28800,"station_id":"ce4bhh12rcd13ifvqfg0","pricing_plan_id":"free"},{"bike_id":"88241bb3-32ae-413c-bd93-0f8c9883baf2","system_id":"levelo_inurba_marseille","lat":43.267966,"lon":5.393976,"is_reserved":false,"is_disabled":false,"rental_uris":{"android":"levelo://app?vid=88241bb3-32ae-413c-bd93-0f8c9883baf2","ios":"levelo://app?vid=88241bb3-32ae-413c-bd93-0f8c9883baf2"},"vehicle_type_id":"4","last_reported":1702912051,"current_range_meters":28800,"station_id":"ce4bhh12rcd13ifvqfg0","pricing_plan_id":"free"},{"bike_id":"dea6d4bf-6bd3-4e00-ab36-832382195e1c","system_id":"levelo_inurba_marseille","lat":43.308051,"lon":5.43527,"is_reserved":false,"is_disabled":false,"rental_uris":{"android":"levelo://app?vid=dea6d4bf-6bd3-4e00-ab36-832382195e1c","ios":"levelo://app?vid=dea6d4bf-6bd3-4e00-ab36-832382195e1c"},"vehicle_type_id":"4","last_reported":1702912051,"current_range_meters":26800,"station_id":"ce4bhph2rcd13ifvqheg","pricing_plan_id":"free"},{"bike_id":"a1994bf0-d1ab-445d-9e62-73358604f811","system_id":"levelo_inurba_marseille","lat":43.26552,"lon":5.390123,"is_reserved":false,"is_disabled":false,"rental_uris":{"android":"levelo://app?vid=a1994bf0-d1ab-445d-9e62-73358604f811","ios":"levelo://app?vid=a1994bf0-d1ab-445d-9e62-73358604f811"},"vehicle_type_id":"4","last_reported":1702912051,"current_range_meters":28800,"station_id":"ce4bhe12rcd13ifvqf30","pricing_plan_id":"free"},{"bike_id":"fc54f15d-57d6-40a5-ba49-b0d117fb54cc","system_id":"levelo_inurba_marseille","lat":43.26939,"lon":5.40245,"is_reserved":false,"is_disabled":false,"rental_uris":{"android":"levelo://app?vid=fc54f15d-57d6-40a5-ba49-b0d117fb54cc","ios":"levelo://app?vid=fc54f15d-57d6-40a5-ba49-b0d117fb54cc"},"vehicle_type_id":"4","last_reported":1702912051,"current_range_meters":16400,"station_id":"cjm6bp8fraef2m0cb0m0","pricing_plan_id":"free"},{"bike_id":"6352a017-cf43-4fea-8956-6faf451434b7","system_id":"levelo_inurba_marseille","lat":43.269392,"lon":5.402525,"is_reserved":false,"is_disabled":false,"rental_uris":{"android":"levelo://app?vid=6352a017-cf43-4fea-8956-6faf451434b7","ios":"levelo://app?vid=6352a017-cf43-4fea-8956-6faf451434b7"},"vehicle_type_id":"4","last_reported":1702912051,"current_range_meters":20400,"station_id":"cjm6bp8fraef2m0cb0m0","pricing_plan_id":"free"},{"bike_id":"769a889e-8ee7-4ce0-bb41-9b92ac763ea0","system_id":"levelo_inurba_marseille","lat":43.26937,"lon":5.40256,"is_reserved":false,"is_disabled":false,"rental_uris":{"android":"levelo://app?vid=769a889e-8ee7-4ce0-bb41-9b92ac763ea0","ios":"levelo://app?vid=769a889e-8ee7-4ce0-bb41-9b92ac763ea0"},"vehicle_type_id":"4","last_reported":1702912051,"current_range_meters":14400,"station_id":"cjm6bp8fraef2m0cb0m0","pricing_plan_id":"free"},{"bike_id":"30ebabf5-8177-4637-adb1-975ea6e147fd","system_id":"levelo_inurba_marseille","lat":43.26191,"lon":5.37446,"is_reserved":false,"is_disabled":false,"rental_uris":{"android":"levelo://app?vid=30ebabf5-8177-4637-adb1-975ea6e147fd","ios":"levelo://app?vid=30ebabf5-8177-4637-adb1-975ea6e147fd"},"vehicle_type_id":"4","last_reported":1702912051,"current_range_meters":22000,"station_id":"ce4bhgp2rcd13ifvqfc0","pricing_plan_id":"free"},{"bike_id":"2d48a87c-e94d-47d8-a74a-399919744e4a","system_id":"levelo_inurba_marseille","lat":43.261782,"lon":5.374515,"is_reserved":false,"is_disabled":false,"rental_uris":{"android":"levelo://app?vid=2d48a87c-e94d-47d8-a74a-399919744e4a","ios":"levelo://app?vid=2d48a87c-e94d-47d8-a74a-399919744e4a"},"vehicle_type_id":"4","last_reported":1702912051,"current_range_meters":29200,"station_id":"ce4bhgp2rcd13ifvqfc0","pricing_plan_id":"free"},{"bike_id":"a4cc3643-0b78-49ea-bb69-072a51937fbe","system_id":"levelo_inurba_marseille","lat":43.26189,"lon":5.37439,"is_reserved":false,"is_disabled":false,"rental_uris":{"android":"levelo://app?vid=a4cc3643-0b78-49ea-bb69-072a51937fbe","ios":"levelo://app?vid=a4cc3643-0b78-49ea-bb69-072a51937fbe"},"vehicle_type_id":"4","last_reported":1702912051,"current_range_meters":24800,"station_id":"","pricing_plan_id":"free"},{"bike_id":"60b3b7df-afa4-447c-a3e5-7cecc7defff6","system_id":"levelo_inurba_marseille","lat":43.26189,"lon":5.3744,"is_reserved":false,"is_disabled":false,"rental_uris":{"android":"levelo://app?vid=60b3b7df-afa4-447c-a3e5-7cecc7defff6","ios":"levelo://app?vid=60b3b7df-afa4-447c-a3e5-7cecc7defff6"},"vehicle_type_id":"4","last_reported":1702912051,"current_range_meters":2400,"station_id":"ce4bhgp2rcd13ifvqfc0","pricing_plan_id":"free"},{"bike_id":"ee1964dd-bd19-4163-8977-66dfe213996c","system_id":"levelo_inurba_marseille","lat":43.261782,"lon":5.374515,"is_reserved":false,"is_disabled":false,"rental_uris":{"android":"levelo://app?vid=ee1964dd-bd19-4163-8977-66dfe213996c","ios":"levelo://app?vid=ee1964dd-bd19-4163-8977-66dfe213996c"},"vehicle_type_id":"4","last_reported":1702912051,"current_range_meters":31600,"station_id":"ce4bhgp2rcd13ifvqfc0","pricing_plan_id":"free"},{"bike_id":"524ed846-4fbf-4d2f-8a66-ae44c466484e","system_id":"levelo_inurba_marseille","lat":43.261782,"lon":5.374515,"is_reserved":false,"is_disabled":false,"rental_uris":{"android":"levelo://app?vid=524ed846-4fbf-4d2f-8a66-ae44c466484e","ios":"levelo://app?vid=524ed846-4fbf-4d2f-8a66-ae44c466484e"},"vehicle_type_id":"4","last_reported":1702912051,"current_range_meters":30000,"station_id":"ce4bhgp2rcd13ifvqfc0","pricing_plan_id":"free"},{"bike_id":"82a5db9c-6547-4fff-9924-089fbfd54557","system_id":"levelo_inurba_marseille","lat":43.261782,"lon":5.374515,"is_reserved":false,"is_disabled":false,"rental_uris":{"android":"levelo://app?vid=82a5db9c-6547-4fff-9924-089fbfd54557","ios":"levelo://app?vid=82a5db9c-6547-4fff-9924-089fbfd54557"},"vehicle_type_id":"4","last_reported":1702912051,"current_range_meters":29200,"station_id":"ce4bhgp2rcd13ifvqfc0","pricing_plan_id":"free"},{"bike_id":"aed94823-987c-4f39-a8b9-00dab2638955","system_id":"levelo_inurba_marseille","lat":43.261782,"lon":5.374515,"is_reserved":false,"is_disabled":false,"rental_uris":{"android":"levelo://app?vid=aed94823-987c-4f39-a8b9-00dab2638955","ios":"levelo://app?vid=aed94823-987c-4f39-a8b9-00dab2638955"},"vehicle_type_id":"4","last_reported":1702912051,"current_range_meters":1200,"station_id":"ce4bhgp2rcd13ifvqfc0","pricing_plan_id":"free"},{"bike_id":"3965030c-a434-4f7c-80e8-4c16964e43ba","system_id":"levelo_inurba_marseille","lat":43.261782,"lon":5.374515,"is_reserved":false,"is_disabled":false,"rental_uris":{"android":"levelo://app?vid=3965030c-a434-4f7c-80e8-4c16964e43ba","ios":"levelo://app?vid=3965030c-a434-4f7c-80e8-4c16964e43ba"},"vehicle_type_id":"4","last_reported":1702912051,"current_range_meters":31200,"station_id":"ce4bhgp2rcd13ifvqfc0","pricing_plan_id":"free"},{"bike_id":"703b6509-8c35-4db9-ad24-8c18ddb8785e","system_id":"levelo_inurba_marseille","lat":43.26202,"lon":5.379299,"is_reserved":false,"is_disabled":false,"rental_uris":{"android":"levelo://app?vid=703b6509-8c35-4db9-ad24-8c18ddb8785e","ios":"levelo://app?vid=703b6509-8c35-4db9-ad24-8c18ddb8785e"},"vehicle_type_id":"4","last_reported":1702912051,"current_range_meters":31200,"station_id":"ce4bhjp2rcd13ifvqg90","pricing_plan_id":"free"},{"bike_id":"a9b751c7-fb62-4d8d-bf57-cafc734585f9","system_id":"levelo_inurba_marseille","lat":43.26202,"lon":5.379299,"is_reserved":false,"is_disabled":false,"rental_uris":{"android":"levelo://app?vid=a9b751c7-fb62-4d8d-bf57-cafc734585f9","ios":"levelo://app?vid=a9b751c7-fb62-4d8d-bf57-cafc734585f9"},"vehicle_type_id":"4","last_reported":1702912051,"current_range_meters":31200,"station_id":"ce4bhjp2rcd13ifvqg90","pricing_plan_id":"free"},{"bike_id":"a1ccfd96-36d1-43e3-b5f0-602d1cb178f7","system_id":"levelo_inurba_marseille","lat":43.271368,"lon":5.40928,"is_reserved":false,"is_disabled":false,"rental_uris":{"android":"levelo://app?vid=a1ccfd96-36d1-43e3-b5f0-602d1cb178f7","ios":"levelo://app?vid=a1ccfd96-36d1-43e3-b5f0-602d1cb178f7"},"vehicle_type_id":"4","last_reported":1702912051,"current_range_meters":27200,"station_id":"ce4bhl12rcd13ifvqgf0","pricing_plan_id":"free"},{"bike_id":"9568b94c-df16-43ab-ae0d-2e691d239a2e","system_id":"levelo_inurba_marseille","lat":43.26202,"lon":5.379299,"is_reserved":false,"is_disabled":false,"rental_uris":{"android":"levelo://app?vid=9568b94c-df16-43ab-ae0d-2e691d239a2e","ios":"levelo://app?vid=9568b94c-df16-43ab-ae0d-2e691d239a2e"},"vehicle_type_id":"4","last_reported":1702912051,"current_range_meters":9200,"station_id":"ce4bhjp2rcd13ifvqg90","pricing_plan_id":"free"},{"bike_id":"71561640-6952-426a-88e2-a4f5b28e1f23","system_id":"levelo_inurba_marseille","lat":43.26505,"lon":5.39536,"is_reserved":false,"is_disabled":false,"rental_uris":{"android":"levelo://app?vid=71561640-6952-426a-88e2-a4f5b28e1f23","ios":"levelo://app?vid=71561640-6952-426a-88e2-a4f5b28e1f23"},"vehicle_type_id":"4","last_reported":1702912051,"current_range_meters":400,"station_id":"","pricing_plan_id":"free"},{"bike_id":"8b000818-ee66-4afa-956c-06d1feec8088","system_id":"levelo_inurba_marseille","lat":43.298768,"lon":5.43643,"is_reserved":false,"is_disabled":false,"rental_uris":{"android":"levelo://app?vid=8b000818-ee66-4afa-956c-06d1feec8088","ios":"levelo://app?vid=8b000818-ee66-4afa-956c-06d1feec8088"},"vehicle_type_id":"4","last_reported":1702912051,"current_range_meters":31200,"station_id":"ce4bhpp2rcd13ifvqhfg","pricing_plan_id":"free"},{"bike_id":"be3c7518-3a90-4ace-b263-cbe424279bc2","system_id":"levelo_inurba_marseille","lat":43.298768,"lon":5.43643,"is_reserved":false,"is_disabled":false,"rental_uris":{"android":"levelo://app?vid=be3c7518-3a90-4ace-b263-cbe424279bc2","ios":"levelo://app?vid=be3c7518-3a90-4ace-b263-cbe424279bc2"},"vehicle_type_id":"4","last_reported":1702912051,"current_range_meters":30000,"station_id":"ce4bhpp2rcd13ifvqhfg","pricing_plan_id":"free"},{"bike_id":"3a6a45a0-22df-4a85-86d4-e6095ebe26d6","system_id":"levelo_inurba_marseille","lat":43.260225,"lon":5.375455,"is_reserved":false,"is_disabled":false,"rental_uris":{"android":"levelo://app?vid=3a6a45a0-22df-4a85-86d4-e6095ebe26d6","ios":"levelo://app?vid=3a6a45a0-22df-4a85-86d4-e6095ebe26d6"},"vehicle_type_id":"4","last_reported":1702912051,"current_range_meters":23600,"station_id":"ce4bhgh2rcd13ifvqfa0","pricing_plan_id":"free"},{"bike_id":"342b0836-0131-4bde-af05-0c4780bd1287","system_id":"levelo_inurba_marseille","lat":43.275028,"lon":5.424534,"is_reserved":false,"is_disabled":false,"rental_uris":{"android":"levelo://app?vid=342b0836-0131-4bde-af05-0c4780bd1287","ios":"levelo://app?vid=342b0836-0131-4bde-af05-0c4780bd1287"},"vehicle_type_id":"4","last_reported":1702912051,"current_range_meters":16000,"station_id":"ce4bhn92rcd13ifvqgrg","pricing_plan_id":"free"},{"bike_id":"fdceae04-adce-4951-89fc-a39188c2b1d8","system_id":"levelo_inurba_marseille","lat":43.255793,"lon":5.382324,"is_reserved":false,"is_disabled":false,"rental_uris":{"android":"levelo://app?vid=fdceae04-adce-4951-89fc-a39188c2b1d8","ios":"levelo://app?vid=fdceae04-adce-4951-89fc-a39188c2b1d8"},"vehicle_type_id":"4","last_reported":1702912051,"current_range_meters":15600,"station_id":"ce4bhih2rcd13ifvqfs0","pricing_plan_id":"free"},{"bike_id":"5748f024-cb14-4811-ba9f-53ccd133f604","system_id":"levelo_inurba_marseille","lat":43.255756,"lon":5.382303,"is_reserved":false,"is_disabled":false,"rental_uris":{"android":"levelo://app?vid=5748f024-cb14-4811-ba9f-53ccd133f604","ios":"levelo://app?vid=5748f024-cb14-4811-ba9f-53ccd133f604"},"vehicle_type_id":"4","last_reported":1702912051,"current_range_meters":21200,"station_id":"ce4bhih2rcd13ifvqfs0","pricing_plan_id":"free"},{"bike_id":"1955abc2-e4e2-4076-b558-8047e3831d64","system_id":"levelo_inurba_marseille","lat":43.25575,"lon":5.38233,"is_reserved":false,"is_disabled":false,"rental_uris":{"android":"levelo://app?vid=1955abc2-e4e2-4076-b558-8047e3831d64","ios":"levelo://app?vid=1955abc2-e4e2-4076-b558-8047e3831d64"},"vehicle_type_id":"4","last_reported":1702912051,"current_range_meters":19600,"station_id":"ce4bhih2rcd13ifvqfs0","pricing_plan_id":"free"},{"bike_id":"c89dcb56-7515-448e-b5f6-fb6ed21417b0","system_id":"levelo_inurba_marseille","lat":43.25503,"lon":5.37651,"is_reserved":false,"is_disabled":false,"rental_uris":{"android":"levelo://app?vid=c89dcb56-7515-448e-b5f6-fb6ed21417b0","ios":"levelo://app?vid=c89dcb56-7515-448e-b5f6-fb6ed21417b0"},"vehicle_type_id":"4","last_reported":1702912051,"current_range_meters":28400,"station_id":"ce4bhh12rcd13ifvqff0","pricing_plan_id":"free"},{"bike_id":"29a9c5c8-a202-4a42-82bd-8f2dc973454b","system_id":"levelo_inurba_marseille","lat":43.25502,"lon":5.37649,"is_reserved":false,"is_disabled":false,"rental_uris":{"android":"levelo://app?vid=29a9c5c8-a202-4a42-82bd-8f2dc973454b","ios":"levelo://app?vid=29a9c5c8-a202-4a42-82bd-8f2dc973454b"},"vehicle_type_id":"4","last_reported":1702912051,"current_range_meters":30000,"station_id":"ce4bhh12rcd13ifvqff0","pricing_plan_id":"free"},{"bike_id":"554b9716-3962-44dd-9cdb-dc4e11773c87","system_id":"levelo_inurba_marseille","lat":43.25502,"lon":5.37653,"is_reserved":false,"is_disabled":false,"rental_uris":{"android":"levelo://app?vid=554b9716-3962-44dd-9cdb-dc4e11773c87","ios":"levelo://app?vid=554b9716-3962-44dd-9cdb-dc4e11773c87"},"vehicle_type_id":"4","last_reported":1702912051,"current_range_meters":30000,"station_id":"ce4bhh12rcd13ifvqff0","pricing_plan_id":"free"},{"bike_id":"2a49bcf8-fdfb-41e1-91bd-16a50274d949","system_id":"levelo_inurba_marseille","lat":43.25501,"lon":5.37657,"is_reserved":false,"is_disabled":false,"rental_uris":{"android":"levelo://app?vid=2a49bcf8-fdfb-41e1-91bd-16a50274d949","ios":"levelo://app?vid=2a49bcf8-fdfb-41e1-91bd-16a50274d949"},"vehicle_type_id":"4","last_reported":1702912051,"current_range_meters":27200,"station_id":"ce4bhh12rcd13ifvqff0","pricing_plan_id":"free"},{"bike_id":"aca2dcca-a316-4f0c-ac24-39f4a3a60bd2","system_id":"levelo_inurba_marseille","lat":43.254947,"lon":5.376454,"is_reserved":false,"is_disabled":false,"rental_uris":{"android":"levelo://app?vid=aca2dcca-a316-4f0c-ac24-39f4a3a60bd2","ios":"levelo://app?vid=aca2dcca-a316-4f0c-ac24-39f4a3a60bd2"},"vehicle_type_id":"4","last_reported":1702912051,"current_range_meters":31200,"station_id":"ce4bhh12rcd13ifvqff0","pricing_plan_id":"free"},{"bike_id":"4d469496-71d0-4f63-b300-b1643c7f62d5","system_id":"levelo_inurba_marseille","lat":43.254947,"lon":5.376454,"is_reserved":false,"is_disabled":false,"rental_uris":{"android":"levelo://app?vid=4d469496-71d0-4f63-b300-b1643c7f62d5","ios":"levelo://app?vid=4d469496-71d0-4f63-b300-b1643c7f62d5"},"vehicle_type_id":"4","last_reported":1702912051,"current_range_meters":30400,"station_id":"ce4bhh12rcd13ifvqff0","pricing_plan_id":"free"},{"bike_id":"b2d018d9-a87f-495b-83b6-187abcc3a2c3","system_id":"levelo_inurba_marseille","lat":43.258658,"lon":5.398935,"is_reserved":false,"is_disabled":false,"rental_uris":{"android":"levelo://app?vid=b2d018d9-a87f-495b-83b6-187abcc3a2c3","ios":"levelo://app?vid=b2d018d9-a87f-495b-83b6-187abcc3a2c3"},"vehicle_type_id":"4","last_reported":1702912051,"current_range_meters":24400,"station_id":"ce4bhl92rcd13ifvqghg","pricing_plan_id":"free"},{"bike_id":"418b19ae-6fb6-4d94-bab6-c8b738cb1c25","system_id":"levelo_inurba_marseille","lat":43.25933,"lon":5.40913,"is_reserved":false,"is_disabled":false,"rental_uris":{"android":"levelo://app?vid=418b19ae-6fb6-4d94-bab6-c8b738cb1c25","ios":"levelo://app?vid=418b19ae-6fb6-4d94-bab6-c8b738cb1c25"},"vehicle_type_id":"4","last_reported":1702912051,"current_range_meters":30800,"station_id":"ce4bhm92rcd13ifvqglg","pricing_plan_id":"free"},{"bike_id":"1b5b8572-9f39-4d0f-8e18-fca8919c82a0","system_id":"levelo_inurba_marseille","lat":43.2573,"lon":5.41105,"is_reserved":false,"is_disabled":false,"rental_uris":{"android":"levelo://app?vid=1b5b8572-9f39-4d0f-8e18-fca8919c82a0","ios":"levelo://app?vid=1b5b8572-9f39-4d0f-8e18-fca8919c82a0"},"vehicle_type_id":"4","last_reported":1702912051,"current_range_meters":30400,"station_id":"ce4bhkp2rcd13ifvqgd0","pricing_plan_id":"free"},{"bike_id":"21688c1b-cc57-4087-bd2c-250c700396fa","system_id":"levelo_inurba_marseille","lat":43.25723,"lon":5.41108,"is_reserved":false,"is_disabled":false,"rental_uris":{"android":"levelo://app?vid=21688c1b-cc57-4087-bd2c-250c700396fa","ios":"levelo://app?vid=21688c1b-cc57-4087-bd2c-250c700396fa"},"vehicle_type_id":"4","last_reported":1702912051,"current_range_meters":8000,"station_id":"ce4bhkp2rcd13ifvqgd0","pricing_plan_id":"free"},{"bike_id":"56de427f-2d41-40a4-8f47-6a9e922439dc","system_id":"levelo_inurba_marseille","lat":43.25717,"lon":5.41112,"is_reserved":false,"is_disabled":false,"rental_uris":{"android":"levelo://app?vid=56de427f-2d41-40a4-8f47-6a9e922439dc","ios":"levelo://app?vid=56de427f-2d41-40a4-8f47-6a9e922439dc"},"vehicle_type_id":"4","last_reported":1702912051,"current_range_meters":30000,"station_id":"ce4bhkp2rcd13ifvqgd0","pricing_plan_id":"free"},{"bike_id":"86b0222e-9893-41e3-9aa5-31dd7bec5d9b","system_id":"levelo_inurba_marseille","lat":43.257079,"lon":5.411051,"is_reserved":false,"is_disabled":false,"rental_uris":{"android":"levelo://app?vid=86b0222e-9893-41e3-9aa5-31dd7bec5d9b","ios":"levelo://app?vid=86b0222e-9893-41e3-9aa5-31dd7bec5d9b"},"vehicle_type_id":"4","last_reported":1702912051,"current_range_meters":12800,"station_id":"ce4bhkp2rcd13ifvqgd0","pricing_plan_id":"free"},{"bike_id":"32cc7744-eb0e-43df-bbdb-18b1724f2690","system_id":"levelo_inurba_marseille","lat":43.2479,"lon":5.374457,"is_reserved":false,"is_disabled":false,"rental_uris":{"android":"levelo://app?vid=32cc7744-eb0e-43df-bbdb-18b1724f2690","ios":"levelo://app?vid=32cc7744-eb0e-43df-bbdb-18b1724f2690"},"vehicle_type_id":"4","last_reported":1702912051,"current_range_meters":27600,"station_id":"ce4bhgh2rcd13ifvqfb0","pricing_plan_id":"free"},{"bike_id":"f7355d0c-75e0-4eb6-a66b-8a3f13e7d068","system_id":"levelo_inurba_marseille","lat":43.250966,"lon":5.395186,"is_reserved":false,"is_disabled":false,"rental_uris":{"android":"levelo://app?vid=f7355d0c-75e0-4eb6-a66b-8a3f13e7d068","ios":"levelo://app?vid=f7355d0c-75e0-4eb6-a66b-8a3f13e7d068"},"vehicle_type_id":"4","last_reported":1702912051,"current_range_meters":31200,"station_id":"ce4bhm12rcd13ifvqgkg","pricing_plan_id":"free"},{"bike_id":"8ea31b2f-4535-437e-8584-c7d188593512","system_id":"levelo_inurba_marseille","lat":43.250966,"lon":5.395186,"is_reserved":false,"is_disabled":false,"rental_uris":{"android":"levelo://app?vid=8ea31b2f-4535-437e-8584-c7d188593512","ios":"levelo://app?vid=8ea31b2f-4535-437e-8584-c7d188593512"},"vehicle_type_id":"4","last_reported":1702912051,"current_range_meters":23600,"station_id":"ce4bhm12rcd13ifvqgkg","pricing_plan_id":"free"},{"bike_id":"dd57e497-ed13-4339-91ea-ac27b19d2715","system_id":"levelo_inurba_marseille","lat":43.250966,"lon":5.395186,"is_reserved":false,"is_disabled":false,"rental_uris":{"android":"levelo://app?vid=dd57e497-ed13-4339-91ea-ac27b19d2715","ios":"levelo://app?vid=dd57e497-ed13-4339-91ea-ac27b19d2715"},"vehicle_type_id":"4","last_reported":1702912051,"current_range_meters":21200,"station_id":"ce4bhm12rcd13ifvqgkg","pricing_plan_id":"free"},{"bike_id":"fde6e8f0-9e7f-4f1c-9d94-8a988fd5d70a","system_id":"levelo_inurba_marseille","lat":43.252095,"lon":5.40379,"is_reserved":false,"is_disabled":false,"rental_uris":{"android":"levelo://app?vid=fde6e8f0-9e7f-4f1c-9d94-8a988fd5d70a","ios":"levelo://app?vid=fde6e8f0-9e7f-4f1c-9d94-8a988fd5d70a"},"vehicle_type_id":"4","last_reported":1702912051,"current_range_meters":24800,"station_id":"ce4bhkp2rcd13ifvqgd0","pricing_plan_id":"free"},{"bike_id":"9dbbbc8d-6337-4c7a-b774-a644fd36050d","system_id":"levelo_inurba_marseille","lat":43.246461,"lon":5.389014,"is_reserved":false,"is_disabled":false,"rental_uris":{"android":"levelo://app?vid=9dbbbc8d-6337-4c7a-b774-a644fd36050d","ios":"levelo://app?vid=9dbbbc8d-6337-4c7a-b774-a644fd36050d"},"vehicle_type_id":"4","last_reported":1702912051,"current_range_meters":22400,"station_id":"ce4bhg12rcd13ifvqf60","pricing_plan_id":"free"},{"bike_id":"0661f5b6-2048-462b-a17c-744066297a01","system_id":"levelo_inurba_marseille","lat":43.243884,"lon":5.370736,"is_reserved":false,"is_disabled":false,"rental_uris":{"android":"levelo://app?vid=0661f5b6-2048-462b-a17c-744066297a01","ios":"levelo://app?vid=0661f5b6-2048-462b-a17c-744066297a01"},"vehicle_type_id":"4","last_reported":1702912051,"current_range_meters":29200,"station_id":"ce4bhhh2rcd13ifvqfk0","pricing_plan_id":"free"},{"bike_id":"48f76a3c-fc87-4e86-8875-cd17cc093c2d","system_id":"levelo_inurba_marseille","lat":43.243884,"lon":5.370736,"is_reserved":false,"is_disabled":false,"rental_uris":{"android":"levelo://app?vid=48f76a3c-fc87-4e86-8875-cd17cc093c2d","ios":"levelo://app?vid=48f76a3c-fc87-4e86-8875-cd17cc093c2d"},"vehicle_type_id":"4","last_reported":1702912051,"current_range_meters":30400,"station_id":"ce4bhhh2rcd13ifvqfk0","pricing_plan_id":"free"},{"bike_id":"49708d40-135d-4873-8096-78caaadf1004","system_id":"levelo_inurba_marseille","lat":43.239588,"lon":5.366238,"is_reserved":false,"is_disabled":false,"rental_uris":{"android":"levelo://app?vid=49708d40-135d-4873-8096-78caaadf1004","ios":"levelo://app?vid=49708d40-135d-4873-8096-78caaadf1004"},