{"last_updated":1756325457,"ttl":60,"version":"2.2","data":{"bikes":[{"bike_id":"2fb253a5-a78a-4d8c-aef8-ae4a6bdbd25f","system_id":"levelo_inurba_marseille","lat":43.26209,"lon":5.37927,"is_reserved":false,"is_disabled":false,"rental_uris":{"android":"levelo://app?vid=2fb253a5-a78a-4d8c-aef8-ae4a6bdbd25f","ios":"levelo://app?vid=2fb253a5-a78a-4d8c-aef8-ae4a6bdbd25f"},"vehicle_type_id":"4","last_reported":1756325457,"current_range_meters":2000,"station_id":"ce4bhjp2rcd13ifvqg90","pricing_plan_id":"cebpf4jnsgd1na2vs0mg"},{"bike_id":"16be216b-6622-446d-bf19-76f24c6060b4","system_id":"levelo_inurba_marseille","lat":43.2979,"lon":5.39342,"is_reserved":false,"is_disabled":false,"rental_uris":{"android":"levelo://app?vid=16be216b-6622-446d-bf19-76f24c6060b4","ios":"levelo://app?vid=16be216b-6622-446d-bf19-76f24c6060b4"},"vehicle_type_id":"4","last_reported":1756325457,"current_range_meters":2000,"station_id":"chh1huq6cuj3fo74tm60","pricing_plan_id":"cebpf4jnsgd1na2vs0mg"},{"bike_id":"48bce130-f4d9-4be0-b479-1ef9eb4281d3","system_id":"levelo_inurba_marseille","lat":43.29926,"lon":5.36556,"is_reserved":false,"is_disabled":false,"rental_uris":{"android":"levelo://app?vid=48bce130-f4d9-4be0-b479-1ef9eb4281d3","ios":"levelo://app?vid=48bce130-f4d9-4be0-b479-1ef9eb4281d3"},"vehicle_type_id":"4","last_reported":1756325457,"current_range_meters":2800,"station_id":"ce4bgm92rcd13ifvqbr0","pricing_plan_id":"cebpf4jnsgd1na2vs0mg"},{"bike_id":"c3316b31-0cab-434c-bf73-d33e2c222c83","system_id":"levelo_inurba_marseille","lat":43.291722,"lon":5.40895,"is_reserved":false,"is_disabled":false,"rental_uris":{"android":"levelo://app?vid=c3316b31-0cab-434c-bf73-d33e2c222c83","ios":"levelo://app?vid=c3316b31-0cab-434c-bf73-d33e2c222c83"},"vehicle_type_id":"4","last_reported":1756325457,"current_range_meters":3200,"station_id":"ce4bh192rcd13ifvqdc0","pricing_plan_id":"cebpf4jnsgd1na2vs0mg"},{"bike_id":"05ec7f52-cecc-40c5-87dc-5fe971e69633","system_id":"levelo_inurba_marseille","lat":43.30934,"lon":5.40142,"is_reserved":false,"is_disabled":false,"rental_uris":{"android":"levelo://app?vid=05ec7f52-cecc-40c5-87dc-5fe971e69633","ios":"levelo://app?vid=05ec7f52-cecc-40c5-87dc-5fe971e69633"},"vehicle_type_id":"4","last_reported":1756325457,"current_range_meters":3200,"station_id":"ce4bgvp2rcd13ifvqct0","pricing_plan_id":"cebpf4jnsgd1na2vs0mg"},{"bike_id":"6a2272c9-925a-449b-af0a-15c85e0d847d","system_id":"levelo_inurba_marseille","lat":43.250032,"lon":5.389245,"is_reserved":false,"is_disabled":false,"rental_uris":{"android":"levelo://app?vid=6a2272c9-925a-449b-af0a-15c85e0d847d","ios":"levelo://app?vid=6a2272c9-925a-449b-af0a-15c85e0d847d"},"vehicle_type_id":"4","last_reported":1756325457,"current_range_meters":3200,"station_id":"ce4bhgp2rcd13ifvqfd0","pricing_plan_id":"cebpf4jnsgd1na2vs0mg"},{"bike_id":"66c53307-adb3-4ae6-8ab3-f521c925e04a","system_id":"levelo_inurba_marseille","lat":43.31331,"lon":5.39687,"is_reserved":false,"is_disabled":false,"rental_uris":{"android":"levelo://app?vid=66c53307-adb3-4ae6-8ab3-f521c925e04a","ios":"levelo://app?vid=66c53307-adb3-4ae6-8ab3-f521c925e04a"},"vehicle_type_id":"4","last_reported":1756325457,"current_range_meters":2800,"station_id":"ce4bgvp2rcd13ifvqcu0","pricing_plan_id":"cebpf4jnsgd1na2vs0mg"},{"bike_id":"321bbcbf-6256-46bf-aec8-0d0cd13ba9d6","system_id":"levelo_inurba_marseille","lat":43.28849,"lon":5.39314,"is_reserved":false,"is_disabled":false,"rental_uris":{"android":"levelo://app?vid=321bbcbf-6256-46bf-aec8-0d0cd13ba9d6","ios":"levelo://app?vid=321bbcbf-6256-46bf-aec8-0d0cd13ba9d6"},"vehicle_type_id":"4","last_reported":1756325457,"current_range_meters":3200,"station_id":"ce4bh2p2rcd13ifvqdi0","pricing_plan_id":"cebpf4jnsgd1na2vs0mg"},{"bike_id":"eaeb0eea-a819-4280-86a6-0b0cb2e7701a","system_id":"levelo_inurba_marseille","lat":43.22923,"lon":5.35387,"is_reserved":false,"is_disabled":false,"rental_uris":{"android":"levelo://app?vid=eaeb0eea-a819-4280-86a6-0b0cb2e7701a","ios":"levelo://app?vid=eaeb0eea-a819-4280-86a6-0b0cb2e7701a"},"vehicle_type_id":"4","last_reported":1756325457,"current_range_meters":3200,"station_id":"cpo3532slgdg3j2ikp40","pricing_plan_id":"cebpf4jnsgd1na2vs0mg"},{"bike_id":"0917f9ee-8689-48dc-a323-e1d51d1fcc6e","system_id":"levelo_inurba_marseille","lat":43.29537,"lon":5.38542,"is_reserved":false,"is_disabled":false,"rental_uris":{"android":"levelo://app?vid=0917f9ee-8689-48dc-a323-e1d51d1fcc6e","ios":"levelo://app?vid=0917f9ee-8689-48dc-a323-e1d51d1fcc6e"},"vehicle_type_id":"4","last_reported":1756325457,"current_range_meters":3600,"station_id":"ce4bgih2rcd13ifvqba0","pricing_plan_id":"cebpf4jnsgd1na2vs0mg"},{"bike_id":"98875297-6fe1-4de6-be10-0578aa807697","system_id":"levelo_inurba_marseille","lat":43.27943,"lon":5.41043,"is_reserved":false,"is_disabled":false,"rental_uris":{"android":"levelo://app?vid=98875297-6fe1-4de6-be10-0578aa807697","ios":"levelo://app?vid=98875297-6fe1-4de6-be10-0578aa807697"},"vehicle_type_id":"4","last_reported":1756325457,"current_range_meters":2800,"station_id":"ce4bhnp2rcd13ifvqh0g","pricing_plan_id":"cebpf4jnsgd1na2vs0mg"},{"bike_id":"7c494aa6-5cbe-490f-b90f-6193ab62c745","system_id":"levelo_inurba_marseille","lat":43.21187,"lon":5.35071,"is_reserved":false,"is_disabled":false,"rental_uris":{"android":"levelo://app?vid=7c494aa6-5cbe-490f-b90f-6193ab62c745","ios":"levelo://app?vid=7c494aa6-5cbe-490f-b90f-6193ab62c745"},"vehicle_type_id":"4","last_reported":1756325457,"current_range_meters":4000,"station_id":"st_cvj6sg6p6f1abm77japg","pricing_plan_id":"cebpf4jnsgd1na2vs0mg"},{"bike_id":"8e8bba45-c36d-4275-adcd-b5272eb9930f","system_id":"levelo_inurba_marseille","lat":43.30421,"lon":5.39747,"is_reserved":false,"is_disabled":false,"rental_uris":{"android":"levelo://app?vid=8e8bba45-c36d-4275-adcd-b5272eb9930f","ios":"levelo://app?vid=8e8bba45-c36d-4275-adcd-b5272eb9930f"},"vehicle_type_id":"4","last_reported":1756325457,"current_range_meters":3600,"station_id":"ce4bh092rcd13ifvqd20","pricing_plan_id":"cebpf4jnsgd1na2vs0mg"},{"bike_id":"e3186861-30ad-4955-ad3d-d848890795d6","system_id":"levelo_inurba_marseille","lat":43.31892,"lon":5.40735,"is_reserved":false,"is_disabled":false,"rental_uris":{"android":"levelo://app?vid=e3186861-30ad-4955-ad3d-d848890795d6","ios":"levelo://app?vid=e3186861-30ad-4955-ad3d-d848890795d6"},"vehicle_type_id":"4","last_reported":1756325457,"current_range_meters":4000,"station_id":"ce4bhq12rcd13ifvqhig","pricing_plan_id":"cebpf4jnsgd1na2vs0mg"},{"bike_id":"e77b713b-81cc-431a-9876-fe45d37d4995","system_id":"levelo_inurba_marseille","lat":43.30598,"lon":5.39362,"is_reserved":false,"is_disabled":false,"rental_uris":{"android":"levelo://app?vid=e77b713b-81cc-431a-9876-fe45d37d4995","ios":"levelo://app?vid=e77b713b-81cc-431a-9876-fe45d37d4995"},"vehicle_type_id":"4","last_reported":1756325457,"current_range_meters":4400,"station_id":"ce4bh0p2rcd13ifvqd80","pricing_plan_id":"cebpf4jnsgd1na2vs0mg"},{"bike_id":"96186cc8-0561-4ae2-81ab-d0abdc6ef2d0","system_id":"levelo_inurba_marseille","lat":43.27027,"lon":5.37929,"is_reserved":false,"is_disabled":false,"rental_uris":{"android":"levelo://app?vid=96186cc8-0561-4ae2-81ab-d0abdc6ef2d0","ios":"levelo://app?vid=96186cc8-0561-4ae2-81ab-d0abdc6ef2d0"},"vehicle_type_id":"4","last_reported":1756325457,"current_range_meters":4400,"station_id":"","pricing_plan_id":"cebpf4jnsgd1na2vs0mg"},{"bike_id":"cd7fdf56-6904-416e-8d66-3125b1fd3c76","system_id":"levelo_inurba_marseille","lat":43.25504,"lon":5.3765,"is_reserved":false,"is_disabled":false,"rental_uris":{"android":"levelo://app?vid=cd7fdf56-6904-416e-8d66-3125b1fd3c76","ios":"levelo://app?vid=cd7fdf56-6904-416e-8d66-3125b1fd3c76"},"vehicle_type_id":"4","last_reported":1756325457,"current_range_meters":4400,"station_id":"ce4bhh12rcd13ifvqff0","pricing_plan_id":"cebpf4jnsgd1na2vs0mg"},{"bike_id":"1b1d16d8-38f8-484a-8afa-3b283a93aa04","system_id":"levelo_inurba_marseille","lat":43.28264,"lon":5.35075,"is_reserved":false,"is_disabled":false,"rental_uris":{"android":"levelo://app?vid=1b1d16d8-38f8-484a-8afa-3b283a93aa04","ios":"levelo://app?vid=1b1d16d8-38f8-484a-8afa-3b283a93aa04"},"vehicle_type_id":"4","last_reported":1756325457,"current_range_meters":4400,"station_id":"ce4bhbp2rcd13ifvqerg","pricing_plan_id":"cebpf4jnsgd1na2vs0mg"},{"bike_id":"7de71cf8-4671-43de-b8d1-f81ac5444912","system_id":"levelo_inurba_marseille","lat":43.29569,"lon":5.39985,"is_reserved":false,"is_disabled":false,"rental_uris":{"android":"levelo://app?vid=7de71cf8-4671-43de-b8d1-f81ac5444912","ios":"levelo://app?vid=7de71cf8-4671-43de-b8d1-f81ac5444912"},"vehicle_type_id":"4","last_reported":1756325457,"current_range_meters":4800,"station_id":"ce4bh312rcd13ifvqdj0","pricing_plan_id":"cebpf4jnsgd1na2vs0mg"},{"bike_id":"7a9af043-7662-4427-9f2d-cf4bb43527da","system_id":"levelo_inurba_marseille","lat":43.3043,"lon":5.38898,"is_reserved":false,"is_disabled":false,"rental_uris":{"android":"levelo://app?vid=7a9af043-7662-4427-9f2d-cf4bb43527da","ios":"levelo://app?vid=7a9af043-7662-4427-9f2d-cf4bb43527da"},"vehicle_type_id":"4","last_reported":1756325457,"current_range_meters":4800,"station_id":"ce4bgk12rcd13ifvqbi0","pricing_plan_id":"cebpf4jnsgd1na2vs0mg"},{"bike_id":"0dca0f10-702c-4a84-987c-659d1d9bd912","system_id":"levelo_inurba_marseille","lat":43.30881,"lon":5.37201,"is_reserved":false,"is_disabled":true,"rental_uris":{"android":"levelo://app?vid=0dca0f10-702c-4a84-987c-659d1d9bd912","ios":"levelo://app?vid=0dca0f10-702c-4a84-987c-659d1d9bd912"},"vehicle_type_id":"4","last_reported":1756325457,"current_range_meters":5600,"station_id":"ce4bguh2rcd13ifvqckg","pricing_plan_id":"cebpf4jnsgd1na2vs0mg"},{"bike_id":"17d0ff64-87cf-4685-b289-a54095765c0c","system_id":"levelo_inurba_marseille","lat":43.28401,"lon":5.37523,"is_reserved":false,"is_disabled":false,"rental_uris":{"android":"levelo://app?vid=17d0ff64-87cf-4685-b289-a54095765c0c","ios":"levelo://app?vid=17d0ff64-87cf-4685-b289-a54095765c0c"},"vehicle_type_id":"4","last_reported":1756325457,"current_range_meters":5600,"station_id":"ce4bh412rcd13ifvqds0","pricing_plan_id":"cebpf4jnsgd1na2vs0mg"},{"bike_id":"2eb43c10-df30-425a-a62f-88b0cf177a8c","system_id":"levelo_inurba_marseille","lat":43.29195,"lon":5.39315,"is_reserved":false,"is_disabled":false,"rental_uris":{"android":"levelo://app?vid=2eb43c10-df30-425a-a62f-88b0cf177a8c","ios":"levelo://app?vid=2eb43c10-df30-425a-a62f-88b0cf177a8c"},"vehicle_type_id":"4","last_reported":1756325457,"current_range_meters":5600,"station_id":"ce4bh192rcd13ifvqdd0","pricing_plan_id":"cebpf4jnsgd1na2vs0mg"},{"bike_id":"5036e73b-6819-4721-a6b7-1c7ee8ee3c31","system_id":"levelo_inurba_marseille","lat":43.28653,"lon":5.36347,"is_reserved":false,"is_disabled":false,"rental_uris":{"android":"levelo://app?vid=5036e73b-6819-4721-a6b7-1c7ee8ee3c31","ios":"levelo://app?vid=5036e73b-6819-4721-a6b7-1c7ee8ee3c31"},"vehicle_type_id":"4","last_reported":1756325457,"current_range_meters":5600,"station_id":"ce4bhah2rcd13ifvqej0","pricing_plan_id":"cebpf4jnsgd1na2vs0mg"},{"bike_id":"19f72807-4f1b-4ff6-8397-19349a47b4be","system_id":"levelo_inurba_marseille","lat":43.30887,"lon":5.39626,"is_reserved":false,"is_disabled":false,"rental_uris":{"android":"levelo://app?vid=19f72807-4f1b-4ff6-8397-19349a47b4be","ios":"levelo://app?vid=19f72807-4f1b-4ff6-8397-19349a47b4be"},"vehicle_type_id":"4","last_reported":1756325457,"current_range_meters":5600,"station_id":"ce4bh012rcd13ifvqcv0","pricing_plan_id":"cebpf4jnsgd1na2vs0mg"},{"bike_id":"70698924-f07a-4421-af4c-f1094e75e7d4","system_id":"levelo_inurba_marseille","lat":43.21198,"lon":5.35072,"is_reserved":false,"is_disabled":false,"rental_uris":{"android":"levelo://app?vid=70698924-f07a-4421-af4c-f1094e75e7d4","ios":"levelo://app?vid=70698924-f07a-4421-af4c-f1094e75e7d4"},"vehicle_type_id":"4","last_reported":1756325457,"current_range_meters":5600,"station_id":"st_cvj6sg6p6f1abm77japg","pricing_plan_id":"cebpf4jnsgd1na2vs0mg"},{"bike_id":"919403d1-9d41-4322-8f42-253c1dba9d3b","system_id":"levelo_inurba_marseille","lat":43.21751,"lon":5.34596,"is_reserved":false,"is_disabled":false,"rental_uris":{"android":"levelo://app?vid=919403d1-9d41-4322-8f42-253c1dba9d3b","ios":"levelo://app?vid=919403d1-9d41-4322-8f42-253c1dba9d3b"},"vehicle_type_id":"4","last_reported":1756325457,"current_range_meters":6000,"station_id":"st_cvj6r9ubvosntc0bgbag","pricing_plan_id":"cebpf4jnsgd1na2vs0mg"},{"bike_id":"37413141-03ec-419b-9d9d-7689f5906f2e","system_id":"levelo_inurba_marseille","lat":43.30804,"lon":5.38145,"is_reserved":false,"is_disabled":false,"rental_uris":{"android":"levelo://app?vid=37413141-03ec-419b-9d9d-7689f5906f2e","ios":"levelo://app?vid=37413141-03ec-419b-9d9d-7689f5906f2e"},"vehicle_type_id":"4","last_reported":1756325457,"current_range_meters":5600,"station_id":"ce4bgt12rcd13ifvqce0","pricing_plan_id":"cebpf4jnsgd1na2vs0mg"},{"bike_id":"3a8b134a-3743-4c3a-a67a-59bcb3f19a1e","system_id":"levelo_inurba_marseille","lat":43.28449,"lon":5.3922,"is_reserved":false,"is_disabled":false,"rental_uris":{"android":"levelo://app?vid=3a8b134a-3743-4c3a-a67a-59bcb3f19a1e","ios":"levelo://app?vid=3a8b134a-3743-4c3a-a67a-59bcb3f19a1e"},"vehicle_type_id":"4","last_reported":1756325457,"current_range_meters":6000,"station_id":"ce4bhoh2rcd13ifvqh5g","pricing_plan_id":"cebpf4jnsgd1na2vs0mg"},{"bike_id":"f543cc21-1c29-4018-833c-43a84ca5a4e3","system_id":"levelo_inurba_marseille","lat":43.2903,"lon":5.3864,"is_reserved":false,"is_disabled":false,"rental_uris":{"android":"levelo://app?vid=f543cc21-1c29-4018-833c-43a84ca5a4e3","ios":"levelo://app?vid=f543cc21-1c29-4018-833c-43a84ca5a4e3"},"vehicle_type_id":"4","last_reported":1756325457,"current_range_meters":6000,"station_id":"ce4bh4p2rcd13ifvqe0g","pricing_plan_id":"cebpf4jnsgd1na2vs0mg"},{"bike_id":"17bb141a-109c-4749-b407-4b8b2f11e861","system_id":"levelo_inurba_marseille","lat":43.29573,"lon":5.39978,"is_reserved":false,"is_disabled":false,"rental_uris":{"android":"levelo://app?vid=17bb141a-109c-4749-b407-4b8b2f11e861","ios":"levelo://app?vid=17bb141a-109c-4749-b407-4b8b2f11e861"},"vehicle_type_id":"4","last_reported":1756325457,"current_range_meters":6000,"station_id":"ce4bh312rcd13ifvqdj0","pricing_plan_id":"cebpf4jnsgd1na2vs0mg"},{"bike_id":"ed05fa01-a20c-482c-84aa-fec0511bd3f0","system_id":"levelo_inurba_marseille","lat":43.299716,"lon":5.371793,"is_reserved":false,"is_disabled":false,"rental_uris":{"android":"levelo://app?vid=ed05fa01-a20c-482c-84aa-fec0511bd3f0","ios":"levelo://app?vid=ed05fa01-a20c-482c-84aa-fec0511bd3f0"},"vehicle_type_id":"4","last_reported":1756325457,"current_range_meters":6400,"station_id":"ce4bgr92rcd13ifvqc7g","pricing_plan_id":"cebpf4jnsgd1na2vs0mg"},{"bike_id":"eeb42e78-373a-42a8-ad92-d1dc5831d4c3","system_id":"levelo_inurba_marseille","lat":43.24799,"lon":5.3746,"is_reserved":false,"is_disabled":true,"rental_uris":{"android":"levelo://app?vid=eeb42e78-373a-42a8-ad92-d1dc5831d4c3","ios":"levelo://app?vid=eeb42e78-373a-42a8-ad92-d1dc5831d4c3"},"vehicle_type_id":"4","last_reported":1756325457,"current_range_meters":6400,"station_id":"ce4bhgh2rcd13ifvqfb0","pricing_plan_id":"cebpf4jnsgd1na2vs0mg"},{"bike_id":"cfb5a7b3-6b97-4de2-92cb-354a18edbc84","system_id":"levelo_inurba_marseille","lat":43.29555,"lon":5.42289,"is_reserved":false,"is_disabled":false,"rental_uris":{"android":"levelo://app?vid=cfb5a7b3-6b97-4de2-92cb-354a18edbc84","ios":"levelo://app?vid=cfb5a7b3-6b97-4de2-92cb-354a18edbc84"},"vehicle_type_id":"4","last_reported":1756325457,"current_range_meters":6400,"station_id":"ce4bhph2rcd13ifvqhdg","pricing_plan_id":"cebpf4jnsgd1na2vs0mg"},{"bike_id":"2732b203-8d34-41ae-80bd-b4f151d77aad","system_id":"levelo_inurba_marseille","lat":43.3025,"lon":5.40542,"is_reserved":false,"is_disabled":false,"rental_uris":{"android":"levelo://app?vid=2732b203-8d34-41ae-80bd-b4f151d77aad","ios":"levelo://app?vid=2732b203-8d34-41ae-80bd-b4f151d77aad"},"vehicle_type_id":"4","last_reported":1756325457,"current_range_meters":6400,"station_id":"","pricing_plan_id":"cebpf4jnsgd1na2vs0mg"},{"bike_id":"0ff6b5e9-821f-4552-8238-9ad76efb3665","system_id":"levelo_inurba_marseille","lat":43.28074,"lon":5.39671,"is_reserved":false,"is_disabled":false,"rental_uris":{"android":"levelo://app?vid=0ff6b5e9-821f-4552-8238-9ad76efb3665","ios":"levelo://app?vid=0ff6b5e9-821f-4552-8238-9ad76efb3665"},"vehicle_type_id":"4","last_reported":1756325457,"current_range_meters":6000,"station_id":"ce4bho12rcd13ifvqh2g","pricing_plan_id":"cebpf4jnsgd1na2vs0mg"},{"bike_id":"0d502687-08ef-4491-8893-8a03d8688be8","system_id":"levelo_inurba_marseille","lat":43.29636,"lon":5.36097,"is_reserved":false,"is_disabled":false,"rental_uris":{"android":"levelo://app?vid=0d502687-08ef-4491-8893-8a03d8688be8","ios":"levelo://app?vid=0d502687-08ef-4491-8893-8a03d8688be8"},"vehicle_type_id":"4","last_reported":1756325457,"current_range_meters":6400,"station_id":"","pricing_plan_id":"cebpf4jnsgd1na2vs0mg"},{"bike_id":"b4355a8b-6620-41c5-aaa4-2b969fb59e8f","system_id":"levelo_inurba_marseille","lat":43.26676,"lon":5.38253,"is_reserved":false,"is_disabled":true,"rental_uris":{"android":"levelo://app?vid=b4355a8b-6620-41c5-aaa4-2b969fb59e8f","ios":"levelo://app?vid=b4355a8b-6620-41c5-aaa4-2b969fb59e8f"},"vehicle_type_id":"4","last_reported":1756325457,"current_range_meters":6400,"station_id":"ce4bhg92rcd13ifvqf90","pricing_plan_id":"cebpf4jnsgd1na2vs0mg"},{"bike_id":"4da2d3da-4eba-47a4-818e-1463c49b483a","system_id":"levelo_inurba_marseille","lat":43.28437,"lon":5.39216,"is_reserved":false,"is_disabled":false,"rental_uris":{"android":"levelo://app?vid=4da2d3da-4eba-47a4-818e-1463c49b483a","ios":"levelo://app?vid=4da2d3da-4eba-47a4-818e-1463c49b483a"},"vehicle_type_id":"4","last_reported":1756325457,"current_range_meters":6400,"station_id":"ce4bhoh2rcd13ifvqh5g","pricing_plan_id":"cebpf4jnsgd1na2vs0mg"},{"bike_id":"8c50d861-3f4a-430d-9209-c2e505fb9ad9","system_id":"levelo_inurba_marseille","lat":43.31331,"lon":5.39698,"is_reserved":false,"is_disabled":false,"rental_uris":{"android":"levelo://app?vid=8c50d861-3f4a-430d-9209-c2e505fb9ad9","ios":"levelo://app?vid=8c50d861-3f4a-430d-9209-c2e505fb9ad9"},"vehicle_type_id":"4","last_reported":1756325457,"current_range_meters":6800,"station_id":"ce4bgvp2rcd13ifvqcu0","pricing_plan_id":"cebpf4jnsgd1na2vs0mg"},{"bike_id":"f1b15d75-65b4-45b8-9885-6a2cb81836e9","system_id":"levelo_inurba_marseille","lat":43.29266,"lon":5.40904,"is_reserved":false,"is_disabled":false,"rental_uris":{"android":"levelo://app?vid=f1b15d75-65b4-45b8-9885-6a2cb81836e9","ios":"levelo://app?vid=f1b15d75-65b4-45b8-9885-6a2cb81836e9"},"vehicle_type_id":"4","last_reported":1756325457,"current_range_meters":6800,"station_id":"ce4bh192rcd13ifvqdc0","pricing_plan_id":"cebpf4jnsgd1na2vs0mg"},{"bike_id":"3d3cec0d-0f8f-4f4b-bc23-75944370cb64","system_id":"levelo_inurba_marseille","lat":43.31272,"lon":5.40171,"is_reserved":false,"is_disabled":false,"rental_uris":{"android":"levelo://app?vid=3d3cec0d-0f8f-4f4b-bc23-75944370cb64","ios":"levelo://app?vid=3d3cec0d-0f8f-4f4b-bc23-75944370cb64"},"vehicle_type_id":"4","last_reported":1756325457,"current_range_meters":6800,"station_id":"ce4bh092rcd13ifvqd30","pricing_plan_id":"cebpf4jnsgd1na2vs0mg"},{"bike_id":"56763f9f-0685-4cde-8368-e94c2a377536","system_id":"levelo_inurba_marseille","lat":43.2695,"lon":5.38631,"is_reserved":false,"is_disabled":false,"rental_uris":{"android":"levelo://app?vid=56763f9f-0685-4cde-8368-e94c2a377536","ios":"levelo://app?vid=56763f9f-0685-4cde-8368-e94c2a377536"},"vehicle_type_id":"4","last_reported":1756325457,"current_range_meters":6800,"station_id":"ce4bhh92rcd13ifvqfh0","pricing_plan_id":"cebpf4jnsgd1na2vs0mg"},{"bike_id":"8b7bbea2-900a-4fff-8da8-d45a07360b85","system_id":"levelo_inurba_marseille","lat":43.31158,"lon":5.38731,"is_reserved":false,"is_disabled":false,"rental_uris":{"android":"levelo://app?vid=8b7bbea2-900a-4fff-8da8-d45a07360b85","ios":"levelo://app?vid=8b7bbea2-900a-4fff-8da8-d45a07360b85"},"vehicle_type_id":"4","last_reported":1756325457,"current_range_meters":0,"station_id":"ce4bgv12rcd13ifvqcp0","pricing_plan_id":"cebpf4jnsgd1na2vs0mg"},{"bike_id":"6f97501a-05e3-4c91-bf19-bfd7d767672e","system_id":"levelo_inurba_marseille","lat":43.264905,"lon":5.395409,"is_reserved":false,"is_disabled":false,"rental_uris":{"android":"levelo://app?vid=6f97501a-05e3-4c91-bf19-bfd7d767672e","ios":"levelo://app?vid=6f97501a-05e3-4c91-bf19-bfd7d767672e"},"vehicle_type_id":"4","last_reported":1756325457,"current_range_meters":7200,"station_id":"ce4bhi12rcd13ifvqfq0","pricing_plan_id":"cebpf4jnsgd1na2vs0mg"},{"bike_id":"81b34336-cec5-487f-8171-ecc18f6ab5c1","system_id":"levelo_inurba_marseille","lat":43.26005,"lon":5.37458,"is_reserved":false,"is_disabled":false,"rental_uris":{"android":"levelo://app?vid=81b34336-cec5-487f-8171-ecc18f6ab5c1","ios":"levelo://app?vid=81b34336-cec5-487f-8171-ecc18f6ab5c1"},"vehicle_type_id":"4","last_reported":1756325457,"current_range_meters":7200,"station_id":"","pricing_plan_id":"cebpf4jnsgd1na2vs0mg"},{"bike_id":"384c8e2f-c5ad-4129-a017-831f55efdffd","system_id":"levelo_inurba_marseille","lat":43.30631,"lon":5.40094,"is_reserved":false,"is_disabled":false,"rental_uris":{"android":"levelo://app?vid=384c8e2f-c5ad-4129-a017-831f55efdffd","ios":"levelo://app?vid=384c8e2f-c5ad-4129-a017-831f55efdffd"},"vehicle_type_id":"4","last_reported":1756325457,"current_range_meters":6800,"station_id":"ce4bh112rcd13ifvqda0","pricing_plan_id":"cebpf4jnsgd1na2vs0mg"},{"bike_id":"09d85367-a405-4dfe-86b8-391709762457","system_id":"levelo_inurba_marseille","lat":43.27972,"lon":5.38732,"is_reserved":false,"is_disabled":false,"rental_uris":{"android":"levelo://app?vid=09d85367-a405-4dfe-86b8-391709762457","ios":"levelo://app?vid=09d85367-a405-4dfe-86b8-391709762457"},"vehicle_type_id":"4","last_reported":1756325457,"current_range_meters":7200,"station_id":"ce4bhg12rcd13ifvqf80","pricing_plan_id":"cebpf4jnsgd1na2vs0mg"},{"bike_id":"d0929797-eccc-45d1-a5f1-aea03c095a59","system_id":"levelo_inurba_marseille","lat":43.27987,"lon":5.41671,"is_reserved":false,"is_disabled":true,"rental_uris":{"android":"levelo://app?vid=d0929797-eccc-45d1-a5f1-aea03c095a59","ios":"levelo://app?vid=d0929797-eccc-45d1-a5f1-aea03c095a59"},"vehicle_type_id":"4","last_reported":1756325457,"current_range_meters":7200,"station_id":"ce4bho12rcd13ifvqh1g","pricing_plan_id":"cebpf4jnsgd1na2vs0mg"},{"bike_id":"0e8ef417-3af2-4614-b793-4bab07ce68b7","system_id":"levelo_inurba_marseille","lat":43.29608,"lon":5.36729,"is_reserved":false,"is_disabled":false,"rental_uris":{"android":"levelo://app?vid=0e8ef417-3af2-4614-b793-4bab07ce68b7","ios":"levelo://app?vid=0e8ef417-3af2-4614-b793-4bab07ce68b7"},"vehicle_type_id":"4","last_reported":1756325457,"current_range_meters":8000,"station_id":"ce4bgph2rcd13ifvqc2g","pricing_plan_id":"cebpf4jnsgd1na2vs0mg"},{"bike_id":"e1cc485f-c6f0-41fe-b8d8-b5e94a231de5","system_id":"levelo_inurba_marseille","lat":43.3076,"lon":5.37706,"is_reserved":false,"is_disabled":false,"rental_uris":{"android":"levelo://app?vid=e1cc485f-c6f0-41fe-b8d8-b5e94a231de5","ios":"levelo://app?vid=e1cc485f-c6f0-41fe-b8d8-b5e94a231de5"},"vehicle_type_id":"4","last_reported":1756325457,"current_range_meters":8000,"station_id":"","pricing_plan_id":"cebpf4jnsgd1na2vs0mg"},{"bike_id":"ef2a9bc3-a97e-4ac4-bfe0-cf8afe51d1a6","system_id":"levelo_inurba_marseille","lat":43.28846,"lon":5.39319,"is_reserved":false,"is_disabled":false,"rental_uris":{"android":"levelo://app?vid=ef2a9bc3-a97e-4ac4-bfe0-cf8afe51d1a6","ios":"levelo://app?vid=ef2a9bc3-a97e-4ac4-bfe0-cf8afe51d1a6"},"vehicle_type_id":"4","last_reported":1756325457,"current_range_meters":8000,"station_id":"ce4bh2p2rcd13ifvqdi0","pricing_plan_id":"cebpf4jnsgd1na2vs0mg"},{"bike_id":"51842e17-ef10-4624-a23e-c8a182427991","system_id":"levelo_inurba_marseille","lat":43.31637,"lon":5.3817,"is_reserved":false,"is_disabled":false,"rental_uris":{"android":"levelo://app?vid=51842e17-ef10-4624-a23e-c8a182427991","ios":"levelo://app?vid=51842e17-ef10-4624-a23e-c8a182427991"},"vehicle_type_id":"4","last_reported":1756325457,"current_range_meters":8000,"station_id":"","pricing_plan_id":"cebpf4jnsgd1na2vs0mg"},{"bike_id":"69a01144-4cb0-4f43-b8a7-d8bba1210d75","system_id":"levelo_inurba_marseille","lat":43.31614,"lon":5.37422,"is_reserved":false,"is_disabled":false,"rental_uris":{"android":"levelo://app?vid=69a01144-4cb0-4f43-b8a7-d8bba1210d75","ios":"levelo://app?vid=69a01144-4cb0-4f43-b8a7-d8bba1210d75"},"vehicle_type_id":"4","last_reported":1756325457,"current_range_meters":8000,"station_id":"","pricing_plan_id":"cebpf4jnsgd1na2vs0mg"},{"bike_id":"743e7956-cdec-4287-9bfe-7ec2ab35ffd3","system_id":"levelo_inurba_marseille","lat":43.31506,"lon":5.37265,"is_reserved":false,"is_disabled":false,"rental_uris":{"android":"levelo://app?vid=743e7956-cdec-4287-9bfe-7ec2ab35ffd3","ios":"levelo://app?vid=743e7956-cdec-4287-9bfe-7ec2ab35ffd3"},"vehicle_type_id":"4","last_reported":1756325457,"current_range_meters":8000,"station_id":"ce4bgt12rcd13ifvqcd0","pricing_plan_id":"cebpf4jnsgd1na2vs0mg"},{"bike_id":"8ff3ebc3-b8cc-483f-9232-7e0c6220b0be","system_id":"levelo_inurba_marseille","lat":43.2995,"lon":5.41328,"is_reserved":false,"is_disabled":true,"rental_uris":{"android":"levelo://app?vid=8ff3ebc3-b8cc-483f-9232-7e0c6220b0be","ios":"levelo://app?vid=8ff3ebc3-b8cc-483f-9232-7e0c6220b0be"},"vehicle_type_id":"4","last_reported":1756325457,"current_range_meters":8400,"station_id":"ce4bhp12rcd13ifvqh9g","pricing_plan_id":"cebpf4jnsgd1na2vs0mg"},{"bike_id":"1503ae73-ca23-45ec-8a68-02e967b0ead8","system_id":"levelo_inurba_marseille","lat":43.23182,"lon":5.35563,"is_reserved":false,"is_disabled":false,"rental_uris":{"android":"levelo://app?vid=1503ae73-ca23-45ec-8a68-02e967b0ead8","ios":"levelo://app?vid=1503ae73-ca23-45ec-8a68-02e967b0ead8"},"vehicle_type_id":"4","last_reported":1756325457,"current_range_meters":8400,"station_id":"ce4bhu92rcd13ifvqi70","pricing_plan_id":"cebpf4jnsgd1na2vs0mg"},{"bike_id":"0f2017f4-e5c1-46a2-a7d8-e957ce265a72","system_id":"levelo_inurba_marseille","lat":43.33786,"lon":5.37476,"is_reserved":false,"is_disabled":false,"rental_uris":{"android":"levelo://app?vid=0f2017f4-e5c1-46a2-a7d8-e957ce265a72","ios":"levelo://app?vid=0f2017f4-e5c1-46a2-a7d8-e957ce265a72"},"vehicle_type_id":"4","last_reported":1756325457,"current_range_meters":8400,"station_id":"","pricing_plan_id":"cebpf4jnsgd1na2vs0mg"},{"bike_id":"f2c5e9b6-172a-4752-9b5b-b5c505057604","system_id":"levelo_inurba_marseille","lat":43.26549,"lon":5.37287,"is_reserved":false,"is_disabled":false,"rental_uris":{"android":"levelo://app?vid=f2c5e9b6-172a-4752-9b5b-b5c505057604","ios":"levelo://app?vid=f2c5e9b6-172a-4752-9b5b-b5c505057604"},"vehicle_type_id":"4","last_reported":1756325457,"current_range_meters":8400,"station_id":"ce4bhg12rcd13ifvqf70","pricing_plan_id":"cebpf4jnsgd1na2vs0mg"},{"bike_id":"b4334b8c-b924-4b12-8c30-7d572c2f0d2f","system_id":"levelo_inurba_marseille","lat":43.26786,"lon":5.39415,"is_reserved":false,"is_disabled":false,"rental_uris":{"android":"levelo://app?vid=b4334b8c-b924-4b12-8c30-7d572c2f0d2f","ios":"levelo://app?vid=b4334b8c-b924-4b12-8c30-7d572c2f0d2f"},"vehicle_type_id":"4","last_reported":1756325457,"current_range_meters":8400,"station_id":"ce4bhh12rcd13ifvqfg0","pricing_plan_id":"cebpf4jnsgd1na2vs0mg"},{"bike_id":"09079215-23fe-433a-9f66-1740d6aa715b","system_id":"levelo_inurba_marseille","lat":43.30417,"lon":5.39753,"is_reserved":false,"is_disabled":false,"rental_uris":{"android":"levelo://app?vid=09079215-23fe-433a-9f66-1740d6aa715b","ios":"levelo://app?vid=09079215-23fe-433a-9f66-1740d6aa715b"},"vehicle_type_id":"4","last_reported":1756325457,"current_range_meters":8400,"station_id":"ce4bh092rcd13ifvqd20","pricing_plan_id":"cebpf4jnsgd1na2vs0mg"},{"bike_id":"24df2c59-c2ae-4cf6-8d73-b821e9ca9612","system_id":"levelo_inurba_marseille","lat":43.27984,"lon":5.39981,"is_reserved":false,"is_disabled":true,"rental_uris":{"android":"levelo://app?vid=24df2c59-c2ae-4cf6-8d73-b821e9ca9612","ios":"levelo://app?vid=24df2c59-c2ae-4cf6-8d73-b821e9ca9612"},"vehicle_type_id":"4","last_reported":1756325457,"current_range_meters":8400,"station_id":"ce4bho92rcd13ifvqh4g","pricing_plan_id":"cebpf4jnsgd1na2vs0mg"},{"bike_id":"d6f6730b-8ea9-42a3-a1eb-3405a2d763f0","system_id":"levelo_inurba_marseille","lat":43.31483,"lon":5.37309,"is_reserved":false,"is_disabled":false,"rental_uris":{"android":"levelo://app?vid=d6f6730b-8ea9-42a3-a1eb-3405a2d763f0","ios":"levelo://app?vid=d6f6730b-8ea9-42a3-a1eb-3405a2d763f0"},"vehicle_type_id":"4","last_reported":1756325457,"current_range_meters":8400,"station_id":"ce4bgt12rcd13ifvqcd0","pricing_plan_id":"cebpf4jnsgd1na2vs0mg"},{"bike_id":"0ee7e0a5-1793-4f90-9db3-e9055c78e4d7","system_id":"levelo_inurba_marseille","lat":43.30434,"lon":5.38894,"is_reserved":false,"is_disabled":false,"rental_uris":{"android":"levelo://app?vid=0ee7e0a5-1793-4f90-9db3-e9055c78e4d7","ios":"levelo://app?vid=0ee7e0a5-1793-4f90-9db3-e9055c78e4d7"},"vehicle_type_id":"4","last_reported":1756325457,"current_range_meters":8400,"station_id":"ce4bgk12rcd13ifvqbi0","pricing_plan_id":"cebpf4jnsgd1na2vs0mg"},{"bike_id":"a79b6166-93d1-40ff-986d-a995e819e2c5","system_id":"levelo_inurba_marseille","lat":43.32355,"lon":5.38894,"is_reserved":false,"is_disabled":false,"rental_uris":{"android":"levelo://app?vid=a79b6166-93d1-40ff-986d-a995e819e2c5","ios":"levelo://app?vid=a79b6166-93d1-40ff-986d-a995e819e2c5"},"vehicle_type_id":"4","last_reported":1756325457,"current_range_meters":8800,"station_id":"ce4bhqp2rcd13ifvqhog","pricing_plan_id":"cebpf4jnsgd1na2vs0mg"},{"bike_id":"e9099ed8-f39c-4735-a545-38ff6ccc85d8","system_id":"levelo_inurba_marseille","lat":43.32257,"lon":5.38547,"is_reserved":false,"is_disabled":false,"rental_uris":{"android":"levelo://app?vid=e9099ed8-f39c-4735-a545-38ff6ccc85d8","ios":"levelo://app?vid=e9099ed8-f39c-4735-a545-38ff6ccc85d8"},"vehicle_type_id":"4","last_reported":1756325457,"current_range_meters":8800,"station_id":"","pricing_plan_id":"cebpf4jnsgd1na2vs0mg"},{"bike_id":"be578819-14c3-4189-a2bd-78c8cb7c0fde","system_id":"levelo_inurba_marseille","lat":43.29309,"lon":5.37172,"is_reserved":false,"is_disabled":false,"rental_uris":{"android":"levelo://app?vid=be578819-14c3-4189-a2bd-78c8cb7c0fde","ios":"levelo://app?vid=be578819-14c3-4189-a2bd-78c8cb7c0fde"},"vehicle_type_id":"4","last_reported":1756325457,"current_range_meters":8800,"station_id":"ce4bgh92rcd13ifvqb40","pricing_plan_id":"cebpf4jnsgd1na2vs0mg"},{"bike_id":"a6ef8657-5b8a-423b-993f-c3df43dec0a0","system_id":"levelo_inurba_marseille","lat":43.326998,"lon":5.392208,"is_reserved":false,"is_disabled":false,"rental_uris":{"android":"levelo://app?vid=a6ef8657-5b8a-423b-993f-c3df43dec0a0","ios":"levelo://app?vid=a6ef8657-5b8a-423b-993f-c3df43dec0a0"},"vehicle_type_id":"4","last_reported":1756325457,"current_range_meters":8800,"station_id":"","pricing_plan_id":"cebpf4jnsgd1na2vs0mg"},{"bike_id":"39002f5b-a23e-4630-90a0-e2481b8443c4","system_id":"levelo_inurba_marseille","lat":43.25006,"lon":5.389113,"is_reserved":false,"is_disabled":false,"rental_uris":{"android":"levelo://app?vid=39002f5b-a23e-4630-90a0-e2481b8443c4","ios":"levelo://app?vid=39002f5b-a23e-4630-90a0-e2481b8443c4"},"vehicle_type_id":"4","last_reported":1756325457,"current_range_meters":8800,"station_id":"","pricing_plan_id":"cebpf4jnsgd1na2vs0mg"},{"bike_id":"d56bd230-40d1-42ea-b515-3b37a4c47b8c","system_id":"levelo_inurba_marseille","lat":43.31223,"lon":5.36846,"is_reserved":false,"is_disabled":false,"rental_uris":{"android":"levelo://app?vid=d56bd230-40d1-42ea-b515-3b37a4c47b8c","ios":"levelo://app?vid=d56bd230-40d1-42ea-b515-3b37a4c47b8c"},"vehicle_type_id":"4","last_reported":1756325457,"current_range_meters":9200,"station_id":"ce4bgl92rcd13ifvqbq0","pricing_plan_id":"cebpf4jnsgd1na2vs0mg"},{"bike_id":"1d7023ef-959e-48df-b075-0a4bd90cc9ae","system_id":"levelo_inurba_marseille","lat":43.27365,"lon":5.36253,"is_reserved":false,"is_disabled":true,"rental_uris":{"android":"levelo://app?vid=1d7023ef-959e-48df-b075-0a4bd90cc9ae","ios":"levelo://app?vid=1d7023ef-959e-48df-b075-0a4bd90cc9ae"},"vehicle_type_id":"4","last_reported":1756325457,"current_range_meters":9200,"station_id":"ce4bhbh2rcd13ifvqeo0","pricing_plan_id":"cebpf4jnsgd1na2vs0mg"},{"bike_id":"4e14b512-96f3-461e-a9eb-f626a4679301","system_id":"levelo_inurba_marseille","lat":43.2622,"lon":5.37943,"is_reserved":false,"is_disabled":false,"rental_uris":{"android":"levelo://app?vid=4e14b512-96f3-461e-a9eb-f626a4679301","ios":"levelo://app?vid=4e14b512-96f3-461e-a9eb-f626a4679301"},"vehicle_type_id":"4","last_reported":1756325457,"current_range_meters":9200,"station_id":"ce4bhjp2rcd13ifvqg90","pricing_plan_id":"cebpf4jnsgd1na2vs0mg"},{"bike_id":"d0dc509f-9180-4819-9d2d-54dd08644812","system_id":"levelo_inurba_marseille","lat":43.27952,"lon":5.40082,"is_reserved":false,"is_disabled":false,"rental_uris":{"android":"levelo://app?vid=d0dc509f-9180-4819-9d2d-54dd08644812","ios":"levelo://app?vid=d0dc509f-9180-4819-9d2d-54dd08644812"},"vehicle_type_id":"4","last_reported":1756325457,"current_range_meters":9200,"station_id":"ce4bho92rcd13ifvqh4g","pricing_plan_id":"cebpf4jnsgd1na2vs0mg"},{"bike_id":"38d8ef3e-e8d7-4990-bcc0-c58cc350dc96","system_id":"levelo_inurba_marseille","lat":43.26025,"lon":5.37559,"is_reserved":false,"is_disabled":true,"rental_uris":{"android":"levelo://app?vid=38d8ef3e-e8d7-4990-bcc0-c58cc350dc96","ios":"levelo://app?vid=38d8ef3e-e8d7-4990-bcc0-c58cc350dc96"},"vehicle_type_id":"4","last_reported":1756325457,"current_range_meters":9200,"station_id":"ce4bhgh2rcd13ifvqfa0","pricing_plan_id":"cebpf4jnsgd1na2vs0mg"},{"bike_id":"f54e30a6-3d9d-4381-bc7c-1f5019ebfd2a","system_id":"levelo_inurba_marseille","lat":43.29266,"lon":5.4089,"is_reserved":false,"is_disabled":false,"rental_uris":{"android":"levelo://app?vid=f54e30a6-3d9d-4381-bc7c-1f5019ebfd2a","ios":"levelo://app?vid=f54e30a6-3d9d-4381-bc7c-1f5019ebfd2a"},"vehicle_type_id":"4","last_reported":1756325457,"current_range_meters":8800,"station_id":"ce4bh192rcd13ifvqdc0","pricing_plan_id":"cebpf4jnsgd1na2vs0mg"},{"bike_id":"efa4cc8a-6991-462e-8ab7-b72260bc29a3","system_id":"levelo_inurba_marseille","lat":43.27917,"lon":5.39584,"is_reserved":false,"is_disabled":false,"rental_uris":{"android":"levelo://app?vid=efa4cc8a-6991-462e-8ab7-b72260bc29a3","ios":"levelo://app?vid=efa4cc8a-6991-462e-8ab7-b72260bc29a3"},"vehicle_type_id":"4","last_reported":1756325457,"current_range_meters":9600,"station_id":"ce4bhf92rcd13ifvqf40","pricing_plan_id":"cebpf4jnsgd1na2vs0mg"},{"bike_id":"b16ad52c-f13c-4cbb-b55b-6d98d6ea16a7","system_id":"levelo_inurba_marseille","lat":43.295732,"lon":5.39972,"is_reserved":false,"is_disabled":false,"rental_uris":{"android":"levelo://app?vid=b16ad52c-f13c-4cbb-b55b-6d98d6ea16a7","ios":"levelo://app?vid=b16ad52c-f13c-4cbb-b55b-6d98d6ea16a7"},"vehicle_type_id":"4","last_reported":1756325457,"current_range_meters":9600,"station_id":"ce4bh312rcd13ifvqdj0","pricing_plan_id":"cebpf4jnsgd1na2vs0mg"},{"bike_id":"2d0e77b8-c9d8-4e57-b6d3-0a222f73256a","system_id":"levelo_inurba_marseille","lat":43.2619,"lon":5.37455,"is_reserved":false,"is_disabled":true,"rental_uris":{"android":"levelo://app?vid=2d0e77b8-c9d8-4e57-b6d3-0a222f73256a","ios":"levelo://app?vid=2d0e77b8-c9d8-4e57-b6d3-0a222f73256a"},"vehicle_type_id":"4","last_reported":1756325457,"current_range_meters":9600,"station_id":"ce4bhgp2rcd13ifvqfc0","pricing_plan_id":"cebpf4jnsgd1na2vs0mg"},{"bike_id":"6a6203a4-44e0-4330-b120-a337be83e1c0","system_id":"levelo_inurba_marseille","lat":43.32473,"lon":5.36551,"is_reserved":false,"is_disabled":false,"rental_uris":{"android":"levelo://app?vid=6a6203a4-44e0-4330-b120-a337be83e1c0","ios":"levelo://app?vid=6a6203a4-44e0-4330-b120-a337be83e1c0"},"vehicle_type_id":"4","last_reported":1756325457,"current_range_meters":9600,"station_id":"ce4bhs12rcd13ifvqhvg","pricing_plan_id":"cebpf4jnsgd1na2vs0mg"},{"bike_id":"1546df9e-d1cb-482b-8d1f-d121540fd829","system_id":"levelo_inurba_marseille","lat":43.21188,"lon":5.35077,"is_reserved":false,"is_disabled":false,"rental_uris":{"android":"levelo://app?vid=1546df9e-d1cb-482b-8d1f-d121540fd829","ios":"levelo://app?vid=1546df9e-d1cb-482b-8d1f-d121540fd829"},"vehicle_type_id":"4","last_reported":1756325457,"current_range_meters":9600,"station_id":"st_cvj6sg6p6f1abm77japg","pricing_plan_id":"cebpf4jnsgd1na2vs0mg"},{"bike_id":"b471d01e-9382-4a02-b1ad-e3802c492953","system_id":"levelo_inurba_marseille","lat":43.29519,"lon":5.39039,"is_reserved":false,"is_disabled":false,"rental_uris":{"android":"levelo://app?vid=b471d01e-9382-4a02-b1ad-e3802c492953","ios":"levelo://app?vid=b471d01e-9382-4a02-b1ad-e3802c492953"},"vehicle_type_id":"4","last_reported":1756325457,"current_range_meters":9600,"station_id":"ce4bh3p2rcd13ifvqdp0","pricing_plan_id":"cebpf4jnsgd1na2vs0mg"},{"bike_id":"a7c879e6-fbdc-41cc-b936-a235aa17adb5","system_id":"levelo_inurba_marseille","lat":43.33124,"lon":5.3817,"is_reserved":false,"is_disabled":false,"rental_uris":{"android":"levelo://app?vid=a7c879e6-fbdc-41cc-b936-a235aa17adb5","ios":"levelo://app?vid=a7c879e6-fbdc-41cc-b936-a235aa17adb5"},"vehicle_type_id":"4","last_reported":1756325457,"current_range_meters":10800,"station_id":"","pricing_plan_id":"cebpf4jnsgd1na2vs0mg"},{"bike_id":"855e16b7-e1d4-4e98-8bab-a279b0cfaf79","system_id":"levelo_inurba_marseille","lat":43.29018,"lon":5.39972,"is_reserved":false,"is_disabled":false,"rental_uris":{"android":"levelo://app?vid=855e16b7-e1d4-4e98-8bab-a279b0cfaf79","ios":"levelo://app?vid=855e16b7-e1d4-4e98-8bab-a279b0cfaf79"},"vehicle_type_id":"4","last_reported":1756325457,"current_range_meters":10000,"station_id":"ce4bh392rcd13ifvqdm0","pricing_plan_id":"cebpf4jnsgd1na2vs0mg"},{"bike_id":"5bce688b-fc81-4596-8277-b66f54be87c1","system_id":"levelo_inurba_marseille","lat":43.33768,"lon":5.37438,"is_reserved":false,"is_disabled":false,"rental_uris":{"android":"levelo://app?vid=5bce688b-fc81-4596-8277-b66f54be87c1","ios":"levelo://app?vid=5bce688b-fc81-4596-8277-b66f54be87c1"},"vehicle_type_id":"4","last_reported":1756325457,"current_range_meters":10000,"station_id":"","pricing_plan_id":"cebpf4jnsgd1na2vs0mg"},{"bike_id":"4e11efe4-b3a1-4f54-b1bb-15bae5386b88","system_id":"levelo_inurba_marseille","lat":43.29593,"lon":5.37711,"is_reserved":false,"is_disabled":false,"rental_uris":{"android":"levelo://app?vid=4e11efe4-b3a1-4f54-b1bb-15bae5386b88","ios":"levelo://app?vid=4e11efe4-b3a1-4f54-b1bb-15bae5386b88"},"vehicle_type_id":"4","last_reported":1756325457,"current_range_meters":10000,"station_id":"ce4bgi92rcd13ifvqb90","pricing_plan_id":"cebpf4jnsgd1na2vs0mg"},{"bike_id":"e337d582-364a-4312-af91-67d0c81052aa","system_id":"levelo_inurba_marseille","lat":43.32545,"lon":5.36445,"is_reserved":false,"is_disabled":false,"rental_uris":{"android":"levelo://app?vid=e337d582-364a-4312-af91-67d0c81052aa","ios":"levelo://app?vid=e337d582-364a-4312-af91-67d0c81052aa"},"vehicle_type_id":"4","last_reported":1756325457,"current_range_meters":10000,"station_id":"","pricing_plan_id":"cebpf4jnsgd1na2vs0mg"},{"bike_id":"50db7e3d-2002-410d-94fd-da97a816f51d","system_id":"levelo_inurba_marseille","lat":43.25931,"lon":5.40891,"is_reserved":false,"is_disabled":false,"rental_uris":{"android":"levelo://app?vid=50db7e3d-2002-410d-94fd-da97a816f51d","ios":"levelo://app?vid=50db7e3d-2002-410d-94fd-da97a816f51d"},"vehicle_type_id":"4","last_reported":1756325457,"current_range_meters":10000,"station_id":"ce4bhm92rcd13ifvqglg","pricing_plan_id":"cebpf4jnsgd1na2vs0mg"},{"bike_id":"6edb1530-71b8-45ee-838f-f07e5a0e8ab9","system_id":"levelo_inurba_marseille","lat":43.26205,"lon":5.37446,"is_reserved":false,"is_disabled":true,"rental_uris":{"android":"levelo://app?vid=6edb1530-71b8-45ee-838f-f07e5a0e8ab9","ios":"levelo://app?vid=6edb1530-71b8-45ee-838f-f07e5a0e8ab9"},"vehicle_type_id":"4","last_reported":1756325457,"current_range_meters":10800,"station_id":"ce4bhgp2rcd13ifvqfc0","pricing_plan_id":"cebpf4jnsgd1na2vs0mg"},{"bike_id":"04b7a9f3-b443-44fd-b605-c1e0083e2b14","system_id":"levelo_inurba_marseille","lat":43.28079,"lon":5.39664,"is_reserved":false,"is_disabled":false,"rental_uris":{"android":"levelo://app?vid=04b7a9f3-b443-44fd-b605-c1e0083e2b14","ios":"levelo://app?vid=04b7a9f3-b443-44fd-b605-c1e0083e2b14"},"vehicle_type_id":"4","last_reported":1756325457,"current_range_meters":11200,"station_id":"ce4bho12rcd13ifvqh2g","pricing_plan_id":"cebpf4jnsgd1na2vs0mg"},{"bike_id":"98b5d953-937e-48a2-a5e5-1c6a780d56ce","system_id":"levelo_inurba_marseille","lat":43.28101,"lon":5.37849,"is_reserved":false,"is_disabled":false,"rental_uris":{"android":"levelo://app?vid=98b5d953-937e-48a2-a5e5-1c6a780d56ce","ios":"levelo://app?vid=98b5d953-937e-48a2-a5e5-1c6a780d56ce"},"vehicle_type_id":"4","last_reported":1756325457,"current_range_meters":11200,"station_id":"ce4bha12rcd13ifvqee0","pricing_plan_id":"cebpf4jnsgd1na2vs0mg"},{"bike_id":"c585dd86-e6af-4090-bba4-a9ee7f425450","system_id":"levelo_inurba_marseille","lat":43.28363,"lon":5.38637,"is_reserved":false,"is_disabled":false,"rental_uris":{"android":"levelo://app?vid=c585dd86-e6af-4090-bba4-a9ee7f425450","ios":"levelo://app?vid=c585dd86-e6af-4090-bba4-a9ee7f425450"},"vehicle_type_id":"4","last_reported":1756325457,"current_range_meters":11200,"station_id":"ce4bh492rcd13ifvqdvg","pricing_plan_id":"cebpf4jnsgd1na2vs0mg"},{"bike_id":"19e6b958-d674-4cf9-9694-2117e01e04c1","system_id":"levelo_inurba_marseille","lat":43.30898,"lon":5.37194,"is_reserved":false,"is_disabled":false,"rental_uris":{"android":"levelo://app?vid=19e6b958-d674-4cf9-9694-2117e01e04c1","ios":"levelo://app?vid=19e6b958-d674-4cf9-9694-2117e01e04c1"},"vehicle_type_id":"4","last_reported":1756325457,"current_range_meters":10800,"station_id":"ce4bguh2rcd13ifvqckg","pricing_plan_id":"cebpf4jnsgd1na2vs0mg"},{"bike_id":"e5eabf25-4e1c-476e-b130-9f83cdcfc80c","system_id":"levelo_inurba_marseille","lat":43.29832,"lon":5.41699,"is_reserved":false,"is_disabled":false,"rental_uris":{"android":"levelo://app?vid=e5eabf25-4e1c-476e-b130-9f83cdcfc80c","ios":"levelo://app?vid=e5eabf25-4e1c-476e-b130-9f83cdcfc80c"},"vehicle_type_id":"4","last_reported":1756325457,"current_range_meters":11200,"station_id":"","pricing_plan_id":"cebpf4jnsgd1na2vs0mg"},{"bike_id":"a9303bca-efe2-4445-a6ce-d44146205eba","system_id":"levelo_inurba_marseille","lat":43.29848,"lon":5.36267,"is_reserved":false,"is_disabled":false,"rental_uris":{"android":"levelo://app?vid=a9303bca-efe2-4445-a6ce-d44146205eba","ios":"levelo://app?vid=a9303bca-efe2-4445-a6ce-d44146205eba"},"vehicle_type_id":"4","last_reported":1756325457,"current_range_meters":11200,"station_id":"ce4bgpp2rcd13ifvqc3g","pricing_plan_id":"cebpf4jnsgd1na2vs0mg"},{"bike_id":"fdf41876-8d93-457c-bde1-1b0884c9f607","system_id":"levelo_inurba_marseille","lat":43.28948,"lon":5.39619,"is_reserved":false,"is_disabled":false,"rental_uris":{"android":"levelo://app?vid=fdf41876-8d93-457c-bde1-1b0884c9f607","ios":"levelo://app?vid=fdf41876-8d93-457c-bde1-1b0884c9f607"},"vehicle_type_id":"4","last_reported":1756325457,"current_range_meters":10800,"station_id":"ce4bh3h2rcd13ifvqdn0","pricing_plan_id":"cebpf4jnsgd1na2vs0mg"},{"bike_id":"452c64c1-c18e-429f-ac02-5f3cc7af3941","system_id":"levelo_inurba_marseille","lat":43.21729,"lon":5.34633,"is_reserved":false,"is_disabled":false,"rental_uris":{"android":"levelo://app?vid=452c64c1-c18e-429f-ac02-5f3cc7af3941","ios":"levelo://app?vid=452c64c1-c18e-429f-ac02-5f3cc7af3941"},"vehicle_type_id":"4","last_reported":1756325457,"current_range_meters":11200,"station_id":"st_cvj6r9ubvosntc0bgbag","pricing_plan_id":"cebpf4jnsgd1na2vs0mg"},{"bike_id":"1e852faa-0778-4e8a-a9c8-6c774f7c3cf4","system_id":"levelo_inurba_marseille","lat":43.2603,"lon":5.37555,"is_reserved":false,"is_disabled":false,"rental_uris":{"android":"levelo://app?vid=1e852faa-0778-4e8a-a9c8-6c774f7c3cf4","ios":"levelo://app?vid=1e852faa-0778-4e8a-a9c8-6c774f7c3cf4"},"vehicle_type_id":"4","last_reported":1756325457,"current_range_meters":11600,"station_id":"ce4bhgh2rcd13ifvqfa0","pricing_plan_id":"cebpf4jnsgd1na2vs0mg"},{"bike_id":"644bc2dd-7e69-41cd-aad2-38dac69d2840","system_id":"levelo_inurba_marseille","lat":43.33726,"lon":5.39179,"is_reserved":false,"is_disabled":false,"rental_uris":{"android":"levelo://app?vid=644bc2dd-7e69-41cd-aad2-38dac69d2840","ios":"levelo://app?vid=644bc2dd-7e69-41cd-aad2-38dac69d2840"},"vehicle_type_id":"4","last_reported":1756325457,"current_range_meters":11600,"station_id":"ce4bhr92rcd13ifvqhsg","pricing_plan_id":"cebpf4jnsgd1na2vs0mg"},{"bike_id":"f5ee2120-b8b8-472b-9bcc-efc824cd719b","system_id":"levelo_inurba_marseille","lat":43.29551,"lon":5.42288,"is_reserved":false,"is_disabled":false,"rental_uris":{"android":"levelo://app?vid=f5ee2120-b8b8-472b-9bcc-efc824cd719b","ios":"levelo://app?vid=f5ee2120-b8b8-472b-9bcc-efc824cd719b"},"vehicle_type_id":"4","last_reported":1756325457,"current_range_meters":11200,"station_id":"ce4bhph2rcd13ifvqhdg","pricing_plan_id":"cebpf4jnsgd1na2vs0mg"},{"bike_id":"da56be69-d1d8-4e58-9211-9f80a01d3f01","system_id":"levelo_inurba_marseille","lat":43.26544,"lon":5.37306,"is_reserved":false,"is_disabled":false,"rental_uris":{"android":"levelo://app?vid=da56be69-d1d8-4e58-9211-9f80a01d3f01","ios":"levelo://app?vid=da56be69-d1d8-4e58-9211-9f80a01d3f01"},"vehicle_type_id":"4","last_reported":1756325457,"current_range_meters":11600,"station_id":"ce4bhg12rcd13ifvqf70","pricing_plan_id":"cebpf4jnsgd1na2vs0mg"},{"bike_id":"9308f021-ec84-4fe8-8c25-145b6405b7e0","system_id":"levelo_inurba_marseille","lat":43.30548,"lon":5.36713,"is_reserved":false,"is_disabled":true,"rental_uris":{"android":"levelo://app?vid=9308f021-ec84-4fe8-8c25-145b6405b7e0","ios":"levelo://app?vid=9308f021-ec84-4fe8-8c25-145b6405b7e0"},"vehicle_type_id":"4","last_reported":1756325457,"current_range_meters":12000,"station_id":"ce4bgrp2rcd13ifvqc9g","pricing_plan_id":"cebpf4jnsgd1na2vs0mg"},{"bike_id":"b5ae0016-67e1-4c37-91cb-4d986fbc09a4","system_id":"levelo_inurba_marseille","lat":43.24636,"lon":5.43142,"is_reserved":false,"is_disabled":false,"rental_uris":{"android":"levelo://app?vid=b5ae0016-67e1-4c37-91cb-4d986fbc09a4","ios":"levelo://app?vid=b5ae0016-67e1-4c37-91cb-4d986fbc09a4"},"vehicle_type_id":"4","last_reported":1756325457,"current_range_meters":12000,"station_id":"st_d2m6c4gdas8pm72e190g","pricing_plan_id":"cebpf4jnsgd1na2vs0mg"},{"bike_id":"389c151f-2d0c-4167-8301-4dfb82a368e4","system_id":"levelo_inurba_marseille","lat":43.28568,"lon":5.39502,"is_reserved":false,"is_disabled":false,"rental_uris":{"android":"levelo://app?vid=389c151f-2d0c-4167-8301-4dfb82a368e4","ios":"levelo://app?vid=389c151f-2d0c-4167-8301-4dfb82a368e4"},"vehicle_type_id":"4","last_reported":1756325457,"current_range_meters":12000,"station_id":"ce4bh292rcd13ifvqdg0","pricing_plan_id":"cebpf4jnsgd1na2vs0mg"},{"bike_id":"f9bee4e7-3272-4bb4-b05c-cd5fb342938a","system_id":"levelo_inurba_marseille","lat":43.32095,"lon":5.36775,"is_reserved":false,"is_disabled":false,"rental_uris":{"android":"levelo://app?vid=f9bee4e7-3272-4bb4-b05c-cd5fb342938a","ios":"levelo://app?vid=f9bee4e7-3272-4bb4-b05c-cd5fb342938a"},"vehicle_type_id":"4","last_reported":1756325457,"current_range_meters":12000,"station_id":"ce4bhrh2rcd13ifvqhug","pricing_plan_id":"cebpf4jnsgd1na2vs0mg"},{"bike_id":"3448e159-471f-45cf-b0bc-dcb672574311","system_id":"levelo_inurba_marseille","lat":43.26197,"lon":5.37444,"is_reserved":false,"is_disabled":true,"rental_uris":{"android":"levelo://app?vid=3448e159-471f-45cf-b0bc-dcb672574311","ios":"levelo://app?vid=3448e159-471f-45cf-b0bc-dcb672574311"},"vehicle_type_id":"4","last_reported":1756325457,"current_range_meters":12000,"station_id":"ce4bhgp2rcd13ifvqfc0","pricing_plan_id":"cebpf4jnsgd1na2vs0mg"},{"bike_id":"882bcd89-5217-4bfc-b798-6bd5c57cc39e","system_id":"levelo_inurba_marseille","lat":43.29842,"lon":5.3628,"is_reserved":false,"is_disabled":false,"rental_uris":{"android":"levelo://app?vid=882bcd89-5217-4bfc-b798-6bd5c57cc39e","ios":"levelo://app?vid=882bcd89-5217-4bfc-b798-6bd5c57cc39e"},"vehicle_type_id":"4","last_reported":1756325457,"current_range_meters":12000,"station_id":"ce4bgpp2rcd13ifvqc3g","pricing_plan_id":"cebpf4jnsgd1na2vs0mg"},{"bike_id":"26a3abc8-349c-4ced-b864-ad5df457ff66","system_id":"levelo_inurba_marseille","lat":43.26016,"lon":5.37553,"is_reserved":false,"is_disabled":false,"rental_uris":{"android":"levelo://app?vid=26a3abc8-349c-4ced-b864-ad5df457ff66","ios":"levelo://app?vid=26a3abc8-349c-4ced-b864-ad5df457ff66"},"vehicle_type_id":"4","last_reported":1756325457,"current_range_meters":12000,"station_id":"ce4bhgh2rcd13ifvqfa0","pricing_plan_id":"cebpf4jnsgd1na2vs0mg"},{"bike_id":"851053e8-d3be-4f09-af43-d2598eb82f5e","system_id":"levelo_inurba_marseille","lat":43.26558,"lon":5.37292,"is_reserved":false,"is_disabled":false,"rental_uris":{"android":"levelo://app?vid=851053e8-d3be-4f09-af43-d2598eb82f5e","ios":"levelo://app?vid=851053e8-d3be-4f09-af43-d2598eb82f5e"},"vehicle_type_id":"4","last_reported":1756325457,"current_range_meters":12000,"station_id":"ce4bhg12rcd13ifvqf70","pricing_plan_id":"cebpf4jnsgd1na2vs0mg"},{"bike_id":"e6caca03-e4c1-40ce-9f4e-cc5046f7af92","system_id":"levelo_inurba_marseille","lat":43.31994,"lon":5.38157,"is_reserved":false,"is_disabled":false,"rental_uris":{"android":"levelo://app?vid=e6caca03-e4c1-40ce-9f4e-cc5046f7af92","ios":"levelo://app?vid=e6caca03-e4c1-40ce-9f4e-cc5046f7af92"},"vehicle_type_id":"4","last_reported":1756325457,"current_range_meters":12000,"station_id":"ce4bhr12rcd13ifvqhpg","pricing_plan_id":"cebpf4jnsgd1na2vs0mg"},{"bike_id":"0f969274-ed3a-4d5e-b4e6-7a3984afd615","system_id":"levelo_inurba_marseille","lat":43.26051,"lon":5.37541,"is_reserved":false,"is_disabled":false,"rental_uris":{"android":"levelo://app?vid=0f969274-ed3a-4d5e-b4e6-7a3984afd615","ios":"levelo://app?vid=0f969274-ed3a-4d5e-b4e6-7a3984afd615"},"vehicle_type_id":"4","last_reported":1756325457,"current_range_meters":12400,"station_id":"ce4bhgh2rcd13ifvqfa0","pricing_plan_id":"cebpf4jnsgd1na2vs0mg"},{"bike_id":"6bfbf7b1-a4a1-4287-abfb-a1fa867bee3a","system_id":"levelo_inurba_marseille","lat":43.23064,"lon":5.35494,"is_reserved":false,"is_disabled":false,"rental_uris":{"android":"levelo://app?vid=6bfbf7b1-a4a1-4287-abfb-a1fa867bee3a","ios":"levelo://app?vid=6bfbf7b1-a4a1-4287-abfb-a1fa867bee3a"},"vehicle_type_id":"4","last_reported":1756325457,"current_range_meters":12400,"station_id":"cpo3342slgdg3j2ifvpg","pricing_plan_id":"cebpf4jnsgd1na2vs0mg"},{"bike_id":"b16c8c87-db55-4d45-9cb2-b16f4c46583e","system_id":"levelo_inurba_marseille","lat":43.296,"lon":5.38111,"is_reserved":false,"is_disabled":false,"rental_uris":{"android":"levelo://app?vid=b16c8c87-db55-4d45-9cb2-b16f4c46583e","ios":"levelo://app?vid=b16c8c87-db55-4d45-9cb2-b16f4c46583e"},"vehicle_type_id":"4","last_reported":1756325457,"current_range_meters":14800,"station_id":"ce4bgl12rcd13ifvqbo0","pricing_plan_id":"cebpf4jnsgd1na2vs0mg"},{"bike_id":"3b5c982b-eefb-4fa8-9520-ea0425701ac7","system_id":"levelo_inurba_marseille","lat":43.28459,"lon":5.3588,"is_reserved":false,"is_disabled":false,"rental_uris":{"android":"levelo://app?vid=3b5c982b-eefb-4fa8-9520-ea0425701ac7","ios":"levelo://app?vid=3b5c982b-eefb-4fa8-9520-ea0425701ac7"},"vehicle_type_id":"4","last_reported":1756325457,"current_range_meters":12400,"station_id":"ce4bhah2rcd13ifvqei0","pricing_plan_id":"cebpf4jnsgd1na2vs0mg"},{"bike_id":"2d35c570-724e-42d6-9b57-babd6cb61039","system_id":"levelo_inurba_marseille","lat":43.26029,"lon":5.37552,"is_reserved":false,"is_disabled":false,"rental_uris":{"android":"levelo://app?vid=2d35c570-724e-42d6-9b57-babd6cb61039","ios":"levelo://app?vid=2d35c570-724e-42d6-9b57-babd6cb61039"},"vehicle_type_id":"4","last_reported":1756325457,"current_range_meters":12800,"station_id":"ce4bhgh2rcd13ifvqfa0","pricing_plan_id":"cebpf4jnsgd1na2vs0mg"},{"bike_id":"3ce18fbc-ec38-4f9e-9dd9-9a3dee5c503d","system_id":"levelo_inurba_marseille","lat":43.26024,"lon":5.37556,"is_reserved":false,"is_disabled":true,"rental_uris":{"android":"levelo://app?vid=3ce18fbc-ec38-4f9e-9dd9-9a3dee5c503d","ios":"levelo://app?vid=3ce18fbc-ec38-4f9e-9dd9-9a3dee5c503d"},"vehicle_type_id":"4","last_reported":1756325457,"current_range_meters":12800,"station_id":"ce4bhgh2rcd13ifvqfa0","pricing_plan_id":"cebpf4jnsgd1na2vs0mg"},{"bike_id":"2171bacb-8e42-4bc6-8831-4d463da64af1","system_id":"levelo_inurba_marseille","lat":43.29527,"lon":5.39039,"is_reserved":false,"is_disabled":false,"rental_uris":{"android":"levelo://app?vid=2171bacb-8e42-4bc6-8831-4d463da64af1","ios":"levelo://app?vid=2171bacb-8e42-4bc6-8831-4d463da64af1"},"vehicle_type_id":"4","last_reported":1756325457,"current_range_meters":12800,"station_id":"ce4bh3p2rcd13ifvqdp0","pricing_plan_id":"cebpf4jnsgd1na2vs0mg"},{"bike_id":"07f3c348-251f-475b-bdcc-b91dd94163be","system_id":"levelo_inurba_marseille","lat":43.2174,"lon":5.34608,"is_reserved":false,"is_disabled":true,"rental_uris":{"android":"levelo://app?vid=07f3c348-251f-475b-bdcc-b91dd94163be","ios":"levelo://app?vid=07f3c348-251f-475b-bdcc-b91dd94163be"},"vehicle_type_id":"4","last_reported":1756325457,"current_range_meters":12800,"station_id":"st_cvj6r9ubvosntc0bgbag","pricing_plan_id":"cebpf4jnsgd1na2vs0mg"},{"bike_id":"685105d1-bcda-4899-9d64-d94adf158a64","system_id":"levelo_inurba_marseille","lat":43.314676,"lon":5.373608,"is_reserved":false,"is_disabled":true,"rental_uris":{"android":"levelo://app?vid=685105d1-bcda-4899-9d64-d94adf158a64","ios":"levelo://app?vid=685105d1-bcda-4899-9d64-d94adf158a64"},"vehicle_type_id":"4","last_reported":1756325457,"current_range_meters":13600,"station_id":"","pricing_plan_id":"cebpf4jnsgd1na2vs0mg"},{"bike_id":"39267272-9896-4196-92c8-37bb51168310","system_id":"levelo_inurba_marseille","lat":43.25334,"lon":5.42178,"is_reserved":false,"is_disabled":false,"rental_uris":{"android":"levelo://app?vid=39267272-9896-4196-92c8-37bb51168310","ios":"levelo://app?vid=39267272-9896-4196-92c8-37bb51168310"},"vehicle_type_id":"4","last_reported":1756325457,"current_range_meters":13600,"station_id":"st_d2m65c5bi1j21697t3ng","pricing_plan_id":"cebpf4jnsgd1na2vs0mg"},{"bike_id":"d1e0c5c0-2021-47c7-80fe-e78f82330db3","system_id":"levelo_inurba_marseille","lat":43.21192,"lon":5.35064,"is_reserved":false,"is_disabled":false,"rental_uris":{"android":"levelo://app?vid=d1e0c5c0-2021-47c7-80fe-e78f82330db3","ios":"levelo://app?vid=d1e0c5c0-2021-47c7-80fe-e78f82330db3"},"vehicle_type_id":"4","last_reported":1756325457,"current_range_meters":13600,"station_id":"st_cvj6sg6p6f1abm77japg","pricing_plan_id":"cebpf4jnsgd1na2vs0mg"},{"bike_id":"7d5d0afa-a2d2-4ca8-aaca-94addc86ff8d","system_id":"levelo_inurba_marseille","lat":43.2953,"lon":5.39048,"is_reserved":false,"is_disabled":false,"rental_uris":{"android":"levelo://app?vid=7d5d0afa-a2d2-4ca8-aaca-94addc86ff8d","ios":"levelo://app?vid=7d5d0afa-a2d2-4ca8-aaca-94addc86ff8d"},"vehicle_type_id":"4","last_reported":1756325457,"current_range_meters":13600,"station_id":"ce4bh3p2rcd13ifvqdp0","pricing_plan_id":"cebpf4jnsgd1na2vs0mg"},{"bike_id":"3dff11d5-3872-4ffe-8cce-b5631d6c6058","system_id":"levelo_inurba_marseille","lat":43.32075,"lon":5.38674,"is_reserved":false,"is_disabled":false,"rental_uris":{"android":"levelo://app?vid=3dff11d5-3872-4ffe-8cce-b5631d6c6058","ios":"levelo://app?vid=3dff11d5-3872-4ffe-8cce-b5631d6c6058"},"vehicle_type_id":"4","last_reported":1756325457,"current_range_meters":13600,"station_id":"","pricing_plan_id":"cebpf4jnsgd1na2vs0mg"},{"bike_id":"777b1810-e680-4cec-ba81-dd8c5b14e140","system_id":"levelo_inurba_marseille","lat":43.285643,"lon":5.395008,"is_reserved":false,"is_disabled":false,"rental_uris":{"android":"levelo://app?vid=777b1810-e680-4cec-ba81-dd8c5b14e140","ios":"levelo://app?vid=777b1810-e680-4cec-ba81-dd8c5b14e140"},"vehicle_type_id":"4","last_reported":1756325457,"current_range_meters":13600,"station_id":"ce4bh292rcd13ifvqdg0","pricing_plan_id":"cebpf4jnsgd1na2vs0mg"},{"bike_id":"b544be72-e517-4e78-baea-097b0c331889","system_id":"levelo_inurba_marseille","lat":43.248031,"lon":5.374662,"is_reserved":false,"is_disabled":false,"rental_uris":{"android":"levelo://app?vid=b544be72-e517-4e78-baea-097b0c331889","ios":"levelo://app?vid=b544be72-e517-4e78-baea-097b0c331889"},"vehicle_type_id":"4","last_reported":1756325457,"current_range_meters":14000,"station_id":"ce4bhgh2rcd13ifvqfb0","pricing_plan_id":"cebpf4jnsgd1na2vs0mg"},{"bike_id":"7739159b-98a5-4d51-890a-a6bdaab3df5a","system_id":"levelo_inurba_marseille","lat":43.24633,"lon":5.4314,"is_reserved":false,"is_disabled":false,"rental_uris":{"android":"levelo://app?vid=7739159b-98a5-4d51-890a-a6bdaab3df5a","ios":"levelo://app?vid=7739159b-98a5-4d51-890a-a6bdaab3df5a"},"vehicle_type_id":"4","last_reported":1756325457,"current_range_meters":14000,"station_id":"st_d2m6c4gdas8pm72e190g","pricing_plan_id":"cebpf4jnsgd1na2vs0mg"},{"bike_id":"db526668-1205-422f-99f2-dc09210cda94","system_id":"levelo_inurba_marseille","lat":43.292681,"lon":5.368505,"is_reserved":false,"is_disabled":false,"rental_uris":{"android":"levelo://app?vid=db526668-1205-422f-99f2-dc09210cda94","ios":"levelo://app?vid=db526668-1205-422f-99f2-dc09210cda94"},"vehicle_type_id":"4","last_reported":1756325457,"current_range_meters":14000,"station_id":"ce4bhbp2rcd13ifvqesg","pricing_plan_id":"cebpf4jnsgd1na2vs0mg"},{"bike_id":"064887b2-9e63-44f9-8778-ad23a8de1c69","system_id":"levelo_inurba_marseille","lat":43.26028,"lon":5.3756,"is_reserved":false,"is_disabled":false,"rental_uris":{"android":"levelo://app?vid=064887b2-9e63-44f9-8778-ad23a8de1c69","ios":"levelo://app?vid=064887b2-9e63-44f9-8778-ad23a8de1c69"},"vehicle_type_id":"4","last_reported":1756325457,"current_range_meters":14000,"station_id":"ce4bhgh2rcd13ifvqfa0","pricing_plan_id":"cebpf4jnsgd1na2vs0mg"},{"bike_id":"98c96329-3edb-4eec-a3f6-606d0522135f","system_id":"levelo_inurba_marseille","lat":43.21193,"lon":5.35069,"is_reserved":false,"is_disabled":false,"rental_uris":{"android":"levelo://app?vid=98c96329-3edb-4eec-a3f6-606d0522135f","ios":"levelo://app?vid=98c96329-3edb-4eec-a3f6-606d0522135f"},"vehicle_type_id":"4","last_reported":1756325457,"current_range_meters":14000,"station_id":"st_cvj6sg6p6f1abm77japg","pricing_plan_id":"cebpf4jnsgd1na2vs0mg"},{"bike_id":"3d399bfe-7fbc-42b7-a070-a73b13325d3f","system_id":"levelo_inurba_marseille","lat":43.23104,"lon":5.35495,"is_reserved":false,"is_disabled":false,"rental_uris":{"android":"levelo://app?vid=3d399bfe-7fbc-42b7-a070-a73b13325d3f","ios":"levelo://app?vid=3d399bfe-7fbc-42b7-a070-a73b13325d3f"},"vehicle_type_id":"4","last_reported":1756325457,"current_range_meters":14000,"station_id":"","pricing_plan_id":"cebpf4jnsgd1na2vs0mg"},{"bike_id":"901693be-e0fd-48c6-abfc-fe8f5561b51a","system_id":"levelo_inurba_marseille","lat":43.26022,"lon":5.37555,"is_reserved":false,"is_disabled":false,"rental_uris":{"android":"levelo://app?vid=901693be-e0fd-48c6-abfc-fe8f5561b51a","ios":"levelo://app?vid=901693be-e0fd-48c6-abfc-fe8f5561b51a"},"vehicle_type_id":"4","last_reported":1756325457,"current_range_meters":14000,"station_id":"ce4bhgh2rcd13ifvqfa0","pricing_plan_id":"cebpf4jnsgd1na2vs0mg"},{"bike_id":"a50666a9-d27d-43ee-8934-190edcf808e2","system_id":"levelo_inurba_marseille","lat":43.28462,"lon":5.35891,"is_reserved":false,"is_disabled":false,"rental_uris":{"android":"levelo://app?vid=a50666a9-d27d-43ee-8934-190edcf808e2","ios":"levelo://app?vid=a50666a9-d27d-43ee-8934-190edcf808e2"},"vehicle_type_id":"4","last_reported":1756325457,"current_range_meters":14000,"station_id":"ce4bhah2rcd13ifvqei0","pricing_plan_id":"cebpf4jnsgd1na2vs0mg"},{"bike_id":"a7d05381-9e22-4933-a6d5-4b9eb2499021","system_id":"levelo_inurba_marseille","lat":43.29526,"lon":5.38547,"is_reserved":false,"is_disabled":false,"rental_uris":{"android":"levelo://app?vid=a7d05381-9e22-4933-a6d5-4b9eb2499021","ios":"levelo://app?vid=a7d05381-9e22-4933-a6d5-4b9eb2499021"},"vehicle_type_id":"4","last_reported":1756325457,"current_range_meters":14000,"station_id":"ce4bgih2rcd13ifvqba0","pricing_plan_id":"cebpf4jnsgd1na2vs0mg"},{"bike_id":"274284da-3f38-43b7-a77a-dcf23294e30d","system_id":"levelo_inurba_marseille","lat":43.28662,"lon":5.36353,"is_reserved":false,"is_disabled":false,"rental_uris":{"android":"levelo://app?vid=274284da-3f38-43b7-a77a-dcf23294e30d","ios":"levelo://app?vid=274284da-3f38-43b7-a77a-dcf23294e30d"},"vehicle_type_id":"4","last_reported":1756325457,"current_range_meters":14400,"station_id":"ce4bhah2rcd13ifvqej0","pricing_plan_id":"cebpf4jnsgd1na2vs0mg"},{"bike_id":"83fa9eba-bfd7-4511-adb7-44da1ce28ebe","system_id":"levelo_inurba_marseille","lat":43.29201,"lon":5.39308,"is_reserved":false,"is_disabled":false,"rental_uris":{"android":"levelo://app?vid=83fa9eba-bfd7-4511-adb7-44da1ce28ebe","ios":"levelo://app?vid=83fa9eba-bfd7-4511-adb7-44da1ce28ebe"},"vehicle_type_id":"4","last_reported":1756325457,"current_range_meters":14000,"station_id":"ce4bh192rcd13ifvqdd0","pricing_plan_id":"cebpf4jnsgd1na2vs0mg"},{"bike_id":"11a38367-deb6-4141-b3c1-0cba6ea43c8d","system_id":"levelo_inurba_marseille","lat":43.2901,"lon":5.35615,"is_reserved":false,"is_disabled":true,"rental_uris":{"android":"levelo://app?vid=11a38367-deb6-4141-b3c1-0cba6ea43c8d","ios":"levelo://app?vid=11a38367-deb6-4141-b3c1-0cba6ea43c8d"},"vehicle_type_id":"4","last_reported":1756325457,"current_range_meters":14400,"station_id":"ce4bhb92rcd13ifvqen0","pricing_plan_id":"cebpf4jnsgd1na2vs0mg"},{"bike_id":"07f24022-7770-4d09-b1ec-34ebc114884a","system_id":"levelo_inurba_marseille","lat":43.25001,"lon":5.38925,"is_reserved":false,"is_disabled":false,"rental_uris":{"android":"levelo://app?vid=07f24022-7770-4d09-b1ec-34ebc114884a","ios":"levelo://app?vid=07f24022-7770-4d09-b1ec-34ebc114884a"},"vehicle_type_id":"4","last_reported":1756325457,"current_range_meters":14000,"station_id":"ce4bhgp2rcd13ifvqfd0","pricing_plan_id":"cebpf4jnsgd1na2vs0mg"},{"bike_id":"5c26a54e-1e97-4ad3-a16d-614ad930b130","system_id":"levelo_inurba_marseille","lat":43.32112,"lon":5.36769,"is_reserved":false,"is_disabled":false,"rental_uris":{"android":"levelo://app?vid=5c26a54e-1e97-4ad3-a16d-614ad930b130","ios":"levelo://app?vid=5c26a54e-1e97-4ad3-a16d-614ad930b130"},"vehicle_type_id":"4","last_reported":1756325457,"current_range_meters":14400,"station_id":"ce4bhrh2rcd13ifvqhug","pricing_plan_id":"cebpf4jnsgd1na2vs0mg"},{"bike_id":"f67c8e5e-7af8-4847-a4ce-1e12088b4291","system_id":"levelo_inurba_marseille","lat":43.33026,"lon":5.39247,"is_reserved":false,"is_disabled":false,"rental_uris":{"android":"levelo://app?vid=f67c8e5e-7af8-4847-a4ce-1e12088b4291","ios":"levelo://app?vid=f67c8e5e-7af8-4847-a4ce-1e12088b4291"},"vehicle_type_id":"4","last_reported":1756325457,"current_range_meters":14400,"station_id":"","pricing_plan_id":"cebpf4jnsgd1na2vs0mg"},{"bike_id":"bffe6922-339f-4d53-9d2c-57b2160acb91","system_id":"levelo_inurba_marseille","lat":43.27804,"lon":5.40718,"is_reserved":false,"is_disabled":true,"rental_uris":{"android":"levelo://app?vid=bffe6922-339f-4d53-9d2c-57b2160acb91","ios":"levelo://app?vid=bffe6922-339f-4d53-9d2c-57b2160acb91"},"vehicle_type_id":"4","last_reported":1756325457,"current_range_meters":14400,"station_id":"ce4bhnh2rcd13ifvqgtg","pricing_plan_id":"cebpf4jnsgd1na2vs0mg"},{"bike_id":"e668f5fc-25cf-4272-bad2-0362faba18fe","system_id":"levelo_inurba_marseille","lat":43.30603,"lon":5.39346,"is_reserved":false,"is_disabled":false,"rental_uris":{"android":"levelo://app?vid=e668f5fc-25cf-4272-bad2-0362faba18fe","ios":"levelo://app?vid=e668f5fc-25cf-4272-bad2-0362faba18fe"},"vehicle_type_id":"4","last_reported":1756325457,"current_range_meters":14000,"station_id":"ce4bh0p2rcd13ifvqd80","pricing_plan_id":"cebpf4jnsgd1na2vs0mg"},{"bike_id":"814645c9-7af5-4408-879c-1836489b0342","system_id":"levelo_inurba_marseille","lat":43.26556,"lon":5.37281,"is_reserved":false,"is_disabled":false,"rental_uris":{"android":"levelo://app?vid=814645c9-7af5-4408-879c-1836489b0342","ios":"levelo://app?vid=814645c9-7af5-4408-879c-1836489b0342"},"vehicle_type_id":"4","last_reported":1756325457,"current_range_meters":14400,"station_id":"ce4bhg12rcd13ifvqf70","pricing_plan_id":"cebpf4jnsgd1na2vs0mg"},{"bike_id":"2c594c40-f8a7-46ee-9fbc-75aef4f2ab1a","system_id":"levelo_inurba_marseille","lat":43.212016,"lon":5.350706,"is_reserved":false,"is_disabled":false,"rental_uris":{"android":"levelo://app?vid=2c594c40-f8a7-46ee-9fbc-75aef4f2ab1a","ios":"levelo://app?vid=2c594c40-f8a7-46ee-9fbc-75aef4f2ab1a"},"vehicle_type_id":"4","last_reported":1756325457,"current_range_meters":14400,"station_id":"st_cvj6sg6p6f1abm77japg","pricing_plan_id":"cebpf4jnsgd1na2vs0mg"},{"bike_id":"30289cfc-47e0-45b4-949e-33a70fd47803","system_id":"levelo_inurba_marseille","lat":43.29023,"lon":5.38652,"is_reserved":false,"is_disabled":false,"rental_uris":{"android":"levelo://app?vid=30289cfc-47e0-45b4-949e-33a70fd47803","ios":"levelo://app?vid=30289cfc-47e0-45b4-949e-33a70fd47803"},"vehicle_type_id":"4","last_reported":1756325457,"current_range_meters":14400,"station_id":"ce4bh4p2rcd13ifvqe0g","pricing_plan_id":"cebpf4jnsgd1na2vs0mg"},{"bike_id":"87a609e1-d59c-4124-be64-0e6ad13873d2","system_id":"levelo_inurba_marseille","lat":43.28856,"lon":5.39315,"is_reserved":false,"is_disabled":false,"rental_uris":{"android":"levelo://app?vid=87a609e1-d59c-4124-be64-0e6ad13873d2","ios":"levelo://app?vid=87a609e1-d59c-4124-be64-0e6ad13873d2"},"vehicle_type_id":"4","last_reported":1756325457,"current_range_meters":14800,"station_id":"ce4bh2p2rcd13ifvqdi0","pricing_plan_id":"cebpf4jnsgd1na2vs0mg"},{"bike_id":"b2c34259-e051-410e-8c0c-ebd5a7f6fbf0","system_id":"levelo_inurba_marseille","lat":43.27555,"lon":5.3843,"is_reserved":false,"is_disabled":false,"rental_uris":{"android":"levelo://app?vid=b2c34259-e051-410e-8c0c-ebd5a7f6fbf0","ios":"levelo://app?vid=b2c34259-e051-410e-8c0c-ebd5a7f6fbf0"},"vehicle_type_id":"4","last_reported":1756325457,"current_range_meters":14800,"station_id":"ce4bhh92rcd13ifvqfi0","pricing_plan_id":"cebpf4jnsgd1na2vs0mg"},{"bike_id":"f56252d2-9d16-40fe-bf1a-757784d81319","system_id":"levelo_inurba_marseille","lat":43.29264,"lon":5.37631,"is_reserved":false,"is_disabled":false,"rental_uris":{"android":"levelo://app?vid=f56252d2-9d16-40fe-bf1a-757784d81319","ios":"levelo://app?vid=f56252d2-9d16-40fe-bf1a-757784d81319"},"vehicle_type_id":"4","last_reported":1756325457,"current_range_meters":14800,"station_id":"ce4bgi12rcd13ifvqb80","pricing_plan_id":"cebpf4jnsgd1na2vs0mg"},{"bike_id":"9db80a24-6dae-423b-b479-187168133b96","system_id":"levelo_inurba_marseille","lat":43.28682,"lon":5.38667,"is_reserved":false,"is_disabled":false,"rental_uris":{"android":"levelo://app?vid=9db80a24-6dae-423b-b479-187168133b96","ios":"levelo://app?vid=9db80a24-6dae-423b-b479-187168133b96"},"vehicle_type_id":"4","last_reported":1756325457,"current_range_meters":14800,"station_id":"ce4bh492rcd13ifvqdug","pricing_plan_id":"cebpf4jnsgd1na2vs0mg"},{"bike_id":"19eabc24-80d3-4327-b947-9ec7f85cd494","system_id":"levelo_inurba_marseille","lat":43.27318,"lon":5.39123,"is_reserved":false,"is_disabled":true,"rental_uris":{"android":"levelo://app?vid=19eabc24-80d3-4327-b947-9ec7f85cd494","ios":"levelo://app?vid=19eabc24-80d3-4327-b947-9ec7f85cd494"},"vehicle_type_id":"4","last_reported":1756325457,"current_range_meters":14800,"station_id":"ce4bhgp2rcd13ifvqfe0","pricing_plan_id":"cebpf4jnsgd1na2vs0mg"},{"bike_id":"2cfb12d5-4984-4e78-9a41-c34c5531bd5a","system_id":"levelo_inurba_marseille","lat":43.29781,"lon":5.39344,"is_reserved":false,"is_disabled":false,"rental_uris":{"android":"levelo://app?vid=2cfb12d5-4984-4e78-9a41-c34c5531bd5a","ios":"levelo://app?vid=2cfb12d5-4984-4e78-9a41-c34c5531bd5a"},"vehicle_type_id":"4","last_reported":1756325457,"current_range_meters":14400,"station_id":"chh1huq6cuj3fo74tm60","pricing_plan_id":"cebpf4jnsgd1na2vs0mg"},{"bike_id":"4390fec5-e5b7-4b30-b7e4-8bd8c36aab99","system_id":"levelo_inurba_marseille","lat":43.26035,"lon":5.37562,"is_reserved":false,"is_disabled":false,"rental_uris":{"android":"levelo://app?vid=4390fec5-e5b7-4b30-b7e4-8bd8c36aab99","ios":"levelo://app?vid=4390fec5-e5b7-4b30-b7e4-8bd8c36aab99"},"vehicle_type_id":"4","last_reported":1756325457,"current_range_meters":14800,"station_id":"ce4bhgh2rcd13ifvqfa0","pricing_plan_id":"cebpf4jnsgd1na2vs0mg"},{"bike_id":"2ad89ca0-ecf8-49b3-a7f0-dd410e86011f","system_id":"levelo_inurba_marseille","lat":43.29301,"lon":5.37451,"is_reserved":false,"is_disabled":false,"rental_uris":{"android":"levelo://app?vid=2ad89ca0-ecf8-49b3-a7f0-dd410e86011f","ios":"levelo://app?vid=2ad89ca0-ecf8-49b3-a7f0-dd410e86011f"},"vehicle_type_id":"4","last_reported":1756325457,"current_range_meters":14400,"station_id":"ce4bgi12rcd13ifvqb70","pricing_plan_id":"cebpf4jnsgd1na2vs0mg"},{"bike_id":"13cc257d-b773-4205-85e6-0b2b309f43e3","system_id":"levelo_inurba_marseille","lat":43.2919,"lon":5.3581,"is_reserved":false,"is_disabled":false,"rental_uris":{"android":"levelo://app?vid=13cc257d-b773-4205-85e6-0b2b309f43e3","ios":"levelo://app?vid=13cc257d-b773-4205-85e6-0b2b309f43e3"},"vehicle_type_id":"4","last_reported":1756325457,"current_range_meters":14800,"station_id":"ce4bhb12rcd13ifvqel0","pricing_plan_id":"cebpf4jnsgd1na2vs0mg"},{"bike_id":"2069bb10-8fc4-46cb-b293-68ee5a76feb7","system_id":"levelo_inurba_marseille","lat":43.26185,"lon":5.37453,"is_reserved":false,"is_disabled":false,"rental_uris":{"android":"levelo://app?vid=2069bb10-8fc4-46cb-b293-68ee5a76feb7","ios":"levelo://app?vid=2069bb10-8fc4-46cb-b293-68ee5a76feb7"},"vehicle_type_id":"4","last_reported":1756325457,"current_range_meters":14800,"station_id":"ce4bhgp2rcd13ifvqfc0","pricing_plan_id":"cebpf4jnsgd1na2vs0mg"},{"bike_id":"c561b3be-23f4-46ed-8d38-1fc2450f503d","system_id":"levelo_inurba_marseille","lat":43.23649,"lon":5.36227,"is_reserved":false,"is_disabled":false,"rental_uris":{"android":"levelo://app?vid=c561b3be-23f4-46ed-8d38-1fc2450f503d","ios":"levelo://app?vid=c561b3be-23f4-46ed-8d38-1fc2450f503d"},"vehicle_type_id":"4","last_reported":1756325457,"current_range_meters":14800,"station_id":"","pricing_plan_id":"cebpf4jnsgd1na2vs0mg"},{"bike_id":"feded75c-b64f-4d09-af8b-e87db9db28a2","system_id":"levelo_inurba_marseille","lat":43.29843,"lon":5.36271,"is_reserved":false,"is_disabled":false,"rental_uris":{"android":"levelo://app?vid=feded75c-b64f-4d09-af8b-e87db9db28a2","ios":"levelo://app?vid=feded75c-b64f-4d09-af8b-e87db9db28a2"},"vehicle_type_id":"4","last_reported":1756325457,"current_range_meters":14800,"station_id":"ce4bgpp2rcd13ifvqc3g","pricing_plan_id":"cebpf4jnsgd1na2vs0mg"},{"bike_id":"a877325e-16cc-4e99-a127-a7c4638eb365","system_id":"levelo_inurba_marseille","lat":43.30348,"lon":5.41886,"is_reserved":false,"is_disabled":false,"rental_uris":{"android":"levelo://app?vid=a877325e-16cc-4e99-a127-a7c4638eb365","ios":"levelo://app?vid=a877325e-16cc-4e99-a127-a7c4638eb365"},"vehicle_type_id":"4","last_reported":1756325457,"current_range_meters":15200,"station_id":"ce4bhop2rcd13ifvqh7g","pricing_plan_id":"cebpf4jnsgd1na2vs0mg"},{"bike_id":"ff7f2d54-cb26-49f8-8e38-d9438bbbc19f","system_id":"levelo_inurba_marseille","lat":43.31356,"lon":5.36706,"is_reserved":false,"is_disabled":false,"rental_uris":{"android":"levelo://app?vid=ff7f2d54-cb26-49f8-8e38-d9438bbbc19f","ios":"levelo://app?vid=ff7f2d54-cb26-49f8-8e38-d9438bbbc19f"},"vehicle_type_id":"4","last_reported":1756325457,"current_range_meters":15200,"station_id":"ce4bgr92rcd13ifvqc6g","pricing_plan_id":"cebpf4jnsgd1na2vs0mg"},{"bike_id":"44d9d2d8-1bb9-431f-bdd1-622d8e0ea90c","system_id":"levelo_inurba_marseille","lat":43.26236,"lon":5.39679,"is_reserved":false,"is_disabled":false,"rental_uris":{"android":"levelo://app?vid=44d9d2d8-1bb9-431f-bdd1-622d8e0ea90c","ios":"levelo://app?vid=44d9d2d8-1bb9-431f-bdd1-622d8e0ea90c"},"vehicle_type_id":"4","last_reported":1756325457,"current_range_meters":15200,"station_id":"","pricing_plan_id":"cebpf4jnsgd1na2vs0mg"},{"bike_id":"d810acf0-5bd2-4bf1-848d-31cd30d105e6","system_id":"levelo_inurba_marseille","lat":43.269831,"lon":5.392782,"is_reserved":false,"is_disabled":false,"rental_uris":{"android":"levelo://app?vid=d810acf0-5bd2-4bf1-848d-31cd30d105e6","ios":"levelo://app?vid=d810acf0-5bd2-4bf1-848d-31cd30d105e6"},"vehicle_type_id":"4","last_reported":1756325457,"current_range_meters":15200,"station_id":"","pricing_plan_id":"cebpf4jnsgd1na2vs0mg"},{"bike_id":"6809b50f-4d67-4184-b1ef-6d72e633f8d6","system_id":"levelo_inurba_marseille","lat":43.31716,"lon":5.42406,"is_reserved":false,"is_disabled":false,"rental_uris":{"android":"levelo://app?vid=6809b50f-4d67-4184-b1ef-6d72e633f8d6","ios":"levelo://app?vid=6809b50f-4d67-4184-b1ef-6d72e633f8d6"},"vehicle_type_id":"4","last_reported":1756325457,"current_range_meters":15200,"station_id":"ce4bhp92rcd13ifvqhbg","pricing_plan_id":"cebpf4jnsgd1na2vs0mg"},{"bike_id":"ffd21136-ae47-45ee-8fc5-e7f85ea84802","system_id":"levelo_inurba_marseille","lat":43.29847,"lon":5.38199,"is_reserved":false,"is_disabled":false,"rental_uris":{"android":"levelo://app?vid=ffd21136-ae47-45ee-8fc5-e7f85ea84802","ios":"levelo://app?vid=ffd21136-ae47-45ee-8fc5-e7f85ea84802"},"vehicle_type_id":"4","last_reported":1756325457,"current_range_meters":15200,"station_id":"","pricing_plan_id":"cebpf4jnsgd1na2vs0mg"},{"bike_id":"94c44f36-d45b-48d8-9eb0-02cde482dcfd","system_id":"levelo_inurba_marseille","lat":43.26025,"lon":5.37543,"is_reserved":false,"is_disabled":false,"rental_uris":{"android":"levelo://app?vid=94c44f36-d45b-48d8-9eb0-02cde482dcfd","ios":"levelo://app?vid=94c44f36-d45b-48d8-9eb0-02cde482dcfd"},"vehicle_type_id":"4","last_reported":1756325457,"current_range_meters":15200,"station_id":"ce4bhgh2rcd13ifvqfa0","pricing_plan_id":"cebpf4jnsgd1na2vs0mg"},{"bike_id":"6d9ac2af-014d-4305-9984-ef7c233b83da","system_id":"levelo_inurba_marseille","lat":43.32062,"lon":5.41549,"is_reserved":false,"is_disabled":false,"rental_uris":{"android":"levelo://app?vid=6d9ac2af-014d-4305-9984-ef7c233b83da","ios":"levelo://app?vid=6d9ac2af-014d-4305-9984-ef7c233b83da"},"vehicle_type_id":"4","last_reported":1756325457,"current_range_meters":15200,"station_id":"ce4bhq92rcd13ifvqhkg","pricing_plan_id":"cebpf4jnsgd1na2vs0mg"},{"bike_id":"191b8562-39fd-4efd-9cb3-23d3b4c5d9c8","system_id":"levelo_inurba_marseille","lat":43.29273,"lon":5.36856,"is_reserved":false,"is_disabled":false,"rental_uris":{"android":"levelo://app?vid=191b8562-39fd-4efd-9cb3-23d3b4c5d9c8","ios":"levelo://app?vid=191b8562-39fd-4efd-9cb3-23d3b4c5d9c8"},"vehicle_type_id":"4","last_reported":1756325457,"current_range_meters":15200,"station_id":"ce4bhbp2rcd13ifvqesg","pricing_plan_id":"cebpf4jnsgd1na2vs0mg"},{"bike_id":"0964fac3-75df-4df1-9aee-c9c59e91cbaa","system_id":"levelo_inurba_marseille","lat":43.24381,"lon":5.37084,"is_reserved":false,"is_disabled":false,"rental_uris":{"android":"levelo://app?vid=0964fac3-75df-4df1-9aee-c9c59e91cbaa","ios":"levelo://app?vid=0964fac3-75df-4df1-9aee-c9c59e91cbaa"},"vehicle_type_id":"4","last_reported":1756325457,"current_range_meters":15200,"station_id":"ce4bhhh2rcd13ifvqfk0","pricing_plan_id":"cebpf4jnsgd1na2vs0mg"},{"bike_id":"d02756d5-9bdb-4707-b098-598e9582d3c1","system_id":"levelo_inurba_marseille","lat":43.2587,"lon":5.39896,"is_reserved":false,"is_disabled":false,"rental_uris":{"android":"levelo://app?vid=d02756d5-9bdb-4707-b098-598e9582d3c1","ios":"levelo://app?vid=d02756d5-9bdb-4707-b098-598e9582d3c1"},"vehicle_type_id":"4","last_reported":1756325457,"current_range_meters":15200,"station_id":"ce4bhl92rcd13ifvqghg","pricing_plan_id":"cebpf4jnsgd1na2vs0mg"},{"bike_id":"1d68eabd-6f99-4ed9-a0fb-dac800d52a6c","system_id":"levelo_inurba_marseille","lat":43.30762,"lon":5.37666,"is_reserved":false,"is_disabled":false,"rental_uris":{"android":"levelo://app?vid=1d68eabd-6f99-4ed9-a0fb-dac800d52a6c","ios":"levelo://app?vid=1d68eabd-6f99-4ed9-a0fb-dac800d52a6c"},"vehicle_type_id":"4","last_reported":1756325457,"current_range_meters":16000,"station_id":"ce4bgv92rcd13ifvqcq0","pricing_plan_id":"cebpf4jnsgd1na2vs0mg"},{"bike_id":"ee3b6f93-aeb5-4b55-a252-b7fe28955d3a","system_id":"levelo_inurba_marseille","lat":43.29567,"lon":5.39981,"is_reserved":false,"is_disabled":false,"rental_uris":{"android":"levelo://app?vid=ee3b6f93-aeb5-4b55-a252-b7fe28955d3a","ios":"levelo://app?vid=ee3b6f93-aeb5-4b55-a252-b7fe28955d3a"},"vehicle_type_id":"4","last_reported":1756325457,"current_range_meters":16000,"station_id":"ce4bh312rcd13ifvqdj0","pricing_plan_id":"cebpf4jnsgd1na2vs0mg"},{"bike_id":"1ead3eee-c052-4307-9f25-b0a932f0b7f7","system_id":"levelo_inurba_marseille","lat":43.26202,"lon":5.37451,"is_reserved":false,"is_disabled":false,"rental_uris":{"android":"levelo://app?vid=1ead3eee-c052-4307-9f25-b0a932f0b7f7","ios":"levelo://app?vid=1ead3eee-c052-4307-9f25-b0a932f0b7f7"},"vehicle_type_id":"4","last_reported":1756325457,"current_range_meters":16000,"station_id":"ce4bhgp2rcd13ifvqfc0","pricing_plan_id":"cebpf4jnsgd1na2vs0mg"},{"bike_id":"c67682e4-ad86-4b65-b4ef-e774963b7e60","system_id":"levelo_inurba_marseille","lat":43.23197,"lon":5.35555,"is_reserved":false,"is_disabled":false,"rental_uris":{"android":"levelo://app?vid=c67682e4-ad86-4b65-b4ef-e774963b7e60","ios":"levelo://app?vid=c67682e4-ad86-4b65-b4ef-e774963b7e60"},"vehicle_type_id":"4","last_reported":1756325457,"current_range_meters":16000,"station_id":"ce4bhu92rcd13ifvqi70","pricing_plan_id":"cebpf4jnsgd1na2vs0mg"},{"bike_id":"5dd83fad-2449-4d56-be74-c8599abb9a5e","system_id":"levelo_inurba_marseille","lat":43.26208,"lon":5.37458,"is_reserved":false,"is_disabled":false,"rental_uris":{"android":"levelo://app?vid=5dd83fad-2449-4d56-be74-c8599abb9a5e","ios":"levelo://app?vid=5dd83fad-2449-4d56-be74-c8599abb9a5e"},"vehicle_type_id":"4","last_reported":1756325457,"current_range_meters":16000,"station_id":"ce4bhgp2rcd13ifvqfc0","pricing_plan_id":"cebpf4jnsgd1na2vs0mg"},{"bike_id":"06669016-cd47-459f-9dbc-b8f7fe75d379","system_id":"levelo_inurba_marseille","lat":43.32281,"lon":5.38269,"is_reserved":false,"is_disabled":false,"rental_uris":{"android":"levelo://app?vid=06669016-cd47-459f-9dbc-b8f7fe75d379","ios":"levelo://app?vid=06669016-cd47-459f-9dbc-b8f7fe75d379"},"vehicle_type_id":"4","last_reported":1756325457,"current_range_meters":16000,"station_id":"ce4bhr12rcd13ifvqhqg","pricing_plan_id":"cebpf4jnsgd1na2vs0mg"},{"bike_id":"59d6deaa-8469-4acf-b8b3-cd575b2e0c6f","system_id":"levelo_inurba_marseille","lat":43.29267,"lon":5.36831,"is_reserved":false,"is_disabled":false,"rental_uris":{"android":"levelo://app?vid=59d6deaa-8469-4acf-b8b3-cd575b2e0c6f","ios":"levelo://app?vid=59d6deaa-8469-4acf-b8b3-cd575b2e0c6f"},"vehicle_type_id":"4","last_reported":1756325457,"current_range_meters":16000,"station_id":"ce4bhbp2rcd13ifvqesg","pricing_plan_id":"cebpf4jnsgd1na2vs0mg"},{"bike_id":"7e8dca62-4c7a-423b-be70-e3968491278d","system_id":"levelo_inurba_marseille","lat":43.26544,"lon":5.37285,"is_reserved":false,"is_disabled":false,"rental_uris":{"android":"levelo://app?vid=7e8dca62-4c7a-423b-be70-e3968491278d","ios":"levelo://app?vid=7e8dca62-4c7a-423b-be70-e3968491278d"},"vehicle_type_id":"4","last_reported":1756325457,"current_range_meters":16000,"station_id":"ce4bhg12rcd13ifvqf70","pricing_plan_id":"cebpf4jnsgd1na2vs0mg"},{"bike_id":"3cb1136c-a9d5-487f-9a54-2cd07783e631","system_id":"levelo_inurba_marseille","lat":43.25507,"lon":5.37659,"is_reserved":false,"is_disabled":false,"rental_uris":{"android":"levelo://app?vid=3cb1136c-a9d5-487f-9a54-2cd07783e631","ios":"levelo://app?vid=3cb1136c-a9d5-487f-9a54-2cd07783e631"},"vehicle_type_id":"4","last_reported":1756325457,"current_range_meters":16000,"station_id":"ce4bhh12rcd13ifvqff0","pricing_plan_id":"cebpf4jnsgd1na2vs0mg"},{"bike_id":"f1956fa9-2cf4-4b23-b4ac-ba764ae316c4","system_id":"levelo_inurba_marseille","lat":43.32484,"lon":5.36554,"is_reserved":false,"is_disabled":false,"rental_uris":{"android":"levelo://app?vid=f1956fa9-2cf4-4b23-b4ac-ba764ae316c4","ios":"levelo://app?vid=f1956fa9-2cf4-4b23-b4ac-ba764ae316c4"},"vehicle_type_id":"4","last_reported":1756325457,"current_range_meters":16000,"station_id":"ce4bhs12rcd13ifvqhvg","pricing_plan_id":"cebpf4jnsgd1na2vs0mg"},{"bike_id":"064cd4f9-7210-429f-9752-b3f40801c4a5","system_id":"levelo_inurba_marseille","lat":43.25495,"lon":5.37651,"is_reserved":false,"is_disabled":false,"rental_uris":{"android":"levelo://app?vid=064cd4f9-7210-429f-9752-b3f40801c4a5","ios":"levelo://app?vid=064cd4f9-7210-429f-9752-b3f40801c4a5"},"vehicle_type_id":"4","last_reported":1756325457,"current_range_meters":16400,"station_id":"ce4bhh12rcd13ifvqff0","pricing_plan_id":"cebpf4jnsgd1na2vs0mg"},{"bike_id":"e377384c-a9d4-4298-a6af-eb40cdc90b80","system_id":"levelo_inurba_marseille","lat":43.27177,"lon":5.40998,"is_reserved":false,"is_disabled":false,"rental_uris":{"android":"levelo://app?vid=e377384c-a9d4-4298-a6af-eb40cdc90b80","ios":"levelo://app?vid=e377384c-a9d4-4298-a6af-eb40cdc90b80"},"vehicle_type_id":"4","last_reported":1756325457,"current_range_meters":16400,"station_id":"ce4bhl12rcd13ifvqgf0","pricing_plan_id":"cebpf4jnsgd1na2vs0mg"},{"bike_id":"ea341be7-92e8-4597-8f5d-72ecaf4e2b76","system_id":"levelo_inurba_marseille","lat":43.292761,"lon":5.368764,"is_reserved":false,"is_disabled":false,"rental_uris":{"android":"levelo://app?vid=ea341be7-92e8-4597-8f5d-72ecaf4e2b76","ios":"levelo://app?vid=ea341be7-92e8-4597-8f5d-72ecaf4e2b76"},"vehicle_type_id":"4","last_reported":1756325457,"current_range_meters":16400,"station_id":"ce4bhbp2rcd13ifvqesg","pricing_plan_id":"cebpf4jnsgd1na2vs0mg"},{"bike_id":"ac520877-ff8d-4060-a772-5785ccfc9aa6","system_id":"levelo_inurba_marseille","lat":43.28981,"lon":5.37838,"is_reserved":false,"is_disabled":false,"rental_uris":{"android":"levelo://app?vid=ac520877-ff8d-4060-a772-5785ccfc9aa6","ios":"levelo://app?vid=ac520877-ff8d-4060-a772-5785ccfc9aa6"},"vehicle_type_id":"4","last_reported":1756325457,"current_range_meters":16400,"station_id":"ce4bh9p2rcd13ifvqed0","pricing_plan_id":"cebpf4jnsgd1na2vs0mg"},{"bike_id":"217df655-73d3-4ab3-b3b7-da8bd5296396","system_id":"levelo_inurba_marseille","lat":43.31332,"lon":5.39688,"is_reserved":false,"is_disabled":false,"rental_uris":{"android":"levelo://app?vid=217df655-73d3-4ab3-b3b7-da8bd5296396","ios":"levelo://app?vid=217df655-73d3-4ab3-b3b7-da8bd5296396"},"vehicle_type_id":"4","last_reported":1756325457,"current_range_meters":16400,"station_id":"ce4bgvp2rcd13ifvqcu0","pricing_plan_id":"cebpf4jnsgd1na2vs0mg"},{"bike_id":"ffe6df59-3fc1-4d81-9326-f6f6418e7718","system_id":"levelo_inurba_marseille","lat":43.297854,"lon":5.373348,"is_reserved":false,"is_disabled":false,"rental_uris":{"android":"levelo://app?vid=ffe6df59-3fc1-4d81-9326-f6f6418e7718","ios":"levelo://app?vid=ffe6df59-3fc1-4d81-9326-f6f6418e7718"},"vehicle_type_id":"4","last_reported":1756325457,"current_range_meters":16400,"station_id":"","pricing_plan_id":"cebpf4jnsgd1na2vs0mg"},{"bike_id":"c66d8142-81a1-47f4-9ca0-5f01baed679f","system_id":"levelo_inurba_marseille","lat":43.30303,"lon":5.36866,"is_reserved":false,"is_disabled":false,"rental_uris":{"android":"levelo://app?vid=c66d8142-81a1-47f4-9ca0-5f01baed679f","ios":"levelo://app?vid=c66d8142-81a1-47f4-9ca0-5f01baed679f"},"vehicle_type_id":"4","last_reported":1756325457,"current_range_meters":16000,"station_id":"ce4bgqh2rcd13ifvqc5g","pricing_plan_id":"cebpf4jnsgd1na2vs0mg"},{"bike_id":"3e47ba95-d3ad-445a-b512-512905563607","system_id":"levelo_inurba_marseille","lat":43.301262,"lon":5.398682,"is_reserved":false,"is_disabled":false,"rental_uris":{"android":"levelo://app?vid=3e47ba95-d3ad-445a-b512-512905563607","ios":"levelo://app?vid=3e47ba95-d3ad-445a-b512-512905563607"},"vehicle_type_id":"4","last_reported":1756325457,"current_range_meters":16400,"station_id":"ce4bh0h2rcd13ifvqd40","pricing_plan_id":"cebpf4jnsgd1na2vs0mg"},{"bike_id":"651c04c7-c2f3-4258-98c4-2abdeb471500","system_id":"levelo_inurba_marseille","lat":43.265568,"lon":5.37288,"is_reserved":false,"is_disabled":false,"rental_uris":{"android":"levelo://app?vid=651c04c7-c2f3-4258-98c4-2abdeb471500","ios":"levelo://app?vid=651c04c7-c2f3-4258-98c4-2abdeb471500"},"vehicle_type_id":"4","last_reported":1756325457,"current_range_meters":16400,"station_id":"ce4bhg12rcd13ifvqf70","pricing_plan_id":"cebpf4jnsgd1na2vs0mg"},{"bike_id":"8df4d72a-2534-4225-b0d0-5b48bd4c7385","system_id":"levelo_inurba_marseille","lat":43.29437,"lon":5.39758,"is_reserved":false,"is_disabled":false,"rental_uris":{"android":"levelo://app?vid=8df4d72a-2534-4225-b0d0-5b48bd4c7385","ios":"levelo://app?vid=8df4d72a-2534-4225-b0d0-5b48bd4c7385"},"vehicle_type_id":"4","last_reported":1756325457,"current_range_meters":16800,"station_id":"ce4bh3h2rcd13ifvqdo0","pricing_plan_id":"cebpf4jnsgd1na2vs0mg"},{"bike_id":"2e5e8746-a598-46c0-9f94-659aa049d863","system_id":"levelo_inurba_marseille","lat":43.29297,"lon":5.37183,"is_reserved":false,"is_disabled":false,"rental_uris":{"android":"levelo://app?vid=2e5e8746-a598-46c0-9f94-659aa049d863","ios":"levelo://app?vid=2e5e8746-a598-46c0-9f94-659aa049d863"},"vehicle_type_id":"4","last_reported":1756325457,"current_range_meters":16800,"station_id":"ce4bgh92rcd13ifvqb40","pricing_plan_id":"cebpf4jnsgd1na2vs0mg"},{"bike_id":"9e491dab-9cb4-4b06-a794-7917114b8be5","system_id":"levelo_inurba_marseille","lat":43.29258,"lon":5.38451,"is_reserved":false,"is_disabled":false,"rental_uris":{"android":"levelo://app?vid=9e491dab-9cb4-4b06-a794-7917114b8be5","ios":"levelo://app?vid=9e491dab-9cb4-4b06-a794-7917114b8be5"},"vehicle_type_id":"4","last_reported":1756325457,"current_range_meters":16800,"station_id":"ce4bh692rcd13ifvqea0","pricing_plan_id":"cebpf4jnsgd1na2vs0mg"},{"bike_id":"dc67b019-6ef1-4e34-a20a-6dfb50edd06a","system_id":"levelo_inurba_marseille","lat":43.27999,"lon":5.41665,"is_reserved":false,"is_disabled":false,"rental_uris":{"android":"levelo://app?vid=dc67b019-6ef1-4e34-a20a-6dfb50edd06a","ios":"levelo://app?vid=dc67b019-6ef1-4e34-a20a-6dfb50edd06a"},"vehicle_type_id":"4","last_reported":1756325457,"current_range_meters":16800,"station_id":"ce4bho12rcd13ifvqh1g","pricing_plan_id":"cebpf4jnsgd1na2vs0mg"},{"bike_id":"23ae6fed-deff-411b-8b6e-f95e32ccd4d0","system_id":"levelo_inurba_marseille","lat":43.32125,"lon":5.36769,"is_reserved":false,"is_disabled":false,"rental_uris":{"android":"levelo://app?vid=23ae6fed-deff-411b-8b6e-f95e32ccd4d0","ios":"levelo://app?vid=23ae6fed-deff-411b-8b6e-f95e32ccd4d0"},"vehicle_type_id":"4","last_reported":1756325457,"current_range_meters":16800,"station_id":"ce4bhrh2rcd13ifvqhug","pricing_plan_id":"cebpf4jnsgd1na2vs0mg"},{"bike_id":"05d97e45-19dc-4128-88fe-ffa6fa61464f","system_id":"levelo_inurba_marseille","lat":43.26227,"lon":5.37445,"is_reserved":false,"is_disabled":false,"rental_uris":{"android":"levelo://app?vid=05d97e45-19dc-4128-88fe-ffa6fa61464f","ios":"levelo://app?vid=05d97e45-19dc-4128-88fe-ffa6fa61464f"},"vehicle_type_id":"4","last_reported":1756325457,"current_range_meters":16800,"station_id":"ce4bhgp2rcd13ifvqfc0","pricing_plan_id":"cebpf4jnsgd1na2vs0mg"},{"bike_id":"2ea31c92-7132-46db-bd2b-26b21a6a28d6","system_id":"levelo_inurba_marseille","lat":43.297225,"lon":5.380037,"is_reserved":false,"is_disabled":false,"rental_uris":{"android":"levelo://app?vid=2ea31c92-7132-46db-bd2b-26b21a6a28d6","ios":"levelo://app?vid=2ea31c92-7132-46db-bd2b-26b21a6a28d6"},"vehicle_type_id":"4","last_reported":1756325457,"current_range_meters":16800,"station_id":"ce4bgkh2rcd13ifvqbl0","pricing_plan_id":"cebpf4jnsgd1na2vs0mg"},{"bike_id":"6526e5fe-3ab1-4388-adb1-0f2217b23793","system_id":"levelo_inurba_marseille","lat":43.29563,"lon":5.39978,"is_reserved":false,"is_disabled":false,"rental_uris":{"android":"levelo://app?vid=6526e5fe-3ab1-4388-adb1-0f2217b23793","ios":"levelo://app?vid=6526e5fe-3ab1-4388-adb1-0f2217b23793"},"vehicle_type_id":"4","last_reported":1756325457,"current_range_meters":16800,"station_id":"ce4bh312rcd13ifvqdj0","pricing_plan_id":"cebpf4jnsgd1na2vs0mg"},{"bike_id":"086e12eb-242e-4645-8fe3-05a62b40f96e","system_id":"levelo_inurba_marseille","lat":43.2462,"lon":5.43159,"is_reserved":false,"is_disabled":false,"rental_uris":{"android":"levelo://app?vid=086e12eb-242e-4645-8fe3-05a62b40f96e","ios":"levelo://app?vid=086e12eb-242e-4645-8fe3-05a62b40f96e"},"vehicle_type_id":"4","last_reported":1756325457,"current_range_meters":16800,"station_id":"st_d2m6c4gdas8pm72e190g","pricing_plan_id":"cebpf4jnsgd1na2vs0mg"},{"bike_id":"0793473c-7c91-4d1f-8ffb-c00486129b1d","system_id":"levelo_inurba_marseille","lat":43.30096,"lon":5.39085,"is_reserved":false,"is_disabled":true,"rental_uris":{"android":"levelo://app?vid=0793473c-7c91-4d1f-8ffb-c00486129b1d","ios":"levelo://app?vid=0793473c-7c91-4d1f-8ffb-c00486129b1d"},"vehicle_type_id":"4","last_reported":1756325457,"current_range_meters":16800,"station_id":"ce4bh192rcd13ifvqdb0","pricing_plan_id":"cebpf4jnsgd1na2vs0mg"},{"bike_id":"17e6e1ee-76ac-42e3-b214-e8fe7217c1f4","system_id":"levelo_inurba_marseille","lat":43.29531,"lon":5.38548,"is_reserved":false,"is_disabled":false,"rental_uris":{"android":"levelo://app?vid=17e6e1ee-76ac-42e3-b214-e8fe7217c1f4","ios":"levelo://app?vid=17e6e1ee-76ac-42e3-b214-e8fe7217c1f4"},"vehicle_type_id":"4","last_reported":1756325457,"current_range_meters":16800,"station_id":"ce4bgih2rcd13ifvqba0","pricing_plan_id":"cebpf4jnsgd1na2vs0mg"},{"bike_id":"2ddde0e2-2088-418b-9262-4b0d6e96e416","system_id":"levelo_inurba_marseille","lat":43.26034,"lon":5.37539,"is_reserved":false,"is_disabled":false,"rental_uris":{"android":"levelo://app?vid=2ddde0e2-2088-418b-9262-4b0d6e96e416","ios":"levelo://app?vid=2ddde0e2-2088-418b-9262-4b0d6e96e416"},"vehicle_type_id":"4","last_reported":1756325457,"current_range_meters":17200,"station_id":"ce4bhgh2rcd13ifvqfa0","pricing_plan_id":"cebpf4jnsgd1na2vs0mg"},{"bike_id":"2fce7b0e-e602-474d-b458-06c1e6591bd9","system_id":"levelo_inurba_marseille","lat":43.27172,"lon":5.40998,"is_reserved":false,"is_disabled":false,"rental_uris":{"android":"levelo://app?vid=2fce7b0e-e602-474d-b458-06c1e6591bd9","ios":"levelo://app?vid=2fce7b0e-e602-474d-b458-06c1e6591bd9"},"vehicle_type_id":"4","last_reported":1756325457,"current_range_meters":16800,"station_id":"ce4bhl12rcd13ifvqgf0","pricing_plan_id":"cebpf4jnsgd1na2vs0mg"},{"bike_id":"1091f287-02ee-4a66-888b-59c35fd65791","system_id":"levelo_inurba_marseille","lat":43.231929,"lon":5.355575,"is_reserved":false,"is_disabled":false,"rental_uris":{"android":"levelo://app?vid=1091f287-02ee-4a66-888b-59c35fd65791","ios":"levelo://app?vid=1091f287-02ee-4a66-888b-59c35fd65791"},"vehicle_type_id":"4","last_reported":1756325457,"current_range_meters":17200,"station_id":"ce4bhu92rcd13ifvqi70","pricing_plan_id":"cebpf4jnsgd1na2vs0mg"},{"bike_id":"ec0f9f0d-0796-42ac-9cf5-bb8596cdf342","system_id":"levelo_inurba_marseille","lat":43.21189,"lon":5.35059,"is_reserved":false,"is_disabled":false,"rental_uris":{"android":"levelo://app?vid=ec0f9f0d-0796-42ac-9cf5-bb8596cdf342","ios":"levelo://app?vid=ec0f9f0d-0796-42ac-9cf5-bb8596cdf342"},"vehicle_type_id":"4","last_reported":1756325457,"current_range_meters":17200,"station_id":"","pricing_plan_id":"cebpf4jnsgd1na2vs0mg"},{"bike_id":"ac6aaa20-6e63-469c-b48c-e5965ee2a708","system_id":"levelo_inurba_marseille","lat":43.26654,"lon":5.38319,"is_reserved":false,"is_disabled":false,"rental_uris":{"android":"levelo://app?vid=ac6aaa20-6e63-469c-b48c-e5965ee2a708","ios":"levelo://app?vid=ac6aaa20-6e63-469c-b48c-e5965ee2a708"},"vehicle_type_id":"4","last_reported":1756325457,"current_range_meters":17200,"station_id":"","pricing_plan_id":"cebpf4jnsgd1na2vs0mg"},{"bike_id":"80b0fa20-f541-403d-b683-9f72850c9909","system_id":"levelo_inurba_marseille","lat":43.26939,"lon":5.38926,"is_reserved":false,"is_disabled":false,"rental_uris":{"android":"levelo://app?vid=80b0fa20-f541-403d-b683-9f72850c9909","ios":"levelo://app?vid=80b0fa20-f541-403d-b683-9f72850c9909"},"vehicle_type_id":"4","last_reported":1756325457,"current_range_meters":17200,"station_id":"ce4bhhh2rcd13ifvqfl0","pricing_plan_id":"cebpf4jnsgd1na2vs0mg"},{"bike_id":"7f96cfc7-6b62-4cd3-a164-5a1ee471a17d","system_id":"levelo_inurba_marseille","lat":43.30555,"lon":5.36516,"is_reserved":false,"is_disabled":false,"rental_uris":{"android":"levelo://app?vid=7f96cfc7-6b62-4cd3-a164-5a1ee471a17d","ios":"levelo://app?vid=7f96cfc7-6b62-4cd3-a164-5a1ee471a17d"},"vehicle_type_id":"4","last_reported":1756325457,"current_range_meters":17200,"station_id":"ce4bgs12rcd13ifvqcag","pricing_plan_id":"cebpf4jnsgd1na2vs0mg"},{"bike_id":"9a67c47c-27af-4913-9303-cf9ccdded6c9","system_id":"levelo_inurba_marseille","lat":43.29264,"lon":5.40895,"is_reserved":false,"is_disabled":false,"rental_uris":{"android":"levelo://app?vid=9a67c47c-27af-4913-9303-cf9ccdded6c9","ios":"levelo://app?vid=9a67c47c-27af-4913-9303-cf9ccdded6c9"},"vehicle_type_id":"4","last_reported":1756325457,"current_range_meters":17200,"station_id":"ce4bh192rcd13ifvqdc0","pricing_plan_id":"cebpf4jnsgd1na2vs0mg"},{"bike_id":"01f92d06-2c11-49e0-8fbd-c3d3e9fed8bb","system_id":"levelo_inurba_marseille","lat":43.26226,"lon":5.37437,"is_reserved":false,"is_disabled":false,"rental_uris":{"android":"levelo://app?vid=01f92d06-2c11-49e0-8fbd-c3d3e9fed8bb","ios":"levelo://app?vid=01f92d06-2c11-49e0-8fbd-c3d3e9fed8bb"},"vehicle_type_id":"4","last_reported":1756325457,"current_range_meters":17200,"station_id":"ce4bhgp2rcd13ifvqfc0","pricing_plan_id":"cebpf4jnsgd1na2vs0mg"},{"bike_id":"8ee7b6b9-a950-440c-b4c9-fb0ea9087b86","system_id":"levelo_inurba_marseille","lat":43.29586,"lon":5.375227,"is_reserved":false,"is_disabled":false,"rental_uris":{"android":"levelo://app?vid=8ee7b6b9-a950-440c-b4c9-fb0ea9087b86","ios":"levelo://app?vid=8ee7b6b9-a950-440c-b4c9-fb0ea9087b86"},"vehicle_type_id":"4","last_reported":1756325457,"current_range_meters":17600,"station_id":"","pricing_plan_id":"cebpf4jnsgd1na2vs0mg"},{"bike_id":"6facd3ec-7d61-48cb-a05f-645c7fab1104","system_id":"levelo_inurba_marseille","lat":43.32046,"lon":5.41545,"is_reserved":false,"is_disabled":false,"rental_uris":{"android":"levelo://app?vid=6facd3ec-7d61-48cb-a05f-645c7fab1104","ios":"levelo://app?vid=6facd3ec-7d61-48cb-a05f-645c7fab1104"},"vehicle_type_id":"4","last_reported":1756325457,"current_range_meters":17200,"station_id":"ce4bhq92rcd13ifvqhkg","pricing_plan_id":"cebpf4jnsgd1na2vs0mg"},{"bike_id":"e1a43927-87d5-46ea-a77e-4a61db905a2b","system_id":"levelo_inurba_marseille","lat":43.232,"lon":5.35559,"is_reserved":false,"is_disabled":false,"rental_uris":{"android":"levelo://app?vid=e1a43927-87d5-46ea-a77e-4a61db905a2b","ios":"levelo://app?vid=e1a43927-87d5-46ea-a77e-4a61db905a2b"},"vehicle_type_id":"4","last_reported":1756325457,"current_range_meters":17600,"station_id":"ce4bhu92rcd13ifvqi70","pricing_plan_id":"cebpf4jnsgd1na2vs0mg"},{"bike_id":"0758c3bd-dff8-4f81-815f-065ac2e80fcf","system_id":"levelo_inurba_marseille","lat":43.26685,"lon":5.3829,"is_reserved":false,"is_disabled":false,"rental_uris":{"android":"levelo://app?vid=0758c3bd-dff8-4f81-815f-065ac2e80fcf","ios":"levelo://app?vid=0758c3bd-dff8-4f81-815f-065ac2e80fcf"},"vehicle_type_id":"4","last_reported":1756325457,"current_range_meters":17600,"station_id":"ce4bhg92rcd13ifvqf90","pricing_plan_id":"cebpf4jnsgd1na2vs0mg"},{"bike_id":"131927a1-aedf-47d1-a070-2e9836467902","system_id":"levelo_inurba_marseille","lat":43.26028,"lon":5.3756,"is_reserved":false,"is_disabled":false,"rental_uris":{"android":"levelo://app?vid=131927a1-aedf-47d1-a070-2e9836467902","ios":"levelo://app?vid=131927a1-aedf-47d1-a070-2e9836467902"},"vehicle_type_id":"4","last_reported":1756325457,"current_range_meters":17600,"station_id":"ce4bhgh2rcd13ifvqfa0","pricing_plan_id":"cebpf4jnsgd1na2vs0mg"},{"bike_id":"831a2354-0919-4530-8e5a-84c32dcc2c03","system_id":"levelo_inurba_marseille","lat":43.272052,"lon":5.391826,"is_reserved":false,"is_disabled":false,"rental_uris":{"android":"levelo://app?vid=831a2354-0919-4530-8e5a-84c32dcc2c03","ios":"levelo://app?vid=831a2354-0919-4530-8e5a-84c32dcc2c03"},"vehicle_type_id":"4","last_reported":1756325457,"current_range_meters":17600,"station_id":"","pricing_plan_id":"cebpf4jnsgd1na2vs0mg"},{"bike_id":"2c246624-962d-4f72-8341-3c6523db29ef","system_id":"levelo_inurba_marseille","lat":43.26554,"lon":5.37287,"is_reserved":false,"is_disabled":true,"rental_uris":{"android":"levelo://app?vid=2c246624-962d-4f72-8341-3c6523db29ef","ios":"levelo://app?vid=2c246624-962d-4f72-8341-3c6523db29ef"},"vehicle_type_id":"4","last_reported":1756325457,"current_range_meters":17600,"station_id":"ce4bhg12rcd13ifvqf70","pricing_plan_id":"cebpf4jnsgd1na2vs0mg"},{"bike_id":"071108ed-e45f-4ce8-9a2a-3237085987fe","system_id":"levelo_inurba_marseille","lat":43.29973,"lon":5.37182,"is_reserved":false,"is_disabled":false,"rental_uris":{"android":"levelo://app?vid=071108ed-e45f-4ce8-9a2a-3237085987fe","ios":"levelo://app?vid=071108ed-e45f-4ce8-9a2a-3237085987fe"},"vehicle_type_id":"4","last_reported":1756325457,"current_range_meters":17600,"station_id":"ce4bgr92rcd13ifvqc7g","pricing_plan_id":"cebpf4jnsgd1na2vs0mg"},{"bike_id":"2ee3838b-f787-4023-b736-b8b1a4298a7d","system_id":"levelo_inurba_marseille","lat":43.25494,"lon":5.3765,"is_reserved":false,"is_disabled":false,"rental_uris":{"android":"levelo://app?vid=2ee3838b-f787-4023-b736-b8b1a4298a7d","ios":"levelo://app?vid=2ee3838b-f787-4023-b736-b8b1a4298a7d"},"vehicle_type_id":"4","last_reported":1756325457,"current_range_meters":17600,"station_id":"ce4bhh12rcd13ifvqff0","pricing_plan_id":"cebpf4jnsgd1na2vs0mg"},{"bike_id":"dc5c52e4-dda7-4e95-a8a1-40d18f8670b8","system_id":"levelo_inurba_marseille","lat":43.26532,"lon":5.37309,"is_reserved":false,"is_disabled":false,"rental_uris":{"android":"levelo://app?vid=dc5c52e4-dda7-4e95-a8a1-40d18f8670b8","ios":"levelo://app?vid=dc5c52e4-dda7-4e95-a8a1-40d18f8670b8"},"vehicle_type_id":"4","last_reported":1756325457,"current_range_meters":17600,"station_id":"ce4bhg12rcd13ifvqf70","pricing_plan_id":"cebpf4jnsgd1na2vs0mg"},{"bike_id":"9a7edf6e-5f68-421e-a102-2ef5b337d341","system_id":"levelo_inurba_marseille","lat":43.27963,"lon":5.41045,"is_reserved":false,"is_disabled":true,"rental_uris":{"android":"levelo://app?vid=9a7edf6e-5f68-421e-a102-2ef5b337d341","ios":"levelo://app?vid=9a7edf6e-5f68-421e-a102-2ef5b337d341"},"vehicle_type_id":"4","last_reported":1756325457,"current_range_meters":18000,"station_id":"ce4bhnp2rcd13ifvqh0g","pricing_plan_id":"cebpf4jnsgd1na2vs0mg"},{"bike_id":"27f7429a-619e-4474-bd6e-7af380e18447","system_id":"levelo_inurba_marseille","lat":43.2884,"lon":5.39312,"is_reserved":false,"is_disabled":false,"rental_uris":{"android":"levelo://app?vid=27f7429a-619e-4474-bd6e-7af380e18447","ios":"levelo://app?vid=27f7429a-619e-4474-bd6e-7af380e18447"},"vehicle_type_id":"4","last_reported":1756325457,"current_range_meters":17600,"station_id":"ce4bh2p2rcd13ifvqdi0","pricing_plan_id":"cebpf4jnsgd1na2vs0mg"},{"bike_id":"b46342de-d269-4e9b-b610-f67dd3f6cdf4","system_id":"levelo_inurba_marseille","lat":43.295839,"lon":5.367401,"is_reserved":false,"is_disabled":false,"rental_uris":{"android":"levelo://app?vid=b46342de-d269-4e9b-b610-f67dd3f6cdf4","ios":"levelo://app?vid=b46342de-d269-4e9b-b610-f67dd3f6cdf4"},"vehicle_type_id":"4","last_reported":1756325457,"current_range_meters":18000,"station_id":"ce4bgph2rcd13ifvqc2g","pricing_plan_id":"cebpf4jnsgd1na2vs0mg"},{"bike_id":"75ee3901-383e-44bc-8be6-67c888243668","system_id":"levelo_inurba_marseille","lat":43.231975,"lon":5.355561,"is_reserved":false,"is_disabled":false,"rental_uris":{"android":"levelo://app?vid=75ee3901-383e-44bc-8be6-67c888243668","ios":"levelo://app?vid=75ee3901-383e-44bc-8be6-67c888243668"},"vehicle_type_id":"4","last_reported":1756325457,"current_range_meters":18000,"station_id":"ce4bhu92rcd13ifvqi70","pricing_plan_id":"cebpf4jnsgd1na2vs0mg"},{"bike_id":"8adf8296-1956-4567-897a-24571512aa64","system_id":"levelo_inurba_marseille","lat":43.29565,"lon":5.39978,"is_reserved":false,"is_disabled":false,"rental_uris":{"android":"levelo://app?vid=8adf8296-1956-4567-897a-24571512aa64","ios":"levelo://app?vid=8adf8296-1956-4567-897a-24571512aa64"},"vehicle_type_id":"4","last_reported":1756325457,"current_range_meters":18000,"station_id":"ce4bh312rcd13ifvqdj0","pricing_plan_id":"cebpf4jnsgd1na2vs0mg"},