{"last_updated":1727353061,"ttl":60,"version":"2.2","data":{"bikes":[{"bike_id":"f82c8257-bab0-4d5a-b202-1064bb5dc194","system_id":"levelo_inurba_marseille","lat":43.27076,"lon":5.42277,"is_reserved":false,"is_disabled":false,"rental_uris":{"android":"levelo://app?vid=f82c8257-bab0-4d5a-b202-1064bb5dc194","ios":"levelo://app?vid=f82c8257-bab0-4d5a-b202-1064bb5dc194"},"vehicle_type_id":"4","last_reported":1727353062,"current_range_meters":12000,"station_id":"ce4bhk92rcd13ifvqgb0","pricing_plan_id":"cebpf4jnsgd1na2vs0mg"},{"bike_id":"2f3efc0e-dc90-4c60-98eb-a6d5b154f6e0","system_id":"levelo_inurba_marseille","lat":43.29844,"lon":5.3627,"is_reserved":false,"is_disabled":false,"rental_uris":{"android":"levelo://app?vid=2f3efc0e-dc90-4c60-98eb-a6d5b154f6e0","ios":"levelo://app?vid=2f3efc0e-dc90-4c60-98eb-a6d5b154f6e0"},"vehicle_type_id":"4","last_reported":1727353062,"current_range_meters":38800,"station_id":"ce4bgpp2rcd13ifvqc3g","pricing_plan_id":"cebpf4jnsgd1na2vs0mg"},{"bike_id":"56ec2c14-3439-479d-a467-8970648caa23","system_id":"levelo_inurba_marseille","lat":43.254924,"lon":5.376449,"is_reserved":false,"is_disabled":false,"rental_uris":{"android":"levelo://app?vid=56ec2c14-3439-479d-a467-8970648caa23","ios":"levelo://app?vid=56ec2c14-3439-479d-a467-8970648caa23"},"vehicle_type_id":"4","last_reported":1727353062,"current_range_meters":38000,"station_id":"ce4bhh12rcd13ifvqff0","pricing_plan_id":"cebpf4jnsgd1na2vs0mg"},{"bike_id":"74d68aab-dcd1-4d0a-976e-418b8bad0fdd","system_id":"levelo_inurba_marseille","lat":43.23149,"lon":5.43699,"is_reserved":false,"is_disabled":false,"rental_uris":{"android":"levelo://app?vid=74d68aab-dcd1-4d0a-976e-418b8bad0fdd","ios":"levelo://app?vid=74d68aab-dcd1-4d0a-976e-418b8bad0fdd"},"vehicle_type_id":"4","last_reported":1727353062,"current_range_meters":38000,"station_id":"ce4bhmp2rcd13ifvqgog","pricing_plan_id":"cebpf4jnsgd1na2vs0mg"},{"bike_id":"46857d98-ee88-43f7-a2ff-349f362a65b9","system_id":"levelo_inurba_marseille","lat":43.24071,"lon":5.37766,"is_reserved":false,"is_disabled":false,"rental_uris":{"android":"levelo://app?vid=46857d98-ee88-43f7-a2ff-349f362a65b9","ios":"levelo://app?vid=46857d98-ee88-43f7-a2ff-349f362a65b9"},"vehicle_type_id":"4","last_reported":1727353062,"current_range_meters":33200,"station_id":"ce4bhnp2rcd13ifvqgvg","pricing_plan_id":"cebpf4jnsgd1na2vs0mg"},{"bike_id":"d268ad5f-8f67-48dc-a311-0c6312944804","system_id":"levelo_inurba_marseille","lat":43.29623,"lon":5.37168,"is_reserved":false,"is_disabled":false,"rental_uris":{"android":"levelo://app?vid=d268ad5f-8f67-48dc-a311-0c6312944804","ios":"levelo://app?vid=d268ad5f-8f67-48dc-a311-0c6312944804"},"vehicle_type_id":"4","last_reported":1727353062,"current_range_meters":34000,"station_id":"ce4bgnh2rcd13ifvqc0g","pricing_plan_id":"cebpf4jnsgd1na2vs0mg"},{"bike_id":"881dc1d2-1fb8-487f-8885-5f157d3bc5a4","system_id":"levelo_inurba_marseille","lat":43.27979,"lon":5.38742,"is_reserved":false,"is_disabled":false,"rental_uris":{"android":"levelo://app?vid=881dc1d2-1fb8-487f-8885-5f157d3bc5a4","ios":"levelo://app?vid=881dc1d2-1fb8-487f-8885-5f157d3bc5a4"},"vehicle_type_id":"4","last_reported":1727353062,"current_range_meters":20000,"station_id":"ce4bhg12rcd13ifvqf80","pricing_plan_id":"cebpf4jnsgd1na2vs0mg"},{"bike_id":"3ade15d9-4038-4fe2-a9fb-2515b89ae4bd","system_id":"levelo_inurba_marseille","lat":43.24551,"lon":5.39529,"is_reserved":false,"is_disabled":false,"rental_uris":{"android":"levelo://app?vid=3ade15d9-4038-4fe2-a9fb-2515b89ae4bd","ios":"levelo://app?vid=3ade15d9-4038-4fe2-a9fb-2515b89ae4bd"},"vehicle_type_id":"4","last_reported":1727353062,"current_range_meters":33200,"station_id":"ce4bhlp2rcd13ifvqgjg","pricing_plan_id":"cebpf4jnsgd1na2vs0mg"},{"bike_id":"21e0ea13-c5d9-48ea-bca6-151e31404e82","system_id":"levelo_inurba_marseille","lat":43.28379,"lon":5.41259,"is_reserved":false,"is_disabled":false,"rental_uris":{"android":"levelo://app?vid=21e0ea13-c5d9-48ea-bca6-151e31404e82","ios":"levelo://app?vid=21e0ea13-c5d9-48ea-bca6-151e31404e82"},"vehicle_type_id":"4","last_reported":1727353062,"current_range_meters":22400,"station_id":"","pricing_plan_id":"cebpf4jnsgd1na2vs0mg"},{"bike_id":"c3dc0bfd-1047-4800-8b7c-7d8cb2ac491b","system_id":"levelo_inurba_marseille","lat":43.30543,"lon":5.36525,"is_reserved":false,"is_disabled":false,"rental_uris":{"android":"levelo://app?vid=c3dc0bfd-1047-4800-8b7c-7d8cb2ac491b","ios":"levelo://app?vid=c3dc0bfd-1047-4800-8b7c-7d8cb2ac491b"},"vehicle_type_id":"4","last_reported":1727353062,"current_range_meters":38800,"station_id":"ce4bgs12rcd13ifvqcag","pricing_plan_id":"cebpf4jnsgd1na2vs0mg"},{"bike_id":"c45de95e-47c1-4e45-a261-4486459ffd51","system_id":"levelo_inurba_marseille","lat":43.28501,"lon":5.38399,"is_reserved":false,"is_disabled":false,"rental_uris":{"android":"levelo://app?vid=c45de95e-47c1-4e45-a261-4486459ffd51","ios":"levelo://app?vid=c45de95e-47c1-4e45-a261-4486459ffd51"},"vehicle_type_id":"4","last_reported":1727353062,"current_range_meters":16400,"station_id":"ce4bh512rcd13ifvqe3g","pricing_plan_id":"cebpf4jnsgd1na2vs0mg"},{"bike_id":"4876a312-ef1e-4e11-9b0e-1288c72f726d","system_id":"levelo_inurba_marseille","lat":43.3266,"lon":5.40989,"is_reserved":false,"is_disabled":false,"rental_uris":{"android":"levelo://app?vid=4876a312-ef1e-4e11-9b0e-1288c72f726d","ios":"levelo://app?vid=4876a312-ef1e-4e11-9b0e-1288c72f726d"},"vehicle_type_id":"4","last_reported":1727353062,"current_range_meters":38400,"station_id":"ce4bhpp2rcd13ifvqhgg","pricing_plan_id":"cebpf4jnsgd1na2vs0mg"},{"bike_id":"3b8b1f92-ed32-436e-9e7c-472e6ff0fca3","system_id":"levelo_inurba_marseille","lat":43.27069,"lon":5.42277,"is_reserved":false,"is_disabled":false,"rental_uris":{"android":"levelo://app?vid=3b8b1f92-ed32-436e-9e7c-472e6ff0fca3","ios":"levelo://app?vid=3b8b1f92-ed32-436e-9e7c-472e6ff0fca3"},"vehicle_type_id":"4","last_reported":1727353062,"current_range_meters":6400,"station_id":"ce4bhk92rcd13ifvqgb0","pricing_plan_id":"cebpf4jnsgd1na2vs0mg"},{"bike_id":"a57ed5f0-c59a-424c-8c62-78d6711bbf6a","system_id":"levelo_inurba_marseille","lat":43.314857,"lon":5.372984,"is_reserved":false,"is_disabled":false,"rental_uris":{"android":"levelo://app?vid=a57ed5f0-c59a-424c-8c62-78d6711bbf6a","ios":"levelo://app?vid=a57ed5f0-c59a-424c-8c62-78d6711bbf6a"},"vehicle_type_id":"4","last_reported":1727353062,"current_range_meters":23200,"station_id":"ce4bgt12rcd13ifvqcd0","pricing_plan_id":"cebpf4jnsgd1na2vs0mg"},{"bike_id":"3a31745c-0c4e-4cb8-8800-635981742612","system_id":"levelo_inurba_marseille","lat":43.26931,"lon":5.38916,"is_reserved":false,"is_disabled":false,"rental_uris":{"android":"levelo://app?vid=3a31745c-0c4e-4cb8-8800-635981742612","ios":"levelo://app?vid=3a31745c-0c4e-4cb8-8800-635981742612"},"vehicle_type_id":"4","last_reported":1727353062,"current_range_meters":4000,"station_id":"ce4bhhh2rcd13ifvqfl0","pricing_plan_id":"cebpf4jnsgd1na2vs0mg"},{"bike_id":"d5e60dfc-b257-4a49-8026-731b073df43a","system_id":"levelo_inurba_marseille","lat":43.24545,"lon":5.39521,"is_reserved":false,"is_disabled":false,"rental_uris":{"android":"levelo://app?vid=d5e60dfc-b257-4a49-8026-731b073df43a","ios":"levelo://app?vid=d5e60dfc-b257-4a49-8026-731b073df43a"},"vehicle_type_id":"4","last_reported":1727353062,"current_range_meters":2000,"station_id":"ce4bhlp2rcd13ifvqgjg","pricing_plan_id":"cebpf4jnsgd1na2vs0mg"},{"bike_id":"18dcc2de-6658-4930-a51b-2c944671767f","system_id":"levelo_inurba_marseille","lat":43.31354,"lon":5.36703,"is_reserved":false,"is_disabled":false,"rental_uris":{"android":"levelo://app?vid=18dcc2de-6658-4930-a51b-2c944671767f","ios":"levelo://app?vid=18dcc2de-6658-4930-a51b-2c944671767f"},"vehicle_type_id":"4","last_reported":1727353062,"current_range_meters":31200,"station_id":"ce4bgr92rcd13ifvqc6g","pricing_plan_id":"cebpf4jnsgd1na2vs0mg"},{"bike_id":"1945bdd2-1367-4aea-882c-2a174143c3db","system_id":"levelo_inurba_marseille","lat":43.27494,"lon":5.4245,"is_reserved":false,"is_disabled":false,"rental_uris":{"android":"levelo://app?vid=1945bdd2-1367-4aea-882c-2a174143c3db","ios":"levelo://app?vid=1945bdd2-1367-4aea-882c-2a174143c3db"},"vehicle_type_id":"4","last_reported":1727353062,"current_range_meters":30800,"station_id":"ce4bhn92rcd13ifvqgrg","pricing_plan_id":"cebpf4jnsgd1na2vs0mg"},{"bike_id":"2c1aecea-5feb-4f87-bef0-8f3d6a75ff12","system_id":"levelo_inurba_marseille","lat":43.29928,"lon":5.37465,"is_reserved":false,"is_disabled":false,"rental_uris":{"android":"levelo://app?vid=2c1aecea-5feb-4f87-bef0-8f3d6a75ff12","ios":"levelo://app?vid=2c1aecea-5feb-4f87-bef0-8f3d6a75ff12"},"vehicle_type_id":"4","last_reported":1727353062,"current_range_meters":6000,"station_id":"ce4bgjh2rcd13ifvqbg0","pricing_plan_id":"cebpf4jnsgd1na2vs0mg"},{"bike_id":"04dc40ea-e9a4-488d-8292-8898032a4095","system_id":"levelo_inurba_marseille","lat":43.296661,"lon":5.377666,"is_reserved":false,"is_disabled":false,"rental_uris":{"android":"levelo://app?vid=04dc40ea-e9a4-488d-8292-8898032a4095","ios":"levelo://app?vid=04dc40ea-e9a4-488d-8292-8898032a4095"},"vehicle_type_id":"4","last_reported":1727353062,"current_range_meters":32400,"station_id":"ce4bgkh2rcd13ifvqbl0","pricing_plan_id":"cebpf4jnsgd1na2vs0mg"},{"bike_id":"93ba493c-afb6-4a25-ae25-2b418eafc2e1","system_id":"levelo_inurba_marseille","lat":43.29526,"lon":5.38543,"is_reserved":false,"is_disabled":false,"rental_uris":{"android":"levelo://app?vid=93ba493c-afb6-4a25-ae25-2b418eafc2e1","ios":"levelo://app?vid=93ba493c-afb6-4a25-ae25-2b418eafc2e1"},"vehicle_type_id":"4","last_reported":1727353062,"current_range_meters":19200,"station_id":"ce4bgih2rcd13ifvqba0","pricing_plan_id":"cebpf4jnsgd1na2vs0mg"},{"bike_id":"7737b815-6daf-41f0-8354-4b28ba75917f","system_id":"levelo_inurba_marseille","lat":43.30197,"lon":5.39827,"is_reserved":false,"is_disabled":false,"rental_uris":{"android":"levelo://app?vid=7737b815-6daf-41f0-8354-4b28ba75917f","ios":"levelo://app?vid=7737b815-6daf-41f0-8354-4b28ba75917f"},"vehicle_type_id":"4","last_reported":1727353062,"current_range_meters":11600,"station_id":"ce4bgvp2rcd13ifvqct0","pricing_plan_id":"cebpf4jnsgd1na2vs0mg"},{"bike_id":"3df56cf6-183d-48e0-8c1c-f8eaad3a37e3","system_id":"levelo_inurba_marseille","lat":43.24084,"lon":5.37737,"is_reserved":false,"is_disabled":false,"rental_uris":{"android":"levelo://app?vid=3df56cf6-183d-48e0-8c1c-f8eaad3a37e3","ios":"levelo://app?vid=3df56cf6-183d-48e0-8c1c-f8eaad3a37e3"},"vehicle_type_id":"4","last_reported":1727353062,"current_range_meters":20000,"station_id":"ce4bhnp2rcd13ifvqgvg","pricing_plan_id":"cebpf4jnsgd1na2vs0mg"},{"bike_id":"662a6d9b-1c0d-4f2a-941f-4640fe8d3746","system_id":"levelo_inurba_marseille","lat":43.26032,"lon":5.37547,"is_reserved":false,"is_disabled":false,"rental_uris":{"android":"levelo://app?vid=662a6d9b-1c0d-4f2a-941f-4640fe8d3746","ios":"levelo://app?vid=662a6d9b-1c0d-4f2a-941f-4640fe8d3746"},"vehicle_type_id":"4","last_reported":1727353062,"current_range_meters":38800,"station_id":"ce4bhgh2rcd13ifvqfa0","pricing_plan_id":"cebpf4jnsgd1na2vs0mg"},{"bike_id":"e2b10292-3045-41aa-89a3-9268a20907ea","system_id":"levelo_inurba_marseille","lat":43.27814,"lon":5.40714,"is_reserved":false,"is_disabled":false,"rental_uris":{"android":"levelo://app?vid=e2b10292-3045-41aa-89a3-9268a20907ea","ios":"levelo://app?vid=e2b10292-3045-41aa-89a3-9268a20907ea"},"vehicle_type_id":"4","last_reported":1727353062,"current_range_meters":18000,"station_id":"ce4bhnh2rcd13ifvqgtg","pricing_plan_id":"cebpf4jnsgd1na2vs0mg"},{"bike_id":"ef8084e3-fdb6-4033-97b4-0f89dd268a70","system_id":"levelo_inurba_marseille","lat":43.29728,"lon":5.37681,"is_reserved":false,"is_disabled":false,"rental_uris":{"android":"levelo://app?vid=ef8084e3-fdb6-4033-97b4-0f89dd268a70","ios":"levelo://app?vid=ef8084e3-fdb6-4033-97b4-0f89dd268a70"},"vehicle_type_id":"4","last_reported":1727353062,"current_range_meters":33200,"station_id":"ce4bgkh2rcd13ifvqbl0","pricing_plan_id":"cebpf4jnsgd1na2vs0mg"},{"bike_id":"b6daf4df-7c90-4c5e-b397-06a87d15013f","system_id":"levelo_inurba_marseille","lat":43.33742,"lon":5.37467,"is_reserved":false,"is_disabled":false,"rental_uris":{"android":"levelo://app?vid=b6daf4df-7c90-4c5e-b397-06a87d15013f","ios":"levelo://app?vid=b6daf4df-7c90-4c5e-b397-06a87d15013f"},"vehicle_type_id":"4","last_reported":1727353062,"current_range_meters":30800,"station_id":"","pricing_plan_id":"cebpf4jnsgd1na2vs0mg"},{"bike_id":"b0d493d3-5f67-4033-9fb3-f4bbc296d339","system_id":"levelo_inurba_marseille","lat":43.33755,"lon":5.37441,"is_reserved":false,"is_disabled":false,"rental_uris":{"android":"levelo://app?vid=b0d493d3-5f67-4033-9fb3-f4bbc296d339","ios":"levelo://app?vid=b0d493d3-5f67-4033-9fb3-f4bbc296d339"},"vehicle_type_id":"4","last_reported":1727353062,"current_range_meters":30000,"station_id":"","pricing_plan_id":"cebpf4jnsgd1na2vs0mg"},{"bike_id":"d664c533-3b2b-465b-80c6-b579b84c114a","system_id":"levelo_inurba_marseille","lat":43.28006,"lon":5.39999,"is_reserved":false,"is_disabled":false,"rental_uris":{"android":"levelo://app?vid=d664c533-3b2b-465b-80c6-b579b84c114a","ios":"levelo://app?vid=d664c533-3b2b-465b-80c6-b579b84c114a"},"vehicle_type_id":"4","last_reported":1727353062,"current_range_meters":38800,"station_id":"ce4bho92rcd13ifvqh4g","pricing_plan_id":"cebpf4jnsgd1na2vs0mg"},{"bike_id":"5a6b2510-3f6d-4b8a-b42c-99336d74108e","system_id":"levelo_inurba_marseille","lat":43.32553,"lon":5.41437,"is_reserved":false,"is_disabled":false,"rental_uris":{"android":"levelo://app?vid=5a6b2510-3f6d-4b8a-b42c-99336d74108e","ios":"levelo://app?vid=5a6b2510-3f6d-4b8a-b42c-99336d74108e"},"vehicle_type_id":"4","last_reported":1727353062,"current_range_meters":28400,"station_id":"ce4bhq12rcd13ifvqhhg","pricing_plan_id":"cebpf4jnsgd1na2vs0mg"},{"bike_id":"77d00fbc-30d3-453b-86f6-d2b03dc31fd3","system_id":"levelo_inurba_marseille","lat":43.295593,"lon":5.374826,"is_reserved":false,"is_disabled":false,"rental_uris":{"android":"levelo://app?vid=77d00fbc-30d3-453b-86f6-d2b03dc31fd3","ios":"levelo://app?vid=77d00fbc-30d3-453b-86f6-d2b03dc31fd3"},"vehicle_type_id":"4","last_reported":1727353062,"current_range_meters":37600,"station_id":"ce4bgh92rcd13ifvqb50","pricing_plan_id":"cebpf4jnsgd1na2vs0mg"},{"bike_id":"a284b753-3d55-42fa-8317-e809cd47a7fd","system_id":"levelo_inurba_marseille","lat":43.30318,"lon":5.36894,"is_reserved":false,"is_disabled":false,"rental_uris":{"android":"levelo://app?vid=a284b753-3d55-42fa-8317-e809cd47a7fd","ios":"levelo://app?vid=a284b753-3d55-42fa-8317-e809cd47a7fd"},"vehicle_type_id":"4","last_reported":1727353062,"current_range_meters":28400,"station_id":"ce4bgqh2rcd13ifvqc5g","pricing_plan_id":"cebpf4jnsgd1na2vs0mg"},{"bike_id":"e3c5fbbf-73cf-4f2d-b2d6-f67ffdb80c53","system_id":"levelo_inurba_marseille","lat":43.33028,"lon":5.39033,"is_reserved":false,"is_disabled":false,"rental_uris":{"android":"levelo://app?vid=e3c5fbbf-73cf-4f2d-b2d6-f67ffdb80c53","ios":"levelo://app?vid=e3c5fbbf-73cf-4f2d-b2d6-f67ffdb80c53"},"vehicle_type_id":"4","last_reported":1727353062,"current_range_meters":30000,"station_id":"ce4bhr92rcd13ifvqhrg","pricing_plan_id":"cebpf4jnsgd1na2vs0mg"},{"bike_id":"920a992c-b9bd-467d-8738-97c73c4e43f7","system_id":"levelo_inurba_marseille","lat":43.31228,"lon":5.36873,"is_reserved":false,"is_disabled":false,"rental_uris":{"android":"levelo://app?vid=920a992c-b9bd-467d-8738-97c73c4e43f7","ios":"levelo://app?vid=920a992c-b9bd-467d-8738-97c73c4e43f7"},"vehicle_type_id":"4","last_reported":1727353062,"current_range_meters":39200,"station_id":"ce4bgl92rcd13ifvqbq0","pricing_plan_id":"cebpf4jnsgd1na2vs0mg"},{"bike_id":"57bc1e84-e83e-4198-85b5-3e7f9c3f0b0b","system_id":"levelo_inurba_marseille","lat":43.24167,"lon":5.36392,"is_reserved":false,"is_disabled":false,"rental_uris":{"android":"levelo://app?vid=57bc1e84-e83e-4198-85b5-3e7f9c3f0b0b","ios":"levelo://app?vid=57bc1e84-e83e-4198-85b5-3e7f9c3f0b0b"},"vehicle_type_id":"4","last_reported":1727353062,"current_range_meters":28000,"station_id":"cpo36qri1sfpv3e86is0","pricing_plan_id":"cebpf4jnsgd1na2vs0mg"},{"bike_id":"7a8458d5-44ac-4f2e-abef-3f01eb31f7ca","system_id":"levelo_inurba_marseille","lat":43.337444,"lon":5.374475,"is_reserved":false,"is_disabled":false,"rental_uris":{"android":"levelo://app?vid=7a8458d5-44ac-4f2e-abef-3f01eb31f7ca","ios":"levelo://app?vid=7a8458d5-44ac-4f2e-abef-3f01eb31f7ca"},"vehicle_type_id":"4","last_reported":1727353062,"current_range_meters":20800,"station_id":"","pricing_plan_id":"cebpf4jnsgd1na2vs0mg"},{"bike_id":"3fca68d0-6631-4b80-a998-b45ae402ee45","system_id":"levelo_inurba_marseille","lat":0,"lon":5.386827,"is_reserved":false,"is_disabled":false,"rental_uris":{"android":"levelo://app?vid=3fca68d0-6631-4b80-a998-b45ae402ee45","ios":"levelo://app?vid=3fca68d0-6631-4b80-a998-b45ae402ee45"},"vehicle_type_id":"4","last_reported":1727353062,"current_range_meters":14000,"station_id":"ce4bh112rcd13ifvqda0","pricing_plan_id":"cebpf4jnsgd1na2vs0mg"},{"bike_id":"a244da9e-780d-4273-b613-6bd3e2a6aecc","system_id":"levelo_inurba_marseille","lat":43.28719,"lon":5.37944,"is_reserved":false,"is_disabled":false,"rental_uris":{"android":"levelo://app?vid=a244da9e-780d-4273-b613-6bd3e2a6aecc","ios":"levelo://app?vid=a244da9e-780d-4273-b613-6bd3e2a6aecc"},"vehicle_type_id":"4","last_reported":1727353062,"current_range_meters":17600,"station_id":"ce4bh9p2rcd13ifvqec0","pricing_plan_id":"cebpf4jnsgd1na2vs0mg"},{"bike_id":"0a5498d1-2c08-4f3d-af23-80c73fef4615","system_id":"levelo_inurba_marseille","lat":43.24078,"lon":5.37751,"is_reserved":false,"is_disabled":false,"rental_uris":{"android":"levelo://app?vid=0a5498d1-2c08-4f3d-af23-80c73fef4615","ios":"levelo://app?vid=0a5498d1-2c08-4f3d-af23-80c73fef4615"},"vehicle_type_id":"4","last_reported":1727353062,"current_range_meters":38000,"station_id":"ce4bhnp2rcd13ifvqgvg","pricing_plan_id":"cebpf4jnsgd1na2vs0mg"},{"bike_id":"388a507e-86c4-4df5-b075-d43d70469bdd","system_id":"levelo_inurba_marseille","lat":43.30185,"lon":5.36606,"is_reserved":false,"is_disabled":false,"rental_uris":{"android":"levelo://app?vid=388a507e-86c4-4df5-b075-d43d70469bdd","ios":"levelo://app?vid=388a507e-86c4-4df5-b075-d43d70469bdd"},"vehicle_type_id":"4","last_reported":1727353062,"current_range_meters":37600,"station_id":"ce4bgrh2rcd13ifvqc8g","pricing_plan_id":"cebpf4jnsgd1na2vs0mg"},{"bike_id":"31370c4c-6128-446c-a698-cb1f8405d83c","system_id":"levelo_inurba_marseille","lat":43.29262,"lon":5.40903,"is_reserved":false,"is_disabled":false,"rental_uris":{"android":"levelo://app?vid=31370c4c-6128-446c-a698-cb1f8405d83c","ios":"levelo://app?vid=31370c4c-6128-446c-a698-cb1f8405d83c"},"vehicle_type_id":"4","last_reported":1727353062,"current_range_meters":6400,"station_id":"ce4bh192rcd13ifvqdc0","pricing_plan_id":"cebpf4jnsgd1na2vs0mg"},{"bike_id":"0ff4805d-5eb0-413d-9fd8-adffbbf2ce16","system_id":"levelo_inurba_marseille","lat":43.29858,"lon":5.36283,"is_reserved":false,"is_disabled":false,"rental_uris":{"android":"levelo://app?vid=0ff4805d-5eb0-413d-9fd8-adffbbf2ce16","ios":"levelo://app?vid=0ff4805d-5eb0-413d-9fd8-adffbbf2ce16"},"vehicle_type_id":"4","last_reported":1727353062,"current_range_meters":39200,"station_id":"ce4bgpp2rcd13ifvqc3g","pricing_plan_id":"cebpf4jnsgd1na2vs0mg"},{"bike_id":"dbdebbc3-f633-440e-ad73-8aecea0e3a96","system_id":"levelo_inurba_marseille","lat":43.28725,"lon":5.37941,"is_reserved":false,"is_disabled":false,"rental_uris":{"android":"levelo://app?vid=dbdebbc3-f633-440e-ad73-8aecea0e3a96","ios":"levelo://app?vid=dbdebbc3-f633-440e-ad73-8aecea0e3a96"},"vehicle_type_id":"4","last_reported":1727353062,"current_range_meters":9600,"station_id":"ce4bh9p2rcd13ifvqec0","pricing_plan_id":"cebpf4jnsgd1na2vs0mg"},{"bike_id":"fea8e9c3-fbb8-408a-87ef-e483df097edc","system_id":"levelo_inurba_marseille","lat":43.30533,"lon":5.36535,"is_reserved":false,"is_disabled":false,"rental_uris":{"android":"levelo://app?vid=fea8e9c3-fbb8-408a-87ef-e483df097edc","ios":"levelo://app?vid=fea8e9c3-fbb8-408a-87ef-e483df097edc"},"vehicle_type_id":"4","last_reported":1727353062,"current_range_meters":36400,"station_id":"ce4bgs12rcd13ifvqcag","pricing_plan_id":"cebpf4jnsgd1na2vs0mg"},{"bike_id":"9fa0f105-3130-4386-ab21-6cd707d5ae64","system_id":"levelo_inurba_marseille","lat":43.24084,"lon":5.3778,"is_reserved":false,"is_disabled":false,"rental_uris":{"android":"levelo://app?vid=9fa0f105-3130-4386-ab21-6cd707d5ae64","ios":"levelo://app?vid=9fa0f105-3130-4386-ab21-6cd707d5ae64"},"vehicle_type_id":"4","last_reported":1727353062,"current_range_meters":30000,"station_id":"ce4bhnp2rcd13ifvqgvg","pricing_plan_id":"cebpf4jnsgd1na2vs0mg"},{"bike_id":"8d17f10b-cb18-4a62-9a7c-043318106e2d","system_id":"levelo_inurba_marseille","lat":43.302274,"lon":5.366294,"is_reserved":false,"is_disabled":false,"rental_uris":{"android":"levelo://app?vid=8d17f10b-cb18-4a62-9a7c-043318106e2d","ios":"levelo://app?vid=8d17f10b-cb18-4a62-9a7c-043318106e2d"},"vehicle_type_id":"4","last_reported":1727353062,"current_range_meters":8000,"station_id":"ce4bgrh2rcd13ifvqc8g","pricing_plan_id":"cebpf4jnsgd1na2vs0mg"},{"bike_id":"097c6598-9463-4969-9cb9-e6db1899af49","system_id":"levelo_inurba_marseille","lat":43.25876,"lon":5.39888,"is_reserved":false,"is_disabled":false,"rental_uris":{"android":"levelo://app?vid=097c6598-9463-4969-9cb9-e6db1899af49","ios":"levelo://app?vid=097c6598-9463-4969-9cb9-e6db1899af49"},"vehicle_type_id":"4","last_reported":1727353062,"current_range_meters":38000,"station_id":"ce4bhl92rcd13ifvqghg","pricing_plan_id":"cebpf4jnsgd1na2vs0mg"},{"bike_id":"ffcde158-e85c-4869-a280-ae8fb317fd39","system_id":"levelo_inurba_marseille","lat":43.24083,"lon":5.37755,"is_reserved":false,"is_disabled":false,"rental_uris":{"android":"levelo://app?vid=ffcde158-e85c-4869-a280-ae8fb317fd39","ios":"levelo://app?vid=ffcde158-e85c-4869-a280-ae8fb317fd39"},"vehicle_type_id":"4","last_reported":1727353062,"current_range_meters":31200,"station_id":"ce4bhnp2rcd13ifvqgvg","pricing_plan_id":"cebpf4jnsgd1na2vs0mg"},{"bike_id":"90243425-de18-4b3e-bb02-a9594edad823","system_id":"levelo_inurba_marseille","lat":43.25939,"lon":5.40901,"is_reserved":false,"is_disabled":false,"rental_uris":{"android":"levelo://app?vid=90243425-de18-4b3e-bb02-a9594edad823","ios":"levelo://app?vid=90243425-de18-4b3e-bb02-a9594edad823"},"vehicle_type_id":"4","last_reported":1727353062,"current_range_meters":35200,"station_id":"ce4bhm92rcd13ifvqglg","pricing_plan_id":"cebpf4jnsgd1na2vs0mg"},{"bike_id":"564edac3-2253-410a-85fb-381513207027","system_id":"levelo_inurba_marseille","lat":43.29662,"lon":5.37501,"is_reserved":false,"is_disabled":false,"rental_uris":{"android":"levelo://app?vid=564edac3-2253-410a-85fb-381513207027","ios":"levelo://app?vid=564edac3-2253-410a-85fb-381513207027"},"vehicle_type_id":"4","last_reported":1727353062,"current_range_meters":19600,"station_id":"ce4bgkh2rcd13ifvqbl0","pricing_plan_id":"cebpf4jnsgd1na2vs0mg"},{"bike_id":"e0321300-37ad-4bce-a17c-4bf73cb9114f","system_id":"levelo_inurba_marseille","lat":43.29901,"lon":5.4367,"is_reserved":false,"is_disabled":false,"rental_uris":{"android":"levelo://app?vid=e0321300-37ad-4bce-a17c-4bf73cb9114f","ios":"levelo://app?vid=e0321300-37ad-4bce-a17c-4bf73cb9114f"},"vehicle_type_id":"4","last_reported":1727353062,"current_range_meters":35600,"station_id":"ce4bhpp2rcd13ifvqhfg","pricing_plan_id":"cebpf4jnsgd1na2vs0mg"},{"bike_id":"fb8dbcb4-f3ca-4dc2-8469-db6b421828f0","system_id":"levelo_inurba_marseille","lat":43.30551,"lon":5.36707,"is_reserved":false,"is_disabled":false,"rental_uris":{"android":"levelo://app?vid=fb8dbcb4-f3ca-4dc2-8469-db6b421828f0","ios":"levelo://app?vid=fb8dbcb4-f3ca-4dc2-8469-db6b421828f0"},"vehicle_type_id":"4","last_reported":1727353062,"current_range_meters":30800,"station_id":"ce4bgrp2rcd13ifvqc9g","pricing_plan_id":"cebpf4jnsgd1na2vs0mg"},{"bike_id":"800a9631-9706-441f-b36e-51d543966412","system_id":"levelo_inurba_marseille","lat":43.29274,"lon":5.3684,"is_reserved":false,"is_disabled":false,"rental_uris":{"android":"levelo://app?vid=800a9631-9706-441f-b36e-51d543966412","ios":"levelo://app?vid=800a9631-9706-441f-b36e-51d543966412"},"vehicle_type_id":"4","last_reported":1727353062,"current_range_meters":13600,"station_id":"ce4bhbp2rcd13ifvqesg","pricing_plan_id":"cebpf4jnsgd1na2vs0mg"},{"bike_id":"89b39515-ed76-47af-ab40-ea0faa590664","system_id":"levelo_inurba_marseille","lat":43.26953,"lon":5.38627,"is_reserved":false,"is_disabled":false,"rental_uris":{"android":"levelo://app?vid=89b39515-ed76-47af-ab40-ea0faa590664","ios":"levelo://app?vid=89b39515-ed76-47af-ab40-ea0faa590664"},"vehicle_type_id":"4","last_reported":1727353062,"current_range_meters":27600,"station_id":"ce4bhh92rcd13ifvqfh0","pricing_plan_id":"cebpf4jnsgd1na2vs0mg"},{"bike_id":"6184c57f-1d05-4b6c-b456-8b42ad78a196","system_id":"levelo_inurba_marseille","lat":43.23963,"lon":5.36629,"is_reserved":false,"is_disabled":false,"rental_uris":{"android":"levelo://app?vid=6184c57f-1d05-4b6c-b456-8b42ad78a196","ios":"levelo://app?vid=6184c57f-1d05-4b6c-b456-8b42ad78a196"},"vehicle_type_id":"4","last_reported":1727353062,"current_range_meters":3200,"station_id":"ce4bhi12rcd13ifvqfp0","pricing_plan_id":"cebpf4jnsgd1na2vs0mg"},{"bike_id":"316e416f-3651-4b5d-afeb-a5c395c177e7","system_id":"levelo_inurba_marseille","lat":43.2836,"lon":5.38626,"is_reserved":false,"is_disabled":false,"rental_uris":{"android":"levelo://app?vid=316e416f-3651-4b5d-afeb-a5c395c177e7","ios":"levelo://app?vid=316e416f-3651-4b5d-afeb-a5c395c177e7"},"vehicle_type_id":"4","last_reported":1727353062,"current_range_meters":2800,"station_id":"ce4bh492rcd13ifvqdvg","pricing_plan_id":"cebpf4jnsgd1na2vs0mg"},{"bike_id":"40e21962-57fc-4793-bd6f-3f8fe20c1723","system_id":"levelo_inurba_marseille","lat":43.29534,"lon":5.37502,"is_reserved":false,"is_disabled":false,"rental_uris":{"android":"levelo://app?vid=40e21962-57fc-4793-bd6f-3f8fe20c1723","ios":"levelo://app?vid=40e21962-57fc-4793-bd6f-3f8fe20c1723"},"vehicle_type_id":"4","last_reported":1727353062,"current_range_meters":25200,"station_id":"ce4bgkp2rcd13ifvqbmg","pricing_plan_id":"cebpf4jnsgd1na2vs0mg"},{"bike_id":"79a05bb1-ccec-47f0-8ebd-1f95854549f8","system_id":"levelo_inurba_marseille","lat":43.31282,"lon":5.380327,"is_reserved":false,"is_disabled":false,"rental_uris":{"android":"levelo://app?vid=79a05bb1-ccec-47f0-8ebd-1f95854549f8","ios":"levelo://app?vid=79a05bb1-ccec-47f0-8ebd-1f95854549f8"},"vehicle_type_id":"4","last_reported":1727353062,"current_range_meters":7200,"station_id":"","pricing_plan_id":"cebpf4jnsgd1na2vs0mg"},{"bike_id":"7240b019-a2b5-45d8-952b-ec148e7a3990","system_id":"levelo_inurba_marseille","lat":43.27046,"lon":5.40271,"is_reserved":false,"is_disabled":false,"rental_uris":{"android":"levelo://app?vid=7240b019-a2b5-45d8-952b-ec148e7a3990","ios":"levelo://app?vid=7240b019-a2b5-45d8-952b-ec148e7a3990"},"vehicle_type_id":"4","last_reported":1727353062,"current_range_meters":28400,"station_id":"ce4bhk92rcd13ifvqgc0","pricing_plan_id":"cebpf4jnsgd1na2vs0mg"},{"bike_id":"4ca8f2df-d07d-4530-b77f-5472e4a1443e","system_id":"levelo_inurba_marseille","lat":43.32551,"lon":5.41434,"is_reserved":false,"is_disabled":false,"rental_uris":{"android":"levelo://app?vid=4ca8f2df-d07d-4530-b77f-5472e4a1443e","ios":"levelo://app?vid=4ca8f2df-d07d-4530-b77f-5472e4a1443e"},"vehicle_type_id":"4","last_reported":1727353062,"current_range_meters":30800,"station_id":"ce4bhq12rcd13ifvqhhg","pricing_plan_id":"cebpf4jnsgd1na2vs0mg"},{"bike_id":"ca773917-fd3d-491c-a782-60d4807ce677","system_id":"levelo_inurba_marseille","lat":43.25004,"lon":5.3891,"is_reserved":false,"is_disabled":false,"rental_uris":{"android":"levelo://app?vid=ca773917-fd3d-491c-a782-60d4807ce677","ios":"levelo://app?vid=ca773917-fd3d-491c-a782-60d4807ce677"},"vehicle_type_id":"4","last_reported":1727353062,"current_range_meters":19600,"station_id":"ce4bhgp2rcd13ifvqfd0","pricing_plan_id":"cebpf4jnsgd1na2vs0mg"},{"bike_id":"16df220b-875f-453d-9230-8b7f6e383763","system_id":"levelo_inurba_marseille","lat":43.2696,"lon":5.38628,"is_reserved":false,"is_disabled":false,"rental_uris":{"android":"levelo://app?vid=16df220b-875f-453d-9230-8b7f6e383763","ios":"levelo://app?vid=16df220b-875f-453d-9230-8b7f6e383763"},"vehicle_type_id":"4","last_reported":1727353062,"current_range_meters":30400,"station_id":"ce4bhh92rcd13ifvqfh0","pricing_plan_id":"cebpf4jnsgd1na2vs0mg"},{"bike_id":"a0b9666d-9f26-4903-bda4-d17e4ef07092","system_id":"levelo_inurba_marseille","lat":43.32492,"lon":5.36559,"is_reserved":false,"is_disabled":false,"rental_uris":{"android":"levelo://app?vid=a0b9666d-9f26-4903-bda4-d17e4ef07092","ios":"levelo://app?vid=a0b9666d-9f26-4903-bda4-d17e4ef07092"},"vehicle_type_id":"4","last_reported":1727353062,"current_range_meters":4400,"station_id":"ce4bhs12rcd13ifvqhvg","pricing_plan_id":"cebpf4jnsgd1na2vs0mg"},{"bike_id":"52a32a96-d698-4616-84a2-2f3d39b28494","system_id":"levelo_inurba_marseille","lat":43.27667,"lon":5.38872,"is_reserved":false,"is_disabled":false,"rental_uris":{"android":"levelo://app?vid=52a32a96-d698-4616-84a2-2f3d39b28494","ios":"levelo://app?vid=52a32a96-d698-4616-84a2-2f3d39b28494"},"vehicle_type_id":"4","last_reported":1727353062,"current_range_meters":22000,"station_id":"ce4bhi12rcd13ifvqfo0","pricing_plan_id":"cebpf4jnsgd1na2vs0mg"},{"bike_id":"b3c3c5e8-aa8b-4465-a08d-a10ec2cf4ec4","system_id":"levelo_inurba_marseille","lat":43.29599,"lon":5.38087,"is_reserved":false,"is_disabled":false,"rental_uris":{"android":"levelo://app?vid=b3c3c5e8-aa8b-4465-a08d-a10ec2cf4ec4","ios":"levelo://app?vid=b3c3c5e8-aa8b-4465-a08d-a10ec2cf4ec4"},"vehicle_type_id":"4","last_reported":1727353062,"current_range_meters":15200,"station_id":"ce4bgl12rcd13ifvqbo0","pricing_plan_id":"cebpf4jnsgd1na2vs0mg"},{"bike_id":"0fbca512-68f6-4550-b73f-82f52314e915","system_id":"levelo_inurba_marseille","lat":43.28384,"lon":5.37543,"is_reserved":false,"is_disabled":false,"rental_uris":{"android":"levelo://app?vid=0fbca512-68f6-4550-b73f-82f52314e915","ios":"levelo://app?vid=0fbca512-68f6-4550-b73f-82f52314e915"},"vehicle_type_id":"4","last_reported":1727353062,"current_range_meters":34800,"station_id":"ce4bh412rcd13ifvqds0","pricing_plan_id":"cebpf4jnsgd1na2vs0mg"},{"bike_id":"94684309-8430-4a88-9798-819abff5d61a","system_id":"levelo_inurba_marseille","lat":43.23151,"lon":5.43705,"is_reserved":false,"is_disabled":false,"rental_uris":{"android":"levelo://app?vid=94684309-8430-4a88-9798-819abff5d61a","ios":"levelo://app?vid=94684309-8430-4a88-9798-819abff5d61a"},"vehicle_type_id":"4","last_reported":1727353062,"current_range_meters":20400,"station_id":"ce4bhmp2rcd13ifvqgog","pricing_plan_id":"cebpf4jnsgd1na2vs0mg"},{"bike_id":"7f7cfb71-e29e-44f8-9bcf-1cbb0dfe5d35","system_id":"levelo_inurba_marseille","lat":43.29857,"lon":5.36277,"is_reserved":false,"is_disabled":false,"rental_uris":{"android":"levelo://app?vid=7f7cfb71-e29e-44f8-9bcf-1cbb0dfe5d35","ios":"levelo://app?vid=7f7cfb71-e29e-44f8-9bcf-1cbb0dfe5d35"},"vehicle_type_id":"4","last_reported":1727353062,"current_range_meters":38000,"station_id":"ce4bgpp2rcd13ifvqc3g","pricing_plan_id":"cebpf4jnsgd1na2vs0mg"},{"bike_id":"e2439c25-39ef-4ab9-9943-1cd0b7edb5dd","system_id":"levelo_inurba_marseille","lat":43.30541,"lon":5.36703,"is_reserved":false,"is_disabled":false,"rental_uris":{"android":"levelo://app?vid=e2439c25-39ef-4ab9-9943-1cd0b7edb5dd","ios":"levelo://app?vid=e2439c25-39ef-4ab9-9943-1cd0b7edb5dd"},"vehicle_type_id":"4","last_reported":1727353062,"current_range_meters":40000,"station_id":"ce4bgrp2rcd13ifvqc9g","pricing_plan_id":"cebpf4jnsgd1na2vs0mg"},{"bike_id":"39b40506-a421-4822-b7d2-3823f0faaeeb","system_id":"levelo_inurba_marseille","lat":43.2962,"lon":5.37161,"is_reserved":false,"is_disabled":false,"rental_uris":{"android":"levelo://app?vid=39b40506-a421-4822-b7d2-3823f0faaeeb","ios":"levelo://app?vid=39b40506-a421-4822-b7d2-3823f0faaeeb"},"vehicle_type_id":"4","last_reported":1727353062,"current_range_meters":38800,"station_id":"ce4bgnh2rcd13ifvqc0g","pricing_plan_id":"cebpf4jnsgd1na2vs0mg"},{"bike_id":"2013cbc6-1048-4082-843e-d69f67e1b52f","system_id":"levelo_inurba_marseille","lat":43.3096,"lon":5.3903,"is_reserved":false,"is_disabled":false,"rental_uris":{"android":"levelo://app?vid=2013cbc6-1048-4082-843e-d69f67e1b52f","ios":"levelo://app?vid=2013cbc6-1048-4082-843e-d69f67e1b52f"},"vehicle_type_id":"4","last_reported":1727353062,"current_range_meters":36400,"station_id":"ce4bgup2rcd13ifvqco0","pricing_plan_id":"cebpf4jnsgd1na2vs0mg"},{"bike_id":"778cf1da-b1f9-4770-9dd3-7f9f6f29c740","system_id":"levelo_inurba_marseille","lat":43.3123,"lon":5.36856,"is_reserved":false,"is_disabled":false,"rental_uris":{"android":"levelo://app?vid=778cf1da-b1f9-4770-9dd3-7f9f6f29c740","ios":"levelo://app?vid=778cf1da-b1f9-4770-9dd3-7f9f6f29c740"},"vehicle_type_id":"4","last_reported":1727353062,"current_range_meters":20000,"station_id":"ce4bgl92rcd13ifvqbq0","pricing_plan_id":"cebpf4jnsgd1na2vs0mg"},{"bike_id":"ba477672-d3a2-4048-accf-b9e924a53dec","system_id":"levelo_inurba_marseille","lat":43.24391,"lon":5.3705,"is_reserved":false,"is_disabled":false,"rental_uris":{"android":"levelo://app?vid=ba477672-d3a2-4048-accf-b9e924a53dec","ios":"levelo://app?vid=ba477672-d3a2-4048-accf-b9e924a53dec"},"vehicle_type_id":"4","last_reported":1727353062,"current_range_meters":39200,"station_id":"ce4bhhh2rcd13ifvqfk0","pricing_plan_id":"cebpf4jnsgd1na2vs0mg"},{"bike_id":"00c55a61-da74-4c36-8c8e-499983e3e52b","system_id":"levelo_inurba_marseille","lat":43.298356,"lon":5.362634,"is_reserved":false,"is_disabled":false,"rental_uris":{"android":"levelo://app?vid=00c55a61-da74-4c36-8c8e-499983e3e52b","ios":"levelo://app?vid=00c55a61-da74-4c36-8c8e-499983e3e52b"},"vehicle_type_id":"4","last_reported":1727353062,"current_range_meters":24800,"station_id":"ce4bgpp2rcd13ifvqc3g","pricing_plan_id":"cebpf4jnsgd1na2vs0mg"},{"bike_id":"66a86831-3877-4742-8862-732f596c78d7","system_id":"levelo_inurba_marseille","lat":43.23149,"lon":5.43723,"is_reserved":false,"is_disabled":false,"rental_uris":{"android":"levelo://app?vid=66a86831-3877-4742-8862-732f596c78d7","ios":"levelo://app?vid=66a86831-3877-4742-8862-732f596c78d7"},"vehicle_type_id":"4","last_reported":1727353062,"current_range_meters":18800,"station_id":"ce4bhmp2rcd13ifvqgog","pricing_plan_id":"cebpf4jnsgd1na2vs0mg"},{"bike_id":"f710e63f-2e6d-4155-bdbf-1439ef542d2d","system_id":"levelo_inurba_marseille","lat":43.30397,"lon":5.40752,"is_reserved":false,"is_disabled":false,"rental_uris":{"android":"levelo://app?vid=f710e63f-2e6d-4155-bdbf-1439ef542d2d","ios":"levelo://app?vid=f710e63f-2e6d-4155-bdbf-1439ef542d2d"},"vehicle_type_id":"4","last_reported":1727353062,"current_range_meters":11200,"station_id":"","pricing_plan_id":"cebpf4jnsgd1na2vs0mg"},{"bike_id":"c017f362-9664-45c4-b19b-7118d6bf47c1","system_id":"levelo_inurba_marseille","lat":43.28154,"lon":5.42649,"is_reserved":false,"is_disabled":false,"rental_uris":{"android":"levelo://app?vid=c017f362-9664-45c4-b19b-7118d6bf47c1","ios":"levelo://app?vid=c017f362-9664-45c4-b19b-7118d6bf47c1"},"vehicle_type_id":"4","last_reported":1727353062,"current_range_meters":40000,"station_id":"ce4bhnh2rcd13ifvqgug","pricing_plan_id":"cebpf4jnsgd1na2vs0mg"},{"bike_id":"3d5eec54-4aa1-4f51-a825-b4bac59d4bb2","system_id":"levelo_inurba_marseille","lat":43.30144,"lon":5.37425,"is_reserved":false,"is_disabled":false,"rental_uris":{"android":"levelo://app?vid=3d5eec54-4aa1-4f51-a825-b4bac59d4bb2","ios":"levelo://app?vid=3d5eec54-4aa1-4f51-a825-b4bac59d4bb2"},"vehicle_type_id":"4","last_reported":1727353062,"current_range_meters":38400,"station_id":"ce4bgs92rcd13ifvqcc0","pricing_plan_id":"cebpf4jnsgd1na2vs0mg"},{"bike_id":"3952d206-97e0-47ae-b3c4-7af3fbed94d3","system_id":"levelo_inurba_marseille","lat":43.28702,"lon":5.37392,"is_reserved":false,"is_disabled":false,"rental_uris":{"android":"levelo://app?vid=3952d206-97e0-47ae-b3c4-7af3fbed94d3","ios":"levelo://app?vid=3952d206-97e0-47ae-b3c4-7af3fbed94d3"},"vehicle_type_id":"4","last_reported":1727353062,"current_range_meters":10000,"station_id":"ce4bh3p2rcd13ifvqdq0","pricing_plan_id":"cebpf4jnsgd1na2vs0mg"},{"bike_id":"9f299ed1-ffc4-4ba7-bd0c-1d10255ce0f3","system_id":"levelo_inurba_marseille","lat":43.28156,"lon":5.42643,"is_reserved":false,"is_disabled":false,"rental_uris":{"android":"levelo://app?vid=9f299ed1-ffc4-4ba7-bd0c-1d10255ce0f3","ios":"levelo://app?vid=9f299ed1-ffc4-4ba7-bd0c-1d10255ce0f3"},"vehicle_type_id":"4","last_reported":1727353062,"current_range_meters":38000,"station_id":"ce4bhnh2rcd13ifvqgug","pricing_plan_id":"cebpf4jnsgd1na2vs0mg"},{"bike_id":"1a7fe9a3-dd7d-43d5-a02b-d99d206bb4f0","system_id":"levelo_inurba_marseille","lat":43.29907,"lon":5.38148,"is_reserved":false,"is_disabled":false,"rental_uris":{"android":"levelo://app?vid=1a7fe9a3-dd7d-43d5-a02b-d99d206bb4f0","ios":"levelo://app?vid=1a7fe9a3-dd7d-43d5-a02b-d99d206bb4f0"},"vehicle_type_id":"4","last_reported":1727353062,"current_range_meters":20000,"station_id":"ce4bgj12rcd13ifvqbc0","pricing_plan_id":"cebpf4jnsgd1na2vs0mg"},{"bike_id":"d6cb8a99-704c-4ad8-9fdc-441af0aa8f6e","system_id":"levelo_inurba_marseille","lat":43.24079,"lon":5.37758,"is_reserved":false,"is_disabled":false,"rental_uris":{"android":"levelo://app?vid=d6cb8a99-704c-4ad8-9fdc-441af0aa8f6e","ios":"levelo://app?vid=d6cb8a99-704c-4ad8-9fdc-441af0aa8f6e"},"vehicle_type_id":"4","last_reported":1727353062,"current_range_meters":5600,"station_id":"ce4bhnp2rcd13ifvqgvg","pricing_plan_id":"cebpf4jnsgd1na2vs0mg"},{"bike_id":"77faf788-da78-4c68-85c9-999cef3f8514","system_id":"levelo_inurba_marseille","lat":43.29579,"lon":5.36742,"is_reserved":false,"is_disabled":false,"rental_uris":{"android":"levelo://app?vid=77faf788-da78-4c68-85c9-999cef3f8514","ios":"levelo://app?vid=77faf788-da78-4c68-85c9-999cef3f8514"},"vehicle_type_id":"4","last_reported":1727353062,"current_range_meters":36400,"station_id":"ce4bgph2rcd13ifvqc2g","pricing_plan_id":"cebpf4jnsgd1na2vs0mg"},{"bike_id":"5325b546-be8c-45ee-8bcb-8af51028126d","system_id":"levelo_inurba_marseille","lat":43.31232,"lon":5.36858,"is_reserved":false,"is_disabled":false,"rental_uris":{"android":"levelo://app?vid=5325b546-be8c-45ee-8bcb-8af51028126d","ios":"levelo://app?vid=5325b546-be8c-45ee-8bcb-8af51028126d"},"vehicle_type_id":"4","last_reported":1727353062,"current_range_meters":38800,"station_id":"ce4bgl92rcd13ifvqbq0","pricing_plan_id":"cebpf4jnsgd1na2vs0mg"},{"bike_id":"b0a5c5c8-b96f-4d5c-ad0a-9a4c9139d21f","system_id":"levelo_inurba_marseille","lat":43.29785,"lon":5.37113,"is_reserved":false,"is_disabled":false,"rental_uris":{"android":"levelo://app?vid=b0a5c5c8-b96f-4d5c-ad0a-9a4c9139d21f","ios":"levelo://app?vid=b0a5c5c8-b96f-4d5c-ad0a-9a4c9139d21f"},"vehicle_type_id":"4","last_reported":1727353062,"current_range_meters":19200,"station_id":"ce4bgop2rcd13ifvqc1g","pricing_plan_id":"cebpf4jnsgd1na2vs0mg"},{"bike_id":"510ca38e-0a4b-4a9a-83a5-24442e5133a6","system_id":"levelo_inurba_marseille","lat":43.29531,"lon":5.37505,"is_reserved":false,"is_disabled":false,"rental_uris":{"android":"levelo://app?vid=510ca38e-0a4b-4a9a-83a5-24442e5133a6","ios":"levelo://app?vid=510ca38e-0a4b-4a9a-83a5-24442e5133a6"},"vehicle_type_id":"4","last_reported":1727353062,"current_range_meters":22800,"station_id":"ce4bgkp2rcd13ifvqbmg","pricing_plan_id":"cebpf4jnsgd1na2vs0mg"},{"bike_id":"a171acb0-8851-4315-87be-b60d4fab64f1","system_id":"levelo_inurba_marseille","lat":43.29053,"lon":5.35922,"is_reserved":false,"is_disabled":false,"rental_uris":{"android":"levelo://app?vid=a171acb0-8851-4315-87be-b60d4fab64f1","ios":"levelo://app?vid=a171acb0-8851-4315-87be-b60d4fab64f1"},"vehicle_type_id":"4","last_reported":1727353062,"current_range_meters":33600,"station_id":"ce4bgkp2rcd13ifvqbmg","pricing_plan_id":"cebpf4jnsgd1na2vs0mg"},{"bike_id":"980a6e78-e57a-42f3-8e3b-e7ab987b675c","system_id":"levelo_inurba_marseille","lat":43.24082,"lon":5.37753,"is_reserved":false,"is_disabled":false,"rental_uris":{"android":"levelo://app?vid=980a6e78-e57a-42f3-8e3b-e7ab987b675c","ios":"levelo://app?vid=980a6e78-e57a-42f3-8e3b-e7ab987b675c"},"vehicle_type_id":"4","last_reported":1727353062,"current_range_meters":17200,"station_id":"ce4bhnp2rcd13ifvqgvg","pricing_plan_id":"cebpf4jnsgd1na2vs0mg"},{"bike_id":"fb1ae0c5-d016-49a9-a3dc-980bc72584aa","system_id":"levelo_inurba_marseille","lat":43.27326,"lon":5.39084,"is_reserved":false,"is_disabled":false,"rental_uris":{"android":"levelo://app?vid=fb1ae0c5-d016-49a9-a3dc-980bc72584aa","ios":"levelo://app?vid=fb1ae0c5-d016-49a9-a3dc-980bc72584aa"},"vehicle_type_id":"4","last_reported":1727353062,"current_range_meters":30000,"station_id":"ce4bhgp2rcd13ifvqfe0","pricing_plan_id":"cebpf4jnsgd1na2vs0mg"},{"bike_id":"99d86a3f-7d4a-49df-9a31-be2c4ca8741e","system_id":"levelo_inurba_marseille","lat":43.27571,"lon":5.38431,"is_reserved":false,"is_disabled":false,"rental_uris":{"android":"levelo://app?vid=99d86a3f-7d4a-49df-9a31-be2c4ca8741e","ios":"levelo://app?vid=99d86a3f-7d4a-49df-9a31-be2c4ca8741e"},"vehicle_type_id":"4","last_reported":1727353062,"current_range_meters":10000,"station_id":"ce4bhh92rcd13ifvqfi0","pricing_plan_id":"cebpf4jnsgd1na2vs0mg"},{"bike_id":"e00dcad4-7ca7-4d96-b9c6-29d1b12bb4bf","system_id":"levelo_inurba_marseille","lat":43.27494,"lon":5.4245,"is_reserved":false,"is_disabled":false,"rental_uris":{"android":"levelo://app?vid=e00dcad4-7ca7-4d96-b9c6-29d1b12bb4bf","ios":"levelo://app?vid=e00dcad4-7ca7-4d96-b9c6-29d1b12bb4bf"},"vehicle_type_id":"4","last_reported":1727353062,"current_range_meters":25600,"station_id":"ce4bhn92rcd13ifvqgrg","pricing_plan_id":"cebpf4jnsgd1na2vs0mg"},{"bike_id":"557f4aaa-628a-4f5f-bbf3-4a31cbfd9802","system_id":"levelo_inurba_marseille","lat":43.24183,"lon":5.39725,"is_reserved":false,"is_disabled":false,"rental_uris":{"android":"levelo://app?vid=557f4aaa-628a-4f5f-bbf3-4a31cbfd9802","ios":"levelo://app?vid=557f4aaa-628a-4f5f-bbf3-4a31cbfd9802"},"vehicle_type_id":"4","last_reported":1727353062,"current_range_meters":6800,"station_id":"ce4bhn12rcd13ifvqgpg","pricing_plan_id":"cebpf4jnsgd1na2vs0mg"},{"bike_id":"f5d2eb6d-471e-40ee-9f94-9e77722bdbe7","system_id":"levelo_inurba_marseille","lat":43.31531,"lon":5.38027,"is_reserved":false,"is_disabled":false,"rental_uris":{"android":"levelo://app?vid=f5d2eb6d-471e-40ee-9f94-9e77722bdbe7","ios":"levelo://app?vid=f5d2eb6d-471e-40ee-9f94-9e77722bdbe7"},"vehicle_type_id":"4","last_reported":1727353062,"current_range_meters":16400,"station_id":"ce4bhsp2rcd13ifvqi50","pricing_plan_id":"cebpf4jnsgd1na2vs0mg"},{"bike_id":"2359b88e-3f7c-49ff-9f58-16fd2e3dcd68","system_id":"levelo_inurba_marseille","lat":43.29852,"lon":5.36285,"is_reserved":false,"is_disabled":false,"rental_uris":{"android":"levelo://app?vid=2359b88e-3f7c-49ff-9f58-16fd2e3dcd68","ios":"levelo://app?vid=2359b88e-3f7c-49ff-9f58-16fd2e3dcd68"},"vehicle_type_id":"4","last_reported":1727353062,"current_range_meters":7200,"station_id":"ce4bgpp2rcd13ifvqc3g","pricing_plan_id":"cebpf4jnsgd1na2vs0mg"},{"bike_id":"9c489a0f-ab1f-4efd-a6e7-1a0da408fefd","system_id":"levelo_inurba_marseille","lat":43.283783,"lon":5.380811,"is_reserved":false,"is_disabled":false,"rental_uris":{"android":"levelo://app?vid=9c489a0f-ab1f-4efd-a6e7-1a0da408fefd","ios":"levelo://app?vid=9c489a0f-ab1f-4efd-a6e7-1a0da408fefd"},"vehicle_type_id":"4","last_reported":1727353062,"current_range_meters":33600,"station_id":"ce4bh412rcd13ifvqdr0","pricing_plan_id":"cebpf4jnsgd1na2vs0mg"},{"bike_id":"62418745-16a6-47da-a04f-a524e328c3ce","system_id":"levelo_inurba_marseille","lat":43.2606,"lon":5.39399,"is_reserved":false,"is_disabled":false,"rental_uris":{"android":"levelo://app?vid=62418745-16a6-47da-a04f-a524e328c3ce","ios":"levelo://app?vid=62418745-16a6-47da-a04f-a524e328c3ce"},"vehicle_type_id":"4","last_reported":1727353062,"current_range_meters":5600,"station_id":"ce4bhh92rcd13ifvqfj0","pricing_plan_id":"cebpf4jnsgd1na2vs0mg"},{"bike_id":"fbec4509-ed70-417a-9740-54b584dfd1da","system_id":"levelo_inurba_marseille","lat":43.2465,"lon":5.38889,"is_reserved":false,"is_disabled":false,"rental_uris":{"android":"levelo://app?vid=fbec4509-ed70-417a-9740-54b584dfd1da","ios":"levelo://app?vid=fbec4509-ed70-417a-9740-54b584dfd1da"},"vehicle_type_id":"4","last_reported":1727353062,"current_range_meters":28800,"station_id":"ce4bhg12rcd13ifvqf60","pricing_plan_id":"cebpf4jnsgd1na2vs0mg"},{"bike_id":"c5294afe-99d4-483d-bcf2-94f93af0ac7b","system_id":"levelo_inurba_marseille","lat":43.29587,"lon":5.36745,"is_reserved":false,"is_disabled":false,"rental_uris":{"android":"levelo://app?vid=c5294afe-99d4-483d-bcf2-94f93af0ac7b","ios":"levelo://app?vid=c5294afe-99d4-483d-bcf2-94f93af0ac7b"},"vehicle_type_id":"4","last_reported":1727353062,"current_range_meters":30000,"station_id":"ce4bgph2rcd13ifvqc2g","pricing_plan_id":"cebpf4jnsgd1na2vs0mg"},{"bike_id":"4e3260e0-1588-4fc3-a0c6-3e12027c7824","system_id":"levelo_inurba_marseille","lat":43.33768,"lon":5.37426,"is_reserved":false,"is_disabled":false,"rental_uris":{"android":"levelo://app?vid=4e3260e0-1588-4fc3-a0c6-3e12027c7824","ios":"levelo://app?vid=4e3260e0-1588-4fc3-a0c6-3e12027c7824"},"vehicle_type_id":"4","last_reported":1727353062,"current_range_meters":26000,"station_id":"","pricing_plan_id":"cebpf4jnsgd1na2vs0mg"},{"bike_id":"91372296-66f0-4955-9ea7-af2aeb756cbd","system_id":"levelo_inurba_marseille","lat":43.298436,"lon":5.362681,"is_reserved":false,"is_disabled":false,"rental_uris":{"android":"levelo://app?vid=91372296-66f0-4955-9ea7-af2aeb756cbd","ios":"levelo://app?vid=91372296-66f0-4955-9ea7-af2aeb756cbd"},"vehicle_type_id":"4","last_reported":1727353062,"current_range_meters":38800,"station_id":"ce4bgpp2rcd13ifvqc3g","pricing_plan_id":"cebpf4jnsgd1na2vs0mg"},{"bike_id":"b5cdcddb-a8b5-45ca-ab1b-f1ccec65f8ae","system_id":"levelo_inurba_marseille","lat":43.2994,"lon":5.36541,"is_reserved":false,"is_disabled":false,"rental_uris":{"android":"levelo://app?vid=b5cdcddb-a8b5-45ca-ab1b-f1ccec65f8ae","ios":"levelo://app?vid=b5cdcddb-a8b5-45ca-ab1b-f1ccec65f8ae"},"vehicle_type_id":"4","last_reported":1727353062,"current_range_meters":27600,"station_id":"ce4bgm92rcd13ifvqbr0","pricing_plan_id":"cebpf4jnsgd1na2vs0mg"},{"bike_id":"261ab93d-d1ac-43db-95e2-129d087513e0","system_id":"levelo_inurba_marseille","lat":43.33775,"lon":5.37449,"is_reserved":false,"is_disabled":false,"rental_uris":{"android":"levelo://app?vid=261ab93d-d1ac-43db-95e2-129d087513e0","ios":"levelo://app?vid=261ab93d-d1ac-43db-95e2-129d087513e0"},"vehicle_type_id":"4","last_reported":1727353062,"current_range_meters":33200,"station_id":"","pricing_plan_id":"cebpf4jnsgd1na2vs0mg"},{"bike_id":"d8898c38-d84b-4a32-81d5-f35fe017d87f","system_id":"levelo_inurba_marseille","lat":43.31225,"lon":5.36852,"is_reserved":false,"is_disabled":false,"rental_uris":{"android":"levelo://app?vid=d8898c38-d84b-4a32-81d5-f35fe017d87f","ios":"levelo://app?vid=d8898c38-d84b-4a32-81d5-f35fe017d87f"},"vehicle_type_id":"4","last_reported":1727353062,"current_range_meters":39200,"station_id":"ce4bgl92rcd13ifvqbq0","pricing_plan_id":"cebpf4jnsgd1na2vs0mg"},{"bike_id":"cf133141-3fce-489a-a414-a01cfdcaa3f2","system_id":"levelo_inurba_marseille","lat":43.29568,"lon":5.37526,"is_reserved":false,"is_disabled":false,"rental_uris":{"android":"levelo://app?vid=cf133141-3fce-489a-a414-a01cfdcaa3f2","ios":"levelo://app?vid=cf133141-3fce-489a-a414-a01cfdcaa3f2"},"vehicle_type_id":"4","last_reported":1727353062,"current_range_meters":23200,"station_id":"ce4bgh92rcd13ifvqb50","pricing_plan_id":"cebpf4jnsgd1na2vs0mg"},{"bike_id":"12bb2fa0-def4-44f9-9009-061dd94ed221","system_id":"levelo_inurba_marseille","lat":43.2417,"lon":5.36388,"is_reserved":false,"is_disabled":false,"rental_uris":{"android":"levelo://app?vid=12bb2fa0-def4-44f9-9009-061dd94ed221","ios":"levelo://app?vid=12bb2fa0-def4-44f9-9009-061dd94ed221"},"vehicle_type_id":"4","last_reported":1727353062,"current_range_meters":5600,"station_id":"cpo36qri1sfpv3e86is0","pricing_plan_id":"cebpf4jnsgd1na2vs0mg"},{"bike_id":"3a6eae33-c511-4459-b556-a3f9d116a770","system_id":"levelo_inurba_marseille","lat":43.24807,"lon":5.37451,"is_reserved":false,"is_disabled":false,"rental_uris":{"android":"levelo://app?vid=3a6eae33-c511-4459-b556-a3f9d116a770","ios":"levelo://app?vid=3a6eae33-c511-4459-b556-a3f9d116a770"},"vehicle_type_id":"4","last_reported":1727353062,"current_range_meters":27600,"station_id":"ce4bhgh2rcd13ifvqfb0","pricing_plan_id":"cebpf4jnsgd1na2vs0mg"},{"bike_id":"27cad2ca-9823-41a2-89d7-0612ee6773f3","system_id":"levelo_inurba_marseille","lat":43.27998,"lon":5.40007,"is_reserved":false,"is_disabled":false,"rental_uris":{"android":"levelo://app?vid=27cad2ca-9823-41a2-89d7-0612ee6773f3","ios":"levelo://app?vid=27cad2ca-9823-41a2-89d7-0612ee6773f3"},"vehicle_type_id":"4","last_reported":1727353062,"current_range_meters":27600,"station_id":"ce4bho92rcd13ifvqh4g","pricing_plan_id":"cebpf4jnsgd1na2vs0mg"},{"bike_id":"f2385d2b-ef6a-4a18-a08b-9bc5e94d8cd6","system_id":"levelo_inurba_marseille","lat":43.24083,"lon":5.3774,"is_reserved":false,"is_disabled":false,"rental_uris":{"android":"levelo://app?vid=f2385d2b-ef6a-4a18-a08b-9bc5e94d8cd6","ios":"levelo://app?vid=f2385d2b-ef6a-4a18-a08b-9bc5e94d8cd6"},"vehicle_type_id":"4","last_reported":1727353062,"current_range_meters":24000,"station_id":"ce4bhnp2rcd13ifvqgvg","pricing_plan_id":"cebpf4jnsgd1na2vs0mg"},{"bike_id":"03ee95af-84cc-44ed-a76a-332d8cd751b2","system_id":"levelo_inurba_marseille","lat":43.23143,"lon":5.43704,"is_reserved":false,"is_disabled":false,"rental_uris":{"android":"levelo://app?vid=03ee95af-84cc-44ed-a76a-332d8cd751b2","ios":"levelo://app?vid=03ee95af-84cc-44ed-a76a-332d8cd751b2"},"vehicle_type_id":"4","last_reported":1727353062,"current_range_meters":4000,"station_id":"ce4bhmp2rcd13ifvqgog","pricing_plan_id":"cebpf4jnsgd1na2vs0mg"},{"bike_id":"08a5cd66-f021-4853-bec7-3221a1186d83","system_id":"levelo_inurba_marseille","lat":43.27498,"lon":5.42448,"is_reserved":false,"is_disabled":false,"rental_uris":{"android":"levelo://app?vid=08a5cd66-f021-4853-bec7-3221a1186d83","ios":"levelo://app?vid=08a5cd66-f021-4853-bec7-3221a1186d83"},"vehicle_type_id":"4","last_reported":1727353062,"current_range_meters":21600,"station_id":"ce4bhn92rcd13ifvqgrg","pricing_plan_id":"cebpf4jnsgd1na2vs0mg"},{"bike_id":"e409d971-6af9-4b07-b591-142322e37464","system_id":"levelo_inurba_marseille","lat":43.2886,"lon":5.35844,"is_reserved":false,"is_disabled":false,"rental_uris":{"android":"levelo://app?vid=e409d971-6af9-4b07-b591-142322e37464","ios":"levelo://app?vid=e409d971-6af9-4b07-b591-142322e37464"},"vehicle_type_id":"4","last_reported":1727353062,"current_range_meters":17600,"station_id":"ce4bhb12rcd13ifvqem0","pricing_plan_id":"cebpf4jnsgd1na2vs0mg"},{"bike_id":"6a74922f-11a9-46bb-9a97-50aef9566850","system_id":"levelo_inurba_marseille","lat":43.2649,"lon":5.39549,"is_reserved":false,"is_disabled":false,"rental_uris":{"android":"levelo://app?vid=6a74922f-11a9-46bb-9a97-50aef9566850","ios":"levelo://app?vid=6a74922f-11a9-46bb-9a97-50aef9566850"},"vehicle_type_id":"4","last_reported":1727353062,"current_range_meters":24400,"station_id":"ce4bhi12rcd13ifvqfq0","pricing_plan_id":"cebpf4jnsgd1na2vs0mg"},{"bike_id":"1bb82a59-8ca9-414d-9c95-af2c4367bbc6","system_id":"levelo_inurba_marseille","lat":43.28703,"lon":5.39989,"is_reserved":false,"is_disabled":false,"rental_uris":{"android":"levelo://app?vid=1bb82a59-8ca9-414d-9c95-af2c4367bbc6","ios":"levelo://app?vid=1bb82a59-8ca9-414d-9c95-af2c4367bbc6"},"vehicle_type_id":"4","last_reported":1727353062,"current_range_meters":9600,"station_id":"ce4bho92rcd13ifvqh3g","pricing_plan_id":"cebpf4jnsgd1na2vs0mg"},{"bike_id":"07f73b48-cbe6-484d-bc1b-27d0587fbb71","system_id":"levelo_inurba_marseille","lat":43.255047,"lon":5.376368,"is_reserved":false,"is_disabled":false,"rental_uris":{"android":"levelo://app?vid=07f73b48-cbe6-484d-bc1b-27d0587fbb71","ios":"levelo://app?vid=07f73b48-cbe6-484d-bc1b-27d0587fbb71"},"vehicle_type_id":"4","last_reported":1727353062,"current_range_meters":3600,"station_id":"ce4bhh12rcd13ifvqff0","pricing_plan_id":"cebpf4jnsgd1na2vs0mg"},{"bike_id":"637beff3-55bd-4f15-99c0-4cb53d5dddb9","system_id":"levelo_inurba_marseille","lat":43.30657,"lon":5.39532,"is_reserved":false,"is_disabled":false,"rental_uris":{"android":"levelo://app?vid=637beff3-55bd-4f15-99c0-4cb53d5dddb9","ios":"levelo://app?vid=637beff3-55bd-4f15-99c0-4cb53d5dddb9"},"vehicle_type_id":"4","last_reported":1727353062,"current_range_meters":36800,"station_id":"","pricing_plan_id":"cebpf4jnsgd1na2vs0mg"},{"bike_id":"b3ca7e08-0e60-41d3-a56d-0937cdac0568","system_id":"levelo_inurba_marseille","lat":43.29582,"lon":5.3674,"is_reserved":false,"is_disabled":false,"rental_uris":{"android":"levelo://app?vid=b3ca7e08-0e60-41d3-a56d-0937cdac0568","ios":"levelo://app?vid=b3ca7e08-0e60-41d3-a56d-0937cdac0568"},"vehicle_type_id":"4","last_reported":1727353062,"current_range_meters":30800,"station_id":"ce4bgph2rcd13ifvqc2g","pricing_plan_id":"cebpf4jnsgd1na2vs0mg"},{"bike_id":"1e2901f5-39ef-4aa7-97a9-b81361ead60b","system_id":"levelo_inurba_marseille","lat":43.28273,"lon":5.35062,"is_reserved":false,"is_disabled":false,"rental_uris":{"android":"levelo://app?vid=1e2901f5-39ef-4aa7-97a9-b81361ead60b","ios":"levelo://app?vid=1e2901f5-39ef-4aa7-97a9-b81361ead60b"},"vehicle_type_id":"4","last_reported":1727353062,"current_range_meters":16400,"station_id":"ce4bhbp2rcd13ifvqerg","pricing_plan_id":"cebpf4jnsgd1na2vs0mg"},{"bike_id":"8b7c5d69-3d9c-49a8-9703-129810f5e463","system_id":"levelo_inurba_marseille","lat":43.28153,"lon":5.4264,"is_reserved":false,"is_disabled":false,"rental_uris":{"android":"levelo://app?vid=8b7c5d69-3d9c-49a8-9703-129810f5e463","ios":"levelo://app?vid=8b7c5d69-3d9c-49a8-9703-129810f5e463"},"vehicle_type_id":"4","last_reported":1727353062,"current_range_meters":10800,"station_id":"ce4bhnh2rcd13ifvqgug","pricing_plan_id":"cebpf4jnsgd1na2vs0mg"},{"bike_id":"fc1916e0-4efb-46e4-8eb5-9fab9da54dc6","system_id":"levelo_inurba_marseille","lat":43.29796,"lon":5.39338,"is_reserved":false,"is_disabled":false,"rental_uris":{"android":"levelo://app?vid=fc1916e0-4efb-46e4-8eb5-9fab9da54dc6","ios":"levelo://app?vid=fc1916e0-4efb-46e4-8eb5-9fab9da54dc6"},"vehicle_type_id":"4","last_reported":1727353062,"current_range_meters":20000,"station_id":"chh1huq6cuj3fo74tm60","pricing_plan_id":"cebpf4jnsgd1na2vs0mg"},{"bike_id":"537ba732-3d75-41ab-9773-2e5b967977a1","system_id":"levelo_inurba_marseille","lat":43.28458,"lon":5.35885,"is_reserved":false,"is_disabled":false,"rental_uris":{"android":"levelo://app?vid=537ba732-3d75-41ab-9773-2e5b967977a1","ios":"levelo://app?vid=537ba732-3d75-41ab-9773-2e5b967977a1"},"vehicle_type_id":"4","last_reported":1727353062,"current_range_meters":26000,"station_id":"ce4bhah2rcd13ifvqei0","pricing_plan_id":"cebpf4jnsgd1na2vs0mg"},{"bike_id":"4c600816-bec6-4a45-82e8-d69cb3dac53a","system_id":"levelo_inurba_marseille","lat":43.28271,"lon":5.3507,"is_reserved":false,"is_disabled":false,"rental_uris":{"android":"levelo://app?vid=4c600816-bec6-4a45-82e8-d69cb3dac53a","ios":"levelo://app?vid=4c600816-bec6-4a45-82e8-d69cb3dac53a"},"vehicle_type_id":"4","last_reported":1727353062,"current_range_meters":4400,"station_id":"ce4bhbp2rcd13ifvqerg","pricing_plan_id":"cebpf4jnsgd1na2vs0mg"},{"bike_id":"6a53c8c2-1207-4398-8d9e-61d67fe87505","system_id":"levelo_inurba_marseille","lat":43.2981,"lon":5.38094,"is_reserved":false,"is_disabled":false,"rental_uris":{"android":"levelo://app?vid=6a53c8c2-1207-4398-8d9e-61d67fe87505","ios":"levelo://app?vid=6a53c8c2-1207-4398-8d9e-61d67fe87505"},"vehicle_type_id":"4","last_reported":1727353062,"current_range_meters":39200,"station_id":"ce4bgip2rcd13ifvqbb0","pricing_plan_id":"cebpf4jnsgd1na2vs0mg"},{"bike_id":"71417a4e-e058-47af-99fe-23be5a623ecf","system_id":"levelo_inurba_marseille","lat":43.27491,"lon":5.42459,"is_reserved":false,"is_disabled":false,"rental_uris":{"android":"levelo://app?vid=71417a4e-e058-47af-99fe-23be5a623ecf","ios":"levelo://app?vid=71417a4e-e058-47af-99fe-23be5a623ecf"},"vehicle_type_id":"4","last_reported":1727353062,"current_range_meters":13600,"station_id":"ce4bhn92rcd13ifvqgrg","pricing_plan_id":"cebpf4jnsgd1na2vs0mg"},{"bike_id":"36c8e788-c711-4ae7-9ff8-f7f816e7f2fb","system_id":"levelo_inurba_marseille","lat":43.24073,"lon":5.37761,"is_reserved":false,"is_disabled":false,"rental_uris":{"android":"levelo://app?vid=36c8e788-c711-4ae7-9ff8-f7f816e7f2fb","ios":"levelo://app?vid=36c8e788-c711-4ae7-9ff8-f7f816e7f2fb"},"vehicle_type_id":"4","last_reported":1727353062,"current_range_meters":19600,"station_id":"ce4bhnp2rcd13ifvqgvg","pricing_plan_id":"cebpf4jnsgd1na2vs0mg"},{"bike_id":"b1fc92c2-de66-4676-a642-5ed12c29d12a","system_id":"levelo_inurba_marseille","lat":43.31765,"lon":5.39011,"is_reserved":false,"is_disabled":false,"rental_uris":{"android":"levelo://app?vid=b1fc92c2-de66-4676-a642-5ed12c29d12a","ios":"levelo://app?vid=b1fc92c2-de66-4676-a642-5ed12c29d12a"},"vehicle_type_id":"4","last_reported":1727353062,"current_range_meters":29600,"station_id":"ce4bhqp2rcd13ifvqhng","pricing_plan_id":"cebpf4jnsgd1na2vs0mg"},{"bike_id":"601f90f3-afe4-47b8-9589-bcd11e11382d","system_id":"levelo_inurba_marseille","lat":43.29418,"lon":5.38614,"is_reserved":false,"is_disabled":false,"rental_uris":{"android":"levelo://app?vid=601f90f3-afe4-47b8-9589-bcd11e11382d","ios":"levelo://app?vid=601f90f3-afe4-47b8-9589-bcd11e11382d"},"vehicle_type_id":"4","last_reported":1727353062,"current_range_meters":6400,"station_id":"ce4bh2h2rcd13ifvqdh0","pricing_plan_id":"cebpf4jnsgd1na2vs0mg"},{"bike_id":"0a5ef607-1314-4ea7-a547-44134686620f","system_id":"levelo_inurba_marseille","lat":43.27502,"lon":5.42453,"is_reserved":false,"is_disabled":false,"rental_uris":{"android":"levelo://app?vid=0a5ef607-1314-4ea7-a547-44134686620f","ios":"levelo://app?vid=0a5ef607-1314-4ea7-a547-44134686620f"},"vehicle_type_id":"4","last_reported":1727353062,"current_range_meters":38000,"station_id":"ce4bhn92rcd13ifvqgrg","pricing_plan_id":"cebpf4jnsgd1na2vs0mg"},{"bike_id":"0b4d9145-a4cf-4ec2-abb3-9e32f8e9326d","system_id":"levelo_inurba_marseille","lat":43.29724,"lon":5.37681,"is_reserved":false,"is_disabled":false,"rental_uris":{"android":"levelo://app?vid=0b4d9145-a4cf-4ec2-abb3-9e32f8e9326d","ios":"levelo://app?vid=0b4d9145-a4cf-4ec2-abb3-9e32f8e9326d"},"vehicle_type_id":"4","last_reported":1727353062,"current_range_meters":30800,"station_id":"ce4bgkh2rcd13ifvqbl0","pricing_plan_id":"cebpf4jnsgd1na2vs0mg"},{"bike_id":"d5ebfdd5-c2c8-4dbc-8450-af592685049a","system_id":"levelo_inurba_marseille","lat":43.24074,"lon":5.3776,"is_reserved":false,"is_disabled":false,"rental_uris":{"android":"levelo://app?vid=d5ebfdd5-c2c8-4dbc-8450-af592685049a","ios":"levelo://app?vid=d5ebfdd5-c2c8-4dbc-8450-af592685049a"},"vehicle_type_id":"4","last_reported":1727353062,"current_range_meters":11600,"station_id":"ce4bhnp2rcd13ifvqgvg","pricing_plan_id":"cebpf4jnsgd1na2vs0mg"},{"bike_id":"d182c375-d8fd-44dd-8206-11f0e97fa13d","system_id":"levelo_inurba_marseille","lat":43.24075,"lon":5.37761,"is_reserved":false,"is_disabled":false,"rental_uris":{"android":"levelo://app?vid=d182c375-d8fd-44dd-8206-11f0e97fa13d","ios":"levelo://app?vid=d182c375-d8fd-44dd-8206-11f0e97fa13d"},"vehicle_type_id":"4","last_reported":1727353062,"current_range_meters":3200,"station_id":"ce4bhnp2rcd13ifvqgvg","pricing_plan_id":"cebpf4jnsgd1na2vs0mg"},{"bike_id":"4bf6f72d-0cef-4276-85c2-c6419505f074","system_id":"levelo_inurba_marseille","lat":43.27322,"lon":5.39077,"is_reserved":false,"is_disabled":false,"rental_uris":{"android":"levelo://app?vid=4bf6f72d-0cef-4276-85c2-c6419505f074","ios":"levelo://app?vid=4bf6f72d-0cef-4276-85c2-c6419505f074"},"vehicle_type_id":"4","last_reported":1727353062,"current_range_meters":25200,"station_id":"ce4bhgp2rcd13ifvqfe0","pricing_plan_id":"cebpf4jnsgd1na2vs0mg"},{"bike_id":"86cc00fb-3115-49c4-8209-a596309893f4","system_id":"levelo_inurba_marseille","lat":43.28152,"lon":5.42643,"is_reserved":false,"is_disabled":false,"rental_uris":{"android":"levelo://app?vid=86cc00fb-3115-49c4-8209-a596309893f4","ios":"levelo://app?vid=86cc00fb-3115-49c4-8209-a596309893f4"},"vehicle_type_id":"4","last_reported":1727353062,"current_range_meters":38000,"station_id":"ce4bhnh2rcd13ifvqgug","pricing_plan_id":"cebpf4jnsgd1na2vs0mg"},{"bike_id":"cdd4a971-88d1-4937-adf9-51649b8b80ee","system_id":"levelo_inurba_marseille","lat":43.309091,"lon":5.368518,"is_reserved":false,"is_disabled":false,"rental_uris":{"android":"levelo://app?vid=cdd4a971-88d1-4937-adf9-51649b8b80ee","ios":"levelo://app?vid=cdd4a971-88d1-4937-adf9-51649b8b80ee"},"vehicle_type_id":"4","last_reported":1727353062,"current_range_meters":40000,"station_id":"ce4bgn92rcd13ifvqbvg","pricing_plan_id":"cebpf4jnsgd1na2vs0mg"},{"bike_id":"a2c30071-cf26-4a67-a5bd-fe6db5795b59","system_id":"levelo_inurba_marseille","lat":43.241795,"lon":5.397313,"is_reserved":false,"is_disabled":false,"rental_uris":{"android":"levelo://app?vid=a2c30071-cf26-4a67-a5bd-fe6db5795b59","ios":"levelo://app?vid=a2c30071-cf26-4a67-a5bd-fe6db5795b59"},"vehicle_type_id":"4","last_reported":1727353062,"current_range_meters":30400,"station_id":"ce4bhn12rcd13ifvqgpg","pricing_plan_id":"cebpf4jnsgd1na2vs0mg"},{"bike_id":"2ed98b51-95b7-4b57-a44b-84e22c01b097","system_id":"levelo_inurba_marseille","lat":43.25938,"lon":5.409,"is_reserved":false,"is_disabled":false,"rental_uris":{"android":"levelo://app?vid=2ed98b51-95b7-4b57-a44b-84e22c01b097","ios":"levelo://app?vid=2ed98b51-95b7-4b57-a44b-84e22c01b097"},"vehicle_type_id":"4","last_reported":1727353062,"current_range_meters":25600,"station_id":"ce4bhm92rcd13ifvqglg","pricing_plan_id":"cebpf4jnsgd1na2vs0mg"},{"bike_id":"1844eadc-9204-4936-92d9-a64cdeafb732","system_id":"levelo_inurba_marseille","lat":43.288415,"lon":5.393176,"is_reserved":false,"is_disabled":false,"rental_uris":{"android":"levelo://app?vid=1844eadc-9204-4936-92d9-a64cdeafb732","ios":"levelo://app?vid=1844eadc-9204-4936-92d9-a64cdeafb732"},"vehicle_type_id":"4","last_reported":1727353062,"current_range_meters":33200,"station_id":"ce4bh2p2rcd13ifvqdi0","pricing_plan_id":"cebpf4jnsgd1na2vs0mg"},{"bike_id":"db901e4b-152d-44f9-bf8e-0ac06b2af6fe","system_id":"levelo_inurba_marseille","lat":43.30538,"lon":5.367,"is_reserved":false,"is_disabled":false,"rental_uris":{"android":"levelo://app?vid=db901e4b-152d-44f9-bf8e-0ac06b2af6fe","ios":"levelo://app?vid=db901e4b-152d-44f9-bf8e-0ac06b2af6fe"},"vehicle_type_id":"4","last_reported":1727353062,"current_range_meters":29600,"station_id":"ce4bgrp2rcd13ifvqc9g","pricing_plan_id":"cebpf4jnsgd1na2vs0mg"},{"bike_id":"aa854054-8172-4ebb-a052-d32db433e771","system_id":"levelo_inurba_marseille","lat":43.23162,"lon":5.43709,"is_reserved":false,"is_disabled":false,"rental_uris":{"android":"levelo://app?vid=aa854054-8172-4ebb-a052-d32db433e771","ios":"levelo://app?vid=aa854054-8172-4ebb-a052-d32db433e771"},"vehicle_type_id":"4","last_reported":1727353062,"current_range_meters":12000,"station_id":"ce4bhmp2rcd13ifvqgog","pricing_plan_id":"cebpf4jnsgd1na2vs0mg"},{"bike_id":"c859838e-9668-46a6-9add-c65973b9865a","system_id":"levelo_inurba_marseille","lat":43.27075,"lon":5.42281,"is_reserved":false,"is_disabled":false,"rental_uris":{"android":"levelo://app?vid=c859838e-9668-46a6-9add-c65973b9865a","ios":"levelo://app?vid=c859838e-9668-46a6-9add-c65973b9865a"},"vehicle_type_id":"4","last_reported":1727353062,"current_range_meters":28400,"station_id":"ce4bhk92rcd13ifvqgb0","pricing_plan_id":"cebpf4jnsgd1na2vs0mg"},{"bike_id":"cee79834-b4c8-447d-a659-47e09a53a30d","system_id":"levelo_inurba_marseille","lat":43.30915,"lon":5.36845,"is_reserved":false,"is_disabled":false,"rental_uris":{"android":"levelo://app?vid=cee79834-b4c8-447d-a659-47e09a53a30d","ios":"levelo://app?vid=cee79834-b4c8-447d-a659-47e09a53a30d"},"vehicle_type_id":"4","last_reported":1727353062,"current_range_meters":31200,"station_id":"ce4bgn92rcd13ifvqbvg","pricing_plan_id":"cebpf4jnsgd1na2vs0mg"},{"bike_id":"03cd1411-79db-4846-b5d5-0e72a4e185b9","system_id":"levelo_inurba_marseille","lat":43.27375,"lon":5.36257,"is_reserved":false,"is_disabled":false,"rental_uris":{"android":"levelo://app?vid=03cd1411-79db-4846-b5d5-0e72a4e185b9","ios":"levelo://app?vid=03cd1411-79db-4846-b5d5-0e72a4e185b9"},"vehicle_type_id":"4","last_reported":1727353062,"current_range_meters":38000,"station_id":"ce4bhbh2rcd13ifvqeo0","pricing_plan_id":"cebpf4jnsgd1na2vs0mg"},{"bike_id":"e9a8dbaf-57f8-49f9-b8b9-f8977d9d8a8f","system_id":"levelo_inurba_marseille","lat":43.32491,"lon":5.36563,"is_reserved":false,"is_disabled":false,"rental_uris":{"android":"levelo://app?vid=e9a8dbaf-57f8-49f9-b8b9-f8977d9d8a8f","ios":"levelo://app?vid=e9a8dbaf-57f8-49f9-b8b9-f8977d9d8a8f"},"vehicle_type_id":"4","last_reported":1727353062,"current_range_meters":9200,"station_id":"ce4bhs12rcd13ifvqhvg","pricing_plan_id":"cebpf4jnsgd1na2vs0mg"},{"bike_id":"44850a3b-a2ec-4910-8b28-8408b114bf2a","system_id":"levelo_inurba_marseille","lat":43.29908,"lon":5.38144,"is_reserved":false,"is_disabled":false,"rental_uris":{"android":"levelo://app?vid=44850a3b-a2ec-4910-8b28-8408b114bf2a","ios":"levelo://app?vid=44850a3b-a2ec-4910-8b28-8408b114bf2a"},"vehicle_type_id":"4","last_reported":1727353062,"current_range_meters":30000,"station_id":"ce4bgj12rcd13ifvqbc0","pricing_plan_id":"cebpf4jnsgd1na2vs0mg"},{"bike_id":"22e78102-e61a-40ce-aa23-528aa9929fe6","system_id":"levelo_inurba_marseille","lat":43.27067,"lon":5.42272,"is_reserved":false,"is_disabled":false,"rental_uris":{"android":"levelo://app?vid=22e78102-e61a-40ce-aa23-528aa9929fe6","ios":"levelo://app?vid=22e78102-e61a-40ce-aa23-528aa9929fe6"},"vehicle_type_id":"4","last_reported":1727353062,"current_range_meters":7200,"station_id":"ce4bhk92rcd13ifvqgb0","pricing_plan_id":"cebpf4jnsgd1na2vs0mg"},{"bike_id":"a0610759-c3de-4b79-b26f-e918039f4f8f","system_id":"levelo_inurba_marseille","lat":43.28275,"lon":5.35073,"is_reserved":false,"is_disabled":false,"rental_uris":{"android":"levelo://app?vid=a0610759-c3de-4b79-b26f-e918039f4f8f","ios":"levelo://app?vid=a0610759-c3de-4b79-b26f-e918039f4f8f"},"vehicle_type_id":"4","last_reported":1727353062,"current_range_meters":38800,"station_id":"ce4bhbp2rcd13ifvqerg","pricing_plan_id":"cebpf4jnsgd1na2vs0mg"},{"bike_id":"13e7f73f-fa3b-4b63-a67d-bcf4d67303f2","system_id":"levelo_inurba_marseille","lat":43.32045,"lon":5.4155,"is_reserved":false,"is_disabled":false,"rental_uris":{"android":"levelo://app?vid=13e7f73f-fa3b-4b63-a67d-bcf4d67303f2","ios":"levelo://app?vid=13e7f73f-fa3b-4b63-a67d-bcf4d67303f2"},"vehicle_type_id":"4","last_reported":1727353062,"current_range_meters":32800,"station_id":"ce4bhq92rcd13ifvqhkg","pricing_plan_id":"cebpf4jnsgd1na2vs0mg"},{"bike_id":"2dbfeb04-7e96-403d-a34d-0d368fc713db","system_id":"levelo_inurba_marseille","lat":43.30533,"lon":5.38424,"is_reserved":false,"is_disabled":false,"rental_uris":{"android":"levelo://app?vid=2dbfeb04-7e96-403d-a34d-0d368fc713db","ios":"levelo://app?vid=2dbfeb04-7e96-403d-a34d-0d368fc713db"},"vehicle_type_id":"4","last_reported":1727353062,"current_range_meters":10800,"station_id":"ce4bgg92rcd13ifvqb30","pricing_plan_id":"cebpf4jnsgd1na2vs0mg"},{"bike_id":"7c05f970-9096-4ff7-9a1c-310b050c61c5","system_id":"levelo_inurba_marseille","lat":43.29604,"lon":5.38101,"is_reserved":false,"is_disabled":false,"rental_uris":{"android":"levelo://app?vid=7c05f970-9096-4ff7-9a1c-310b050c61c5","ios":"levelo://app?vid=7c05f970-9096-4ff7-9a1c-310b050c61c5"},"vehicle_type_id":"4","last_reported":1727353062,"current_range_meters":7200,"station_id":"ce4bgl12rcd13ifvqbo0","pricing_plan_id":"cebpf4jnsgd1na2vs0mg"},{"bike_id":"5324a727-d5bb-4d65-9620-50e6f4246357","system_id":"levelo_inurba_marseille","lat":43.28281,"lon":5.3507,"is_reserved":false,"is_disabled":false,"rental_uris":{"android":"levelo://app?vid=5324a727-d5bb-4d65-9620-50e6f4246357","ios":"levelo://app?vid=5324a727-d5bb-4d65-9620-50e6f4246357"},"vehicle_type_id":"4","last_reported":1727353062,"current_range_meters":39200,"station_id":"ce4bhbp2rcd13ifvqerg","pricing_plan_id":"cebpf4jnsgd1na2vs0mg"},{"bike_id":"cdb7a522-b16f-4254-9f51-a7c80ffe17c3","system_id":"levelo_inurba_marseille","lat":43.30952,"lon":5.39029,"is_reserved":false,"is_disabled":false,"rental_uris":{"android":"levelo://app?vid=cdb7a522-b16f-4254-9f51-a7c80ffe17c3","ios":"levelo://app?vid=cdb7a522-b16f-4254-9f51-a7c80ffe17c3"},"vehicle_type_id":"4","last_reported":1727353062,"current_range_meters":28400,"station_id":"ce4bgup2rcd13ifvqco0","pricing_plan_id":"cebpf4jnsgd1na2vs0mg"},{"bike_id":"730a8251-d94a-4277-99a9-1c8f6d01216c","system_id":"levelo_inurba_marseille","lat":43.25932,"lon":5.40913,"is_reserved":false,"is_disabled":false,"rental_uris":{"android":"levelo://app?vid=730a8251-d94a-4277-99a9-1c8f6d01216c","ios":"levelo://app?vid=730a8251-d94a-4277-99a9-1c8f6d01216c"},"vehicle_type_id":"4","last_reported":1727353062,"current_range_meters":17600,"station_id":"ce4bhm92rcd13ifvqglg","pricing_plan_id":"cebpf4jnsgd1na2vs0mg"},{"bike_id":"9a63318d-709b-4ebe-9b9d-47128f5c0044","system_id":"levelo_inurba_marseille","lat":43.28109,"lon":5.37841,"is_reserved":false,"is_disabled":false,"rental_uris":{"android":"levelo://app?vid=9a63318d-709b-4ebe-9b9d-47128f5c0044","ios":"levelo://app?vid=9a63318d-709b-4ebe-9b9d-47128f5c0044"},"vehicle_type_id":"4","last_reported":1727353062,"current_range_meters":24800,"station_id":"ce4bha12rcd13ifvqee0","pricing_plan_id":"cebpf4jnsgd1na2vs0mg"},{"bike_id":"5f6c79fc-4a32-4034-b731-a210b1c8c48d","system_id":"levelo_inurba_marseille","lat":43.3053,"lon":5.36701,"is_reserved":false,"is_disabled":false,"rental_uris":{"android":"levelo://app?vid=5f6c79fc-4a32-4034-b731-a210b1c8c48d","ios":"levelo://app?vid=5f6c79fc-4a32-4034-b731-a210b1c8c48d"},"vehicle_type_id":"4","last_reported":1727353062,"current_range_meters":8800,"station_id":"ce4bgrp2rcd13ifvqc9g","pricing_plan_id":"cebpf4jnsgd1na2vs0mg"},{"bike_id":"46de4706-00c4-439a-9fc7-9f1f176151d1","system_id":"levelo_inurba_marseille","lat":43.34153,"lon":5.40902,"is_reserved":false,"is_disabled":false,"rental_uris":{"android":"levelo://app?vid=46de4706-00c4-439a-9fc7-9f1f176151d1","ios":"levelo://app?vid=46de4706-00c4-439a-9fc7-9f1f176151d1"},"vehicle_type_id":"4","last_reported":1727353062,"current_range_meters":29600,"station_id":"ce4bhqh2rcd13ifvqhlg","pricing_plan_id":"cebpf4jnsgd1na2vs0mg"},{"bike_id":"1de41ee2-b859-4346-824d-ed394262bb03","system_id":"levelo_inurba_marseille","lat":43.33761,"lon":5.37449,"is_reserved":false,"is_disabled":false,"rental_uris":{"android":"levelo://app?vid=1de41ee2-b859-4346-824d-ed394262bb03","ios":"levelo://app?vid=1de41ee2-b859-4346-824d-ed394262bb03"},"vehicle_type_id":"4","last_reported":1727353062,"current_range_meters":11600,"station_id":"","pricing_plan_id":"cebpf4jnsgd1na2vs0mg"},{"bike_id":"77c97b80-03e6-4816-abec-8831ed02cb98","system_id":"levelo_inurba_marseille","lat":43.2408,"lon":5.37762,"is_reserved":false,"is_disabled":false,"rental_uris":{"android":"levelo://app?vid=77c97b80-03e6-4816-abec-8831ed02cb98","ios":"levelo://app?vid=77c97b80-03e6-4816-abec-8831ed02cb98"},"vehicle_type_id":"4","last_reported":1727353062,"current_range_meters":10000,"station_id":"ce4bhnp2rcd13ifvqgvg","pricing_plan_id":"cebpf4jnsgd1na2vs0mg"},{"bike_id":"751bff45-76c1-4c5f-b949-27cb0e9aacd7","system_id":"levelo_inurba_marseille","lat":43.33756,"lon":5.3744,"is_reserved":false,"is_disabled":false,"rental_uris":{"android":"levelo://app?vid=751bff45-76c1-4c5f-b949-27cb0e9aacd7","ios":"levelo://app?vid=751bff45-76c1-4c5f-b949-27cb0e9aacd7"},"vehicle_type_id":"4","last_reported":1727353062,"current_range_meters":36800,"station_id":"","pricing_plan_id":"cebpf4jnsgd1na2vs0mg"},{"bike_id":"be6597c7-36df-467d-8d7f-8202a760e6f4","system_id":"levelo_inurba_marseille","lat":43.31354,"lon":5.36709,"is_reserved":false,"is_disabled":false,"rental_uris":{"android":"levelo://app?vid=be6597c7-36df-467d-8d7f-8202a760e6f4","ios":"levelo://app?vid=be6597c7-36df-467d-8d7f-8202a760e6f4"},"vehicle_type_id":"4","last_reported":1727353062,"current_range_meters":10800,"station_id":"ce4bgr92rcd13ifvqc6g","pricing_plan_id":"cebpf4jnsgd1na2vs0mg"},{"bike_id":"e33155c3-5b24-4966-85f2-9d7ed55aac1b","system_id":"levelo_inurba_marseille","lat":43.29843,"lon":5.36264,"is_reserved":false,"is_disabled":false,"rental_uris":{"android":"levelo://app?vid=e33155c3-5b24-4966-85f2-9d7ed55aac1b","ios":"levelo://app?vid=e33155c3-5b24-4966-85f2-9d7ed55aac1b"},"vehicle_type_id":"4","last_reported":1727353062,"current_range_meters":22400,"station_id":"ce4bgpp2rcd13ifvqc3g","pricing_plan_id":"cebpf4jnsgd1na2vs0mg"},{"bike_id":"0004b464-eb06-47ff-aeac-7444391bbabd","system_id":"levelo_inurba_marseille","lat":43.29668,"lon":5.37296,"is_reserved":false,"is_disabled":false,"rental_uris":{"android":"levelo://app?vid=0004b464-eb06-47ff-aeac-7444391bbabd","ios":"levelo://app?vid=0004b464-eb06-47ff-aeac-7444391bbabd"},"vehicle_type_id":"4","last_reported":1727353062,"current_range_meters":38400,"station_id":"ce4bgk12rcd13ifvqbj0","pricing_plan_id":"cebpf4jnsgd1na2vs0mg"},{"bike_id":"4adda478-8381-4a9e-a6cc-d2a41fc26b39","system_id":"levelo_inurba_marseille","lat":43.28848,"lon":5.39318,"is_reserved":false,"is_disabled":false,"rental_uris":{"android":"levelo://app?vid=4adda478-8381-4a9e-a6cc-d2a41fc26b39","ios":"levelo://app?vid=4adda478-8381-4a9e-a6cc-d2a41fc26b39"},"vehicle_type_id":"4","last_reported":1727353062,"current_range_meters":17600,"station_id":"ce4bh2p2rcd13ifvqdi0","pricing_plan_id":"cebpf4jnsgd1na2vs0mg"},{"bike_id":"b89f3c75-62ef-439a-891a-3e5717a4b61a","system_id":"levelo_inurba_marseille","lat":43.27939,"lon":5.37943,"is_reserved":false,"is_disabled":false,"rental_uris":{"android":"levelo://app?vid=b89f3c75-62ef-439a-891a-3e5717a4b61a","ios":"levelo://app?vid=b89f3c75-62ef-439a-891a-3e5717a4b61a"},"vehicle_type_id":"4","last_reported":1727353062,"current_range_meters":23200,"station_id":"","pricing_plan_id":"cebpf4jnsgd1na2vs0mg"},{"bike_id":"3d2e8957-e1d2-4ecd-8063-b80c3be7421c","system_id":"levelo_inurba_marseille","lat":43.26692,"lon":5.38268,"is_reserved":false,"is_disabled":false,"rental_uris":{"android":"levelo://app?vid=3d2e8957-e1d2-4ecd-8063-b80c3be7421c","ios":"levelo://app?vid=3d2e8957-e1d2-4ecd-8063-b80c3be7421c"},"vehicle_type_id":"4","last_reported":1727353062,"current_range_meters":22400,"station_id":"ce4bhg92rcd13ifvqf90","pricing_plan_id":"cebpf4jnsgd1na2vs0mg"},{"bike_id":"e6fabcfe-0eeb-48d1-b6d7-42aa0ee06aea","system_id":"levelo_inurba_marseille","lat":43.27619,"lon":5.36115,"is_reserved":false,"is_disabled":false,"rental_uris":{"android":"levelo://app?vid=e6fabcfe-0eeb-48d1-b6d7-42aa0ee06aea","ios":"levelo://app?vid=e6fabcfe-0eeb-48d1-b6d7-42aa0ee06aea"},"vehicle_type_id":"4","last_reported":1727353062,"current_range_meters":38800,"station_id":"ce4bgj92rcd13ifvqbe0","pricing_plan_id":"cebpf4jnsgd1na2vs0mg"},{"bike_id":"d09adde8-f165-44a9-93d0-c21f91722e50","system_id":"levelo_inurba_marseille","lat":43.28358,"lon":5.38104,"is_reserved":false,"is_disabled":false,"rental_uris":{"android":"levelo://app?vid=d09adde8-f165-44a9-93d0-c21f91722e50","ios":"levelo://app?vid=d09adde8-f165-44a9-93d0-c21f91722e50"},"vehicle_type_id":"4","last_reported":1727353062,"current_range_meters":20400,"station_id":"ce4bh412rcd13ifvqdr0","pricing_plan_id":"cebpf4jnsgd1na2vs0mg"},{"bike_id":"a5529e17-4f96-4640-b47e-82a84310e672","system_id":"levelo_inurba_marseille","lat":43.31322,"lon":5.367,"is_reserved":false,"is_disabled":false,"rental_uris":{"android":"levelo://app?vid=a5529e17-4f96-4640-b47e-82a84310e672","ios":"levelo://app?vid=a5529e17-4f96-4640-b47e-82a84310e672"},"vehicle_type_id":"4","last_reported":1727353062,"current_range_meters":17600,"station_id":"ce4bgr92rcd13ifvqc6g","pricing_plan_id":"cebpf4jnsgd1na2vs0mg"},{"bike_id":"9334cef6-46d0-4b5f-9cc6-7a54b7f5c35d","system_id":"levelo_inurba_marseille","lat":43.29794,"lon":5.3934,"is_reserved":false,"is_disabled":false,"rental_uris":{"android":"levelo://app?vid=9334cef6-46d0-4b5f-9cc6-7a54b7f5c35d","ios":"levelo://app?vid=9334cef6-46d0-4b5f-9cc6-7a54b7f5c35d"},"vehicle_type_id":"4","last_reported":1727353062,"current_range_meters":22800,"station_id":"chh1huq6cuj3fo74tm60","pricing_plan_id":"cebpf4jnsgd1na2vs0mg"},{"bike_id":"230bbcf1-4d98-48bd-9c96-b456d7de3aae","system_id":"levelo_inurba_marseille","lat":43.29783,"lon":5.39331,"is_reserved":false,"is_disabled":false,"rental_uris":{"android":"levelo://app?vid=230bbcf1-4d98-48bd-9c96-b456d7de3aae","ios":"levelo://app?vid=230bbcf1-4d98-48bd-9c96-b456d7de3aae"},"vehicle_type_id":"4","last_reported":1727353062,"current_range_meters":24400,"station_id":"chh1huq6cuj3fo74tm60","pricing_plan_id":"cebpf4jnsgd1na2vs0mg"},{"bike_id":"15091c48-fa1f-42b0-a263-2568d4978cd4","system_id":"levelo_inurba_marseille","lat":43.24082,"lon":5.37758,"is_reserved":false,"is_disabled":false,"rental_uris":{"android":"levelo://app?vid=15091c48-fa1f-42b0-a263-2568d4978cd4","ios":"levelo://app?vid=15091c48-fa1f-42b0-a263-2568d4978cd4"},"vehicle_type_id":"4","last_reported":1727353062,"current_range_meters":14000,"station_id":"ce4bhnp2rcd13ifvqgvg","pricing_plan_id":"cebpf4jnsgd1na2vs0mg"},{"bike_id":"9238ad14-e0d5-4c32-9a08-f97260c3768d","system_id":"levelo_inurba_marseille","lat":43.32483,"lon":5.36573,"is_reserved":false,"is_disabled":false,"rental_uris":{"android":"levelo://app?vid=9238ad14-e0d5-4c32-9a08-f97260c3768d","ios":"levelo://app?vid=9238ad14-e0d5-4c32-9a08-f97260c3768d"},"vehicle_type_id":"4","last_reported":1727353062,"current_range_meters":28400,"station_id":"ce4bhs12rcd13ifvqhvg","pricing_plan_id":"cebpf4jnsgd1na2vs0mg"},{"bike_id":"c2e5a81e-6912-4cb0-98ad-5f3df477fa43","system_id":"levelo_inurba_marseille","lat":43.29004,"lon":5.37581,"is_reserved":false,"is_disabled":false,"rental_uris":{"android":"levelo://app?vid=c2e5a81e-6912-4cb0-98ad-5f3df477fa43","ios":"levelo://app?vid=c2e5a81e-6912-4cb0-98ad-5f3df477fa43"},"vehicle_type_id":"4","last_reported":1727353062,"current_range_meters":37600,"station_id":"ce4bh692rcd13ifvqe90","pricing_plan_id":"cebpf4jnsgd1na2vs0mg"},{"bike_id":"3f8308e1-7d6c-4759-b3e7-86f24d3853c1","system_id":"levelo_inurba_marseille","lat":43.24807,"lon":5.37455,"is_reserved":false,"is_disabled":false,"rental_uris":{"android":"levelo://app?vid=3f8308e1-7d6c-4759-b3e7-86f24d3853c1","ios":"levelo://app?vid=3f8308e1-7d6c-4759-b3e7-86f24d3853c1"},"vehicle_type_id":"4","last_reported":1727353062,"current_range_meters":30400,"station_id":"ce4bhgh2rcd13ifvqfb0","pricing_plan_id":"cebpf4jnsgd1na2vs0mg"},{"bike_id":"f4892042-9f74-4254-8868-6cd65f3109ac","system_id":"levelo_inurba_marseille","lat":43.27613,"lon":5.3611,"is_reserved":false,"is_disabled":false,"rental_uris":{"android":"levelo://app?vid=f4892042-9f74-4254-8868-6cd65f3109ac","ios":"levelo://app?vid=f4892042-9f74-4254-8868-6cd65f3109ac"},"vehicle_type_id":"4","last_reported":1727353062,"current_range_meters":28800,"station_id":"ce4bgj92rcd13ifvqbe0","pricing_plan_id":"cebpf4jnsgd1na2vs0mg"},{"bike_id":"e4d55da8-9a0e-4c4d-8c5f-3b668bd4aeae","system_id":"levelo_inurba_marseille","lat":43.23155,"lon":5.43699,"is_reserved":false,"is_disabled":false,"rental_uris":{"android":"levelo://app?vid=e4d55da8-9a0e-4c4d-8c5f-3b668bd4aeae","ios":"levelo://app?vid=e4d55da8-9a0e-4c4d-8c5f-3b668bd4aeae"},"vehicle_type_id":"4","last_reported":1727353062,"current_range_meters":14800,"station_id":"ce4bhmp2rcd13ifvqgog","pricing_plan_id":"cebpf4jnsgd1na2vs0mg"},{"bike_id":"8460a7e8-1a9d-4ecf-8e31-4e5a3fd8d5e0","system_id":"levelo_inurba_marseille","lat":43.29933,"lon":5.36546,"is_reserved":false,"is_disabled":false,"rental_uris":{"android":"levelo://app?vid=8460a7e8-1a9d-4ecf-8e31-4e5a3fd8d5e0","ios":"levelo://app?vid=8460a7e8-1a9d-4ecf-8e31-4e5a3fd8d5e0"},"vehicle_type_id":"4","last_reported":1727353062,"current_range_meters":16400,"station_id":"ce4bgm92rcd13ifvqbr0","pricing_plan_id":"cebpf4jnsgd1na2vs0mg"},{"bike_id":"f41f63ca-4400-483a-b198-c78d5282c487","system_id":"levelo_inurba_marseille","lat":43.292725,"lon":5.36845,"is_reserved":false,"is_disabled":false,"rental_uris":{"android":"levelo://app?vid=f41f63ca-4400-483a-b198-c78d5282c487","ios":"levelo://app?vid=f41f63ca-4400-483a-b198-c78d5282c487"},"vehicle_type_id":"4","last_reported":1727353062,"current_range_meters":25600,"station_id":"ce4bhbp2rcd13ifvqesg","pricing_plan_id":"cebpf4jnsgd1na2vs0mg"},{"bike_id":"4db21545-57a2-489a-9353-2966b8f5bf0e","system_id":"levelo_inurba_marseille","lat":43.29923,"lon":5.37471,"is_reserved":false,"is_disabled":false,"rental_uris":{"android":"levelo://app?vid=4db21545-57a2-489a-9353-2966b8f5bf0e","ios":"levelo://app?vid=4db21545-57a2-489a-9353-2966b8f5bf0e"},"vehicle_type_id":"4","last_reported":1727353062,"current_range_meters":29600,"station_id":"ce4bgjh2rcd13ifvqbg0","pricing_plan_id":"cebpf4jnsgd1na2vs0mg"},{"bike_id":"64577474-503b-47b8-ba02-db6057494fc8","system_id":"levelo_inurba_marseille","lat":43.25941,"lon":5.40906,"is_reserved":false,"is_disabled":false,"rental_uris":{"android":"levelo://app?vid=64577474-503b-47b8-ba02-db6057494fc8","ios":"levelo://app?vid=64577474-503b-47b8-ba02-db6057494fc8"},"vehicle_type_id":"4","last_reported":1727353062,"current_range_meters":34000,"station_id":"ce4bhm92rcd13ifvqglg","pricing_plan_id":"cebpf4jnsgd1na2vs0mg"},{"bike_id":"2838c3b1-75b7-40b1-8f0c-0d005fb9dee7","system_id":"levelo_inurba_marseille","lat":43.32554,"lon":5.41434,"is_reserved":false,"is_disabled":false,"rental_uris":{"android":"levelo://app?vid=2838c3b1-75b7-40b1-8f0c-0d005fb9dee7","ios":"levelo://app?vid=2838c3b1-75b7-40b1-8f0c-0d005fb9dee7"},"vehicle_type_id":"4","last_reported":1727353062,"current_range_meters":14400,"station_id":"ce4bhq12rcd13ifvqhhg","pricing_plan_id":"cebpf4jnsgd1na2vs0mg"},{"bike_id":"2596586d-b295-4207-8e38-fee431434c52","system_id":"levelo_inurba_marseille","lat":43.25581,"lon":5.38224,"is_reserved":false,"is_disabled":false,"rental_uris":{"android":"levelo://app?vid=2596586d-b295-4207-8e38-fee431434c52","ios":"levelo://app?vid=2596586d-b295-4207-8e38-fee431434c52"},"vehicle_type_id":"4","last_reported":1727353062,"current_range_meters":4400,"station_id":"ce4bhih2rcd13ifvqfs0","pricing_plan_id":"cebpf4jnsgd1na2vs0mg"},{"bike_id":"8daa29e7-59b8-4d33-b3a3-84845f7aff9b","system_id":"levelo_inurba_marseille","lat":43.26201,"lon":5.37934,"is_reserved":false,"is_disabled":false,"rental_uris":{"android":"levelo://app?vid=8daa29e7-59b8-4d33-b3a3-84845f7aff9b","ios":"levelo://app?vid=8daa29e7-59b8-4d33-b3a3-84845f7aff9b"},"vehicle_type_id":"4","last_reported":1727353062,"current_range_meters":38800,"station_id":"ce4bhjp2rcd13ifvqg90","pricing_plan_id":"cebpf4jnsgd1na2vs0mg"},{"bike_id":"c6ebdc49-4729-4e81-a2ad-ad9c2b48e60f","system_id":"levelo_inurba_marseille","lat":43.29936,"lon":5.36543,"is_reserved":false,"is_disabled":false,"rental_uris":{"android":"levelo://app?vid=c6ebdc49-4729-4e81-a2ad-ad9c2b48e60f","ios":"levelo://app?vid=c6ebdc49-4729-4e81-a2ad-ad9c2b48e60f"},"vehicle_type_id":"4","last_reported":1727353062,"current_range_meters":31200,"station_id":"ce4bgm92rcd13ifvqbr0","pricing_plan_id":"cebpf4jnsgd1na2vs0mg"},{"bike_id":"c029c5c7-7c08-40b0-8f5b-4234eae40036","system_id":"levelo_inurba_marseille","lat":43.29982,"lon":5.37183,"is_reserved":false,"is_disabled":false,"rental_uris":{"android":"levelo://app?vid=c029c5c7-7c08-40b0-8f5b-4234eae40036","ios":"levelo://app?vid=c029c5c7-7c08-40b0-8f5b-4234eae40036"},"vehicle_type_id":"4","last_reported":1727353062,"current_range_meters":14400,"station_id":"ce4bgr92rcd13ifvqc7g","pricing_plan_id":"cebpf4jnsgd1na2vs0mg"},{"bike_id":"6b2d6110-047a-4374-b820-0abaa9613131","system_id":"levelo_inurba_marseille","lat":43.32487,"lon":5.36569,"is_reserved":false,"is_disabled":false,"rental_uris":{"android":"levelo://app?vid=6b2d6110-047a-4374-b820-0abaa9613131","ios":"levelo://app?vid=6b2d6110-047a-4374-b820-0abaa9613131"},"vehicle_type_id":"4","last_reported":1727353062,"current_range_meters":36400,"station_id":"ce4bhs12rcd13ifvqhvg","pricing_plan_id":"cebpf4jnsgd1na2vs0mg"},{"bike_id":"b90aebb6-9350-4611-bb73-5ffa7602d9ca","system_id":"levelo_inurba_marseille","lat":43.26686,"lon":5.38267,"is_reserved":false,"is_disabled":false,"rental_uris":{"android":"levelo://app?vid=b90aebb6-9350-4611-bb73-5ffa7602d9ca","ios":"levelo://app?vid=b90aebb6-9350-4611-bb73-5ffa7602d9ca"},"vehicle_type_id":"4","last_reported":1727353062,"current_range_meters":24800,"station_id":"ce4bhg92rcd13ifvqf90","pricing_plan_id":"cebpf4jnsgd1na2vs0mg"},{"bike_id":"a7bca3df-0344-4204-86d7-b742d4769839","system_id":"levelo_inurba_marseille","lat":43.30863,"lon":5.3685,"is_reserved":false,"is_disabled":false,"rental_uris":{"android":"levelo://app?vid=a7bca3df-0344-4204-86d7-b742d4769839","ios":"levelo://app?vid=a7bca3df-0344-4204-86d7-b742d4769839"},"vehicle_type_id":"4","last_reported":1727353062,"current_range_meters":23200,"station_id":"ce4bgn92rcd13ifvqbvg","pricing_plan_id":"cebpf4jnsgd1na2vs0mg"},{"bike_id":"5c7fb83d-7077-470b-a72d-fee97a064713","system_id":"levelo_inurba_marseille","lat":43.29413,"lon":5.38625,"is_reserved":false,"is_disabled":false,"rental_uris":{"android":"levelo://app?vid=5c7fb83d-7077-470b-a72d-fee97a064713","ios":"levelo://app?vid=5c7fb83d-7077-470b-a72d-fee97a064713"},"vehicle_type_id":"4","last_reported":1727353062,"current_range_meters":22000,"station_id":"ce4bh2h2rcd13ifvqdh0","pricing_plan_id":"cebpf4jnsgd1na2vs0mg"},{"bike_id":"5c5d6480-15ef-41d1-819d-f6b78d27575d","system_id":"levelo_inurba_marseille","lat":43.29852,"lon":5.36265,"is_reserved":false,"is_disabled":false,"rental_uris":{"android":"levelo://app?vid=5c5d6480-15ef-41d1-819d-f6b78d27575d","ios":"levelo://app?vid=5c5d6480-15ef-41d1-819d-f6b78d27575d"},"vehicle_type_id":"4","last_reported":1727353062,"current_range_meters":24400,"station_id":"ce4bgpp2rcd13ifvqc3g","pricing_plan_id":"cebpf4jnsgd1na2vs0mg"},{"bike_id":"e2185c61-26f7-4091-889e-e4c95491693c","system_id":"levelo_inurba_marseille","lat":43.31761,"lon":5.39019,"is_reserved":false,"is_disabled":false,"rental_uris":{"android":"levelo://app?vid=e2185c61-26f7-4091-889e-e4c95491693c","ios":"levelo://app?vid=e2185c61-26f7-4091-889e-e4c95491693c"},"vehicle_type_id":"4","last_reported":1727353062,"current_range_meters":32000,"station_id":"ce4bhqp2rcd13ifvqhng","pricing_plan_id":"cebpf4jnsgd1na2vs0mg"},{"bike_id":"e5f5e059-71ec-49c1-93cc-d17fd0b52a35","system_id":"levelo_inurba_marseille","lat":43.23188,"lon":5.39981,"is_reserved":false,"is_disabled":false,"rental_uris":{"android":"levelo://app?vid=e5f5e059-71ec-49c1-93cc-d17fd0b52a35","ios":"levelo://app?vid=e5f5e059-71ec-49c1-93cc-d17fd0b52a35"},"vehicle_type_id":"4","last_reported":1727353062,"current_range_meters":38800,"station_id":"ce4bhn12rcd13ifvqgqg","pricing_plan_id":"cebpf4jnsgd1na2vs0mg"},{"bike_id":"b2eaefb3-38a9-4f3e-a3d2-026dcff570ab","system_id":"levelo_inurba_marseille","lat":43.28007,"lon":5.4001,"is_reserved":false,"is_disabled":false,"rental_uris":{"android":"levelo://app?vid=b2eaefb3-38a9-4f3e-a3d2-026dcff570ab","ios":"levelo://app?vid=b2eaefb3-38a9-4f3e-a3d2-026dcff570ab"},"vehicle_type_id":"4","last_reported":1727353062,"current_range_meters":6400,"station_id":"ce4bho92rcd13ifvqh4g","pricing_plan_id":"cebpf4jnsgd1na2vs0mg"},{"bike_id":"c4aa13e2-c652-43d3-bab2-5c4f97a382f3","system_id":"levelo_inurba_marseille","lat":43.292,"lon":5.39301,"is_reserved":false,"is_disabled":false,"rental_uris":{"android":"levelo://app?vid=c4aa13e2-c652-43d3-bab2-5c4f97a382f3","ios":"levelo://app?vid=c4aa13e2-c652-43d3-bab2-5c4f97a382f3"},"vehicle_type_id":"4","last_reported":1727353062,"current_range_meters":28000,"station_id":"ce4bh192rcd13ifvqdd0","pricing_plan_id":"cebpf4jnsgd1na2vs0mg"},{"bike_id":"80d1d5df-61ca-4f88-bada-c65e746a68df","system_id":"levelo_inurba_marseille","lat":43.2985,"lon":5.36271,"is_reserved":false,"is_disabled":false,"rental_uris":{"android":"levelo://app?vid=80d1d5df-61ca-4f88-bada-c65e746a68df","ios":"levelo://app?vid=80d1d5df-61ca-4f88-bada-c65e746a68df"},"vehicle_type_id":"4","last_reported":1727353062,"current_range_meters":39200,"station_id":"ce4bgpp2rcd13ifvqc3g","pricing_plan_id":"cebpf4jnsgd1na2vs0mg"},{"bike_id":"7827170f-fe53-4f76-acc5-1f9d10e67145","system_id":"levelo_inurba_marseille","lat":43.22928,"lon":5.35377,"is_reserved":false,"is_disabled":false,"rental_uris":{"android":"levelo://app?vid=7827170f-fe53-4f76-acc5-1f9d10e67145","ios":"levelo://app?vid=7827170f-fe53-4f76-acc5-1f9d10e67145"},"vehicle_type_id":"4","last_reported":1727353062,"current_range_meters":33600,"station_id":"cpo3532slgdg3j2ikp40","pricing_plan_id":"cebpf4jnsgd1na2vs0mg"},{"bike_id":"ec284f70-023f-4d5d-a708-d495b9ffbbb7","system_id":"levelo_inurba_marseille","lat":43.2635,"lon":5.37839,"is_reserved":false,"is_disabled":false,"rental_uris":{"android":"levelo://app?vid=ec284f70-023f-4d5d-a708-d495b9ffbbb7","ios":"levelo://app?vid=ec284f70-023f-4d5d-a708-d495b9ffbbb7"},"vehicle_type_id":"4","last_reported":1727353062,"current_range_meters":24400,"station_id":"","pricing_plan_id":"cebpf4jnsgd1na2vs0mg"},{"bike_id":"038f80b5-65f0-47ef-9d43-617ee9f0ac37","system_id":"levelo_inurba_marseille","lat":43.30542,"lon":5.36537,"is_reserved":false,"is_disabled":false,"rental_uris":{"android":"levelo://app?vid=038f80b5-65f0-47ef-9d43-617ee9f0ac37","ios":"levelo://app?vid=038f80b5-65f0-47ef-9d43-617ee9f0ac37"},"vehicle_type_id":"4","last_reported":1727353062,"current_range_meters":38400,"station_id":"ce4bgs12rcd13ifvqcag","pricing_plan_id":"cebpf4jnsgd1na2vs0mg"},{"bike_id":"157f7689-527e-441f-a964-13ae834a107b","system_id":"levelo_inurba_marseille","lat":43.30798,"lon":5.37659,"is_reserved":false,"is_disabled":false,"rental_uris":{"android":"levelo://app?vid=157f7689-527e-441f-a964-13ae834a107b","ios":"levelo://app?vid=157f7689-527e-441f-a964-13ae834a107b"},"vehicle_type_id":"4","last_reported":1727353062,"current_range_meters":16000,"station_id":"ce4bgv92rcd13ifvqcq0","pricing_plan_id":"cebpf4jnsgd1na2vs0mg"},{"bike_id":"1a5ff2f2-037b-47b0-ab16-58ad767047aa","system_id":"levelo_inurba_marseille","lat":43.33757,"lon":5.3744,"is_reserved":false,"is_disabled":false,"rental_uris":{"android":"levelo://app?vid=1a5ff2f2-037b-47b0-ab16-58ad767047aa","ios":"levelo://app?vid=1a5ff2f2-037b-47b0-ab16-58ad767047aa"},"vehicle_type_id":"4","last_reported":1727353062,"current_range_meters":36000,"station_id":"","pricing_plan_id":"cebpf4jnsgd1na2vs0mg"},{"bike_id":"4a4bfd88-bdfc-4802-b3a8-e798e4274727","system_id":"levelo_inurba_marseille","lat":43.32293,"lon":5.38254,"is_reserved":false,"is_disabled":false,"rental_uris":{"android":"levelo://app?vid=4a4bfd88-bdfc-4802-b3a8-e798e4274727","ios":"levelo://app?vid=4a4bfd88-bdfc-4802-b3a8-e798e4274727"},"vehicle_type_id":"4","last_reported":1727353062,"current_range_meters":24400,"station_id":"ce4bhr12rcd13ifvqhqg","pricing_plan_id":"cebpf4jnsgd1na2vs0mg"},{"bike_id":"d4047513-d5a6-4fa3-9d6c-2845eb19f685","system_id":"levelo_inurba_marseille","lat":43.28405,"lon":5.38597,"is_reserved":false,"is_disabled":false,"rental_uris":{"android":"levelo://app?vid=d4047513-d5a6-4fa3-9d6c-2845eb19f685","ios":"levelo://app?vid=d4047513-d5a6-4fa3-9d6c-2845eb19f685"},"vehicle_type_id":"4","last_reported":1727353062,"current_range_meters":29600,"station_id":"ce4bh492rcd13ifvqdvg","pricing_plan_id":"cebpf4jnsgd1na2vs0mg"},{"bike_id":"d66a4195-867e-4bfb-ba88-b3cd6797fa0f","system_id":"levelo_inurba_marseille","lat":43.27498,"lon":5.42449,"is_reserved":false,"is_disabled":false,"rental_uris":{"android":"levelo://app?vid=d66a4195-867e-4bfb-ba88-b3cd6797fa0f","ios":"levelo://app?vid=d66a4195-867e-4bfb-ba88-b3cd6797fa0f"},"vehicle_type_id":"4","last_reported":1727353062,"current_range_meters":30000,"station_id":"ce4bhn92rcd13ifvqgrg","pricing_plan_id":"cebpf4jnsgd1na2vs0mg"},{"bike_id":"81c79a5f-f1a7-4420-97f8-092caaa8c88e","system_id":"levelo_inurba_marseille","lat":43.30549,"lon":5.367083,"is_reserved":false,"is_disabled":false,"rental_uris":{"android":"levelo://app?vid=81c79a5f-f1a7-4420-97f8-092caaa8c88e","ios":"levelo://app?vid=81c79a5f-f1a7-4420-97f8-092caaa8c88e"},"vehicle_type_id":"4","last_reported":1727353062,"current_range_meters":16400,"station_id":"ce4bgrp2rcd13ifvqc9g","pricing_plan_id":"cebpf4jnsgd1na2vs0mg"},{"bike_id":"b8d4cfe5-fa00-4798-bb3b-a5cd96b0fee5","system_id":"levelo_inurba_marseille","lat":43.24218,"lon":5.38437,"is_reserved":false,"is_disabled":false,"rental_uris":{"android":"levelo://app?vid=b8d4cfe5-fa00-4798-bb3b-a5cd96b0fee5","ios":"levelo://app?vid=b8d4cfe5-fa00-4798-bb3b-a5cd96b0fee5"},"vehicle_type_id":"4","last_reported":1727353062,"current_range_meters":8400,"station_id":"","pricing_plan_id":"cebpf4jnsgd1na2vs0mg"},{"bike_id":"111913fd-9868-4825-ba13-764d9a6556a9","system_id":"levelo_inurba_marseille","lat":43.30557,"lon":5.36529,"is_reserved":false,"is_disabled":false,"rental_uris":{"android":"levelo://app?vid=111913fd-9868-4825-ba13-764d9a6556a9","ios":"levelo://app?vid=111913fd-9868-4825-ba13-764d9a6556a9"},"vehicle_type_id":"4","last_reported":1727353062,"current_range_meters":38800,"station_id":"ce4bgs12rcd13ifvqcag","pricing_plan_id":"cebpf4jnsgd1na2vs0mg"},{"bike_id":"acbe5730-72ba-4d9e-9c9f-56deaaa27f50","system_id":"levelo_inurba_marseille","lat":43.3091,"lon":5.36848,"is_reserved":false,"is_disabled":false,"rental_uris":{"android":"levelo://app?vid=acbe5730-72ba-4d9e-9c9f-56deaaa27f50","ios":"levelo://app?vid=acbe5730-72ba-4d9e-9c9f-56deaaa27f50"},"vehicle_type_id":"4","last_reported":1727353062,"current_range_meters":18000,"station_id":"ce4bgn92rcd13ifvqbvg","pricing_plan_id":"cebpf4jnsgd1na2vs0mg"},{"bike_id":"60f0c4c6-64d8-4661-b389-3d71ac7b7230","system_id":"levelo_inurba_marseille","lat":43.28939,"lon":5.36645,"is_reserved":false,"is_disabled":false,"rental_uris":{"android":"levelo://app?vid=60f0c4c6-64d8-4661-b389-3d71ac7b7230","ios":"levelo://app?vid=60f0c4c6-64d8-4661-b389-3d71ac7b7230"},"vehicle_type_id":"4","last_reported":1727353062,"current_range_meters":23200,"station_id":"ce4bhap2rcd13ifvqek0","pricing_plan_id":"cebpf4jnsgd1na2vs0mg"},{"bike_id":"47e48473-75de-4224-a771-4afe2080aabb","system_id":"levelo_inurba_marseille","lat":43.30205,"lon":5.36636,"is_reserved":false,"is_disabled":false,"rental_uris":{"android":"levelo://app?vid=47e48473-75de-4224-a771-4afe2080aabb","ios":"levelo://app?vid=47e48473-75de-4224-a771-4afe2080aabb"},"vehicle_type_id":"4","last_reported":1727353062,"current_range_meters":12800,"station_id":"ce4bgrh2rcd13ifvqc8g","pricing_plan_id":"cebpf4jnsgd1na2vs0mg"},{"bike_id":"98e41583-259b-49a5-9279-aa1bac1ed566","system_id":"levelo_inurba_marseille","lat":43.30543,"lon":5.36536,"is_reserved":false,"is_disabled":false,"rental_uris":{"android":"levelo://app?vid=98e41583-259b-49a5-9279-aa1bac1ed566","ios":"levelo://app?vid=98e41583-259b-49a5-9279-aa1bac1ed566"},"vehicle_type_id":"4","last_reported":1727353062,"current_range_meters":36000,"station_id":"ce4bgs12rcd13ifvqcag","pricing_plan_id":"cebpf4jnsgd1na2vs0mg"},{"bike_id":"8b1c6698-cd99-42a4-8f7c-970d46686118","system_id":"levelo_inurba_marseille","lat":43.26685,"lon":5.38261,"is_reserved":false,"is_disabled":false,"rental_uris":{"android":"levelo://app?vid=8b1c6698-cd99-42a4-8f7c-970d46686118","ios":"levelo://app?vid=8b1c6698-cd99-42a4-8f7c-970d46686118"},"vehicle_type_id":"4","last_reported":1727353062,"current_range_meters":36000,"station_id":"ce4bhg92rcd13ifvqf90","pricing_plan_id":"cebpf4jnsgd1na2vs0mg"},{"bike_id":"b6e3ef7f-c1cf-4568-b11a-a8989b81ab5c","system_id":"levelo_inurba_marseille","lat":43.31368,"lon":5.38491,"is_reserved":false,"is_disabled":false,"rental_uris":{"android":"levelo://app?vid=b6e3ef7f-c1cf-4568-b11a-a8989b81ab5c","ios":"levelo://app?vid=b6e3ef7f-c1cf-4568-b11a-a8989b81ab5c"},"vehicle_type_id":"4","last_reported":1727353062,"current_range_meters":22400,"station_id":"ce4bgt92rcd13ifvqcf0","pricing_plan_id":"cebpf4jnsgd1na2vs0mg"},{"bike_id":"bc7cab11-b0dd-4a42-9999-31fe6a17dee2","system_id":"levelo_inurba_marseille","lat":43.29847,"lon":5.36259,"is_reserved":false,"is_disabled":false,"rental_uris":{"android":"levelo://app?vid=bc7cab11-b0dd-4a42-9999-31fe6a17dee2","ios":"levelo://app?vid=bc7cab11-b0dd-4a42-9999-31fe6a17dee2"},"vehicle_type_id":"4","last_reported":1727353062,"current_range_meters":37600,"station_id":"ce4bgpp2rcd13ifvqc3g","pricing_plan_id":"cebpf4jnsgd1na2vs0mg"},{"bike_id":"eda8bcde-5e1d-4538-802b-7a2e14d9f52d","system_id":"levelo_inurba_marseille","lat":43.22926,"lon":5.3537,"is_reserved":false,"is_disabled":false,"rental_uris":{"android":"levelo://app?vid=eda8bcde-5e1d-4538-802b-7a2e14d9f52d","ios":"levelo://app?vid=eda8bcde-5e1d-4538-802b-7a2e14d9f52d"},"vehicle_type_id":"4","last_reported":1727353062,"current_range_meters":22400,"station_id":"cpo3532slgdg3j2ikp40","pricing_plan_id":"cebpf4jnsgd1na2vs0mg"},{"bike_id":"3248cfca-14b1-4e29-9e61-fc41002a7afa","system_id":"levelo_inurba_marseille","lat":43.26948,"lon":5.38625,"is_reserved":false,"is_disabled":false,"rental_uris":{"android":"levelo://app?vid=3248cfca-14b1-4e29-9e61-fc41002a7afa","ios":"levelo://app?vid=3248cfca-14b1-4e29-9e61-fc41002a7afa"},"vehicle_type_id":"4","last_reported":1727353062,"current_range_meters":23200,"station_id":"ce4bhh92rcd13ifvqfh0","pricing_plan_id":"cebpf4jnsgd1na2vs0mg"},{"bike_id":"1e6b0c16-c6ca-44c3-8633-a751ebbb6842","system_id":"levelo_inurba_marseille","lat":43.28609,"lon":5.37069,"is_reserved":false,"is_disabled":false,"rental_uris":{"android":"levelo://app?vid=1e6b0c16-c6ca-44c3-8633-a751ebbb6842","ios":"levelo://app?vid=1e6b0c16-c6ca-44c3-8633-a751ebbb6842"},"vehicle_type_id":"4","last_reported":1727353062,"current_range_meters":31200,"station_id":"ce4bht12rcd13ifvqi60","pricing_plan_id":"cebpf4jnsgd1na2vs0mg"},{"bike_id":"7e06aaaa-a3eb-45f3-b488-d847eb00575d","system_id":"levelo_inurba_marseille","lat":43.30537,"lon":5.36537,"is_reserved":false,"is_disabled":false,"rental_uris":{"android":"levelo://app?vid=7e06aaaa-a3eb-45f3-b488-d847eb00575d","ios":"levelo://app?vid=7e06aaaa-a3eb-45f3-b488-d847eb00575d"},"vehicle_type_id":"4","last_reported":1727353062,"current_range_meters":39200,"station_id":"ce4bgs12rcd13ifvqcag","pricing_plan_id":"cebpf4jnsgd1na2vs0mg"},{"bike_id":"49944727-cba5-4e3c-9932-9a69821399bd","system_id":"levelo_inurba_marseille","lat":43.30148,"lon":5.37408,"is_reserved":false,"is_disabled":false,"rental_uris":{"android":"levelo://app?vid=49944727-cba5-4e3c-9932-9a69821399bd","ios":"levelo://app?vid=49944727-cba5-4e3c-9932-9a69821399bd"},"vehicle_type_id":"4","last_reported":1727353062,"current_range_meters":28400,"station_id":"ce4bgs92rcd13ifvqcc0","pricing_plan_id":"cebpf4jnsgd1na2vs0mg"},{"bike_id":"80b47960-913f-41dd-92b6-b416a7ba96d1","system_id":"levelo_inurba_marseille","lat":43.30909,"lon":5.36844,"is_reserved":false,"is_disabled":false,"rental_uris":{"android":"levelo://app?vid=80b47960-913f-41dd-92b6-b416a7ba96d1","ios":"levelo://app?vid=80b47960-913f-41dd-92b6-b416a7ba96d1"},"vehicle_type_id":"4","last_reported":1727353062,"current_range_meters":35200,"station_id":"ce4bgn92rcd13ifvqbvg","pricing_plan_id":"cebpf4jnsgd1na2vs0mg"},{"bike_id":"b346460b-67e9-49d6-8bf1-75645a62cdbf","system_id":"levelo_inurba_marseille","lat":43.25586,"lon":5.38227,"is_reserved":false,"is_disabled":false,"rental_uris":{"android":"levelo://app?vid=b346460b-67e9-49d6-8bf1-75645a62cdbf","ios":"levelo://app?vid=b346460b-67e9-49d6-8bf1-75645a62cdbf"},"vehicle_type_id":"4","last_reported":1727353062,"current_range_meters":40000,"station_id":"ce4bhih2rcd13ifvqfs0","pricing_plan_id":"cebpf4jnsgd1na2vs0mg"},{"bike_id":"74f69eea-f376-47b1-8806-d128c0c648d9","system_id":"levelo_inurba_marseille","lat":43.29797,"lon":5.39341,"is_reserved":false,"is_disabled":false,"rental_uris":{"android":"levelo://app?vid=74f69eea-f376-47b1-8806-d128c0c648d9","ios":"levelo://app?vid=74f69eea-f376-47b1-8806-d128c0c648d9"},"vehicle_type_id":"4","last_reported":1727353062,"current_range_meters":32400,"station_id":"chh1huq6cuj3fo74tm60","pricing_plan_id":"cebpf4jnsgd1na2vs0mg"},