{"last_updated":1717690181,"ttl":30,"version":"2.2","data":{"bikes":[{"bike_id":"05b57707-50ba-4399-8909-7a245943c0e8","system_id":"levelo_inurba_marseille","lat":43.314811,"lon":5.373103,"is_reserved":false,"is_disabled":false,"rental_uris":{"android":"levelo://app?vid=05b57707-50ba-4399-8909-7a245943c0e8","ios":"levelo://app?vid=05b57707-50ba-4399-8909-7a245943c0e8"},"vehicle_type_id":"4","last_reported":1717690181,"current_range_meters":19600,"station_id":"ce4bgt12rcd13ifvqcd0","pricing_plan_id":"cebpf4jnsgd1na2vs0mg"},{"bike_id":"c942bf5b-75ac-4104-a02d-0def45b74a42","system_id":"levelo_inurba_marseille","lat":43.309034,"lon":5.371783,"is_reserved":false,"is_disabled":false,"rental_uris":{"android":"levelo://app?vid=c942bf5b-75ac-4104-a02d-0def45b74a42","ios":"levelo://app?vid=c942bf5b-75ac-4104-a02d-0def45b74a42"},"vehicle_type_id":"4","last_reported":1717690181,"current_range_meters":4000,"station_id":"ce4bguh2rcd13ifvqckg","pricing_plan_id":"cebpf4jnsgd1na2vs0mg"},{"bike_id":"bcc199cd-2473-4d5e-a6f6-7571688baee5","system_id":"levelo_inurba_marseille","lat":43.315117,"lon":5.374869,"is_reserved":false,"is_disabled":false,"rental_uris":{"android":"levelo://app?vid=bcc199cd-2473-4d5e-a6f6-7571688baee5","ios":"levelo://app?vid=bcc199cd-2473-4d5e-a6f6-7571688baee5"},"vehicle_type_id":"4","last_reported":1717690181,"current_range_meters":0,"station_id":"","pricing_plan_id":"cebpf4jnsgd1na2vs0mg"},{"bike_id":"ee7383d4-fdd8-46f9-ad27-c5193471fa6d","system_id":"levelo_inurba_marseille","lat":43.3158,"lon":5.37483,"is_reserved":false,"is_disabled":false,"rental_uris":{"android":"levelo://app?vid=ee7383d4-fdd8-46f9-ad27-c5193471fa6d","ios":"levelo://app?vid=ee7383d4-fdd8-46f9-ad27-c5193471fa6d"},"vehicle_type_id":"4","last_reported":1717690181,"current_range_meters":2400,"station_id":"","pricing_plan_id":"cebpf4jnsgd1na2vs0mg"},{"bike_id":"f7f9b4b3-e832-4231-ab13-5efe9108aec6","system_id":"levelo_inurba_marseille","lat":43.305368,"lon":5.367343,"is_reserved":false,"is_disabled":false,"rental_uris":{"android":"levelo://app?vid=f7f9b4b3-e832-4231-ab13-5efe9108aec6","ios":"levelo://app?vid=f7f9b4b3-e832-4231-ab13-5efe9108aec6"},"vehicle_type_id":"4","last_reported":1717690181,"current_range_meters":0,"station_id":"ce4bgrp2rcd13ifvqc9g","pricing_plan_id":"cebpf4jnsgd1na2vs0mg"},{"bike_id":"83da9f41-4c7a-4fc2-9c58-e2f295fd3b61","system_id":"levelo_inurba_marseille","lat":43.305989,"lon":5.37225,"is_reserved":false,"is_disabled":false,"rental_uris":{"android":"levelo://app?vid=83da9f41-4c7a-4fc2-9c58-e2f295fd3b61","ios":"levelo://app?vid=83da9f41-4c7a-4fc2-9c58-e2f295fd3b61"},"vehicle_type_id":"4","last_reported":1717690181,"current_range_meters":0,"station_id":"ce4bgqh2rcd13ifvqc4g","pricing_plan_id":"cebpf4jnsgd1na2vs0mg"},{"bike_id":"2e05cf8a-fc1b-4fe7-b811-640d426402e7","system_id":"levelo_inurba_marseille","lat":43.311125,"lon":5.377624,"is_reserved":false,"is_disabled":false,"rental_uris":{"android":"levelo://app?vid=2e05cf8a-fc1b-4fe7-b811-640d426402e7","ios":"levelo://app?vid=2e05cf8a-fc1b-4fe7-b811-640d426402e7"},"vehicle_type_id":"4","last_reported":1717690181,"current_range_meters":14400,"station_id":"ce4bgt92rcd13ifvqcg0","pricing_plan_id":"cebpf4jnsgd1na2vs0mg"},{"bike_id":"6a83dc5f-1790-4eba-8f25-d68a2fcef23d","system_id":"levelo_inurba_marseille","lat":43.307945,"lon":5.376487,"is_reserved":false,"is_disabled":false,"rental_uris":{"android":"levelo://app?vid=6a83dc5f-1790-4eba-8f25-d68a2fcef23d","ios":"levelo://app?vid=6a83dc5f-1790-4eba-8f25-d68a2fcef23d"},"vehicle_type_id":"4","last_reported":1717690181,"current_range_meters":28800,"station_id":"ce4bgv92rcd13ifvqcq0","pricing_plan_id":"cebpf4jnsgd1na2vs0mg"},{"bike_id":"2c2f3672-dea0-4550-95ed-5248925060e2","system_id":"levelo_inurba_marseille","lat":43.317075,"lon":5.377367,"is_reserved":false,"is_disabled":false,"rental_uris":{"android":"levelo://app?vid=2c2f3672-dea0-4550-95ed-5248925060e2","ios":"levelo://app?vid=2c2f3672-dea0-4550-95ed-5248925060e2"},"vehicle_type_id":"4","last_reported":1717690181,"current_range_meters":22400,"station_id":"ce4bgth2rcd13ifvqch0","pricing_plan_id":"cebpf4jnsgd1na2vs0mg"},{"bike_id":"c5e837d1-2ce7-411a-a82d-157d5513674d","system_id":"levelo_inurba_marseille","lat":43.30304,"lon":5.368987,"is_reserved":false,"is_disabled":false,"rental_uris":{"android":"levelo://app?vid=c5e837d1-2ce7-411a-a82d-157d5513674d","ios":"levelo://app?vid=c5e837d1-2ce7-411a-a82d-157d5513674d"},"vehicle_type_id":"4","last_reported":1717690181,"current_range_meters":0,"station_id":"ce4bgqh2rcd13ifvqc5g","pricing_plan_id":"cebpf4jnsgd1na2vs0mg"},{"bike_id":"e491e043-7b74-4ad5-87eb-a4b891a1e89c","system_id":"levelo_inurba_marseille","lat":43.301939,"lon":5.366286,"is_reserved":false,"is_disabled":false,"rental_uris":{"android":"levelo://app?vid=e491e043-7b74-4ad5-87eb-a4b891a1e89c","ios":"levelo://app?vid=e491e043-7b74-4ad5-87eb-a4b891a1e89c"},"vehicle_type_id":"4","last_reported":1717690181,"current_range_meters":8800,"station_id":"ce4bgrh2rcd13ifvqc8g","pricing_plan_id":"cebpf4jnsgd1na2vs0mg"},{"bike_id":"dc29729a-9631-42f2-ab3b-945061cdcb1e","system_id":"levelo_inurba_marseille","lat":43.301969,"lon":5.366076,"is_reserved":false,"is_disabled":false,"rental_uris":{"android":"levelo://app?vid=dc29729a-9631-42f2-ab3b-945061cdcb1e","ios":"levelo://app?vid=dc29729a-9631-42f2-ab3b-945061cdcb1e"},"vehicle_type_id":"4","last_reported":1717690181,"current_range_meters":0,"station_id":"ce4bgrh2rcd13ifvqc8g","pricing_plan_id":"cebpf4jnsgd1na2vs0mg"},{"bike_id":"bfece02b-8c05-4ea6-a4a5-b613c61d7324","system_id":"levelo_inurba_marseille","lat":43.302228,"lon":5.371347,"is_reserved":false,"is_disabled":false,"rental_uris":{"android":"levelo://app?vid=bfece02b-8c05-4ea6-a4a5-b613c61d7324","ios":"levelo://app?vid=bfece02b-8c05-4ea6-a4a5-b613c61d7324"},"vehicle_type_id":"4","last_reported":1717690181,"current_range_meters":18800,"station_id":"","pricing_plan_id":"cebpf4jnsgd1na2vs0mg"},{"bike_id":"25a0b9f4-3312-42fc-8bc4-efc544809f2a","system_id":"levelo_inurba_marseille","lat":43.308012,"lon":5.381511,"is_reserved":false,"is_disabled":false,"rental_uris":{"android":"levelo://app?vid=25a0b9f4-3312-42fc-8bc4-efc544809f2a","ios":"levelo://app?vid=25a0b9f4-3312-42fc-8bc4-efc544809f2a"},"vehicle_type_id":"4","last_reported":1717690181,"current_range_meters":22000,"station_id":"ce4bgt12rcd13ifvqce0","pricing_plan_id":"cebpf4jnsgd1na2vs0mg"},{"bike_id":"639b8a6c-7700-4ac1-90d3-d43d1f7d91bf","system_id":"levelo_inurba_marseille","lat":43.308012,"lon":5.381511,"is_reserved":false,"is_disabled":false,"rental_uris":{"android":"levelo://app?vid=639b8a6c-7700-4ac1-90d3-d43d1f7d91bf","ios":"levelo://app?vid=639b8a6c-7700-4ac1-90d3-d43d1f7d91bf"},"vehicle_type_id":"4","last_reported":1717690181,"current_range_meters":12400,"station_id":"ce4bgt12rcd13ifvqce0","pricing_plan_id":"cebpf4jnsgd1na2vs0mg"},{"bike_id":"cb9a1e3d-f5ad-41b8-a77a-4510fef7b79c","system_id":"levelo_inurba_marseille","lat":43.308012,"lon":5.381511,"is_reserved":false,"is_disabled":false,"rental_uris":{"android":"levelo://app?vid=cb9a1e3d-f5ad-41b8-a77a-4510fef7b79c","ios":"levelo://app?vid=cb9a1e3d-f5ad-41b8-a77a-4510fef7b79c"},"vehicle_type_id":"4","last_reported":1717690181,"current_range_meters":17200,"station_id":"ce4bgt12rcd13ifvqce0","pricing_plan_id":"cebpf4jnsgd1na2vs0mg"},{"bike_id":"e968b5b8-ea2c-4e11-aa4c-a953c5e36158","system_id":"levelo_inurba_marseille","lat":43.304606,"lon":5.379026,"is_reserved":false,"is_disabled":false,"rental_uris":{"android":"levelo://app?vid=e968b5b8-ea2c-4e11-aa4c-a953c5e36158","ios":"levelo://app?vid=e968b5b8-ea2c-4e11-aa4c-a953c5e36158"},"vehicle_type_id":"4","last_reported":1717690181,"current_range_meters":20800,"station_id":"ce4bgup2rcd13ifvqcn0","pricing_plan_id":"cebpf4jnsgd1na2vs0mg"},{"bike_id":"f994ff5b-7f0a-4188-855e-9e16c1f025bf","system_id":"levelo_inurba_marseille","lat":43.324771,"lon":5.36557,"is_reserved":false,"is_disabled":false,"rental_uris":{"android":"levelo://app?vid=f994ff5b-7f0a-4188-855e-9e16c1f025bf","ios":"levelo://app?vid=f994ff5b-7f0a-4188-855e-9e16c1f025bf"},"vehicle_type_id":"4","last_reported":1717690181,"current_range_meters":4000,"station_id":"ce4bhs12rcd13ifvqhvg","pricing_plan_id":"cebpf4jnsgd1na2vs0mg"},{"bike_id":"63a51843-90d2-46cd-ba36-4227d040b7e6","system_id":"levelo_inurba_marseille","lat":43.324771,"lon":5.36557,"is_reserved":false,"is_disabled":false,"rental_uris":{"android":"levelo://app?vid=63a51843-90d2-46cd-ba36-4227d040b7e6","ios":"levelo://app?vid=63a51843-90d2-46cd-ba36-4227d040b7e6"},"vehicle_type_id":"4","last_reported":1717690181,"current_range_meters":10800,"station_id":"ce4bhs12rcd13ifvqhvg","pricing_plan_id":"cebpf4jnsgd1na2vs0mg"},{"bike_id":"4b931f01-8a8c-4212-8b8b-ead4aab57885","system_id":"levelo_inurba_marseille","lat":43.310804,"lon":5.38359,"is_reserved":false,"is_disabled":false,"rental_uris":{"android":"levelo://app?vid=4b931f01-8a8c-4212-8b8b-ead4aab57885","ios":"levelo://app?vid=4b931f01-8a8c-4212-8b8b-ead4aab57885"},"vehicle_type_id":"4","last_reported":1717690181,"current_range_meters":29200,"station_id":"ce4bgv92rcd13ifvqcr0","pricing_plan_id":"cebpf4jnsgd1na2vs0mg"},{"bike_id":"eebfb3ea-cba8-4cbb-996e-ce4b77026eac","system_id":"levelo_inurba_marseille","lat":43.302755,"lon":5.376863,"is_reserved":false,"is_disabled":false,"rental_uris":{"android":"levelo://app?vid=eebfb3ea-cba8-4cbb-996e-ce4b77026eac","ios":"levelo://app?vid=eebfb3ea-cba8-4cbb-996e-ce4b77026eac"},"vehicle_type_id":"4","last_reported":1717690181,"current_range_meters":0,"station_id":"ce4bguh2rcd13ifvqcj0","pricing_plan_id":"cebpf4jnsgd1na2vs0mg"},{"bike_id":"ae110a31-f78c-4f77-b911-ece8a5d9b32e","system_id":"levelo_inurba_marseille","lat":43.30143,"lon":5.37413,"is_reserved":false,"is_disabled":false,"rental_uris":{"android":"levelo://app?vid=ae110a31-f78c-4f77-b911-ece8a5d9b32e","ios":"levelo://app?vid=ae110a31-f78c-4f77-b911-ece8a5d9b32e"},"vehicle_type_id":"4","last_reported":1717690181,"current_range_meters":4400,"station_id":"ce4bgs92rcd13ifvqcc0","pricing_plan_id":"cebpf4jnsgd1na2vs0mg"},{"bike_id":"6956a22a-5313-4852-96e7-2ecced0675ee","system_id":"levelo_inurba_marseille","lat":43.301429,"lon":5.37413,"is_reserved":false,"is_disabled":false,"rental_uris":{"android":"levelo://app?vid=6956a22a-5313-4852-96e7-2ecced0675ee","ios":"levelo://app?vid=6956a22a-5313-4852-96e7-2ecced0675ee"},"vehicle_type_id":"4","last_reported":1717690181,"current_range_meters":14000,"station_id":"ce4bgs92rcd13ifvqcc0","pricing_plan_id":"cebpf4jnsgd1na2vs0mg"},{"bike_id":"be681434-ea54-4362-a468-b65b447fbf1d","system_id":"levelo_inurba_marseille","lat":43.319935,"lon":5.381699,"is_reserved":false,"is_disabled":false,"rental_uris":{"android":"levelo://app?vid=be681434-ea54-4362-a468-b65b447fbf1d","ios":"levelo://app?vid=be681434-ea54-4362-a468-b65b447fbf1d"},"vehicle_type_id":"4","last_reported":1717690181,"current_range_meters":21600,"station_id":"ce4bhr12rcd13ifvqhpg","pricing_plan_id":"cebpf4jnsgd1na2vs0mg"},{"bike_id":"3d24971d-47a4-4dc3-a909-8e90c37bdbe2","system_id":"levelo_inurba_marseille","lat":43.31991,"lon":5.38144,"is_reserved":false,"is_disabled":false,"rental_uris":{"android":"levelo://app?vid=3d24971d-47a4-4dc3-a909-8e90c37bdbe2","ios":"levelo://app?vid=3d24971d-47a4-4dc3-a909-8e90c37bdbe2"},"vehicle_type_id":"4","last_reported":1717690181,"current_range_meters":0,"station_id":"ce4bhr12rcd13ifvqhpg","pricing_plan_id":"cebpf4jnsgd1na2vs0mg"},{"bike_id":"5b3c1388-9432-43fa-a9e7-94a4cfffef8d","system_id":"levelo_inurba_marseille","lat":43.319935,"lon":5.381699,"is_reserved":false,"is_disabled":false,"rental_uris":{"android":"levelo://app?vid=5b3c1388-9432-43fa-a9e7-94a4cfffef8d","ios":"levelo://app?vid=5b3c1388-9432-43fa-a9e7-94a4cfffef8d"},"vehicle_type_id":"4","last_reported":1717690181,"current_range_meters":26400,"station_id":"ce4bhr12rcd13ifvqhpg","pricing_plan_id":"cebpf4jnsgd1na2vs0mg"},{"bike_id":"85decc12-00d1-4ba7-8461-e6882d58b36c","system_id":"levelo_inurba_marseille","lat":43.319935,"lon":5.381699,"is_reserved":false,"is_disabled":false,"rental_uris":{"android":"levelo://app?vid=85decc12-00d1-4ba7-8461-e6882d58b36c","ios":"levelo://app?vid=85decc12-00d1-4ba7-8461-e6882d58b36c"},"vehicle_type_id":"4","last_reported":1717690181,"current_range_meters":17600,"station_id":"ce4bhr12rcd13ifvqhpg","pricing_plan_id":"cebpf4jnsgd1na2vs0mg"},{"bike_id":"294693c1-cba8-4278-8b1b-7d85e7ebac18","system_id":"levelo_inurba_marseille","lat":43.313571,"lon":5.384829,"is_reserved":false,"is_disabled":false,"rental_uris":{"android":"levelo://app?vid=294693c1-cba8-4278-8b1b-7d85e7ebac18","ios":"levelo://app?vid=294693c1-cba8-4278-8b1b-7d85e7ebac18"},"vehicle_type_id":"4","last_reported":1717690181,"current_range_meters":0,"station_id":"ce4bgt92rcd13ifvqcf0","pricing_plan_id":"cebpf4jnsgd1na2vs0mg"},{"bike_id":"4430ce3c-6dac-4d15-a353-7dd06074dfc9","system_id":"levelo_inurba_marseille","lat":43.313571,"lon":5.384829,"is_reserved":false,"is_disabled":false,"rental_uris":{"android":"levelo://app?vid=4430ce3c-6dac-4d15-a353-7dd06074dfc9","ios":"levelo://app?vid=4430ce3c-6dac-4d15-a353-7dd06074dfc9"},"vehicle_type_id":"4","last_reported":1717690181,"current_range_meters":26800,"station_id":"ce4bgt92rcd13ifvqcf0","pricing_plan_id":"cebpf4jnsgd1na2vs0mg"},{"bike_id":"80ca46e8-e2bd-489b-8c19-67cc4903e2df","system_id":"levelo_inurba_marseille","lat":43.313571,"lon":5.384829,"is_reserved":false,"is_disabled":false,"rental_uris":{"android":"levelo://app?vid=80ca46e8-e2bd-489b-8c19-67cc4903e2df","ios":"levelo://app?vid=80ca46e8-e2bd-489b-8c19-67cc4903e2df"},"vehicle_type_id":"4","last_reported":1717690181,"current_range_meters":0,"station_id":"ce4bgt92rcd13ifvqcf0","pricing_plan_id":"cebpf4jnsgd1na2vs0mg"},{"bike_id":"023c6197-2a95-407d-8f77-c159134970c1","system_id":"levelo_inurba_marseille","lat":43.299222,"lon":5.365554,"is_reserved":false,"is_disabled":false,"rental_uris":{"android":"levelo://app?vid=023c6197-2a95-407d-8f77-c159134970c1","ios":"levelo://app?vid=023c6197-2a95-407d-8f77-c159134970c1"},"vehicle_type_id":"4","last_reported":1717690181,"current_range_meters":23600,"station_id":"ce4bgm92rcd13ifvqbr0","pricing_plan_id":"cebpf4jnsgd1na2vs0mg"},{"bike_id":"477f85a3-db3e-49a9-b928-af268974f444","system_id":"levelo_inurba_marseille","lat":43.305364,"lon":5.384119,"is_reserved":false,"is_disabled":false,"rental_uris":{"android":"levelo://app?vid=477f85a3-db3e-49a9-b928-af268974f444","ios":"levelo://app?vid=477f85a3-db3e-49a9-b928-af268974f444"},"vehicle_type_id":"4","last_reported":1717690181,"current_range_meters":18400,"station_id":"ce4bgg92rcd13ifvqb30","pricing_plan_id":"cebpf4jnsgd1na2vs0mg"},{"bike_id":"ae309bc0-783a-4dda-a256-512a9b6fdd36","system_id":"levelo_inurba_marseille","lat":43.305364,"lon":5.384119,"is_reserved":false,"is_disabled":false,"rental_uris":{"android":"levelo://app?vid=ae309bc0-783a-4dda-a256-512a9b6fdd36","ios":"levelo://app?vid=ae309bc0-783a-4dda-a256-512a9b6fdd36"},"vehicle_type_id":"4","last_reported":1717690181,"current_range_meters":6800,"station_id":"ce4bgg92rcd13ifvqb30","pricing_plan_id":"cebpf4jnsgd1na2vs0mg"},{"bike_id":"e4d68786-52d4-4f8f-a5e3-b2c3ed190323","system_id":"levelo_inurba_marseille","lat":43.299243,"lon":5.37481,"is_reserved":false,"is_disabled":false,"rental_uris":{"android":"levelo://app?vid=e4d68786-52d4-4f8f-a5e3-b2c3ed190323","ios":"levelo://app?vid=e4d68786-52d4-4f8f-a5e3-b2c3ed190323"},"vehicle_type_id":"4","last_reported":1717690181,"current_range_meters":5200,"station_id":"ce4bgjh2rcd13ifvqbg0","pricing_plan_id":"cebpf4jnsgd1na2vs0mg"},{"bike_id":"65310090-f908-4cbd-baba-1e859c38d846","system_id":"levelo_inurba_marseille","lat":43.299243,"lon":5.374807,"is_reserved":false,"is_disabled":false,"rental_uris":{"android":"levelo://app?vid=65310090-f908-4cbd-baba-1e859c38d846","ios":"levelo://app?vid=65310090-f908-4cbd-baba-1e859c38d846"},"vehicle_type_id":"4","last_reported":1717690181,"current_range_meters":1600,"station_id":"ce4bgjh2rcd13ifvqbg0","pricing_plan_id":"cebpf4jnsgd1na2vs0mg"},{"bike_id":"f297aa92-6836-45c3-830f-4155508f5be3","system_id":"levelo_inurba_marseille","lat":43.311722,"lon":5.387247,"is_reserved":false,"is_disabled":false,"rental_uris":{"android":"levelo://app?vid=f297aa92-6836-45c3-830f-4155508f5be3","ios":"levelo://app?vid=f297aa92-6836-45c3-830f-4155508f5be3"},"vehicle_type_id":"4","last_reported":1717690181,"current_range_meters":26000,"station_id":"ce4bgv12rcd13ifvqcp0","pricing_plan_id":"cebpf4jnsgd1na2vs0mg"},{"bike_id":"57dc2834-190c-4c28-acba-54d3a647eb22","system_id":"levelo_inurba_marseille","lat":43.31175,"lon":5.38721,"is_reserved":false,"is_disabled":false,"rental_uris":{"android":"levelo://app?vid=57dc2834-190c-4c28-acba-54d3a647eb22","ios":"levelo://app?vid=57dc2834-190c-4c28-acba-54d3a647eb22"},"vehicle_type_id":"4","last_reported":1717690181,"current_range_meters":16400,"station_id":"ce4bgv12rcd13ifvqcp0","pricing_plan_id":"cebpf4jnsgd1na2vs0mg"},{"bike_id":"e1515bed-3efa-4122-bf8c-c193caa66712","system_id":"levelo_inurba_marseille","lat":43.297774,"lon":5.370875,"is_reserved":false,"is_disabled":false,"rental_uris":{"android":"levelo://app?vid=e1515bed-3efa-4122-bf8c-c193caa66712","ios":"levelo://app?vid=e1515bed-3efa-4122-bf8c-c193caa66712"},"vehicle_type_id":"4","last_reported":1717690181,"current_range_meters":1600,"station_id":"ce4bgop2rcd13ifvqc1g","pricing_plan_id":"cebpf4jnsgd1na2vs0mg"},{"bike_id":"62303e78-8a78-47b4-9569-876f118b3d0e","system_id":"levelo_inurba_marseille","lat":43.322872,"lon":5.382756,"is_reserved":false,"is_disabled":false,"rental_uris":{"android":"levelo://app?vid=62303e78-8a78-47b4-9569-876f118b3d0e","ios":"levelo://app?vid=62303e78-8a78-47b4-9569-876f118b3d0e"},"vehicle_type_id":"4","last_reported":1717690181,"current_range_meters":6800,"station_id":"ce4bhr12rcd13ifvqhqg","pricing_plan_id":"cebpf4jnsgd1na2vs0mg"},{"bike_id":"fbac4e32-df3e-47a6-906f-f55b105eb4c7","system_id":"levelo_inurba_marseille","lat":43.322761,"lon":5.38282,"is_reserved":false,"is_disabled":false,"rental_uris":{"android":"levelo://app?vid=fbac4e32-df3e-47a6-906f-f55b105eb4c7","ios":"levelo://app?vid=fbac4e32-df3e-47a6-906f-f55b105eb4c7"},"vehicle_type_id":"4","last_reported":1717690181,"current_range_meters":0,"station_id":"ce4bhr12rcd13ifvqhqg","pricing_plan_id":"cebpf4jnsgd1na2vs0mg"},{"bike_id":"5af64b06-0ce1-47ee-a85b-61ac19f018d8","system_id":"levelo_inurba_marseille","lat":43.322872,"lon":5.382756,"is_reserved":false,"is_disabled":false,"rental_uris":{"android":"levelo://app?vid=5af64b06-0ce1-47ee-a85b-61ac19f018d8","ios":"levelo://app?vid=5af64b06-0ce1-47ee-a85b-61ac19f018d8"},"vehicle_type_id":"4","last_reported":1717690181,"current_range_meters":12400,"station_id":"ce4bhr12rcd13ifvqhqg","pricing_plan_id":"cebpf4jnsgd1na2vs0mg"},{"bike_id":"dfb2485f-e885-43b3-9ccf-de2eaf30e0e8","system_id":"levelo_inurba_marseille","lat":43.297774,"lon":5.370875,"is_reserved":false,"is_disabled":false,"rental_uris":{"android":"levelo://app?vid=dfb2485f-e885-43b3-9ccf-de2eaf30e0e8","ios":"levelo://app?vid=dfb2485f-e885-43b3-9ccf-de2eaf30e0e8"},"vehicle_type_id":"4","last_reported":1717690181,"current_range_meters":0,"station_id":"ce4bgop2rcd13ifvqc1g","pricing_plan_id":"cebpf4jnsgd1na2vs0mg"},{"bike_id":"af9d38c9-2ae1-4ab4-a10a-7142d041bdda","system_id":"levelo_inurba_marseille","lat":43.29709,"lon":5.36611,"is_reserved":false,"is_disabled":false,"rental_uris":{"android":"levelo://app?vid=af9d38c9-2ae1-4ab4-a10a-7142d041bdda","ios":"levelo://app?vid=af9d38c9-2ae1-4ab4-a10a-7142d041bdda"},"vehicle_type_id":"4","last_reported":1717690181,"current_range_meters":0,"station_id":"ce4bgn12rcd13ifvqbt0","pricing_plan_id":"cebpf4jnsgd1na2vs0mg"},{"bike_id":"96da77ed-51af-41bc-a753-0140b12c7209","system_id":"levelo_inurba_marseille","lat":43.2968,"lon":5.37291,"is_reserved":false,"is_disabled":false,"rental_uris":{"android":"levelo://app?vid=96da77ed-51af-41bc-a753-0140b12c7209","ios":"levelo://app?vid=96da77ed-51af-41bc-a753-0140b12c7209"},"vehicle_type_id":"4","last_reported":1717690181,"current_range_meters":31200,"station_id":"ce4bgk12rcd13ifvqbj0","pricing_plan_id":"cebpf4jnsgd1na2vs0mg"},{"bike_id":"aabadc5d-cbfb-48dc-a20c-0105d8f9aa7c","system_id":"levelo_inurba_marseille","lat":43.2968,"lon":5.37291,"is_reserved":false,"is_disabled":false,"rental_uris":{"android":"levelo://app?vid=aabadc5d-cbfb-48dc-a20c-0105d8f9aa7c","ios":"levelo://app?vid=aabadc5d-cbfb-48dc-a20c-0105d8f9aa7c"},"vehicle_type_id":"4","last_reported":1717690181,"current_range_meters":0,"station_id":"ce4bgk12rcd13ifvqbj0","pricing_plan_id":"cebpf4jnsgd1na2vs0mg"},{"bike_id":"0630808b-b6d9-4138-8f3d-e0a6375eb3c1","system_id":"levelo_inurba_marseille","lat":43.321583,"lon":5.386703,"is_reserved":false,"is_disabled":false,"rental_uris":{"android":"levelo://app?vid=0630808b-b6d9-4138-8f3d-e0a6375eb3c1","ios":"levelo://app?vid=0630808b-b6d9-4138-8f3d-e0a6375eb3c1"},"vehicle_type_id":"4","last_reported":1717690181,"current_range_meters":6800,"station_id":"","pricing_plan_id":"cebpf4jnsgd1na2vs0mg"},{"bike_id":"455fe2ae-afb5-419b-9d30-bec554437c94","system_id":"levelo_inurba_marseille","lat":43.296131,"lon":5.370773,"is_reserved":false,"is_disabled":false,"rental_uris":{"android":"levelo://app?vid=455fe2ae-afb5-419b-9d30-bec554437c94","ios":"levelo://app?vid=455fe2ae-afb5-419b-9d30-bec554437c94"},"vehicle_type_id":"4","last_reported":1717690181,"current_range_meters":30000,"station_id":"ce4bgnh2rcd13ifvqc0g","pricing_plan_id":"cebpf4jnsgd1na2vs0mg"},{"bike_id":"b0a93934-116b-4af4-a50b-7bfa44a433ac","system_id":"levelo_inurba_marseille","lat":43.296129,"lon":5.370777,"is_reserved":false,"is_disabled":false,"rental_uris":{"android":"levelo://app?vid=b0a93934-116b-4af4-a50b-7bfa44a433ac","ios":"levelo://app?vid=b0a93934-116b-4af4-a50b-7bfa44a433ac"},"vehicle_type_id":"4","last_reported":1717690181,"current_range_meters":0,"station_id":"ce4bgnh2rcd13ifvqc0g","pricing_plan_id":"cebpf4jnsgd1na2vs0mg"},{"bike_id":"187c43d7-81f3-446d-b05c-157e976a71ce","system_id":"levelo_inurba_marseille","lat":43.295768,"lon":5.367544,"is_reserved":false,"is_disabled":false,"rental_uris":{"android":"levelo://app?vid=187c43d7-81f3-446d-b05c-157e976a71ce","ios":"levelo://app?vid=187c43d7-81f3-446d-b05c-157e976a71ce"},"vehicle_type_id":"4","last_reported":1717690181,"current_range_meters":0,"station_id":"ce4bgph2rcd13ifvqc2g","pricing_plan_id":"cebpf4jnsgd1na2vs0mg"},{"bike_id":"bead9a40-7ead-4303-b55f-8d7dee2ba435","system_id":"levelo_inurba_marseille","lat":43.299028,"lon":5.381509,"is_reserved":false,"is_disabled":false,"rental_uris":{"android":"levelo://app?vid=bead9a40-7ead-4303-b55f-8d7dee2ba435","ios":"levelo://app?vid=bead9a40-7ead-4303-b55f-8d7dee2ba435"},"vehicle_type_id":"4","last_reported":1717690181,"current_range_meters":400,"station_id":"ce4bgj12rcd13ifvqbc0","pricing_plan_id":"cebpf4jnsgd1na2vs0mg"},{"bike_id":"ccd69b7d-b832-427b-9e6e-8b0a6c65fcc6","system_id":"levelo_inurba_marseille","lat":43.317557,"lon":5.390173,"is_reserved":false,"is_disabled":false,"rental_uris":{"android":"levelo://app?vid=ccd69b7d-b832-427b-9e6e-8b0a6c65fcc6","ios":"levelo://app?vid=ccd69b7d-b832-427b-9e6e-8b0a6c65fcc6"},"vehicle_type_id":"4","last_reported":1717690181,"current_range_meters":0,"station_id":"ce4bhqp2rcd13ifvqhng","pricing_plan_id":"cebpf4jnsgd1na2vs0mg"},{"bike_id":"30e28276-6d26-4730-9ce0-87cd4125f696","system_id":"levelo_inurba_marseille","lat":43.317557,"lon":5.390173,"is_reserved":false,"is_disabled":false,"rental_uris":{"android":"levelo://app?vid=30e28276-6d26-4730-9ce0-87cd4125f696","ios":"levelo://app?vid=30e28276-6d26-4730-9ce0-87cd4125f696"},"vehicle_type_id":"4","last_reported":1717690181,"current_range_meters":30000,"station_id":"ce4bhqp2rcd13ifvqhng","pricing_plan_id":"cebpf4jnsgd1na2vs0mg"},{"bike_id":"856c9da9-6c43-4e01-a933-c89d0e8ab112","system_id":"levelo_inurba_marseille","lat":43.296359,"lon":5.376197,"is_reserved":false,"is_disabled":false,"rental_uris":{"android":"levelo://app?vid=856c9da9-6c43-4e01-a933-c89d0e8ab112","ios":"levelo://app?vid=856c9da9-6c43-4e01-a933-c89d0e8ab112"},"vehicle_type_id":"4","last_reported":1717690181,"current_range_meters":16800,"station_id":"","pricing_plan_id":"cebpf4jnsgd1na2vs0mg"},{"bike_id":"82b5ada4-1f06-473c-912d-c42ba4cd885e","system_id":"levelo_inurba_marseille","lat":43.295859,"lon":5.374936,"is_reserved":false,"is_disabled":false,"rental_uris":{"android":"levelo://app?vid=82b5ada4-1f06-473c-912d-c42ba4cd885e","ios":"levelo://app?vid=82b5ada4-1f06-473c-912d-c42ba4cd885e"},"vehicle_type_id":"4","last_reported":1717690181,"current_range_meters":0,"station_id":"ce4bgk12rcd13ifvqbj0","pricing_plan_id":"cebpf4jnsgd1na2vs0mg"},{"bike_id":"6bff3438-67de-4aeb-9a35-282cf7aaa91a","system_id":"levelo_inurba_marseille","lat":43.29797,"lon":5.38103,"is_reserved":false,"is_disabled":false,"rental_uris":{"android":"levelo://app?vid=6bff3438-67de-4aeb-9a35-282cf7aaa91a","ios":"levelo://app?vid=6bff3438-67de-4aeb-9a35-282cf7aaa91a"},"vehicle_type_id":"4","last_reported":1717690181,"current_range_meters":0,"station_id":"ce4bgip2rcd13ifvqbb0","pricing_plan_id":"cebpf4jnsgd1na2vs0mg"},{"bike_id":"042852ca-ca6b-4411-986d-acbafa2dd9a6","system_id":"levelo_inurba_marseille","lat":43.297748,"lon":5.380688,"is_reserved":false,"is_disabled":false,"rental_uris":{"android":"levelo://app?vid=042852ca-ca6b-4411-986d-acbafa2dd9a6","ios":"levelo://app?vid=042852ca-ca6b-4411-986d-acbafa2dd9a6"},"vehicle_type_id":"4","last_reported":1717690181,"current_range_meters":0,"station_id":"ce4bgip2rcd13ifvqbb0","pricing_plan_id":"cebpf4jnsgd1na2vs0mg"},{"bike_id":"2c31efdf-065f-46cd-8aed-f1f38854d489","system_id":"levelo_inurba_marseille","lat":43.304278,"lon":5.388868,"is_reserved":false,"is_disabled":false,"rental_uris":{"android":"levelo://app?vid=2c31efdf-065f-46cd-8aed-f1f38854d489","ios":"levelo://app?vid=2c31efdf-065f-46cd-8aed-f1f38854d489"},"vehicle_type_id":"4","last_reported":1717690181,"current_range_meters":17200,"station_id":"ce4bgk12rcd13ifvqbi0","pricing_plan_id":"cebpf4jnsgd1na2vs0mg"},{"bike_id":"04e18276-f439-49c5-a58f-d37c997948de","system_id":"levelo_inurba_marseille","lat":43.295748,"lon":5.37522,"is_reserved":false,"is_disabled":false,"rental_uris":{"android":"levelo://app?vid=04e18276-f439-49c5-a58f-d37c997948de","ios":"levelo://app?vid=04e18276-f439-49c5-a58f-d37c997948de"},"vehicle_type_id":"4","last_reported":1717690181,"current_range_meters":28800,"station_id":"ce4bgh92rcd13ifvqb50","pricing_plan_id":"cebpf4jnsgd1na2vs0mg"},{"bike_id":"51f76e56-0c07-4f56-a573-a0f36e0dde7e","system_id":"levelo_inurba_marseille","lat":43.304274,"lon":5.388873,"is_reserved":false,"is_disabled":false,"rental_uris":{"android":"levelo://app?vid=51f76e56-0c07-4f56-a573-a0f36e0dde7e","ios":"levelo://app?vid=51f76e56-0c07-4f56-a573-a0f36e0dde7e"},"vehicle_type_id":"4","last_reported":1717690181,"current_range_meters":4000,"station_id":"ce4bgk12rcd13ifvqbi0","pricing_plan_id":"cebpf4jnsgd1na2vs0mg"},{"bike_id":"af5dbfbc-2c19-4322-8781-c74d758af2b4","system_id":"levelo_inurba_marseille","lat":43.304278,"lon":5.388868,"is_reserved":false,"is_disabled":false,"rental_uris":{"android":"levelo://app?vid=af5dbfbc-2c19-4322-8781-c74d758af2b4","ios":"levelo://app?vid=af5dbfbc-2c19-4322-8781-c74d758af2b4"},"vehicle_type_id":"4","last_reported":1717690181,"current_range_meters":0,"station_id":"ce4bgk12rcd13ifvqbi0","pricing_plan_id":"cebpf4jnsgd1na2vs0mg"},{"bike_id":"4fb9974e-023f-4cad-ac21-de16e875b399","system_id":"levelo_inurba_marseille","lat":43.297852,"lon":5.381101,"is_reserved":false,"is_disabled":false,"rental_uris":{"android":"levelo://app?vid=4fb9974e-023f-4cad-ac21-de16e875b399","ios":"levelo://app?vid=4fb9974e-023f-4cad-ac21-de16e875b399"},"vehicle_type_id":"4","last_reported":1717690181,"current_range_meters":0,"station_id":"ce4bgip2rcd13ifvqbb0","pricing_plan_id":"cebpf4jnsgd1na2vs0mg"},{"bike_id":"e07a7f84-bc7e-4c0b-a831-a7c078fc7e8e","system_id":"levelo_inurba_marseille","lat":43.29479,"lon":5.36313,"is_reserved":false,"is_disabled":false,"rental_uris":{"android":"levelo://app?vid=e07a7f84-bc7e-4c0b-a831-a7c078fc7e8e","ios":"levelo://app?vid=e07a7f84-bc7e-4c0b-a831-a7c078fc7e8e"},"vehicle_type_id":"4","last_reported":1717690181,"current_range_meters":13600,"station_id":"","pricing_plan_id":"cebpf4jnsgd1na2vs0mg"},{"bike_id":"613963d8-f8cd-4373-9bac-1e2ee9184217","system_id":"levelo_inurba_marseille","lat":43.2962,"lon":5.37732,"is_reserved":false,"is_disabled":false,"rental_uris":{"android":"levelo://app?vid=613963d8-f8cd-4373-9bac-1e2ee9184217","ios":"levelo://app?vid=613963d8-f8cd-4373-9bac-1e2ee9184217"},"vehicle_type_id":"4","last_reported":1717690181,"current_range_meters":0,"station_id":"ce4bgi92rcd13ifvqb90","pricing_plan_id":"cebpf4jnsgd1na2vs0mg"},{"bike_id":"696287a4-b6c7-4c10-b99b-761bb3f6994c","system_id":"levelo_inurba_marseille","lat":43.296263,"lon":5.377094,"is_reserved":false,"is_disabled":false,"rental_uris":{"android":"levelo://app?vid=696287a4-b6c7-4c10-b99b-761bb3f6994c","ios":"levelo://app?vid=696287a4-b6c7-4c10-b99b-761bb3f6994c"},"vehicle_type_id":"4","last_reported":1717690181,"current_range_meters":8000,"station_id":"ce4bgi92rcd13ifvqb90","pricing_plan_id":"cebpf4jnsgd1na2vs0mg"},{"bike_id":"96bd3b17-464d-4a71-8100-605ffff863d6","system_id":"levelo_inurba_marseille","lat":43.29609,"lon":5.37721,"is_reserved":false,"is_disabled":false,"rental_uris":{"android":"levelo://app?vid=96bd3b17-464d-4a71-8100-605ffff863d6","ios":"levelo://app?vid=96bd3b17-464d-4a71-8100-605ffff863d6"},"vehicle_type_id":"4","last_reported":1717690181,"current_range_meters":0,"station_id":"ce4bgi92rcd13ifvqb90","pricing_plan_id":"cebpf4jnsgd1na2vs0mg"},{"bike_id":"e71f0c74-1b92-4ac4-a074-1bdf3b2c4a8d","system_id":"levelo_inurba_marseille","lat":43.299724,"lon":5.384848,"is_reserved":false,"is_disabled":false,"rental_uris":{"android":"levelo://app?vid=e71f0c74-1b92-4ac4-a074-1bdf3b2c4a8d","ios":"levelo://app?vid=e71f0c74-1b92-4ac4-a074-1bdf3b2c4a8d"},"vehicle_type_id":"4","last_reported":1717690181,"current_range_meters":23600,"station_id":"ce4bgj92rcd13ifvqbd0","pricing_plan_id":"cebpf4jnsgd1na2vs0mg"},{"bike_id":"cad3fd36-9f2f-4eea-9490-950d05be643d","system_id":"levelo_inurba_marseille","lat":43.299717,"lon":5.384845,"is_reserved":false,"is_disabled":false,"rental_uris":{"android":"levelo://app?vid=cad3fd36-9f2f-4eea-9490-950d05be643d","ios":"levelo://app?vid=cad3fd36-9f2f-4eea-9490-950d05be643d"},"vehicle_type_id":"4","last_reported":1717690181,"current_range_meters":6400,"station_id":"ce4bgj92rcd13ifvqbd0","pricing_plan_id":"cebpf4jnsgd1na2vs0mg"},{"bike_id":"415eaec9-99c6-443b-b756-a18b4ef2675b","system_id":"levelo_inurba_marseille","lat":43.299724,"lon":5.384848,"is_reserved":false,"is_disabled":false,"rental_uris":{"android":"levelo://app?vid=415eaec9-99c6-443b-b756-a18b4ef2675b","ios":"levelo://app?vid=415eaec9-99c6-443b-b756-a18b4ef2675b"},"vehicle_type_id":"4","last_reported":1717690181,"current_range_meters":1600,"station_id":"ce4bgj92rcd13ifvqbd0","pricing_plan_id":"cebpf4jnsgd1na2vs0mg"},{"bike_id":"2b3e8657-2e6b-4f4a-b369-405cc071f141","system_id":"levelo_inurba_marseille","lat":43.299724,"lon":5.384848,"is_reserved":false,"is_disabled":false,"rental_uris":{"android":"levelo://app?vid=2b3e8657-2e6b-4f4a-b369-405cc071f141","ios":"levelo://app?vid=2b3e8657-2e6b-4f4a-b369-405cc071f141"},"vehicle_type_id":"4","last_reported":1717690181,"current_range_meters":10800,"station_id":"ce4bgj92rcd13ifvqbd0","pricing_plan_id":"cebpf4jnsgd1na2vs0mg"},{"bike_id":"754ea4f0-bb84-42de-9465-b934f802bbe3","system_id":"levelo_inurba_marseille","lat":43.300026,"lon":5.385491,"is_reserved":false,"is_disabled":false,"rental_uris":{"android":"levelo://app?vid=754ea4f0-bb84-42de-9465-b934f802bbe3","ios":"levelo://app?vid=754ea4f0-bb84-42de-9465-b934f802bbe3"},"vehicle_type_id":"4","last_reported":1717690181,"current_range_meters":0,"station_id":"ce4bgj92rcd13ifvqbd0","pricing_plan_id":"cebpf4jnsgd1na2vs0mg"},{"bike_id":"c93ccfcc-7997-4556-af44-849b3a45882f","system_id":"levelo_inurba_marseille","lat":43.299724,"lon":5.384848,"is_reserved":false,"is_disabled":false,"rental_uris":{"android":"levelo://app?vid=c93ccfcc-7997-4556-af44-849b3a45882f","ios":"levelo://app?vid=c93ccfcc-7997-4556-af44-849b3a45882f"},"vehicle_type_id":"4","last_reported":1717690181,"current_range_meters":0,"station_id":"ce4bgj92rcd13ifvqbd0","pricing_plan_id":"cebpf4jnsgd1na2vs0mg"},{"bike_id":"9bb732b3-b815-4519-8f97-d9d53618e779","system_id":"levelo_inurba_marseille","lat":43.298037,"lon":5.381066,"is_reserved":false,"is_disabled":false,"rental_uris":{"android":"levelo://app?vid=9bb732b3-b815-4519-8f97-d9d53618e779","ios":"levelo://app?vid=9bb732b3-b815-4519-8f97-d9d53618e779"},"vehicle_type_id":"4","last_reported":1717690181,"current_range_meters":0,"station_id":"ce4bgip2rcd13ifvqbb0","pricing_plan_id":"cebpf4jnsgd1na2vs0mg"},{"bike_id":"555063c8-5dd7-45e0-931b-ca24dcfbdcfc","system_id":"levelo_inurba_marseille","lat":43.295279,"lon":5.375048,"is_reserved":false,"is_disabled":false,"rental_uris":{"android":"levelo://app?vid=555063c8-5dd7-45e0-931b-ca24dcfbdcfc","ios":"levelo://app?vid=555063c8-5dd7-45e0-931b-ca24dcfbdcfc"},"vehicle_type_id":"4","last_reported":1717690181,"current_range_meters":0,"station_id":"ce4bgkp2rcd13ifvqbmg","pricing_plan_id":"cebpf4jnsgd1na2vs0mg"},{"bike_id":"30d2ea15-6c60-4f87-b9ea-8587723f2f36","system_id":"levelo_inurba_marseille","lat":43.297033,"lon":5.381259,"is_reserved":false,"is_disabled":false,"rental_uris":{"android":"levelo://app?vid=30d2ea15-6c60-4f87-b9ea-8587723f2f36","ios":"levelo://app?vid=30d2ea15-6c60-4f87-b9ea-8587723f2f36"},"vehicle_type_id":"4","last_reported":1717690181,"current_range_meters":19200,"station_id":"","pricing_plan_id":"cebpf4jnsgd1na2vs0mg"},{"bike_id":"69de8fc2-e923-489f-826e-1e485f00fdeb","system_id":"levelo_inurba_marseille","lat":43.32367,"lon":5.388836,"is_reserved":false,"is_disabled":false,"rental_uris":{"android":"levelo://app?vid=69de8fc2-e923-489f-826e-1e485f00fdeb","ios":"levelo://app?vid=69de8fc2-e923-489f-826e-1e485f00fdeb"},"vehicle_type_id":"4","last_reported":1717690181,"current_range_meters":20800,"station_id":"ce4bhqp2rcd13ifvqhog","pricing_plan_id":"cebpf4jnsgd1na2vs0mg"},{"bike_id":"78577425-f063-41e4-a8a9-dfd5b0852d24","system_id":"levelo_inurba_marseille","lat":43.323833,"lon":5.389153,"is_reserved":false,"is_disabled":false,"rental_uris":{"android":"levelo://app?vid=78577425-f063-41e4-a8a9-dfd5b0852d24","ios":"levelo://app?vid=78577425-f063-41e4-a8a9-dfd5b0852d24"},"vehicle_type_id":"4","last_reported":1717690181,"current_range_meters":24800,"station_id":"ce4bhqp2rcd13ifvqhog","pricing_plan_id":"cebpf4jnsgd1na2vs0mg"},{"bike_id":"4a12bef0-27b4-44e7-926d-83e21a13ddf5","system_id":"levelo_inurba_marseille","lat":43.29602,"lon":5.381084,"is_reserved":false,"is_disabled":false,"rental_uris":{"android":"levelo://app?vid=4a12bef0-27b4-44e7-926d-83e21a13ddf5","ios":"levelo://app?vid=4a12bef0-27b4-44e7-926d-83e21a13ddf5"},"vehicle_type_id":"4","last_reported":1717690181,"current_range_meters":22400,"station_id":"ce4bgl12rcd13ifvqbo0","pricing_plan_id":"cebpf4jnsgd1na2vs0mg"},{"bike_id":"8f8cc32a-2080-42c0-b7fe-f7e8355f42fe","system_id":"levelo_inurba_marseille","lat":43.281044,"lon":5.378308,"is_reserved":false,"is_disabled":false,"rental_uris":{"android":"levelo://app?vid=8f8cc32a-2080-42c0-b7fe-f7e8355f42fe","ios":"levelo://app?vid=8f8cc32a-2080-42c0-b7fe-f7e8355f42fe"},"vehicle_type_id":"4","last_reported":1717690181,"current_range_meters":8400,"station_id":"ce4bha12rcd13ifvqee0","pricing_plan_id":"cebpf4jnsgd1na2vs0mg"},{"bike_id":"91f8ec0d-841e-4494-a92d-b7800d5f0701","system_id":"levelo_inurba_marseille","lat":43.292749,"lon":5.368402,"is_reserved":false,"is_disabled":false,"rental_uris":{"android":"levelo://app?vid=91f8ec0d-841e-4494-a92d-b7800d5f0701","ios":"levelo://app?vid=91f8ec0d-841e-4494-a92d-b7800d5f0701"},"vehicle_type_id":"4","last_reported":1717690181,"current_range_meters":0,"station_id":"ce4bhbp2rcd13ifvqesg","pricing_plan_id":"cebpf4jnsgd1na2vs0mg"},{"bike_id":"6ab23f82-b058-4ec6-9390-098d2c603533","system_id":"levelo_inurba_marseille","lat":43.292737,"lon":5.368371,"is_reserved":false,"is_disabled":false,"rental_uris":{"android":"levelo://app?vid=6ab23f82-b058-4ec6-9390-098d2c603533","ios":"levelo://app?vid=6ab23f82-b058-4ec6-9390-098d2c603533"},"vehicle_type_id":"4","last_reported":1717690181,"current_range_meters":31200,"station_id":"ce4bhbp2rcd13ifvqesg","pricing_plan_id":"cebpf4jnsgd1na2vs0mg"},{"bike_id":"7ea5618d-fd64-4ff9-82a7-7bc210283406","system_id":"levelo_inurba_marseille","lat":43.29272,"lon":5.368348,"is_reserved":false,"is_disabled":false,"rental_uris":{"android":"levelo://app?vid=7ea5618d-fd64-4ff9-82a7-7bc210283406","ios":"levelo://app?vid=7ea5618d-fd64-4ff9-82a7-7bc210283406"},"vehicle_type_id":"4","last_reported":1717690181,"current_range_meters":0,"station_id":"ce4bhbp2rcd13ifvqesg","pricing_plan_id":"cebpf4jnsgd1na2vs0mg"},{"bike_id":"333f95db-68d7-4fbf-8739-25b5f6eae48e","system_id":"levelo_inurba_marseille","lat":43.292701,"lon":5.36837,"is_reserved":false,"is_disabled":false,"rental_uris":{"android":"levelo://app?vid=333f95db-68d7-4fbf-8739-25b5f6eae48e","ios":"levelo://app?vid=333f95db-68d7-4fbf-8739-25b5f6eae48e"},"vehicle_type_id":"4","last_reported":1717690181,"current_range_meters":0,"station_id":"ce4bhbp2rcd13ifvqesg","pricing_plan_id":"cebpf4jnsgd1na2vs0mg"},{"bike_id":"71c5b40b-f5fc-44a9-977e-423b4628f477","system_id":"levelo_inurba_marseille","lat":43.305994,"lon":5.393687,"is_reserved":false,"is_disabled":false,"rental_uris":{"android":"levelo://app?vid=71c5b40b-f5fc-44a9-977e-423b4628f477","ios":"levelo://app?vid=71c5b40b-f5fc-44a9-977e-423b4628f477"},"vehicle_type_id":"4","last_reported":1717690181,"current_range_meters":21600,"station_id":"ce4bh0p2rcd13ifvqd80","pricing_plan_id":"cebpf4jnsgd1na2vs0mg"},{"bike_id":"e21c0688-4904-4ede-987a-b33478b6a935","system_id":"levelo_inurba_marseille","lat":43.293009,"lon":5.374584,"is_reserved":false,"is_disabled":false,"rental_uris":{"android":"levelo://app?vid=e21c0688-4904-4ede-987a-b33478b6a935","ios":"levelo://app?vid=e21c0688-4904-4ede-987a-b33478b6a935"},"vehicle_type_id":"4","last_reported":1717690181,"current_range_meters":18400,"station_id":"ce4bgi12rcd13ifvqb70","pricing_plan_id":"cebpf4jnsgd1na2vs0mg"},{"bike_id":"e46e19b4-2b22-4516-9c55-a27f87a6eb42","system_id":"levelo_inurba_marseille","lat":43.293752,"lon":5.378572,"is_reserved":false,"is_disabled":false,"rental_uris":{"android":"levelo://app?vid=e46e19b4-2b22-4516-9c55-a27f87a6eb42","ios":"levelo://app?vid=e46e19b4-2b22-4516-9c55-a27f87a6eb42"},"vehicle_type_id":"4","last_reported":1717690181,"current_range_meters":9200,"station_id":"ce4bgjh2rcd13ifvqbf0","pricing_plan_id":"cebpf4jnsgd1na2vs0mg"},{"bike_id":"198479a6-c091-4158-8b5d-5b79bce4fb90","system_id":"levelo_inurba_marseille","lat":43.30302,"lon":5.39222,"is_reserved":false,"is_disabled":false,"rental_uris":{"android":"levelo://app?vid=198479a6-c091-4158-8b5d-5b79bce4fb90","ios":"levelo://app?vid=198479a6-c091-4158-8b5d-5b79bce4fb90"},"vehicle_type_id":"4","last_reported":1717690181,"current_range_meters":5600,"station_id":"ce4bgkh2rcd13ifvqbk0","pricing_plan_id":"cebpf4jnsgd1na2vs0mg"},{"bike_id":"d29da127-ffe6-40b4-bfd1-18abf27c8cdd","system_id":"levelo_inurba_marseille","lat":43.2936,"lon":5.37835,"is_reserved":false,"is_disabled":false,"rental_uris":{"android":"levelo://app?vid=d29da127-ffe6-40b4-bfd1-18abf27c8cdd","ios":"levelo://app?vid=d29da127-ffe6-40b4-bfd1-18abf27c8cdd"},"vehicle_type_id":"4","last_reported":1717690181,"current_range_meters":0,"station_id":"ce4bgjh2rcd13ifvqbf0","pricing_plan_id":"cebpf4jnsgd1na2vs0mg"},{"bike_id":"6e22d384-f838-4077-9dd2-463e3a79b293","system_id":"levelo_inurba_marseille","lat":43.292311,"lon":5.360731,"is_reserved":false,"is_disabled":false,"rental_uris":{"android":"levelo://app?vid=6e22d384-f838-4077-9dd2-463e3a79b293","ios":"levelo://app?vid=6e22d384-f838-4077-9dd2-463e3a79b293"},"vehicle_type_id":"4","last_reported":1717690181,"current_range_meters":17200,"station_id":"ce4bhbh2rcd13ifvqeqg","pricing_plan_id":"cebpf4jnsgd1na2vs0mg"},{"bike_id":"8c7bf2ff-d09e-4f56-86a0-4e59083276f4","system_id":"levelo_inurba_marseille","lat":43.30085,"lon":5.390856,"is_reserved":false,"is_disabled":false,"rental_uris":{"android":"levelo://app?vid=8c7bf2ff-d09e-4f56-86a0-4e59083276f4","ios":"levelo://app?vid=8c7bf2ff-d09e-4f56-86a0-4e59083276f4"},"vehicle_type_id":"4","last_reported":1717690181,"current_range_meters":10000,"station_id":"ce4bh192rcd13ifvqdb0","pricing_plan_id":"cebpf4jnsgd1na2vs0mg"},{"bike_id":"5c458a29-aab9-46cf-ad82-c2235fc96945","system_id":"levelo_inurba_marseille","lat":43.298934,"lon":5.388998,"is_reserved":false,"is_disabled":false,"rental_uris":{"android":"levelo://app?vid=5c458a29-aab9-46cf-ad82-c2235fc96945","ios":"levelo://app?vid=5c458a29-aab9-46cf-ad82-c2235fc96945"},"vehicle_type_id":"4","last_reported":1717690181,"current_range_meters":0,"station_id":"ce4bh392rcd13ifvqdl0","pricing_plan_id":"cebpf4jnsgd1na2vs0mg"},{"bike_id":"1e7f4ff1-90d5-400e-b285-fce2f85cca5f","system_id":"levelo_inurba_marseille","lat":43.29258,"lon":5.37615,"is_reserved":false,"is_disabled":false,"rental_uris":{"android":"levelo://app?vid=1e7f4ff1-90d5-400e-b285-fce2f85cca5f","ios":"levelo://app?vid=1e7f4ff1-90d5-400e-b285-fce2f85cca5f"},"vehicle_type_id":"4","last_reported":1717690181,"current_range_meters":800,"station_id":"","pricing_plan_id":"cebpf4jnsgd1na2vs0mg"},{"bike_id":"237d3e24-e1db-4666-b518-5ce1fac1f05e","system_id":"levelo_inurba_marseille","lat":43.291675,"lon":5.371583,"is_reserved":false,"is_disabled":false,"rental_uris":{"android":"levelo://app?vid=237d3e24-e1db-4666-b518-5ce1fac1f05e","ios":"levelo://app?vid=237d3e24-e1db-4666-b518-5ce1fac1f05e"},"vehicle_type_id":"4","last_reported":1717690181,"current_range_meters":2800,"station_id":"ce4bha92rcd13ifvqeh0","pricing_plan_id":"cebpf4jnsgd1na2vs0mg"},{"bike_id":"cdb4f15a-6897-4495-9ff4-5783a16d4d13","system_id":"levelo_inurba_marseille","lat":43.298769,"lon":5.389004,"is_reserved":false,"is_disabled":false,"rental_uris":{"android":"levelo://app?vid=cdb4f15a-6897-4495-9ff4-5783a16d4d13","ios":"levelo://app?vid=cdb4f15a-6897-4495-9ff4-5783a16d4d13"},"vehicle_type_id":"4","last_reported":1717690181,"current_range_meters":0,"station_id":"ce4bh392rcd13ifvqdl0","pricing_plan_id":"cebpf4jnsgd1na2vs0mg"},{"bike_id":"64b728d4-f4e5-4e74-ba81-d2abfc9e4ca9","system_id":"levelo_inurba_marseille","lat":43.291671,"lon":5.371575,"is_reserved":false,"is_disabled":false,"rental_uris":{"android":"levelo://app?vid=64b728d4-f4e5-4e74-ba81-d2abfc9e4ca9","ios":"levelo://app?vid=64b728d4-f4e5-4e74-ba81-d2abfc9e4ca9"},"vehicle_type_id":"4","last_reported":1717690181,"current_range_meters":20000,"station_id":"ce4bha92rcd13ifvqeh0","pricing_plan_id":"cebpf4jnsgd1na2vs0mg"},{"bike_id":"f671c7cc-58a2-4e8d-89bb-9a7910be71a9","system_id":"levelo_inurba_marseille","lat":43.291675,"lon":5.371583,"is_reserved":false,"is_disabled":false,"rental_uris":{"android":"levelo://app?vid=f671c7cc-58a2-4e8d-89bb-9a7910be71a9","ios":"levelo://app?vid=f671c7cc-58a2-4e8d-89bb-9a7910be71a9"},"vehicle_type_id":"4","last_reported":1717690181,"current_range_meters":0,"station_id":"ce4bha92rcd13ifvqeh0","pricing_plan_id":"cebpf4jnsgd1na2vs0mg"},{"bike_id":"d7e723a8-c542-4614-976a-7b8baa8f8c6b","system_id":"levelo_inurba_marseille","lat":43.298551,"lon":5.389277,"is_reserved":false,"is_disabled":false,"rental_uris":{"android":"levelo://app?vid=d7e723a8-c542-4614-976a-7b8baa8f8c6b","ios":"levelo://app?vid=d7e723a8-c542-4614-976a-7b8baa8f8c6b"},"vehicle_type_id":"4","last_reported":1717690181,"current_range_meters":9200,"station_id":"ce4bh392rcd13ifvqdl0","pricing_plan_id":"cebpf4jnsgd1na2vs0mg"},{"bike_id":"87c7bf1e-0e7c-4330-8734-e0c19c191c07","system_id":"levelo_inurba_marseille","lat":43.29529,"lon":5.385581,"is_reserved":false,"is_disabled":false,"rental_uris":{"android":"levelo://app?vid=87c7bf1e-0e7c-4330-8734-e0c19c191c07","ios":"levelo://app?vid=87c7bf1e-0e7c-4330-8734-e0c19c191c07"},"vehicle_type_id":"4","last_reported":1717690181,"current_range_meters":1600,"station_id":"ce4bgih2rcd13ifvqba0","pricing_plan_id":"cebpf4jnsgd1na2vs0mg"},{"bike_id":"f9e2bf45-e75b-4956-9306-5f578760af9c","system_id":"levelo_inurba_marseille","lat":43.292005,"lon":5.357875,"is_reserved":false,"is_disabled":false,"rental_uris":{"android":"levelo://app?vid=f9e2bf45-e75b-4956-9306-5f578760af9c","ios":"levelo://app?vid=f9e2bf45-e75b-4956-9306-5f578760af9c"},"vehicle_type_id":"4","last_reported":1717690181,"current_range_meters":6400,"station_id":"ce4bhb12rcd13ifvqel0","pricing_plan_id":"cebpf4jnsgd1na2vs0mg"},{"bike_id":"decf4727-4fa0-400d-a124-3656c4fc145c","system_id":"levelo_inurba_marseille","lat":43.309038,"lon":5.396546,"is_reserved":false,"is_disabled":false,"rental_uris":{"android":"levelo://app?vid=decf4727-4fa0-400d-a124-3656c4fc145c","ios":"levelo://app?vid=decf4727-4fa0-400d-a124-3656c4fc145c"},"vehicle_type_id":"4","last_reported":1717690181,"current_range_meters":0,"station_id":"ce4bh012rcd13ifvqcv0","pricing_plan_id":"cebpf4jnsgd1na2vs0mg"},{"bike_id":"da69bfdb-31db-4def-bb4c-e778b53cf27d","system_id":"levelo_inurba_marseille","lat":43.313291,"lon":5.396838,"is_reserved":false,"is_disabled":false,"rental_uris":{"android":"levelo://app?vid=da69bfdb-31db-4def-bb4c-e778b53cf27d","ios":"levelo://app?vid=da69bfdb-31db-4def-bb4c-e778b53cf27d"},"vehicle_type_id":"4","last_reported":1717690181,"current_range_meters":16800,"station_id":"ce4bgvp2rcd13ifvqcu0","pricing_plan_id":"cebpf4jnsgd1na2vs0mg"},{"bike_id":"841d5592-012e-42c6-9aa5-bb8012400d74","system_id":"levelo_inurba_marseille","lat":43.313291,"lon":5.396838,"is_reserved":false,"is_disabled":false,"rental_uris":{"android":"levelo://app?vid=841d5592-012e-42c6-9aa5-bb8012400d74","ios":"levelo://app?vid=841d5592-012e-42c6-9aa5-bb8012400d74"},"vehicle_type_id":"4","last_reported":1717690181,"current_range_meters":16400,"station_id":"ce4bgvp2rcd13ifvqcu0","pricing_plan_id":"cebpf4jnsgd1na2vs0mg"},{"bike_id":"11d69708-d4c5-4b79-8d26-f54075f4a92c","system_id":"levelo_inurba_marseille","lat":43.313291,"lon":5.396838,"is_reserved":false,"is_disabled":false,"rental_uris":{"android":"levelo://app?vid=11d69708-d4c5-4b79-8d26-f54075f4a92c","ios":"levelo://app?vid=11d69708-d4c5-4b79-8d26-f54075f4a92c"},"vehicle_type_id":"4","last_reported":1717690181,"current_range_meters":3200,"station_id":"ce4bgvp2rcd13ifvqcu0","pricing_plan_id":"cebpf4jnsgd1na2vs0mg"},{"bike_id":"9b0f90ad-5aa0-4194-ab7a-c21c294ef0e2","system_id":"levelo_inurba_marseille","lat":43.31333,"lon":5.39686,"is_reserved":false,"is_disabled":false,"rental_uris":{"android":"levelo://app?vid=9b0f90ad-5aa0-4194-ab7a-c21c294ef0e2","ios":"levelo://app?vid=9b0f90ad-5aa0-4194-ab7a-c21c294ef0e2"},"vehicle_type_id":"4","last_reported":1717690181,"current_range_meters":0,"station_id":"ce4bgvp2rcd13ifvqcu0","pricing_plan_id":"cebpf4jnsgd1na2vs0mg"},{"bike_id":"7b6bd220-f95d-47e8-b8e0-c7fef01902aa","system_id":"levelo_inurba_marseille","lat":43.292005,"lon":5.357875,"is_reserved":false,"is_disabled":false,"rental_uris":{"android":"levelo://app?vid=7b6bd220-f95d-47e8-b8e0-c7fef01902aa","ios":"levelo://app?vid=7b6bd220-f95d-47e8-b8e0-c7fef01902aa"},"vehicle_type_id":"4","last_reported":1717690181,"current_range_meters":0,"station_id":"ce4bhb12rcd13ifvqel0","pricing_plan_id":"cebpf4jnsgd1na2vs0mg"},{"bike_id":"39393ff6-dbef-474b-b8e2-eaf2334ff4e3","system_id":"levelo_inurba_marseille","lat":43.291894,"lon":5.358036,"is_reserved":false,"is_disabled":false,"rental_uris":{"android":"levelo://app?vid=39393ff6-dbef-474b-b8e2-eaf2334ff4e3","ios":"levelo://app?vid=39393ff6-dbef-474b-b8e2-eaf2334ff4e3"},"vehicle_type_id":"4","last_reported":1717690181,"current_range_meters":31200,"station_id":"","pricing_plan_id":"cebpf4jnsgd1na2vs0mg"},{"bike_id":"d8237fcd-4c57-4a06-8c71-28885f0a2320","system_id":"levelo_inurba_marseille","lat":43.31333,"lon":5.39692,"is_reserved":false,"is_disabled":false,"rental_uris":{"android":"levelo://app?vid=d8237fcd-4c57-4a06-8c71-28885f0a2320","ios":"levelo://app?vid=d8237fcd-4c57-4a06-8c71-28885f0a2320"},"vehicle_type_id":"4","last_reported":1717690181,"current_range_meters":0,"station_id":"ce4bgvp2rcd13ifvqcu0","pricing_plan_id":"cebpf4jnsgd1na2vs0mg"},{"bike_id":"5e6d6724-cf49-41f9-923e-d110d8cce47d","system_id":"levelo_inurba_marseille","lat":43.313291,"lon":5.396838,"is_reserved":false,"is_disabled":false,"rental_uris":{"android":"levelo://app?vid=5e6d6724-cf49-41f9-923e-d110d8cce47d","ios":"levelo://app?vid=5e6d6724-cf49-41f9-923e-d110d8cce47d"},"vehicle_type_id":"4","last_reported":1717690181,"current_range_meters":9200,"station_id":"ce4bgvp2rcd13ifvqcu0","pricing_plan_id":"cebpf4jnsgd1na2vs0mg"},{"bike_id":"a7192888-67ad-4567-baa4-472b4c0f2430","system_id":"levelo_inurba_marseille","lat":43.313291,"lon":5.396838,"is_reserved":false,"is_disabled":false,"rental_uris":{"android":"levelo://app?vid=a7192888-67ad-4567-baa4-472b4c0f2430","ios":"levelo://app?vid=a7192888-67ad-4567-baa4-472b4c0f2430"},"vehicle_type_id":"4","last_reported":1717690181,"current_range_meters":3600,"station_id":"ce4bgvp2rcd13ifvqcu0","pricing_plan_id":"cebpf4jnsgd1na2vs0mg"},{"bike_id":"4d3c82a3-c6c6-4d5c-a61a-301f82f9bcdc","system_id":"levelo_inurba_marseille","lat":43.313291,"lon":5.396838,"is_reserved":false,"is_disabled":false,"rental_uris":{"android":"levelo://app?vid=4d3c82a3-c6c6-4d5c-a61a-301f82f9bcdc","ios":"levelo://app?vid=4d3c82a3-c6c6-4d5c-a61a-301f82f9bcdc"},"vehicle_type_id":"4","last_reported":1717690181,"current_range_meters":28000,"station_id":"ce4bgvp2rcd13ifvqcu0","pricing_plan_id":"cebpf4jnsgd1na2vs0mg"},{"bike_id":"828462c8-17b1-42af-bc11-293d47bb6d3b","system_id":"levelo_inurba_marseille","lat":43.2936,"lon":5.37835,"is_reserved":false,"is_disabled":false,"rental_uris":{"android":"levelo://app?vid=828462c8-17b1-42af-bc11-293d47bb6d3b","ios":"levelo://app?vid=828462c8-17b1-42af-bc11-293d47bb6d3b"},"vehicle_type_id":"4","last_reported":1717690181,"current_range_meters":7200,"station_id":"ce4bgjh2rcd13ifvqbf0","pricing_plan_id":"cebpf4jnsgd1na2vs0mg"},{"bike_id":"de47334d-6112-4f33-9e66-e4f665ef0093","system_id":"levelo_inurba_marseille","lat":43.313291,"lon":5.396838,"is_reserved":false,"is_disabled":false,"rental_uris":{"android":"levelo://app?vid=de47334d-6112-4f33-9e66-e4f665ef0093","ios":"levelo://app?vid=de47334d-6112-4f33-9e66-e4f665ef0093"},"vehicle_type_id":"4","last_reported":1717690181,"current_range_meters":16800,"station_id":"ce4bgvp2rcd13ifvqcu0","pricing_plan_id":"cebpf4jnsgd1na2vs0mg"},{"bike_id":"03ec85eb-be81-4abb-9c32-4fab65de9c97","system_id":"levelo_inurba_marseille","lat":43.309038,"lon":5.396546,"is_reserved":false,"is_disabled":false,"rental_uris":{"android":"levelo://app?vid=03ec85eb-be81-4abb-9c32-4fab65de9c97","ios":"levelo://app?vid=03ec85eb-be81-4abb-9c32-4fab65de9c97"},"vehicle_type_id":"4","last_reported":1717690181,"current_range_meters":12800,"station_id":"ce4bh012rcd13ifvqcv0","pricing_plan_id":"cebpf4jnsgd1na2vs0mg"},{"bike_id":"c9e1d11b-ebde-4c5a-a4cf-33f73fd5b73d","system_id":"levelo_inurba_marseille","lat":43.313291,"lon":5.396838,"is_reserved":false,"is_disabled":false,"rental_uris":{"android":"levelo://app?vid=c9e1d11b-ebde-4c5a-a4cf-33f73fd5b73d","ios":"levelo://app?vid=c9e1d11b-ebde-4c5a-a4cf-33f73fd5b73d"},"vehicle_type_id":"4","last_reported":1717690181,"current_range_meters":8400,"station_id":"ce4bgvp2rcd13ifvqcu0","pricing_plan_id":"cebpf4jnsgd1na2vs0mg"},{"bike_id":"5af8f1b2-70fe-4d72-8c8f-97f3bf34d418","system_id":"levelo_inurba_marseille","lat":43.313291,"lon":5.396838,"is_reserved":false,"is_disabled":false,"rental_uris":{"android":"levelo://app?vid=5af8f1b2-70fe-4d72-8c8f-97f3bf34d418","ios":"levelo://app?vid=5af8f1b2-70fe-4d72-8c8f-97f3bf34d418"},"vehicle_type_id":"4","last_reported":1717690181,"current_range_meters":9200,"station_id":"ce4bgvp2rcd13ifvqcu0","pricing_plan_id":"cebpf4jnsgd1na2vs0mg"},{"bike_id":"7f012ecf-992b-49b5-9bfe-3b07b3acf93c","system_id":"levelo_inurba_marseille","lat":43.305706,"lon":5.365654,"is_reserved":false,"is_disabled":false,"rental_uris":{"android":"levelo://app?vid=7f012ecf-992b-49b5-9bfe-3b07b3acf93c","ios":"levelo://app?vid=7f012ecf-992b-49b5-9bfe-3b07b3acf93c"},"vehicle_type_id":"4","last_reported":1717690181,"current_range_meters":800,"station_id":"ce4bgs12rcd13ifvqcag","pricing_plan_id":"cebpf4jnsgd1na2vs0mg"},{"bike_id":"d8f8f792-abc2-414a-9989-88c4d4f725c0","system_id":"levelo_inurba_marseille","lat":43.302008,"lon":5.394694,"is_reserved":false,"is_disabled":false,"rental_uris":{"android":"levelo://app?vid=d8f8f792-abc2-414a-9989-88c4d4f725c0","ios":"levelo://app?vid=d8f8f792-abc2-414a-9989-88c4d4f725c0"},"vehicle_type_id":"4","last_reported":1717690181,"current_range_meters":3600,"station_id":"ce4bh0p2rcd13ifvqd70","pricing_plan_id":"cebpf4jnsgd1na2vs0mg"},{"bike_id":"08d1d710-7f3a-431a-bb25-13f62531971a","system_id":"levelo_inurba_marseille","lat":43.302008,"lon":5.394694,"is_reserved":false,"is_disabled":false,"rental_uris":{"android":"levelo://app?vid=08d1d710-7f3a-431a-bb25-13f62531971a","ios":"levelo://app?vid=08d1d710-7f3a-431a-bb25-13f62531971a"},"vehicle_type_id":"4","last_reported":1717690181,"current_range_meters":0,"station_id":"ce4bh0p2rcd13ifvqd70","pricing_plan_id":"cebpf4jnsgd1na2vs0mg"},{"bike_id":"1cc1edb2-7ef9-4622-b5dd-7963f3b0d892","system_id":"levelo_inurba_marseille","lat":43.302008,"lon":5.394694,"is_reserved":false,"is_disabled":false,"rental_uris":{"android":"levelo://app?vid=1cc1edb2-7ef9-4622-b5dd-7963f3b0d892","ios":"levelo://app?vid=1cc1edb2-7ef9-4622-b5dd-7963f3b0d892"},"vehicle_type_id":"4","last_reported":1717690181,"current_range_meters":7600,"station_id":"ce4bh0p2rcd13ifvqd70","pricing_plan_id":"cebpf4jnsgd1na2vs0mg"},{"bike_id":"f0381ea1-1ad0-408b-b288-5de899472557","system_id":"levelo_inurba_marseille","lat":43.302008,"lon":5.394694,"is_reserved":false,"is_disabled":false,"rental_uris":{"android":"levelo://app?vid=f0381ea1-1ad0-408b-b288-5de899472557","ios":"levelo://app?vid=f0381ea1-1ad0-408b-b288-5de899472557"},"vehicle_type_id":"4","last_reported":1717690181,"current_range_meters":8000,"station_id":"ce4bh0p2rcd13ifvqd70","pricing_plan_id":"cebpf4jnsgd1na2vs0mg"},{"bike_id":"69f15fdc-1e6d-4851-947f-2a1610976000","system_id":"levelo_inurba_marseille","lat":43.302008,"lon":5.394694,"is_reserved":false,"is_disabled":false,"rental_uris":{"android":"levelo://app?vid=69f15fdc-1e6d-4851-947f-2a1610976000","ios":"levelo://app?vid=69f15fdc-1e6d-4851-947f-2a1610976000"},"vehicle_type_id":"4","last_reported":1717690181,"current_range_meters":16000,"station_id":"ce4bh0p2rcd13ifvqd70","pricing_plan_id":"cebpf4jnsgd1na2vs0mg"},{"bike_id":"57de5b34-976d-4fce-a9d1-be74cc453880","system_id":"levelo_inurba_marseille","lat":43.294153,"lon":5.386305,"is_reserved":false,"is_disabled":false,"rental_uris":{"android":"levelo://app?vid=57de5b34-976d-4fce-a9d1-be74cc453880","ios":"levelo://app?vid=57de5b34-976d-4fce-a9d1-be74cc453880"},"vehicle_type_id":"4","last_reported":1717690181,"current_range_meters":20800,"station_id":"ce4bh2h2rcd13ifvqdh0","pricing_plan_id":"cebpf4jnsgd1na2vs0mg"},{"bike_id":"e2ae74a4-7bb2-44df-affd-ae654dccb908","system_id":"levelo_inurba_marseille","lat":43.29419,"lon":5.38626,"is_reserved":false,"is_disabled":false,"rental_uris":{"android":"levelo://app?vid=e2ae74a4-7bb2-44df-affd-ae654dccb908","ios":"levelo://app?vid=e2ae74a4-7bb2-44df-affd-ae654dccb908"},"vehicle_type_id":"4","last_reported":1717690181,"current_range_meters":0,"station_id":"ce4bh2h2rcd13ifvqdh0","pricing_plan_id":"cebpf4jnsgd1na2vs0mg"},{"bike_id":"3b2d3809-2ea2-4f7c-9e2c-cfc402edc6db","system_id":"levelo_inurba_marseille","lat":43.289184,"lon":5.366408,"is_reserved":false,"is_disabled":false,"rental_uris":{"android":"levelo://app?vid=3b2d3809-2ea2-4f7c-9e2c-cfc402edc6db","ios":"levelo://app?vid=3b2d3809-2ea2-4f7c-9e2c-cfc402edc6db"},"vehicle_type_id":"4","last_reported":1717690181,"current_range_meters":30800,"station_id":"ce4bhap2rcd13ifvqek0","pricing_plan_id":"cebpf4jnsgd1na2vs0mg"},{"bike_id":"28ccdbda-e9bc-4214-8459-1b6f90ea2f5f","system_id":"levelo_inurba_marseille","lat":43.289184,"lon":5.366408,"is_reserved":false,"is_disabled":false,"rental_uris":{"android":"levelo://app?vid=28ccdbda-e9bc-4214-8459-1b6f90ea2f5f","ios":"levelo://app?vid=28ccdbda-e9bc-4214-8459-1b6f90ea2f5f"},"vehicle_type_id":"4","last_reported":1717690181,"current_range_meters":0,"station_id":"ce4bhap2rcd13ifvqek0","pricing_plan_id":"cebpf4jnsgd1na2vs0mg"},{"bike_id":"e218c236-0213-419b-ba2a-e033d758befa","system_id":"levelo_inurba_marseille","lat":43.289184,"lon":5.366408,"is_reserved":false,"is_disabled":false,"rental_uris":{"android":"levelo://app?vid=e218c236-0213-419b-ba2a-e033d758befa","ios":"levelo://app?vid=e218c236-0213-419b-ba2a-e033d758befa"},"vehicle_type_id":"4","last_reported":1717690181,"current_range_meters":18000,"station_id":"ce4bhap2rcd13ifvqek0","pricing_plan_id":"cebpf4jnsgd1na2vs0mg"},{"bike_id":"b0fb6a69-80cc-45a2-8091-4e5c1679754b","system_id":"levelo_inurba_marseille","lat":43.289184,"lon":5.366408,"is_reserved":false,"is_disabled":false,"rental_uris":{"android":"levelo://app?vid=b0fb6a69-80cc-45a2-8091-4e5c1679754b","ios":"levelo://app?vid=b0fb6a69-80cc-45a2-8091-4e5c1679754b"},"vehicle_type_id":"4","last_reported":1717690181,"current_range_meters":14400,"station_id":"ce4bhap2rcd13ifvqek0","pricing_plan_id":"cebpf4jnsgd1na2vs0mg"},{"bike_id":"bfee2c40-1733-4581-b2d6-acc13a332c36","system_id":"levelo_inurba_marseille","lat":43.289184,"lon":5.366408,"is_reserved":false,"is_disabled":false,"rental_uris":{"android":"levelo://app?vid=bfee2c40-1733-4581-b2d6-acc13a332c36","ios":"levelo://app?vid=bfee2c40-1733-4581-b2d6-acc13a332c36"},"vehicle_type_id":"4","last_reported":1717690181,"current_range_meters":0,"station_id":"ce4bhap2rcd13ifvqek0","pricing_plan_id":"cebpf4jnsgd1na2vs0mg"},{"bike_id":"27575e4a-ee63-4d63-8df4-52506e4d8050","system_id":"levelo_inurba_marseille","lat":43.290435,"lon":5.356005,"is_reserved":false,"is_disabled":false,"rental_uris":{"android":"levelo://app?vid=27575e4a-ee63-4d63-8df4-52506e4d8050","ios":"levelo://app?vid=27575e4a-ee63-4d63-8df4-52506e4d8050"},"vehicle_type_id":"4","last_reported":1717690181,"current_range_meters":22000,"station_id":"ce4bhb92rcd13ifvqen0","pricing_plan_id":"cebpf4jnsgd1na2vs0mg"},{"bike_id":"e2147445-80d7-482e-bbe6-22001511e30f","system_id":"levelo_inurba_marseille","lat":43.29573,"lon":5.367355,"is_reserved":false,"is_disabled":false,"rental_uris":{"android":"levelo://app?vid=e2147445-80d7-482e-bbe6-22001511e30f","ios":"levelo://app?vid=e2147445-80d7-482e-bbe6-22001511e30f"},"vehicle_type_id":"4","last_reported":1717690181,"current_range_meters":7600,"station_id":"ce4bgph2rcd13ifvqc2g","pricing_plan_id":"cebpf4jnsgd1na2vs0mg"},{"bike_id":"6879d491-54c9-4f6e-bcdc-96eb9f4a9115","system_id":"levelo_inurba_marseille","lat":43.292644,"lon":5.384257,"is_reserved":false,"is_disabled":false,"rental_uris":{"android":"levelo://app?vid=6879d491-54c9-4f6e-bcdc-96eb9f4a9115","ios":"levelo://app?vid=6879d491-54c9-4f6e-bcdc-96eb9f4a9115"},"vehicle_type_id":"4","last_reported":1717690181,"current_range_meters":7600,"station_id":"ce4bh692rcd13ifvqea0","pricing_plan_id":"cebpf4jnsgd1na2vs0mg"},{"bike_id":"23a699bd-ef72-40aa-9633-cbb49282fd0c","system_id":"levelo_inurba_marseille","lat":43.292644,"lon":5.384257,"is_reserved":false,"is_disabled":false,"rental_uris":{"android":"levelo://app?vid=23a699bd-ef72-40aa-9633-cbb49282fd0c","ios":"levelo://app?vid=23a699bd-ef72-40aa-9633-cbb49282fd0c"},"vehicle_type_id":"4","last_reported":1717690181,"current_range_meters":14400,"station_id":"ce4bh692rcd13ifvqea0","pricing_plan_id":"cebpf4jnsgd1na2vs0mg"},{"bike_id":"54fab329-a405-44bc-8e0e-261a27accd67","system_id":"levelo_inurba_marseille","lat":43.292642,"lon":5.384254,"is_reserved":false,"is_disabled":false,"rental_uris":{"android":"levelo://app?vid=54fab329-a405-44bc-8e0e-261a27accd67","ios":"levelo://app?vid=54fab329-a405-44bc-8e0e-261a27accd67"},"vehicle_type_id":"4","last_reported":1717690181,"current_range_meters":0,"station_id":"ce4bh692rcd13ifvqea0","pricing_plan_id":"cebpf4jnsgd1na2vs0mg"},{"bike_id":"a1a65014-26c6-4a30-9d76-8174e2588725","system_id":"levelo_inurba_marseille","lat":43.292593,"lon":5.384386,"is_reserved":false,"is_disabled":false,"rental_uris":{"android":"levelo://app?vid=a1a65014-26c6-4a30-9d76-8174e2588725","ios":"levelo://app?vid=a1a65014-26c6-4a30-9d76-8174e2588725"},"vehicle_type_id":"4","last_reported":1717690181,"current_range_meters":0,"station_id":"ce4bh692rcd13ifvqea0","pricing_plan_id":"cebpf4jnsgd1na2vs0mg"},{"bike_id":"2a30ffb1-8958-4c65-9d76-1ebd704cd260","system_id":"levelo_inurba_marseille","lat":43.290103,"lon":5.356114,"is_reserved":false,"is_disabled":false,"rental_uris":{"android":"levelo://app?vid=2a30ffb1-8958-4c65-9d76-1ebd704cd260","ios":"levelo://app?vid=2a30ffb1-8958-4c65-9d76-1ebd704cd260"},"vehicle_type_id":"4","last_reported":1717690181,"current_range_meters":19200,"station_id":"ce4bhb92rcd13ifvqen0","pricing_plan_id":"cebpf4jnsgd1na2vs0mg"},{"bike_id":"5bf0a926-2fce-43aa-b35c-bad0e783fe62","system_id":"levelo_inurba_marseille","lat":43.290624,"lon":5.359245,"is_reserved":false,"is_disabled":false,"rental_uris":{"android":"levelo://app?vid=5bf0a926-2fce-43aa-b35c-bad0e783fe62","ios":"levelo://app?vid=5bf0a926-2fce-43aa-b35c-bad0e783fe62"},"vehicle_type_id":"4","last_reported":1717690181,"current_range_meters":26800,"station_id":"ce4bha92rcd13ifvqeg0","pricing_plan_id":"cebpf4jnsgd1na2vs0mg"},{"bike_id":"b18e3131-c326-47ee-90d5-ae4fa8113eaa","system_id":"levelo_inurba_marseille","lat":43.290103,"lon":5.356114,"is_reserved":false,"is_disabled":false,"rental_uris":{"android":"levelo://app?vid=b18e3131-c326-47ee-90d5-ae4fa8113eaa","ios":"levelo://app?vid=b18e3131-c326-47ee-90d5-ae4fa8113eaa"},"vehicle_type_id":"4","last_reported":1717690181,"current_range_meters":11200,"station_id":"ce4bhb92rcd13ifvqen0","pricing_plan_id":"cebpf4jnsgd1na2vs0mg"},{"bike_id":"c8f04da5-e538-48a6-b7e7-87f0c699032e","system_id":"levelo_inurba_marseille","lat":43.290104,"lon":5.356111,"is_reserved":false,"is_disabled":false,"rental_uris":{"android":"levelo://app?vid=c8f04da5-e538-48a6-b7e7-87f0c699032e","ios":"levelo://app?vid=c8f04da5-e538-48a6-b7e7-87f0c699032e"},"vehicle_type_id":"4","last_reported":1717690181,"current_range_meters":2000,"station_id":"ce4bhb92rcd13ifvqen0","pricing_plan_id":"cebpf4jnsgd1na2vs0mg"},{"bike_id":"13e15253-00bd-49f7-a50c-df20b70ff925","system_id":"levelo_inurba_marseille","lat":43.290104,"lon":5.356111,"is_reserved":false,"is_disabled":false,"rental_uris":{"android":"levelo://app?vid=13e15253-00bd-49f7-a50c-df20b70ff925","ios":"levelo://app?vid=13e15253-00bd-49f7-a50c-df20b70ff925"},"vehicle_type_id":"4","last_reported":1717690181,"current_range_meters":2400,"station_id":"ce4bhb92rcd13ifvqen0","pricing_plan_id":"cebpf4jnsgd1na2vs0mg"},{"bike_id":"0fd47bcd-47af-40e7-a5b5-1f34d688c809","system_id":"levelo_inurba_marseille","lat":43.29001,"lon":5.356071,"is_reserved":false,"is_disabled":false,"rental_uris":{"android":"levelo://app?vid=0fd47bcd-47af-40e7-a5b5-1f34d688c809","ios":"levelo://app?vid=0fd47bcd-47af-40e7-a5b5-1f34d688c809"},"vehicle_type_id":"4","last_reported":1717690181,"current_range_meters":3200,"station_id":"ce4bhb92rcd13ifvqen0","pricing_plan_id":"cebpf4jnsgd1na2vs0mg"},{"bike_id":"43752d8a-b591-4345-b3e3-d41e576ba850","system_id":"levelo_inurba_marseille","lat":43.290995,"lon":5.381361,"is_reserved":false,"is_disabled":false,"rental_uris":{"android":"levelo://app?vid=43752d8a-b591-4345-b3e3-d41e576ba850","ios":"levelo://app?vid=43752d8a-b591-4345-b3e3-d41e576ba850"},"vehicle_type_id":"4","last_reported":1717690181,"current_range_meters":23600,"station_id":"ce4bh512rcd13ifvqe2g","pricing_plan_id":"cebpf4jnsgd1na2vs0mg"},{"bike_id":"e0ec6d82-4faa-4241-82f3-aab2a0325969","system_id":"levelo_inurba_marseille","lat":43.290103,"lon":5.356114,"is_reserved":false,"is_disabled":false,"rental_uris":{"android":"levelo://app?vid=e0ec6d82-4faa-4241-82f3-aab2a0325969","ios":"levelo://app?vid=e0ec6d82-4faa-4241-82f3-aab2a0325969"},"vehicle_type_id":"4","last_reported":1717690181,"current_range_meters":29200,"station_id":"ce4bhb92rcd13ifvqen0","pricing_plan_id":"cebpf4jnsgd1na2vs0mg"},{"bike_id":"cb612ac6-dee1-4559-bb06-02e4e4266e0d","system_id":"levelo_inurba_marseille","lat":43.290995,"lon":5.381361,"is_reserved":false,"is_disabled":false,"rental_uris":{"android":"levelo://app?vid=cb612ac6-dee1-4559-bb06-02e4e4266e0d","ios":"levelo://app?vid=cb612ac6-dee1-4559-bb06-02e4e4266e0d"},"vehicle_type_id":"4","last_reported":1717690181,"current_range_meters":1200,"station_id":"ce4bh512rcd13ifvqe2g","pricing_plan_id":"cebpf4jnsgd1na2vs0mg"},{"bike_id":"8c423b99-855b-4f40-962f-ec09c99734bd","system_id":"levelo_inurba_marseille","lat":43.290995,"lon":5.381361,"is_reserved":false,"is_disabled":false,"rental_uris":{"android":"levelo://app?vid=8c423b99-855b-4f40-962f-ec09c99734bd","ios":"levelo://app?vid=8c423b99-855b-4f40-962f-ec09c99734bd"},"vehicle_type_id":"4","last_reported":1717690181,"current_range_meters":0,"station_id":"ce4bh512rcd13ifvqe2g","pricing_plan_id":"cebpf4jnsgd1na2vs0mg"},{"bike_id":"21b53509-bf15-46c5-86eb-879b9e411e74","system_id":"levelo_inurba_marseille","lat":43.297815,"lon":5.393548,"is_reserved":false,"is_disabled":false,"rental_uris":{"android":"levelo://app?vid=21b53509-bf15-46c5-86eb-879b9e411e74","ios":"levelo://app?vid=21b53509-bf15-46c5-86eb-879b9e411e74"},"vehicle_type_id":"4","last_reported":1717690181,"current_range_meters":0,"station_id":"chh1huq6cuj3fo74tm60","pricing_plan_id":"cebpf4jnsgd1na2vs0mg"},{"bike_id":"1e4cb530-b35e-46bc-af02-4605aa1f0d41","system_id":"levelo_inurba_marseille","lat":43.330442,"lon":5.389148,"is_reserved":false,"is_disabled":false,"rental_uris":{"android":"levelo://app?vid=1e4cb530-b35e-46bc-af02-4605aa1f0d41","ios":"levelo://app?vid=1e4cb530-b35e-46bc-af02-4605aa1f0d41"},"vehicle_type_id":"4","last_reported":1717690181,"current_range_meters":30800,"station_id":"ce4bhr92rcd13ifvqhrg","pricing_plan_id":"cebpf4jnsgd1na2vs0mg"},{"bike_id":"cffc201d-7790-486d-afc6-9a1555dad034","system_id":"levelo_inurba_marseille","lat":43.291068,"lon":5.382719,"is_reserved":false,"is_disabled":false,"rental_uris":{"android":"levelo://app?vid=cffc201d-7790-486d-afc6-9a1555dad034","ios":"levelo://app?vid=cffc201d-7790-486d-afc6-9a1555dad034"},"vehicle_type_id":"4","last_reported":1717690181,"current_range_meters":0,"station_id":"ce4bh692rcd13ifvqea0","pricing_plan_id":"cebpf4jnsgd1na2vs0mg"},{"bike_id":"84bad996-d789-47d8-8660-67dd709671c2","system_id":"levelo_inurba_marseille","lat":43.289741,"lon":5.378306,"is_reserved":false,"is_disabled":false,"rental_uris":{"android":"levelo://app?vid=84bad996-d789-47d8-8660-67dd709671c2","ios":"levelo://app?vid=84bad996-d789-47d8-8660-67dd709671c2"},"vehicle_type_id":"4","last_reported":1717690181,"current_range_meters":18800,"station_id":"ce4bh9p2rcd13ifvqed0","pricing_plan_id":"cebpf4jnsgd1na2vs0mg"},{"bike_id":"07c1553e-1e6a-4c9f-b99e-a6cbdf14ab2f","system_id":"levelo_inurba_marseille","lat":43.2901,"lon":5.381269,"is_reserved":false,"is_disabled":false,"rental_uris":{"android":"levelo://app?vid=07c1553e-1e6a-4c9f-b99e-a6cbdf14ab2f","ios":"levelo://app?vid=07c1553e-1e6a-4c9f-b99e-a6cbdf14ab2f"},"vehicle_type_id":"4","last_reported":1717690181,"current_range_meters":3600,"station_id":"ce4bh4p2rcd13ifvqe1g","pricing_plan_id":"cebpf4jnsgd1na2vs0mg"},{"bike_id":"a9766cdd-7de7-4134-b7ff-cac442e9e3d7","system_id":"levelo_inurba_marseille","lat":43.2901,"lon":5.381269,"is_reserved":false,"is_disabled":false,"rental_uris":{"android":"levelo://app?vid=a9766cdd-7de7-4134-b7ff-cac442e9e3d7","ios":"levelo://app?vid=a9766cdd-7de7-4134-b7ff-cac442e9e3d7"},"vehicle_type_id":"4","last_reported":1717690181,"current_range_meters":1200,"station_id":"ce4bh4p2rcd13ifvqe1g","pricing_plan_id":"cebpf4jnsgd1na2vs0mg"},{"bike_id":"008fed87-515e-45fd-b022-e36dd56022dc","system_id":"levelo_inurba_marseille","lat":43.290094,"lon":5.381264,"is_reserved":false,"is_disabled":false,"rental_uris":{"android":"levelo://app?vid=008fed87-515e-45fd-b022-e36dd56022dc","ios":"levelo://app?vid=008fed87-515e-45fd-b022-e36dd56022dc"},"vehicle_type_id":"4","last_reported":1717690181,"current_range_meters":12800,"station_id":"ce4bh4p2rcd13ifvqe1g","pricing_plan_id":"cebpf4jnsgd1na2vs0mg"},{"bike_id":"23bbc85b-4c7c-412d-ae0b-186f56c92817","system_id":"levelo_inurba_marseille","lat":43.290094,"lon":5.381264,"is_reserved":false,"is_disabled":false,"rental_uris":{"android":"levelo://app?vid=23bbc85b-4c7c-412d-ae0b-186f56c92817","ios":"levelo://app?vid=23bbc85b-4c7c-412d-ae0b-186f56c92817"},"vehicle_type_id":"4","last_reported":1717690181,"current_range_meters":0,"station_id":"ce4bh4p2rcd13ifvqe1g","pricing_plan_id":"cebpf4jnsgd1na2vs0mg"},{"bike_id":"80d42a0d-8bc9-49bf-a8ba-4de4ecbc7cd8","system_id":"levelo_inurba_marseille","lat":43.28856,"lon":5.358371,"is_reserved":false,"is_disabled":false,"rental_uris":{"android":"levelo://app?vid=80d42a0d-8bc9-49bf-a8ba-4de4ecbc7cd8","ios":"levelo://app?vid=80d42a0d-8bc9-49bf-a8ba-4de4ecbc7cd8"},"vehicle_type_id":"4","last_reported":1717690181,"current_range_meters":4800,"station_id":"ce4bhb12rcd13ifvqem0","pricing_plan_id":"cebpf4jnsgd1na2vs0mg"},{"bike_id":"78d0c1eb-ded6-4872-8fc0-40da4a7e997d","system_id":"levelo_inurba_marseille","lat":43.28856,"lon":5.358371,"is_reserved":false,"is_disabled":false,"rental_uris":{"android":"levelo://app?vid=78d0c1eb-ded6-4872-8fc0-40da4a7e997d","ios":"levelo://app?vid=78d0c1eb-ded6-4872-8fc0-40da4a7e997d"},"vehicle_type_id":"4","last_reported":1717690181,"current_range_meters":5600,"station_id":"ce4bhb12rcd13ifvqem0","pricing_plan_id":"cebpf4jnsgd1na2vs0mg"},{"bike_id":"1e15065a-68ef-41e1-a2e9-c34675feb986","system_id":"levelo_inurba_marseille","lat":43.28856,"lon":5.358371,"is_reserved":false,"is_disabled":false,"rental_uris":{"android":"levelo://app?vid=1e15065a-68ef-41e1-a2e9-c34675feb986","ios":"levelo://app?vid=1e15065a-68ef-41e1-a2e9-c34675feb986"},"vehicle_type_id":"4","last_reported":1717690181,"current_range_meters":16400,"station_id":"ce4bhb12rcd13ifvqem0","pricing_plan_id":"cebpf4jnsgd1na2vs0mg"},{"bike_id":"c675cf26-cae2-4dd1-b9b1-1217d2ad30c7","system_id":"levelo_inurba_marseille","lat":43.28856,"lon":5.358371,"is_reserved":false,"is_disabled":false,"rental_uris":{"android":"levelo://app?vid=c675cf26-cae2-4dd1-b9b1-1217d2ad30c7","ios":"levelo://app?vid=c675cf26-cae2-4dd1-b9b1-1217d2ad30c7"},"vehicle_type_id":"4","last_reported":1717690181,"current_range_meters":4800,"station_id":"ce4bhb12rcd13ifvqem0","pricing_plan_id":"cebpf4jnsgd1na2vs0mg"},{"bike_id":"d866d6a5-f89a-4795-b2b0-118399f8734c","system_id":"levelo_inurba_marseille","lat":43.2884,"lon":5.35849,"is_reserved":false,"is_disabled":false,"rental_uris":{"android":"levelo://app?vid=d866d6a5-f89a-4795-b2b0-118399f8734c","ios":"levelo://app?vid=d866d6a5-f89a-4795-b2b0-118399f8734c"},"vehicle_type_id":"4","last_reported":1717690181,"current_range_meters":0,"station_id":"ce4bhb12rcd13ifvqem0","pricing_plan_id":"cebpf4jnsgd1na2vs0mg"},{"bike_id":"f5d81ff7-7e0d-44d8-86e3-2548419d17b8","system_id":"levelo_inurba_marseille","lat":43.337408,"lon":5.374571,"is_reserved":false,"is_disabled":false,"rental_uris":{"android":"levelo://app?vid=f5d81ff7-7e0d-44d8-86e3-2548419d17b8","ios":"levelo://app?vid=f5d81ff7-7e0d-44d8-86e3-2548419d17b8"},"vehicle_type_id":"4","last_reported":1717690181,"current_range_meters":6000,"station_id":"","pricing_plan_id":"cebpf4jnsgd1na2vs0mg"},{"bike_id":"c5db30a9-1917-4244-a19c-b82ec8747ce7","system_id":"levelo_inurba_marseille","lat":43.312609,"lon":5.401662,"is_reserved":false,"is_disabled":false,"rental_uris":{"android":"levelo://app?vid=c5db30a9-1917-4244-a19c-b82ec8747ce7","ios":"levelo://app?vid=c5db30a9-1917-4244-a19c-b82ec8747ce7"},"vehicle_type_id":"4","last_reported":1717690181,"current_range_meters":22800,"station_id":"ce4bh092rcd13ifvqd30","pricing_plan_id":"cebpf4jnsgd1na2vs0mg"},{"bike_id":"c09be793-7ee6-4772-8f11-2f59f93aa6a6","system_id":"levelo_inurba_marseille","lat":43.309216,"lon":5.401376,"is_reserved":false,"is_disabled":false,"rental_uris":{"android":"levelo://app?vid=c09be793-7ee6-4772-8f11-2f59f93aa6a6","ios":"levelo://app?vid=c09be793-7ee6-4772-8f11-2f59f93aa6a6"},"vehicle_type_id":"4","last_reported":1717690181,"current_range_meters":0,"station_id":"","pricing_plan_id":"cebpf4jnsgd1na2vs0mg"},{"bike_id":"4e785c2c-3400-4ee1-ae07-455aa733d567","system_id":"levelo_inurba_marseille","lat":43.337418,"lon":5.37491,"is_reserved":false,"is_disabled":false,"rental_uris":{"android":"levelo://app?vid=4e785c2c-3400-4ee1-ae07-455aa733d567","ios":"levelo://app?vid=4e785c2c-3400-4ee1-ae07-455aa733d567"},"vehicle_type_id":"4","last_reported":1717690181,"current_range_meters":24800,"station_id":"","pricing_plan_id":"cebpf4jnsgd1na2vs0mg"},{"bike_id":"e2b652d3-1b12-4762-9d1c-f04d4c2d47ce","system_id":"levelo_inurba_marseille","lat":43.309371,"lon":5.401449,"is_reserved":false,"is_disabled":false,"rental_uris":{"android":"levelo://app?vid=e2b652d3-1b12-4762-9d1c-f04d4c2d47ce","ios":"levelo://app?vid=e2b652d3-1b12-4762-9d1c-f04d4c2d47ce"},"vehicle_type_id":"4","last_reported":1717690181,"current_range_meters":0,"station_id":"ce4bgvp2rcd13ifvqct0","pricing_plan_id":"cebpf4jnsgd1na2vs0mg"},{"bike_id":"cbf27dc7-e173-49ec-8104-fc8f00280f03","system_id":"levelo_inurba_marseille","lat":43.33753,"lon":5.37454,"is_reserved":false,"is_disabled":false,"rental_uris":{"android":"levelo://app?vid=cbf27dc7-e173-49ec-8104-fc8f00280f03","ios":"levelo://app?vid=cbf27dc7-e173-49ec-8104-fc8f00280f03"},"vehicle_type_id":"4","last_reported":1717690181,"current_range_meters":24400,"station_id":"","pricing_plan_id":"cebpf4jnsgd1na2vs0mg"},{"bike_id":"6653d934-6eb6-4ebc-aed7-d061e1ed4123","system_id":"levelo_inurba_marseille","lat":43.306412,"lon":5.401035,"is_reserved":false,"is_disabled":false,"rental_uris":{"android":"levelo://app?vid=6653d934-6eb6-4ebc-aed7-d061e1ed4123","ios":"levelo://app?vid=6653d934-6eb6-4ebc-aed7-d061e1ed4123"},"vehicle_type_id":"4","last_reported":1717690181,"current_range_meters":26800,"station_id":"ce4bh112rcd13ifvqda0","pricing_plan_id":"cebpf4jnsgd1na2vs0mg"},{"bike_id":"b16f397f-d627-4d26-89ab-cd47113fb471","system_id":"levelo_inurba_marseille","lat":43.301117,"lon":5.398795,"is_reserved":false,"is_disabled":false,"rental_uris":{"android":"levelo://app?vid=b16f397f-d627-4d26-89ab-cd47113fb471","ios":"levelo://app?vid=b16f397f-d627-4d26-89ab-cd47113fb471"},"vehicle_type_id":"4","last_reported":1717690181,"current_range_meters":32000,"station_id":"ce4bh0h2rcd13ifvqd40","pricing_plan_id":"cebpf4jnsgd1na2vs0mg"},{"bike_id":"d542856c-ef9a-4172-9ebd-161b38b16668","system_id":"levelo_inurba_marseille","lat":43.287067,"lon":5.364555,"is_reserved":false,"is_disabled":false,"rental_uris":{"android":"levelo://app?vid=d542856c-ef9a-4172-9ebd-161b38b16668","ios":"levelo://app?vid=d542856c-ef9a-4172-9ebd-161b38b16668"},"vehicle_type_id":"4","last_reported":1717690181,"current_range_meters":12400,"station_id":"ce4bhah2rcd13ifvqej0","pricing_plan_id":"cebpf4jnsgd1na2vs0mg"},{"bike_id":"8ac636a2-2951-4afc-ad64-83915c5a52f8","system_id":"levelo_inurba_marseille","lat":43.301117,"lon":5.398795,"is_reserved":false,"is_disabled":false,"rental_uris":{"android":"levelo://app?vid=8ac636a2-2951-4afc-ad64-83915c5a52f8","ios":"levelo://app?vid=8ac636a2-2951-4afc-ad64-83915c5a52f8"},"vehicle_type_id":"4","last_reported":1717690181,"current_range_meters":4400,"station_id":"ce4bh0h2rcd13ifvqd40","pricing_plan_id":"cebpf4jnsgd1na2vs0mg"},{"bike_id":"788b47d8-5626-4d3a-b5c4-71a0bb1fa9d7","system_id":"levelo_inurba_marseille","lat":43.301117,"lon":5.398795,"is_reserved":false,"is_disabled":false,"rental_uris":{"android":"levelo://app?vid=788b47d8-5626-4d3a-b5c4-71a0bb1fa9d7","ios":"levelo://app?vid=788b47d8-5626-4d3a-b5c4-71a0bb1fa9d7"},"vehicle_type_id":"4","last_reported":1717690181,"current_range_meters":28800,"station_id":"ce4bh0h2rcd13ifvqd40","pricing_plan_id":"cebpf4jnsgd1na2vs0mg"},{"bike_id":"6b119a1d-4b7c-43e8-8f27-17057396c2c9","system_id":"levelo_inurba_marseille","lat":43.28727,"lon":5.36078,"is_reserved":false,"is_disabled":false,"rental_uris":{"android":"levelo://app?vid=6b119a1d-4b7c-43e8-8f27-17057396c2c9","ios":"levelo://app?vid=6b119a1d-4b7c-43e8-8f27-17057396c2c9"},"vehicle_type_id":"4","last_reported":1717690181,"current_range_meters":31200,"station_id":"cki0cbj6b192h4jlfktg","pricing_plan_id":"cebpf4jnsgd1na2vs0mg"},{"bike_id":"632da11f-c70d-4f00-9dc8-8cff88311353","system_id":"levelo_inurba_marseille","lat":43.28727,"lon":5.36078,"is_reserved":false,"is_disabled":false,"rental_uris":{"android":"levelo://app?vid=632da11f-c70d-4f00-9dc8-8cff88311353","ios":"levelo://app?vid=632da11f-c70d-4f00-9dc8-8cff88311353"},"vehicle_type_id":"4","last_reported":1717690181,"current_range_meters":400,"station_id":"cki0cbj6b192h4jlfktg","pricing_plan_id":"cebpf4jnsgd1na2vs0mg"},{"bike_id":"753cebd3-2b3d-48a6-8fe0-b8116402de3d","system_id":"levelo_inurba_marseille","lat":43.287229,"lon":5.360903,"is_reserved":false,"is_disabled":false,"rental_uris":{"android":"levelo://app?vid=753cebd3-2b3d-48a6-8fe0-b8116402de3d","ios":"levelo://app?vid=753cebd3-2b3d-48a6-8fe0-b8116402de3d"},"vehicle_type_id":"4","last_reported":1717690181,"current_range_meters":23600,"station_id":"","pricing_plan_id":"cebpf4jnsgd1na2vs0mg"},{"bike_id":"d9830706-ad6e-4603-a4df-c2ca9f88bb49","system_id":"levelo_inurba_marseille","lat":43.298681,"lon":5.397225,"is_reserved":false,"is_disabled":false,"rental_uris":{"android":"levelo://app?vid=d9830706-ad6e-4603-a4df-c2ca9f88bb49","ios":"levelo://app?vid=d9830706-ad6e-4603-a4df-c2ca9f88bb49"},"vehicle_type_id":"4","last_reported":1717690181,"current_range_meters":6800,"station_id":"ce4bh0h2rcd13ifvqd50","pricing_plan_id":"cebpf4jnsgd1na2vs0mg"},{"bike_id":"8435e28c-658c-4017-9fca-7d9785e9752a","system_id":"levelo_inurba_marseille","lat":43.298681,"lon":5.397225,"is_reserved":false,"is_disabled":false,"rental_uris":{"android":"levelo://app?vid=8435e28c-658c-4017-9fca-7d9785e9752a","ios":"levelo://app?vid=8435e28c-658c-4017-9fca-7d9785e9752a"},"vehicle_type_id":"4","last_reported":1717690181,"current_range_meters":10000,"station_id":"ce4bh0h2rcd13ifvqd50","pricing_plan_id":"cebpf4jnsgd1na2vs0mg"},{"bike_id":"06248102-9588-453f-a32b-69e270e93ae6","system_id":"levelo_inurba_marseille","lat":43.286666,"lon":5.363524,"is_reserved":false,"is_disabled":false,"rental_uris":{"android":"levelo://app?vid=06248102-9588-453f-a32b-69e270e93ae6","ios":"levelo://app?vid=06248102-9588-453f-a32b-69e270e93ae6"},"vehicle_type_id":"4","last_reported":1717690181,"current_range_meters":1600,"station_id":"ce4bhah2rcd13ifvqej0","pricing_plan_id":"cebpf4jnsgd1na2vs0mg"},{"bike_id":"4206a7fe-c961-49d5-b9c9-44a3e0fa49b2","system_id":"levelo_inurba_marseille","lat":43.298681,"lon":5.397225,"is_reserved":false,"is_disabled":false,"rental_uris":{"android":"levelo://app?vid=4206a7fe-c961-49d5-b9c9-44a3e0fa49b2","ios":"levelo://app?vid=4206a7fe-c961-49d5-b9c9-44a3e0fa49b2"},"vehicle_type_id":"4","last_reported":1717690181,"current_range_meters":12400,"station_id":"ce4bh0h2rcd13ifvqd50","pricing_plan_id":"cebpf4jnsgd1na2vs0mg"},{"bike_id":"644b9821-1c44-4282-b073-1edf70497e76","system_id":"levelo_inurba_marseille","lat":43.286961,"lon":5.373785,"is_reserved":false,"is_disabled":false,"rental_uris":{"android":"levelo://app?vid=644b9821-1c44-4282-b073-1edf70497e76","ios":"levelo://app?vid=644b9821-1c44-4282-b073-1edf70497e76"},"vehicle_type_id":"4","last_reported":1717690181,"current_range_meters":0,"station_id":"ce4bh3p2rcd13ifvqdq0","pricing_plan_id":"cebpf4jnsgd1na2vs0mg"},{"bike_id":"03968f6b-be95-4b8a-bc90-55d975553a60","system_id":"levelo_inurba_marseille","lat":43.298681,"lon":5.397225,"is_reserved":false,"is_disabled":false,"rental_uris":{"android":"levelo://app?vid=03968f6b-be95-4b8a-bc90-55d975553a60","ios":"levelo://app?vid=03968f6b-be95-4b8a-bc90-55d975553a60"},"vehicle_type_id":"4","last_reported":1717690181,"current_range_meters":20400,"station_id":"ce4bh0h2rcd13ifvqd50","pricing_plan_id":"cebpf4jnsgd1na2vs0mg"},{"bike_id":"5150cb3b-0be1-445a-9aed-798b710b1d7f","system_id":"levelo_inurba_marseille","lat":43.286591,"lon":5.363346,"is_reserved":false,"is_disabled":false,"rental_uris":{"android":"levelo://app?vid=5150cb3b-0be1-445a-9aed-798b710b1d7f","ios":"levelo://app?vid=5150cb3b-0be1-445a-9aed-798b710b1d7f"},"vehicle_type_id":"4","last_reported":1717690181,"current_range_meters":2000,"station_id":"ce4bhah2rcd13ifvqej0","pricing_plan_id":"cebpf4jnsgd1na2vs0mg"},{"bike_id":"c9460a13-36ed-49b9-8275-7586db5724b6","system_id":"levelo_inurba_marseille","lat":43.286591,"lon":5.363346,"is_reserved":false,"is_disabled":false,"rental_uris":{"android":"levelo://app?vid=c9460a13-36ed-49b9-8275-7586db5724b6","ios":"levelo://app?vid=c9460a13-36ed-49b9-8275-7586db5724b6"},"vehicle_type_id":"4","last_reported":1717690181,"current_range_meters":800,"station_id":"ce4bhah2rcd13ifvqej0","pricing_plan_id":"cebpf4jnsgd1na2vs0mg"},{"bike_id":"234d4b19-0091-41cb-9813-7946cb97da2e","system_id":"levelo_inurba_marseille","lat":43.286961,"lon":5.373785,"is_reserved":false,"is_disabled":false,"rental_uris":{"android":"levelo://app?vid=234d4b19-0091-41cb-9813-7946cb97da2e","ios":"levelo://app?vid=234d4b19-0091-41cb-9813-7946cb97da2e"},"vehicle_type_id":"4","last_reported":1717690181,"current_range_meters":13200,"station_id":"ce4bh3p2rcd13ifvqdq0","pricing_plan_id":"cebpf4jnsgd1na2vs0mg"},{"bike_id":"bdea97e9-25c5-4d3e-aa41-3dcff4775bc5","system_id":"levelo_inurba_marseille","lat":43.295196,"lon":5.39397,"is_reserved":false,"is_disabled":false,"rental_uris":{"android":"levelo://app?vid=bdea97e9-25c5-4d3e-aa41-3dcff4775bc5","ios":"levelo://app?vid=bdea97e9-25c5-4d3e-aa41-3dcff4775bc5"},"vehicle_type_id":"4","last_reported":1717690181,"current_range_meters":1200,"station_id":"ce4bh292rcd13ifvqdf0","pricing_plan_id":"cebpf4jnsgd1na2vs0mg"},{"bike_id":"663fa89c-0893-41e6-95a9-f381d6abe183","system_id":"levelo_inurba_marseille","lat":43.286591,"lon":5.363346,"is_reserved":false,"is_disabled":false,"rental_uris":{"android":"levelo://app?vid=663fa89c-0893-41e6-95a9-f381d6abe183","ios":"levelo://app?vid=663fa89c-0893-41e6-95a9-f381d6abe183"},"vehicle_type_id":"4","last_reported":1717690181,"current_range_meters":800,"station_id":"ce4bhah2rcd13ifvqej0","pricing_plan_id":"cebpf4jnsgd1na2vs0mg"},{"bike_id":"199278b7-d592-40b7-a0d8-6e8d48f642c3","system_id":"levelo_inurba_marseille","lat":43.290314,"lon":5.386302,"is_reserved":false,"is_disabled":false,"rental_uris":{"android":"levelo://app?vid=199278b7-d592-40b7-a0d8-6e8d48f642c3","ios":"levelo://app?vid=199278b7-d592-40b7-a0d8-6e8d48f642c3"},"vehicle_type_id":"4","last_reported":1717690181,"current_range_meters":15600,"station_id":"ce4bhhh2rcd13ifvqfk0","pricing_plan_id":"cebpf4jnsgd1na2vs0mg"},{"bike_id":"4b0cf501-726b-487c-85b4-b502f0422bda","system_id":"levelo_inurba_marseille","lat":43.289307,"lon":5.38406,"is_reserved":false,"is_disabled":false,"rental_uris":{"android":"levelo://app?vid=4b0cf501-726b-487c-85b4-b502f0422bda","ios":"levelo://app?vid=4b0cf501-726b-487c-85b4-b502f0422bda"},"vehicle_type_id":"4","last_reported":1717690181,"current_range_meters":14800,"station_id":"ce4bh612rcd13ifvqe6g","pricing_plan_id":"cebpf4jnsgd1na2vs0mg"},{"bike_id":"a525096a-e50a-41aa-9f41-d76d2cabf220","system_id":"levelo_inurba_marseille","lat":43.290345,"lon":5.38646,"is_reserved":false,"is_disabled":false,"rental_uris":{"android":"levelo://app?vid=a525096a-e50a-41aa-9f41-d76d2cabf220","ios":"levelo://app?vid=a525096a-e50a-41aa-9f41-d76d2cabf220"},"vehicle_type_id":"4","last_reported":1717690181,"current_range_meters":3200,"station_id":"ce4bh4p2rcd13ifvqe0g","pricing_plan_id":"cebpf4jnsgd1na2vs0mg"},{"bike_id":"e1582871-0efd-45ff-99be-442949982539","system_id":"levelo_inurba_marseille","lat":43.298681,"lon":5.397225,"is_reserved":false,"is_disabled":false,"rental_uris":{"android":"levelo://app?vid=e1582871-0efd-45ff-99be-442949982539","ios":"levelo://app?vid=e1582871-0efd-45ff-99be-442949982539"},"vehicle_type_id":"4","last_reported":1717690181,"current_range_meters":30400,"station_id":"ce4bh0h2rcd13ifvqd50","pricing_plan_id":"cebpf4jnsgd1na2vs0mg"},{"bike_id":"ed68aca0-97d9-44c7-aaf9-a28cca0ac086","system_id":"levelo_inurba_marseille","lat":43.290336,"lon":5.386425,"is_reserved":false,"is_disabled":false,"rental_uris":{"android":"levelo://app?vid=ed68aca0-97d9-44c7-aaf9-a28cca0ac086","ios":"levelo://app?vid=ed68aca0-97d9-44c7-aaf9-a28cca0ac086"},"vehicle_type_id":"4","last_reported":1717690181,"current_range_meters":7200,"station_id":"ce4bh4p2rcd13ifvqe0g","pricing_plan_id":"cebpf4jnsgd1na2vs0mg"},{"bike_id":"3e24e099-05ab-40fc-a0fe-48686fec6e07","system_id":"levelo_inurba_marseille","lat":43.302759,"lon":5.400793,"is_reserved":false,"is_disabled":false,"rental_uris":{"android":"levelo://app?vid=3e24e099-05ab-40fc-a0fe-48686fec6e07","ios":"levelo://app?vid=3e24e099-05ab-40fc-a0fe-48686fec6e07"},"vehicle_type_id":"4","last_reported":1717690181,"current_range_meters":25600,"station_id":"ce4bgvh2rcd13ifvqcs0","pricing_plan_id":"cebpf4jnsgd1na2vs0mg"},{"bike_id":"1e75fa05-b258-4d5b-aac9-0455873026ff","system_id":"levelo_inurba_marseille","lat":43.290336,"lon":5.386425,"is_reserved":false,"is_disabled":false,"rental_uris":{"android":"levelo://app?vid=1e75fa05-b258-4d5b-aac9-0455873026ff","ios":"levelo://app?vid=1e75fa05-b258-4d5b-aac9-0455873026ff"},"vehicle_type_id":"4","last_reported":1717690181,"current_range_meters":1200,"station_id":"ce4bh4p2rcd13ifvqe0g","pricing_plan_id":"cebpf4jnsgd1na2vs0mg"},{"bike_id":"5fecca9a-8b88-4707-b00b-a5df309024d9","system_id":"levelo_inurba_marseille","lat":43.290345,"lon":5.38646,"is_reserved":false,"is_disabled":false,"rental_uris":{"android":"levelo://app?vid=5fecca9a-8b88-4707-b00b-a5df309024d9","ios":"levelo://app?vid=5fecca9a-8b88-4707-b00b-a5df309024d9"},"vehicle_type_id":"4","last_reported":1717690181,"current_range_meters":7600,"station_id":"ce4bh4p2rcd13ifvqe0g","pricing_plan_id":"cebpf4jnsgd1na2vs0mg"},{"bike_id":"b0ece759-6577-47b8-a5d9-8c40d89c03b9","system_id":"levelo_inurba_marseille","lat":43.302759,"lon":5.400793,"is_reserved":false,"is_disabled":false,"rental_uris":{"android":"levelo://app?vid=b0ece759-6577-47b8-a5d9-8c40d89c03b9","ios":"levelo://app?vid=b0ece759-6577-47b8-a5d9-8c40d89c03b9"},"vehicle_type_id":"4","last_reported":1717690181,"current_range_meters":20400,"station_id":"ce4bgvh2rcd13ifvqcs0","pricing_plan_id":"cebpf4jnsgd1na2vs0mg"},{"bike_id":"2e49fe7e-256f-4932-9068-3581d9cd73c3","system_id":"levelo_inurba_marseille","lat":43.302759,"lon":5.400793,"is_reserved":false,"is_disabled":false,"rental_uris":{"android":"levelo://app?vid=2e49fe7e-256f-4932-9068-3581d9cd73c3","ios":"levelo://app?vid=2e49fe7e-256f-4932-9068-3581d9cd73c3"},"vehicle_type_id":"4","last_reported":1717690181,"current_range_meters":26000,"station_id":"ce4bgvh2rcd13ifvqcs0","pricing_plan_id":"cebpf4jnsgd1na2vs0mg"},{"bike_id":"f7a983f5-7215-4a18-9001-f74703946dd1","system_id":"levelo_inurba_marseille","lat":43.302759,"lon":5.400793,"is_reserved":false,"is_disabled":false,"rental_uris":{"android":"levelo://app?vid=f7a983f5-7215-4a18-9001-f74703946dd1","ios":"levelo://app?vid=f7a983f5-7215-4a18-9001-f74703946dd1"},"vehicle_type_id":"4","last_reported":1717690181,"current_range_meters":10000,"station_id":"ce4bgvh2rcd13ifvqcs0","pricing_plan_id":"cebpf4jnsgd1na2vs0mg"},{"bike_id":"72f3f537-7b60-42cb-b151-98d81c5da266","system_id":"levelo_inurba_marseille","lat":43.290336,"lon":5.386425,"is_reserved":false,"is_disabled":false,"rental_uris":{"android":"levelo://app?vid=72f3f537-7b60-42cb-b151-98d81c5da266","ios":"levelo://app?vid=72f3f537-7b60-42cb-b151-98d81c5da266"},"vehicle_type_id":"4","last_reported":1717690181,"current_range_meters":2800,"station_id":"ce4bh4p2rcd13ifvqe0g","pricing_plan_id":"cebpf4jnsgd1na2vs0mg"},{"bike_id":"20e1b421-2a39-444f-ab20-4587cdb27e15","system_id":"levelo_inurba_marseille","lat":43.289307,"lon":5.38406,"is_reserved":false,"is_disabled":false,"rental_uris":{"android":"levelo://app?vid=20e1b421-2a39-444f-ab20-4587cdb27e15","ios":"levelo://app?vid=20e1b421-2a39-444f-ab20-4587cdb27e15"},"vehicle_type_id":"4","last_reported":1717690181,"current_range_meters":16400,"station_id":"ce4bh612rcd13ifvqe6g","pricing_plan_id":"cebpf4jnsgd1na2vs0mg"},{"bike_id":"f0fe0466-15b0-4ec9-ad2c-d080ccbe13ac","system_id":"levelo_inurba_marseille","lat":43.289307,"lon":5.38406,"is_reserved":false,"is_disabled":false,"rental_uris":{"android":"levelo://app?vid=f0fe0466-15b0-4ec9-ad2c-d080ccbe13ac","ios":"levelo://app?vid=f0fe0466-15b0-4ec9-ad2c-d080ccbe13ac"},"vehicle_type_id":"4","last_reported":1717690181,"current_range_meters":18800,"station_id":"ce4bh612rcd13ifvqe6g","pricing_plan_id":"cebpf4jnsgd1na2vs0mg"},{"bike_id":"daec2ac8-6633-4b05-80ab-1db20fb84dbc","system_id":"levelo_inurba_marseille","lat":43.286039,"lon":5.370679,"is_reserved":false,"is_disabled":false,"rental_uris":{"android":"levelo://app?vid=daec2ac8-6633-4b05-80ab-1db20fb84dbc","ios":"levelo://app?vid=daec2ac8-6633-4b05-80ab-1db20fb84dbc"},"vehicle_type_id":"4","last_reported":1717690181,"current_range_meters":1200,"station_id":"ce4bht12rcd13ifvqi60","pricing_plan_id":"cebpf4jnsgd1na2vs0mg"},{"bike_id":"c6525aa4-9b9b-40b1-af37-0d9e6fb69015","system_id":"levelo_inurba_marseille","lat":43.301887,"lon":5.400603,"is_reserved":false,"is_disabled":false,"rental_uris":{"android":"levelo://app?vid=c6525aa4-9b9b-40b1-af37-0d9e6fb69015","ios":"levelo://app?vid=c6525aa4-9b9b-40b1-af37-0d9e6fb69015"},"vehicle_type_id":"4","last_reported":1717690181,"current_range_meters":1200,"station_id":"ce4bgvh2rcd13ifvqcs0","pricing_plan_id":"cebpf4jnsgd1na2vs0mg"},{"bike_id":"ecf104d7-9ac0-40e6-8fb6-215439dc0d54","system_id":"levelo_inurba_marseille","lat":43.287184,"lon":5.37937,"is_reserved":false,"is_disabled":false,"rental_uris":{"android":"levelo://app?vid=ecf104d7-9ac0-40e6-8fb6-215439dc0d54","ios":"levelo://app?vid=ecf104d7-9ac0-40e6-8fb6-215439dc0d54"},"vehicle_type_id":"4","last_reported":1717690181,"current_range_meters":24400,"station_id":"ce4bh9p2rcd13ifvqec0","pricing_plan_id":"cebpf4jnsgd1na2vs0mg"},{"bike_id":"cb64cb05-09da-4b3c-bc3a-6fd09421c0ec","system_id":"levelo_inurba_marseille","lat":43.287185,"lon":5.379373,"is_reserved":false,"is_disabled":false,"rental_uris":{"android":"levelo://app?vid=cb64cb05-09da-4b3c-bc3a-6fd09421c0ec","ios":"levelo://app?vid=cb64cb05-09da-4b3c-bc3a-6fd09421c0ec"},"vehicle_type_id":"4","last_reported":1717690181,"current_range_meters":4000,"station_id":"ce4bh9p2rcd13ifvqec0","pricing_plan_id":"cebpf4jnsgd1na2vs0mg"},{"bike_id":"b418e069-a962-44ef-a702-c2dd0e8ed75c","system_id":"levelo_inurba_marseille","lat":43.287184,"lon":5.37937,"is_reserved":false,"is_disabled":false,"rental_uris":{"android":"levelo://app?vid=b418e069-a962-44ef-a702-c2dd0e8ed75c","ios":"levelo://app?vid=b418e069-a962-44ef-a702-c2dd0e8ed75c"},"vehicle_type_id":"4","last_reported":1717690181,"current_range_meters":0,"station_id":"ce4bh9p2rcd13ifvqec0","pricing_plan_id":"cebpf4jnsgd1na2vs0mg"},{"bike_id":"5632af19-ae9a-4ca8-9ebd-884e7a16a0c9","system_id":"levelo_inurba_marseille","lat":43.29795,"lon":5.404086,"is_reserved":false,"is_disabled":false,"rental_uris":{"android":"levelo://app?vid=5632af19-ae9a-4ca8-9ebd-884e7a16a0c9","ios":"levelo://app?vid=5632af19-ae9a-4ca8-9ebd-884e7a16a0c9"},"vehicle_type_id":"4","last_reported":1717690181,"current_range_meters":10000,"station_id":"ce4bh112rcd13ifvqd90","pricing_plan_id":"cebpf4jnsgd1na2vs0mg"},{"bike_id":"1dcb1cfb-420b-4a72-ba59-a4ef27032493","system_id":"levelo_inurba_marseille","lat":43.316828,"lon":5.404723,"is_reserved":false,"is_disabled":false,"rental_uris":{"android":"levelo://app?vid=1dcb1cfb-420b-4a72-ba59-a4ef27032493","ios":"levelo://app?vid=1dcb1cfb-420b-4a72-ba59-a4ef27032493"},"vehicle_type_id":"4","last_reported":1717690181,"current_range_meters":0,"station_id":"ce4bh012rcd13ifvqd00","pricing_plan_id":"cebpf4jnsgd1na2vs0mg"},{"bike_id":"8602dd06-8392-479f-956b-d1308f91b76e","system_id":"levelo_inurba_marseille","lat":43.316821,"lon":5.404737,"is_reserved":false,"is_disabled":false,"rental_uris":{"android":"levelo://app?vid=8602dd06-8392-479f-956b-d1308f91b76e","ios":"levelo://app?vid=8602dd06-8392-479f-956b-d1308f91b76e"},"vehicle_type_id":"4","last_reported":1717690181,"current_range_meters":5600,"station_id":"ce4bh012rcd13ifvqd00","pricing_plan_id":"cebpf4jnsgd1na2vs0mg"},{"bike_id":"66e04b2f-1680-4574-85f1-db63b1f8e917","system_id":"levelo_inurba_marseille","lat":43.316821,"lon":5.404737,"is_reserved":false,"is_disabled":false,"rental_uris":{"android":"levelo://app?vid=66e04b2f-1680-4574-85f1-db63b1f8e917","ios":"levelo://app?vid=66e04b2f-1680-4574-85f1-db63b1f8e917"},"vehicle_type_id":"4","last_reported":1717690181,"current_range_meters":8000,"station_id":"ce4bh012rcd13ifvqd00","pricing_plan_id":"cebpf4jnsgd1na2vs0mg"},{"bike_id":"5aeb0edb-d492-4ef5-95f7-e24209889bf1","system_id":"levelo_inurba_marseille","lat":43.31685,"lon":5.40481,"is_reserved":false,"is_disabled":false,"rental_uris":{"android":"levelo://app?vid=5aeb0edb-d492-4ef5-95f7-e24209889bf1","ios":"levelo://app?vid=5aeb0edb-d492-4ef5-95f7-e24209889bf1"},"vehicle_type_id":"4","last_reported":1717690181,"current_range_meters":0,"station_id":"","pricing_plan_id":"cebpf4jnsgd1na2vs0mg"},{"bike_id":"2166162b-51ec-4819-a017-e5440879fb83","system_id":"levelo_inurba_marseille","lat":43.291994,"lon":5.392907,"is_reserved":false,"is_disabled":false,"rental_uris":{"android":"levelo://app?vid=2166162b-51ec-4819-a017-e5440879fb83","ios":"levelo://app?vid=2166162b-51ec-4819-a017-e5440879fb83"},"vehicle_type_id":"4","last_reported":1717690181,"current_range_meters":9600,"station_id":"ce4bh192rcd13ifvqdd0","pricing_plan_id":"cebpf4jnsgd1na2vs0mg"},{"bike_id":"3f5c8307-9ece-4722-ab6d-c9ed818bebc7","system_id":"levelo_inurba_marseille","lat":43.291994,"lon":5.392907,"is_reserved":false,"is_disabled":false,"rental_uris":{"android":"levelo://app?vid=3f5c8307-9ece-4722-ab6d-c9ed818bebc7","ios":"levelo://app?vid=3f5c8307-9ece-4722-ab6d-c9ed818bebc7"},"vehicle_type_id":"4","last_reported":1717690181,"current_range_meters":9600,"station_id":"ce4bh192rcd13ifvqdd0","pricing_plan_id":"cebpf4jnsgd1na2vs0mg"},{"bike_id":"a44f1dd3-b066-483e-bd30-bf2cf16c206b","system_id":"levelo_inurba_marseille","lat":43.291994,"lon":5.392907,"is_reserved":false,"is_disabled":false,"rental_uris":{"android":"levelo://app?vid=a44f1dd3-b066-483e-bd30-bf2cf16c206b","ios":"levelo://app?vid=a44f1dd3-b066-483e-bd30-bf2cf16c206b"},"vehicle_type_id":"4","last_reported":1717690181,"current_range_meters":19600,"station_id":"ce4bh192rcd13ifvqdd0","pricing_plan_id":"cebpf4jnsgd1na2vs0mg"},{"bike_id":"d9c28679-b52c-49c6-bd77-cc7ea70467b6","system_id":"levelo_inurba_marseille","lat":43.291994,"lon":5.392907,"is_reserved":false,"is_disabled":false,"rental_uris":{"android":"levelo://app?vid=d9c28679-b52c-49c6-bd77-cc7ea70467b6","ios":"levelo://app?vid=d9c28679-b52c-49c6-bd77-cc7ea70467b6"},"vehicle_type_id":"4","last_reported":1717690181,"current_range_meters":16800,"station_id":"ce4bh192rcd13ifvqdd0","pricing_plan_id":"cebpf4jnsgd1na2vs0mg"},{"bike_id":"cdf94a7b-baa3-4601-bab8-213f72e11050","system_id":"levelo_inurba_marseille","lat":43.286757,"lon":5.351546,"is_reserved":false,"is_disabled":false,"rental_uris":{"android":"levelo://app?vid=cdf94a7b-baa3-4601-bab8-213f72e11050","ios":"levelo://app?vid=cdf94a7b-baa3-4601-bab8-213f72e11050"},"vehicle_type_id":"4","last_reported":1717690181,"current_range_meters":6000,"station_id":"ce4bhch2rcd13ifvqeug","pricing_plan_id":"cebpf4jnsgd1na2vs0mg"},{"bike_id":"0a9b882b-a2cf-478f-bb0a-57a55dc1961f","system_id":"levelo_inurba_marseille","lat":43.284538,"lon":5.358657,"is_reserved":false,"is_disabled":false,"rental_uris":{"android":"levelo://app?vid=0a9b882b-a2cf-478f-bb0a-57a55dc1961f","ios":"levelo://app?vid=0a9b882b-a2cf-478f-bb0a-57a55dc1961f"},"vehicle_type_id":"4","last_reported":1717690181,"current_range_meters":14400,"station_id":"ce4bhah2rcd13ifvqei0","pricing_plan_id":"cebpf4jnsgd1na2vs0mg"},{"bike_id":"013f178e-9748-46f6-9037-8d6751a04fa2","system_id":"levelo_inurba_marseille","lat":43.284538,"lon":5.358657,"is_reserved":false,"is_disabled":false,"rental_uris":{"android":"levelo://app?vid=013f178e-9748-46f6-9037-8d6751a04fa2","ios":"levelo://app?vid=013f178e-9748-46f6-9037-8d6751a04fa2"},"vehicle_type_id":"4","last_reported":1717690181,"current_range_meters":21200,"station_id":"ce4bhah2rcd13ifvqei0","pricing_plan_id":"cebpf4jnsgd1na2vs0mg"},{"bike_id":"9a8df173-c0c0-4d8e-8c8f-de6aac7b0fce","system_id":"levelo_inurba_marseille","lat":43.284534,"lon":5.358662,"is_reserved":false,"is_disabled":false,"rental_uris":{"android":"levelo://app?vid=9a8df173-c0c0-4d8e-8c8f-de6aac7b0fce","ios":"levelo://app?vid=9a8df173-c0c0-4d8e-8c8f-de6aac7b0fce"},"vehicle_type_id":"4","last_reported":1717690181,"current_range_meters":26400,"station_id":"ce4bhah2rcd13ifvqei0","pricing_plan_id":"cebpf4jnsgd1na2vs0mg"},{"bike_id":"366a722f-8cf5-4293-8935-65d9be6283d7","system_id":"levelo_inurba_marseille","lat":43.294314,"lon":5.397498,"is_reserved":false,"is_disabled":false,"rental_uris":{"android":"levelo://app?vid=366a722f-8cf5-4293-8935-65d9be6283d7","ios":"levelo://app?vid=366a722f-8cf5-4293-8935-65d9be6283d7"},"vehicle_type_id":"4","last_reported":1717690181,"current_range_meters":5600,"station_id":"ce4bh3h2rcd13ifvqdo0","pricing_plan_id":"cebpf4jnsgd1na2vs0mg"},{"bike_id":"7778bf7b-1db7-45d9-97ef-59441651b3b6","system_id":"levelo_inurba_marseille","lat":43.284538,"lon":5.358657,"is_reserved":false,"is_disabled":false,"rental_uris":{"android":"levelo://app?vid=7778bf7b-1db7-45d9-97ef-59441651b3b6","ios":"levelo://app?vid=7778bf7b-1db7-45d9-97ef-59441651b3b6"},"vehicle_type_id":"4","last_reported":1717690181,"current_range_meters":12400,"station_id":"ce4bhah2rcd13ifvqei0","pricing_plan_id":"cebpf4jnsgd1na2vs0mg"},{"bike_id":"16cc38c0-887b-468c-b43a-ed6ebbd035f4","system_id":"levelo_inurba_marseille","lat":43.284534,"lon":5.358662,"is_reserved":false,"is_disabled":false,"rental_uris":{"android":"levelo://app?vid=16cc38c0-887b-468c-b43a-ed6ebbd035f4","ios":"levelo://app?vid=16cc38c0-887b-468c-b43a-ed6ebbd035f4"},"vehicle_type_id":"4","last_reported":1717690181,"current_range_meters":800,"station_id":"ce4bhah2rcd13ifvqei0","pricing_plan_id":"cebpf4jnsgd1na2vs0mg"},{"bike_id":"1d8a2d9f-a712-4f95-94dc-133993937386","system_id":"levelo_inurba_marseille","lat":43.284538,"lon":5.358657,"is_reserved":false,"is_disabled":false,"rental_uris":{"android":"levelo://app?vid=1d8a2d9f-a712-4f95-94dc-133993937386","ios":"levelo://app?vid=1d8a2d9f-a712-4f95-94dc-133993937386"},"vehicle_type_id":"4","last_reported":1717690181,"current_range_meters":400,"station_id":"ce4bhah2rcd13ifvqei0","pricing_plan_id":"cebpf4jnsgd1na2vs0mg"},{"bike_id":"596aec3a-e589-48e1-8550-7ac6178c1192","system_id":"levelo_inurba_marseille","lat":43.284534,"lon":5.358662,"is_reserved":false,"is_disabled":false,"rental_uris":{"android":"levelo://app?vid=596aec3a-e589-48e1-8550-7ac6178c1192","ios":"levelo://app?vid=596aec3a-e589-48e1-8550-7ac6178c1192"},"vehicle_type_id":"4","last_reported":1717690181,"current_range_meters":0,"station_id":"ce4bhah2rcd13ifvqei0","pricing_plan_id":"cebpf4jnsgd1na2vs0mg"},{"bike_id":"1cc111f0-357f-4e2f-af18-8fd6d4e81f7c","system_id":"levelo_inurba_marseille","lat":43.284538,"lon":5.358657,"is_reserved":false,"is_disabled":false,"rental_uris":{"android":"levelo://app?vid=1cc111f0-357f-4e2f-af18-8fd6d4e81f7c","ios":"levelo://app?vid=1cc111f0-357f-4e2f-af18-8fd6d4e81f7c"},"vehicle_type_id":"4","last_reported":1717690181,"current_range_meters":29200,"station_id":"ce4bhah2rcd13ifvqei0","pricing_plan_id":"cebpf4jnsgd1na2vs0mg"},