{"last_updated":1727212017,"ttl":60,"version":"2.2","data":{"bikes":[{"bike_id":"d5908469-4ad0-4d90-bfbf-96709fc22e92","system_id":"levelo_inurba_marseille","lat":43.275,"lon":5.42449,"is_reserved":false,"is_disabled":false,"rental_uris":{"android":"levelo://app?vid=d5908469-4ad0-4d90-bfbf-96709fc22e92","ios":"levelo://app?vid=d5908469-4ad0-4d90-bfbf-96709fc22e92"},"vehicle_type_id":"4","last_reported":1727212017,"current_range_meters":38400,"station_id":"ce4bhn92rcd13ifvqgrg","pricing_plan_id":"cebpf4jnsgd1na2vs0mg"},{"bike_id":"dc929efc-0c43-486c-9a16-d8a71128110d","system_id":"levelo_inurba_marseille","lat":43.28432,"lon":5.34996,"is_reserved":false,"is_disabled":false,"rental_uris":{"android":"levelo://app?vid=dc929efc-0c43-486c-9a16-d8a71128110d","ios":"levelo://app?vid=dc929efc-0c43-486c-9a16-d8a71128110d"},"vehicle_type_id":"4","last_reported":1727212017,"current_range_meters":20400,"station_id":"ce4bhbh2rcd13ifvqepg","pricing_plan_id":"cebpf4jnsgd1na2vs0mg"},{"bike_id":"8ee7fb84-da46-476f-a091-3c35d33d7645","system_id":"levelo_inurba_marseille","lat":43.27943,"lon":5.41044,"is_reserved":false,"is_disabled":false,"rental_uris":{"android":"levelo://app?vid=8ee7fb84-da46-476f-a091-3c35d33d7645","ios":"levelo://app?vid=8ee7fb84-da46-476f-a091-3c35d33d7645"},"vehicle_type_id":"4","last_reported":1727212017,"current_range_meters":14000,"station_id":"ce4bhnp2rcd13ifvqh0g","pricing_plan_id":"cebpf4jnsgd1na2vs0mg"},{"bike_id":"a867207d-ca9d-438a-92e2-8cf8e679686d","system_id":"levelo_inurba_marseille","lat":43.27895,"lon":5.38016,"is_reserved":false,"is_disabled":false,"rental_uris":{"android":"levelo://app?vid=a867207d-ca9d-438a-92e2-8cf8e679686d","ios":"levelo://app?vid=a867207d-ca9d-438a-92e2-8cf8e679686d"},"vehicle_type_id":"4","last_reported":1727212017,"current_range_meters":32800,"station_id":"ce4bhf92rcd13ifvqf50","pricing_plan_id":"cebpf4jnsgd1na2vs0mg"},{"bike_id":"c85c3ac1-ec61-453b-a260-9f3875c4a0d0","system_id":"levelo_inurba_marseille","lat":43.27955,"lon":5.41047,"is_reserved":false,"is_disabled":false,"rental_uris":{"android":"levelo://app?vid=c85c3ac1-ec61-453b-a260-9f3875c4a0d0","ios":"levelo://app?vid=c85c3ac1-ec61-453b-a260-9f3875c4a0d0"},"vehicle_type_id":"4","last_reported":1727212017,"current_range_meters":28400,"station_id":"ce4bhnp2rcd13ifvqh0g","pricing_plan_id":"cebpf4jnsgd1na2vs0mg"},{"bike_id":"72784618-c3e2-44b5-babf-8d7f67e9e3a2","system_id":"levelo_inurba_marseille","lat":43.30887,"lon":5.39634,"is_reserved":false,"is_disabled":false,"rental_uris":{"android":"levelo://app?vid=72784618-c3e2-44b5-babf-8d7f67e9e3a2","ios":"levelo://app?vid=72784618-c3e2-44b5-babf-8d7f67e9e3a2"},"vehicle_type_id":"4","last_reported":1727212017,"current_range_meters":22800,"station_id":"ce4bh012rcd13ifvqcv0","pricing_plan_id":"cebpf4jnsgd1na2vs0mg"},{"bike_id":"fd1aa1ae-79f8-4d42-a8d1-b39762946286","system_id":"levelo_inurba_marseille","lat":43.25724,"lon":5.41109,"is_reserved":false,"is_disabled":false,"rental_uris":{"android":"levelo://app?vid=fd1aa1ae-79f8-4d42-a8d1-b39762946286","ios":"levelo://app?vid=fd1aa1ae-79f8-4d42-a8d1-b39762946286"},"vehicle_type_id":"4","last_reported":1727212017,"current_range_meters":38800,"station_id":"ce4bhkp2rcd13ifvqgd0","pricing_plan_id":"cebpf4jnsgd1na2vs0mg"},{"bike_id":"3c374343-aa99-421a-8521-b9bd189598db","system_id":"levelo_inurba_marseille","lat":43.2828,"lon":5.35074,"is_reserved":false,"is_disabled":false,"rental_uris":{"android":"levelo://app?vid=3c374343-aa99-421a-8521-b9bd189598db","ios":"levelo://app?vid=3c374343-aa99-421a-8521-b9bd189598db"},"vehicle_type_id":"4","last_reported":1727212017,"current_range_meters":37600,"station_id":"ce4bhbp2rcd13ifvqerg","pricing_plan_id":"cebpf4jnsgd1na2vs0mg"},{"bike_id":"0d4b5458-b225-48a0-afcc-d519ae9c6167","system_id":"levelo_inurba_marseille","lat":43.32658,"lon":5.40986,"is_reserved":false,"is_disabled":false,"rental_uris":{"android":"levelo://app?vid=0d4b5458-b225-48a0-afcc-d519ae9c6167","ios":"levelo://app?vid=0d4b5458-b225-48a0-afcc-d519ae9c6167"},"vehicle_type_id":"4","last_reported":1727212017,"current_range_meters":38800,"station_id":"ce4bhpp2rcd13ifvqhgg","pricing_plan_id":"cebpf4jnsgd1na2vs0mg"},{"bike_id":"c6cd9b70-3b14-42a0-9ee3-01408936a20e","system_id":"levelo_inurba_marseille","lat":43.27789,"lon":5.40755,"is_reserved":false,"is_disabled":false,"rental_uris":{"android":"levelo://app?vid=c6cd9b70-3b14-42a0-9ee3-01408936a20e","ios":"levelo://app?vid=c6cd9b70-3b14-42a0-9ee3-01408936a20e"},"vehicle_type_id":"4","last_reported":1727212017,"current_range_meters":18000,"station_id":"ce4bhnh2rcd13ifvqgtg","pricing_plan_id":"cebpf4jnsgd1na2vs0mg"},{"bike_id":"9926f8d4-52ff-41d7-995b-39e4b6d4cdc0","system_id":"levelo_inurba_marseille","lat":43.32482,"lon":5.36566,"is_reserved":false,"is_disabled":false,"rental_uris":{"android":"levelo://app?vid=9926f8d4-52ff-41d7-995b-39e4b6d4cdc0","ios":"levelo://app?vid=9926f8d4-52ff-41d7-995b-39e4b6d4cdc0"},"vehicle_type_id":"4","last_reported":1727212017,"current_range_meters":38800,"station_id":"ce4bhs12rcd13ifvqhvg","pricing_plan_id":"cebpf4jnsgd1na2vs0mg"},{"bike_id":"31c81cbf-bc97-485d-99cc-1c48e223b569","system_id":"levelo_inurba_marseille","lat":43.24661,"lon":5.38167,"is_reserved":false,"is_disabled":false,"rental_uris":{"android":"levelo://app?vid=31c81cbf-bc97-485d-99cc-1c48e223b569","ios":"levelo://app?vid=31c81cbf-bc97-485d-99cc-1c48e223b569"},"vehicle_type_id":"4","last_reported":1727212017,"current_range_meters":36800,"station_id":"ce4bhih2rcd13ifvqfr0","pricing_plan_id":"cebpf4jnsgd1na2vs0mg"},{"bike_id":"881645e5-f4c7-4b41-b4c9-d93404411ab1","system_id":"levelo_inurba_marseille","lat":43.26563,"lon":5.39019,"is_reserved":false,"is_disabled":false,"rental_uris":{"android":"levelo://app?vid=881645e5-f4c7-4b41-b4c9-d93404411ab1","ios":"levelo://app?vid=881645e5-f4c7-4b41-b4c9-d93404411ab1"},"vehicle_type_id":"4","last_reported":1727212017,"current_range_meters":38800,"station_id":"ce4bhe12rcd13ifvqf30","pricing_plan_id":"cebpf4jnsgd1na2vs0mg"},{"bike_id":"cbc03ce7-b441-469e-bbab-40847c31f3d2","system_id":"levelo_inurba_marseille","lat":43.279515,"lon":5.410443,"is_reserved":false,"is_disabled":false,"rental_uris":{"android":"levelo://app?vid=cbc03ce7-b441-469e-bbab-40847c31f3d2","ios":"levelo://app?vid=cbc03ce7-b441-469e-bbab-40847c31f3d2"},"vehicle_type_id":"4","last_reported":1727212017,"current_range_meters":38000,"station_id":"ce4bhnp2rcd13ifvqh0g","pricing_plan_id":"cebpf4jnsgd1na2vs0mg"},{"bike_id":"ec724cf6-fe96-4daa-a90b-9893a4843c6c","system_id":"levelo_inurba_marseille","lat":43.30925,"lon":5.4015,"is_reserved":false,"is_disabled":false,"rental_uris":{"android":"levelo://app?vid=ec724cf6-fe96-4daa-a90b-9893a4843c6c","ios":"levelo://app?vid=ec724cf6-fe96-4daa-a90b-9893a4843c6c"},"vehicle_type_id":"4","last_reported":1727212017,"current_range_meters":27600,"station_id":"ce4bgvp2rcd13ifvqct0","pricing_plan_id":"cebpf4jnsgd1na2vs0mg"},{"bike_id":"9acec9ee-03ac-47c6-938a-7db8a9781163","system_id":"levelo_inurba_marseille","lat":43.275726,"lon":5.384172,"is_reserved":false,"is_disabled":false,"rental_uris":{"android":"levelo://app?vid=9acec9ee-03ac-47c6-938a-7db8a9781163","ios":"levelo://app?vid=9acec9ee-03ac-47c6-938a-7db8a9781163"},"vehicle_type_id":"4","last_reported":1727212017,"current_range_meters":16800,"station_id":"ce4bhh92rcd13ifvqfi0","pricing_plan_id":"cebpf4jnsgd1na2vs0mg"},{"bike_id":"d1d9d1ea-2518-4c90-a28c-2a7e4d20b9ff","system_id":"levelo_inurba_marseille","lat":43.30309,"lon":5.39213,"is_reserved":false,"is_disabled":false,"rental_uris":{"android":"levelo://app?vid=d1d9d1ea-2518-4c90-a28c-2a7e4d20b9ff","ios":"levelo://app?vid=d1d9d1ea-2518-4c90-a28c-2a7e4d20b9ff"},"vehicle_type_id":"4","last_reported":1727212017,"current_range_meters":36800,"station_id":"ce4bgkh2rcd13ifvqbk0","pricing_plan_id":"cebpf4jnsgd1na2vs0mg"},{"bike_id":"a9371692-24fd-4baa-b35b-5365d2bb38f4","system_id":"levelo_inurba_marseille","lat":43.302613,"lon":5.377227,"is_reserved":false,"is_disabled":false,"rental_uris":{"android":"levelo://app?vid=a9371692-24fd-4baa-b35b-5365d2bb38f4","ios":"levelo://app?vid=a9371692-24fd-4baa-b35b-5365d2bb38f4"},"vehicle_type_id":"4","last_reported":1727212017,"current_range_meters":12000,"station_id":"ce4bguh2rcd13ifvqcj0","pricing_plan_id":"cebpf4jnsgd1na2vs0mg"},{"bike_id":"4bed8f61-4944-44c0-92df-9de32cadf857","system_id":"levelo_inurba_marseille","lat":43.31235,"lon":5.36861,"is_reserved":false,"is_disabled":false,"rental_uris":{"android":"levelo://app?vid=4bed8f61-4944-44c0-92df-9de32cadf857","ios":"levelo://app?vid=4bed8f61-4944-44c0-92df-9de32cadf857"},"vehicle_type_id":"4","last_reported":1727212017,"current_range_meters":1200,"station_id":"ce4bgl92rcd13ifvqbq0","pricing_plan_id":"cebpf4jnsgd1na2vs0mg"},{"bike_id":"c2e767df-d13b-4bd7-a35a-c449057287bc","system_id":"levelo_inurba_marseille","lat":43.30788,"lon":5.37657,"is_reserved":false,"is_disabled":false,"rental_uris":{"android":"levelo://app?vid=c2e767df-d13b-4bd7-a35a-c449057287bc","ios":"levelo://app?vid=c2e767df-d13b-4bd7-a35a-c449057287bc"},"vehicle_type_id":"4","last_reported":1727212017,"current_range_meters":39200,"station_id":"ce4bgv92rcd13ifvqcq0","pricing_plan_id":"cebpf4jnsgd1na2vs0mg"},{"bike_id":"9c03e0f0-96c4-48fe-a0c9-2ff39af48c29","system_id":"levelo_inurba_marseille","lat":43.31994,"lon":5.38154,"is_reserved":false,"is_disabled":false,"rental_uris":{"android":"levelo://app?vid=9c03e0f0-96c4-48fe-a0c9-2ff39af48c29","ios":"levelo://app?vid=9c03e0f0-96c4-48fe-a0c9-2ff39af48c29"},"vehicle_type_id":"4","last_reported":1727212017,"current_range_meters":39200,"station_id":"ce4bhr12rcd13ifvqhpg","pricing_plan_id":"cebpf4jnsgd1na2vs0mg"},{"bike_id":"4bbcfecc-f6d8-4b41-8c7a-a73e0cd6d734","system_id":"levelo_inurba_marseille","lat":43.27946,"lon":5.41041,"is_reserved":false,"is_disabled":false,"rental_uris":{"android":"levelo://app?vid=4bbcfecc-f6d8-4b41-8c7a-a73e0cd6d734","ios":"levelo://app?vid=4bbcfecc-f6d8-4b41-8c7a-a73e0cd6d734"},"vehicle_type_id":"4","last_reported":1727212017,"current_range_meters":10800,"station_id":"ce4bhnp2rcd13ifvqh0g","pricing_plan_id":"cebpf4jnsgd1na2vs0mg"},{"bike_id":"08e2b91c-16d5-478b-bcac-2aacef01c141","system_id":"levelo_inurba_marseille","lat":43.30419,"lon":5.41287,"is_reserved":false,"is_disabled":false,"rental_uris":{"android":"levelo://app?vid=08e2b91c-16d5-478b-bcac-2aacef01c141","ios":"levelo://app?vid=08e2b91c-16d5-478b-bcac-2aacef01c141"},"vehicle_type_id":"4","last_reported":1727212017,"current_range_meters":38800,"station_id":"ce4bhop2rcd13ifvqh8g","pricing_plan_id":"cebpf4jnsgd1na2vs0mg"},{"bike_id":"2ec5f482-ef2f-4ef8-b42f-3ca6cf554387","system_id":"levelo_inurba_marseille","lat":43.31333,"lon":5.39692,"is_reserved":false,"is_disabled":false,"rental_uris":{"android":"levelo://app?vid=2ec5f482-ef2f-4ef8-b42f-3ca6cf554387","ios":"levelo://app?vid=2ec5f482-ef2f-4ef8-b42f-3ca6cf554387"},"vehicle_type_id":"4","last_reported":1727212017,"current_range_meters":39200,"station_id":"ce4bgvp2rcd13ifvqcu0","pricing_plan_id":"cebpf4jnsgd1na2vs0mg"},{"bike_id":"7737b815-6daf-41f0-8354-4b28ba75917f","system_id":"levelo_inurba_marseille","lat":43.30192,"lon":5.39832,"is_reserved":false,"is_disabled":false,"rental_uris":{"android":"levelo://app?vid=7737b815-6daf-41f0-8354-4b28ba75917f","ios":"levelo://app?vid=7737b815-6daf-41f0-8354-4b28ba75917f"},"vehicle_type_id":"4","last_reported":1727212017,"current_range_meters":20800,"station_id":"ce4bgvp2rcd13ifvqct0","pricing_plan_id":"cebpf4jnsgd1na2vs0mg"},{"bike_id":"fc6084a5-ac73-4518-9a62-7f419bd877ea","system_id":"levelo_inurba_marseille","lat":43.3079,"lon":5.3765,"is_reserved":false,"is_disabled":false,"rental_uris":{"android":"levelo://app?vid=fc6084a5-ac73-4518-9a62-7f419bd877ea","ios":"levelo://app?vid=fc6084a5-ac73-4518-9a62-7f419bd877ea"},"vehicle_type_id":"4","last_reported":1727212017,"current_range_meters":6800,"station_id":"ce4bgv92rcd13ifvqcq0","pricing_plan_id":"cebpf4jnsgd1na2vs0mg"},{"bike_id":"37d634b8-0da9-4533-8238-95a091b609bc","system_id":"levelo_inurba_marseille","lat":43.3189,"lon":5.40734,"is_reserved":false,"is_disabled":false,"rental_uris":{"android":"levelo://app?vid=37d634b8-0da9-4533-8238-95a091b609bc","ios":"levelo://app?vid=37d634b8-0da9-4533-8238-95a091b609bc"},"vehicle_type_id":"4","last_reported":1727212017,"current_range_meters":36800,"station_id":"ce4bhq12rcd13ifvqhig","pricing_plan_id":"cebpf4jnsgd1na2vs0mg"},{"bike_id":"93af468c-1321-4d4c-99c3-612c9b0da5a4","system_id":"levelo_inurba_marseille","lat":43.25827,"lon":5.39434,"is_reserved":false,"is_disabled":false,"rental_uris":{"android":"levelo://app?vid=93af468c-1321-4d4c-99c3-612c9b0da5a4","ios":"levelo://app?vid=93af468c-1321-4d4c-99c3-612c9b0da5a4"},"vehicle_type_id":"4","last_reported":1727212017,"current_range_meters":10000,"station_id":"ce4bhip2rcd13ifvqft0","pricing_plan_id":"cebpf4jnsgd1na2vs0mg"},{"bike_id":"12a91ca7-89e2-4321-ab83-41b6880d06bb","system_id":"levelo_inurba_marseille","lat":43.28402,"lon":5.37525,"is_reserved":false,"is_disabled":false,"rental_uris":{"android":"levelo://app?vid=12a91ca7-89e2-4321-ab83-41b6880d06bb","ios":"levelo://app?vid=12a91ca7-89e2-4321-ab83-41b6880d06bb"},"vehicle_type_id":"4","last_reported":1727212017,"current_range_meters":30000,"station_id":"ce4bh412rcd13ifvqds0","pricing_plan_id":"cebpf4jnsgd1na2vs0mg"},{"bike_id":"9e8a6286-2aa6-4c4f-837d-ef22b57ca874","system_id":"levelo_inurba_marseille","lat":43.24082,"lon":5.37756,"is_reserved":false,"is_disabled":false,"rental_uris":{"android":"levelo://app?vid=9e8a6286-2aa6-4c4f-837d-ef22b57ca874","ios":"levelo://app?vid=9e8a6286-2aa6-4c4f-837d-ef22b57ca874"},"vehicle_type_id":"4","last_reported":1727212017,"current_range_meters":25200,"station_id":"ce4bhnp2rcd13ifvqgvg","pricing_plan_id":"cebpf4jnsgd1na2vs0mg"},{"bike_id":"f2d3a346-9600-4f43-b76b-2b4ec5e8d36a","system_id":"levelo_inurba_marseille","lat":43.24667,"lon":5.38156,"is_reserved":false,"is_disabled":false,"rental_uris":{"android":"levelo://app?vid=f2d3a346-9600-4f43-b76b-2b4ec5e8d36a","ios":"levelo://app?vid=f2d3a346-9600-4f43-b76b-2b4ec5e8d36a"},"vehicle_type_id":"4","last_reported":1727212017,"current_range_meters":29600,"station_id":"ce4bhih2rcd13ifvqfr0","pricing_plan_id":"cebpf4jnsgd1na2vs0mg"},{"bike_id":"f8c704cc-636c-4268-80af-5309e4b09904","system_id":"levelo_inurba_marseille","lat":43.24185,"lon":5.39724,"is_reserved":false,"is_disabled":false,"rental_uris":{"android":"levelo://app?vid=f8c704cc-636c-4268-80af-5309e4b09904","ios":"levelo://app?vid=f8c704cc-636c-4268-80af-5309e4b09904"},"vehicle_type_id":"4","last_reported":1727212017,"current_range_meters":36400,"station_id":"ce4bhn12rcd13ifvqgpg","pricing_plan_id":"cebpf4jnsgd1na2vs0mg"},{"bike_id":"8db4eeae-90dc-450b-8149-34b6ce69b1f8","system_id":"levelo_inurba_marseille","lat":43.23189,"lon":5.39982,"is_reserved":false,"is_disabled":false,"rental_uris":{"android":"levelo://app?vid=8db4eeae-90dc-450b-8149-34b6ce69b1f8","ios":"levelo://app?vid=8db4eeae-90dc-450b-8149-34b6ce69b1f8"},"vehicle_type_id":"4","last_reported":1727212017,"current_range_meters":30000,"station_id":"ce4bhn12rcd13ifvqgqg","pricing_plan_id":"cebpf4jnsgd1na2vs0mg"},{"bike_id":"20bdd43a-fb86-4a6a-8151-53f794460f1a","system_id":"levelo_inurba_marseille","lat":43.28405,"lon":5.37517,"is_reserved":false,"is_disabled":false,"rental_uris":{"android":"levelo://app?vid=20bdd43a-fb86-4a6a-8151-53f794460f1a","ios":"levelo://app?vid=20bdd43a-fb86-4a6a-8151-53f794460f1a"},"vehicle_type_id":"4","last_reported":1727212017,"current_range_meters":15200,"station_id":"ce4bh412rcd13ifvqds0","pricing_plan_id":"cebpf4jnsgd1na2vs0mg"},{"bike_id":"70bccdf8-98e3-41bd-b25c-63e0ff8fd9d7","system_id":"levelo_inurba_marseille","lat":43.30145,"lon":5.38088,"is_reserved":false,"is_disabled":false,"rental_uris":{"android":"levelo://app?vid=70bccdf8-98e3-41bd-b25c-63e0ff8fd9d7","ios":"levelo://app?vid=70bccdf8-98e3-41bd-b25c-63e0ff8fd9d7"},"vehicle_type_id":"4","last_reported":1727212017,"current_range_meters":38800,"station_id":"ce4bgjp2rcd13ifvqbh0","pricing_plan_id":"cebpf4jnsgd1na2vs0mg"},{"bike_id":"2b53c05c-7e74-451c-9f0a-5f217febdc56","system_id":"levelo_inurba_marseille","lat":43.30143,"lon":5.37711,"is_reserved":false,"is_disabled":false,"rental_uris":{"android":"levelo://app?vid=2b53c05c-7e74-451c-9f0a-5f217febdc56","ios":"levelo://app?vid=2b53c05c-7e74-451c-9f0a-5f217febdc56"},"vehicle_type_id":"4","last_reported":1727212017,"current_range_meters":6800,"station_id":"","pricing_plan_id":"cebpf4jnsgd1na2vs0mg"},{"bike_id":"7a8458d5-44ac-4f2e-abef-3f01eb31f7ca","system_id":"levelo_inurba_marseille","lat":43.337444,"lon":5.374475,"is_reserved":false,"is_disabled":false,"rental_uris":{"android":"levelo://app?vid=7a8458d5-44ac-4f2e-abef-3f01eb31f7ca","ios":"levelo://app?vid=7a8458d5-44ac-4f2e-abef-3f01eb31f7ca"},"vehicle_type_id":"4","last_reported":1727212017,"current_range_meters":28400,"station_id":"","pricing_plan_id":"cebpf4jnsgd1na2vs0mg"},{"bike_id":"e9f58633-02b7-482f-be0a-1808b0ff1f1b","system_id":"levelo_inurba_marseille","lat":43.32367,"lon":5.38879,"is_reserved":false,"is_disabled":false,"rental_uris":{"android":"levelo://app?vid=e9f58633-02b7-482f-be0a-1808b0ff1f1b","ios":"levelo://app?vid=e9f58633-02b7-482f-be0a-1808b0ff1f1b"},"vehicle_type_id":"4","last_reported":1727212017,"current_range_meters":24000,"station_id":"ce4bhqp2rcd13ifvqhog","pricing_plan_id":"cebpf4jnsgd1na2vs0mg"},{"bike_id":"12d5813c-bef4-4788-8bf7-21573df55f53","system_id":"levelo_inurba_marseille","lat":43.27906,"lon":5.38009,"is_reserved":false,"is_disabled":false,"rental_uris":{"android":"levelo://app?vid=12d5813c-bef4-4788-8bf7-21573df55f53","ios":"levelo://app?vid=12d5813c-bef4-4788-8bf7-21573df55f53"},"vehicle_type_id":"4","last_reported":1727212017,"current_range_meters":36400,"station_id":"ce4bhf92rcd13ifvqf50","pricing_plan_id":"cebpf4jnsgd1na2vs0mg"},{"bike_id":"c9b5ec6f-9235-414f-8086-a847b21c71d9","system_id":"levelo_inurba_marseille","lat":43.32,"lon":5.38155,"is_reserved":false,"is_disabled":false,"rental_uris":{"android":"levelo://app?vid=c9b5ec6f-9235-414f-8086-a847b21c71d9","ios":"levelo://app?vid=c9b5ec6f-9235-414f-8086-a847b21c71d9"},"vehicle_type_id":"4","last_reported":1727212017,"current_range_meters":39200,"station_id":"ce4bhr12rcd13ifvqhpg","pricing_plan_id":"cebpf4jnsgd1na2vs0mg"},{"bike_id":"a1f389dd-bb24-412b-85a7-c4163f3337bb","system_id":"levelo_inurba_marseille","lat":43.31746,"lon":5.39024,"is_reserved":false,"is_disabled":false,"rental_uris":{"android":"levelo://app?vid=a1f389dd-bb24-412b-85a7-c4163f3337bb","ios":"levelo://app?vid=a1f389dd-bb24-412b-85a7-c4163f3337bb"},"vehicle_type_id":"4","last_reported":1727212017,"current_range_meters":30800,"station_id":"ce4bhqp2rcd13ifvqhng","pricing_plan_id":"cebpf4jnsgd1na2vs0mg"},{"bike_id":"36450a01-8f71-4323-abb9-677aa1b31b9c","system_id":"levelo_inurba_marseille","lat":43.27826,"lon":5.39209,"is_reserved":false,"is_disabled":false,"rental_uris":{"android":"levelo://app?vid=36450a01-8f71-4323-abb9-677aa1b31b9c","ios":"levelo://app?vid=36450a01-8f71-4323-abb9-677aa1b31b9c"},"vehicle_type_id":"4","last_reported":1727212017,"current_range_meters":38800,"station_id":"ce4bhjp2rcd13ifvqga0","pricing_plan_id":"cebpf4jnsgd1na2vs0mg"},{"bike_id":"82f6d67c-2125-4f4c-9911-ab7c94f6da56","system_id":"levelo_inurba_marseille","lat":43.28664,"lon":5.36365,"is_reserved":false,"is_disabled":false,"rental_uris":{"android":"levelo://app?vid=82f6d67c-2125-4f4c-9911-ab7c94f6da56","ios":"levelo://app?vid=82f6d67c-2125-4f4c-9911-ab7c94f6da56"},"vehicle_type_id":"4","last_reported":1727212017,"current_range_meters":10000,"station_id":"ce4bhah2rcd13ifvqej0","pricing_plan_id":"cebpf4jnsgd1na2vs0mg"},{"bike_id":"4628adaa-a8b2-423a-91e1-6faa5c881c75","system_id":"levelo_inurba_marseille","lat":43.27945,"lon":5.41046,"is_reserved":false,"is_disabled":false,"rental_uris":{"android":"levelo://app?vid=4628adaa-a8b2-423a-91e1-6faa5c881c75","ios":"levelo://app?vid=4628adaa-a8b2-423a-91e1-6faa5c881c75"},"vehicle_type_id":"4","last_reported":1727212017,"current_range_meters":38800,"station_id":"ce4bhnp2rcd13ifvqh0g","pricing_plan_id":"cebpf4jnsgd1na2vs0mg"},{"bike_id":"173443cc-b829-4093-a757-cf7e821856d6","system_id":"levelo_inurba_marseille","lat":43.29794,"lon":5.40415,"is_reserved":false,"is_disabled":false,"rental_uris":{"android":"levelo://app?vid=173443cc-b829-4093-a757-cf7e821856d6","ios":"levelo://app?vid=173443cc-b829-4093-a757-cf7e821856d6"},"vehicle_type_id":"4","last_reported":1727212017,"current_range_meters":4000,"station_id":"ce4bh112rcd13ifvqd90","pricing_plan_id":"cebpf4jnsgd1na2vs0mg"},{"bike_id":"0187dbe4-866c-4031-9cbb-94cdd92f6a82","system_id":"levelo_inurba_marseille","lat":43.29258,"lon":5.36662,"is_reserved":false,"is_disabled":false,"rental_uris":{"android":"levelo://app?vid=0187dbe4-866c-4031-9cbb-94cdd92f6a82","ios":"levelo://app?vid=0187dbe4-866c-4031-9cbb-94cdd92f6a82"},"vehicle_type_id":"4","last_reported":1727212017,"current_range_meters":2800,"station_id":"","pricing_plan_id":"cebpf4jnsgd1na2vs0mg"},{"bike_id":"7e0db598-d5ac-4a36-be7e-365383be7ade","system_id":"levelo_inurba_marseille","lat":43.292008,"lon":5.393367,"is_reserved":false,"is_disabled":false,"rental_uris":{"android":"levelo://app?vid=7e0db598-d5ac-4a36-be7e-365383be7ade","ios":"levelo://app?vid=7e0db598-d5ac-4a36-be7e-365383be7ade"},"vehicle_type_id":"4","last_reported":1727212017,"current_range_meters":37600,"station_id":"ce4bh192rcd13ifvqdd0","pricing_plan_id":"cebpf4jnsgd1na2vs0mg"},{"bike_id":"195e040e-9409-49d3-9dd3-bcac34d34007","system_id":"levelo_inurba_marseille","lat":43.22933,"lon":5.35378,"is_reserved":false,"is_disabled":false,"rental_uris":{"android":"levelo://app?vid=195e040e-9409-49d3-9dd3-bcac34d34007","ios":"levelo://app?vid=195e040e-9409-49d3-9dd3-bcac34d34007"},"vehicle_type_id":"4","last_reported":1727212017,"current_range_meters":16800,"station_id":"cpo3532slgdg3j2ikp40","pricing_plan_id":"cebpf4jnsgd1na2vs0mg"},{"bike_id":"cefb6643-fc89-4b04-b95f-6cff2759399c","system_id":"levelo_inurba_marseille","lat":43.32293,"lon":5.3827,"is_reserved":false,"is_disabled":false,"rental_uris":{"android":"levelo://app?vid=cefb6643-fc89-4b04-b95f-6cff2759399c","ios":"levelo://app?vid=cefb6643-fc89-4b04-b95f-6cff2759399c"},"vehicle_type_id":"4","last_reported":1727212017,"current_range_meters":39200,"station_id":"ce4bhr12rcd13ifvqhqg","pricing_plan_id":"cebpf4jnsgd1na2vs0mg"},{"bike_id":"30d0f976-3493-4292-92f2-234cb6fef603","system_id":"levelo_inurba_marseille","lat":43.28705,"lon":5.37386,"is_reserved":false,"is_disabled":false,"rental_uris":{"android":"levelo://app?vid=30d0f976-3493-4292-92f2-234cb6fef603","ios":"levelo://app?vid=30d0f976-3493-4292-92f2-234cb6fef603"},"vehicle_type_id":"4","last_reported":1727212017,"current_range_meters":38800,"station_id":"ce4bh3p2rcd13ifvqdq0","pricing_plan_id":"cebpf4jnsgd1na2vs0mg"},{"bike_id":"ea013da4-760b-4727-b2ed-c93469119c99","system_id":"levelo_inurba_marseille","lat":43.295578,"lon":5.4229,"is_reserved":false,"is_disabled":false,"rental_uris":{"android":"levelo://app?vid=ea013da4-760b-4727-b2ed-c93469119c99","ios":"levelo://app?vid=ea013da4-760b-4727-b2ed-c93469119c99"},"vehicle_type_id":"4","last_reported":1727212017,"current_range_meters":38800,"station_id":"ce4bhph2rcd13ifvqhdg","pricing_plan_id":"cebpf4jnsgd1na2vs0mg"},{"bike_id":"686884dc-57d0-4edc-aaf7-3f92938a69f6","system_id":"levelo_inurba_marseille","lat":43.28002,"lon":5.40013,"is_reserved":false,"is_disabled":false,"rental_uris":{"android":"levelo://app?vid=686884dc-57d0-4edc-aaf7-3f92938a69f6","ios":"levelo://app?vid=686884dc-57d0-4edc-aaf7-3f92938a69f6"},"vehicle_type_id":"4","last_reported":1727212017,"current_range_meters":14000,"station_id":"ce4bho92rcd13ifvqh4g","pricing_plan_id":"cebpf4jnsgd1na2vs0mg"},{"bike_id":"683f833b-acfe-4dae-91f7-d9ab7a6c472e","system_id":"levelo_inurba_marseille","lat":43.33025,"lon":5.39039,"is_reserved":false,"is_disabled":false,"rental_uris":{"android":"levelo://app?vid=683f833b-acfe-4dae-91f7-d9ab7a6c472e","ios":"levelo://app?vid=683f833b-acfe-4dae-91f7-d9ab7a6c472e"},"vehicle_type_id":"4","last_reported":1727212017,"current_range_meters":39200,"station_id":"ce4bhr92rcd13ifvqhrg","pricing_plan_id":"cebpf4jnsgd1na2vs0mg"},{"bike_id":"2d4d7a57-fc8d-40a8-a37f-8d0279400743","system_id":"levelo_inurba_marseille","lat":43.24659,"lon":5.38167,"is_reserved":false,"is_disabled":false,"rental_uris":{"android":"levelo://app?vid=2d4d7a57-fc8d-40a8-a37f-8d0279400743","ios":"levelo://app?vid=2d4d7a57-fc8d-40a8-a37f-8d0279400743"},"vehicle_type_id":"4","last_reported":1727212017,"current_range_meters":38800,"station_id":"ce4bhih2rcd13ifvqfr0","pricing_plan_id":"cebpf4jnsgd1na2vs0mg"},{"bike_id":"f8701f40-f79e-46c4-b059-badc9e339852","system_id":"levelo_inurba_marseille","lat":43.312988,"lon":5.382917,"is_reserved":false,"is_disabled":false,"rental_uris":{"android":"levelo://app?vid=f8701f40-f79e-46c4-b059-badc9e339852","ios":"levelo://app?vid=f8701f40-f79e-46c4-b059-badc9e339852"},"vehicle_type_id":"4","last_reported":1727212017,"current_range_meters":4000,"station_id":"","pricing_plan_id":"cebpf4jnsgd1na2vs0mg"},{"bike_id":"4b15922f-83f6-4b5a-aa5a-91c95d6336f1","system_id":"levelo_inurba_marseille","lat":43.28462,"lon":5.35881,"is_reserved":false,"is_disabled":false,"rental_uris":{"android":"levelo://app?vid=4b15922f-83f6-4b5a-aa5a-91c95d6336f1","ios":"levelo://app?vid=4b15922f-83f6-4b5a-aa5a-91c95d6336f1"},"vehicle_type_id":"4","last_reported":1727212017,"current_range_meters":6400,"station_id":"ce4bhah2rcd13ifvqei0","pricing_plan_id":"cebpf4jnsgd1na2vs0mg"},{"bike_id":"2da24b92-3734-492c-9a6c-8b09da92c194","system_id":"levelo_inurba_marseille","lat":43.337444,"lon":5.374475,"is_reserved":false,"is_disabled":false,"rental_uris":{"android":"levelo://app?vid=2da24b92-3734-492c-9a6c-8b09da92c194","ios":"levelo://app?vid=2da24b92-3734-492c-9a6c-8b09da92c194"},"vehicle_type_id":"4","last_reported":1727212017,"current_range_meters":24800,"station_id":"","pricing_plan_id":"cebpf4jnsgd1na2vs0mg"},{"bike_id":"39af98d0-adf0-4182-b86c-567613ebbe09","system_id":"levelo_inurba_marseille","lat":43.31714,"lon":5.43705,"is_reserved":false,"is_disabled":false,"rental_uris":{"android":"levelo://app?vid=39af98d0-adf0-4182-b86c-567613ebbe09","ios":"levelo://app?vid=39af98d0-adf0-4182-b86c-567613ebbe09"},"vehicle_type_id":"4","last_reported":1727212017,"current_range_meters":8400,"station_id":"ce4bhp92rcd13ifvqhcg","pricing_plan_id":"cebpf4jnsgd1na2vs0mg"},{"bike_id":"548235df-a792-4a16-81fa-c35f935b0aef","system_id":"levelo_inurba_marseille","lat":43.26565,"lon":5.39017,"is_reserved":false,"is_disabled":false,"rental_uris":{"android":"levelo://app?vid=548235df-a792-4a16-81fa-c35f935b0aef","ios":"levelo://app?vid=548235df-a792-4a16-81fa-c35f935b0aef"},"vehicle_type_id":"4","last_reported":1727212017,"current_range_meters":39200,"station_id":"ce4bhe12rcd13ifvqf30","pricing_plan_id":"cebpf4jnsgd1na2vs0mg"},{"bike_id":"5655e961-dde7-4df9-bce3-446271a3c33e","system_id":"levelo_inurba_marseille","lat":43.27069,"lon":5.42281,"is_reserved":false,"is_disabled":false,"rental_uris":{"android":"levelo://app?vid=5655e961-dde7-4df9-bce3-446271a3c33e","ios":"levelo://app?vid=5655e961-dde7-4df9-bce3-446271a3c33e"},"vehicle_type_id":"4","last_reported":1727212017,"current_range_meters":39200,"station_id":"ce4bhk92rcd13ifvqgb0","pricing_plan_id":"cebpf4jnsgd1na2vs0mg"},{"bike_id":"f61740c6-cc03-47eb-8072-b4d8729e922f","system_id":"levelo_inurba_marseille","lat":43.31083,"lon":5.42431,"is_reserved":false,"is_disabled":false,"rental_uris":{"android":"levelo://app?vid=f61740c6-cc03-47eb-8072-b4d8729e922f","ios":"levelo://app?vid=f61740c6-cc03-47eb-8072-b4d8729e922f"},"vehicle_type_id":"4","last_reported":1727212017,"current_range_meters":3600,"station_id":"ce4bhp92rcd13ifvqhag","pricing_plan_id":"cebpf4jnsgd1na2vs0mg"},{"bike_id":"22901ff8-312e-4868-9a6f-fc35f382462a","system_id":"levelo_inurba_marseille","lat":43.28701,"lon":5.39985,"is_reserved":false,"is_disabled":false,"rental_uris":{"android":"levelo://app?vid=22901ff8-312e-4868-9a6f-fc35f382462a","ios":"levelo://app?vid=22901ff8-312e-4868-9a6f-fc35f382462a"},"vehicle_type_id":"4","last_reported":1727212017,"current_range_meters":12800,"station_id":"ce4bho92rcd13ifvqh3g","pricing_plan_id":"cebpf4jnsgd1na2vs0mg"},{"bike_id":"ac0019e9-ee5b-4377-95bc-765dea66f357","system_id":"levelo_inurba_marseille","lat":43.27994,"lon":5.41661,"is_reserved":false,"is_disabled":false,"rental_uris":{"android":"levelo://app?vid=ac0019e9-ee5b-4377-95bc-765dea66f357","ios":"levelo://app?vid=ac0019e9-ee5b-4377-95bc-765dea66f357"},"vehicle_type_id":"4","last_reported":1727212017,"current_range_meters":38800,"station_id":"ce4bho12rcd13ifvqh1g","pricing_plan_id":"cebpf4jnsgd1na2vs0mg"},{"bike_id":"bafb0ac1-012b-45ae-8001-aafd95836c84","system_id":"levelo_inurba_marseille","lat":43.23188,"lon":5.35551,"is_reserved":false,"is_disabled":false,"rental_uris":{"android":"levelo://app?vid=bafb0ac1-012b-45ae-8001-aafd95836c84","ios":"levelo://app?vid=bafb0ac1-012b-45ae-8001-aafd95836c84"},"vehicle_type_id":"4","last_reported":1727212017,"current_range_meters":38400,"station_id":"ce4bhu92rcd13ifvqi70","pricing_plan_id":"cebpf4jnsgd1na2vs0mg"},{"bike_id":"ecb70881-b110-48a8-b751-24b4690d4031","system_id":"levelo_inurba_marseille","lat":43.23185,"lon":5.39982,"is_reserved":false,"is_disabled":false,"rental_uris":{"android":"levelo://app?vid=ecb70881-b110-48a8-b751-24b4690d4031","ios":"levelo://app?vid=ecb70881-b110-48a8-b751-24b4690d4031"},"vehicle_type_id":"4","last_reported":1727212017,"current_range_meters":10000,"station_id":"ce4bhn12rcd13ifvqgqg","pricing_plan_id":"cebpf4jnsgd1na2vs0mg"},{"bike_id":"d84e9818-d585-45e3-b58c-b7a1c2eb0e6c","system_id":"levelo_inurba_marseille","lat":43.30882,"lon":5.39638,"is_reserved":false,"is_disabled":false,"rental_uris":{"android":"levelo://app?vid=d84e9818-d585-45e3-b58c-b7a1c2eb0e6c","ios":"levelo://app?vid=d84e9818-d585-45e3-b58c-b7a1c2eb0e6c"},"vehicle_type_id":"4","last_reported":1727212017,"current_range_meters":8800,"station_id":"ce4bh012rcd13ifvqcv0","pricing_plan_id":"cebpf4jnsgd1na2vs0mg"},{"bike_id":"25bd7405-be80-4a77-a761-8a1efed52652","system_id":"levelo_inurba_marseille","lat":43.29896,"lon":5.43659,"is_reserved":false,"is_disabled":false,"rental_uris":{"android":"levelo://app?vid=25bd7405-be80-4a77-a761-8a1efed52652","ios":"levelo://app?vid=25bd7405-be80-4a77-a761-8a1efed52652"},"vehicle_type_id":"4","last_reported":1727212017,"current_range_meters":39200,"station_id":"ce4bhpp2rcd13ifvqhfg","pricing_plan_id":"cebpf4jnsgd1na2vs0mg"},{"bike_id":"2fe2c0de-08ff-45d0-a649-6b26bff02b66","system_id":"levelo_inurba_marseille","lat":43.28088,"lon":5.39666,"is_reserved":false,"is_disabled":false,"rental_uris":{"android":"levelo://app?vid=2fe2c0de-08ff-45d0-a649-6b26bff02b66","ios":"levelo://app?vid=2fe2c0de-08ff-45d0-a649-6b26bff02b66"},"vehicle_type_id":"4","last_reported":1727212017,"current_range_meters":38000,"station_id":"ce4bho12rcd13ifvqh2g","pricing_plan_id":"cebpf4jnsgd1na2vs0mg"},{"bike_id":"11c4f5be-b465-471a-b3d0-dbbc3061010b","system_id":"levelo_inurba_marseille","lat":43.30801,"lon":5.43526,"is_reserved":false,"is_disabled":false,"rental_uris":{"android":"levelo://app?vid=11c4f5be-b465-471a-b3d0-dbbc3061010b","ios":"levelo://app?vid=11c4f5be-b465-471a-b3d0-dbbc3061010b"},"vehicle_type_id":"4","last_reported":1727212017,"current_range_meters":21600,"station_id":"ce4bhph2rcd13ifvqheg","pricing_plan_id":"cebpf4jnsgd1na2vs0mg"},{"bike_id":"162ee78d-83e3-4081-92bd-328649d7b4ba","system_id":"levelo_inurba_marseille","lat":43.31752,"lon":5.3902,"is_reserved":false,"is_disabled":false,"rental_uris":{"android":"levelo://app?vid=162ee78d-83e3-4081-92bd-328649d7b4ba","ios":"levelo://app?vid=162ee78d-83e3-4081-92bd-328649d7b4ba"},"vehicle_type_id":"4","last_reported":1727212017,"current_range_meters":10000,"station_id":"ce4bhqp2rcd13ifvqhng","pricing_plan_id":"cebpf4jnsgd1na2vs0mg"},{"bike_id":"df933f32-ba28-4efc-bbff-ad632de8d73e","system_id":"levelo_inurba_marseille","lat":43.25583,"lon":5.38246,"is_reserved":false,"is_disabled":false,"rental_uris":{"android":"levelo://app?vid=df933f32-ba28-4efc-bbff-ad632de8d73e","ios":"levelo://app?vid=df933f32-ba28-4efc-bbff-ad632de8d73e"},"vehicle_type_id":"4","last_reported":1727212017,"current_range_meters":38800,"station_id":"ce4bhih2rcd13ifvqfs0","pricing_plan_id":"cebpf4jnsgd1na2vs0mg"},{"bike_id":"c7ef48a1-c091-4bd1-8005-cb0f802fe2ef","system_id":"levelo_inurba_marseille","lat":43.28659,"lon":5.3636,"is_reserved":false,"is_disabled":false,"rental_uris":{"android":"levelo://app?vid=c7ef48a1-c091-4bd1-8005-cb0f802fe2ef","ios":"levelo://app?vid=c7ef48a1-c091-4bd1-8005-cb0f802fe2ef"},"vehicle_type_id":"4","last_reported":1727212017,"current_range_meters":38800,"station_id":"ce4bhah2rcd13ifvqej0","pricing_plan_id":"cebpf4jnsgd1na2vs0mg"},{"bike_id":"eea2cd5a-ea70-49e4-b38f-c464fb6c5cc3","system_id":"levelo_inurba_marseille","lat":43.337444,"lon":5.374475,"is_reserved":false,"is_disabled":false,"rental_uris":{"android":"levelo://app?vid=eea2cd5a-ea70-49e4-b38f-c464fb6c5cc3","ios":"levelo://app?vid=eea2cd5a-ea70-49e4-b38f-c464fb6c5cc3"},"vehicle_type_id":"4","last_reported":1727212017,"current_range_meters":33200,"station_id":"","pricing_plan_id":"cebpf4jnsgd1na2vs0mg"},{"bike_id":"87219a8f-0882-4b10-b887-bde676d43338","system_id":"levelo_inurba_marseille","lat":43.31324,"lon":5.39696,"is_reserved":false,"is_disabled":false,"rental_uris":{"android":"levelo://app?vid=87219a8f-0882-4b10-b887-bde676d43338","ios":"levelo://app?vid=87219a8f-0882-4b10-b887-bde676d43338"},"vehicle_type_id":"4","last_reported":1727212017,"current_range_meters":8000,"station_id":"ce4bgvp2rcd13ifvqcu0","pricing_plan_id":"cebpf4jnsgd1na2vs0mg"},{"bike_id":"9a956495-97f1-4caa-a970-dab6d313b018","system_id":"levelo_inurba_marseille","lat":43.28664,"lon":5.36351,"is_reserved":false,"is_disabled":false,"rental_uris":{"android":"levelo://app?vid=9a956495-97f1-4caa-a970-dab6d313b018","ios":"levelo://app?vid=9a956495-97f1-4caa-a970-dab6d313b018"},"vehicle_type_id":"4","last_reported":1727212017,"current_range_meters":9600,"station_id":"ce4bhah2rcd13ifvqej0","pricing_plan_id":"cebpf4jnsgd1na2vs0mg"},{"bike_id":"a403d474-e46a-40fe-adf5-8aa11cef681f","system_id":"levelo_inurba_marseille","lat":43.31325,"lon":5.39696,"is_reserved":false,"is_disabled":false,"rental_uris":{"android":"levelo://app?vid=a403d474-e46a-40fe-adf5-8aa11cef681f","ios":"levelo://app?vid=a403d474-e46a-40fe-adf5-8aa11cef681f"},"vehicle_type_id":"4","last_reported":1727212017,"current_range_meters":33600,"station_id":"ce4bgvp2rcd13ifvqcu0","pricing_plan_id":"cebpf4jnsgd1na2vs0mg"},{"bike_id":"a1b199c4-ec31-42f9-94ef-5cd98c464a07","system_id":"levelo_inurba_marseille","lat":43.31076,"lon":5.38357,"is_reserved":false,"is_disabled":false,"rental_uris":{"android":"levelo://app?vid=a1b199c4-ec31-42f9-94ef-5cd98c464a07","ios":"levelo://app?vid=a1b199c4-ec31-42f9-94ef-5cd98c464a07"},"vehicle_type_id":"4","last_reported":1727212017,"current_range_meters":31200,"station_id":"ce4bgv92rcd13ifvqcr0","pricing_plan_id":"cebpf4jnsgd1na2vs0mg"},{"bike_id":"e5accd9d-24b1-48a2-85dd-636c889e71c1","system_id":"levelo_inurba_marseille","lat":43.31534,"lon":5.38035,"is_reserved":false,"is_disabled":false,"rental_uris":{"android":"levelo://app?vid=e5accd9d-24b1-48a2-85dd-636c889e71c1","ios":"levelo://app?vid=e5accd9d-24b1-48a2-85dd-636c889e71c1"},"vehicle_type_id":"4","last_reported":1727212017,"current_range_meters":8800,"station_id":"ce4bhsp2rcd13ifvqi50","pricing_plan_id":"cebpf4jnsgd1na2vs0mg"},{"bike_id":"40485ef1-7518-4469-a8d4-387e30739540","system_id":"levelo_inurba_marseille","lat":43.301759,"lon":5.366208,"is_reserved":false,"is_disabled":false,"rental_uris":{"android":"levelo://app?vid=40485ef1-7518-4469-a8d4-387e30739540","ios":"levelo://app?vid=40485ef1-7518-4469-a8d4-387e30739540"},"vehicle_type_id":"4","last_reported":1727212017,"current_range_meters":4400,"station_id":"ce4bgrh2rcd13ifvqc8g","pricing_plan_id":"cebpf4jnsgd1na2vs0mg"},{"bike_id":"dc7d00c9-8a3b-4e5f-b749-a2653cc854fb","system_id":"levelo_inurba_marseille","lat":43.31536,"lon":5.38031,"is_reserved":false,"is_disabled":false,"rental_uris":{"android":"levelo://app?vid=dc7d00c9-8a3b-4e5f-b749-a2653cc854fb","ios":"levelo://app?vid=dc7d00c9-8a3b-4e5f-b749-a2653cc854fb"},"vehicle_type_id":"4","last_reported":1727212017,"current_range_meters":9200,"station_id":"ce4bhsp2rcd13ifvqi50","pricing_plan_id":"cebpf4jnsgd1na2vs0mg"},{"bike_id":"101c04f4-7230-45fa-91ed-5a2f5e856c13","system_id":"levelo_inurba_marseille","lat":43.28458,"lon":5.35889,"is_reserved":false,"is_disabled":false,"rental_uris":{"android":"levelo://app?vid=101c04f4-7230-45fa-91ed-5a2f5e856c13","ios":"levelo://app?vid=101c04f4-7230-45fa-91ed-5a2f5e856c13"},"vehicle_type_id":"4","last_reported":1727212017,"current_range_meters":17200,"station_id":"ce4bhah2rcd13ifvqei0","pricing_plan_id":"cebpf4jnsgd1na2vs0mg"},{"bike_id":"1802deb5-1c46-4f67-afa3-157e0fdc0220","system_id":"levelo_inurba_marseille","lat":43.2782,"lon":5.4072,"is_reserved":false,"is_disabled":false,"rental_uris":{"android":"levelo://app?vid=1802deb5-1c46-4f67-afa3-157e0fdc0220","ios":"levelo://app?vid=1802deb5-1c46-4f67-afa3-157e0fdc0220"},"vehicle_type_id":"4","last_reported":1727212017,"current_range_meters":27600,"station_id":"ce4bhnh2rcd13ifvqgtg","pricing_plan_id":"cebpf4jnsgd1na2vs0mg"},{"bike_id":"00b08c15-619d-4adf-bba7-3321c8ef248f","system_id":"levelo_inurba_marseille","lat":43.31355,"lon":5.36701,"is_reserved":false,"is_disabled":false,"rental_uris":{"android":"levelo://app?vid=00b08c15-619d-4adf-bba7-3321c8ef248f","ios":"levelo://app?vid=00b08c15-619d-4adf-bba7-3321c8ef248f"},"vehicle_type_id":"4","last_reported":1727212017,"current_range_meters":38000,"station_id":"ce4bgr92rcd13ifvqc6g","pricing_plan_id":"cebpf4jnsgd1na2vs0mg"},{"bike_id":"bf934032-88ce-4fc2-af2a-7aa654b14d36","system_id":"levelo_inurba_marseille","lat":43.24547,"lon":5.39524,"is_reserved":false,"is_disabled":false,"rental_uris":{"android":"levelo://app?vid=bf934032-88ce-4fc2-af2a-7aa654b14d36","ios":"levelo://app?vid=bf934032-88ce-4fc2-af2a-7aa654b14d36"},"vehicle_type_id":"4","last_reported":1727212017,"current_range_meters":12400,"station_id":"ce4bhlp2rcd13ifvqgjg","pricing_plan_id":"cebpf4jnsgd1na2vs0mg"},{"bike_id":"8b33efa4-2207-4032-aa38-4e145e88ec62","system_id":"levelo_inurba_marseille","lat":43.28406,"lon":5.37514,"is_reserved":false,"is_disabled":false,"rental_uris":{"android":"levelo://app?vid=8b33efa4-2207-4032-aa38-4e145e88ec62","ios":"levelo://app?vid=8b33efa4-2207-4032-aa38-4e145e88ec62"},"vehicle_type_id":"4","last_reported":1727212017,"current_range_meters":37600,"station_id":"ce4bh412rcd13ifvqds0","pricing_plan_id":"cebpf4jnsgd1na2vs0mg"},{"bike_id":"1d81ca37-7129-40ad-9801-d2e37b7c492e","system_id":"levelo_inurba_marseille","lat":43.30307,"lon":5.39219,"is_reserved":false,"is_disabled":false,"rental_uris":{"android":"levelo://app?vid=1d81ca37-7129-40ad-9801-d2e37b7c492e","ios":"levelo://app?vid=1d81ca37-7129-40ad-9801-d2e37b7c492e"},"vehicle_type_id":"4","last_reported":1727212017,"current_range_meters":33600,"station_id":"ce4bgkh2rcd13ifvqbk0","pricing_plan_id":"cebpf4jnsgd1na2vs0mg"},{"bike_id":"2f958106-65b2-4b11-96aa-7adfd054d7e7","system_id":"levelo_inurba_marseille","lat":43.2924,"lon":5.40922,"is_reserved":false,"is_disabled":false,"rental_uris":{"android":"levelo://app?vid=2f958106-65b2-4b11-96aa-7adfd054d7e7","ios":"levelo://app?vid=2f958106-65b2-4b11-96aa-7adfd054d7e7"},"vehicle_type_id":"4","last_reported":1727212017,"current_range_meters":36800,"station_id":"ce4bh192rcd13ifvqdc0","pricing_plan_id":"cebpf4jnsgd1na2vs0mg"},{"bike_id":"ca94193f-47c8-446f-bb0e-7d77c7815366","system_id":"levelo_inurba_marseille","lat":43.2407,"lon":5.37763,"is_reserved":false,"is_disabled":false,"rental_uris":{"android":"levelo://app?vid=ca94193f-47c8-446f-bb0e-7d77c7815366","ios":"levelo://app?vid=ca94193f-47c8-446f-bb0e-7d77c7815366"},"vehicle_type_id":"4","last_reported":1727212017,"current_range_meters":18800,"station_id":"ce4bhnp2rcd13ifvqgvg","pricing_plan_id":"cebpf4jnsgd1na2vs0mg"},{"bike_id":"7b38b46e-7bd1-4c3e-b27d-13f795672eb9","system_id":"levelo_inurba_marseille","lat":43.27921,"lon":5.39575,"is_reserved":false,"is_disabled":false,"rental_uris":{"android":"levelo://app?vid=7b38b46e-7bd1-4c3e-b27d-13f795672eb9","ios":"levelo://app?vid=7b38b46e-7bd1-4c3e-b27d-13f795672eb9"},"vehicle_type_id":"4","last_reported":1727212017,"current_range_meters":26800,"station_id":"ce4bhf92rcd13ifvqf40","pricing_plan_id":"cebpf4jnsgd1na2vs0mg"},{"bike_id":"57757cf2-b971-443b-97a6-6c791a375948","system_id":"levelo_inurba_marseille","lat":43.282473,"lon":5.430377,"is_reserved":false,"is_disabled":false,"rental_uris":{"android":"levelo://app?vid=57757cf2-b971-443b-97a6-6c791a375948","ios":"levelo://app?vid=57757cf2-b971-443b-97a6-6c791a375948"},"vehicle_type_id":"4","last_reported":1727212017,"current_range_meters":26000,"station_id":"","pricing_plan_id":"cebpf4jnsgd1na2vs0mg"},{"bike_id":"adcd9b3c-e165-4d80-a5ba-b64db630aec3","system_id":"levelo_inurba_marseille","lat":43.27628,"lon":5.36119,"is_reserved":false,"is_disabled":false,"rental_uris":{"android":"levelo://app?vid=adcd9b3c-e165-4d80-a5ba-b64db630aec3","ios":"levelo://app?vid=adcd9b3c-e165-4d80-a5ba-b64db630aec3"},"vehicle_type_id":"4","last_reported":1727212017,"current_range_meters":25600,"station_id":"ce4bgj92rcd13ifvqbe0","pricing_plan_id":"cebpf4jnsgd1na2vs0mg"},{"bike_id":"73d06c40-68ea-41b9-8233-ccd164ab434b","system_id":"levelo_inurba_marseille","lat":43.2455,"lon":5.39528,"is_reserved":false,"is_disabled":false,"rental_uris":{"android":"levelo://app?vid=73d06c40-68ea-41b9-8233-ccd164ab434b","ios":"levelo://app?vid=73d06c40-68ea-41b9-8233-ccd164ab434b"},"vehicle_type_id":"4","last_reported":1727212017,"current_range_meters":38400,"station_id":"ce4bhlp2rcd13ifvqgjg","pricing_plan_id":"cebpf4jnsgd1na2vs0mg"},{"bike_id":"d9b188bc-cf8f-48bb-b89c-6b15d658fb12","system_id":"levelo_inurba_marseille","lat":43.324906,"lon":5.365661,"is_reserved":false,"is_disabled":false,"rental_uris":{"android":"levelo://app?vid=d9b188bc-cf8f-48bb-b89c-6b15d658fb12","ios":"levelo://app?vid=d9b188bc-cf8f-48bb-b89c-6b15d658fb12"},"vehicle_type_id":"4","last_reported":1727212017,"current_range_meters":38800,"station_id":"ce4bhs12rcd13ifvqhvg","pricing_plan_id":"cebpf4jnsgd1na2vs0mg"},{"bike_id":"73e7f655-b2b9-4127-a50c-dc2251f994d0","system_id":"levelo_inurba_marseille","lat":43.28771,"lon":5.39698,"is_reserved":false,"is_disabled":false,"rental_uris":{"android":"levelo://app?vid=73e7f655-b2b9-4127-a50c-dc2251f994d0","ios":"levelo://app?vid=73e7f655-b2b9-4127-a50c-dc2251f994d0"},"vehicle_type_id":"4","last_reported":1727212017,"current_range_meters":38000,"station_id":"","pricing_plan_id":"cebpf4jnsgd1na2vs0mg"},{"bike_id":"02ab7362-2b7f-4383-a176-abcd0062a076","system_id":"levelo_inurba_marseille","lat":43.29259,"lon":5.40907,"is_reserved":false,"is_disabled":false,"rental_uris":{"android":"levelo://app?vid=02ab7362-2b7f-4383-a176-abcd0062a076","ios":"levelo://app?vid=02ab7362-2b7f-4383-a176-abcd0062a076"},"vehicle_type_id":"4","last_reported":1727212017,"current_range_meters":34800,"station_id":"ce4bh192rcd13ifvqdc0","pricing_plan_id":"cebpf4jnsgd1na2vs0mg"},{"bike_id":"89628285-77f1-4d01-a520-5f7e5238a6c8","system_id":"levelo_inurba_marseille","lat":43.30073,"lon":5.39083,"is_reserved":false,"is_disabled":false,"rental_uris":{"android":"levelo://app?vid=89628285-77f1-4d01-a520-5f7e5238a6c8","ios":"levelo://app?vid=89628285-77f1-4d01-a520-5f7e5238a6c8"},"vehicle_type_id":"4","last_reported":1727212017,"current_range_meters":30400,"station_id":"ce4bh192rcd13ifvqdb0","pricing_plan_id":"cebpf4jnsgd1na2vs0mg"},{"bike_id":"5459e5dd-02cf-41c0-a77a-9053bdc92a78","system_id":"levelo_inurba_marseille","lat":43.30806,"lon":5.43527,"is_reserved":false,"is_disabled":false,"rental_uris":{"android":"levelo://app?vid=5459e5dd-02cf-41c0-a77a-9053bdc92a78","ios":"levelo://app?vid=5459e5dd-02cf-41c0-a77a-9053bdc92a78"},"vehicle_type_id":"4","last_reported":1727212017,"current_range_meters":9200,"station_id":"ce4bhph2rcd13ifvqheg","pricing_plan_id":"cebpf4jnsgd1na2vs0mg"},{"bike_id":"da3e781a-8210-467c-9af4-d5d93363e7fb","system_id":"levelo_inurba_marseille","lat":43.30129,"lon":5.39858,"is_reserved":false,"is_disabled":false,"rental_uris":{"android":"levelo://app?vid=da3e781a-8210-467c-9af4-d5d93363e7fb","ios":"levelo://app?vid=da3e781a-8210-467c-9af4-d5d93363e7fb"},"vehicle_type_id":"4","last_reported":1727212017,"current_range_meters":24800,"station_id":"ce4bh0h2rcd13ifvqd40","pricing_plan_id":"cebpf4jnsgd1na2vs0mg"},{"bike_id":"9fd8e932-0bbe-45a7-a9ac-3aa157bc97f4","system_id":"levelo_inurba_marseille","lat":43.27377,"lon":5.36254,"is_reserved":false,"is_disabled":false,"rental_uris":{"android":"levelo://app?vid=9fd8e932-0bbe-45a7-a9ac-3aa157bc97f4","ios":"levelo://app?vid=9fd8e932-0bbe-45a7-a9ac-3aa157bc97f4"},"vehicle_type_id":"4","last_reported":1727212017,"current_range_meters":35600,"station_id":"ce4bhbh2rcd13ifvqeo0","pricing_plan_id":"cebpf4jnsgd1na2vs0mg"},{"bike_id":"a66a688d-3d88-4204-8ad2-91001f2e0d94","system_id":"levelo_inurba_marseille","lat":43.25584,"lon":5.38231,"is_reserved":false,"is_disabled":false,"rental_uris":{"android":"levelo://app?vid=a66a688d-3d88-4204-8ad2-91001f2e0d94","ios":"levelo://app?vid=a66a688d-3d88-4204-8ad2-91001f2e0d94"},"vehicle_type_id":"4","last_reported":1727212017,"current_range_meters":34800,"station_id":"ce4bhih2rcd13ifvqfs0","pricing_plan_id":"cebpf4jnsgd1na2vs0mg"},{"bike_id":"10b9f85e-e4ee-4f70-979e-f255ac0bd659","system_id":"levelo_inurba_marseille","lat":43.22932,"lon":5.35377,"is_reserved":false,"is_disabled":false,"rental_uris":{"android":"levelo://app?vid=10b9f85e-e4ee-4f70-979e-f255ac0bd659","ios":"levelo://app?vid=10b9f85e-e4ee-4f70-979e-f255ac0bd659"},"vehicle_type_id":"4","last_reported":1727212017,"current_range_meters":6800,"station_id":"cpo3532slgdg3j2ikp40","pricing_plan_id":"cebpf4jnsgd1na2vs0mg"},{"bike_id":"d8c1fa68-9472-41ea-9d50-96b464a0185f","system_id":"levelo_inurba_marseille","lat":43.28461,"lon":5.35883,"is_reserved":false,"is_disabled":false,"rental_uris":{"android":"levelo://app?vid=d8c1fa68-9472-41ea-9d50-96b464a0185f","ios":"levelo://app?vid=d8c1fa68-9472-41ea-9d50-96b464a0185f"},"vehicle_type_id":"4","last_reported":1727212017,"current_range_meters":34000,"station_id":"ce4bhah2rcd13ifvqei0","pricing_plan_id":"cebpf4jnsgd1na2vs0mg"},{"bike_id":"ab8a848e-2769-4062-b46f-06029e49159e","system_id":"levelo_inurba_marseille","lat":43.31166,"lon":5.38721,"is_reserved":false,"is_disabled":false,"rental_uris":{"android":"levelo://app?vid=ab8a848e-2769-4062-b46f-06029e49159e","ios":"levelo://app?vid=ab8a848e-2769-4062-b46f-06029e49159e"},"vehicle_type_id":"4","last_reported":1727212017,"current_range_meters":19600,"station_id":"ce4bgv12rcd13ifvqcp0","pricing_plan_id":"cebpf4jnsgd1na2vs0mg"},{"bike_id":"c78d3a7f-f242-40ea-93d6-1b763c052738","system_id":"levelo_inurba_marseille","lat":43.30334,"lon":5.40447,"is_reserved":false,"is_disabled":false,"rental_uris":{"android":"levelo://app?vid=c78d3a7f-f242-40ea-93d6-1b763c052738","ios":"levelo://app?vid=c78d3a7f-f242-40ea-93d6-1b763c052738"},"vehicle_type_id":"4","last_reported":1727212017,"current_range_meters":3200,"station_id":"ce4bh012rcd13ifvqd10","pricing_plan_id":"cebpf4jnsgd1na2vs0mg"},{"bike_id":"bebbf85e-31cf-4f2c-a4e1-9b1a14757aa3","system_id":"levelo_inurba_marseille","lat":43.28608,"lon":5.37067,"is_reserved":false,"is_disabled":false,"rental_uris":{"android":"levelo://app?vid=bebbf85e-31cf-4f2c-a4e1-9b1a14757aa3","ios":"levelo://app?vid=bebbf85e-31cf-4f2c-a4e1-9b1a14757aa3"},"vehicle_type_id":"4","last_reported":1727212017,"current_range_meters":10800,"station_id":"ce4bht12rcd13ifvqi60","pricing_plan_id":"cebpf4jnsgd1na2vs0mg"},{"bike_id":"d799f437-88e9-4467-9125-dfbe20bda148","system_id":"levelo_inurba_marseille","lat":43.31716,"lon":5.43715,"is_reserved":false,"is_disabled":false,"rental_uris":{"android":"levelo://app?vid=d799f437-88e9-4467-9125-dfbe20bda148","ios":"levelo://app?vid=d799f437-88e9-4467-9125-dfbe20bda148"},"vehicle_type_id":"4","last_reported":1727212017,"current_range_meters":38800,"station_id":"ce4bhp92rcd13ifvqhcg","pricing_plan_id":"cebpf4jnsgd1na2vs0mg"},{"bike_id":"745111b8-733a-495c-87eb-81ad482ad10b","system_id":"levelo_inurba_marseille","lat":43.23184,"lon":5.3999,"is_reserved":false,"is_disabled":false,"rental_uris":{"android":"levelo://app?vid=745111b8-733a-495c-87eb-81ad482ad10b","ios":"levelo://app?vid=745111b8-733a-495c-87eb-81ad482ad10b"},"vehicle_type_id":"4","last_reported":1727212017,"current_range_meters":24800,"station_id":"ce4bhn12rcd13ifvqgqg","pricing_plan_id":"cebpf4jnsgd1na2vs0mg"},{"bike_id":"54fc5423-bff7-47fc-980d-06099f6eec79","system_id":"levelo_inurba_marseille","lat":43.25581,"lon":5.38237,"is_reserved":false,"is_disabled":false,"rental_uris":{"android":"levelo://app?vid=54fc5423-bff7-47fc-980d-06099f6eec79","ios":"levelo://app?vid=54fc5423-bff7-47fc-980d-06099f6eec79"},"vehicle_type_id":"4","last_reported":1727212017,"current_range_meters":38800,"station_id":"ce4bhih2rcd13ifvqfs0","pricing_plan_id":"cebpf4jnsgd1na2vs0mg"},{"bike_id":"b2977232-df81-41ce-b22e-8fb028fd2a00","system_id":"levelo_inurba_marseille","lat":43.29006,"lon":5.37845,"is_reserved":false,"is_disabled":false,"rental_uris":{"android":"levelo://app?vid=b2977232-df81-41ce-b22e-8fb028fd2a00","ios":"levelo://app?vid=b2977232-df81-41ce-b22e-8fb028fd2a00"},"vehicle_type_id":"4","last_reported":1727212017,"current_range_meters":36800,"station_id":"ce4bh9p2rcd13ifvqed0","pricing_plan_id":"cebpf4jnsgd1na2vs0mg"},{"bike_id":"ff38410f-d3d8-4995-8f6e-31424bcb1879","system_id":"levelo_inurba_marseille","lat":43.29079,"lon":5.3725,"is_reserved":false,"is_disabled":false,"rental_uris":{"android":"levelo://app?vid=ff38410f-d3d8-4995-8f6e-31424bcb1879","ios":"levelo://app?vid=ff38410f-d3d8-4995-8f6e-31424bcb1879"},"vehicle_type_id":"4","last_reported":1727212017,"current_range_meters":30000,"station_id":"","pricing_plan_id":"cebpf4jnsgd1na2vs0mg"},{"bike_id":"783d9454-9568-4a61-a130-a05af8145b0d","system_id":"levelo_inurba_marseille","lat":43.2928,"lon":5.40119,"is_reserved":false,"is_disabled":false,"rental_uris":{"android":"levelo://app?vid=783d9454-9568-4a61-a130-a05af8145b0d","ios":"levelo://app?vid=783d9454-9568-4a61-a130-a05af8145b0d"},"vehicle_type_id":"4","last_reported":1727212017,"current_range_meters":18800,"station_id":"ce4bh312rcd13ifvqdk0","pricing_plan_id":"cebpf4jnsgd1na2vs0mg"},{"bike_id":"a218e598-0835-4449-aa4c-41913051c29c","system_id":"levelo_inurba_marseille","lat":43.29003,"lon":5.3561,"is_reserved":false,"is_disabled":false,"rental_uris":{"android":"levelo://app?vid=a218e598-0835-4449-aa4c-41913051c29c","ios":"levelo://app?vid=a218e598-0835-4449-aa4c-41913051c29c"},"vehicle_type_id":"4","last_reported":1727212017,"current_range_meters":10800,"station_id":"ce4bhb92rcd13ifvqen0","pricing_plan_id":"cebpf4jnsgd1na2vs0mg"},{"bike_id":"87ac93c2-1c79-4444-9479-f54f849eeac0","system_id":"levelo_inurba_marseille","lat":43.25501,"lon":5.37674,"is_reserved":false,"is_disabled":false,"rental_uris":{"android":"levelo://app?vid=87ac93c2-1c79-4444-9479-f54f849eeac0","ios":"levelo://app?vid=87ac93c2-1c79-4444-9479-f54f849eeac0"},"vehicle_type_id":"4","last_reported":1727212017,"current_range_meters":38400,"station_id":"ce4bhh12rcd13ifvqff0","pricing_plan_id":"cebpf4jnsgd1na2vs0mg"},{"bike_id":"ebec7cd5-5fed-46ce-abdb-3cd659f607ac","system_id":"levelo_inurba_marseille","lat":43.29554,"lon":5.42286,"is_reserved":false,"is_disabled":false,"rental_uris":{"android":"levelo://app?vid=ebec7cd5-5fed-46ce-abdb-3cd659f607ac","ios":"levelo://app?vid=ebec7cd5-5fed-46ce-abdb-3cd659f607ac"},"vehicle_type_id":"4","last_reported":1727212017,"current_range_meters":36800,"station_id":"ce4bhph2rcd13ifvqhdg","pricing_plan_id":"cebpf4jnsgd1na2vs0mg"},{"bike_id":"5d9efa65-f554-4d52-9ae7-0f05ed54a1d1","system_id":"levelo_inurba_marseille","lat":43.31088,"lon":5.37787,"is_reserved":false,"is_disabled":false,"rental_uris":{"android":"levelo://app?vid=5d9efa65-f554-4d52-9ae7-0f05ed54a1d1","ios":"levelo://app?vid=5d9efa65-f554-4d52-9ae7-0f05ed54a1d1"},"vehicle_type_id":"4","last_reported":1727212017,"current_range_meters":10800,"station_id":"ce4bgt92rcd13ifvqcg0","pricing_plan_id":"cebpf4jnsgd1na2vs0mg"},{"bike_id":"584dc729-0cb1-4902-8a6c-23dc123e7906","system_id":"levelo_inurba_marseille","lat":43.22924,"lon":5.35377,"is_reserved":false,"is_disabled":false,"rental_uris":{"android":"levelo://app?vid=584dc729-0cb1-4902-8a6c-23dc123e7906","ios":"levelo://app?vid=584dc729-0cb1-4902-8a6c-23dc123e7906"},"vehicle_type_id":"4","last_reported":1727212017,"current_range_meters":24400,"station_id":"cpo3532slgdg3j2ikp40","pricing_plan_id":"cebpf4jnsgd1na2vs0mg"},{"bike_id":"df5b38d2-64cb-4df0-856f-ea9bd22c082c","system_id":"levelo_inurba_marseille","lat":43.23189,"lon":5.3556,"is_reserved":false,"is_disabled":false,"rental_uris":{"android":"levelo://app?vid=df5b38d2-64cb-4df0-856f-ea9bd22c082c","ios":"levelo://app?vid=df5b38d2-64cb-4df0-856f-ea9bd22c082c"},"vehicle_type_id":"4","last_reported":1727212017,"current_range_meters":10000,"station_id":"ce4bhu92rcd13ifvqi70","pricing_plan_id":"cebpf4jnsgd1na2vs0mg"},{"bike_id":"707528d8-0988-4632-94dc-544d37620d76","system_id":"levelo_inurba_marseille","lat":43.33602,"lon":5.41031,"is_reserved":false,"is_disabled":false,"rental_uris":{"android":"levelo://app?vid=707528d8-0988-4632-94dc-544d37620d76","ios":"levelo://app?vid=707528d8-0988-4632-94dc-544d37620d76"},"vehicle_type_id":"4","last_reported":1727212017,"current_range_meters":39200,"station_id":"ce4bhqh2rcd13ifvqhmg","pricing_plan_id":"cebpf4jnsgd1na2vs0mg"},{"bike_id":"66ec5e9d-3583-400a-9522-011e535be416","system_id":"levelo_inurba_marseille","lat":43.28276,"lon":5.35061,"is_reserved":false,"is_disabled":false,"rental_uris":{"android":"levelo://app?vid=66ec5e9d-3583-400a-9522-011e535be416","ios":"levelo://app?vid=66ec5e9d-3583-400a-9522-011e535be416"},"vehicle_type_id":"4","last_reported":1727212017,"current_range_meters":38800,"station_id":"ce4bhbp2rcd13ifvqerg","pricing_plan_id":"cebpf4jnsgd1na2vs0mg"},{"bike_id":"17b1cd1a-7803-4ca9-91f3-73c4fa44f09e","system_id":"levelo_inurba_marseille","lat":43.29557,"lon":5.42297,"is_reserved":false,"is_disabled":false,"rental_uris":{"android":"levelo://app?vid=17b1cd1a-7803-4ca9-91f3-73c4fa44f09e","ios":"levelo://app?vid=17b1cd1a-7803-4ca9-91f3-73c4fa44f09e"},"vehicle_type_id":"4","last_reported":1727212017,"current_range_meters":6800,"station_id":"ce4bhph2rcd13ifvqhdg","pricing_plan_id":"cebpf4jnsgd1na2vs0mg"},{"bike_id":"370ad2c9-c0c1-4242-b6d2-8b6c35717678","system_id":"levelo_inurba_marseille","lat":43.27936,"lon":5.4104,"is_reserved":false,"is_disabled":false,"rental_uris":{"android":"levelo://app?vid=370ad2c9-c0c1-4242-b6d2-8b6c35717678","ios":"levelo://app?vid=370ad2c9-c0c1-4242-b6d2-8b6c35717678"},"vehicle_type_id":"4","last_reported":1727212017,"current_range_meters":38800,"station_id":"ce4bhnp2rcd13ifvqh0g","pricing_plan_id":"cebpf4jnsgd1na2vs0mg"},{"bike_id":"27431c98-bcee-4fbc-9005-ef4fd6a106b8","system_id":"levelo_inurba_marseille","lat":43.23185,"lon":5.3998,"is_reserved":false,"is_disabled":false,"rental_uris":{"android":"levelo://app?vid=27431c98-bcee-4fbc-9005-ef4fd6a106b8","ios":"levelo://app?vid=27431c98-bcee-4fbc-9005-ef4fd6a106b8"},"vehicle_type_id":"4","last_reported":1727212017,"current_range_meters":15200,"station_id":"ce4bhn12rcd13ifvqgqg","pricing_plan_id":"cebpf4jnsgd1na2vs0mg"},{"bike_id":"b859d033-1095-4e5e-a6d2-faa05166d5e6","system_id":"levelo_inurba_marseille","lat":43.29441,"lon":5.39753,"is_reserved":false,"is_disabled":false,"rental_uris":{"android":"levelo://app?vid=b859d033-1095-4e5e-a6d2-faa05166d5e6","ios":"levelo://app?vid=b859d033-1095-4e5e-a6d2-faa05166d5e6"},"vehicle_type_id":"4","last_reported":1727212017,"current_range_meters":22800,"station_id":"ce4bh3h2rcd13ifvqdo0","pricing_plan_id":"cebpf4jnsgd1na2vs0mg"},{"bike_id":"0fa7d1fa-5965-4c20-8e31-e7093bb5f2f9","system_id":"levelo_inurba_marseille","lat":43.29262,"lon":5.40905,"is_reserved":false,"is_disabled":false,"rental_uris":{"android":"levelo://app?vid=0fa7d1fa-5965-4c20-8e31-e7093bb5f2f9","ios":"levelo://app?vid=0fa7d1fa-5965-4c20-8e31-e7093bb5f2f9"},"vehicle_type_id":"4","last_reported":1727212017,"current_range_meters":12000,"station_id":"","pricing_plan_id":"cebpf4jnsgd1na2vs0mg"},{"bike_id":"211e0346-61e5-4760-a281-2cb54eb23737","system_id":"levelo_inurba_marseille","lat":43.30782,"lon":5.37649,"is_reserved":false,"is_disabled":false,"rental_uris":{"android":"levelo://app?vid=211e0346-61e5-4760-a281-2cb54eb23737","ios":"levelo://app?vid=211e0346-61e5-4760-a281-2cb54eb23737"},"vehicle_type_id":"4","last_reported":1727212017,"current_range_meters":38800,"station_id":"ce4bgv92rcd13ifvqcq0","pricing_plan_id":"cebpf4jnsgd1na2vs0mg"},{"bike_id":"9e462320-2685-413b-8988-89c1b54f97e6","system_id":"levelo_inurba_marseille","lat":43.29,"lon":5.35617,"is_reserved":false,"is_disabled":false,"rental_uris":{"android":"levelo://app?vid=9e462320-2685-413b-8988-89c1b54f97e6","ios":"levelo://app?vid=9e462320-2685-413b-8988-89c1b54f97e6"},"vehicle_type_id":"4","last_reported":1727212017,"current_range_meters":10800,"station_id":"ce4bhb92rcd13ifvqen0","pricing_plan_id":"cebpf4jnsgd1na2vs0mg"},{"bike_id":"c39b9ebf-3474-4128-98e6-09b47ddcbf97","system_id":"levelo_inurba_marseille","lat":43.2707,"lon":5.42281,"is_reserved":false,"is_disabled":false,"rental_uris":{"android":"levelo://app?vid=c39b9ebf-3474-4128-98e6-09b47ddcbf97","ios":"levelo://app?vid=c39b9ebf-3474-4128-98e6-09b47ddcbf97"},"vehicle_type_id":"4","last_reported":1727212017,"current_range_meters":8000,"station_id":"ce4bhk92rcd13ifvqgb0","pricing_plan_id":"cebpf4jnsgd1na2vs0mg"},{"bike_id":"81fe2cdc-578f-4aef-b667-c4b7e0aa10ee","system_id":"levelo_inurba_marseille","lat":43.306501,"lon":5.400959,"is_reserved":false,"is_disabled":false,"rental_uris":{"android":"levelo://app?vid=81fe2cdc-578f-4aef-b667-c4b7e0aa10ee","ios":"levelo://app?vid=81fe2cdc-578f-4aef-b667-c4b7e0aa10ee"},"vehicle_type_id":"4","last_reported":1727212017,"current_range_meters":24800,"station_id":"ce4bh112rcd13ifvqda0","pricing_plan_id":"cebpf4jnsgd1na2vs0mg"},{"bike_id":"acb0310f-a16e-4219-bdde-4543d08c4bfa","system_id":"levelo_inurba_marseille","lat":43.28851,"lon":5.35837,"is_reserved":false,"is_disabled":false,"rental_uris":{"android":"levelo://app?vid=acb0310f-a16e-4219-bdde-4543d08c4bfa","ios":"levelo://app?vid=acb0310f-a16e-4219-bdde-4543d08c4bfa"},"vehicle_type_id":"4","last_reported":1727212017,"current_range_meters":38400,"station_id":"ce4bhb12rcd13ifvqem0","pricing_plan_id":"cebpf4jnsgd1na2vs0mg"},{"bike_id":"3b5c1f0c-da59-4b0c-a86b-1113f97e7524","system_id":"levelo_inurba_marseille","lat":43.30138,"lon":5.3879,"is_reserved":false,"is_disabled":false,"rental_uris":{"android":"levelo://app?vid=3b5c1f0c-da59-4b0c-a86b-1113f97e7524","ios":"levelo://app?vid=3b5c1f0c-da59-4b0c-a86b-1113f97e7524"},"vehicle_type_id":"4","last_reported":1727212017,"current_range_meters":10000,"station_id":"ce4bghh2rcd13ifvqb60","pricing_plan_id":"cebpf4jnsgd1na2vs0mg"},{"bike_id":"59c518d2-643b-4fc3-bb96-7756448a203e","system_id":"levelo_inurba_marseille","lat":43.30432,"lon":5.39752,"is_reserved":false,"is_disabled":false,"rental_uris":{"android":"levelo://app?vid=59c518d2-643b-4fc3-bb96-7756448a203e","ios":"levelo://app?vid=59c518d2-643b-4fc3-bb96-7756448a203e"},"vehicle_type_id":"4","last_reported":1727212017,"current_range_meters":33600,"station_id":"ce4bh092rcd13ifvqd20","pricing_plan_id":"cebpf4jnsgd1na2vs0mg"},{"bike_id":"b1f73128-5271-43d8-af34-94e10e3b804a","system_id":"levelo_inurba_marseille","lat":43.33127,"lon":5.39142,"is_reserved":false,"is_disabled":false,"rental_uris":{"android":"levelo://app?vid=b1f73128-5271-43d8-af34-94e10e3b804a","ios":"levelo://app?vid=b1f73128-5271-43d8-af34-94e10e3b804a"},"vehicle_type_id":"4","last_reported":1727212017,"current_range_meters":38000,"station_id":"","pricing_plan_id":"cebpf4jnsgd1na2vs0mg"},{"bike_id":"aa9005c8-05a0-4659-b06f-1e6354800693","system_id":"levelo_inurba_marseille","lat":43.31327,"lon":5.39697,"is_reserved":false,"is_disabled":false,"rental_uris":{"android":"levelo://app?vid=aa9005c8-05a0-4659-b06f-1e6354800693","ios":"levelo://app?vid=aa9005c8-05a0-4659-b06f-1e6354800693"},"vehicle_type_id":"4","last_reported":1727212017,"current_range_meters":6400,"station_id":"ce4bgvp2rcd13ifvqcu0","pricing_plan_id":"cebpf4jnsgd1na2vs0mg"},{"bike_id":"a1d82605-350d-4120-889c-7761b40719ec","system_id":"levelo_inurba_marseille","lat":43.32104,"lon":5.3678,"is_reserved":false,"is_disabled":false,"rental_uris":{"android":"levelo://app?vid=a1d82605-350d-4120-889c-7761b40719ec","ios":"levelo://app?vid=a1d82605-350d-4120-889c-7761b40719ec"},"vehicle_type_id":"4","last_reported":1727212017,"current_range_meters":24000,"station_id":"ce4bhrh2rcd13ifvqhug","pricing_plan_id":"cebpf4jnsgd1na2vs0mg"},{"bike_id":"270390c1-7478-42f7-9734-5e500db1da59","system_id":"levelo_inurba_marseille","lat":43.27172,"lon":5.40995,"is_reserved":false,"is_disabled":false,"rental_uris":{"android":"levelo://app?vid=270390c1-7478-42f7-9734-5e500db1da59","ios":"levelo://app?vid=270390c1-7478-42f7-9734-5e500db1da59"},"vehicle_type_id":"4","last_reported":1727212017,"current_range_meters":10000,"station_id":"ce4bhl12rcd13ifvqgf0","pricing_plan_id":"cebpf4jnsgd1na2vs0mg"},{"bike_id":"27a94d9a-7b34-4348-a7bf-e817803c2fed","system_id":"levelo_inurba_marseille","lat":43.28645,"lon":5.39968,"is_reserved":false,"is_disabled":false,"rental_uris":{"android":"levelo://app?vid=27a94d9a-7b34-4348-a7bf-e817803c2fed","ios":"levelo://app?vid=27a94d9a-7b34-4348-a7bf-e817803c2fed"},"vehicle_type_id":"4","last_reported":1727212017,"current_range_meters":4400,"station_id":"ce4bgv12rcd13ifvqcp0","pricing_plan_id":"cebpf4jnsgd1na2vs0mg"},{"bike_id":"7867c780-59e7-457b-80aa-b1c55d2cc50f","system_id":"levelo_inurba_marseille","lat":43.25082,"lon":5.39507,"is_reserved":false,"is_disabled":false,"rental_uris":{"android":"levelo://app?vid=7867c780-59e7-457b-80aa-b1c55d2cc50f","ios":"levelo://app?vid=7867c780-59e7-457b-80aa-b1c55d2cc50f"},"vehicle_type_id":"4","last_reported":1727212017,"current_range_meters":8000,"station_id":"ce4bhm12rcd13ifvqgkg","pricing_plan_id":"cebpf4jnsgd1na2vs0mg"},{"bike_id":"c0c4ac2c-dbd6-405c-ae94-75c9c39bd7ab","system_id":"levelo_inurba_marseille","lat":43.25086,"lon":5.39522,"is_reserved":false,"is_disabled":false,"rental_uris":{"android":"levelo://app?vid=c0c4ac2c-dbd6-405c-ae94-75c9c39bd7ab","ios":"levelo://app?vid=c0c4ac2c-dbd6-405c-ae94-75c9c39bd7ab"},"vehicle_type_id":"4","last_reported":1727212017,"current_range_meters":39200,"station_id":"ce4bhm12rcd13ifvqgkg","pricing_plan_id":"cebpf4jnsgd1na2vs0mg"},{"bike_id":"940ae4b5-cb20-4497-ac63-a3388e023517","system_id":"levelo_inurba_marseille","lat":43.30215,"lon":5.3946,"is_reserved":false,"is_disabled":false,"rental_uris":{"android":"levelo://app?vid=940ae4b5-cb20-4497-ac63-a3388e023517","ios":"levelo://app?vid=940ae4b5-cb20-4497-ac63-a3388e023517"},"vehicle_type_id":"4","last_reported":1727212017,"current_range_meters":38800,"station_id":"ce4bh0p2rcd13ifvqd70","pricing_plan_id":"cebpf4jnsgd1na2vs0mg"},{"bike_id":"1166f6b1-5b87-4bc1-b21d-c61655b2fee0","system_id":"levelo_inurba_marseille","lat":43.29454,"lon":5.38054,"is_reserved":false,"is_disabled":false,"rental_uris":{"android":"levelo://app?vid=1166f6b1-5b87-4bc1-b21d-c61655b2fee0","ios":"levelo://app?vid=1166f6b1-5b87-4bc1-b21d-c61655b2fee0"},"vehicle_type_id":"4","last_reported":1727212017,"current_range_meters":36800,"station_id":"","pricing_plan_id":"cebpf4jnsgd1na2vs0mg"},{"bike_id":"b03ba0a2-878d-413c-ae6b-366b723f6a73","system_id":"levelo_inurba_marseille","lat":43.27421,"lon":5.39419,"is_reserved":false,"is_disabled":false,"rental_uris":{"android":"levelo://app?vid=b03ba0a2-878d-413c-ae6b-366b723f6a73","ios":"levelo://app?vid=b03ba0a2-878d-413c-ae6b-366b723f6a73"},"vehicle_type_id":"4","last_reported":1727212017,"current_range_meters":32800,"station_id":"ce4bhdp2rcd13ifvqf20","pricing_plan_id":"cebpf4jnsgd1na2vs0mg"},{"bike_id":"d00ff8b6-0077-47b1-83e7-c2535f105c11","system_id":"levelo_inurba_marseille","lat":43.32028,"lon":5.41576,"is_reserved":false,"is_disabled":false,"rental_uris":{"android":"levelo://app?vid=d00ff8b6-0077-47b1-83e7-c2535f105c11","ios":"levelo://app?vid=d00ff8b6-0077-47b1-83e7-c2535f105c11"},"vehicle_type_id":"4","last_reported":1727212017,"current_range_meters":8000,"station_id":"ce4bhq92rcd13ifvqhkg","pricing_plan_id":"cebpf4jnsgd1na2vs0mg"},{"bike_id":"58ec375e-6ca8-4b81-9f8f-bfe2927d76bb","system_id":"levelo_inurba_marseille","lat":43.25352,"lon":5.4,"is_reserved":false,"is_disabled":false,"rental_uris":{"android":"levelo://app?vid=58ec375e-6ca8-4b81-9f8f-bfe2927d76bb","ios":"levelo://app?vid=58ec375e-6ca8-4b81-9f8f-bfe2927d76bb"},"vehicle_type_id":"4","last_reported":1727212017,"current_range_meters":6000,"station_id":"","pricing_plan_id":"cebpf4jnsgd1na2vs0mg"},{"bike_id":"6cf02193-3ded-4cde-a5e9-273e1e7f9133","system_id":"levelo_inurba_marseille","lat":43.30794,"lon":5.43528,"is_reserved":false,"is_disabled":false,"rental_uris":{"android":"levelo://app?vid=6cf02193-3ded-4cde-a5e9-273e1e7f9133","ios":"levelo://app?vid=6cf02193-3ded-4cde-a5e9-273e1e7f9133"},"vehicle_type_id":"4","last_reported":1727212017,"current_range_meters":38800,"station_id":"ce4bhph2rcd13ifvqheg","pricing_plan_id":"cebpf4jnsgd1na2vs0mg"},{"bike_id":"eba5dbf3-3980-40b6-96a4-b67aaff433ca","system_id":"levelo_inurba_marseille","lat":43.30882,"lon":5.39639,"is_reserved":false,"is_disabled":false,"rental_uris":{"android":"levelo://app?vid=eba5dbf3-3980-40b6-96a4-b67aaff433ca","ios":"levelo://app?vid=eba5dbf3-3980-40b6-96a4-b67aaff433ca"},"vehicle_type_id":"4","last_reported":1727212017,"current_range_meters":25200,"station_id":"ce4bh012rcd13ifvqcv0","pricing_plan_id":"cebpf4jnsgd1na2vs0mg"},{"bike_id":"c517eafc-0d84-46c5-8fed-1b42b71b7911","system_id":"levelo_inurba_marseille","lat":43.31761,"lon":5.3902,"is_reserved":false,"is_disabled":false,"rental_uris":{"android":"levelo://app?vid=c517eafc-0d84-46c5-8fed-1b42b71b7911","ios":"levelo://app?vid=c517eafc-0d84-46c5-8fed-1b42b71b7911"},"vehicle_type_id":"4","last_reported":1727212017,"current_range_meters":28000,"station_id":"ce4bhqp2rcd13ifvqhng","pricing_plan_id":"cebpf4jnsgd1na2vs0mg"},{"bike_id":"daee9fa7-3bc5-44d7-9ace-70830363f730","system_id":"levelo_inurba_marseille","lat":43.27904,"lon":5.41233,"is_reserved":false,"is_disabled":false,"rental_uris":{"android":"levelo://app?vid=daee9fa7-3bc5-44d7-9ace-70830363f730","ios":"levelo://app?vid=daee9fa7-3bc5-44d7-9ace-70830363f730"},"vehicle_type_id":"4","last_reported":1727212017,"current_range_meters":8000,"station_id":"","pricing_plan_id":"cebpf4jnsgd1na2vs0mg"},{"bike_id":"3d7eb12c-ee39-48a6-960b-1120cad1538d","system_id":"levelo_inurba_marseille","lat":43.28461,"lon":5.35883,"is_reserved":false,"is_disabled":false,"rental_uris":{"android":"levelo://app?vid=3d7eb12c-ee39-48a6-960b-1120cad1538d","ios":"levelo://app?vid=3d7eb12c-ee39-48a6-960b-1120cad1538d"},"vehicle_type_id":"4","last_reported":1727212017,"current_range_meters":5600,"station_id":"ce4bhah2rcd13ifvqei0","pricing_plan_id":"cebpf4jnsgd1na2vs0mg"},{"bike_id":"fbc97a14-51ab-46bb-8bce-846250bcdb52","system_id":"levelo_inurba_marseille","lat":43.30203,"lon":5.39469,"is_reserved":false,"is_disabled":false,"rental_uris":{"android":"levelo://app?vid=fbc97a14-51ab-46bb-8bce-846250bcdb52","ios":"levelo://app?vid=fbc97a14-51ab-46bb-8bce-846250bcdb52"},"vehicle_type_id":"4","last_reported":1727212017,"current_range_meters":38800,"station_id":"ce4bh0p2rcd13ifvqd70","pricing_plan_id":"cebpf4jnsgd1na2vs0mg"},{"bike_id":"5d22d37c-c8d4-4feb-8685-bf150cafbdc6","system_id":"levelo_inurba_marseille","lat":43.24069,"lon":5.37757,"is_reserved":false,"is_disabled":false,"rental_uris":{"android":"levelo://app?vid=5d22d37c-c8d4-4feb-8685-bf150cafbdc6","ios":"levelo://app?vid=5d22d37c-c8d4-4feb-8685-bf150cafbdc6"},"vehicle_type_id":"4","last_reported":1727212017,"current_range_meters":22000,"station_id":"ce4bhnp2rcd13ifvqgvg","pricing_plan_id":"cebpf4jnsgd1na2vs0mg"},{"bike_id":"81000a3a-c11c-4d08-8723-5803ef31d63a","system_id":"levelo_inurba_marseille","lat":43.32001,"lon":5.38149,"is_reserved":false,"is_disabled":false,"rental_uris":{"android":"levelo://app?vid=81000a3a-c11c-4d08-8723-5803ef31d63a","ios":"levelo://app?vid=81000a3a-c11c-4d08-8723-5803ef31d63a"},"vehicle_type_id":"4","last_reported":1727212017,"current_range_meters":24400,"station_id":"ce4bhr12rcd13ifvqhpg","pricing_plan_id":"cebpf4jnsgd1na2vs0mg"},{"bike_id":"17701005-77c3-4e4f-a0b4-b2ece630517d","system_id":"levelo_inurba_marseille","lat":43.23962,"lon":5.36624,"is_reserved":false,"is_disabled":false,"rental_uris":{"android":"levelo://app?vid=17701005-77c3-4e4f-a0b4-b2ece630517d","ios":"levelo://app?vid=17701005-77c3-4e4f-a0b4-b2ece630517d"},"vehicle_type_id":"4","last_reported":1727212017,"current_range_meters":38400,"station_id":"ce4bhi12rcd13ifvqfp0","pricing_plan_id":"cebpf4jnsgd1na2vs0mg"},{"bike_id":"52b1b92f-17d8-4b31-90d2-8b0c06dc4ab0","system_id":"levelo_inurba_marseille","lat":43.31996,"lon":5.3816,"is_reserved":false,"is_disabled":false,"rental_uris":{"android":"levelo://app?vid=52b1b92f-17d8-4b31-90d2-8b0c06dc4ab0","ios":"levelo://app?vid=52b1b92f-17d8-4b31-90d2-8b0c06dc4ab0"},"vehicle_type_id":"4","last_reported":1727212017,"current_range_meters":18800,"station_id":"ce4bhr12rcd13ifvqhpg","pricing_plan_id":"cebpf4jnsgd1na2vs0mg"},{"bike_id":"a37cc911-5a59-4aa9-bc38-03dae0c2e789","system_id":"levelo_inurba_marseille","lat":43.29009,"lon":5.35615,"is_reserved":false,"is_disabled":false,"rental_uris":{"android":"levelo://app?vid=a37cc911-5a59-4aa9-bc38-03dae0c2e789","ios":"levelo://app?vid=a37cc911-5a59-4aa9-bc38-03dae0c2e789"},"vehicle_type_id":"4","last_reported":1727212017,"current_range_meters":25600,"station_id":"ce4bhb92rcd13ifvqen0","pricing_plan_id":"cebpf4jnsgd1na2vs0mg"},{"bike_id":"c8e2e608-f468-4c9b-9708-10e6f0f0d98d","system_id":"levelo_inurba_marseille","lat":43.23189,"lon":5.39989,"is_reserved":false,"is_disabled":false,"rental_uris":{"android":"levelo://app?vid=c8e2e608-f468-4c9b-9708-10e6f0f0d98d","ios":"levelo://app?vid=c8e2e608-f468-4c9b-9708-10e6f0f0d98d"},"vehicle_type_id":"4","last_reported":1727212017,"current_range_meters":8400,"station_id":"ce4bhn12rcd13ifvqgqg","pricing_plan_id":"cebpf4jnsgd1na2vs0mg"},{"bike_id":"422c3bef-d0de-4a09-bd86-bffdb44eedb9","system_id":"levelo_inurba_marseille","lat":43.30436,"lon":5.38902,"is_reserved":false,"is_disabled":false,"rental_uris":{"android":"levelo://app?vid=422c3bef-d0de-4a09-bd86-bffdb44eedb9","ios":"levelo://app?vid=422c3bef-d0de-4a09-bd86-bffdb44eedb9"},"vehicle_type_id":"4","last_reported":1727212017,"current_range_meters":38800,"station_id":"ce4bgk12rcd13ifvqbi0","pricing_plan_id":"cebpf4jnsgd1na2vs0mg"},{"bike_id":"e4782e7a-e28a-48af-a586-42b249546ec0","system_id":"levelo_inurba_marseille","lat":43.31119,"lon":5.37774,"is_reserved":false,"is_disabled":false,"rental_uris":{"android":"levelo://app?vid=e4782e7a-e28a-48af-a586-42b249546ec0","ios":"levelo://app?vid=e4782e7a-e28a-48af-a586-42b249546ec0"},"vehicle_type_id":"4","last_reported":1727212017,"current_range_meters":38800,"station_id":"ce4bgt92rcd13ifvqcg0","pricing_plan_id":"cebpf4jnsgd1na2vs0mg"},{"bike_id":"c60901a6-e0c0-4f7e-851a-f54a10f5276f","system_id":"levelo_inurba_marseille","lat":43.25828,"lon":5.39427,"is_reserved":false,"is_disabled":false,"rental_uris":{"android":"levelo://app?vid=c60901a6-e0c0-4f7e-851a-f54a10f5276f","ios":"levelo://app?vid=c60901a6-e0c0-4f7e-851a-f54a10f5276f"},"vehicle_type_id":"4","last_reported":1727212017,"current_range_meters":38000,"station_id":"ce4bhip2rcd13ifvqft0","pricing_plan_id":"cebpf4jnsgd1na2vs0mg"},{"bike_id":"331d72fd-b5e5-4ade-9a70-a7c817a74063","system_id":"levelo_inurba_marseille","lat":43.27903,"lon":5.37991,"is_reserved":false,"is_disabled":false,"rental_uris":{"android":"levelo://app?vid=331d72fd-b5e5-4ade-9a70-a7c817a74063","ios":"levelo://app?vid=331d72fd-b5e5-4ade-9a70-a7c817a74063"},"vehicle_type_id":"4","last_reported":1727212017,"current_range_meters":22000,"station_id":"ce4bhf92rcd13ifvqf50","pricing_plan_id":"cebpf4jnsgd1na2vs0mg"},{"bike_id":"7e9e8414-11aa-4516-a0ba-b99da07411a2","system_id":"levelo_inurba_marseille","lat":43.24075,"lon":5.37761,"is_reserved":false,"is_disabled":false,"rental_uris":{"android":"levelo://app?vid=7e9e8414-11aa-4516-a0ba-b99da07411a2","ios":"levelo://app?vid=7e9e8414-11aa-4516-a0ba-b99da07411a2"},"vehicle_type_id":"4","last_reported":1727212017,"current_range_meters":19600,"station_id":"ce4bhnp2rcd13ifvqgvg","pricing_plan_id":"cebpf4jnsgd1na2vs0mg"},{"bike_id":"08aeb96c-2414-43fb-a731-004123e5f581","system_id":"levelo_inurba_marseille","lat":43.3133,"lon":5.39706,"is_reserved":false,"is_disabled":false,"rental_uris":{"android":"levelo://app?vid=08aeb96c-2414-43fb-a731-004123e5f581","ios":"levelo://app?vid=08aeb96c-2414-43fb-a731-004123e5f581"},"vehicle_type_id":"4","last_reported":1727212017,"current_range_meters":14800,"station_id":"ce4bgvp2rcd13ifvqcu0","pricing_plan_id":"cebpf4jnsgd1na2vs0mg"},{"bike_id":"d5aa1add-115d-4e1a-b824-66ecde93a367","system_id":"levelo_inurba_marseille","lat":43.24082,"lon":5.37759,"is_reserved":false,"is_disabled":false,"rental_uris":{"android":"levelo://app?vid=d5aa1add-115d-4e1a-b824-66ecde93a367","ios":"levelo://app?vid=d5aa1add-115d-4e1a-b824-66ecde93a367"},"vehicle_type_id":"4","last_reported":1727212017,"current_range_meters":10800,"station_id":"ce4bhnp2rcd13ifvqgvg","pricing_plan_id":"cebpf4jnsgd1na2vs0mg"},{"bike_id":"0c5bc108-18bc-4032-8fe0-145c940828d0","system_id":"levelo_inurba_marseille","lat":43.25864,"lon":5.39907,"is_reserved":false,"is_disabled":false,"rental_uris":{"android":"levelo://app?vid=0c5bc108-18bc-4032-8fe0-145c940828d0","ios":"levelo://app?vid=0c5bc108-18bc-4032-8fe0-145c940828d0"},"vehicle_type_id":"4","last_reported":1727212017,"current_range_meters":38800,"station_id":"ce4bhl92rcd13ifvqghg","pricing_plan_id":"cebpf4jnsgd1na2vs0mg"},{"bike_id":"7a66c1dc-0e20-49d1-b730-80923666f8ac","system_id":"levelo_inurba_marseille","lat":43.28699,"lon":5.39984,"is_reserved":false,"is_disabled":false,"rental_uris":{"android":"levelo://app?vid=7a66c1dc-0e20-49d1-b730-80923666f8ac","ios":"levelo://app?vid=7a66c1dc-0e20-49d1-b730-80923666f8ac"},"vehicle_type_id":"4","last_reported":1727212017,"current_range_meters":26000,"station_id":"ce4bho92rcd13ifvqh3g","pricing_plan_id":"cebpf4jnsgd1na2vs0mg"},{"bike_id":"d24bbf1b-3aea-42be-a965-80ffa4745455","system_id":"levelo_inurba_marseille","lat":43.28363,"lon":5.38109,"is_reserved":false,"is_disabled":false,"rental_uris":{"android":"levelo://app?vid=d24bbf1b-3aea-42be-a965-80ffa4745455","ios":"levelo://app?vid=d24bbf1b-3aea-42be-a965-80ffa4745455"},"vehicle_type_id":"4","last_reported":1727212017,"current_range_meters":8800,"station_id":"ce4bh412rcd13ifvqdr0","pricing_plan_id":"cebpf4jnsgd1na2vs0mg"},{"bike_id":"a7bca3df-0344-4204-86d7-b742d4769839","system_id":"levelo_inurba_marseille","lat":43.30863,"lon":5.3685,"is_reserved":false,"is_disabled":false,"rental_uris":{"android":"levelo://app?vid=a7bca3df-0344-4204-86d7-b742d4769839","ios":"levelo://app?vid=a7bca3df-0344-4204-86d7-b742d4769839"},"vehicle_type_id":"4","last_reported":1727212017,"current_range_meters":31200,"station_id":"ce4bgn92rcd13ifvqbvg","pricing_plan_id":"cebpf4jnsgd1na2vs0mg"},{"bike_id":"7a8a0800-f777-46b2-8e82-362f8ebbd9e6","system_id":"levelo_inurba_marseille","lat":43.32292,"lon":5.38265,"is_reserved":false,"is_disabled":false,"rental_uris":{"android":"levelo://app?vid=7a8a0800-f777-46b2-8e82-362f8ebbd9e6","ios":"levelo://app?vid=7a8a0800-f777-46b2-8e82-362f8ebbd9e6"},"vehicle_type_id":"4","last_reported":1727212017,"current_range_meters":29600,"station_id":"ce4bhr12rcd13ifvqhqg","pricing_plan_id":"cebpf4jnsgd1na2vs0mg"},{"bike_id":"0d6b7797-74de-433e-a05c-bc969eca22a6","system_id":"levelo_inurba_marseille","lat":43.23174,"lon":5.39991,"is_reserved":false,"is_disabled":false,"rental_uris":{"android":"levelo://app?vid=0d6b7797-74de-433e-a05c-bc969eca22a6","ios":"levelo://app?vid=0d6b7797-74de-433e-a05c-bc969eca22a6"},"vehicle_type_id":"4","last_reported":1727212017,"current_range_meters":38800,"station_id":"ce4bhn12rcd13ifvqgqg","pricing_plan_id":"cebpf4jnsgd1na2vs0mg"},{"bike_id":"29cef338-028b-46be-aec2-2de217d46e45","system_id":"levelo_inurba_marseille","lat":43.32366,"lon":5.3889,"is_reserved":false,"is_disabled":false,"rental_uris":{"android":"levelo://app?vid=29cef338-028b-46be-aec2-2de217d46e45","ios":"levelo://app?vid=29cef338-028b-46be-aec2-2de217d46e45"},"vehicle_type_id":"4","last_reported":1727212017,"current_range_meters":22800,"station_id":"ce4bhqp2rcd13ifvqhog","pricing_plan_id":"cebpf4jnsgd1na2vs0mg"},{"bike_id":"d831a0c8-0bcd-4449-91a5-836df1a52d4b","system_id":"levelo_inurba_marseille","lat":43.307135,"lon":5.372845,"is_reserved":false,"is_disabled":false,"rental_uris":{"android":"levelo://app?vid=d831a0c8-0bcd-4449-91a5-836df1a52d4b","ios":"levelo://app?vid=d831a0c8-0bcd-4449-91a5-836df1a52d4b"},"vehicle_type_id":"4","last_reported":1727212017,"current_range_meters":14000,"station_id":"","pricing_plan_id":"cebpf4jnsgd1na2vs0mg"},{"bike_id":"37ea3e6e-16e9-42b3-b4f9-836c84a7a894","system_id":"levelo_inurba_marseille","lat":43.23186,"lon":5.39985,"is_reserved":false,"is_disabled":false,"rental_uris":{"android":"levelo://app?vid=37ea3e6e-16e9-42b3-b4f9-836c84a7a894","ios":"levelo://app?vid=37ea3e6e-16e9-42b3-b4f9-836c84a7a894"},"vehicle_type_id":"4","last_reported":1727212017,"current_range_meters":32800,"station_id":"ce4bhn12rcd13ifvqgqg","pricing_plan_id":"cebpf4jnsgd1na2vs0mg"},{"bike_id":"337d797f-5bad-4e42-a3a9-741eceae0aa0","system_id":"levelo_inurba_marseille","lat":43.33729,"lon":5.39177,"is_reserved":false,"is_disabled":false,"rental_uris":{"android":"levelo://app?vid=337d797f-5bad-4e42-a3a9-741eceae0aa0","ios":"levelo://app?vid=337d797f-5bad-4e42-a3a9-741eceae0aa0"},"vehicle_type_id":"4","last_reported":1727212017,"current_range_meters":35200,"station_id":"ce4bhr92rcd13ifvqhsg","pricing_plan_id":"cebpf4jnsgd1na2vs0mg"},{"bike_id":"6de41add-2939-4139-9e1b-56c309cf2837","system_id":"levelo_inurba_marseille","lat":43.29038,"lon":5.35916,"is_reserved":false,"is_disabled":false,"rental_uris":{"android":"levelo://app?vid=6de41add-2939-4139-9e1b-56c309cf2837","ios":"levelo://app?vid=6de41add-2939-4139-9e1b-56c309cf2837"},"vehicle_type_id":"4","last_reported":1727212017,"current_range_meters":11600,"station_id":"ce4bha92rcd13ifvqeg0","pricing_plan_id":"cebpf4jnsgd1na2vs0mg"},{"bike_id":"c429e26a-1acd-4e91-9809-a448ccb99898","system_id":"levelo_inurba_marseille","lat":43.28121,"lon":5.40602,"is_reserved":false,"is_disabled":false,"rental_uris":{"android":"levelo://app?vid=c429e26a-1acd-4e91-9809-a448ccb99898","ios":"levelo://app?vid=c429e26a-1acd-4e91-9809-a448ccb99898"},"vehicle_type_id":"4","last_reported":1727212017,"current_range_meters":38000,"station_id":"","pricing_plan_id":"cebpf4jnsgd1na2vs0mg"},{"bike_id":"7d13bfe6-cac1-417a-a866-11f3f6431dbc","system_id":"levelo_inurba_marseille","lat":43.2861,"lon":5.37066,"is_reserved":false,"is_disabled":false,"rental_uris":{"android":"levelo://app?vid=7d13bfe6-cac1-417a-a866-11f3f6431dbc","ios":"levelo://app?vid=7d13bfe6-cac1-417a-a866-11f3f6431dbc"},"vehicle_type_id":"4","last_reported":1727212017,"current_range_meters":29600,"station_id":"ce4bht12rcd13ifvqi60","pricing_plan_id":"cebpf4jnsgd1na2vs0mg"},{"bike_id":"4a4bfd88-bdfc-4802-b3a8-e798e4274727","system_id":"levelo_inurba_marseille","lat":43.32294,"lon":5.38259,"is_reserved":false,"is_disabled":false,"rental_uris":{"android":"levelo://app?vid=4a4bfd88-bdfc-4802-b3a8-e798e4274727","ios":"levelo://app?vid=4a4bfd88-bdfc-4802-b3a8-e798e4274727"},"vehicle_type_id":"4","last_reported":1727212017,"current_range_meters":31200,"station_id":"ce4bhr12rcd13ifvqhqg","pricing_plan_id":"cebpf4jnsgd1na2vs0mg"},{"bike_id":"9fa6ce40-a2c5-4b94-8815-5c21202a1327","system_id":"levelo_inurba_marseille","lat":43.31756,"lon":5.39021,"is_reserved":false,"is_disabled":false,"rental_uris":{"android":"levelo://app?vid=9fa6ce40-a2c5-4b94-8815-5c21202a1327","ios":"levelo://app?vid=9fa6ce40-a2c5-4b94-8815-5c21202a1327"},"vehicle_type_id":"4","last_reported":1727212017,"current_range_meters":9200,"station_id":"ce4bhqp2rcd13ifvqhng","pricing_plan_id":"cebpf4jnsgd1na2vs0mg"},{"bike_id":"86898526-a4d9-47cf-b306-df317b0d9e78","system_id":"levelo_inurba_marseille","lat":43.23194,"lon":5.35555,"is_reserved":false,"is_disabled":false,"rental_uris":{"android":"levelo://app?vid=86898526-a4d9-47cf-b306-df317b0d9e78","ios":"levelo://app?vid=86898526-a4d9-47cf-b306-df317b0d9e78"},"vehicle_type_id":"4","last_reported":1727212017,"current_range_meters":22400,"station_id":"ce4bhu92rcd13ifvqi70","pricing_plan_id":"cebpf4jnsgd1na2vs0mg"},{"bike_id":"b99e7561-0942-4f7a-94e2-bcc7f1edf218","system_id":"levelo_inurba_marseille","lat":43.27685,"lon":5.38876,"is_reserved":false,"is_disabled":false,"rental_uris":{"android":"levelo://app?vid=b99e7561-0942-4f7a-94e2-bcc7f1edf218","ios":"levelo://app?vid=b99e7561-0942-4f7a-94e2-bcc7f1edf218"},"vehicle_type_id":"4","last_reported":1727212017,"current_range_meters":28000,"station_id":"ce4bhi12rcd13ifvqfo0","pricing_plan_id":"cebpf4jnsgd1na2vs0mg"},{"bike_id":"a75a7a82-b383-49ec-a2cc-d6ad20e46f8d","system_id":"levelo_inurba_marseille","lat":43.308059,"lon":5.435169,"is_reserved":false,"is_disabled":false,"rental_uris":{"android":"levelo://app?vid=a75a7a82-b383-49ec-a2cc-d6ad20e46f8d","ios":"levelo://app?vid=a75a7a82-b383-49ec-a2cc-d6ad20e46f8d"},"vehicle_type_id":"4","last_reported":1727212017,"current_range_meters":38800,"station_id":"ce4bhph2rcd13ifvqheg","pricing_plan_id":"cebpf4jnsgd1na2vs0mg"},{"bike_id":"9ac9d415-314c-47c9-83c9-409ec35ee620","system_id":"levelo_inurba_marseille","lat":43.2407,"lon":5.37762,"is_reserved":false,"is_disabled":false,"rental_uris":{"android":"levelo://app?vid=9ac9d415-314c-47c9-83c9-409ec35ee620","ios":"levelo://app?vid=9ac9d415-314c-47c9-83c9-409ec35ee620"},"vehicle_type_id":"4","last_reported":1727212017,"current_range_meters":5600,"station_id":"ce4bhnp2rcd13ifvqgvg","pricing_plan_id":"cebpf4jnsgd1na2vs0mg"},{"bike_id":"c6038265-c31b-4200-ac96-bc2aad845ec7","system_id":"levelo_inurba_marseille","lat":43.28706,"lon":5.39976,"is_reserved":false,"is_disabled":false,"rental_uris":{"android":"levelo://app?vid=c6038265-c31b-4200-ac96-bc2aad845ec7","ios":"levelo://app?vid=c6038265-c31b-4200-ac96-bc2aad845ec7"},"vehicle_type_id":"4","last_reported":1727212017,"current_range_meters":17600,"station_id":"ce4bho92rcd13ifvqh3g","pricing_plan_id":"cebpf4jnsgd1na2vs0mg"},{"bike_id":"aa0310b1-ac6b-464f-ae69-3c7e8472b625","system_id":"levelo_inurba_marseille","lat":43.30501,"lon":5.38891,"is_reserved":false,"is_disabled":false,"rental_uris":{"android":"levelo://app?vid=aa0310b1-ac6b-464f-ae69-3c7e8472b625","ios":"levelo://app?vid=aa0310b1-ac6b-464f-ae69-3c7e8472b625"},"vehicle_type_id":"4","last_reported":1727212017,"current_range_meters":38800,"station_id":"ce4bgk12rcd13ifvqbi0","pricing_plan_id":"cebpf4jnsgd1na2vs0mg"},{"bike_id":"c3635c8f-c073-4e2e-9a6d-ca3c8ef40eb7","system_id":"levelo_inurba_marseille","lat":43.31754,"lon":5.39021,"is_reserved":false,"is_disabled":false,"rental_uris":{"android":"levelo://app?vid=c3635c8f-c073-4e2e-9a6d-ca3c8ef40eb7","ios":"levelo://app?vid=c3635c8f-c073-4e2e-9a6d-ca3c8ef40eb7"},"vehicle_type_id":"4","last_reported":1727212017,"current_range_meters":30000,"station_id":"ce4bhqp2rcd13ifvqhng","pricing_plan_id":"cebpf4jnsgd1na2vs0mg"},{"bike_id":"5e787303-50e2-4b6f-ac85-c0e6d3015235","system_id":"levelo_inurba_marseille","lat":43.299003,"lon":5.436637,"is_reserved":false,"is_disabled":false,"rental_uris":{"android":"levelo://app?vid=5e787303-50e2-4b6f-ac85-c0e6d3015235","ios":"levelo://app?vid=5e787303-50e2-4b6f-ac85-c0e6d3015235"},"vehicle_type_id":"4","last_reported":1727212017,"current_range_meters":38800,"station_id":"ce4bhpp2rcd13ifvqhfg","pricing_plan_id":"cebpf4jnsgd1na2vs0mg"},{"bike_id":"3a5182df-8aae-47ec-b5d4-1edd42fa0e80","system_id":"levelo_inurba_marseille","lat":43.3154,"lon":5.3803,"is_reserved":false,"is_disabled":false,"rental_uris":{"android":"levelo://app?vid=3a5182df-8aae-47ec-b5d4-1edd42fa0e80","ios":"levelo://app?vid=3a5182df-8aae-47ec-b5d4-1edd42fa0e80"},"vehicle_type_id":"4","last_reported":1727212017,"current_range_meters":22800,"station_id":"ce4bhsp2rcd13ifvqi50","pricing_plan_id":"cebpf4jnsgd1na2vs0mg"},{"bike_id":"ede37da0-431f-462e-af97-45c71435ab2a","system_id":"levelo_inurba_marseille","lat":43.24186,"lon":5.39718,"is_reserved":false,"is_disabled":false,"rental_uris":{"android":"levelo://app?vid=ede37da0-431f-462e-af97-45c71435ab2a","ios":"levelo://app?vid=ede37da0-431f-462e-af97-45c71435ab2a"},"vehicle_type_id":"4","last_reported":1727212017,"current_range_meters":24400,"station_id":"ce4bhn12rcd13ifvqgpg","pricing_plan_id":"cebpf4jnsgd1na2vs0mg"},{"bike_id":"084668ab-6081-489c-83f4-c01f8c9402e7","system_id":"levelo_inurba_marseille","lat":43.29263,"lon":5.40903,"is_reserved":false,"is_disabled":false,"rental_uris":{"android":"levelo://app?vid=084668ab-6081-489c-83f4-c01f8c9402e7","ios":"levelo://app?vid=084668ab-6081-489c-83f4-c01f8c9402e7"},"vehicle_type_id":"4","last_reported":1727212017,"current_range_meters":38000,"station_id":"ce4bh192rcd13ifvqdc0","pricing_plan_id":"cebpf4jnsgd1na2vs0mg"},{"bike_id":"50f3de4b-ac0e-4212-b688-db19cb5d1d8e","system_id":"levelo_inurba_marseille","lat":43.31025,"lon":5.38328,"is_reserved":false,"is_disabled":false,"rental_uris":{"android":"levelo://app?vid=50f3de4b-ac0e-4212-b688-db19cb5d1d8e","ios":"levelo://app?vid=50f3de4b-ac0e-4212-b688-db19cb5d1d8e"},"vehicle_type_id":"4","last_reported":1727212017,"current_range_meters":2800,"station_id":"ce4bgv12rcd13ifvqcp0","pricing_plan_id":"cebpf4jnsgd1na2vs0mg"},{"bike_id":"540f6ef4-f26e-467c-92ad-359400cfca8c","system_id":"levelo_inurba_marseille","lat":43.28931,"lon":5.36401,"is_reserved":false,"is_disabled":false,"rental_uris":{"android":"levelo://app?vid=540f6ef4-f26e-467c-92ad-359400cfca8c","ios":"levelo://app?vid=540f6ef4-f26e-467c-92ad-359400cfca8c"},"vehicle_type_id":"4","last_reported":1727212017,"current_range_meters":30000,"station_id":"ce4bhc92rcd13ifvqetg","pricing_plan_id":"cebpf4jnsgd1na2vs0mg"},{"bike_id":"1fdf9dbd-07ba-4e58-92e4-5e47c4253afc","system_id":"levelo_inurba_marseille","lat":43.29269,"lon":5.40127,"is_reserved":false,"is_disabled":false,"rental_uris":{"android":"levelo://app?vid=1fdf9dbd-07ba-4e58-92e4-5e47c4253afc","ios":"levelo://app?vid=1fdf9dbd-07ba-4e58-92e4-5e47c4253afc"},"vehicle_type_id":"4","last_reported":1727212017,"current_range_meters":27200,"station_id":"ce4bh312rcd13ifvqdk0","pricing_plan_id":"cebpf4jnsgd1na2vs0mg"},{"bike_id":"8450f356-8249-4b09-b318-a4cf97df999c","system_id":"levelo_inurba_marseille","lat":43.3133,"lon":5.39695,"is_reserved":false,"is_disabled":false,"rental_uris":{"android":"levelo://app?vid=8450f356-8249-4b09-b318-a4cf97df999c","ios":"levelo://app?vid=8450f356-8249-4b09-b318-a4cf97df999c"},"vehicle_type_id":"4","last_reported":1727212017,"current_range_meters":31200,"station_id":"ce4bgvp2rcd13ifvqcu0","pricing_plan_id":"cebpf4jnsgd1na2vs0mg"},{"bike_id":"c809b4e3-1ad9-49ec-b850-4c2202458623","system_id":"levelo_inurba_marseille","lat":43.28409,"lon":5.37525,"is_reserved":false,"is_disabled":false,"rental_uris":{"android":"levelo://app?vid=c809b4e3-1ad9-49ec-b850-4c2202458623","ios":"levelo://app?vid=c809b4e3-1ad9-49ec-b850-4c2202458623"},"vehicle_type_id":"4","last_reported":1727212017,"current_range_meters":39200,"station_id":"ce4bh412rcd13ifvqds0","pricing_plan_id":"cebpf4jnsgd1na2vs0mg"},{"bike_id":"9355b769-996d-4f4f-b5dd-c0b8373b1b70","system_id":"levelo_inurba_marseille","lat":43.31331,"lon":5.39694,"is_reserved":false,"is_disabled":false,"rental_uris":{"android":"levelo://app?vid=9355b769-996d-4f4f-b5dd-c0b8373b1b70","ios":"levelo://app?vid=9355b769-996d-4f4f-b5dd-c0b8373b1b70"},"vehicle_type_id":"4","last_reported":1727212017,"current_range_meters":24000,"station_id":"ce4bgvp2rcd13ifvqcu0","pricing_plan_id":"cebpf4jnsgd1na2vs0mg"},{"bike_id":"30df9b3b-d216-4bbc-ad88-5f3ca1abe8bf","system_id":"levelo_inurba_marseille","lat":43.29899,"lon":5.43665,"is_reserved":false,"is_disabled":false,"rental_uris":{"android":"levelo://app?vid=30df9b3b-d216-4bbc-ad88-5f3ca1abe8bf","ios":"levelo://app?vid=30df9b3b-d216-4bbc-ad88-5f3ca1abe8bf"},"vehicle_type_id":"4","last_reported":1727212017,"current_range_meters":9200,"station_id":"ce4bhpp2rcd13ifvqhfg","pricing_plan_id":"cebpf4jnsgd1na2vs0mg"},{"bike_id":"9772998c-2089-4fea-ad97-2dcfbb28f75e","system_id":"levelo_inurba_marseille","lat":43.28727,"lon":5.3608,"is_reserved":false,"is_disabled":false,"rental_uris":{"android":"levelo://app?vid=9772998c-2089-4fea-ad97-2dcfbb28f75e","ios":"levelo://app?vid=9772998c-2089-4fea-ad97-2dcfbb28f75e"},"vehicle_type_id":"4","last_reported":1727212017,"current_range_meters":14400,"station_id":"cki0cbj6b192h4jlfktg","pricing_plan_id":"cebpf4jnsgd1na2vs0mg"},{"bike_id":"9aa582cb-bb26-4fb3-a199-894db2f458cd","system_id":"levelo_inurba_marseille","lat":43.26571,"lon":5.39009,"is_reserved":false,"is_disabled":false,"rental_uris":{"android":"levelo://app?vid=9aa582cb-bb26-4fb3-a199-894db2f458cd","ios":"levelo://app?vid=9aa582cb-bb26-4fb3-a199-894db2f458cd"},"vehicle_type_id":"4","last_reported":1727212017,"current_range_meters":36800,"station_id":"ce4bhe12rcd13ifvqf30","pricing_plan_id":"cebpf4jnsgd1na2vs0mg"},{"bike_id":"7ba5b6a2-2b94-4bc1-9141-d02d028cc981","system_id":"levelo_inurba_marseille","lat":43.25859,"lon":5.39896,"is_reserved":false,"is_disabled":false,"rental_uris":{"android":"levelo://app?vid=7ba5b6a2-2b94-4bc1-9141-d02d028cc981","ios":"levelo://app?vid=7ba5b6a2-2b94-4bc1-9141-d02d028cc981"},"vehicle_type_id":"4","last_reported":1727212017,"current_range_meters":38800,"station_id":"ce4bhl92rcd13ifvqghg","pricing_plan_id":"cebpf4jnsgd1na2vs0mg"},{"bike_id":"39a04d7f-16d2-49c5-8c69-3147c5aa8fb0","system_id":"levelo_inurba_marseille","lat":43.27945,"lon":5.4104,"is_reserved":false,"is_disabled":false,"rental_uris":{"android":"levelo://app?vid=39a04d7f-16d2-49c5-8c69-3147c5aa8fb0","ios":"levelo://app?vid=39a04d7f-16d2-49c5-8c69-3147c5aa8fb0"},"vehicle_type_id":"4","last_reported":1727212017,"current_range_meters":37600,"station_id":"ce4bhnp2rcd13ifvqh0g","pricing_plan_id":"cebpf4jnsgd1na2vs0mg"},{"bike_id":"c6fecc47-4f8c-471a-bc43-e4fba5c8690d","system_id":"levelo_inurba_marseille","lat":43.30137,"lon":5.37418,"is_reserved":false,"is_disabled":false,"rental_uris":{"android":"levelo://app?vid=c6fecc47-4f8c-471a-bc43-e4fba5c8690d","ios":"levelo://app?vid=c6fecc47-4f8c-471a-bc43-e4fba5c8690d"},"vehicle_type_id":"4","last_reported":1727212017,"current_range_meters":39200,"station_id":"ce4bgs92rcd13ifvqcc0","pricing_plan_id":"cebpf4jnsgd1na2vs0mg"},{"bike_id":"e4dc5612-100a-483e-a473-3f08f3e150bf","system_id":"levelo_inurba_marseille","lat":43.27818,"lon":5.4072,"is_reserved":false,"is_disabled":false,"rental_uris":{"android":"levelo://app?vid=e4dc5612-100a-483e-a473-3f08f3e150bf","ios":"levelo://app?vid=e4dc5612-100a-483e-a473-3f08f3e150bf"},"vehicle_type_id":"4","last_reported":1727212017,"current_range_meters":13600,"station_id":"ce4bhnh2rcd13ifvqgtg","pricing_plan_id":"cebpf4jnsgd1na2vs0mg"},{"bike_id":"ca995322-1acd-4074-b9d9-ab9fa5d3f8ef","system_id":"levelo_inurba_marseille","lat":43.28425,"lon":5.34998,"is_reserved":false,"is_disabled":false,"rental_uris":{"android":"levelo://app?vid=ca995322-1acd-4074-b9d9-ab9fa5d3f8ef","ios":"levelo://app?vid=ca995322-1acd-4074-b9d9-ab9fa5d3f8ef"},"vehicle_type_id":"4","last_reported":1727212017,"current_range_meters":39200,"station_id":"ce4bhbh2rcd13ifvqepg","pricing_plan_id":"cebpf4jnsgd1na2vs0mg"},{"bike_id":"9e7b52e4-b4ff-4be8-9285-a09c39bbe7ff","system_id":"levelo_inurba_marseille","lat":43.30211,"lon":5.39474,"is_reserved":false,"is_disabled":false,"rental_uris":{"android":"levelo://app?vid=9e7b52e4-b4ff-4be8-9285-a09c39bbe7ff","ios":"levelo://app?vid=9e7b52e4-b4ff-4be8-9285-a09c39bbe7ff"},"vehicle_type_id":"4","last_reported":1727212017,"current_range_meters":38800,"station_id":"ce4bh0p2rcd13ifvqd70","pricing_plan_id":"cebpf4jnsgd1na2vs0mg"},{"bike_id":"42f27aa2-eaec-4389-8bb9-f50ae6ed44a7","system_id":"levelo_inurba_marseille","lat":43.30413,"lon":5.3976,"is_reserved":false,"is_disabled":false,"rental_uris":{"android":"levelo://app?vid=42f27aa2-eaec-4389-8bb9-f50ae6ed44a7","ios":"levelo://app?vid=42f27aa2-eaec-4389-8bb9-f50ae6ed44a7"},"vehicle_type_id":"4","last_reported":1727212017,"current_range_meters":24000,"station_id":"ce4bh092rcd13ifvqd20","pricing_plan_id":"cebpf4jnsgd1na2vs0mg"},{"bike_id":"38f6087b-e551-4df4-9586-01d5a486f24f","system_id":"levelo_inurba_marseille","lat":43.28569,"lon":5.39493,"is_reserved":false,"is_disabled":false,"rental_uris":{"android":"levelo://app?vid=38f6087b-e551-4df4-9586-01d5a486f24f","ios":"levelo://app?vid=38f6087b-e551-4df4-9586-01d5a486f24f"},"vehicle_type_id":"4","last_reported":1727212017,"current_range_meters":36800,"station_id":"ce4bh292rcd13ifvqdg0","pricing_plan_id":"cebpf4jnsgd1na2vs0mg"},{"bike_id":"3cdb199b-bacd-44b6-8eed-476c74758fbd","system_id":"levelo_inurba_marseille","lat":43.32106,"lon":5.36768,"is_reserved":false,"is_disabled":false,"rental_uris":{"android":"levelo://app?vid=3cdb199b-bacd-44b6-8eed-476c74758fbd","ios":"levelo://app?vid=3cdb199b-bacd-44b6-8eed-476c74758fbd"},"vehicle_type_id":"4","last_reported":1727212017,"current_range_meters":28400,"station_id":"ce4bhrh2rcd13ifvqhug","pricing_plan_id":"cebpf4jnsgd1na2vs0mg"},{"bike_id":"6ddafbe1-16f1-463a-be44-0bef68acf23b","system_id":"levelo_inurba_marseille","lat":43.27189,"lon":5.40997,"is_reserved":false,"is_disabled":false,"rental_uris":{"android":"levelo://app?vid=6ddafbe1-16f1-463a-be44-0bef68acf23b","ios":"levelo://app?vid=6ddafbe1-16f1-463a-be44-0bef68acf23b"},"vehicle_type_id":"4","last_reported":1727212017,"current_range_meters":29600,"station_id":"ce4bhl12rcd13ifvqgf0","pricing_plan_id":"cebpf4jnsgd1na2vs0mg"},{"bike_id":"33430b0a-ef2e-45dc-853c-19e2a52996ef","system_id":"levelo_inurba_marseille","lat":43.32487,"lon":5.36572,"is_reserved":false,"is_disabled":false,"rental_uris":{"android":"levelo://app?vid=33430b0a-ef2e-45dc-853c-19e2a52996ef","ios":"levelo://app?vid=33430b0a-ef2e-45dc-853c-19e2a52996ef"},"vehicle_type_id":"4","last_reported":1727212017,"current_range_meters":35200,"station_id":"ce4bhs12rcd13ifvqhvg","pricing_plan_id":"cebpf4jnsgd1na2vs0mg"},{"bike_id":"fda328cc-15ac-4dc7-adee-64eab9937084","system_id":"levelo_inurba_marseille","lat":43.33024,"lon":5.39041,"is_reserved":false,"is_disabled":false,"rental_uris":{"android":"levelo://app?vid=fda328cc-15ac-4dc7-adee-64eab9937084","ios":"levelo://app?vid=fda328cc-15ac-4dc7-adee-64eab9937084"},"vehicle_type_id":"4","last_reported":1727212017,"current_range_meters":3600,"station_id":"ce4bhr92rcd13ifvqhrg","pricing_plan_id":"cebpf4jnsgd1na2vs0mg"},{"bike_id":"761b3a71-2073-4740-aafc-31280d8764ee","system_id":"levelo_inurba_marseille","lat":43.28565,"lon":5.395,"is_reserved":false,"is_disabled":false,"rental_uris":{"android":"levelo://app?vid=761b3a71-2073-4740-aafc-31280d8764ee","ios":"levelo://app?vid=761b3a71-2073-4740-aafc-31280d8764ee"},"vehicle_type_id":"4","last_reported":1727212017,"current_range_meters":38800,"station_id":"ce4bh292rcd13ifvqdg0","pricing_plan_id":"cebpf4jnsgd1na2vs0mg"},{"bike_id":"9dfbea95-3d2c-409e-a157-4594dca0e186","system_id":"levelo_inurba_marseille","lat":43.28701,"lon":5.37379,"is_reserved":false,"is_disabled":false,"rental_uris":{"android":"levelo://app?vid=9dfbea95-3d2c-409e-a157-4594dca0e186","ios":"levelo://app?vid=9dfbea95-3d2c-409e-a157-4594dca0e186"},"vehicle_type_id":"4","last_reported":1727212017,"current_range_meters":38800,"station_id":"ce4bh3p2rcd13ifvqdq0","pricing_plan_id":"cebpf4jnsgd1na2vs0mg"},{"bike_id":"e03a78a1-d389-47c7-9581-c162c7716361","system_id":"levelo_inurba_marseille","lat":43.29057,"lon":5.35913,"is_reserved":false,"is_disabled":false,"rental_uris":{"android":"levelo://app?vid=e03a78a1-d389-47c7-9581-c162c7716361","ios":"levelo://app?vid=e03a78a1-d389-47c7-9581-c162c7716361"},"vehicle_type_id":"4","last_reported":1727212017,"current_range_meters":19600,"station_id":"ce4bha92rcd13ifvqeg0","pricing_plan_id":"cebpf4jnsgd1na2vs0mg"},{"bike_id":"49ad64f9-8f01-4c61-8c45-87873d0f0587","system_id":"levelo_inurba_marseille","lat":43.31998,"lon":5.38157,"is_reserved":false,"is_disabled":false,"rental_uris":{"android":"levelo://app?vid=49ad64f9-8f01-4c61-8c45-87873d0f0587","ios":"levelo://app?vid=49ad64f9-8f01-4c61-8c45-87873d0f0587"},"vehicle_type_id":"4","last_reported":1727212017,"current_range_meters":36000,"station_id":"ce4bhr12rcd13ifvqhpg","pricing_plan_id":"cebpf4jnsgd1na2vs0mg"},{"bike_id":"dcfd1a3f-06b1-4c63-993b-b79e5484eea9","system_id":"levelo_inurba_marseille","lat":43.31718,"lon":5.43707,"is_reserved":false,"is_disabled":false,"rental_uris":{"android":"levelo://app?vid=dcfd1a3f-06b1-4c63-993b-b79e5484eea9","ios":"levelo://app?vid=dcfd1a3f-06b1-4c63-993b-b79e5484eea9"},"vehicle_type_id":"4","last_reported":1727212017,"current_range_meters":29600,"station_id":"ce4bhp92rcd13ifvqhcg","pricing_plan_id":"cebpf4jnsgd1na2vs0mg"},{"bike_id":"1a8ff0c7-e8f4-42f3-b6be-50e3a948e2ad","system_id":"levelo_inurba_marseille","lat":43.30187,"lon":5.36649,"is_reserved":false,"is_disabled":false,"rental_uris":{"android":"levelo://app?vid=1a8ff0c7-e8f4-42f3-b6be-50e3a948e2ad","ios":"levelo://app?vid=1a8ff0c7-e8f4-42f3-b6be-50e3a948e2ad"},"vehicle_type_id":"4","last_reported":1727212017,"current_range_meters":9200,"station_id":"ce4bgrh2rcd13ifvqc8g","pricing_plan_id":"cebpf4jnsgd1na2vs0mg"},{"bike_id":"55ebcac3-554b-4ef4-8cbc-abaedf46b845","system_id":"levelo_inurba_marseille","lat":43.32294,"lon":5.38277,"is_reserved":false,"is_disabled":false,"rental_uris":{"android":"levelo://app?vid=55ebcac3-554b-4ef4-8cbc-abaedf46b845","ios":"levelo://app?vid=55ebcac3-554b-4ef4-8cbc-abaedf46b845"},"vehicle_type_id":"4","last_reported":1727212017,"current_range_meters":10800,"station_id":"ce4bhr12rcd13ifvqhqg","pricing_plan_id":"cebpf4jnsgd1na2vs0mg"},{"bike_id":"30f51f83-7a65-4261-90c0-085aa9efe35e","system_id":"levelo_inurba_marseille","lat":43.28139,"lon":5.3994,"is_reserved":false,"is_disabled":false,"rental_uris":{"android":"levelo://app?vid=30f51f83-7a65-4261-90c0-085aa9efe35e","ios":"levelo://app?vid=30f51f83-7a65-4261-90c0-085aa9efe35e"},"vehicle_type_id":"4","last_reported":1727212017,"current_range_meters":22800,"station_id":"ce4bh192rcd13ifvqdc0","pricing_plan_id":"cebpf4jnsgd1na2vs0mg"},{"bike_id":"4a69fdf1-a049-4040-af3a-1d1f551bfd97","system_id":"levelo_inurba_marseille","lat":43.26582,"lon":5.3901,"is_reserved":false,"is_disabled":false,"rental_uris":{"android":"levelo://app?vid=4a69fdf1-a049-4040-af3a-1d1f551bfd97","ios":"levelo://app?vid=4a69fdf1-a049-4040-af3a-1d1f551bfd97"},"vehicle_type_id":"4","last_reported":1727212017,"current_range_meters":16800,"station_id":"ce4bhe12rcd13ifvqf30","pricing_plan_id":"cebpf4jnsgd1na2vs0mg"},{"bike_id":"879af1f6-b9ee-43ae-8b93-c1c62d0de231","system_id":"levelo_inurba_marseille","lat":43.29265,"lon":5.38438,"is_reserved":false,"is_disabled":false,"rental_uris":{"android":"levelo://app?vid=879af1f6-b9ee-43ae-8b93-c1c62d0de231","ios":"levelo://app?vid=879af1f6-b9ee-43ae-8b93-c1c62d0de231"},"vehicle_type_id":"4","last_reported":1727212017,"current_range_meters":26800,"station_id":"ce4bh692rcd13ifvqea0","pricing_plan_id":"cebpf4jnsgd1na2vs0mg"},