{"last_updated":1753424241,"ttl":60,"version":"2.2","data":{"bikes":[{"bike_id":"c9dbd36b-479c-4a5c-b200-3aa7673340d9","system_id":"levelo_inurba_marseille","lat":43.241448,"lon":5.363743,"is_reserved":false,"is_disabled":false,"rental_uris":{"android":"levelo://app?vid=c9dbd36b-479c-4a5c-b200-3aa7673340d9","ios":"levelo://app?vid=c9dbd36b-479c-4a5c-b200-3aa7673340d9"},"vehicle_type_id":"4","last_reported":1753424242,"current_range_meters":2800,"station_id":"","pricing_plan_id":"cebpf4jnsgd1na2vs0mg"},{"bike_id":"5296e53d-5917-4618-b44c-dddfd573d89d","system_id":"levelo_inurba_marseille","lat":43.261599,"lon":5.405462,"is_reserved":false,"is_disabled":false,"rental_uris":{"android":"levelo://app?vid=5296e53d-5917-4618-b44c-dddfd573d89d","ios":"levelo://app?vid=5296e53d-5917-4618-b44c-dddfd573d89d"},"vehicle_type_id":"4","last_reported":1753424242,"current_range_meters":3200,"station_id":"ce4bhm92rcd13ifvqglg","pricing_plan_id":"cebpf4jnsgd1na2vs0mg"},{"bike_id":"cb6eb26c-caff-430c-a934-3a1f3e2a988e","system_id":"levelo_inurba_marseille","lat":43.2872,"lon":5.39981,"is_reserved":false,"is_disabled":false,"rental_uris":{"android":"levelo://app?vid=cb6eb26c-caff-430c-a934-3a1f3e2a988e","ios":"levelo://app?vid=cb6eb26c-caff-430c-a934-3a1f3e2a988e"},"vehicle_type_id":"4","last_reported":1753424242,"current_range_meters":3600,"station_id":"ce4bho92rcd13ifvqh3g","pricing_plan_id":"cebpf4jnsgd1na2vs0mg"},{"bike_id":"5e60d735-f355-4bfd-8091-04a0a9d43a82","system_id":"levelo_inurba_marseille","lat":43.29976,"lon":5.38481,"is_reserved":false,"is_disabled":false,"rental_uris":{"android":"levelo://app?vid=5e60d735-f355-4bfd-8091-04a0a9d43a82","ios":"levelo://app?vid=5e60d735-f355-4bfd-8091-04a0a9d43a82"},"vehicle_type_id":"4","last_reported":1753424242,"current_range_meters":4000,"station_id":"","pricing_plan_id":"cebpf4jnsgd1na2vs0mg"},{"bike_id":"abc7c765-9e88-4254-b28b-f3562d577778","system_id":"levelo_inurba_marseille","lat":43.29271,"lon":5.40137,"is_reserved":false,"is_disabled":false,"rental_uris":{"android":"levelo://app?vid=abc7c765-9e88-4254-b28b-f3562d577778","ios":"levelo://app?vid=abc7c765-9e88-4254-b28b-f3562d577778"},"vehicle_type_id":"4","last_reported":1753424242,"current_range_meters":4400,"station_id":"ce4bh312rcd13ifvqdk0","pricing_plan_id":"cebpf4jnsgd1na2vs0mg"},{"bike_id":"78a5555c-34cf-460f-95aa-65d5959cb190","system_id":"levelo_inurba_marseille","lat":43.290355,"lon":5.399492,"is_reserved":false,"is_disabled":false,"rental_uris":{"android":"levelo://app?vid=78a5555c-34cf-460f-95aa-65d5959cb190","ios":"levelo://app?vid=78a5555c-34cf-460f-95aa-65d5959cb190"},"vehicle_type_id":"4","last_reported":1753424242,"current_range_meters":4400,"station_id":"ce4bh392rcd13ifvqdm0","pricing_plan_id":"cebpf4jnsgd1na2vs0mg"},{"bike_id":"4e6dd435-dcdc-4c6d-be23-774e5b68e116","system_id":"levelo_inurba_marseille","lat":43.286113,"lon":5.35087,"is_reserved":false,"is_disabled":false,"rental_uris":{"android":"levelo://app?vid=4e6dd435-dcdc-4c6d-be23-774e5b68e116","ios":"levelo://app?vid=4e6dd435-dcdc-4c6d-be23-774e5b68e116"},"vehicle_type_id":"4","last_reported":1753424242,"current_range_meters":4800,"station_id":"ce4bhch2rcd13ifvqeug","pricing_plan_id":"cebpf4jnsgd1na2vs0mg"},{"bike_id":"8d4c0420-d0a3-4380-bcc1-62c045f8d4b9","system_id":"levelo_inurba_marseille","lat":43.26571,"lon":5.38989,"is_reserved":false,"is_disabled":true,"rental_uris":{"android":"levelo://app?vid=8d4c0420-d0a3-4380-bcc1-62c045f8d4b9","ios":"levelo://app?vid=8d4c0420-d0a3-4380-bcc1-62c045f8d4b9"},"vehicle_type_id":"4","last_reported":1753424242,"current_range_meters":4800,"station_id":"ce4bhe12rcd13ifvqf30","pricing_plan_id":"cebpf4jnsgd1na2vs0mg"},{"bike_id":"acc1e3ba-1f28-40e6-90b6-9ef04f70c7b7","system_id":"levelo_inurba_marseille","lat":43.2894,"lon":5.39626,"is_reserved":false,"is_disabled":false,"rental_uris":{"android":"levelo://app?vid=acc1e3ba-1f28-40e6-90b6-9ef04f70c7b7","ios":"levelo://app?vid=acc1e3ba-1f28-40e6-90b6-9ef04f70c7b7"},"vehicle_type_id":"4","last_reported":1753424242,"current_range_meters":5600,"station_id":"ce4bh3h2rcd13ifvqdn0","pricing_plan_id":"cebpf4jnsgd1na2vs0mg"},{"bike_id":"a4c4bad3-a0b1-45ab-8f46-1d962fecee79","system_id":"levelo_inurba_marseille","lat":43.28434,"lon":5.39177,"is_reserved":false,"is_disabled":false,"rental_uris":{"android":"levelo://app?vid=a4c4bad3-a0b1-45ab-8f46-1d962fecee79","ios":"levelo://app?vid=a4c4bad3-a0b1-45ab-8f46-1d962fecee79"},"vehicle_type_id":"4","last_reported":1753424242,"current_range_meters":5600,"station_id":"ce4bhoh2rcd13ifvqh5g","pricing_plan_id":"cebpf4jnsgd1na2vs0mg"},{"bike_id":"da053e6a-15f2-492e-8bc1-42b1d66cc329","system_id":"levelo_inurba_marseille","lat":43.28351,"lon":5.43271,"is_reserved":false,"is_disabled":false,"rental_uris":{"android":"levelo://app?vid=da053e6a-15f2-492e-8bc1-42b1d66cc329","ios":"levelo://app?vid=da053e6a-15f2-492e-8bc1-42b1d66cc329"},"vehicle_type_id":"4","last_reported":1753424242,"current_range_meters":6000,"station_id":"","pricing_plan_id":"cebpf4jnsgd1na2vs0mg"},{"bike_id":"db64b972-080d-4c49-926c-6e138e8448d8","system_id":"levelo_inurba_marseille","lat":43.30528,"lon":5.38421,"is_reserved":false,"is_disabled":false,"rental_uris":{"android":"levelo://app?vid=db64b972-080d-4c49-926c-6e138e8448d8","ios":"levelo://app?vid=db64b972-080d-4c49-926c-6e138e8448d8"},"vehicle_type_id":"4","last_reported":1753424242,"current_range_meters":6000,"station_id":"ce4bgg92rcd13ifvqb30","pricing_plan_id":"cebpf4jnsgd1na2vs0mg"},{"bike_id":"87d9cc9e-fb09-41d9-ab2e-0f924589aaeb","system_id":"levelo_inurba_marseille","lat":43.312404,"lon":5.368765,"is_reserved":false,"is_disabled":true,"rental_uris":{"android":"levelo://app?vid=87d9cc9e-fb09-41d9-ab2e-0f924589aaeb","ios":"levelo://app?vid=87d9cc9e-fb09-41d9-ab2e-0f924589aaeb"},"vehicle_type_id":"4","last_reported":1753424242,"current_range_meters":6400,"station_id":"ce4bgl92rcd13ifvqbq0","pricing_plan_id":"cebpf4jnsgd1na2vs0mg"},{"bike_id":"cc01a46a-9dc3-4a8f-a6c6-c5a861fb31d8","system_id":"levelo_inurba_marseille","lat":43.24998,"lon":5.38935,"is_reserved":false,"is_disabled":false,"rental_uris":{"android":"levelo://app?vid=cc01a46a-9dc3-4a8f-a6c6-c5a861fb31d8","ios":"levelo://app?vid=cc01a46a-9dc3-4a8f-a6c6-c5a861fb31d8"},"vehicle_type_id":"4","last_reported":1753424242,"current_range_meters":6000,"station_id":"ce4bhgp2rcd13ifvqfd0","pricing_plan_id":"cebpf4jnsgd1na2vs0mg"},{"bike_id":"ce0ffc32-a366-4e8b-b135-ca54d0fd6cbb","system_id":"levelo_inurba_marseille","lat":43.26192,"lon":5.37386,"is_reserved":false,"is_disabled":true,"rental_uris":{"android":"levelo://app?vid=ce0ffc32-a366-4e8b-b135-ca54d0fd6cbb","ios":"levelo://app?vid=ce0ffc32-a366-4e8b-b135-ca54d0fd6cbb"},"vehicle_type_id":"4","last_reported":1753424242,"current_range_meters":6800,"station_id":"","pricing_plan_id":"cebpf4jnsgd1na2vs0mg"},{"bike_id":"46679b71-8d6c-44ee-9d04-47edd5e31ca9","system_id":"levelo_inurba_marseille","lat":43.30951,"lon":5.39021,"is_reserved":false,"is_disabled":false,"rental_uris":{"android":"levelo://app?vid=46679b71-8d6c-44ee-9d04-47edd5e31ca9","ios":"levelo://app?vid=46679b71-8d6c-44ee-9d04-47edd5e31ca9"},"vehicle_type_id":"4","last_reported":1753424242,"current_range_meters":6800,"station_id":"ce4bgup2rcd13ifvqco0","pricing_plan_id":"cebpf4jnsgd1na2vs0mg"},{"bike_id":"23e033e4-d57d-4f35-b30a-3ab454dec2f2","system_id":"levelo_inurba_marseille","lat":43.26793,"lon":5.39408,"is_reserved":false,"is_disabled":false,"rental_uris":{"android":"levelo://app?vid=23e033e4-d57d-4f35-b30a-3ab454dec2f2","ios":"levelo://app?vid=23e033e4-d57d-4f35-b30a-3ab454dec2f2"},"vehicle_type_id":"4","last_reported":1753424242,"current_range_meters":7200,"station_id":"ce4bhh12rcd13ifvqfg0","pricing_plan_id":"cebpf4jnsgd1na2vs0mg"},{"bike_id":"2936456c-77f6-4f82-a181-4bc2dd541746","system_id":"levelo_inurba_marseille","lat":43.291923,"lon":5.358003,"is_reserved":false,"is_disabled":true,"rental_uris":{"android":"levelo://app?vid=2936456c-77f6-4f82-a181-4bc2dd541746","ios":"levelo://app?vid=2936456c-77f6-4f82-a181-4bc2dd541746"},"vehicle_type_id":"4","last_reported":1753424242,"current_range_meters":7200,"station_id":"ce4bhb12rcd13ifvqel0","pricing_plan_id":"cebpf4jnsgd1na2vs0mg"},{"bike_id":"f3217e35-0bb5-43ab-beb0-dd5e233a7114","system_id":"levelo_inurba_marseille","lat":43.25578,"lon":5.382244,"is_reserved":false,"is_disabled":true,"rental_uris":{"android":"levelo://app?vid=f3217e35-0bb5-43ab-beb0-dd5e233a7114","ios":"levelo://app?vid=f3217e35-0bb5-43ab-beb0-dd5e233a7114"},"vehicle_type_id":"4","last_reported":1753424242,"current_range_meters":7200,"station_id":"ce4bhih2rcd13ifvqfs0","pricing_plan_id":"cebpf4jnsgd1na2vs0mg"},{"bike_id":"d4043fff-8474-4a89-965a-b8794944d0a3","system_id":"levelo_inurba_marseille","lat":43.231849,"lon":5.399951,"is_reserved":false,"is_disabled":true,"rental_uris":{"android":"levelo://app?vid=d4043fff-8474-4a89-965a-b8794944d0a3","ios":"levelo://app?vid=d4043fff-8474-4a89-965a-b8794944d0a3"},"vehicle_type_id":"4","last_reported":1753424242,"current_range_meters":8000,"station_id":"ce4bhn12rcd13ifvqgqg","pricing_plan_id":"cebpf4jnsgd1na2vs0mg"},{"bike_id":"89c3c9d0-2baa-47e2-994d-417bf02c1f2d","system_id":"levelo_inurba_marseille","lat":43.31491,"lon":5.37296,"is_reserved":false,"is_disabled":false,"rental_uris":{"android":"levelo://app?vid=89c3c9d0-2baa-47e2-994d-417bf02c1f2d","ios":"levelo://app?vid=89c3c9d0-2baa-47e2-994d-417bf02c1f2d"},"vehicle_type_id":"4","last_reported":1753424242,"current_range_meters":8000,"station_id":"ce4bgt12rcd13ifvqcd0","pricing_plan_id":"cebpf4jnsgd1na2vs0mg"},{"bike_id":"67b83d00-9ce3-4d04-b3e7-245417e4357e","system_id":"levelo_inurba_marseille","lat":43.27985,"lon":5.39083,"is_reserved":false,"is_disabled":false,"rental_uris":{"android":"levelo://app?vid=67b83d00-9ce3-4d04-b3e7-245417e4357e","ios":"levelo://app?vid=67b83d00-9ce3-4d04-b3e7-245417e4357e"},"vehicle_type_id":"4","last_reported":1753424242,"current_range_meters":8000,"station_id":"","pricing_plan_id":"cebpf4jnsgd1na2vs0mg"},{"bike_id":"d1552dc5-940a-4864-aef6-512f87e4928d","system_id":"levelo_inurba_marseille","lat":43.304219,"lon":5.412835,"is_reserved":false,"is_disabled":false,"rental_uris":{"android":"levelo://app?vid=d1552dc5-940a-4864-aef6-512f87e4928d","ios":"levelo://app?vid=d1552dc5-940a-4864-aef6-512f87e4928d"},"vehicle_type_id":"4","last_reported":1753424242,"current_range_meters":8000,"station_id":"","pricing_plan_id":"cebpf4jnsgd1na2vs0mg"},{"bike_id":"7250624a-63df-4e44-9e5a-1056e5f8a90f","system_id":"levelo_inurba_marseille","lat":43.291876,"lon":5.408146,"is_reserved":false,"is_disabled":false,"rental_uris":{"android":"levelo://app?vid=7250624a-63df-4e44-9e5a-1056e5f8a90f","ios":"levelo://app?vid=7250624a-63df-4e44-9e5a-1056e5f8a90f"},"vehicle_type_id":"4","last_reported":1753424242,"current_range_meters":8000,"station_id":"","pricing_plan_id":"cebpf4jnsgd1na2vs0mg"},{"bike_id":"1242185d-2b3c-44b4-8f56-bd2cf4041b46","system_id":"levelo_inurba_marseille","lat":43.288545,"lon":5.358527,"is_reserved":false,"is_disabled":false,"rental_uris":{"android":"levelo://app?vid=1242185d-2b3c-44b4-8f56-bd2cf4041b46","ios":"levelo://app?vid=1242185d-2b3c-44b4-8f56-bd2cf4041b46"},"vehicle_type_id":"4","last_reported":1753424242,"current_range_meters":8000,"station_id":"","pricing_plan_id":"cebpf4jnsgd1na2vs0mg"},{"bike_id":"bbc2b271-396f-4875-9f1d-0fcc163d87b6","system_id":"levelo_inurba_marseille","lat":43.29067,"lon":5.39875,"is_reserved":false,"is_disabled":false,"rental_uris":{"android":"levelo://app?vid=bbc2b271-396f-4875-9f1d-0fcc163d87b6","ios":"levelo://app?vid=bbc2b271-396f-4875-9f1d-0fcc163d87b6"},"vehicle_type_id":"4","last_reported":1753424242,"current_range_meters":8400,"station_id":"","pricing_plan_id":"cebpf4jnsgd1na2vs0mg"},{"bike_id":"ae131367-d818-44a0-9e1d-4aa65dcdb16a","system_id":"levelo_inurba_marseille","lat":43.275119,"lon":5.396471,"is_reserved":false,"is_disabled":false,"rental_uris":{"android":"levelo://app?vid=ae131367-d818-44a0-9e1d-4aa65dcdb16a","ios":"levelo://app?vid=ae131367-d818-44a0-9e1d-4aa65dcdb16a"},"vehicle_type_id":"4","last_reported":1753424242,"current_range_meters":8400,"station_id":"","pricing_plan_id":"cebpf4jnsgd1na2vs0mg"},{"bike_id":"103f1055-8f09-4334-abab-9f44037f0884","system_id":"levelo_inurba_marseille","lat":43.231871,"lon":5.355595,"is_reserved":false,"is_disabled":true,"rental_uris":{"android":"levelo://app?vid=103f1055-8f09-4334-abab-9f44037f0884","ios":"levelo://app?vid=103f1055-8f09-4334-abab-9f44037f0884"},"vehicle_type_id":"4","last_reported":1753424242,"current_range_meters":8400,"station_id":"ce4bhu92rcd13ifvqi70","pricing_plan_id":"cebpf4jnsgd1na2vs0mg"},{"bike_id":"0a7cf1b0-976e-43f6-be59-2b74afda25b1","system_id":"levelo_inurba_marseille","lat":43.286831,"lon":5.413422,"is_reserved":false,"is_disabled":false,"rental_uris":{"android":"levelo://app?vid=0a7cf1b0-976e-43f6-be59-2b74afda25b1","ios":"levelo://app?vid=0a7cf1b0-976e-43f6-be59-2b74afda25b1"},"vehicle_type_id":"4","last_reported":1753424242,"current_range_meters":8400,"station_id":"","pricing_plan_id":"cebpf4jnsgd1na2vs0mg"},{"bike_id":"e0c5a268-ab8d-4239-a5f2-6dcbb1ecedb6","system_id":"levelo_inurba_marseille","lat":43.30147,"lon":5.38079,"is_reserved":false,"is_disabled":false,"rental_uris":{"android":"levelo://app?vid=e0c5a268-ab8d-4239-a5f2-6dcbb1ecedb6","ios":"levelo://app?vid=e0c5a268-ab8d-4239-a5f2-6dcbb1ecedb6"},"vehicle_type_id":"4","last_reported":1753424242,"current_range_meters":8400,"station_id":"ce4bgjp2rcd13ifvqbh0","pricing_plan_id":"cebpf4jnsgd1na2vs0mg"},{"bike_id":"8fc40684-9b2f-4471-90f0-d80318962260","system_id":"levelo_inurba_marseille","lat":43.28558,"lon":5.37752,"is_reserved":false,"is_disabled":false,"rental_uris":{"android":"levelo://app?vid=8fc40684-9b2f-4471-90f0-d80318962260","ios":"levelo://app?vid=8fc40684-9b2f-4471-90f0-d80318962260"},"vehicle_type_id":"4","last_reported":1753424242,"current_range_meters":8400,"station_id":"","pricing_plan_id":"cebpf4jnsgd1na2vs0mg"},{"bike_id":"d11685a1-0abc-44a3-b2d5-bfd6df1dd308","system_id":"levelo_inurba_marseille","lat":43.28111,"lon":5.44119,"is_reserved":false,"is_disabled":false,"rental_uris":{"android":"levelo://app?vid=d11685a1-0abc-44a3-b2d5-bfd6df1dd308","ios":"levelo://app?vid=d11685a1-0abc-44a3-b2d5-bfd6df1dd308"},"vehicle_type_id":"4","last_reported":1753424242,"current_range_meters":8400,"station_id":"","pricing_plan_id":"cebpf4jnsgd1na2vs0mg"},{"bike_id":"75c70e7c-26ad-415b-b8bc-4ed9c1675aa8","system_id":"levelo_inurba_marseille","lat":43.30913,"lon":5.36849,"is_reserved":false,"is_disabled":false,"rental_uris":{"android":"levelo://app?vid=75c70e7c-26ad-415b-b8bc-4ed9c1675aa8","ios":"levelo://app?vid=75c70e7c-26ad-415b-b8bc-4ed9c1675aa8"},"vehicle_type_id":"4","last_reported":1753424242,"current_range_meters":8400,"station_id":"ce4bgn92rcd13ifvqbvg","pricing_plan_id":"cebpf4jnsgd1na2vs0mg"},{"bike_id":"d6f40dc1-27da-4a67-8ed3-8cd86d65885d","system_id":"levelo_inurba_marseille","lat":43.29284,"lon":5.4013,"is_reserved":false,"is_disabled":false,"rental_uris":{"android":"levelo://app?vid=d6f40dc1-27da-4a67-8ed3-8cd86d65885d","ios":"levelo://app?vid=d6f40dc1-27da-4a67-8ed3-8cd86d65885d"},"vehicle_type_id":"4","last_reported":1753424242,"current_range_meters":8800,"station_id":"ce4bh312rcd13ifvqdk0","pricing_plan_id":"cebpf4jnsgd1na2vs0mg"},{"bike_id":"2660589a-a8bb-440d-880d-245c68e4ec06","system_id":"levelo_inurba_marseille","lat":43.305511,"lon":5.365525,"is_reserved":false,"is_disabled":false,"rental_uris":{"android":"levelo://app?vid=2660589a-a8bb-440d-880d-245c68e4ec06","ios":"levelo://app?vid=2660589a-a8bb-440d-880d-245c68e4ec06"},"vehicle_type_id":"4","last_reported":1753424242,"current_range_meters":8400,"station_id":"ce4bgs12rcd13ifvqcag","pricing_plan_id":"cebpf4jnsgd1na2vs0mg"},{"bike_id":"f35e280e-c93c-4b94-b74b-bf78f6ce6ce0","system_id":"levelo_inurba_marseille","lat":43.30891,"lon":5.37202,"is_reserved":false,"is_disabled":false,"rental_uris":{"android":"levelo://app?vid=f35e280e-c93c-4b94-b74b-bf78f6ce6ce0","ios":"levelo://app?vid=f35e280e-c93c-4b94-b74b-bf78f6ce6ce0"},"vehicle_type_id":"4","last_reported":1753424242,"current_range_meters":8800,"station_id":"ce4bguh2rcd13ifvqckg","pricing_plan_id":"cebpf4jnsgd1na2vs0mg"},{"bike_id":"3cd09fc8-9554-4236-8496-0931a7be09d1","system_id":"levelo_inurba_marseille","lat":43.211886,"lon":5.350757,"is_reserved":false,"is_disabled":false,"rental_uris":{"android":"levelo://app?vid=3cd09fc8-9554-4236-8496-0931a7be09d1","ios":"levelo://app?vid=3cd09fc8-9554-4236-8496-0931a7be09d1"},"vehicle_type_id":"4","last_reported":1753424242,"current_range_meters":8800,"station_id":"st_cvj6sg6p6f1abm77japg","pricing_plan_id":"cebpf4jnsgd1na2vs0mg"},{"bike_id":"99a07b4b-7b7b-480c-be33-079f56105b46","system_id":"levelo_inurba_marseille","lat":43.29568,"lon":5.37519,"is_reserved":false,"is_disabled":false,"rental_uris":{"android":"levelo://app?vid=99a07b4b-7b7b-480c-be33-079f56105b46","ios":"levelo://app?vid=99a07b4b-7b7b-480c-be33-079f56105b46"},"vehicle_type_id":"4","last_reported":1753424242,"current_range_meters":8800,"station_id":"ce4bgh92rcd13ifvqb50","pricing_plan_id":"cebpf4jnsgd1na2vs0mg"},{"bike_id":"ad25e224-b15c-4949-92a3-53289b1bd1fb","system_id":"levelo_inurba_marseille","lat":43.28741,"lon":5.38488,"is_reserved":false,"is_disabled":false,"rental_uris":{"android":"levelo://app?vid=ad25e224-b15c-4949-92a3-53289b1bd1fb","ios":"levelo://app?vid=ad25e224-b15c-4949-92a3-53289b1bd1fb"},"vehicle_type_id":"4","last_reported":1753424242,"current_range_meters":8800,"station_id":"","pricing_plan_id":"cebpf4jnsgd1na2vs0mg"},{"bike_id":"f42d969b-46cf-4f31-99b9-507385686083","system_id":"levelo_inurba_marseille","lat":43.2862,"lon":5.35107,"is_reserved":false,"is_disabled":false,"rental_uris":{"android":"levelo://app?vid=f42d969b-46cf-4f31-99b9-507385686083","ios":"levelo://app?vid=f42d969b-46cf-4f31-99b9-507385686083"},"vehicle_type_id":"4","last_reported":1753424242,"current_range_meters":8800,"station_id":"ce4bhch2rcd13ifvqeug","pricing_plan_id":"cebpf4jnsgd1na2vs0mg"},{"bike_id":"3cbb97c5-1f06-4add-ac6d-a120022e686c","system_id":"levelo_inurba_marseille","lat":43.29913,"lon":5.37575,"is_reserved":false,"is_disabled":false,"rental_uris":{"android":"levelo://app?vid=3cbb97c5-1f06-4add-ac6d-a120022e686c","ios":"levelo://app?vid=3cbb97c5-1f06-4add-ac6d-a120022e686c"},"vehicle_type_id":"4","last_reported":1753424242,"current_range_meters":9200,"station_id":"","pricing_plan_id":"cebpf4jnsgd1na2vs0mg"},{"bike_id":"5fb5dc0b-c5c2-47ba-9bf5-b3381a8d470d","system_id":"levelo_inurba_marseille","lat":43.308994,"lon":5.396388,"is_reserved":false,"is_disabled":true,"rental_uris":{"android":"levelo://app?vid=5fb5dc0b-c5c2-47ba-9bf5-b3381a8d470d","ios":"levelo://app?vid=5fb5dc0b-c5c2-47ba-9bf5-b3381a8d470d"},"vehicle_type_id":"4","last_reported":1753424242,"current_range_meters":9200,"station_id":"ce4bh012rcd13ifvqcv0","pricing_plan_id":"cebpf4jnsgd1na2vs0mg"},{"bike_id":"5ac85406-65d0-4336-aa89-4b04b2e6689e","system_id":"levelo_inurba_marseille","lat":43.33256,"lon":5.419735,"is_reserved":false,"is_disabled":false,"rental_uris":{"android":"levelo://app?vid=5ac85406-65d0-4336-aa89-4b04b2e6689e","ios":"levelo://app?vid=5ac85406-65d0-4336-aa89-4b04b2e6689e"},"vehicle_type_id":"4","last_reported":1753424242,"current_range_meters":9600,"station_id":"","pricing_plan_id":"cebpf4jnsgd1na2vs0mg"},{"bike_id":"b5ce8d93-17c0-45a5-b2b1-eefce45c2d79","system_id":"levelo_inurba_marseille","lat":43.29288,"lon":5.4454,"is_reserved":false,"is_disabled":false,"rental_uris":{"android":"levelo://app?vid=b5ce8d93-17c0-45a5-b2b1-eefce45c2d79","ios":"levelo://app?vid=b5ce8d93-17c0-45a5-b2b1-eefce45c2d79"},"vehicle_type_id":"4","last_reported":1753424242,"current_range_meters":9600,"station_id":"","pricing_plan_id":"cebpf4jnsgd1na2vs0mg"},{"bike_id":"b57f5444-81ff-4a62-9ea3-1b3feaeafb55","system_id":"levelo_inurba_marseille","lat":43.28343,"lon":5.38107,"is_reserved":false,"is_disabled":true,"rental_uris":{"android":"levelo://app?vid=b57f5444-81ff-4a62-9ea3-1b3feaeafb55","ios":"levelo://app?vid=b57f5444-81ff-4a62-9ea3-1b3feaeafb55"},"vehicle_type_id":"4","last_reported":1753424242,"current_range_meters":9600,"station_id":"ce4bh412rcd13ifvqdr0","pricing_plan_id":"cebpf4jnsgd1na2vs0mg"},{"bike_id":"6bb1f31c-9335-4f39-9585-31374a4775f9","system_id":"levelo_inurba_marseille","lat":43.325583,"lon":5.379059,"is_reserved":false,"is_disabled":false,"rental_uris":{"android":"levelo://app?vid=6bb1f31c-9335-4f39-9585-31374a4775f9","ios":"levelo://app?vid=6bb1f31c-9335-4f39-9585-31374a4775f9"},"vehicle_type_id":"4","last_reported":1753424242,"current_range_meters":9600,"station_id":"","pricing_plan_id":"cebpf4jnsgd1na2vs0mg"},{"bike_id":"2006d6ab-c619-4a15-b9f3-97c1160843f0","system_id":"levelo_inurba_marseille","lat":43.281559,"lon":5.361065,"is_reserved":false,"is_disabled":false,"rental_uris":{"android":"levelo://app?vid=2006d6ab-c619-4a15-b9f3-97c1160843f0","ios":"levelo://app?vid=2006d6ab-c619-4a15-b9f3-97c1160843f0"},"vehicle_type_id":"4","last_reported":1753424242,"current_range_meters":9600,"station_id":"","pricing_plan_id":"cebpf4jnsgd1na2vs0mg"},{"bike_id":"3363dedc-8d9a-4d07-86c7-a592a157e616","system_id":"levelo_inurba_marseille","lat":43.30259,"lon":5.40096,"is_reserved":false,"is_disabled":false,"rental_uris":{"android":"levelo://app?vid=3363dedc-8d9a-4d07-86c7-a592a157e616","ios":"levelo://app?vid=3363dedc-8d9a-4d07-86c7-a592a157e616"},"vehicle_type_id":"4","last_reported":1753424242,"current_range_meters":9600,"station_id":"ce4bgvh2rcd13ifvqcs0","pricing_plan_id":"cebpf4jnsgd1na2vs0mg"},{"bike_id":"61669521-2c65-4931-bc2c-4bdfe86f873c","system_id":"levelo_inurba_marseille","lat":43.21749,"lon":5.34605,"is_reserved":false,"is_disabled":false,"rental_uris":{"android":"levelo://app?vid=61669521-2c65-4931-bc2c-4bdfe86f873c","ios":"levelo://app?vid=61669521-2c65-4931-bc2c-4bdfe86f873c"},"vehicle_type_id":"4","last_reported":1753424242,"current_range_meters":9600,"station_id":"","pricing_plan_id":"cebpf4jnsgd1na2vs0mg"},{"bike_id":"6e21ad91-9b26-4d33-aeb1-f864584a573a","system_id":"levelo_inurba_marseille","lat":43.28976,"lon":5.37828,"is_reserved":false,"is_disabled":false,"rental_uris":{"android":"levelo://app?vid=6e21ad91-9b26-4d33-aeb1-f864584a573a","ios":"levelo://app?vid=6e21ad91-9b26-4d33-aeb1-f864584a573a"},"vehicle_type_id":"4","last_reported":1753424242,"current_range_meters":9600,"station_id":"ce4bh9p2rcd13ifvqed0","pricing_plan_id":"cebpf4jnsgd1na2vs0mg"},{"bike_id":"1ad257b5-7f83-42c1-867f-92635ff1abbf","system_id":"levelo_inurba_marseille","lat":43.229318,"lon":5.353816,"is_reserved":false,"is_disabled":false,"rental_uris":{"android":"levelo://app?vid=1ad257b5-7f83-42c1-867f-92635ff1abbf","ios":"levelo://app?vid=1ad257b5-7f83-42c1-867f-92635ff1abbf"},"vehicle_type_id":"4","last_reported":1753424242,"current_range_meters":9600,"station_id":"cpo3532slgdg3j2ikp40","pricing_plan_id":"cebpf4jnsgd1na2vs0mg"},{"bike_id":"b913c24d-ffa7-4a46-9ee5-97549d6a74ee","system_id":"levelo_inurba_marseille","lat":43.26782,"lon":5.39412,"is_reserved":false,"is_disabled":true,"rental_uris":{"android":"levelo://app?vid=b913c24d-ffa7-4a46-9ee5-97549d6a74ee","ios":"levelo://app?vid=b913c24d-ffa7-4a46-9ee5-97549d6a74ee"},"vehicle_type_id":"4","last_reported":1753424242,"current_range_meters":10000,"station_id":"ce4bhh12rcd13ifvqfg0","pricing_plan_id":"cebpf4jnsgd1na2vs0mg"},{"bike_id":"3379cb84-0f8e-4f41-b608-6c09b340ebee","system_id":"levelo_inurba_marseille","lat":43.27957,"lon":5.41025,"is_reserved":false,"is_disabled":false,"rental_uris":{"android":"levelo://app?vid=3379cb84-0f8e-4f41-b608-6c09b340ebee","ios":"levelo://app?vid=3379cb84-0f8e-4f41-b608-6c09b340ebee"},"vehicle_type_id":"4","last_reported":1753424242,"current_range_meters":10000,"station_id":"ce4bhnp2rcd13ifvqh0g","pricing_plan_id":"cebpf4jnsgd1na2vs0mg"},{"bike_id":"66a83068-3a37-4428-a929-b6dc6fd774f6","system_id":"levelo_inurba_marseille","lat":43.27054,"lon":5.40266,"is_reserved":false,"is_disabled":false,"rental_uris":{"android":"levelo://app?vid=66a83068-3a37-4428-a929-b6dc6fd774f6","ios":"levelo://app?vid=66a83068-3a37-4428-a929-b6dc6fd774f6"},"vehicle_type_id":"4","last_reported":1753424242,"current_range_meters":10000,"station_id":"ce4bhk92rcd13ifvqgc0","pricing_plan_id":"cebpf4jnsgd1na2vs0mg"},{"bike_id":"da9824c6-328a-4a98-8ff2-2066592b79d0","system_id":"levelo_inurba_marseille","lat":43.288696,"lon":5.373181,"is_reserved":false,"is_disabled":false,"rental_uris":{"android":"levelo://app?vid=da9824c6-328a-4a98-8ff2-2066592b79d0","ios":"levelo://app?vid=da9824c6-328a-4a98-8ff2-2066592b79d0"},"vehicle_type_id":"4","last_reported":1753424242,"current_range_meters":9600,"station_id":"ce4bh3p2rcd13ifvqdq0","pricing_plan_id":"cebpf4jnsgd1na2vs0mg"},{"bike_id":"bf98f8c2-9329-4f71-945b-f4c3d79c8ab8","system_id":"levelo_inurba_marseille","lat":43.28936,"lon":5.36649,"is_reserved":false,"is_disabled":false,"rental_uris":{"android":"levelo://app?vid=bf98f8c2-9329-4f71-945b-f4c3d79c8ab8","ios":"levelo://app?vid=bf98f8c2-9329-4f71-945b-f4c3d79c8ab8"},"vehicle_type_id":"4","last_reported":1753424242,"current_range_meters":10800,"station_id":"ce4bhap2rcd13ifvqek0","pricing_plan_id":"cebpf4jnsgd1na2vs0mg"},{"bike_id":"0cb29836-69a3-48fb-be05-5912c09a1639","system_id":"levelo_inurba_marseille","lat":43.30152,"lon":5.38085,"is_reserved":false,"is_disabled":false,"rental_uris":{"android":"levelo://app?vid=0cb29836-69a3-48fb-be05-5912c09a1639","ios":"levelo://app?vid=0cb29836-69a3-48fb-be05-5912c09a1639"},"vehicle_type_id":"4","last_reported":1753424242,"current_range_meters":10800,"station_id":"ce4bgjp2rcd13ifvqbh0","pricing_plan_id":"cebpf4jnsgd1na2vs0mg"},{"bike_id":"20b3ac39-d220-4d0b-8848-1b7f328b0525","system_id":"levelo_inurba_marseille","lat":43.26253,"lon":5.40461,"is_reserved":false,"is_disabled":false,"rental_uris":{"android":"levelo://app?vid=20b3ac39-d220-4d0b-8848-1b7f328b0525","ios":"levelo://app?vid=20b3ac39-d220-4d0b-8848-1b7f328b0525"},"vehicle_type_id":"4","last_reported":1753424242,"current_range_meters":10800,"station_id":"ce4bhmh2rcd13ifvqgmg","pricing_plan_id":"cebpf4jnsgd1na2vs0mg"},{"bike_id":"4e312828-cd83-473b-abcf-8fa9a9e91d40","system_id":"levelo_inurba_marseille","lat":43.29048,"lon":5.39914,"is_reserved":false,"is_disabled":false,"rental_uris":{"android":"levelo://app?vid=4e312828-cd83-473b-abcf-8fa9a9e91d40","ios":"levelo://app?vid=4e312828-cd83-473b-abcf-8fa9a9e91d40"},"vehicle_type_id":"4","last_reported":1753424242,"current_range_meters":10800,"station_id":"ce4bh392rcd13ifvqdm0","pricing_plan_id":"cebpf4jnsgd1na2vs0mg"},{"bike_id":"2ae83899-90fd-4b59-b691-4169c75aef1a","system_id":"levelo_inurba_marseille","lat":43.337706,"lon":5.374364,"is_reserved":false,"is_disabled":false,"rental_uris":{"android":"levelo://app?vid=2ae83899-90fd-4b59-b691-4169c75aef1a","ios":"levelo://app?vid=2ae83899-90fd-4b59-b691-4169c75aef1a"},"vehicle_type_id":"4","last_reported":1753424242,"current_range_meters":10800,"station_id":"","pricing_plan_id":"cebpf4jnsgd1na2vs0mg"},{"bike_id":"baa0c393-1a32-4602-b4f4-90058d0f1a78","system_id":"levelo_inurba_marseille","lat":43.27811,"lon":5.40725,"is_reserved":false,"is_disabled":false,"rental_uris":{"android":"levelo://app?vid=baa0c393-1a32-4602-b4f4-90058d0f1a78","ios":"levelo://app?vid=baa0c393-1a32-4602-b4f4-90058d0f1a78"},"vehicle_type_id":"4","last_reported":1753424242,"current_range_meters":10800,"station_id":"ce4bhnh2rcd13ifvqgtg","pricing_plan_id":"cebpf4jnsgd1na2vs0mg"},{"bike_id":"71b3be78-a065-4a7d-a660-cdc4f905766e","system_id":"levelo_inurba_marseille","lat":43.29041,"lon":5.3994,"is_reserved":false,"is_disabled":false,"rental_uris":{"android":"levelo://app?vid=71b3be78-a065-4a7d-a660-cdc4f905766e","ios":"levelo://app?vid=71b3be78-a065-4a7d-a660-cdc4f905766e"},"vehicle_type_id":"4","last_reported":1753424242,"current_range_meters":11200,"station_id":"ce4bh392rcd13ifvqdm0","pricing_plan_id":"cebpf4jnsgd1na2vs0mg"},{"bike_id":"a06cac27-b5f8-4f16-bb55-d61b75816638","system_id":"levelo_inurba_marseille","lat":43.246508,"lon":5.389261,"is_reserved":false,"is_disabled":false,"rental_uris":{"android":"levelo://app?vid=a06cac27-b5f8-4f16-bb55-d61b75816638","ios":"levelo://app?vid=a06cac27-b5f8-4f16-bb55-d61b75816638"},"vehicle_type_id":"4","last_reported":1753424242,"current_range_meters":11200,"station_id":"ce4bhg12rcd13ifvqf60","pricing_plan_id":"cebpf4jnsgd1na2vs0mg"},{"bike_id":"5f824980-27aa-4ef2-856d-b766bebead8a","system_id":"levelo_inurba_marseille","lat":43.22508,"lon":5.34767,"is_reserved":false,"is_disabled":false,"rental_uris":{"android":"levelo://app?vid=5f824980-27aa-4ef2-856d-b766bebead8a","ios":"levelo://app?vid=5f824980-27aa-4ef2-856d-b766bebead8a"},"vehicle_type_id":"4","last_reported":1753424242,"current_range_meters":11200,"station_id":"st_cvj5dfep6f1abm77gieg","pricing_plan_id":"cebpf4jnsgd1na2vs0mg"},{"bike_id":"94f32c38-82eb-4489-9734-8082cf499adb","system_id":"levelo_inurba_marseille","lat":43.28733,"lon":5.39128,"is_reserved":false,"is_disabled":false,"rental_uris":{"android":"levelo://app?vid=94f32c38-82eb-4489-9734-8082cf499adb","ios":"levelo://app?vid=94f32c38-82eb-4489-9734-8082cf499adb"},"vehicle_type_id":"4","last_reported":1753424242,"current_range_meters":11200,"station_id":"","pricing_plan_id":"cebpf4jnsgd1na2vs0mg"},{"bike_id":"cf776233-7766-4109-aadc-a0d3c334d400","system_id":"levelo_inurba_marseille","lat":43.24103,"lon":5.37753,"is_reserved":false,"is_disabled":false,"rental_uris":{"android":"levelo://app?vid=cf776233-7766-4109-aadc-a0d3c334d400","ios":"levelo://app?vid=cf776233-7766-4109-aadc-a0d3c334d400"},"vehicle_type_id":"4","last_reported":1753424242,"current_range_meters":11600,"station_id":"ce4bhnp2rcd13ifvqgvg","pricing_plan_id":"cebpf4jnsgd1na2vs0mg"},{"bike_id":"0f902b28-960a-4115-8135-908905ad462e","system_id":"levelo_inurba_marseille","lat":43.313004,"lon":5.368188,"is_reserved":false,"is_disabled":false,"rental_uris":{"android":"levelo://app?vid=0f902b28-960a-4115-8135-908905ad462e","ios":"levelo://app?vid=0f902b28-960a-4115-8135-908905ad462e"},"vehicle_type_id":"4","last_reported":1753424242,"current_range_meters":11600,"station_id":"ce4bgl92rcd13ifvqbq0","pricing_plan_id":"cebpf4jnsgd1na2vs0mg"},{"bike_id":"b0c83458-40ea-4b2c-a572-5066969b91e1","system_id":"levelo_inurba_marseille","lat":43.30462,"lon":5.37905,"is_reserved":false,"is_disabled":false,"rental_uris":{"android":"levelo://app?vid=b0c83458-40ea-4b2c-a572-5066969b91e1","ios":"levelo://app?vid=b0c83458-40ea-4b2c-a572-5066969b91e1"},"vehicle_type_id":"4","last_reported":1753424242,"current_range_meters":11600,"station_id":"ce4bgup2rcd13ifvqcn0","pricing_plan_id":"cebpf4jnsgd1na2vs0mg"},{"bike_id":"efe430a2-b548-451c-a0da-531bae37a4ee","system_id":"levelo_inurba_marseille","lat":43.30933,"lon":5.40134,"is_reserved":false,"is_disabled":false,"rental_uris":{"android":"levelo://app?vid=efe430a2-b548-451c-a0da-531bae37a4ee","ios":"levelo://app?vid=efe430a2-b548-451c-a0da-531bae37a4ee"},"vehicle_type_id":"4","last_reported":1753424242,"current_range_meters":11600,"station_id":"ce4bgvp2rcd13ifvqct0","pricing_plan_id":"cebpf4jnsgd1na2vs0mg"},{"bike_id":"702e96cb-8a61-4726-b91e-0ec8b89ce6c5","system_id":"levelo_inurba_marseille","lat":43.30244,"lon":5.40126,"is_reserved":false,"is_disabled":false,"rental_uris":{"android":"levelo://app?vid=702e96cb-8a61-4726-b91e-0ec8b89ce6c5","ios":"levelo://app?vid=702e96cb-8a61-4726-b91e-0ec8b89ce6c5"},"vehicle_type_id":"4","last_reported":1753424242,"current_range_meters":11600,"station_id":"","pricing_plan_id":"cebpf4jnsgd1na2vs0mg"},{"bike_id":"3f94cca8-8ca9-4713-8017-eed8acb78034","system_id":"levelo_inurba_marseille","lat":43.24167,"lon":5.36392,"is_reserved":false,"is_disabled":false,"rental_uris":{"android":"levelo://app?vid=3f94cca8-8ca9-4713-8017-eed8acb78034","ios":"levelo://app?vid=3f94cca8-8ca9-4713-8017-eed8acb78034"},"vehicle_type_id":"4","last_reported":1753424242,"current_range_meters":11600,"station_id":"cpo36qri1sfpv3e86is0","pricing_plan_id":"cebpf4jnsgd1na2vs0mg"},{"bike_id":"35a86048-76dd-4de0-afb2-7da8772fad44","system_id":"levelo_inurba_marseille","lat":43.215343,"lon":5.347283,"is_reserved":false,"is_disabled":false,"rental_uris":{"android":"levelo://app?vid=35a86048-76dd-4de0-afb2-7da8772fad44","ios":"levelo://app?vid=35a86048-76dd-4de0-afb2-7da8772fad44"},"vehicle_type_id":"4","last_reported":1753424242,"current_range_meters":11600,"station_id":"","pricing_plan_id":"cebpf4jnsgd1na2vs0mg"},{"bike_id":"27b5acbc-b1fd-4385-9be5-bae49e9e4f6a","system_id":"levelo_inurba_marseille","lat":43.248079,"lon":5.374567,"is_reserved":false,"is_disabled":false,"rental_uris":{"android":"levelo://app?vid=27b5acbc-b1fd-4385-9be5-bae49e9e4f6a","ios":"levelo://app?vid=27b5acbc-b1fd-4385-9be5-bae49e9e4f6a"},"vehicle_type_id":"4","last_reported":1753424242,"current_range_meters":11600,"station_id":"ce4bhgh2rcd13ifvqfb0","pricing_plan_id":"cebpf4jnsgd1na2vs0mg"},{"bike_id":"fbda76a5-068e-4d90-b9ba-25721acd9298","system_id":"levelo_inurba_marseille","lat":43.290374,"lon":5.439493,"is_reserved":false,"is_disabled":false,"rental_uris":{"android":"levelo://app?vid=fbda76a5-068e-4d90-b9ba-25721acd9298","ios":"levelo://app?vid=fbda76a5-068e-4d90-b9ba-25721acd9298"},"vehicle_type_id":"4","last_reported":1753424242,"current_range_meters":12000,"station_id":"","pricing_plan_id":"cebpf4jnsgd1na2vs0mg"},{"bike_id":"7043615b-ade2-4e50-a083-e59f8b28b13a","system_id":"levelo_inurba_marseille","lat":43.287071,"lon":5.399818,"is_reserved":false,"is_disabled":false,"rental_uris":{"android":"levelo://app?vid=7043615b-ade2-4e50-a083-e59f8b28b13a","ios":"levelo://app?vid=7043615b-ade2-4e50-a083-e59f8b28b13a"},"vehicle_type_id":"4","last_reported":1753424242,"current_range_meters":12000,"station_id":"ce4bho92rcd13ifvqh3g","pricing_plan_id":"cebpf4jnsgd1na2vs0mg"},{"bike_id":"9353d228-8680-4d7c-b6dd-c80a6ca3c031","system_id":"levelo_inurba_marseille","lat":43.30366,"lon":5.42503,"is_reserved":false,"is_disabled":false,"rental_uris":{"android":"levelo://app?vid=9353d228-8680-4d7c-b6dd-c80a6ca3c031","ios":"levelo://app?vid=9353d228-8680-4d7c-b6dd-c80a6ca3c031"},"vehicle_type_id":"4","last_reported":1753424242,"current_range_meters":12000,"station_id":"ce4bhoh2rcd13ifvqh6g","pricing_plan_id":"cebpf4jnsgd1na2vs0mg"},{"bike_id":"eaad5610-8fa8-4409-a81c-9cd0862917d3","system_id":"levelo_inurba_marseille","lat":43.28409,"lon":5.349805,"is_reserved":false,"is_disabled":false,"rental_uris":{"android":"levelo://app?vid=eaad5610-8fa8-4409-a81c-9cd0862917d3","ios":"levelo://app?vid=eaad5610-8fa8-4409-a81c-9cd0862917d3"},"vehicle_type_id":"4","last_reported":1753424242,"current_range_meters":12000,"station_id":"ce4bhbh2rcd13ifvqepg","pricing_plan_id":"cebpf4jnsgd1na2vs0mg"},{"bike_id":"f7f07796-c7c9-4a74-80e9-fb85744448b8","system_id":"levelo_inurba_marseille","lat":43.22912,"lon":5.35369,"is_reserved":false,"is_disabled":false,"rental_uris":{"android":"levelo://app?vid=f7f07796-c7c9-4a74-80e9-fb85744448b8","ios":"levelo://app?vid=f7f07796-c7c9-4a74-80e9-fb85744448b8"},"vehicle_type_id":"4","last_reported":1753424242,"current_range_meters":12000,"station_id":"cpo3532slgdg3j2ikp40","pricing_plan_id":"cebpf4jnsgd1na2vs0mg"},{"bike_id":"5b60f57d-b8df-45b1-a77e-1a26de4cd1e1","system_id":"levelo_inurba_marseille","lat":43.30786,"lon":5.37636,"is_reserved":false,"is_disabled":false,"rental_uris":{"android":"levelo://app?vid=5b60f57d-b8df-45b1-a77e-1a26de4cd1e1","ios":"levelo://app?vid=5b60f57d-b8df-45b1-a77e-1a26de4cd1e1"},"vehicle_type_id":"4","last_reported":1753424242,"current_range_meters":12000,"station_id":"ce4bgv92rcd13ifvqcq0","pricing_plan_id":"cebpf4jnsgd1na2vs0mg"},{"bike_id":"60907a34-2f5d-42fc-bbba-94f8005a3d7b","system_id":"levelo_inurba_marseille","lat":43.29005,"lon":5.35615,"is_reserved":false,"is_disabled":false,"rental_uris":{"android":"levelo://app?vid=60907a34-2f5d-42fc-bbba-94f8005a3d7b","ios":"levelo://app?vid=60907a34-2f5d-42fc-bbba-94f8005a3d7b"},"vehicle_type_id":"4","last_reported":1753424242,"current_range_meters":11600,"station_id":"ce4bhb92rcd13ifvqen0","pricing_plan_id":"cebpf4jnsgd1na2vs0mg"},{"bike_id":"eaea15aa-98ae-4f78-b37a-80e2e4524837","system_id":"levelo_inurba_marseille","lat":43.297916,"lon":5.381026,"is_reserved":false,"is_disabled":false,"rental_uris":{"android":"levelo://app?vid=eaea15aa-98ae-4f78-b37a-80e2e4524837","ios":"levelo://app?vid=eaea15aa-98ae-4f78-b37a-80e2e4524837"},"vehicle_type_id":"4","last_reported":1753424242,"current_range_meters":12400,"station_id":"","pricing_plan_id":"cebpf4jnsgd1na2vs0mg"},{"bike_id":"0aa2d153-96d1-4d69-83b8-d39119aa9dd5","system_id":"levelo_inurba_marseille","lat":43.33536,"lon":5.36211,"is_reserved":false,"is_disabled":false,"rental_uris":{"android":"levelo://app?vid=0aa2d153-96d1-4d69-83b8-d39119aa9dd5","ios":"levelo://app?vid=0aa2d153-96d1-4d69-83b8-d39119aa9dd5"},"vehicle_type_id":"4","last_reported":1753424242,"current_range_meters":12400,"station_id":"","pricing_plan_id":"cebpf4jnsgd1na2vs0mg"},{"bike_id":"032f66d0-c387-41c5-9af4-1ad9711f505c","system_id":"levelo_inurba_marseille","lat":43.3169,"lon":5.40461,"is_reserved":false,"is_disabled":false,"rental_uris":{"android":"levelo://app?vid=032f66d0-c387-41c5-9af4-1ad9711f505c","ios":"levelo://app?vid=032f66d0-c387-41c5-9af4-1ad9711f505c"},"vehicle_type_id":"4","last_reported":1753424242,"current_range_meters":12400,"station_id":"ce4bh012rcd13ifvqd00","pricing_plan_id":"cebpf4jnsgd1na2vs0mg"},{"bike_id":"a6947472-3f7d-4b98-a052-61c89b0c29b5","system_id":"levelo_inurba_marseille","lat":43.29001,"lon":5.35609,"is_reserved":false,"is_disabled":false,"rental_uris":{"android":"levelo://app?vid=a6947472-3f7d-4b98-a052-61c89b0c29b5","ios":"levelo://app?vid=a6947472-3f7d-4b98-a052-61c89b0c29b5"},"vehicle_type_id":"4","last_reported":1753424242,"current_range_meters":12400,"station_id":"ce4bhb92rcd13ifvqen0","pricing_plan_id":"cebpf4jnsgd1na2vs0mg"},{"bike_id":"7136e517-5ffc-4744-82ab-5e8aff975eec","system_id":"levelo_inurba_marseille","lat":43.29728,"lon":5.36604,"is_reserved":false,"is_disabled":true,"rental_uris":{"android":"levelo://app?vid=7136e517-5ffc-4744-82ab-5e8aff975eec","ios":"levelo://app?vid=7136e517-5ffc-4744-82ab-5e8aff975eec"},"vehicle_type_id":"4","last_reported":1753424242,"current_range_meters":12400,"station_id":"ce4bgn12rcd13ifvqbt0","pricing_plan_id":"cebpf4jnsgd1na2vs0mg"},{"bike_id":"1bad41f4-2220-48a2-9d56-f732121985af","system_id":"levelo_inurba_marseille","lat":43.313081,"lon":5.431089,"is_reserved":false,"is_disabled":false,"rental_uris":{"android":"levelo://app?vid=1bad41f4-2220-48a2-9d56-f732121985af","ios":"levelo://app?vid=1bad41f4-2220-48a2-9d56-f732121985af"},"vehicle_type_id":"4","last_reported":1753424242,"current_range_meters":12400,"station_id":"","pricing_plan_id":"cebpf4jnsgd1na2vs0mg"},{"bike_id":"988302f3-10df-47f7-b5a3-4ca84c2a02a3","system_id":"levelo_inurba_marseille","lat":43.28474,"lon":5.38413,"is_reserved":false,"is_disabled":false,"rental_uris":{"android":"levelo://app?vid=988302f3-10df-47f7-b5a3-4ca84c2a02a3","ios":"levelo://app?vid=988302f3-10df-47f7-b5a3-4ca84c2a02a3"},"vehicle_type_id":"4","last_reported":1753424242,"current_range_meters":12400,"station_id":"ce4bh512rcd13ifvqe3g","pricing_plan_id":"cebpf4jnsgd1na2vs0mg"},{"bike_id":"7670573a-d497-4b74-a965-85c9bde494cc","system_id":"levelo_inurba_marseille","lat":43.27215,"lon":5.3918,"is_reserved":false,"is_disabled":false,"rental_uris":{"android":"levelo://app?vid=7670573a-d497-4b74-a965-85c9bde494cc","ios":"levelo://app?vid=7670573a-d497-4b74-a965-85c9bde494cc"},"vehicle_type_id":"4","last_reported":1753424242,"current_range_meters":12800,"station_id":"ce4bhhp2rcd13ifvqfm0","pricing_plan_id":"cebpf4jnsgd1na2vs0mg"},{"bike_id":"7a7e7b04-bae0-4964-b64a-0f2f1ffd98d7","system_id":"levelo_inurba_marseille","lat":43.28719,"lon":5.37911,"is_reserved":false,"is_disabled":false,"rental_uris":{"android":"levelo://app?vid=7a7e7b04-bae0-4964-b64a-0f2f1ffd98d7","ios":"levelo://app?vid=7a7e7b04-bae0-4964-b64a-0f2f1ffd98d7"},"vehicle_type_id":"4","last_reported":1753424242,"current_range_meters":12800,"station_id":"ce4bh9p2rcd13ifvqec0","pricing_plan_id":"cebpf4jnsgd1na2vs0mg"},{"bike_id":"19b74037-6ef5-4955-b506-ac8fd5e47dd8","system_id":"levelo_inurba_marseille","lat":43.29617,"lon":5.37171,"is_reserved":false,"is_disabled":false,"rental_uris":{"android":"levelo://app?vid=19b74037-6ef5-4955-b506-ac8fd5e47dd8","ios":"levelo://app?vid=19b74037-6ef5-4955-b506-ac8fd5e47dd8"},"vehicle_type_id":"4","last_reported":1753424242,"current_range_meters":12400,"station_id":"ce4bgnh2rcd13ifvqc0g","pricing_plan_id":"cebpf4jnsgd1na2vs0mg"},{"bike_id":"6940aaa0-8f4f-40ca-9068-04e56890ed62","system_id":"levelo_inurba_marseille","lat":43.29973,"lon":5.38471,"is_reserved":false,"is_disabled":false,"rental_uris":{"android":"levelo://app?vid=6940aaa0-8f4f-40ca-9068-04e56890ed62","ios":"levelo://app?vid=6940aaa0-8f4f-40ca-9068-04e56890ed62"},"vehicle_type_id":"4","last_reported":1753424242,"current_range_meters":12800,"station_id":"","pricing_plan_id":"cebpf4jnsgd1na2vs0mg"},{"bike_id":"9bb7bf6e-d696-4836-a041-06a2876b08f1","system_id":"levelo_inurba_marseille","lat":43.306074,"lon":5.385256,"is_reserved":false,"is_disabled":false,"rental_uris":{"android":"levelo://app?vid=9bb7bf6e-d696-4836-a041-06a2876b08f1","ios":"levelo://app?vid=9bb7bf6e-d696-4836-a041-06a2876b08f1"},"vehicle_type_id":"4","last_reported":1753424242,"current_range_meters":12800,"station_id":"","pricing_plan_id":"cebpf4jnsgd1na2vs0mg"},{"bike_id":"1f39eb17-34c7-4235-9069-0f68f613789c","system_id":"levelo_inurba_marseille","lat":43.26886,"lon":5.36871,"is_reserved":false,"is_disabled":false,"rental_uris":{"android":"levelo://app?vid=1f39eb17-34c7-4235-9069-0f68f613789c","ios":"levelo://app?vid=1f39eb17-34c7-4235-9069-0f68f613789c"},"vehicle_type_id":"4","last_reported":1753424242,"current_range_meters":13600,"station_id":"","pricing_plan_id":"cebpf4jnsgd1na2vs0mg"},{"bike_id":"e8ceab27-aa51-45d2-8fcc-ce7e4149a8cd","system_id":"levelo_inurba_marseille","lat":43.316998,"lon":5.404711,"is_reserved":false,"is_disabled":false,"rental_uris":{"android":"levelo://app?vid=e8ceab27-aa51-45d2-8fcc-ce7e4149a8cd","ios":"levelo://app?vid=e8ceab27-aa51-45d2-8fcc-ce7e4149a8cd"},"vehicle_type_id":"4","last_reported":1753424242,"current_range_meters":13600,"station_id":"ce4bh012rcd13ifvqd00","pricing_plan_id":"cebpf4jnsgd1na2vs0mg"},{"bike_id":"7007db7b-2139-45dc-8fb3-06207f8a2b0d","system_id":"levelo_inurba_marseille","lat":43.271734,"lon":5.409981,"is_reserved":false,"is_disabled":false,"rental_uris":{"android":"levelo://app?vid=7007db7b-2139-45dc-8fb3-06207f8a2b0d","ios":"levelo://app?vid=7007db7b-2139-45dc-8fb3-06207f8a2b0d"},"vehicle_type_id":"4","last_reported":1753424242,"current_range_meters":13600,"station_id":"ce4bhl12rcd13ifvqgf0","pricing_plan_id":"cebpf4jnsgd1na2vs0mg"},{"bike_id":"a7fb77ed-6a7c-4720-9562-87380eb23df6","system_id":"levelo_inurba_marseille","lat":43.33733,"lon":5.4087,"is_reserved":false,"is_disabled":false,"rental_uris":{"android":"levelo://app?vid=a7fb77ed-6a7c-4720-9562-87380eb23df6","ios":"levelo://app?vid=a7fb77ed-6a7c-4720-9562-87380eb23df6"},"vehicle_type_id":"4","last_reported":1753424242,"current_range_meters":14000,"station_id":"","pricing_plan_id":"cebpf4jnsgd1na2vs0mg"},{"bike_id":"bf4c6dc9-697a-45fa-9f70-43b71a8ccd27","system_id":"levelo_inurba_marseille","lat":43.31697,"lon":5.43659,"is_reserved":false,"is_disabled":false,"rental_uris":{"android":"levelo://app?vid=bf4c6dc9-697a-45fa-9f70-43b71a8ccd27","ios":"levelo://app?vid=bf4c6dc9-697a-45fa-9f70-43b71a8ccd27"},"vehicle_type_id":"4","last_reported":1753424242,"current_range_meters":14000,"station_id":"ce4bhp92rcd13ifvqhcg","pricing_plan_id":"cebpf4jnsgd1na2vs0mg"},{"bike_id":"d8ab8225-ebfc-48f1-9981-f15e3b9960ea","system_id":"levelo_inurba_marseille","lat":43.229268,"lon":5.353738,"is_reserved":false,"is_disabled":false,"rental_uris":{"android":"levelo://app?vid=d8ab8225-ebfc-48f1-9981-f15e3b9960ea","ios":"levelo://app?vid=d8ab8225-ebfc-48f1-9981-f15e3b9960ea"},"vehicle_type_id":"4","last_reported":1753424242,"current_range_meters":14000,"station_id":"cpo3532slgdg3j2ikp40","pricing_plan_id":"cebpf4jnsgd1na2vs0mg"},{"bike_id":"481351de-e3d5-4a6f-aa67-c1762e7ed223","system_id":"levelo_inurba_marseille","lat":43.27078,"lon":5.42281,"is_reserved":false,"is_disabled":false,"rental_uris":{"android":"levelo://app?vid=481351de-e3d5-4a6f-aa67-c1762e7ed223","ios":"levelo://app?vid=481351de-e3d5-4a6f-aa67-c1762e7ed223"},"vehicle_type_id":"4","last_reported":1753424242,"current_range_meters":14000,"station_id":"ce4bhk92rcd13ifvqgb0","pricing_plan_id":"cebpf4jnsgd1na2vs0mg"},{"bike_id":"ce193c8e-90e0-4599-95e2-d02b7d163b03","system_id":"levelo_inurba_marseille","lat":43.240807,"lon":5.377374,"is_reserved":false,"is_disabled":false,"rental_uris":{"android":"levelo://app?vid=ce193c8e-90e0-4599-95e2-d02b7d163b03","ios":"levelo://app?vid=ce193c8e-90e0-4599-95e2-d02b7d163b03"},"vehicle_type_id":"4","last_reported":1753424242,"current_range_meters":14400,"station_id":"ce4bhnp2rcd13ifvqgvg","pricing_plan_id":"cebpf4jnsgd1na2vs0mg"},{"bike_id":"06f90499-0dbe-4b83-90da-44e99aa48c22","system_id":"levelo_inurba_marseille","lat":43.25929,"lon":5.40888,"is_reserved":false,"is_disabled":false,"rental_uris":{"android":"levelo://app?vid=06f90499-0dbe-4b83-90da-44e99aa48c22","ios":"levelo://app?vid=06f90499-0dbe-4b83-90da-44e99aa48c22"},"vehicle_type_id":"4","last_reported":1753424242,"current_range_meters":14400,"station_id":"ce4bhm92rcd13ifvqglg","pricing_plan_id":"cebpf4jnsgd1na2vs0mg"},{"bike_id":"594eda17-a8a0-46c4-8339-954cd3e43926","system_id":"levelo_inurba_marseille","lat":43.25935,"lon":5.40884,"is_reserved":false,"is_disabled":false,"rental_uris":{"android":"levelo://app?vid=594eda17-a8a0-46c4-8339-954cd3e43926","ios":"levelo://app?vid=594eda17-a8a0-46c4-8339-954cd3e43926"},"vehicle_type_id":"4","last_reported":1753424242,"current_range_meters":14400,"station_id":"ce4bhm92rcd13ifvqglg","pricing_plan_id":"cebpf4jnsgd1na2vs0mg"},{"bike_id":"ffab4a34-82e9-461f-8967-2ccafce68b3b","system_id":"levelo_inurba_marseille","lat":43.265612,"lon":5.373025,"is_reserved":false,"is_disabled":false,"rental_uris":{"android":"levelo://app?vid=ffab4a34-82e9-461f-8967-2ccafce68b3b","ios":"levelo://app?vid=ffab4a34-82e9-461f-8967-2ccafce68b3b"},"vehicle_type_id":"4","last_reported":1753424242,"current_range_meters":14400,"station_id":"ce4bhg12rcd13ifvqf70","pricing_plan_id":"cebpf4jnsgd1na2vs0mg"},{"bike_id":"4dc47c0a-6d1c-471f-9e1a-c7e0bd3d239e","system_id":"levelo_inurba_marseille","lat":43.27809,"lon":5.4071,"is_reserved":false,"is_disabled":false,"rental_uris":{"android":"levelo://app?vid=4dc47c0a-6d1c-471f-9e1a-c7e0bd3d239e","ios":"levelo://app?vid=4dc47c0a-6d1c-471f-9e1a-c7e0bd3d239e"},"vehicle_type_id":"4","last_reported":1753424242,"current_range_meters":14400,"station_id":"ce4bhnh2rcd13ifvqgtg","pricing_plan_id":"cebpf4jnsgd1na2vs0mg"},{"bike_id":"6757baaa-15d9-4d5d-b7ff-ca00bcaa355d","system_id":"levelo_inurba_marseille","lat":43.30375,"lon":5.42486,"is_reserved":false,"is_disabled":false,"rental_uris":{"android":"levelo://app?vid=6757baaa-15d9-4d5d-b7ff-ca00bcaa355d","ios":"levelo://app?vid=6757baaa-15d9-4d5d-b7ff-ca00bcaa355d"},"vehicle_type_id":"4","last_reported":1753424242,"current_range_meters":14800,"station_id":"ce4bhoh2rcd13ifvqh6g","pricing_plan_id":"cebpf4jnsgd1na2vs0mg"},{"bike_id":"261d4bb0-7bb9-4c80-93f3-cd6f68b7285e","system_id":"levelo_inurba_marseille","lat":43.31492,"lon":5.36923,"is_reserved":false,"is_disabled":false,"rental_uris":{"android":"levelo://app?vid=261d4bb0-7bb9-4c80-93f3-cd6f68b7285e","ios":"levelo://app?vid=261d4bb0-7bb9-4c80-93f3-cd6f68b7285e"},"vehicle_type_id":"4","last_reported":1753424242,"current_range_meters":14800,"station_id":"","pricing_plan_id":"cebpf4jnsgd1na2vs0mg"},{"bike_id":"3f947606-5aaa-4500-8084-bd1f98e6a611","system_id":"levelo_inurba_marseille","lat":43.31681,"lon":5.40467,"is_reserved":false,"is_disabled":false,"rental_uris":{"android":"levelo://app?vid=3f947606-5aaa-4500-8084-bd1f98e6a611","ios":"levelo://app?vid=3f947606-5aaa-4500-8084-bd1f98e6a611"},"vehicle_type_id":"4","last_reported":1753424242,"current_range_meters":14800,"station_id":"ce4bh012rcd13ifvqd00","pricing_plan_id":"cebpf4jnsgd1na2vs0mg"},{"bike_id":"949fa9b1-20e9-497e-bbea-34f8920b007a","system_id":"levelo_inurba_marseille","lat":43.29619,"lon":5.37154,"is_reserved":false,"is_disabled":false,"rental_uris":{"android":"levelo://app?vid=949fa9b1-20e9-497e-bbea-34f8920b007a","ios":"levelo://app?vid=949fa9b1-20e9-497e-bbea-34f8920b007a"},"vehicle_type_id":"4","last_reported":1753424242,"current_range_meters":14800,"station_id":"ce4bgnh2rcd13ifvqc0g","pricing_plan_id":"cebpf4jnsgd1na2vs0mg"},{"bike_id":"ad7f924d-5443-4b14-80c3-fdbe71f8752e","system_id":"levelo_inurba_marseille","lat":43.26072,"lon":5.3731,"is_reserved":false,"is_disabled":false,"rental_uris":{"android":"levelo://app?vid=ad7f924d-5443-4b14-80c3-fdbe71f8752e","ios":"levelo://app?vid=ad7f924d-5443-4b14-80c3-fdbe71f8752e"},"vehicle_type_id":"4","last_reported":1753424242,"current_range_meters":14800,"station_id":"","pricing_plan_id":"cebpf4jnsgd1na2vs0mg"},{"bike_id":"0d0f7b45-f495-40d3-af6e-7234b51b3725","system_id":"levelo_inurba_marseille","lat":43.30551,"lon":5.36555,"is_reserved":false,"is_disabled":false,"rental_uris":{"android":"levelo://app?vid=0d0f7b45-f495-40d3-af6e-7234b51b3725","ios":"levelo://app?vid=0d0f7b45-f495-40d3-af6e-7234b51b3725"},"vehicle_type_id":"4","last_reported":1753424242,"current_range_meters":14400,"station_id":"ce4bgs12rcd13ifvqcag","pricing_plan_id":"cebpf4jnsgd1na2vs0mg"},{"bike_id":"d732a5e3-7a84-4ad4-9791-9078970609c5","system_id":"levelo_inurba_marseille","lat":43.31105,"lon":5.37789,"is_reserved":false,"is_disabled":false,"rental_uris":{"android":"levelo://app?vid=d732a5e3-7a84-4ad4-9791-9078970609c5","ios":"levelo://app?vid=d732a5e3-7a84-4ad4-9791-9078970609c5"},"vehicle_type_id":"4","last_reported":1753424242,"current_range_meters":15200,"station_id":"ce4bgt92rcd13ifvqcg0","pricing_plan_id":"cebpf4jnsgd1na2vs0mg"},{"bike_id":"09ba2926-92d2-4c4d-a6be-e908866b9b1c","system_id":"levelo_inurba_marseille","lat":43.27618,"lon":5.3611,"is_reserved":false,"is_disabled":false,"rental_uris":{"android":"levelo://app?vid=09ba2926-92d2-4c4d-a6be-e908866b9b1c","ios":"levelo://app?vid=09ba2926-92d2-4c4d-a6be-e908866b9b1c"},"vehicle_type_id":"4","last_reported":1753424242,"current_range_meters":15200,"station_id":"ce4bgj92rcd13ifvqbe0","pricing_plan_id":"cebpf4jnsgd1na2vs0mg"},{"bike_id":"1e9cf983-3afc-4620-a4d4-2dd094704fd1","system_id":"levelo_inurba_marseille","lat":43.22501,"lon":5.34774,"is_reserved":false,"is_disabled":false,"rental_uris":{"android":"levelo://app?vid=1e9cf983-3afc-4620-a4d4-2dd094704fd1","ios":"levelo://app?vid=1e9cf983-3afc-4620-a4d4-2dd094704fd1"},"vehicle_type_id":"4","last_reported":1753424242,"current_range_meters":15200,"station_id":"st_cvj5dfep6f1abm77gieg","pricing_plan_id":"cebpf4jnsgd1na2vs0mg"},{"bike_id":"81214a4c-aec9-4439-9ab4-8d3754022513","system_id":"levelo_inurba_marseille","lat":43.231963,"lon":5.355556,"is_reserved":false,"is_disabled":true,"rental_uris":{"android":"levelo://app?vid=81214a4c-aec9-4439-9ab4-8d3754022513","ios":"levelo://app?vid=81214a4c-aec9-4439-9ab4-8d3754022513"},"vehicle_type_id":"4","last_reported":1753424242,"current_range_meters":15200,"station_id":"ce4bhu92rcd13ifvqi70","pricing_plan_id":"cebpf4jnsgd1na2vs0mg"},{"bike_id":"5de7867a-387c-407e-a78f-8d9a8ba15ef9","system_id":"levelo_inurba_marseille","lat":43.28607,"lon":5.35088,"is_reserved":false,"is_disabled":false,"rental_uris":{"android":"levelo://app?vid=5de7867a-387c-407e-a78f-8d9a8ba15ef9","ios":"levelo://app?vid=5de7867a-387c-407e-a78f-8d9a8ba15ef9"},"vehicle_type_id":"4","last_reported":1753424242,"current_range_meters":16000,"station_id":"ce4bhch2rcd13ifvqeug","pricing_plan_id":"cebpf4jnsgd1na2vs0mg"},{"bike_id":"21bb3fef-81ef-46bb-a48d-d85402757c94","system_id":"levelo_inurba_marseille","lat":43.25453,"lon":5.3796,"is_reserved":false,"is_disabled":false,"rental_uris":{"android":"levelo://app?vid=21bb3fef-81ef-46bb-a48d-d85402757c94","ios":"levelo://app?vid=21bb3fef-81ef-46bb-a48d-d85402757c94"},"vehicle_type_id":"4","last_reported":1753424242,"current_range_meters":16000,"station_id":"","pricing_plan_id":"cebpf4jnsgd1na2vs0mg"},{"bike_id":"655cc3c9-24b4-495b-a8d1-14629cda4870","system_id":"levelo_inurba_marseille","lat":43.30256,"lon":5.40106,"is_reserved":false,"is_disabled":false,"rental_uris":{"android":"levelo://app?vid=655cc3c9-24b4-495b-a8d1-14629cda4870","ios":"levelo://app?vid=655cc3c9-24b4-495b-a8d1-14629cda4870"},"vehicle_type_id":"4","last_reported":1753424242,"current_range_meters":16000,"station_id":"ce4bgvh2rcd13ifvqcs0","pricing_plan_id":"cebpf4jnsgd1na2vs0mg"},{"bike_id":"dddbef83-b47e-460f-a4ac-beade05833f1","system_id":"levelo_inurba_marseille","lat":43.229258,"lon":5.353706,"is_reserved":false,"is_disabled":false,"rental_uris":{"android":"levelo://app?vid=dddbef83-b47e-460f-a4ac-beade05833f1","ios":"levelo://app?vid=dddbef83-b47e-460f-a4ac-beade05833f1"},"vehicle_type_id":"4","last_reported":1753424242,"current_range_meters":16000,"station_id":"cpo3532slgdg3j2ikp40","pricing_plan_id":"cebpf4jnsgd1na2vs0mg"},{"bike_id":"d12fb459-f3fc-4cfe-9619-fc172fb752e5","system_id":"levelo_inurba_marseille","lat":43.31131,"lon":5.37725,"is_reserved":false,"is_disabled":false,"rental_uris":{"android":"levelo://app?vid=d12fb459-f3fc-4cfe-9619-fc172fb752e5","ios":"levelo://app?vid=d12fb459-f3fc-4cfe-9619-fc172fb752e5"},"vehicle_type_id":"4","last_reported":1753424242,"current_range_meters":16000,"station_id":"ce4bgt92rcd13ifvqcg0","pricing_plan_id":"cebpf4jnsgd1na2vs0mg"},{"bike_id":"d2c1d56d-6a3a-4ae3-b7ab-84022ad7ad84","system_id":"levelo_inurba_marseille","lat":43.29741,"lon":5.37632,"is_reserved":false,"is_disabled":false,"rental_uris":{"android":"levelo://app?vid=d2c1d56d-6a3a-4ae3-b7ab-84022ad7ad84","ios":"levelo://app?vid=d2c1d56d-6a3a-4ae3-b7ab-84022ad7ad84"},"vehicle_type_id":"4","last_reported":1753424242,"current_range_meters":16000,"station_id":"","pricing_plan_id":"cebpf4jnsgd1na2vs0mg"},{"bike_id":"53c5727d-e2c2-433a-a085-d4cbcf02fb50","system_id":"levelo_inurba_marseille","lat":43.27207,"lon":5.39175,"is_reserved":false,"is_disabled":false,"rental_uris":{"android":"levelo://app?vid=53c5727d-e2c2-433a-a085-d4cbcf02fb50","ios":"levelo://app?vid=53c5727d-e2c2-433a-a085-d4cbcf02fb50"},"vehicle_type_id":"4","last_reported":1753424242,"current_range_meters":16400,"station_id":"ce4bhhp2rcd13ifvqfm0","pricing_plan_id":"cebpf4jnsgd1na2vs0mg"},{"bike_id":"9ea56ab2-ac76-40e9-a300-419720468605","system_id":"levelo_inurba_marseille","lat":43.24675,"lon":5.38891,"is_reserved":false,"is_disabled":false,"rental_uris":{"android":"levelo://app?vid=9ea56ab2-ac76-40e9-a300-419720468605","ios":"levelo://app?vid=9ea56ab2-ac76-40e9-a300-419720468605"},"vehicle_type_id":"4","last_reported":1753424242,"current_range_meters":16400,"station_id":"ce4bhg12rcd13ifvqf60","pricing_plan_id":"cebpf4jnsgd1na2vs0mg"},{"bike_id":"71b44c32-1ec1-479f-8f9e-a464e1647579","system_id":"levelo_inurba_marseille","lat":43.23272,"lon":5.36099,"is_reserved":false,"is_disabled":false,"rental_uris":{"android":"levelo://app?vid=71b44c32-1ec1-479f-8f9e-a464e1647579","ios":"levelo://app?vid=71b44c32-1ec1-479f-8f9e-a464e1647579"},"vehicle_type_id":"4","last_reported":1753424242,"current_range_meters":16400,"station_id":"","pricing_plan_id":"cebpf4jnsgd1na2vs0mg"},{"bike_id":"c0c9581e-3f6b-4c4b-8f58-4908446a05ea","system_id":"levelo_inurba_marseille","lat":43.311232,"lon":5.377696,"is_reserved":false,"is_disabled":false,"rental_uris":{"android":"levelo://app?vid=c0c9581e-3f6b-4c4b-8f58-4908446a05ea","ios":"levelo://app?vid=c0c9581e-3f6b-4c4b-8f58-4908446a05ea"},"vehicle_type_id":"4","last_reported":1753424242,"current_range_meters":16800,"station_id":"ce4bgt92rcd13ifvqcg0","pricing_plan_id":"cebpf4jnsgd1na2vs0mg"},{"bike_id":"f2ca3887-7e82-498b-8c49-e80cd18a3051","system_id":"levelo_inurba_marseille","lat":43.23957,"lon":5.36633,"is_reserved":false,"is_disabled":false,"rental_uris":{"android":"levelo://app?vid=f2ca3887-7e82-498b-8c49-e80cd18a3051","ios":"levelo://app?vid=f2ca3887-7e82-498b-8c49-e80cd18a3051"},"vehicle_type_id":"4","last_reported":1753424242,"current_range_meters":16800,"station_id":"ce4bhi12rcd13ifvqfp0","pricing_plan_id":"cebpf4jnsgd1na2vs0mg"},{"bike_id":"48ed62b2-217a-42bd-8e57-a1e180a11eec","system_id":"levelo_inurba_marseille","lat":43.2849,"lon":5.38415,"is_reserved":false,"is_disabled":false,"rental_uris":{"android":"levelo://app?vid=48ed62b2-217a-42bd-8e57-a1e180a11eec","ios":"levelo://app?vid=48ed62b2-217a-42bd-8e57-a1e180a11eec"},"vehicle_type_id":"4","last_reported":1753424242,"current_range_meters":16800,"station_id":"ce4bh512rcd13ifvqe3g","pricing_plan_id":"cebpf4jnsgd1na2vs0mg"},{"bike_id":"fd13a871-6a7c-45ab-8193-0aedb29a36fc","system_id":"levelo_inurba_marseille","lat":43.26553,"lon":5.372881,"is_reserved":false,"is_disabled":false,"rental_uris":{"android":"levelo://app?vid=fd13a871-6a7c-45ab-8193-0aedb29a36fc","ios":"levelo://app?vid=fd13a871-6a7c-45ab-8193-0aedb29a36fc"},"vehicle_type_id":"4","last_reported":1753424242,"current_range_meters":16800,"station_id":"ce4bhg12rcd13ifvqf70","pricing_plan_id":"cebpf4jnsgd1na2vs0mg"},{"bike_id":"f2c1cc68-66ae-448d-8763-030629ea502f","system_id":"levelo_inurba_marseille","lat":43.266599,"lon":5.4028,"is_reserved":false,"is_disabled":true,"rental_uris":{"android":"levelo://app?vid=f2c1cc68-66ae-448d-8763-030629ea502f","ios":"levelo://app?vid=f2c1cc68-66ae-448d-8763-030629ea502f"},"vehicle_type_id":"4","last_reported":1753424242,"current_range_meters":16800,"station_id":"","pricing_plan_id":"cebpf4jnsgd1na2vs0mg"},{"bike_id":"4aa97969-2f6e-4edb-a09f-12d31a04a044","system_id":"levelo_inurba_marseille","lat":43.307844,"lon":5.376663,"is_reserved":false,"is_disabled":false,"rental_uris":{"android":"levelo://app?vid=4aa97969-2f6e-4edb-a09f-12d31a04a044","ios":"levelo://app?vid=4aa97969-2f6e-4edb-a09f-12d31a04a044"},"vehicle_type_id":"4","last_reported":1753424242,"current_range_meters":16800,"station_id":"ce4bgv92rcd13ifvqcq0","pricing_plan_id":"cebpf4jnsgd1na2vs0mg"},{"bike_id":"c6b0b8dc-68ca-4833-b11c-d2ebae51b478","system_id":"levelo_inurba_marseille","lat":43.285609,"lon":5.394874,"is_reserved":false,"is_disabled":false,"rental_uris":{"android":"levelo://app?vid=c6b0b8dc-68ca-4833-b11c-d2ebae51b478","ios":"levelo://app?vid=c6b0b8dc-68ca-4833-b11c-d2ebae51b478"},"vehicle_type_id":"4","last_reported":1753424242,"current_range_meters":16800,"station_id":"ce4bh292rcd13ifvqdg0","pricing_plan_id":"cebpf4jnsgd1na2vs0mg"},{"bike_id":"d0632034-2b69-48ed-8e01-6000605ce333","system_id":"levelo_inurba_marseille","lat":43.29783,"lon":5.37102,"is_reserved":false,"is_disabled":false,"rental_uris":{"android":"levelo://app?vid=d0632034-2b69-48ed-8e01-6000605ce333","ios":"levelo://app?vid=d0632034-2b69-48ed-8e01-6000605ce333"},"vehicle_type_id":"4","last_reported":1753424242,"current_range_meters":18000,"station_id":"ce4bgop2rcd13ifvqc1g","pricing_plan_id":"cebpf4jnsgd1na2vs0mg"},{"bike_id":"75ce79c1-e23f-47ca-b12f-ecbb1fdfab43","system_id":"levelo_inurba_marseille","lat":43.28715,"lon":5.40012,"is_reserved":false,"is_disabled":false,"rental_uris":{"android":"levelo://app?vid=75ce79c1-e23f-47ca-b12f-ecbb1fdfab43","ios":"levelo://app?vid=75ce79c1-e23f-47ca-b12f-ecbb1fdfab43"},"vehicle_type_id":"4","last_reported":1753424242,"current_range_meters":16800,"station_id":"","pricing_plan_id":"cebpf4jnsgd1na2vs0mg"},{"bike_id":"8e0fc6ca-95fd-484d-81be-068c9b37e71d","system_id":"levelo_inurba_marseille","lat":43.292685,"lon":5.407861,"is_reserved":false,"is_disabled":false,"rental_uris":{"android":"levelo://app?vid=8e0fc6ca-95fd-484d-81be-068c9b37e71d","ios":"levelo://app?vid=8e0fc6ca-95fd-484d-81be-068c9b37e71d"},"vehicle_type_id":"4","last_reported":1753424242,"current_range_meters":16800,"station_id":"ce4bh192rcd13ifvqdc0","pricing_plan_id":"cebpf4jnsgd1na2vs0mg"},{"bike_id":"7a2e9e7e-4e9d-4e71-a22e-ef2896aef70a","system_id":"levelo_inurba_marseille","lat":43.289282,"lon":5.383986,"is_reserved":false,"is_disabled":false,"rental_uris":{"android":"levelo://app?vid=7a2e9e7e-4e9d-4e71-a22e-ef2896aef70a","ios":"levelo://app?vid=7a2e9e7e-4e9d-4e71-a22e-ef2896aef70a"},"vehicle_type_id":"4","last_reported":1753424242,"current_range_meters":16800,"station_id":"ce4bh612rcd13ifvqe6g","pricing_plan_id":"cebpf4jnsgd1na2vs0mg"},{"bike_id":"9dd88cc0-ad2c-451a-9d9b-271ddd803b84","system_id":"levelo_inurba_marseille","lat":43.31138,"lon":5.38751,"is_reserved":false,"is_disabled":false,"rental_uris":{"android":"levelo://app?vid=9dd88cc0-ad2c-451a-9d9b-271ddd803b84","ios":"levelo://app?vid=9dd88cc0-ad2c-451a-9d9b-271ddd803b84"},"vehicle_type_id":"4","last_reported":1753424242,"current_range_meters":16800,"station_id":"ce4bgv12rcd13ifvqcp0","pricing_plan_id":"cebpf4jnsgd1na2vs0mg"},{"bike_id":"20859a24-fd13-44e9-b9b3-6028ee9c71d4","system_id":"levelo_inurba_marseille","lat":43.283672,"lon":5.386343,"is_reserved":false,"is_disabled":false,"rental_uris":{"android":"levelo://app?vid=20859a24-fd13-44e9-b9b3-6028ee9c71d4","ios":"levelo://app?vid=20859a24-fd13-44e9-b9b3-6028ee9c71d4"},"vehicle_type_id":"4","last_reported":1753424242,"current_range_meters":16800,"station_id":"ce4bh492rcd13ifvqdvg","pricing_plan_id":"cebpf4jnsgd1na2vs0mg"},{"bike_id":"fee0cfe9-b59a-449c-bc7c-ef27dde6dbf7","system_id":"levelo_inurba_marseille","lat":43.28666,"lon":5.36359,"is_reserved":false,"is_disabled":false,"rental_uris":{"android":"levelo://app?vid=fee0cfe9-b59a-449c-bc7c-ef27dde6dbf7","ios":"levelo://app?vid=fee0cfe9-b59a-449c-bc7c-ef27dde6dbf7"},"vehicle_type_id":"4","last_reported":1753424242,"current_range_meters":16800,"station_id":"ce4bhah2rcd13ifvqej0","pricing_plan_id":"cebpf4jnsgd1na2vs0mg"},{"bike_id":"840d7e43-7cc1-471f-a57a-9b8c6b113ae0","system_id":"levelo_inurba_marseille","lat":43.29426,"lon":5.39742,"is_reserved":false,"is_disabled":false,"rental_uris":{"android":"levelo://app?vid=840d7e43-7cc1-471f-a57a-9b8c6b113ae0","ios":"levelo://app?vid=840d7e43-7cc1-471f-a57a-9b8c6b113ae0"},"vehicle_type_id":"4","last_reported":1753424242,"current_range_meters":16800,"station_id":"ce4bh3h2rcd13ifvqdo0","pricing_plan_id":"cebpf4jnsgd1na2vs0mg"},{"bike_id":"3489a0c8-d867-4a75-ad0e-16d826a697da","system_id":"levelo_inurba_marseille","lat":43.29455,"lon":5.3856,"is_reserved":false,"is_disabled":false,"rental_uris":{"android":"levelo://app?vid=3489a0c8-d867-4a75-ad0e-16d826a697da","ios":"levelo://app?vid=3489a0c8-d867-4a75-ad0e-16d826a697da"},"vehicle_type_id":"4","last_reported":1753424242,"current_range_meters":17200,"station_id":"","pricing_plan_id":"cebpf4jnsgd1na2vs0mg"},{"bike_id":"510956f4-4053-4240-99f3-35d5b3186629","system_id":"levelo_inurba_marseille","lat":43.29545,"lon":5.39399,"is_reserved":false,"is_disabled":false,"rental_uris":{"android":"levelo://app?vid=510956f4-4053-4240-99f3-35d5b3186629","ios":"levelo://app?vid=510956f4-4053-4240-99f3-35d5b3186629"},"vehicle_type_id":"4","last_reported":1753424242,"current_range_meters":17200,"station_id":"ce4bh292rcd13ifvqdf0","pricing_plan_id":"cebpf4jnsgd1na2vs0mg"},{"bike_id":"bdf8bcb9-51f6-4a65-8181-f600f5b30780","system_id":"levelo_inurba_marseille","lat":43.274656,"lon":5.395853,"is_reserved":false,"is_disabled":false,"rental_uris":{"android":"levelo://app?vid=bdf8bcb9-51f6-4a65-8181-f600f5b30780","ios":"levelo://app?vid=bdf8bcb9-51f6-4a65-8181-f600f5b30780"},"vehicle_type_id":"4","last_reported":1753424242,"current_range_meters":17200,"station_id":"","pricing_plan_id":"cebpf4jnsgd1na2vs0mg"},{"bike_id":"8ba9968b-94e2-4ff4-915d-5054e965f84a","system_id":"levelo_inurba_marseille","lat":43.28007,"lon":5.41629,"is_reserved":false,"is_disabled":false,"rental_uris":{"android":"levelo://app?vid=8ba9968b-94e2-4ff4-915d-5054e965f84a","ios":"levelo://app?vid=8ba9968b-94e2-4ff4-915d-5054e965f84a"},"vehicle_type_id":"4","last_reported":1753424242,"current_range_meters":17200,"station_id":"ce4bho12rcd13ifvqh1g","pricing_plan_id":"cebpf4jnsgd1na2vs0mg"},{"bike_id":"cf5577ea-8085-442d-b092-8cf7a9d9102b","system_id":"levelo_inurba_marseille","lat":43.323622,"lon":5.367556,"is_reserved":false,"is_disabled":false,"rental_uris":{"android":"levelo://app?vid=cf5577ea-8085-442d-b092-8cf7a9d9102b","ios":"levelo://app?vid=cf5577ea-8085-442d-b092-8cf7a9d9102b"},"vehicle_type_id":"4","last_reported":1753424242,"current_range_meters":17200,"station_id":"ce4bhsh2rcd13ifvqi2g","pricing_plan_id":"cebpf4jnsgd1na2vs0mg"},{"bike_id":"f501e071-4716-432d-bf77-298092cf3c7e","system_id":"levelo_inurba_marseille","lat":43.30076,"lon":5.38714,"is_reserved":false,"is_disabled":false,"rental_uris":{"android":"levelo://app?vid=f501e071-4716-432d-bf77-298092cf3c7e","ios":"levelo://app?vid=f501e071-4716-432d-bf77-298092cf3c7e"},"vehicle_type_id":"4","last_reported":1753424242,"current_range_meters":17200,"station_id":"","pricing_plan_id":"cebpf4jnsgd1na2vs0mg"},{"bike_id":"cc9d64e8-fcbe-4a3d-9d87-6e0999603b75","system_id":"levelo_inurba_marseille","lat":43.30929,"lon":5.40149,"is_reserved":false,"is_disabled":false,"rental_uris":{"android":"levelo://app?vid=cc9d64e8-fcbe-4a3d-9d87-6e0999603b75","ios":"levelo://app?vid=cc9d64e8-fcbe-4a3d-9d87-6e0999603b75"},"vehicle_type_id":"4","last_reported":1753424242,"current_range_meters":17200,"station_id":"ce4bgvp2rcd13ifvqct0","pricing_plan_id":"cebpf4jnsgd1na2vs0mg"},{"bike_id":"97601d55-2795-414a-8157-dc0e66cbeef1","system_id":"levelo_inurba_marseille","lat":43.301238,"lon":5.387855,"is_reserved":false,"is_disabled":false,"rental_uris":{"android":"levelo://app?vid=97601d55-2795-414a-8157-dc0e66cbeef1","ios":"levelo://app?vid=97601d55-2795-414a-8157-dc0e66cbeef1"},"vehicle_type_id":"4","last_reported":1753424242,"current_range_meters":17200,"station_id":"","pricing_plan_id":"cebpf4jnsgd1na2vs0mg"},{"bike_id":"25d1e659-75f0-413f-9dd4-93bad69c331b","system_id":"levelo_inurba_marseille","lat":43.293404,"lon":5.382002,"is_reserved":false,"is_disabled":false,"rental_uris":{"android":"levelo://app?vid=25d1e659-75f0-413f-9dd4-93bad69c331b","ios":"levelo://app?vid=25d1e659-75f0-413f-9dd4-93bad69c331b"},"vehicle_type_id":"4","last_reported":1753424242,"current_range_meters":17600,"station_id":"","pricing_plan_id":"cebpf4jnsgd1na2vs0mg"},{"bike_id":"fcea11e1-dd1f-4534-977e-d239c4d39f72","system_id":"levelo_inurba_marseille","lat":43.27372,"lon":5.36254,"is_reserved":false,"is_disabled":false,"rental_uris":{"android":"levelo://app?vid=fcea11e1-dd1f-4534-977e-d239c4d39f72","ios":"levelo://app?vid=fcea11e1-dd1f-4534-977e-d239c4d39f72"},"vehicle_type_id":"4","last_reported":1753424242,"current_range_meters":17600,"station_id":"ce4bhbh2rcd13ifvqeo0","pricing_plan_id":"cebpf4jnsgd1na2vs0mg"},{"bike_id":"266198a5-1fdd-4903-a22e-685ee660fe16","system_id":"levelo_inurba_marseille","lat":43.22501,"lon":5.34794,"is_reserved":false,"is_disabled":false,"rental_uris":{"android":"levelo://app?vid=266198a5-1fdd-4903-a22e-685ee660fe16","ios":"levelo://app?vid=266198a5-1fdd-4903-a22e-685ee660fe16"},"vehicle_type_id":"4","last_reported":1753424242,"current_range_meters":17600,"station_id":"st_cvj5dfep6f1abm77gieg","pricing_plan_id":"cebpf4jnsgd1na2vs0mg"},{"bike_id":"8d52dd68-d9f6-410d-91a8-aaae93ee1c85","system_id":"levelo_inurba_marseille","lat":43.29509,"lon":5.39397,"is_reserved":false,"is_disabled":true,"rental_uris":{"android":"levelo://app?vid=8d52dd68-d9f6-410d-91a8-aaae93ee1c85","ios":"levelo://app?vid=8d52dd68-d9f6-410d-91a8-aaae93ee1c85"},"vehicle_type_id":"4","last_reported":1753424242,"current_range_meters":17600,"station_id":"ce4bh292rcd13ifvqdf0","pricing_plan_id":"cebpf4jnsgd1na2vs0mg"},{"bike_id":"50b905ef-953a-4765-9f9b-7165906869d7","system_id":"levelo_inurba_marseille","lat":43.230536,"lon":5.354935,"is_reserved":false,"is_disabled":false,"rental_uris":{"android":"levelo://app?vid=50b905ef-953a-4765-9f9b-7165906869d7","ios":"levelo://app?vid=50b905ef-953a-4765-9f9b-7165906869d7"},"vehicle_type_id":"4","last_reported":1753424242,"current_range_meters":17600,"station_id":"cpo3342slgdg3j2ifvpg","pricing_plan_id":"cebpf4jnsgd1na2vs0mg"},{"bike_id":"c09ce8be-d4c6-4fb0-860e-0635fe4c2250","system_id":"levelo_inurba_marseille","lat":43.292276,"lon":5.360371,"is_reserved":false,"is_disabled":false,"rental_uris":{"android":"levelo://app?vid=c09ce8be-d4c6-4fb0-860e-0635fe4c2250","ios":"levelo://app?vid=c09ce8be-d4c6-4fb0-860e-0635fe4c2250"},"vehicle_type_id":"4","last_reported":1753424242,"current_range_meters":17600,"station_id":"ce4bhb12rcd13ifvqel0","pricing_plan_id":"cebpf4jnsgd1na2vs0mg"},{"bike_id":"5cfe74ee-67cc-4223-97ee-3d16374f01fc","system_id":"levelo_inurba_marseille","lat":43.2737,"lon":5.36254,"is_reserved":false,"is_disabled":true,"rental_uris":{"android":"levelo://app?vid=5cfe74ee-67cc-4223-97ee-3d16374f01fc","ios":"levelo://app?vid=5cfe74ee-67cc-4223-97ee-3d16374f01fc"},"vehicle_type_id":"4","last_reported":1753424242,"current_range_meters":17600,"station_id":"ce4bhbh2rcd13ifvqeo0","pricing_plan_id":"cebpf4jnsgd1na2vs0mg"},{"bike_id":"f9923509-d1f5-4a78-8677-ee3e9a0ad4e2","system_id":"levelo_inurba_marseille","lat":43.27984,"lon":5.40013,"is_reserved":false,"is_disabled":true,"rental_uris":{"android":"levelo://app?vid=f9923509-d1f5-4a78-8677-ee3e9a0ad4e2","ios":"levelo://app?vid=f9923509-d1f5-4a78-8677-ee3e9a0ad4e2"},"vehicle_type_id":"4","last_reported":1753424242,"current_range_meters":17600,"station_id":"ce4bho92rcd13ifvqh4g","pricing_plan_id":"cebpf4jnsgd1na2vs0mg"},{"bike_id":"635d529b-81db-4d95-967c-681543329cb0","system_id":"levelo_inurba_marseille","lat":43.29894,"lon":5.43663,"is_reserved":false,"is_disabled":false,"rental_uris":{"android":"levelo://app?vid=635d529b-81db-4d95-967c-681543329cb0","ios":"levelo://app?vid=635d529b-81db-4d95-967c-681543329cb0"},"vehicle_type_id":"4","last_reported":1753424242,"current_range_meters":17600,"station_id":"ce4bhpp2rcd13ifvqhfg","pricing_plan_id":"cebpf4jnsgd1na2vs0mg"},{"bike_id":"3730703c-b95e-493f-9fcc-d3f3c3fe86af","system_id":"levelo_inurba_marseille","lat":43.287121,"lon":5.379345,"is_reserved":false,"is_disabled":false,"rental_uris":{"android":"levelo://app?vid=3730703c-b95e-493f-9fcc-d3f3c3fe86af","ios":"levelo://app?vid=3730703c-b95e-493f-9fcc-d3f3c3fe86af"},"vehicle_type_id":"4","last_reported":1753424242,"current_range_meters":17600,"station_id":"ce4bh9p2rcd13ifvqec0","pricing_plan_id":"cebpf4jnsgd1na2vs0mg"},{"bike_id":"735d91e2-1a8a-4092-86e3-eba88a00d71a","system_id":"levelo_inurba_marseille","lat":43.2841,"lon":5.3499,"is_reserved":false,"is_disabled":false,"rental_uris":{"android":"levelo://app?vid=735d91e2-1a8a-4092-86e3-eba88a00d71a","ios":"levelo://app?vid=735d91e2-1a8a-4092-86e3-eba88a00d71a"},"vehicle_type_id":"4","last_reported":1753424242,"current_range_meters":17600,"station_id":"ce4bhbh2rcd13ifvqepg","pricing_plan_id":"cebpf4jnsgd1na2vs0mg"},{"bike_id":"7a728a3e-ae5a-416b-ab98-c609bdc15d67","system_id":"levelo_inurba_marseille","lat":43.262054,"lon":5.374491,"is_reserved":false,"is_disabled":false,"rental_uris":{"android":"levelo://app?vid=7a728a3e-ae5a-416b-ab98-c609bdc15d67","ios":"levelo://app?vid=7a728a3e-ae5a-416b-ab98-c609bdc15d67"},"vehicle_type_id":"4","last_reported":1753424242,"current_range_meters":17600,"station_id":"","pricing_plan_id":"cebpf4jnsgd1na2vs0mg"},{"bike_id":"d3eea4a0-76ba-4059-ba6b-c1ecd6270925","system_id":"levelo_inurba_marseille","lat":43.21198,"lon":5.35073,"is_reserved":false,"is_disabled":false,"rental_uris":{"android":"levelo://app?vid=d3eea4a0-76ba-4059-ba6b-c1ecd6270925","ios":"levelo://app?vid=d3eea4a0-76ba-4059-ba6b-c1ecd6270925"},"vehicle_type_id":"4","last_reported":1753424242,"current_range_meters":18000,"station_id":"st_cvj6sg6p6f1abm77japg","pricing_plan_id":"cebpf4jnsgd1na2vs0mg"},{"bike_id":"8d92968d-91e7-4161-88c8-7b0504e2b8e2","system_id":"levelo_inurba_marseille","lat":43.31169,"lon":5.38723,"is_reserved":false,"is_disabled":false,"rental_uris":{"android":"levelo://app?vid=8d92968d-91e7-4161-88c8-7b0504e2b8e2","ios":"levelo://app?vid=8d92968d-91e7-4161-88c8-7b0504e2b8e2"},"vehicle_type_id":"4","last_reported":1753424242,"current_range_meters":18000,"station_id":"ce4bgv12rcd13ifvqcp0","pricing_plan_id":"cebpf4jnsgd1na2vs0mg"},{"bike_id":"d861442c-09c2-4130-9f6c-d36472e7baf5","system_id":"levelo_inurba_marseille","lat":43.211895,"lon":5.350764,"is_reserved":false,"is_disabled":true,"rental_uris":{"android":"levelo://app?vid=d861442c-09c2-4130-9f6c-d36472e7baf5","ios":"levelo://app?vid=d861442c-09c2-4130-9f6c-d36472e7baf5"},"vehicle_type_id":"4","last_reported":1753424242,"current_range_meters":18000,"station_id":"","pricing_plan_id":"cebpf4jnsgd1na2vs0mg"},{"bike_id":"83c80cb3-658b-40cc-83d3-d8398877868e","system_id":"levelo_inurba_marseille","lat":43.288556,"lon":5.393485,"is_reserved":false,"is_disabled":false,"rental_uris":{"android":"levelo://app?vid=83c80cb3-658b-40cc-83d3-d8398877868e","ios":"levelo://app?vid=83c80cb3-658b-40cc-83d3-d8398877868e"},"vehicle_type_id":"4","last_reported":1753424242,"current_range_meters":18000,"station_id":"ce4bh2p2rcd13ifvqdi0","pricing_plan_id":"cebpf4jnsgd1na2vs0mg"},{"bike_id":"664910b1-1cf6-4a54-b39f-c6d4230ff84a","system_id":"levelo_inurba_marseille","lat":43.24386,"lon":5.37055,"is_reserved":false,"is_disabled":false,"rental_uris":{"android":"levelo://app?vid=664910b1-1cf6-4a54-b39f-c6d4230ff84a","ios":"levelo://app?vid=664910b1-1cf6-4a54-b39f-c6d4230ff84a"},"vehicle_type_id":"4","last_reported":1753424242,"current_range_meters":18000,"station_id":"ce4bhhh2rcd13ifvqfk0","pricing_plan_id":"cebpf4jnsgd1na2vs0mg"},{"bike_id":"a1ec26cb-9d4a-4dd4-ad23-fecbc49f2a3d","system_id":"levelo_inurba_marseille","lat":43.25467,"lon":5.37687,"is_reserved":false,"is_disabled":false,"rental_uris":{"android":"levelo://app?vid=a1ec26cb-9d4a-4dd4-ad23-fecbc49f2a3d","ios":"levelo://app?vid=a1ec26cb-9d4a-4dd4-ad23-fecbc49f2a3d"},"vehicle_type_id":"4","last_reported":1753424242,"current_range_meters":18000,"station_id":"","pricing_plan_id":"cebpf4jnsgd1na2vs0mg"},{"bike_id":"aa3a6420-eb4d-4632-8b68-f541c086db55","system_id":"levelo_inurba_marseille","lat":43.22508,"lon":5.34774,"is_reserved":false,"is_disabled":false,"rental_uris":{"android":"levelo://app?vid=aa3a6420-eb4d-4632-8b68-f541c086db55","ios":"levelo://app?vid=aa3a6420-eb4d-4632-8b68-f541c086db55"},"vehicle_type_id":"4","last_reported":1753424242,"current_range_meters":18000,"station_id":"","pricing_plan_id":"cebpf4jnsgd1na2vs0mg"},{"bike_id":"db4065a9-8ae8-4da2-9ed6-25a24760a414","system_id":"levelo_inurba_marseille","lat":43.230543,"lon":5.354961,"is_reserved":false,"is_disabled":true,"rental_uris":{"android":"levelo://app?vid=db4065a9-8ae8-4da2-9ed6-25a24760a414","ios":"levelo://app?vid=db4065a9-8ae8-4da2-9ed6-25a24760a414"},"vehicle_type_id":"4","last_reported":1753424242,"current_range_meters":18000,"station_id":"cpo3342slgdg3j2ifvpg","pricing_plan_id":"cebpf4jnsgd1na2vs0mg"},{"bike_id":"8063ea35-336c-4486-95d1-66a788ecc1f4","system_id":"levelo_inurba_marseille","lat":43.28468,"lon":5.3842,"is_reserved":false,"is_disabled":false,"rental_uris":{"android":"levelo://app?vid=8063ea35-336c-4486-95d1-66a788ecc1f4","ios":"levelo://app?vid=8063ea35-336c-4486-95d1-66a788ecc1f4"},"vehicle_type_id":"4","last_reported":1753424242,"current_range_meters":18000,"station_id":"ce4bh512rcd13ifvqe3g","pricing_plan_id":"cebpf4jnsgd1na2vs0mg"},{"bike_id":"c8e02a19-b856-420d-bf9d-a6e6b78bd182","system_id":"levelo_inurba_marseille","lat":43.265538,"lon":5.372924,"is_reserved":false,"is_disabled":false,"rental_uris":{"android":"levelo://app?vid=c8e02a19-b856-420d-bf9d-a6e6b78bd182","ios":"levelo://app?vid=c8e02a19-b856-420d-bf9d-a6e6b78bd182"},"vehicle_type_id":"4","last_reported":1753424242,"current_range_meters":18000,"station_id":"ce4bhg12rcd13ifvqf70","pricing_plan_id":"cebpf4jnsgd1na2vs0mg"},{"bike_id":"ec6a2d2a-f9b7-4796-b105-370ad5cb4241","system_id":"levelo_inurba_marseille","lat":43.248038,"lon":5.374533,"is_reserved":false,"is_disabled":false,"rental_uris":{"android":"levelo://app?vid=ec6a2d2a-f9b7-4796-b105-370ad5cb4241","ios":"levelo://app?vid=ec6a2d2a-f9b7-4796-b105-370ad5cb4241"},"vehicle_type_id":"4","last_reported":1753424242,"current_range_meters":18000,"station_id":"ce4bhgh2rcd13ifvqfb0","pricing_plan_id":"cebpf4jnsgd1na2vs0mg"},{"bike_id":"cf75fdd5-eea5-45ba-a75c-2d3f5e3ecf00","system_id":"levelo_inurba_marseille","lat":43.229456,"lon":5.353851,"is_reserved":false,"is_disabled":false,"rental_uris":{"android":"levelo://app?vid=cf75fdd5-eea5-45ba-a75c-2d3f5e3ecf00","ios":"levelo://app?vid=cf75fdd5-eea5-45ba-a75c-2d3f5e3ecf00"},"vehicle_type_id":"4","last_reported":1753424242,"current_range_meters":18000,"station_id":"cpo3532slgdg3j2ikp40","pricing_plan_id":"cebpf4jnsgd1na2vs0mg"},{"bike_id":"9bb03dc8-1285-4dc3-82e4-cbcb16687686","system_id":"levelo_inurba_marseille","lat":43.229341,"lon":5.353757,"is_reserved":false,"is_disabled":false,"rental_uris":{"android":"levelo://app?vid=9bb03dc8-1285-4dc3-82e4-cbcb16687686","ios":"levelo://app?vid=9bb03dc8-1285-4dc3-82e4-cbcb16687686"},"vehicle_type_id":"4","last_reported":1753424242,"current_range_meters":18000,"station_id":"cpo3532slgdg3j2ikp40","pricing_plan_id":"cebpf4jnsgd1na2vs0mg"},{"bike_id":"d89a78d9-9567-45b4-b7dc-774d4fdee32b","system_id":"levelo_inurba_marseille","lat":43.29599,"lon":5.381026,"is_reserved":false,"is_disabled":true,"rental_uris":{"android":"levelo://app?vid=d89a78d9-9567-45b4-b7dc-774d4fdee32b","ios":"levelo://app?vid=d89a78d9-9567-45b4-b7dc-774d4fdee32b"},"vehicle_type_id":"4","last_reported":1753424242,"current_range_meters":18000,"station_id":"ce4bgl12rcd13ifvqbo0","pricing_plan_id":"cebpf4jnsgd1na2vs0mg"},{"bike_id":"0a7e2862-d8ec-4c77-89d9-cfcdd51f8d75","system_id":"levelo_inurba_marseille","lat":43.31872,"lon":5.37373,"is_reserved":false,"is_disabled":false,"rental_uris":{"android":"levelo://app?vid=0a7e2862-d8ec-4c77-89d9-cfcdd51f8d75","ios":"levelo://app?vid=0a7e2862-d8ec-4c77-89d9-cfcdd51f8d75"},"vehicle_type_id":"4","last_reported":1753424242,"current_range_meters":18000,"station_id":"","pricing_plan_id":"cebpf4jnsgd1na2vs0mg"},{"bike_id":"fe2ebdbb-1c2e-4f77-b307-5fbb71bee13a","system_id":"levelo_inurba_marseille","lat":43.292591,"lon":5.384313,"is_reserved":false,"is_disabled":true,"rental_uris":{"android":"levelo://app?vid=fe2ebdbb-1c2e-4f77-b307-5fbb71bee13a","ios":"levelo://app?vid=fe2ebdbb-1c2e-4f77-b307-5fbb71bee13a"},"vehicle_type_id":"4","last_reported":1753424242,"current_range_meters":18000,"station_id":"ce4bh692rcd13ifvqea0","pricing_plan_id":"cebpf4jnsgd1na2vs0mg"},{"bike_id":"28d737f0-164b-4eb7-9666-3b85bf0541f4","system_id":"levelo_inurba_marseille","lat":43.28925,"lon":5.38391,"is_reserved":false,"is_disabled":false,"rental_uris":{"android":"levelo://app?vid=28d737f0-164b-4eb7-9666-3b85bf0541f4","ios":"levelo://app?vid=28d737f0-164b-4eb7-9666-3b85bf0541f4"},"vehicle_type_id":"4","last_reported":1753424242,"current_range_meters":18800,"station_id":"ce4bh612rcd13ifvqe6g","pricing_plan_id":"cebpf4jnsgd1na2vs0mg"},{"bike_id":"6f9c5fc7-0a95-4593-b71f-0b9d9a8caaf5","system_id":"levelo_inurba_marseille","lat":43.22504,"lon":5.34744,"is_reserved":false,"is_disabled":false,"rental_uris":{"android":"levelo://app?vid=6f9c5fc7-0a95-4593-b71f-0b9d9a8caaf5","ios":"levelo://app?vid=6f9c5fc7-0a95-4593-b71f-0b9d9a8caaf5"},"vehicle_type_id":"4","last_reported":1753424242,"current_range_meters":18800,"station_id":"st_cvj5dfep6f1abm77gieg","pricing_plan_id":"cebpf4jnsgd1na2vs0mg"},{"bike_id":"425fe799-b8aa-4bc2-84d0-38078e4882ef","system_id":"levelo_inurba_marseille","lat":43.22504,"lon":5.34783,"is_reserved":false,"is_disabled":false,"rental_uris":{"android":"levelo://app?vid=425fe799-b8aa-4bc2-84d0-38078e4882ef","ios":"levelo://app?vid=425fe799-b8aa-4bc2-84d0-38078e4882ef"},"vehicle_type_id":"4","last_reported":1753424242,"current_range_meters":18800,"station_id":"st_cvj5dfep6f1abm77gieg","pricing_plan_id":"cebpf4jnsgd1na2vs0mg"},{"bike_id":"ccce2f91-a780-4d6b-9074-de942d06179f","system_id":"levelo_inurba_marseille","lat":43.274819,"lon":5.360753,"is_reserved":false,"is_disabled":false,"rental_uris":{"android":"levelo://app?vid=ccce2f91-a780-4d6b-9074-de942d06179f","ios":"levelo://app?vid=ccce2f91-a780-4d6b-9074-de942d06179f"},"vehicle_type_id":"4","last_reported":1753424242,"current_range_meters":18800,"station_id":"ce4bha12rcd13ifvqef0","pricing_plan_id":"cebpf4jnsgd1na2vs0mg"},{"bike_id":"781a7546-3aaa-4cf6-afe7-08c80cb70914","system_id":"levelo_inurba_marseille","lat":43.30998,"lon":5.379374,"is_reserved":false,"is_disabled":false,"rental_uris":{"android":"levelo://app?vid=781a7546-3aaa-4cf6-afe7-08c80cb70914","ios":"levelo://app?vid=781a7546-3aaa-4cf6-afe7-08c80cb70914"},"vehicle_type_id":"4","last_reported":1753424242,"current_range_meters":18800,"station_id":"ce4bhrh2rcd13ifvqhug","pricing_plan_id":"cebpf4jnsgd1na2vs0mg"},{"bike_id":"1dead8dc-fdb6-4c34-b5a6-09bf895e76a6","system_id":"levelo_inurba_marseille","lat":43.229479,"lon":5.35394,"is_reserved":false,"is_disabled":false,"rental_uris":{"android":"levelo://app?vid=1dead8dc-fdb6-4c34-b5a6-09bf895e76a6","ios":"levelo://app?vid=1dead8dc-fdb6-4c34-b5a6-09bf895e76a6"},"vehicle_type_id":"4","last_reported":1753424242,"current_range_meters":18800,"station_id":"cpo3532slgdg3j2ikp40","pricing_plan_id":"cebpf4jnsgd1na2vs0mg"},{"bike_id":"cbd29efb-dda7-4d15-b2c1-7a636d44d6f9","system_id":"levelo_inurba_marseille","lat":43.301527,"lon":5.38085,"is_reserved":false,"is_disabled":false,"rental_uris":{"android":"levelo://app?vid=cbd29efb-dda7-4d15-b2c1-7a636d44d6f9","ios":"levelo://app?vid=cbd29efb-dda7-4d15-b2c1-7a636d44d6f9"},"vehicle_type_id":"4","last_reported":1753424242,"current_range_meters":19200,"station_id":"ce4bgjp2rcd13ifvqbh0","pricing_plan_id":"cebpf4jnsgd1na2vs0mg"},{"bike_id":"28ed8dac-9744-4ca8-953e-87a822e74089","system_id":"levelo_inurba_marseille","lat":43.301493,"lon":5.38081,"is_reserved":false,"is_disabled":false,"rental_uris":{"android":"levelo://app?vid=28ed8dac-9744-4ca8-953e-87a822e74089","ios":"levelo://app?vid=28ed8dac-9744-4ca8-953e-87a822e74089"},"vehicle_type_id":"4","last_reported":1753424242,"current_range_meters":19200,"station_id":"ce4bgjp2rcd13ifvqbh0","pricing_plan_id":"cebpf4jnsgd1na2vs0mg"},{"bike_id":"6be21520-db96-42c5-a4c2-7e7ab3d8589b","system_id":"levelo_inurba_marseille","lat":43.24644,"lon":5.38908,"is_reserved":false,"is_disabled":false,"rental_uris":{"android":"levelo://app?vid=6be21520-db96-42c5-a4c2-7e7ab3d8589b","ios":"levelo://app?vid=6be21520-db96-42c5-a4c2-7e7ab3d8589b"},"vehicle_type_id":"4","last_reported":1753424242,"current_range_meters":19200,"station_id":"ce4bhg12rcd13ifvqf60","pricing_plan_id":"cebpf4jnsgd1na2vs0mg"},{"bike_id":"918062da-54dd-4d69-939b-4a965f6fa7f2","system_id":"levelo_inurba_marseille","lat":43.292789,"lon":5.36837,"is_reserved":false,"is_disabled":false,"rental_uris":{"android":"levelo://app?vid=918062da-54dd-4d69-939b-4a965f6fa7f2","ios":"levelo://app?vid=918062da-54dd-4d69-939b-4a965f6fa7f2"},"vehicle_type_id":"4","last_reported":1753424242,"current_range_meters":19200,"station_id":"","pricing_plan_id":"cebpf4jnsgd1na2vs0mg"},{"bike_id":"e960d729-c1cc-459a-ae99-59e3377514e5","system_id":"levelo_inurba_marseille","lat":43.23965,"lon":5.36625,"is_reserved":false,"is_disabled":false,"rental_uris":{"android":"levelo://app?vid=e960d729-c1cc-459a-ae99-59e3377514e5","ios":"levelo://app?vid=e960d729-c1cc-459a-ae99-59e3377514e5"},"vehicle_type_id":"4","last_reported":1753424242,"current_range_meters":19600,"station_id":"ce4bhi12rcd13ifvqfp0","pricing_plan_id":"cebpf4jnsgd1na2vs0mg"},{"bike_id":"2aac8bf3-b0ff-4c45-aa57-60e73f9a1f6c","system_id":"levelo_inurba_marseille","lat":43.265721,"lon":5.390008,"is_reserved":false,"is_disabled":false,"rental_uris":{"android":"levelo://app?vid=2aac8bf3-b0ff-4c45-aa57-60e73f9a1f6c","ios":"levelo://app?vid=2aac8bf3-b0ff-4c45-aa57-60e73f9a1f6c"},"vehicle_type_id":"4","last_reported":1753424242,"current_range_meters":19600,"station_id":"ce4bhe12rcd13ifvqf30","pricing_plan_id":"cebpf4jnsgd1na2vs0mg"},{"bike_id":"9980706a-1f2a-41fe-9d55-0254982cf470","system_id":"levelo_inurba_marseille","lat":43.29791,"lon":5.37069,"is_reserved":false,"is_disabled":false,"rental_uris":{"android":"levelo://app?vid=9980706a-1f2a-41fe-9d55-0254982cf470","ios":"levelo://app?vid=9980706a-1f2a-41fe-9d55-0254982cf470"},"vehicle_type_id":"4","last_reported":1753424242,"current_range_meters":19600,"station_id":"ce4bgop2rcd13ifvqc1g","pricing_plan_id":"cebpf4jnsgd1na2vs0mg"},{"bike_id":"f5449828-dfeb-44a0-8352-abea387f03de","system_id":"levelo_inurba_marseille","lat":43.28156,"lon":5.42638,"is_reserved":false,"is_disabled":false,"rental_uris":{"android":"levelo://app?vid=f5449828-dfeb-44a0-8352-abea387f03de","ios":"levelo://app?vid=f5449828-dfeb-44a0-8352-abea387f03de"},"vehicle_type_id":"4","last_reported":1753424242,"current_range_meters":19600,"station_id":"ce4bhnh2rcd13ifvqgug","pricing_plan_id":"cebpf4jnsgd1na2vs0mg"},{"bike_id":"fb278dd7-23b8-467b-96ee-58e606563c70","system_id":"levelo_inurba_marseille","lat":43.2989,"lon":5.38093,"is_reserved":false,"is_disabled":false,"rental_uris":{"android":"levelo://app?vid=fb278dd7-23b8-467b-96ee-58e606563c70","ios":"levelo://app?vid=fb278dd7-23b8-467b-96ee-58e606563c70"},"vehicle_type_id":"4","last_reported":1753424242,"current_range_meters":19600,"station_id":"","pricing_plan_id":"cebpf4jnsgd1na2vs0mg"},{"bike_id":"e16dbe7d-f2c0-4679-9e71-9129db800a8d","system_id":"levelo_inurba_marseille","lat":43.25017,"lon":5.4046,"is_reserved":false,"is_disabled":false,"rental_uris":{"android":"levelo://app?vid=e16dbe7d-f2c0-4679-9e71-9129db800a8d","ios":"levelo://app?vid=e16dbe7d-f2c0-4679-9e71-9129db800a8d"},"vehicle_type_id":"4","last_reported":1753424242,"current_range_meters":19600,"station_id":"","pricing_plan_id":"cebpf4jnsgd1na2vs0mg"},{"bike_id":"2b0233f5-c5d1-4c76-a880-0f99683c9955","system_id":"levelo_inurba_marseille","lat":43.28706,"lon":5.39946,"is_reserved":false,"is_disabled":false,"rental_uris":{"android":"levelo://app?vid=2b0233f5-c5d1-4c76-a880-0f99683c9955","ios":"levelo://app?vid=2b0233f5-c5d1-4c76-a880-0f99683c9955"},"vehicle_type_id":"4","last_reported":1753424242,"current_range_meters":19600,"station_id":"","pricing_plan_id":"cebpf4jnsgd1na2vs0mg"},{"bike_id":"cf63f84e-ed54-4f98-85a8-d0f552e687fc","system_id":"levelo_inurba_marseille","lat":43.31884,"lon":5.40737,"is_reserved":false,"is_disabled":false,"rental_uris":{"android":"levelo://app?vid=cf63f84e-ed54-4f98-85a8-d0f552e687fc","ios":"levelo://app?vid=cf63f84e-ed54-4f98-85a8-d0f552e687fc"},"vehicle_type_id":"4","last_reported":1753424242,"current_range_meters":19600,"station_id":"ce4bhq12rcd13ifvqhig","pricing_plan_id":"cebpf4jnsgd1na2vs0mg"},{"bike_id":"82f1c0b8-bb78-41f7-9523-69119cd9a558","system_id":"levelo_inurba_marseille","lat":43.241651,"lon":5.364058,"is_reserved":false,"is_disabled":false,"rental_uris":{"android":"levelo://app?vid=82f1c0b8-bb78-41f7-9523-69119cd9a558","ios":"levelo://app?vid=82f1c0b8-bb78-41f7-9523-69119cd9a558"},"vehicle_type_id":"4","last_reported":1753424242,"current_range_meters":19600,"station_id":"cpo36qri1sfpv3e86is0","pricing_plan_id":"cebpf4jnsgd1na2vs0mg"},{"bike_id":"fac612d1-16e2-45d9-ab10-11b7935fddc0","system_id":"levelo_inurba_marseille","lat":43.27375,"lon":5.36254,"is_reserved":false,"is_disabled":false,"rental_uris":{"android":"levelo://app?vid=fac612d1-16e2-45d9-ab10-11b7935fddc0","ios":"levelo://app?vid=fac612d1-16e2-45d9-ab10-11b7935fddc0"},"vehicle_type_id":"4","last_reported":1753424242,"current_range_meters":19600,"station_id":"ce4bhbh2rcd13ifvqeo0","pricing_plan_id":"cebpf4jnsgd1na2vs0mg"},{"bike_id":"bd120089-590e-496c-9c90-6d1a02982638","system_id":"levelo_inurba_marseille","lat":43.292328,"lon":5.36098,"is_reserved":false,"is_disabled":true,"rental_uris":{"android":"levelo://app?vid=bd120089-590e-496c-9c90-6d1a02982638","ios":"levelo://app?vid=bd120089-590e-496c-9c90-6d1a02982638"},"vehicle_type_id":"4","last_reported":1753424242,"current_range_meters":20000,"station_id":"ce4bhbh2rcd13ifvqeqg","pricing_plan_id":"cebpf4jnsgd1na2vs0mg"},{"bike_id":"15066732-ac2c-440e-8047-58e5adb3f115","system_id":"levelo_inurba_marseille","lat":43.2953,"lon":5.37504,"is_reserved":false,"is_disabled":false,"rental_uris":{"android":"levelo://app?vid=15066732-ac2c-440e-8047-58e5adb3f115","ios":"levelo://app?vid=15066732-ac2c-440e-8047-58e5adb3f115"},"vehicle_type_id":"4","last_reported":1753424242,"current_range_meters":20000,"station_id":"ce4bgkp2rcd13ifvqbmg","pricing_plan_id":"cebpf4jnsgd1na2vs0mg"},{"bike_id":"3c6ec051-0a31-4f91-8968-0915a102c9b9","system_id":"levelo_inurba_marseille","lat":43.30612,"lon":5.37227,"is_reserved":false,"is_disabled":false,"rental_uris":{"android":"levelo://app?vid=3c6ec051-0a31-4f91-8968-0915a102c9b9","ios":"levelo://app?vid=3c6ec051-0a31-4f91-8968-0915a102c9b9"},"vehicle_type_id":"4","last_reported":1753424242,"current_range_meters":20000,"station_id":"ce4bgqh2rcd13ifvqc4g","pricing_plan_id":"cebpf4jnsgd1na2vs0mg"},{"bike_id":"f3e25e0e-1031-4e25-9ae8-6c34d526f58f","system_id":"levelo_inurba_marseille","lat":43.28576,"lon":5.39493,"is_reserved":false,"is_disabled":false,"rental_uris":{"android":"levelo://app?vid=f3e25e0e-1031-4e25-9ae8-6c34d526f58f","ios":"levelo://app?vid=f3e25e0e-1031-4e25-9ae8-6c34d526f58f"},"vehicle_type_id":"4","last_reported":1753424242,"current_range_meters":20000,"station_id":"ce4bh292rcd13ifvqdg0","pricing_plan_id":"cebpf4jnsgd1na2vs0mg"},{"bike_id":"a5f25ccf-59b9-456c-a4e7-39ee65d91d0f","system_id":"levelo_inurba_marseille","lat":43.334933,"lon":5.391493,"is_reserved":false,"is_disabled":false,"rental_uris":{"android":"levelo://app?vid=a5f25ccf-59b9-456c-a4e7-39ee65d91d0f","ios":"levelo://app?vid=a5f25ccf-59b9-456c-a4e7-39ee65d91d0f"},"vehicle_type_id":"4","last_reported":1753424242,"current_range_meters":20000,"station_id":"","pricing_plan_id":"cebpf4jnsgd1na2vs0mg"},{"bike_id":"79fc11ae-347d-4fdb-b345-d9791ff4510d","system_id":"levelo_inurba_marseille","lat":43.26049,"lon":5.39367,"is_reserved":false,"is_disabled":true,"rental_uris":{"android":"levelo://app?vid=79fc11ae-347d-4fdb-b345-d9791ff4510d","ios":"levelo://app?vid=79fc11ae-347d-4fdb-b345-d9791ff4510d"},"vehicle_type_id":"4","last_reported":1753424242,"current_range_meters":20000,"station_id":"ce4bhh92rcd13ifvqfj0","pricing_plan_id":"cebpf4jnsgd1na2vs0mg"},{"bike_id":"6b084b3f-c058-4c85-b5d3-c45727a0a64a","system_id":"levelo_inurba_marseille","lat":43.31222,"lon":5.3731,"is_reserved":false,"is_disabled":false,"rental_uris":{"android":"levelo://app?vid=6b084b3f-c058-4c85-b5d3-c45727a0a64a","ios":"levelo://app?vid=6b084b3f-c058-4c85-b5d3-c45727a0a64a"},"vehicle_type_id":"4","last_reported":1753424242,"current_range_meters":20000,"station_id":"","pricing_plan_id":"cebpf4jnsgd1na2vs0mg"},{"bike_id":"9b6ae496-9dfb-4ba0-b2c3-85586141a4c0","system_id":"levelo_inurba_marseille","lat":43.28429,"lon":5.39163,"is_reserved":false,"is_disabled":false,"rental_uris":{"android":"levelo://app?vid=9b6ae496-9dfb-4ba0-b2c3-85586141a4c0","ios":"levelo://app?vid=9b6ae496-9dfb-4ba0-b2c3-85586141a4c0"},"vehicle_type_id":"4","last_reported":1753424242,"current_range_meters":20000,"station_id":"ce4bhoh2rcd13ifvqh5g","pricing_plan_id":"cebpf4jnsgd1na2vs0mg"},{"bike_id":"a4758bd9-0b6b-4888-9305-b4a56ad8a559","system_id":"levelo_inurba_marseille","lat":43.30386,"lon":5.42478,"is_reserved":false,"is_disabled":false,"rental_uris":{"android":"levelo://app?vid=a4758bd9-0b6b-4888-9305-b4a56ad8a559","ios":"levelo://app?vid=a4758bd9-0b6b-4888-9305-b4a56ad8a559"},"vehicle_type_id":"4","last_reported":1753424242,"current_range_meters":20000,"station_id":"ce4bhoh2rcd13ifvqh6g","pricing_plan_id":"cebpf4jnsgd1na2vs0mg"},{"bike_id":"a1e9e67f-55d1-49e5-a2c3-e87f3c41fb76","system_id":"levelo_inurba_marseille","lat":43.23052,"lon":5.35499,"is_reserved":false,"is_disabled":false,"rental_uris":{"android":"levelo://app?vid=a1e9e67f-55d1-49e5-a2c3-e87f3c41fb76","ios":"levelo://app?vid=a1e9e67f-55d1-49e5-a2c3-e87f3c41fb76"},"vehicle_type_id":"4","last_reported":1753424242,"current_range_meters":20400,"station_id":"cpo3342slgdg3j2ifvpg","pricing_plan_id":"cebpf4jnsgd1na2vs0mg"},{"bike_id":"946e38c1-2fd7-4bcc-9c86-1eb176d0a73c","system_id":"levelo_inurba_marseille","lat":43.248061,"lon":5.374545,"is_reserved":false,"is_disabled":false,"rental_uris":{"android":"levelo://app?vid=946e38c1-2fd7-4bcc-9c86-1eb176d0a73c","ios":"levelo://app?vid=946e38c1-2fd7-4bcc-9c86-1eb176d0a73c"},"vehicle_type_id":"4","last_reported":1753424242,"current_range_meters":20400,"station_id":"ce4bhgh2rcd13ifvqfb0","pricing_plan_id":"cebpf4jnsgd1na2vs0mg"},{"bike_id":"0e39aa17-6d3e-46fd-85fe-e8bafbf04244","system_id":"levelo_inurba_marseille","lat":43.211926,"lon":5.35077,"is_reserved":false,"is_disabled":false,"rental_uris":{"android":"levelo://app?vid=0e39aa17-6d3e-46fd-85fe-e8bafbf04244","ios":"levelo://app?vid=0e39aa17-6d3e-46fd-85fe-e8bafbf04244"},"vehicle_type_id":"4","last_reported":1753424242,"current_range_meters":20400,"station_id":"st_cvj6sg6p6f1abm77japg","pricing_plan_id":"cebpf4jnsgd1na2vs0mg"},{"bike_id":"2b56932b-bf7f-49d4-8b73-a3c5512b95aa","system_id":"levelo_inurba_marseille","lat":43.229235,"lon":5.353875,"is_reserved":false,"is_disabled":false,"rental_uris":{"android":"levelo://app?vid=2b56932b-bf7f-49d4-8b73-a3c5512b95aa","ios":"levelo://app?vid=2b56932b-bf7f-49d4-8b73-a3c5512b95aa"},"vehicle_type_id":"4","last_reported":1753424242,"current_range_meters":20400,"station_id":"cpo3532slgdg3j2ikp40","pricing_plan_id":"cebpf4jnsgd1na2vs0mg"},{"bike_id":"4028245f-9220-4b16-804b-da1a1c90e972","system_id":"levelo_inurba_marseille","lat":43.25115,"lon":5.40317,"is_reserved":false,"is_disabled":false,"rental_uris":{"android":"levelo://app?vid=4028245f-9220-4b16-804b-da1a1c90e972","ios":"levelo://app?vid=4028245f-9220-4b16-804b-da1a1c90e972"},"vehicle_type_id":"4","last_reported":1753424242,"current_range_meters":20400,"station_id":"ce4bhlh2rcd13ifvqgig","pricing_plan_id":"cebpf4jnsgd1na2vs0mg"},{"bike_id":"2eee3cc3-8307-4686-ab2d-5018248f4684","system_id":"levelo_inurba_marseille","lat":43.29275,"lon":5.40137,"is_reserved":false,"is_disabled":false,"rental_uris":{"android":"levelo://app?vid=2eee3cc3-8307-4686-ab2d-5018248f4684","ios":"levelo://app?vid=2eee3cc3-8307-4686-ab2d-5018248f4684"},"vehicle_type_id":"4","last_reported":1753424242,"current_range_meters":20400,"station_id":"ce4bh312rcd13ifvqdk0","pricing_plan_id":"cebpf4jnsgd1na2vs0mg"},{"bike_id":"d224e660-ee59-4eb2-ac4f-58e9e006b117","system_id":"levelo_inurba_marseille","lat":43.26555,"lon":5.372795,"is_reserved":false,"is_disabled":false,"rental_uris":{"android":"levelo://app?vid=d224e660-ee59-4eb2-ac4f-58e9e006b117","ios":"levelo://app?vid=d224e660-ee59-4eb2-ac4f-58e9e006b117"},"vehicle_type_id":"4","last_reported":1753424242,"current_range_meters":20400,"station_id":"ce4bhg12rcd13ifvqf70","pricing_plan_id":"cebpf4jnsgd1na2vs0mg"},{"bike_id":"f546b53c-1713-42a5-9c10-cb9255cefd12","system_id":"levelo_inurba_marseille","lat":43.27961,"lon":5.3871,"is_reserved":false,"is_disabled":false,"rental_uris":{"android":"levelo://app?vid=f546b53c-1713-42a5-9c10-cb9255cefd12","ios":"levelo://app?vid=f546b53c-1713-42a5-9c10-cb9255cefd12"},"vehicle_type_id":"4","last_reported":1753424242,"current_range_meters":20400,"station_id":"ce4bhg12rcd13ifvqf80","pricing_plan_id":"cebpf4jnsgd1na2vs0mg"},{"bike_id":"337f9127-6c63-43e2-88a2-fcda61e2e9e0","system_id":"levelo_inurba_marseille","lat":43.29005,"lon":5.35603,"is_reserved":false,"is_disabled":false,"rental_uris":{"android":"levelo://app?vid=337f9127-6c63-43e2-88a2-fcda61e2e9e0","ios":"levelo://app?vid=337f9127-6c63-43e2-88a2-fcda61e2e9e0"},"vehicle_type_id":"4","last_reported":1753424242,"current_range_meters":20400,"station_id":"ce4bhb92rcd13ifvqen0","pricing_plan_id":"cebpf4jnsgd1na2vs0mg"},{"bike_id":"c842c871-a535-4b6c-bfbf-b04087327c30","system_id":"levelo_inurba_marseille","lat":43.26226,"lon":5.404542,"is_reserved":false,"is_disabled":false,"rental_uris":{"android":"levelo://app?vid=c842c871-a535-4b6c-bfbf-b04087327c30","ios":"levelo://app?vid=c842c871-a535-4b6c-bfbf-b04087327c30"},"vehicle_type_id":"4","last_reported":1753424242,"current_range_meters":20400,"station_id":"ce4bhmh2rcd13ifvqgmg","pricing_plan_id":"cebpf4jnsgd1na2vs0mg"},{"bike_id":"474e4baa-ceae-469f-9980-6214e775f285","system_id":"levelo_inurba_marseille","lat":43.32485,"lon":5.36553,"is_reserved":false,"is_disabled":false,"rental_uris":{"android":"levelo://app?vid=474e4baa-ceae-469f-9980-6214e775f285","ios":"levelo://app?vid=474e4baa-ceae-469f-9980-6214e775f285"},"vehicle_type_id":"4","last_reported":1753424242,"current_range_meters":20400,"station_id":"ce4bhs12rcd13ifvqhvg","pricing_plan_id":"cebpf4jnsgd1na2vs0mg"},{"bike_id":"cae6cc05-c2fd-4471-8f2a-e2bd812f99a1","system_id":"levelo_inurba_marseille","lat":43.31132,"lon":5.37751,"is_reserved":false,"is_disabled":false,"rental_uris":{"android":"levelo://app?vid=cae6cc05-c2fd-4471-8f2a-e2bd812f99a1","ios":"levelo://app?vid=cae6cc05-c2fd-4471-8f2a-e2bd812f99a1"},"vehicle_type_id":"4","last_reported":1753424242,"current_range_meters":20400,"station_id":"ce4bgt92rcd13ifvqcg0","pricing_plan_id":"cebpf4jnsgd1na2vs0mg"},{"bike_id":"050440bb-3168-4cb0-ae6c-d6ceb17e5b87","system_id":"levelo_inurba_marseille","lat":43.301474,"lon":5.380918,"is_reserved":false,"is_disabled":false,"rental_uris":{"android":"levelo://app?vid=050440bb-3168-4cb0-ae6c-d6ceb17e5b87","ios":"levelo://app?vid=050440bb-3168-4cb0-ae6c-d6ceb17e5b87"},"vehicle_type_id":"4","last_reported":1753424242,"current_range_meters":20400,"station_id":"ce4bgjp2rcd13ifvqbh0","pricing_plan_id":"cebpf4jnsgd1na2vs0mg"},{"bike_id":"0a72995e-9e08-494f-86d7-27bf0917ddd8","system_id":"levelo_inurba_marseille","lat":43.29015,"lon":5.37229,"is_reserved":false,"is_disabled":false,"rental_uris":{"android":"levelo://app?vid=0a72995e-9e08-494f-86d7-27bf0917ddd8","ios":"levelo://app?vid=0a72995e-9e08-494f-86d7-27bf0917ddd8"},"vehicle_type_id":"4","last_reported":1753424242,"current_range_meters":20800,"station_id":"","pricing_plan_id":"cebpf4jnsgd1na2vs0mg"},{"bike_id":"63196e63-eea9-455a-b947-ee2a8b901e38","system_id":"levelo_inurba_marseille","lat":43.33775,"lon":5.37448,"is_reserved":false,"is_disabled":false,"rental_uris":{"android":"levelo://app?vid=63196e63-eea9-455a-b947-ee2a8b901e38","ios":"levelo://app?vid=63196e63-eea9-455a-b947-ee2a8b901e38"},"vehicle_type_id":"4","last_reported":1753424242,"current_range_meters":20800,"station_id":"","pricing_plan_id":"cebpf4jnsgd1na2vs0mg"},{"bike_id":"69a78400-a47a-4b16-9b5f-ec82fc40f629","system_id":"levelo_inurba_marseille","lat":43.31001,"lon":5.37945,"is_reserved":false,"is_disabled":false,"rental_uris":{"android":"levelo://app?vid=69a78400-a47a-4b16-9b5f-ec82fc40f629","ios":"levelo://app?vid=69a78400-a47a-4b16-9b5f-ec82fc40f629"},"vehicle_type_id":"4","last_reported":1753424242,"current_range_meters":20800,"station_id":"","pricing_plan_id":"cebpf4jnsgd1na2vs0mg"},{"bike_id":"278f387b-351f-4d37-9644-cbe879c5a869","system_id":"levelo_inurba_marseille","lat":43.32472,"lon":5.36557,"is_reserved":false,"is_disabled":true,"rental_uris":{"android":"levelo://app?vid=278f387b-351f-4d37-9644-cbe879c5a869","ios":"levelo://app?vid=278f387b-351f-4d37-9644-cbe879c5a869"},"vehicle_type_id":"4","last_reported":1753424242,"current_range_meters":20800,"station_id":"ce4bhs12rcd13ifvqhvg","pricing_plan_id":"cebpf4jnsgd1na2vs0mg"},{"bike_id":"e2719639-5303-4b93-ac65-7f01c2259f41","system_id":"levelo_inurba_marseille","lat":43.3032,"lon":5.38142,"is_reserved":false,"is_disabled":false,"rental_uris":{"android":"levelo://app?vid=e2719639-5303-4b93-ac65-7f01c2259f41","ios":"levelo://app?vid=e2719639-5303-4b93-ac65-7f01c2259f41"},"vehicle_type_id":"4","last_reported":1753424242,"current_range_meters":20800,"station_id":"","pricing_plan_id":"cebpf4jnsgd1na2vs0mg"},