{"last_updated":1748859097,"ttl":60,"version":"2.2","data":{"bikes":[{"bike_id":"55d42eeb-6b71-4987-a0f2-3d758b10d43e","system_id":"levelo_inurba_marseille","lat":43.33771,"lon":5.37424,"is_reserved":false,"is_disabled":true,"rental_uris":{"android":"levelo://app?vid=55d42eeb-6b71-4987-a0f2-3d758b10d43e","ios":"levelo://app?vid=55d42eeb-6b71-4987-a0f2-3d758b10d43e"},"vehicle_type_id":"4","last_reported":1748859097,"current_range_meters":0,"station_id":"","pricing_plan_id":"cebpf4jnsgd1na2vs0mg"},{"bike_id":"b7fe4621-b706-42f0-9085-4811142f84e8","system_id":"levelo_inurba_marseille","lat":43.337499,"lon":5.374469,"is_reserved":false,"is_disabled":true,"rental_uris":{"android":"levelo://app?vid=b7fe4621-b706-42f0-9085-4811142f84e8","ios":"levelo://app?vid=b7fe4621-b706-42f0-9085-4811142f84e8"},"vehicle_type_id":"4","last_reported":1748859097,"current_range_meters":0,"station_id":"","pricing_plan_id":"cebpf4jnsgd1na2vs0mg"},{"bike_id":"75792891-cb01-4acc-af27-ca3270df63db","system_id":"levelo_inurba_marseille","lat":43.337444,"lon":5.374475,"is_reserved":false,"is_disabled":true,"rental_uris":{"android":"levelo://app?vid=75792891-cb01-4acc-af27-ca3270df63db","ios":"levelo://app?vid=75792891-cb01-4acc-af27-ca3270df63db"},"vehicle_type_id":"4","last_reported":1748859097,"current_range_meters":0,"station_id":"","pricing_plan_id":"cebpf4jnsgd1na2vs0mg"},{"bike_id":"ad402f0f-3192-410c-afac-8cf064a40c6d","system_id":"levelo_inurba_marseille","lat":43.337444,"lon":5.374475,"is_reserved":false,"is_disabled":true,"rental_uris":{"android":"levelo://app?vid=ad402f0f-3192-410c-afac-8cf064a40c6d","ios":"levelo://app?vid=ad402f0f-3192-410c-afac-8cf064a40c6d"},"vehicle_type_id":"4","last_reported":1748859097,"current_range_meters":0,"station_id":"","pricing_plan_id":"cebpf4jnsgd1na2vs0mg"},{"bike_id":"5e442864-4d13-4fec-aa91-1a10b07f4d47","system_id":"levelo_inurba_marseille","lat":43.31949,"lon":5.44169,"is_reserved":false,"is_disabled":true,"rental_uris":{"android":"levelo://app?vid=5e442864-4d13-4fec-aa91-1a10b07f4d47","ios":"levelo://app?vid=5e442864-4d13-4fec-aa91-1a10b07f4d47"},"vehicle_type_id":"4","last_reported":1748859097,"current_range_meters":0,"station_id":"","pricing_plan_id":"cebpf4jnsgd1na2vs0mg"},{"bike_id":"965a1b71-066b-4ec9-961d-05f394cdc1f4","system_id":"levelo_inurba_marseille","lat":43.27918,"lon":5.35309,"is_reserved":false,"is_disabled":true,"rental_uris":{"android":"levelo://app?vid=965a1b71-066b-4ec9-961d-05f394cdc1f4","ios":"levelo://app?vid=965a1b71-066b-4ec9-961d-05f394cdc1f4"},"vehicle_type_id":"4","last_reported":1748859097,"current_range_meters":0,"station_id":"","pricing_plan_id":"cebpf4jnsgd1na2vs0mg"},{"bike_id":"7bc01dba-f4fd-42de-88d1-c1e35e31a554","system_id":"levelo_inurba_marseille","lat":43.2919,"lon":5.35792,"is_reserved":false,"is_disabled":true,"rental_uris":{"android":"levelo://app?vid=7bc01dba-f4fd-42de-88d1-c1e35e31a554","ios":"levelo://app?vid=7bc01dba-f4fd-42de-88d1-c1e35e31a554"},"vehicle_type_id":"4","last_reported":1748859097,"current_range_meters":0,"station_id":"ce4bhb12rcd13ifvqel0","pricing_plan_id":"cebpf4jnsgd1na2vs0mg"},{"bike_id":"31666243-b46a-4151-8dd7-179c93dee8dd","system_id":"levelo_inurba_marseille","lat":43.2828,"lon":5.35066,"is_reserved":false,"is_disabled":true,"rental_uris":{"android":"levelo://app?vid=31666243-b46a-4151-8dd7-179c93dee8dd","ios":"levelo://app?vid=31666243-b46a-4151-8dd7-179c93dee8dd"},"vehicle_type_id":"4","last_reported":1748859097,"current_range_meters":0,"station_id":"ce4bhbp2rcd13ifvqerg","pricing_plan_id":"cebpf4jnsgd1na2vs0mg"},{"bike_id":"af6c46ba-a17f-44ba-aad4-097e93741f28","system_id":"levelo_inurba_marseille","lat":43.23966,"lon":5.36631,"is_reserved":false,"is_disabled":true,"rental_uris":{"android":"levelo://app?vid=af6c46ba-a17f-44ba-aad4-097e93741f28","ios":"levelo://app?vid=af6c46ba-a17f-44ba-aad4-097e93741f28"},"vehicle_type_id":"4","last_reported":1748859097,"current_range_meters":0,"station_id":"ce4bhi12rcd13ifvqfp0","pricing_plan_id":"cebpf4jnsgd1na2vs0mg"},{"bike_id":"7c166ac5-92ff-44a1-b1c9-724536128e34","system_id":"levelo_inurba_marseille","lat":43.27074,"lon":5.42282,"is_reserved":false,"is_disabled":true,"rental_uris":{"android":"levelo://app?vid=7c166ac5-92ff-44a1-b1c9-724536128e34","ios":"levelo://app?vid=7c166ac5-92ff-44a1-b1c9-724536128e34"},"vehicle_type_id":"4","last_reported":1748859097,"current_range_meters":0,"station_id":"ce4bhk92rcd13ifvqgb0","pricing_plan_id":"cebpf4jnsgd1na2vs0mg"},{"bike_id":"61b830fa-16bc-45f1-8549-4baf4e8fda9a","system_id":"levelo_inurba_marseille","lat":43.23148,"lon":5.43723,"is_reserved":false,"is_disabled":true,"rental_uris":{"android":"levelo://app?vid=61b830fa-16bc-45f1-8549-4baf4e8fda9a","ios":"levelo://app?vid=61b830fa-16bc-45f1-8549-4baf4e8fda9a"},"vehicle_type_id":"4","last_reported":1748859097,"current_range_meters":0,"station_id":"ce4bhmp2rcd13ifvqgog","pricing_plan_id":"cebpf4jnsgd1na2vs0mg"},{"bike_id":"11634601-3032-45af-9779-932af61b1d37","system_id":"levelo_inurba_marseille","lat":43.22927,"lon":5.35372,"is_reserved":false,"is_disabled":true,"rental_uris":{"android":"levelo://app?vid=11634601-3032-45af-9779-932af61b1d37","ios":"levelo://app?vid=11634601-3032-45af-9779-932af61b1d37"},"vehicle_type_id":"4","last_reported":1748859097,"current_range_meters":0,"station_id":"cpo3532slgdg3j2ikp40","pricing_plan_id":"cebpf4jnsgd1na2vs0mg"},{"bike_id":"5918cbb3-51e0-41bd-bab5-21e06b0faacd","system_id":"levelo_inurba_marseille","lat":43.2174,"lon":5.34611,"is_reserved":false,"is_disabled":true,"rental_uris":{"android":"levelo://app?vid=5918cbb3-51e0-41bd-bab5-21e06b0faacd","ios":"levelo://app?vid=5918cbb3-51e0-41bd-bab5-21e06b0faacd"},"vehicle_type_id":"4","last_reported":1748859097,"current_range_meters":0,"station_id":"st_cvj6r9ubvosntc0bgbag","pricing_plan_id":"cebpf4jnsgd1na2vs0mg"},{"bike_id":"85a19ec6-a183-4a9d-9c6b-9c6ad8b963d5","system_id":"levelo_inurba_marseille","lat":43.31361,"lon":5.38486,"is_reserved":false,"is_disabled":true,"rental_uris":{"android":"levelo://app?vid=85a19ec6-a183-4a9d-9c6b-9c6ad8b963d5","ios":"levelo://app?vid=85a19ec6-a183-4a9d-9c6b-9c6ad8b963d5"},"vehicle_type_id":"4","last_reported":1748859097,"current_range_meters":400,"station_id":"ce4bgt92rcd13ifvqcf0","pricing_plan_id":"cebpf4jnsgd1na2vs0mg"},{"bike_id":"9163dfb7-22b8-4ff2-9949-63c9df0131f5","system_id":"levelo_inurba_marseille","lat":43.29305,"lon":5.3717,"is_reserved":false,"is_disabled":true,"rental_uris":{"android":"levelo://app?vid=9163dfb7-22b8-4ff2-9949-63c9df0131f5","ios":"levelo://app?vid=9163dfb7-22b8-4ff2-9949-63c9df0131f5"},"vehicle_type_id":"4","last_reported":1748859097,"current_range_meters":1200,"station_id":"ce4bgh92rcd13ifvqb40","pricing_plan_id":"cebpf4jnsgd1na2vs0mg"},{"bike_id":"0d079269-c587-4e20-9bac-6eb5dde4c2b8","system_id":"levelo_inurba_marseille","lat":43.31349,"lon":5.36713,"is_reserved":false,"is_disabled":true,"rental_uris":{"android":"levelo://app?vid=0d079269-c587-4e20-9bac-6eb5dde4c2b8","ios":"levelo://app?vid=0d079269-c587-4e20-9bac-6eb5dde4c2b8"},"vehicle_type_id":"4","last_reported":1748859097,"current_range_meters":1200,"station_id":"ce4bgr92rcd13ifvqc6g","pricing_plan_id":"cebpf4jnsgd1na2vs0mg"},{"bike_id":"8b886fb9-2c64-4273-bb29-5185fdaa0105","system_id":"levelo_inurba_marseille","lat":43.24538,"lon":5.39521,"is_reserved":false,"is_disabled":true,"rental_uris":{"android":"levelo://app?vid=8b886fb9-2c64-4273-bb29-5185fdaa0105","ios":"levelo://app?vid=8b886fb9-2c64-4273-bb29-5185fdaa0105"},"vehicle_type_id":"4","last_reported":1748859097,"current_range_meters":1600,"station_id":"ce4bhlp2rcd13ifvqgjg","pricing_plan_id":"cebpf4jnsgd1na2vs0mg"},{"bike_id":"4ffe6c66-badf-4949-8199-bc12cccdee22","system_id":"levelo_inurba_marseille","lat":43.25584,"lon":5.38235,"is_reserved":false,"is_disabled":false,"rental_uris":{"android":"levelo://app?vid=4ffe6c66-badf-4949-8199-bc12cccdee22","ios":"levelo://app?vid=4ffe6c66-badf-4949-8199-bc12cccdee22"},"vehicle_type_id":"4","last_reported":1748859097,"current_range_meters":3200,"station_id":"ce4bhih2rcd13ifvqfs0","pricing_plan_id":"cebpf4jnsgd1na2vs0mg"},{"bike_id":"59ae54bb-ea00-4726-8c0c-f78e033628de","system_id":"levelo_inurba_marseille","lat":43.320069,"lon":5.394663,"is_reserved":false,"is_disabled":false,"rental_uris":{"android":"levelo://app?vid=59ae54bb-ea00-4726-8c0c-f78e033628de","ios":"levelo://app?vid=59ae54bb-ea00-4726-8c0c-f78e033628de"},"vehicle_type_id":"4","last_reported":1748859097,"current_range_meters":3600,"station_id":"","pricing_plan_id":"cebpf4jnsgd1na2vs0mg"},{"bike_id":"f8008fa3-6973-43c1-a96a-8ecf5d13a18a","system_id":"levelo_inurba_marseille","lat":43.29871,"lon":5.39724,"is_reserved":false,"is_disabled":false,"rental_uris":{"android":"levelo://app?vid=f8008fa3-6973-43c1-a96a-8ecf5d13a18a","ios":"levelo://app?vid=f8008fa3-6973-43c1-a96a-8ecf5d13a18a"},"vehicle_type_id":"4","last_reported":1748859097,"current_range_meters":3600,"station_id":"ce4bh0h2rcd13ifvqd50","pricing_plan_id":"cebpf4jnsgd1na2vs0mg"},{"bike_id":"a5e0f0c4-d8ed-44d7-9e60-b784468ea814","system_id":"levelo_inurba_marseille","lat":43.268033,"lon":5.402617,"is_reserved":false,"is_disabled":false,"rental_uris":{"android":"levelo://app?vid=a5e0f0c4-d8ed-44d7-9e60-b784468ea814","ios":"levelo://app?vid=a5e0f0c4-d8ed-44d7-9e60-b784468ea814"},"vehicle_type_id":"4","last_reported":1748859097,"current_range_meters":3600,"station_id":"ce501612rcd8frsf0b60","pricing_plan_id":"cebpf4jnsgd1na2vs0mg"},{"bike_id":"e8d6fcfa-ab71-415a-b641-c97548504345","system_id":"levelo_inurba_marseille","lat":43.30952,"lon":5.39042,"is_reserved":false,"is_disabled":false,"rental_uris":{"android":"levelo://app?vid=e8d6fcfa-ab71-415a-b641-c97548504345","ios":"levelo://app?vid=e8d6fcfa-ab71-415a-b641-c97548504345"},"vehicle_type_id":"4","last_reported":1748859097,"current_range_meters":4000,"station_id":"ce4bgup2rcd13ifvqco0","pricing_plan_id":"cebpf4jnsgd1na2vs0mg"},{"bike_id":"27cfbc72-49aa-4907-99ce-68c87da3ebe5","system_id":"levelo_inurba_marseille","lat":43.30142,"lon":5.38776,"is_reserved":false,"is_disabled":false,"rental_uris":{"android":"levelo://app?vid=27cfbc72-49aa-4907-99ce-68c87da3ebe5","ios":"levelo://app?vid=27cfbc72-49aa-4907-99ce-68c87da3ebe5"},"vehicle_type_id":"4","last_reported":1748859097,"current_range_meters":4400,"station_id":"ce4bghh2rcd13ifvqb60","pricing_plan_id":"cebpf4jnsgd1na2vs0mg"},{"bike_id":"b4c71782-f5cd-436a-a99d-2ef12b10087c","system_id":"levelo_inurba_marseille","lat":43.31365,"lon":5.38488,"is_reserved":false,"is_disabled":false,"rental_uris":{"android":"levelo://app?vid=b4c71782-f5cd-436a-a99d-2ef12b10087c","ios":"levelo://app?vid=b4c71782-f5cd-436a-a99d-2ef12b10087c"},"vehicle_type_id":"4","last_reported":1748859097,"current_range_meters":4400,"station_id":"ce4bgt92rcd13ifvqcf0","pricing_plan_id":"cebpf4jnsgd1na2vs0mg"},{"bike_id":"1340b4f4-ccf0-4862-b4af-da819359c51f","system_id":"levelo_inurba_marseille","lat":43.31691,"lon":5.40472,"is_reserved":false,"is_disabled":false,"rental_uris":{"android":"levelo://app?vid=1340b4f4-ccf0-4862-b4af-da819359c51f","ios":"levelo://app?vid=1340b4f4-ccf0-4862-b4af-da819359c51f"},"vehicle_type_id":"4","last_reported":1748859097,"current_range_meters":4400,"station_id":"ce4bh012rcd13ifvqd00","pricing_plan_id":"cebpf4jnsgd1na2vs0mg"},{"bike_id":"75dd3e69-3f22-42f7-a00b-32c3e9ed003a","system_id":"levelo_inurba_marseille","lat":43.251234,"lon":5.403188,"is_reserved":false,"is_disabled":false,"rental_uris":{"android":"levelo://app?vid=75dd3e69-3f22-42f7-a00b-32c3e9ed003a","ios":"levelo://app?vid=75dd3e69-3f22-42f7-a00b-32c3e9ed003a"},"vehicle_type_id":"4","last_reported":1748859097,"current_range_meters":4800,"station_id":"ce4bhlh2rcd13ifvqgig","pricing_plan_id":"cebpf4jnsgd1na2vs0mg"},{"bike_id":"6c740bfb-f5dd-4666-9b38-98f518bf5d63","system_id":"levelo_inurba_marseille","lat":43.273773,"lon":5.362573,"is_reserved":false,"is_disabled":false,"rental_uris":{"android":"levelo://app?vid=6c740bfb-f5dd-4666-9b38-98f518bf5d63","ios":"levelo://app?vid=6c740bfb-f5dd-4666-9b38-98f518bf5d63"},"vehicle_type_id":"4","last_reported":1748859097,"current_range_meters":5600,"station_id":"ce4bhbh2rcd13ifvqeo0","pricing_plan_id":"cebpf4jnsgd1na2vs0mg"},{"bike_id":"44937502-9331-4b1f-8bb8-88c6881f7115","system_id":"levelo_inurba_marseille","lat":43.2455,"lon":5.39523,"is_reserved":false,"is_disabled":false,"rental_uris":{"android":"levelo://app?vid=44937502-9331-4b1f-8bb8-88c6881f7115","ios":"levelo://app?vid=44937502-9331-4b1f-8bb8-88c6881f7115"},"vehicle_type_id":"4","last_reported":1748859097,"current_range_meters":5600,"station_id":"ce4bhlp2rcd13ifvqgjg","pricing_plan_id":"cebpf4jnsgd1na2vs0mg"},{"bike_id":"f2d24b18-d214-4b88-99a9-26c99e5fd23c","system_id":"levelo_inurba_marseille","lat":43.24622,"lon":5.39324,"is_reserved":false,"is_disabled":false,"rental_uris":{"android":"levelo://app?vid=f2d24b18-d214-4b88-99a9-26c99e5fd23c","ios":"levelo://app?vid=f2d24b18-d214-4b88-99a9-26c99e5fd23c"},"vehicle_type_id":"4","last_reported":1748859097,"current_range_meters":6400,"station_id":"","pricing_plan_id":"cebpf4jnsgd1na2vs0mg"},{"bike_id":"74c0caba-771c-43e8-9de4-da68588f6509","system_id":"levelo_inurba_marseille","lat":43.316853,"lon":5.404708,"is_reserved":false,"is_disabled":false,"rental_uris":{"android":"levelo://app?vid=74c0caba-771c-43e8-9de4-da68588f6509","ios":"levelo://app?vid=74c0caba-771c-43e8-9de4-da68588f6509"},"vehicle_type_id":"4","last_reported":1748859097,"current_range_meters":6400,"station_id":"ce4bh012rcd13ifvqd00","pricing_plan_id":"cebpf4jnsgd1na2vs0mg"},{"bike_id":"6608f17e-7e02-4018-affd-922191c82b2f","system_id":"levelo_inurba_marseille","lat":43.29231,"lon":5.360527,"is_reserved":false,"is_disabled":false,"rental_uris":{"android":"levelo://app?vid=6608f17e-7e02-4018-affd-922191c82b2f","ios":"levelo://app?vid=6608f17e-7e02-4018-affd-922191c82b2f"},"vehicle_type_id":"4","last_reported":1748859097,"current_range_meters":6400,"station_id":"ce4bhbh2rcd13ifvqeqg","pricing_plan_id":"cebpf4jnsgd1na2vs0mg"},{"bike_id":"154ce390-9344-4e61-8daf-20af088144a1","system_id":"levelo_inurba_marseille","lat":43.33608,"lon":5.41042,"is_reserved":false,"is_disabled":false,"rental_uris":{"android":"levelo://app?vid=154ce390-9344-4e61-8daf-20af088144a1","ios":"levelo://app?vid=154ce390-9344-4e61-8daf-20af088144a1"},"vehicle_type_id":"4","last_reported":1748859097,"current_range_meters":6400,"station_id":"ce4bhqh2rcd13ifvqhmg","pricing_plan_id":"cebpf4jnsgd1na2vs0mg"},{"bike_id":"5ef067e7-b281-4ef9-ad2a-1c6b02a54c04","system_id":"levelo_inurba_marseille","lat":43.3193,"lon":5.44059,"is_reserved":false,"is_disabled":false,"rental_uris":{"android":"levelo://app?vid=5ef067e7-b281-4ef9-ad2a-1c6b02a54c04","ios":"levelo://app?vid=5ef067e7-b281-4ef9-ad2a-1c6b02a54c04"},"vehicle_type_id":"4","last_reported":1748859097,"current_range_meters":6800,"station_id":"","pricing_plan_id":"cebpf4jnsgd1na2vs0mg"},{"bike_id":"28efabed-853b-4429-aae7-48463f59a794","system_id":"levelo_inurba_marseille","lat":43.24903,"lon":5.39735,"is_reserved":false,"is_disabled":false,"rental_uris":{"android":"levelo://app?vid=28efabed-853b-4429-aae7-48463f59a794","ios":"levelo://app?vid=28efabed-853b-4429-aae7-48463f59a794"},"vehicle_type_id":"4","last_reported":1748859097,"current_range_meters":7200,"station_id":"","pricing_plan_id":"cebpf4jnsgd1na2vs0mg"},{"bike_id":"999388a7-0db4-4bd2-b012-5be22a589fe7","system_id":"levelo_inurba_marseille","lat":43.27578,"lon":5.37775,"is_reserved":false,"is_disabled":false,"rental_uris":{"android":"levelo://app?vid=999388a7-0db4-4bd2-b012-5be22a589fe7","ios":"levelo://app?vid=999388a7-0db4-4bd2-b012-5be22a589fe7"},"vehicle_type_id":"4","last_reported":1748859097,"current_range_meters":7200,"station_id":"","pricing_plan_id":"cebpf4jnsgd1na2vs0mg"},{"bike_id":"e61c98c1-2097-47f5-ba8f-fad807b0f3be","system_id":"levelo_inurba_marseille","lat":43.32868,"lon":5.40516,"is_reserved":false,"is_disabled":false,"rental_uris":{"android":"levelo://app?vid=e61c98c1-2097-47f5-ba8f-fad807b0f3be","ios":"levelo://app?vid=e61c98c1-2097-47f5-ba8f-fad807b0f3be"},"vehicle_type_id":"4","last_reported":1748859097,"current_range_meters":7200,"station_id":"","pricing_plan_id":"cebpf4jnsgd1na2vs0mg"},{"bike_id":"e210be7e-07b8-44d3-ae09-6702f28e2ae8","system_id":"levelo_inurba_marseille","lat":43.25119,"lon":5.39345,"is_reserved":false,"is_disabled":false,"rental_uris":{"android":"levelo://app?vid=e210be7e-07b8-44d3-ae09-6702f28e2ae8","ios":"levelo://app?vid=e210be7e-07b8-44d3-ae09-6702f28e2ae8"},"vehicle_type_id":"4","last_reported":1748859097,"current_range_meters":7200,"station_id":"","pricing_plan_id":"cebpf4jnsgd1na2vs0mg"},{"bike_id":"51901ec1-06ac-4a42-9729-5b1b4a369724","system_id":"levelo_inurba_marseille","lat":43.29801,"lon":5.38104,"is_reserved":false,"is_disabled":false,"rental_uris":{"android":"levelo://app?vid=51901ec1-06ac-4a42-9729-5b1b4a369724","ios":"levelo://app?vid=51901ec1-06ac-4a42-9729-5b1b4a369724"},"vehicle_type_id":"4","last_reported":1748859097,"current_range_meters":7200,"station_id":"ce4bgip2rcd13ifvqbb0","pricing_plan_id":"cebpf4jnsgd1na2vs0mg"},{"bike_id":"5e7bda08-9163-4c32-8477-1dec11d0fb46","system_id":"levelo_inurba_marseille","lat":43.2938,"lon":5.37844,"is_reserved":false,"is_disabled":false,"rental_uris":{"android":"levelo://app?vid=5e7bda08-9163-4c32-8477-1dec11d0fb46","ios":"levelo://app?vid=5e7bda08-9163-4c32-8477-1dec11d0fb46"},"vehicle_type_id":"4","last_reported":1748859097,"current_range_meters":7200,"station_id":"ce4bgjh2rcd13ifvqbf0","pricing_plan_id":"cebpf4jnsgd1na2vs0mg"},{"bike_id":"4b8e83aa-8fed-4573-b698-84553073707e","system_id":"levelo_inurba_marseille","lat":43.288676,"lon":5.358741,"is_reserved":false,"is_disabled":false,"rental_uris":{"android":"levelo://app?vid=4b8e83aa-8fed-4573-b698-84553073707e","ios":"levelo://app?vid=4b8e83aa-8fed-4573-b698-84553073707e"},"vehicle_type_id":"4","last_reported":1748859097,"current_range_meters":7200,"station_id":"ce4bhb12rcd13ifvqem0","pricing_plan_id":"cebpf4jnsgd1na2vs0mg"},{"bike_id":"371ccaa6-632d-447d-906d-f602697e0058","system_id":"levelo_inurba_marseille","lat":43.265625,"lon":5.37283,"is_reserved":false,"is_disabled":false,"rental_uris":{"android":"levelo://app?vid=371ccaa6-632d-447d-906d-f602697e0058","ios":"levelo://app?vid=371ccaa6-632d-447d-906d-f602697e0058"},"vehicle_type_id":"4","last_reported":1748859097,"current_range_meters":7200,"station_id":"ce4bhg12rcd13ifvqf70","pricing_plan_id":"cebpf4jnsgd1na2vs0mg"},{"bike_id":"9a361b21-ce49-46b8-93e9-f6eac627d597","system_id":"levelo_inurba_marseille","lat":43.23192,"lon":5.39984,"is_reserved":false,"is_disabled":false,"rental_uris":{"android":"levelo://app?vid=9a361b21-ce49-46b8-93e9-f6eac627d597","ios":"levelo://app?vid=9a361b21-ce49-46b8-93e9-f6eac627d597"},"vehicle_type_id":"4","last_reported":1748859097,"current_range_meters":7200,"station_id":"ce4bhn12rcd13ifvqgqg","pricing_plan_id":"cebpf4jnsgd1na2vs0mg"},{"bike_id":"cf0fef15-30cc-4aec-af7e-d4f702d37bbd","system_id":"levelo_inurba_marseille","lat":43.336,"lon":5.40997,"is_reserved":false,"is_disabled":false,"rental_uris":{"android":"levelo://app?vid=cf0fef15-30cc-4aec-af7e-d4f702d37bbd","ios":"levelo://app?vid=cf0fef15-30cc-4aec-af7e-d4f702d37bbd"},"vehicle_type_id":"4","last_reported":1748859097,"current_range_meters":7200,"station_id":"ce4bhqh2rcd13ifvqhmg","pricing_plan_id":"cebpf4jnsgd1na2vs0mg"},{"bike_id":"228397f0-f948-41be-8ad5-419d106fe459","system_id":"levelo_inurba_marseille","lat":43.2811,"lon":5.37855,"is_reserved":false,"is_disabled":false,"rental_uris":{"android":"levelo://app?vid=228397f0-f948-41be-8ad5-419d106fe459","ios":"levelo://app?vid=228397f0-f948-41be-8ad5-419d106fe459"},"vehicle_type_id":"4","last_reported":1748859097,"current_range_meters":8000,"station_id":"ce4bha12rcd13ifvqee0","pricing_plan_id":"cebpf4jnsgd1na2vs0mg"},{"bike_id":"07f7db02-0095-40d9-bff8-1639afaaeb8b","system_id":"levelo_inurba_marseille","lat":43.29005,"lon":5.35608,"is_reserved":false,"is_disabled":false,"rental_uris":{"android":"levelo://app?vid=07f7db02-0095-40d9-bff8-1639afaaeb8b","ios":"levelo://app?vid=07f7db02-0095-40d9-bff8-1639afaaeb8b"},"vehicle_type_id":"4","last_reported":1748859097,"current_range_meters":8000,"station_id":"ce4bhb92rcd13ifvqen0","pricing_plan_id":"cebpf4jnsgd1na2vs0mg"},{"bike_id":"2f8b1b73-0680-45a5-afe8-554c89bb9986","system_id":"levelo_inurba_marseille","lat":43.25945,"lon":5.40883,"is_reserved":false,"is_disabled":false,"rental_uris":{"android":"levelo://app?vid=2f8b1b73-0680-45a5-afe8-554c89bb9986","ios":"levelo://app?vid=2f8b1b73-0680-45a5-afe8-554c89bb9986"},"vehicle_type_id":"4","last_reported":1748859097,"current_range_meters":8000,"station_id":"ce4bhm92rcd13ifvqglg","pricing_plan_id":"cebpf4jnsgd1na2vs0mg"},{"bike_id":"7bafe845-9503-4b20-8bcf-46d264ff85af","system_id":"levelo_inurba_marseille","lat":43.2808,"lon":5.39657,"is_reserved":false,"is_disabled":false,"rental_uris":{"android":"levelo://app?vid=7bafe845-9503-4b20-8bcf-46d264ff85af","ios":"levelo://app?vid=7bafe845-9503-4b20-8bcf-46d264ff85af"},"vehicle_type_id":"4","last_reported":1748859097,"current_range_meters":8000,"station_id":"ce4bho12rcd13ifvqh2g","pricing_plan_id":"cebpf4jnsgd1na2vs0mg"},{"bike_id":"bd32732a-0231-4c0c-8272-75d9e5d5101a","system_id":"levelo_inurba_marseille","lat":43.33042,"lon":5.39029,"is_reserved":false,"is_disabled":false,"rental_uris":{"android":"levelo://app?vid=bd32732a-0231-4c0c-8272-75d9e5d5101a","ios":"levelo://app?vid=bd32732a-0231-4c0c-8272-75d9e5d5101a"},"vehicle_type_id":"4","last_reported":1748859097,"current_range_meters":8000,"station_id":"ce4bhr92rcd13ifvqhrg","pricing_plan_id":"cebpf4jnsgd1na2vs0mg"},{"bike_id":"21ff3fb6-d282-4e8f-8c65-749c73573e4b","system_id":"levelo_inurba_marseille","lat":43.33726,"lon":5.391854,"is_reserved":false,"is_disabled":false,"rental_uris":{"android":"levelo://app?vid=21ff3fb6-d282-4e8f-8c65-749c73573e4b","ios":"levelo://app?vid=21ff3fb6-d282-4e8f-8c65-749c73573e4b"},"vehicle_type_id":"4","last_reported":1748859097,"current_range_meters":8000,"station_id":"ce4bhr92rcd13ifvqhsg","pricing_plan_id":"cebpf4jnsgd1na2vs0mg"},{"bike_id":"d95a8927-9413-4ee6-b8dd-9b96d5af8d5e","system_id":"levelo_inurba_marseille","lat":43.28343,"lon":5.35052,"is_reserved":false,"is_disabled":false,"rental_uris":{"android":"levelo://app?vid=d95a8927-9413-4ee6-b8dd-9b96d5af8d5e","ios":"levelo://app?vid=d95a8927-9413-4ee6-b8dd-9b96d5af8d5e"},"vehicle_type_id":"4","last_reported":1748859097,"current_range_meters":8400,"station_id":"","pricing_plan_id":"cebpf4jnsgd1na2vs0mg"},{"bike_id":"c205edc8-d0d2-4cb7-a8e7-8248baf001bc","system_id":"levelo_inurba_marseille","lat":43.25399,"lon":5.42407,"is_reserved":false,"is_disabled":false,"rental_uris":{"android":"levelo://app?vid=c205edc8-d0d2-4cb7-a8e7-8248baf001bc","ios":"levelo://app?vid=c205edc8-d0d2-4cb7-a8e7-8248baf001bc"},"vehicle_type_id":"4","last_reported":1748859097,"current_range_meters":8400,"station_id":"","pricing_plan_id":"cebpf4jnsgd1na2vs0mg"},{"bike_id":"f1d13554-ad01-461a-a2b1-01234f56d9a5","system_id":"levelo_inurba_marseille","lat":43.3121,"lon":5.40159,"is_reserved":false,"is_disabled":false,"rental_uris":{"android":"levelo://app?vid=f1d13554-ad01-461a-a2b1-01234f56d9a5","ios":"levelo://app?vid=f1d13554-ad01-461a-a2b1-01234f56d9a5"},"vehicle_type_id":"4","last_reported":1748859097,"current_range_meters":8400,"station_id":"","pricing_plan_id":"cebpf4jnsgd1na2vs0mg"},{"bike_id":"a823f70a-9d9f-4d67-81f9-c74df13f893c","system_id":"levelo_inurba_marseille","lat":43.24803,"lon":5.37459,"is_reserved":false,"is_disabled":false,"rental_uris":{"android":"levelo://app?vid=a823f70a-9d9f-4d67-81f9-c74df13f893c","ios":"levelo://app?vid=a823f70a-9d9f-4d67-81f9-c74df13f893c"},"vehicle_type_id":"4","last_reported":1748859097,"current_range_meters":8400,"station_id":"ce4bhgh2rcd13ifvqfb0","pricing_plan_id":"cebpf4jnsgd1na2vs0mg"},{"bike_id":"1e3d4f00-1981-46ed-90ec-93f998d719d4","system_id":"levelo_inurba_marseille","lat":43.23967,"lon":5.36623,"is_reserved":false,"is_disabled":false,"rental_uris":{"android":"levelo://app?vid=1e3d4f00-1981-46ed-90ec-93f998d719d4","ios":"levelo://app?vid=1e3d4f00-1981-46ed-90ec-93f998d719d4"},"vehicle_type_id":"4","last_reported":1748859097,"current_range_meters":8400,"station_id":"ce4bhi12rcd13ifvqfp0","pricing_plan_id":"cebpf4jnsgd1na2vs0mg"},{"bike_id":"52138315-f13b-4871-ab78-9e5155a1008c","system_id":"levelo_inurba_marseille","lat":43.32286,"lon":5.38276,"is_reserved":false,"is_disabled":false,"rental_uris":{"android":"levelo://app?vid=52138315-f13b-4871-ab78-9e5155a1008c","ios":"levelo://app?vid=52138315-f13b-4871-ab78-9e5155a1008c"},"vehicle_type_id":"4","last_reported":1748859097,"current_range_meters":8400,"station_id":"ce4bhr12rcd13ifvqhqg","pricing_plan_id":"cebpf4jnsgd1na2vs0mg"},{"bike_id":"e00ddbaa-c0aa-4ac8-9853-cbc8f48f8e70","system_id":"levelo_inurba_marseille","lat":43.29272,"lon":5.38431,"is_reserved":false,"is_disabled":false,"rental_uris":{"android":"levelo://app?vid=e00ddbaa-c0aa-4ac8-9853-cbc8f48f8e70","ios":"levelo://app?vid=e00ddbaa-c0aa-4ac8-9853-cbc8f48f8e70"},"vehicle_type_id":"4","last_reported":1748859097,"current_range_meters":8800,"station_id":"ce4bh692rcd13ifvqea0","pricing_plan_id":"cebpf4jnsgd1na2vs0mg"},{"bike_id":"964eeff6-aa47-4e2b-b213-51d9f06bb6a2","system_id":"levelo_inurba_marseille","lat":43.275648,"lon":5.384248,"is_reserved":false,"is_disabled":false,"rental_uris":{"android":"levelo://app?vid=964eeff6-aa47-4e2b-b213-51d9f06bb6a2","ios":"levelo://app?vid=964eeff6-aa47-4e2b-b213-51d9f06bb6a2"},"vehicle_type_id":"4","last_reported":1748859097,"current_range_meters":8800,"station_id":"ce4bhh92rcd13ifvqfi0","pricing_plan_id":"cebpf4jnsgd1na2vs0mg"},{"bike_id":"7b44173b-5d11-4c0b-8d16-0982084d4bdb","system_id":"levelo_inurba_marseille","lat":43.337255,"lon":5.391831,"is_reserved":false,"is_disabled":false,"rental_uris":{"android":"levelo://app?vid=7b44173b-5d11-4c0b-8d16-0982084d4bdb","ios":"levelo://app?vid=7b44173b-5d11-4c0b-8d16-0982084d4bdb"},"vehicle_type_id":"4","last_reported":1748859097,"current_range_meters":8800,"station_id":"ce4bhr92rcd13ifvqhsg","pricing_plan_id":"cebpf4jnsgd1na2vs0mg"},{"bike_id":"f5a90625-b7e8-48a8-90c6-777efe255a32","system_id":"levelo_inurba_marseille","lat":43.2514,"lon":5.40975,"is_reserved":false,"is_disabled":false,"rental_uris":{"android":"levelo://app?vid=f5a90625-b7e8-48a8-90c6-777efe255a32","ios":"levelo://app?vid=f5a90625-b7e8-48a8-90c6-777efe255a32"},"vehicle_type_id":"4","last_reported":1748859097,"current_range_meters":9200,"station_id":"","pricing_plan_id":"cebpf4jnsgd1na2vs0mg"},{"bike_id":"77520d45-03bf-4b26-9f9b-8ac6c162ce6b","system_id":"levelo_inurba_marseille","lat":43.24352,"lon":5.41146,"is_reserved":false,"is_disabled":false,"rental_uris":{"android":"levelo://app?vid=77520d45-03bf-4b26-9f9b-8ac6c162ce6b","ios":"levelo://app?vid=77520d45-03bf-4b26-9f9b-8ac6c162ce6b"},"vehicle_type_id":"4","last_reported":1748859097,"current_range_meters":9200,"station_id":"","pricing_plan_id":"cebpf4jnsgd1na2vs0mg"},{"bike_id":"3c714906-76f2-42cc-b185-ab332f5426c2","system_id":"levelo_inurba_marseille","lat":43.23086,"lon":5.40172,"is_reserved":false,"is_disabled":false,"rental_uris":{"android":"levelo://app?vid=3c714906-76f2-42cc-b185-ab332f5426c2","ios":"levelo://app?vid=3c714906-76f2-42cc-b185-ab332f5426c2"},"vehicle_type_id":"4","last_reported":1748859097,"current_range_meters":9200,"station_id":"","pricing_plan_id":"cebpf4jnsgd1na2vs0mg"},{"bike_id":"d787cfdb-50c2-451d-8448-0eff07939f1e","system_id":"levelo_inurba_marseille","lat":43.231516,"lon":5.43698,"is_reserved":false,"is_disabled":false,"rental_uris":{"android":"levelo://app?vid=d787cfdb-50c2-451d-8448-0eff07939f1e","ios":"levelo://app?vid=d787cfdb-50c2-451d-8448-0eff07939f1e"},"vehicle_type_id":"4","last_reported":1748859097,"current_range_meters":9200,"station_id":"ce4bhmp2rcd13ifvqgog","pricing_plan_id":"cebpf4jnsgd1na2vs0mg"},{"bike_id":"56b8f16f-e6ba-4aab-acbd-619d8ef89793","system_id":"levelo_inurba_marseille","lat":43.23156,"lon":5.43715,"is_reserved":false,"is_disabled":false,"rental_uris":{"android":"levelo://app?vid=56b8f16f-e6ba-4aab-acbd-619d8ef89793","ios":"levelo://app?vid=56b8f16f-e6ba-4aab-acbd-619d8ef89793"},"vehicle_type_id":"4","last_reported":1748859097,"current_range_meters":9200,"station_id":"ce4bhmp2rcd13ifvqgog","pricing_plan_id":"cebpf4jnsgd1na2vs0mg"},{"bike_id":"f8c310ff-7f1e-4846-a3ed-b26bf26e087f","system_id":"levelo_inurba_marseille","lat":43.292299,"lon":5.379064,"is_reserved":false,"is_disabled":false,"rental_uris":{"android":"levelo://app?vid=f8c310ff-7f1e-4846-a3ed-b26bf26e087f","ios":"levelo://app?vid=f8c310ff-7f1e-4846-a3ed-b26bf26e087f"},"vehicle_type_id":"4","last_reported":1748859097,"current_range_meters":9600,"station_id":"","pricing_plan_id":"cebpf4jnsgd1na2vs0mg"},{"bike_id":"fb86013e-5945-4c0c-a865-ac46bbaf281c","system_id":"levelo_inurba_marseille","lat":43.292,"lon":5.39329,"is_reserved":false,"is_disabled":false,"rental_uris":{"android":"levelo://app?vid=fb86013e-5945-4c0c-a865-ac46bbaf281c","ios":"levelo://app?vid=fb86013e-5945-4c0c-a865-ac46bbaf281c"},"vehicle_type_id":"4","last_reported":1748859097,"current_range_meters":9600,"station_id":"ce4bh192rcd13ifvqdd0","pricing_plan_id":"cebpf4jnsgd1na2vs0mg"},{"bike_id":"6e4c0cf0-4188-4796-a97c-6d8440d09e53","system_id":"levelo_inurba_marseille","lat":43.29201,"lon":5.35807,"is_reserved":false,"is_disabled":false,"rental_uris":{"android":"levelo://app?vid=6e4c0cf0-4188-4796-a97c-6d8440d09e53","ios":"levelo://app?vid=6e4c0cf0-4188-4796-a97c-6d8440d09e53"},"vehicle_type_id":"4","last_reported":1748859097,"current_range_meters":9600,"station_id":"ce4bhb12rcd13ifvqel0","pricing_plan_id":"cebpf4jnsgd1na2vs0mg"},{"bike_id":"59d34537-d6f4-485c-aed3-68e74cf7b3a8","system_id":"levelo_inurba_marseille","lat":43.29196,"lon":5.35789,"is_reserved":false,"is_disabled":false,"rental_uris":{"android":"levelo://app?vid=59d34537-d6f4-485c-aed3-68e74cf7b3a8","ios":"levelo://app?vid=59d34537-d6f4-485c-aed3-68e74cf7b3a8"},"vehicle_type_id":"4","last_reported":1748859097,"current_range_meters":9600,"station_id":"ce4bhb12rcd13ifvqel0","pricing_plan_id":"cebpf4jnsgd1na2vs0mg"},{"bike_id":"aa25faf2-ffd1-4e97-b0f1-b86864b12847","system_id":"levelo_inurba_marseille","lat":43.27998,"lon":5.40006,"is_reserved":false,"is_disabled":false,"rental_uris":{"android":"levelo://app?vid=aa25faf2-ffd1-4e97-b0f1-b86864b12847","ios":"levelo://app?vid=aa25faf2-ffd1-4e97-b0f1-b86864b12847"},"vehicle_type_id":"4","last_reported":1748859097,"current_range_meters":9600,"station_id":"ce4bho92rcd13ifvqh4g","pricing_plan_id":"cebpf4jnsgd1na2vs0mg"},{"bike_id":"2bac89c7-f33a-4cc6-a96b-0dadcd1c938d","system_id":"levelo_inurba_marseille","lat":43.29688,"lon":5.37268,"is_reserved":false,"is_disabled":false,"rental_uris":{"android":"levelo://app?vid=2bac89c7-f33a-4cc6-a96b-0dadcd1c938d","ios":"levelo://app?vid=2bac89c7-f33a-4cc6-a96b-0dadcd1c938d"},"vehicle_type_id":"4","last_reported":1748859097,"current_range_meters":10000,"station_id":"ce4bgk12rcd13ifvqbj0","pricing_plan_id":"cebpf4jnsgd1na2vs0mg"},{"bike_id":"e68aff2f-2394-4cda-ae7a-630a3ea4cfd7","system_id":"levelo_inurba_marseille","lat":43.31707,"lon":5.37732,"is_reserved":false,"is_disabled":false,"rental_uris":{"android":"levelo://app?vid=e68aff2f-2394-4cda-ae7a-630a3ea4cfd7","ios":"levelo://app?vid=e68aff2f-2394-4cda-ae7a-630a3ea4cfd7"},"vehicle_type_id":"4","last_reported":1748859097,"current_range_meters":10000,"station_id":"ce4bgth2rcd13ifvqch0","pricing_plan_id":"cebpf4jnsgd1na2vs0mg"},{"bike_id":"ff1bb787-d8ab-4cc1-997c-f05cbe5511b9","system_id":"levelo_inurba_marseille","lat":43.27974,"lon":5.38736,"is_reserved":false,"is_disabled":false,"rental_uris":{"android":"levelo://app?vid=ff1bb787-d8ab-4cc1-997c-f05cbe5511b9","ios":"levelo://app?vid=ff1bb787-d8ab-4cc1-997c-f05cbe5511b9"},"vehicle_type_id":"4","last_reported":1748859097,"current_range_meters":10000,"station_id":"ce4bhg12rcd13ifvqf80","pricing_plan_id":"cebpf4jnsgd1na2vs0mg"},{"bike_id":"71d304db-a773-4da9-9875-9bf0fdea65ac","system_id":"levelo_inurba_marseille","lat":43.32052,"lon":5.41559,"is_reserved":false,"is_disabled":false,"rental_uris":{"android":"levelo://app?vid=71d304db-a773-4da9-9875-9bf0fdea65ac","ios":"levelo://app?vid=71d304db-a773-4da9-9875-9bf0fdea65ac"},"vehicle_type_id":"4","last_reported":1748859097,"current_range_meters":10000,"station_id":"ce4bhq92rcd13ifvqhkg","pricing_plan_id":"cebpf4jnsgd1na2vs0mg"},{"bike_id":"48063303-4f1b-4047-8d3d-af4488fa2bc5","system_id":"levelo_inurba_marseille","lat":43.32359,"lon":5.36743,"is_reserved":false,"is_disabled":false,"rental_uris":{"android":"levelo://app?vid=48063303-4f1b-4047-8d3d-af4488fa2bc5","ios":"levelo://app?vid=48063303-4f1b-4047-8d3d-af4488fa2bc5"},"vehicle_type_id":"4","last_reported":1748859097,"current_range_meters":10000,"station_id":"ce4bhsh2rcd13ifvqi2g","pricing_plan_id":"cebpf4jnsgd1na2vs0mg"},{"bike_id":"e4f2e553-75d1-42a7-95cb-b18b90074a93","system_id":"levelo_inurba_marseille","lat":43.31752,"lon":5.3875,"is_reserved":false,"is_disabled":false,"rental_uris":{"android":"levelo://app?vid=e4f2e553-75d1-42a7-95cb-b18b90074a93","ios":"levelo://app?vid=e4f2e553-75d1-42a7-95cb-b18b90074a93"},"vehicle_type_id":"4","last_reported":1748859097,"current_range_meters":10800,"station_id":"","pricing_plan_id":"cebpf4jnsgd1na2vs0mg"},{"bike_id":"455d1145-e782-407e-b476-3bb9284f4559","system_id":"levelo_inurba_marseille","lat":43.29363,"lon":5.37834,"is_reserved":false,"is_disabled":false,"rental_uris":{"android":"levelo://app?vid=455d1145-e782-407e-b476-3bb9284f4559","ios":"levelo://app?vid=455d1145-e782-407e-b476-3bb9284f4559"},"vehicle_type_id":"4","last_reported":1748859097,"current_range_meters":10800,"station_id":"ce4bgjh2rcd13ifvqbf0","pricing_plan_id":"cebpf4jnsgd1na2vs0mg"},{"bike_id":"afd11a4c-ccc1-4628-93d2-581335e42eb8","system_id":"levelo_inurba_marseille","lat":43.25949,"lon":5.40904,"is_reserved":false,"is_disabled":false,"rental_uris":{"android":"levelo://app?vid=afd11a4c-ccc1-4628-93d2-581335e42eb8","ios":"levelo://app?vid=afd11a4c-ccc1-4628-93d2-581335e42eb8"},"vehicle_type_id":"4","last_reported":1748859097,"current_range_meters":10800,"station_id":"ce4bhm92rcd13ifvqglg","pricing_plan_id":"cebpf4jnsgd1na2vs0mg"},{"bike_id":"fd1e122e-4a59-4118-8d2d-136120634f8a","system_id":"levelo_inurba_marseille","lat":43.31169,"lon":5.38713,"is_reserved":false,"is_disabled":false,"rental_uris":{"android":"levelo://app?vid=fd1e122e-4a59-4118-8d2d-136120634f8a","ios":"levelo://app?vid=fd1e122e-4a59-4118-8d2d-136120634f8a"},"vehicle_type_id":"4","last_reported":1748859097,"current_range_meters":11200,"station_id":"ce4bgv12rcd13ifvqcp0","pricing_plan_id":"cebpf4jnsgd1na2vs0mg"},{"bike_id":"7befae79-b580-41f1-a667-d0e17bb5e123","system_id":"levelo_inurba_marseille","lat":43.246726,"lon":5.381668,"is_reserved":false,"is_disabled":false,"rental_uris":{"android":"levelo://app?vid=7befae79-b580-41f1-a667-d0e17bb5e123","ios":"levelo://app?vid=7befae79-b580-41f1-a667-d0e17bb5e123"},"vehicle_type_id":"4","last_reported":1748859097,"current_range_meters":11200,"station_id":"ce4bhih2rcd13ifvqfr0","pricing_plan_id":"cebpf4jnsgd1na2vs0mg"},{"bike_id":"12f12f7d-5a9c-489c-804f-030e268658f0","system_id":"levelo_inurba_marseille","lat":43.28085,"lon":5.39656,"is_reserved":false,"is_disabled":false,"rental_uris":{"android":"levelo://app?vid=12f12f7d-5a9c-489c-804f-030e268658f0","ios":"levelo://app?vid=12f12f7d-5a9c-489c-804f-030e268658f0"},"vehicle_type_id":"4","last_reported":1748859097,"current_range_meters":11200,"station_id":"ce4bho12rcd13ifvqh2g","pricing_plan_id":"cebpf4jnsgd1na2vs0mg"},{"bike_id":"7b11ab60-02fc-435d-8220-718786d271b7","system_id":"levelo_inurba_marseille","lat":43.217479,"lon":5.345998,"is_reserved":false,"is_disabled":false,"rental_uris":{"android":"levelo://app?vid=7b11ab60-02fc-435d-8220-718786d271b7","ios":"levelo://app?vid=7b11ab60-02fc-435d-8220-718786d271b7"},"vehicle_type_id":"4","last_reported":1748859097,"current_range_meters":11200,"station_id":"st_cvj6r9ubvosntc0bgbag","pricing_plan_id":"cebpf4jnsgd1na2vs0mg"},{"bike_id":"a8af9193-1f0b-4e5d-99a2-be78ccabc55b","system_id":"levelo_inurba_marseille","lat":43.31193,"lon":5.41617,"is_reserved":false,"is_disabled":false,"rental_uris":{"android":"levelo://app?vid=a8af9193-1f0b-4e5d-99a2-be78ccabc55b","ios":"levelo://app?vid=a8af9193-1f0b-4e5d-99a2-be78ccabc55b"},"vehicle_type_id":"4","last_reported":1748859097,"current_range_meters":11600,"station_id":"","pricing_plan_id":"cebpf4jnsgd1na2vs0mg"},{"bike_id":"730ef340-c186-4f89-b14c-df4f09693af6","system_id":"levelo_inurba_marseille","lat":43.27774,"lon":5.40619,"is_reserved":false,"is_disabled":false,"rental_uris":{"android":"levelo://app?vid=730ef340-c186-4f89-b14c-df4f09693af6","ios":"levelo://app?vid=730ef340-c186-4f89-b14c-df4f09693af6"},"vehicle_type_id":"4","last_reported":1748859097,"current_range_meters":11600,"station_id":"","pricing_plan_id":"cebpf4jnsgd1na2vs0mg"},{"bike_id":"64baa8e5-4948-43ef-bd5f-88d4aadfd8f7","system_id":"levelo_inurba_marseille","lat":43.30911,"lon":5.36852,"is_reserved":false,"is_disabled":false,"rental_uris":{"android":"levelo://app?vid=64baa8e5-4948-43ef-bd5f-88d4aadfd8f7","ios":"levelo://app?vid=64baa8e5-4948-43ef-bd5f-88d4aadfd8f7"},"vehicle_type_id":"4","last_reported":1748859097,"current_range_meters":11600,"station_id":"ce4bgn92rcd13ifvqbvg","pricing_plan_id":"cebpf4jnsgd1na2vs0mg"},{"bike_id":"68751ed8-5def-44dd-9302-814c6cb074a4","system_id":"levelo_inurba_marseille","lat":43.31346,"lon":5.36746,"is_reserved":false,"is_disabled":false,"rental_uris":{"android":"levelo://app?vid=68751ed8-5def-44dd-9302-814c6cb074a4","ios":"levelo://app?vid=68751ed8-5def-44dd-9302-814c6cb074a4"},"vehicle_type_id":"4","last_reported":1748859097,"current_range_meters":11600,"station_id":"ce4bgr92rcd13ifvqc6g","pricing_plan_id":"cebpf4jnsgd1na2vs0mg"},{"bike_id":"aab60cb2-0f4a-4f79-917f-82d70f7df0d4","system_id":"levelo_inurba_marseille","lat":43.29637,"lon":5.4059,"is_reserved":false,"is_disabled":false,"rental_uris":{"android":"levelo://app?vid=aab60cb2-0f4a-4f79-917f-82d70f7df0d4","ios":"levelo://app?vid=aab60cb2-0f4a-4f79-917f-82d70f7df0d4"},"vehicle_type_id":"4","last_reported":1748859097,"current_range_meters":11600,"station_id":"ce4bh0h2rcd13ifvqd60","pricing_plan_id":"cebpf4jnsgd1na2vs0mg"},{"bike_id":"58e6da17-adc8-4552-9040-8723daac6895","system_id":"levelo_inurba_marseille","lat":43.290954,"lon":5.381593,"is_reserved":false,"is_disabled":false,"rental_uris":{"android":"levelo://app?vid=58e6da17-adc8-4552-9040-8723daac6895","ios":"levelo://app?vid=58e6da17-adc8-4552-9040-8723daac6895"},"vehicle_type_id":"4","last_reported":1748859097,"current_range_meters":11600,"station_id":"ce4bh512rcd13ifvqe2g","pricing_plan_id":"cebpf4jnsgd1na2vs0mg"},{"bike_id":"7f8544b9-7df0-4357-8535-89106ed45ccd","system_id":"levelo_inurba_marseille","lat":43.29035,"lon":5.37567,"is_reserved":false,"is_disabled":false,"rental_uris":{"android":"levelo://app?vid=7f8544b9-7df0-4357-8535-89106ed45ccd","ios":"levelo://app?vid=7f8544b9-7df0-4357-8535-89106ed45ccd"},"vehicle_type_id":"4","last_reported":1748859097,"current_range_meters":11600,"station_id":"ce4bh692rcd13ifvqe90","pricing_plan_id":"cebpf4jnsgd1na2vs0mg"},{"bike_id":"8847ebf5-7b42-46f6-8abe-7e99137deef8","system_id":"levelo_inurba_marseille","lat":43.31689,"lon":5.40483,"is_reserved":false,"is_disabled":false,"rental_uris":{"android":"levelo://app?vid=8847ebf5-7b42-46f6-8abe-7e99137deef8","ios":"levelo://app?vid=8847ebf5-7b42-46f6-8abe-7e99137deef8"},"vehicle_type_id":"4","last_reported":1748859097,"current_range_meters":12000,"station_id":"ce4bh012rcd13ifvqd00","pricing_plan_id":"cebpf4jnsgd1na2vs0mg"},{"bike_id":"f56101d5-d494-413c-a457-23012bf1bc9f","system_id":"levelo_inurba_marseille","lat":43.28479,"lon":5.3842,"is_reserved":false,"is_disabled":false,"rental_uris":{"android":"levelo://app?vid=f56101d5-d494-413c-a457-23012bf1bc9f","ios":"levelo://app?vid=f56101d5-d494-413c-a457-23012bf1bc9f"},"vehicle_type_id":"4","last_reported":1748859097,"current_range_meters":12000,"station_id":"ce4bh512rcd13ifvqe3g","pricing_plan_id":"cebpf4jnsgd1na2vs0mg"},{"bike_id":"b50cc559-9ce1-444d-983e-685ad8c6f688","system_id":"levelo_inurba_marseille","lat":43.28725,"lon":5.37935,"is_reserved":false,"is_disabled":false,"rental_uris":{"android":"levelo://app?vid=b50cc559-9ce1-444d-983e-685ad8c6f688","ios":"levelo://app?vid=b50cc559-9ce1-444d-983e-685ad8c6f688"},"vehicle_type_id":"4","last_reported":1748859097,"current_range_meters":12000,"station_id":"ce4bh9p2rcd13ifvqec0","pricing_plan_id":"cebpf4jnsgd1na2vs0mg"},{"bike_id":"acbe00fc-31af-42d7-9eb4-6f976caf4873","system_id":"levelo_inurba_marseille","lat":43.241811,"lon":5.397233,"is_reserved":false,"is_disabled":false,"rental_uris":{"android":"levelo://app?vid=acbe00fc-31af-42d7-9eb4-6f976caf4873","ios":"levelo://app?vid=acbe00fc-31af-42d7-9eb4-6f976caf4873"},"vehicle_type_id":"4","last_reported":1748859097,"current_range_meters":12000,"station_id":"ce4bhn12rcd13ifvqgpg","pricing_plan_id":"cebpf4jnsgd1na2vs0mg"},{"bike_id":"a51e7728-4cf4-49aa-8747-b917b87d5574","system_id":"levelo_inurba_marseille","lat":43.2176,"lon":5.34598,"is_reserved":false,"is_disabled":false,"rental_uris":{"android":"levelo://app?vid=a51e7728-4cf4-49aa-8747-b917b87d5574","ios":"levelo://app?vid=a51e7728-4cf4-49aa-8747-b917b87d5574"},"vehicle_type_id":"4","last_reported":1748859097,"current_range_meters":12000,"station_id":"st_cvj6r9ubvosntc0bgbag","pricing_plan_id":"cebpf4jnsgd1na2vs0mg"},{"bike_id":"e4d2208e-0bf5-4b94-818b-3ae8cd2f0fca","system_id":"levelo_inurba_marseille","lat":43.21192,"lon":5.35071,"is_reserved":false,"is_disabled":false,"rental_uris":{"android":"levelo://app?vid=e4d2208e-0bf5-4b94-818b-3ae8cd2f0fca","ios":"levelo://app?vid=e4d2208e-0bf5-4b94-818b-3ae8cd2f0fca"},"vehicle_type_id":"4","last_reported":1748859097,"current_range_meters":12000,"station_id":"st_cvj6sg6p6f1abm77japg","pricing_plan_id":"cebpf4jnsgd1na2vs0mg"},{"bike_id":"e76454f7-d5f9-472e-a65d-67bcdd098e00","system_id":"levelo_inurba_marseille","lat":43.30535,"lon":5.3671,"is_reserved":false,"is_disabled":false,"rental_uris":{"android":"levelo://app?vid=e76454f7-d5f9-472e-a65d-67bcdd098e00","ios":"levelo://app?vid=e76454f7-d5f9-472e-a65d-67bcdd098e00"},"vehicle_type_id":"4","last_reported":1748859097,"current_range_meters":12400,"station_id":"ce4bgrp2rcd13ifvqc9g","pricing_plan_id":"cebpf4jnsgd1na2vs0mg"},{"bike_id":"975743ac-c1e0-4a65-9b84-a7f91a3f9072","system_id":"levelo_inurba_marseille","lat":43.289742,"lon":5.378347,"is_reserved":false,"is_disabled":false,"rental_uris":{"android":"levelo://app?vid=975743ac-c1e0-4a65-9b84-a7f91a3f9072","ios":"levelo://app?vid=975743ac-c1e0-4a65-9b84-a7f91a3f9072"},"vehicle_type_id":"4","last_reported":1748859097,"current_range_meters":12400,"station_id":"ce4bh9p2rcd13ifvqed0","pricing_plan_id":"cebpf4jnsgd1na2vs0mg"},{"bike_id":"9c2cfade-5d22-48e4-8485-868610ab50a5","system_id":"levelo_inurba_marseille","lat":43.29006,"lon":5.3561,"is_reserved":false,"is_disabled":false,"rental_uris":{"android":"levelo://app?vid=9c2cfade-5d22-48e4-8485-868610ab50a5","ios":"levelo://app?vid=9c2cfade-5d22-48e4-8485-868610ab50a5"},"vehicle_type_id":"4","last_reported":1748859097,"current_range_meters":12400,"station_id":"ce4bhb92rcd13ifvqen0","pricing_plan_id":"cebpf4jnsgd1na2vs0mg"},{"bike_id":"34e38c7c-ce8e-4ef6-83cd-81143caf3d90","system_id":"levelo_inurba_marseille","lat":43.239619,"lon":5.366322,"is_reserved":false,"is_disabled":false,"rental_uris":{"android":"levelo://app?vid=34e38c7c-ce8e-4ef6-83cd-81143caf3d90","ios":"levelo://app?vid=34e38c7c-ce8e-4ef6-83cd-81143caf3d90"},"vehicle_type_id":"4","last_reported":1748859097,"current_range_meters":12400,"station_id":"ce4bhi12rcd13ifvqfp0","pricing_plan_id":"cebpf4jnsgd1na2vs0mg"},{"bike_id":"35ed2995-17a2-4549-bb55-810459c05dd0","system_id":"levelo_inurba_marseille","lat":43.26222,"lon":5.40461,"is_reserved":false,"is_disabled":false,"rental_uris":{"android":"levelo://app?vid=35ed2995-17a2-4549-bb55-810459c05dd0","ios":"levelo://app?vid=35ed2995-17a2-4549-bb55-810459c05dd0"},"vehicle_type_id":"4","last_reported":1748859097,"current_range_meters":12400,"station_id":"ce4bhmh2rcd13ifvqgmg","pricing_plan_id":"cebpf4jnsgd1na2vs0mg"},{"bike_id":"dd532de6-672a-4fd7-8b6c-2ad425c0c828","system_id":"levelo_inurba_marseille","lat":43.241815,"lon":5.397293,"is_reserved":false,"is_disabled":false,"rental_uris":{"android":"levelo://app?vid=dd532de6-672a-4fd7-8b6c-2ad425c0c828","ios":"levelo://app?vid=dd532de6-672a-4fd7-8b6c-2ad425c0c828"},"vehicle_type_id":"4","last_reported":1748859097,"current_range_meters":12400,"station_id":"ce4bhn12rcd13ifvqgpg","pricing_plan_id":"cebpf4jnsgd1na2vs0mg"},{"bike_id":"7ad062f4-26a6-4c8a-b137-29b7bdd52d40","system_id":"levelo_inurba_marseille","lat":43.298975,"lon":5.436727,"is_reserved":false,"is_disabled":false,"rental_uris":{"android":"levelo://app?vid=7ad062f4-26a6-4c8a-b137-29b7bdd52d40","ios":"levelo://app?vid=7ad062f4-26a6-4c8a-b137-29b7bdd52d40"},"vehicle_type_id":"4","last_reported":1748859097,"current_range_meters":12400,"station_id":"ce4bhpp2rcd13ifvqhfg","pricing_plan_id":"cebpf4jnsgd1na2vs0mg"},{"bike_id":"15349654-7ee5-4986-b605-9ad95f1b2bbb","system_id":"levelo_inurba_marseille","lat":43.217526,"lon":5.345988,"is_reserved":false,"is_disabled":false,"rental_uris":{"android":"levelo://app?vid=15349654-7ee5-4986-b605-9ad95f1b2bbb","ios":"levelo://app?vid=15349654-7ee5-4986-b605-9ad95f1b2bbb"},"vehicle_type_id":"4","last_reported":1748859097,"current_range_meters":12400,"station_id":"st_cvj6r9ubvosntc0bgbag","pricing_plan_id":"cebpf4jnsgd1na2vs0mg"},{"bike_id":"4fc38c6c-42f3-4baa-8501-5e69717b2298","system_id":"levelo_inurba_marseille","lat":43.21754,"lon":5.34596,"is_reserved":false,"is_disabled":false,"rental_uris":{"android":"levelo://app?vid=4fc38c6c-42f3-4baa-8501-5e69717b2298","ios":"levelo://app?vid=4fc38c6c-42f3-4baa-8501-5e69717b2298"},"vehicle_type_id":"4","last_reported":1748859097,"current_range_meters":12400,"station_id":"st_cvj6r9ubvosntc0bgbag","pricing_plan_id":"cebpf4jnsgd1na2vs0mg"},{"bike_id":"f0e86127-9d7a-4dce-99b5-8c0ea7482cf3","system_id":"levelo_inurba_marseille","lat":43.29293,"lon":5.37444,"is_reserved":false,"is_disabled":false,"rental_uris":{"android":"levelo://app?vid=f0e86127-9d7a-4dce-99b5-8c0ea7482cf3","ios":"levelo://app?vid=f0e86127-9d7a-4dce-99b5-8c0ea7482cf3"},"vehicle_type_id":"4","last_reported":1748859097,"current_range_meters":12800,"station_id":"ce4bgi12rcd13ifvqb70","pricing_plan_id":"cebpf4jnsgd1na2vs0mg"},{"bike_id":"e1433a10-13c7-4124-bd62-698d60753c31","system_id":"levelo_inurba_marseille","lat":43.30328,"lon":5.40429,"is_reserved":false,"is_disabled":false,"rental_uris":{"android":"levelo://app?vid=e1433a10-13c7-4124-bd62-698d60753c31","ios":"levelo://app?vid=e1433a10-13c7-4124-bd62-698d60753c31"},"vehicle_type_id":"4","last_reported":1748859097,"current_range_meters":12800,"station_id":"ce4bh012rcd13ifvqd10","pricing_plan_id":"cebpf4jnsgd1na2vs0mg"},{"bike_id":"cc16fe92-9b68-450f-b7ff-3098b119f39c","system_id":"levelo_inurba_marseille","lat":43.30215,"lon":5.39473,"is_reserved":false,"is_disabled":false,"rental_uris":{"android":"levelo://app?vid=cc16fe92-9b68-450f-b7ff-3098b119f39c","ios":"levelo://app?vid=cc16fe92-9b68-450f-b7ff-3098b119f39c"},"vehicle_type_id":"4","last_reported":1748859097,"current_range_meters":12800,"station_id":"ce4bh0p2rcd13ifvqd70","pricing_plan_id":"cebpf4jnsgd1na2vs0mg"},{"bike_id":"eafc3cd6-d501-4048-abd6-eabf2b1a7db9","system_id":"levelo_inurba_marseille","lat":43.28091,"lon":5.37869,"is_reserved":false,"is_disabled":false,"rental_uris":{"android":"levelo://app?vid=eafc3cd6-d501-4048-abd6-eabf2b1a7db9","ios":"levelo://app?vid=eafc3cd6-d501-4048-abd6-eabf2b1a7db9"},"vehicle_type_id":"4","last_reported":1748859097,"current_range_meters":12800,"station_id":"ce4bha12rcd13ifvqee0","pricing_plan_id":"cebpf4jnsgd1na2vs0mg"},{"bike_id":"23f7e0ca-8143-4075-be08-df1c0772e834","system_id":"levelo_inurba_marseille","lat":43.29418,"lon":5.38613,"is_reserved":false,"is_disabled":false,"rental_uris":{"android":"levelo://app?vid=23f7e0ca-8143-4075-be08-df1c0772e834","ios":"levelo://app?vid=23f7e0ca-8143-4075-be08-df1c0772e834"},"vehicle_type_id":"4","last_reported":1748859097,"current_range_meters":13600,"station_id":"ce4bh2h2rcd13ifvqdh0","pricing_plan_id":"cebpf4jnsgd1na2vs0mg"},{"bike_id":"da3db114-678c-4ad5-9027-9c06241c74d0","system_id":"levelo_inurba_marseille","lat":43.26945,"lon":5.38912,"is_reserved":false,"is_disabled":false,"rental_uris":{"android":"levelo://app?vid=da3db114-678c-4ad5-9027-9c06241c74d0","ios":"levelo://app?vid=da3db114-678c-4ad5-9027-9c06241c74d0"},"vehicle_type_id":"4","last_reported":1748859097,"current_range_meters":13600,"station_id":"ce4bhhh2rcd13ifvqfl0","pricing_plan_id":"cebpf4jnsgd1na2vs0mg"},{"bike_id":"a97ec209-aa76-4ef3-89ec-8d881c8fb33c","system_id":"levelo_inurba_marseille","lat":43.26225,"lon":5.40453,"is_reserved":false,"is_disabled":false,"rental_uris":{"android":"levelo://app?vid=a97ec209-aa76-4ef3-89ec-8d881c8fb33c","ios":"levelo://app?vid=a97ec209-aa76-4ef3-89ec-8d881c8fb33c"},"vehicle_type_id":"4","last_reported":1748859097,"current_range_meters":13600,"station_id":"ce4bhmh2rcd13ifvqgmg","pricing_plan_id":"cebpf4jnsgd1na2vs0mg"},{"bike_id":"5166a37c-2da8-491f-9475-fb095a8d0fcc","system_id":"levelo_inurba_marseille","lat":43.33617,"lon":5.41,"is_reserved":false,"is_disabled":false,"rental_uris":{"android":"levelo://app?vid=5166a37c-2da8-491f-9475-fb095a8d0fcc","ios":"levelo://app?vid=5166a37c-2da8-491f-9475-fb095a8d0fcc"},"vehicle_type_id":"4","last_reported":1748859097,"current_range_meters":13600,"station_id":"ce4bhqh2rcd13ifvqhmg","pricing_plan_id":"cebpf4jnsgd1na2vs0mg"},{"bike_id":"d076833d-d22f-40a8-9720-ff437466d62d","system_id":"levelo_inurba_marseille","lat":43.29969,"lon":5.37162,"is_reserved":false,"is_disabled":false,"rental_uris":{"android":"levelo://app?vid=d076833d-d22f-40a8-9720-ff437466d62d","ios":"levelo://app?vid=d076833d-d22f-40a8-9720-ff437466d62d"},"vehicle_type_id":"4","last_reported":1748859097,"current_range_meters":14000,"station_id":"","pricing_plan_id":"cebpf4jnsgd1na2vs0mg"},{"bike_id":"8debd405-8645-47bc-87f9-c9541b2fda8a","system_id":"levelo_inurba_marseille","lat":43.30545,"lon":5.36551,"is_reserved":false,"is_disabled":false,"rental_uris":{"android":"levelo://app?vid=8debd405-8645-47bc-87f9-c9541b2fda8a","ios":"levelo://app?vid=8debd405-8645-47bc-87f9-c9541b2fda8a"},"vehicle_type_id":"4","last_reported":1748859097,"current_range_meters":14000,"station_id":"ce4bgs12rcd13ifvqcag","pricing_plan_id":"cebpf4jnsgd1na2vs0mg"},{"bike_id":"3be96aa3-6192-48b3-8c06-f79bf7f696f8","system_id":"levelo_inurba_marseille","lat":43.28003,"lon":5.40007,"is_reserved":false,"is_disabled":false,"rental_uris":{"android":"levelo://app?vid=3be96aa3-6192-48b3-8c06-f79bf7f696f8","ios":"levelo://app?vid=3be96aa3-6192-48b3-8c06-f79bf7f696f8"},"vehicle_type_id":"4","last_reported":1748859097,"current_range_meters":14000,"station_id":"ce4bho92rcd13ifvqh4g","pricing_plan_id":"cebpf4jnsgd1na2vs0mg"},{"bike_id":"b1eb7e5e-55c6-4683-a8eb-38b174a7f4ac","system_id":"levelo_inurba_marseille","lat":43.22501,"lon":5.347823,"is_reserved":false,"is_disabled":false,"rental_uris":{"android":"levelo://app?vid=b1eb7e5e-55c6-4683-a8eb-38b174a7f4ac","ios":"levelo://app?vid=b1eb7e5e-55c6-4683-a8eb-38b174a7f4ac"},"vehicle_type_id":"4","last_reported":1748859097,"current_range_meters":14400,"station_id":"","pricing_plan_id":"cebpf4jnsgd1na2vs0mg"},{"bike_id":"8f8db83b-93a4-4fb2-b181-50b98bfbfc20","system_id":"levelo_inurba_marseille","lat":43.27939,"lon":5.38898,"is_reserved":false,"is_disabled":false,"rental_uris":{"android":"levelo://app?vid=8f8db83b-93a4-4fb2-b181-50b98bfbfc20","ios":"levelo://app?vid=8f8db83b-93a4-4fb2-b181-50b98bfbfc20"},"vehicle_type_id":"4","last_reported":1748859097,"current_range_meters":14400,"station_id":"","pricing_plan_id":"cebpf4jnsgd1na2vs0mg"},{"bike_id":"4d792978-04b8-4d9d-a4e5-25acbff07fed","system_id":"levelo_inurba_marseille","lat":43.292627,"lon":5.376203,"is_reserved":false,"is_disabled":false,"rental_uris":{"android":"levelo://app?vid=4d792978-04b8-4d9d-a4e5-25acbff07fed","ios":"levelo://app?vid=4d792978-04b8-4d9d-a4e5-25acbff07fed"},"vehicle_type_id":"4","last_reported":1748859097,"current_range_meters":14400,"station_id":"ce4bgi12rcd13ifvqb80","pricing_plan_id":"cebpf4jnsgd1na2vs0mg"},{"bike_id":"dbe1d8f5-9633-4a7b-b54d-c461261d5434","system_id":"levelo_inurba_marseille","lat":43.269603,"lon":5.386333,"is_reserved":false,"is_disabled":false,"rental_uris":{"android":"levelo://app?vid=dbe1d8f5-9633-4a7b-b54d-c461261d5434","ios":"levelo://app?vid=dbe1d8f5-9633-4a7b-b54d-c461261d5434"},"vehicle_type_id":"4","last_reported":1748859097,"current_range_meters":14400,"station_id":"ce4bhh92rcd13ifvqfh0","pricing_plan_id":"cebpf4jnsgd1na2vs0mg"},{"bike_id":"3004e7e8-9484-4595-b022-ec8baee9df0a","system_id":"levelo_inurba_marseille","lat":43.26226,"lon":5.40449,"is_reserved":false,"is_disabled":false,"rental_uris":{"android":"levelo://app?vid=3004e7e8-9484-4595-b022-ec8baee9df0a","ios":"levelo://app?vid=3004e7e8-9484-4595-b022-ec8baee9df0a"},"vehicle_type_id":"4","last_reported":1748859097,"current_range_meters":14400,"station_id":"ce4bhmh2rcd13ifvqgmg","pricing_plan_id":"cebpf4jnsgd1na2vs0mg"},{"bike_id":"8a675cf2-0f66-4577-865e-356d858be3df","system_id":"levelo_inurba_marseille","lat":43.27819,"lon":5.40703,"is_reserved":false,"is_disabled":false,"rental_uris":{"android":"levelo://app?vid=8a675cf2-0f66-4577-865e-356d858be3df","ios":"levelo://app?vid=8a675cf2-0f66-4577-865e-356d858be3df"},"vehicle_type_id":"4","last_reported":1748859097,"current_range_meters":14400,"station_id":"ce4bhnh2rcd13ifvqgtg","pricing_plan_id":"cebpf4jnsgd1na2vs0mg"},{"bike_id":"42459521-cadb-44bf-9880-2945be9893e9","system_id":"levelo_inurba_marseille","lat":43.24069,"lon":5.37764,"is_reserved":false,"is_disabled":false,"rental_uris":{"android":"levelo://app?vid=42459521-cadb-44bf-9880-2945be9893e9","ios":"levelo://app?vid=42459521-cadb-44bf-9880-2945be9893e9"},"vehicle_type_id":"4","last_reported":1748859097,"current_range_meters":14400,"station_id":"ce4bhnp2rcd13ifvqgvg","pricing_plan_id":"cebpf4jnsgd1na2vs0mg"},{"bike_id":"5aabb07e-b02b-4368-a26a-47b1e2536717","system_id":"levelo_inurba_marseille","lat":43.28086,"lon":5.39624,"is_reserved":false,"is_disabled":false,"rental_uris":{"android":"levelo://app?vid=5aabb07e-b02b-4368-a26a-47b1e2536717","ios":"levelo://app?vid=5aabb07e-b02b-4368-a26a-47b1e2536717"},"vehicle_type_id":"4","last_reported":1748859097,"current_range_meters":14400,"station_id":"ce4bho12rcd13ifvqh2g","pricing_plan_id":"cebpf4jnsgd1na2vs0mg"},{"bike_id":"0e1019f5-cff8-4976-908b-4232ce508bea","system_id":"levelo_inurba_marseille","lat":43.280049,"lon":5.400138,"is_reserved":false,"is_disabled":false,"rental_uris":{"android":"levelo://app?vid=0e1019f5-cff8-4976-908b-4232ce508bea","ios":"levelo://app?vid=0e1019f5-cff8-4976-908b-4232ce508bea"},"vehicle_type_id":"4","last_reported":1748859097,"current_range_meters":14400,"station_id":"ce4bho92rcd13ifvqh4g","pricing_plan_id":"cebpf4jnsgd1na2vs0mg"},{"bike_id":"4f3763e7-57c4-42f8-b0c4-effe89385301","system_id":"levelo_inurba_marseille","lat":43.31363,"lon":5.38488,"is_reserved":false,"is_disabled":false,"rental_uris":{"android":"levelo://app?vid=4f3763e7-57c4-42f8-b0c4-effe89385301","ios":"levelo://app?vid=4f3763e7-57c4-42f8-b0c4-effe89385301"},"vehicle_type_id":"4","last_reported":1748859097,"current_range_meters":14800,"station_id":"ce4bgt92rcd13ifvqcf0","pricing_plan_id":"cebpf4jnsgd1na2vs0mg"},{"bike_id":"7afd8bff-10c8-4883-b482-d0021bd8feea","system_id":"levelo_inurba_marseille","lat":43.26686,"lon":5.38265,"is_reserved":false,"is_disabled":false,"rental_uris":{"android":"levelo://app?vid=7afd8bff-10c8-4883-b482-d0021bd8feea","ios":"levelo://app?vid=7afd8bff-10c8-4883-b482-d0021bd8feea"},"vehicle_type_id":"4","last_reported":1748859097,"current_range_meters":14800,"station_id":"ce4bhg92rcd13ifvqf90","pricing_plan_id":"cebpf4jnsgd1na2vs0mg"},{"bike_id":"feabc24d-3025-47a8-a68e-c9e44b405200","system_id":"levelo_inurba_marseille","lat":43.23965,"lon":5.3664,"is_reserved":false,"is_disabled":false,"rental_uris":{"android":"levelo://app?vid=feabc24d-3025-47a8-a68e-c9e44b405200","ios":"levelo://app?vid=feabc24d-3025-47a8-a68e-c9e44b405200"},"vehicle_type_id":"4","last_reported":1748859097,"current_range_meters":14800,"station_id":"ce4bhi12rcd13ifvqfp0","pricing_plan_id":"cebpf4jnsgd1na2vs0mg"},{"bike_id":"a39df39d-93aa-4b03-b474-7b2ff1b86284","system_id":"levelo_inurba_marseille","lat":43.32353,"lon":5.36751,"is_reserved":false,"is_disabled":false,"rental_uris":{"android":"levelo://app?vid=a39df39d-93aa-4b03-b474-7b2ff1b86284","ios":"levelo://app?vid=a39df39d-93aa-4b03-b474-7b2ff1b86284"},"vehicle_type_id":"4","last_reported":1748859097,"current_range_meters":14800,"station_id":"ce4bhsh2rcd13ifvqi2g","pricing_plan_id":"cebpf4jnsgd1na2vs0mg"},{"bike_id":"1513f572-bbdf-4133-b408-f9e331b60714","system_id":"levelo_inurba_marseille","lat":43.25004,"lon":5.38926,"is_reserved":false,"is_disabled":false,"rental_uris":{"android":"levelo://app?vid=1513f572-bbdf-4133-b408-f9e331b60714","ios":"levelo://app?vid=1513f572-bbdf-4133-b408-f9e331b60714"},"vehicle_type_id":"4","last_reported":1748859097,"current_range_meters":15200,"station_id":"ce4bhgp2rcd13ifvqfd0","pricing_plan_id":"cebpf4jnsgd1na2vs0mg"},{"bike_id":"d80247ec-8e1d-45c9-80d5-183dd15a1208","system_id":"levelo_inurba_marseille","lat":43.231863,"lon":5.399824,"is_reserved":false,"is_disabled":false,"rental_uris":{"android":"levelo://app?vid=d80247ec-8e1d-45c9-80d5-183dd15a1208","ios":"levelo://app?vid=d80247ec-8e1d-45c9-80d5-183dd15a1208"},"vehicle_type_id":"4","last_reported":1748859097,"current_range_meters":15200,"station_id":"ce4bhn12rcd13ifvqgqg","pricing_plan_id":"cebpf4jnsgd1na2vs0mg"},{"bike_id":"21335fe1-e361-4f25-9703-649c07cc251d","system_id":"levelo_inurba_marseille","lat":43.32021,"lon":5.3681,"is_reserved":false,"is_disabled":false,"rental_uris":{"android":"levelo://app?vid=21335fe1-e361-4f25-9703-649c07cc251d","ios":"levelo://app?vid=21335fe1-e361-4f25-9703-649c07cc251d"},"vehicle_type_id":"4","last_reported":1748859097,"current_range_meters":16000,"station_id":"","pricing_plan_id":"cebpf4jnsgd1na2vs0mg"},{"bike_id":"9d86dbd1-067d-469f-9039-aa45c3743fb0","system_id":"levelo_inurba_marseille","lat":43.28774,"lon":5.4004,"is_reserved":false,"is_disabled":false,"rental_uris":{"android":"levelo://app?vid=9d86dbd1-067d-469f-9039-aa45c3743fb0","ios":"levelo://app?vid=9d86dbd1-067d-469f-9039-aa45c3743fb0"},"vehicle_type_id":"4","last_reported":1748859097,"current_range_meters":16000,"station_id":"","pricing_plan_id":"cebpf4jnsgd1na2vs0mg"},{"bike_id":"9770d4a3-077a-4ab0-9466-40bf0f079c6c","system_id":"levelo_inurba_marseille","lat":43.309011,"lon":5.368267,"is_reserved":false,"is_disabled":false,"rental_uris":{"android":"levelo://app?vid=9770d4a3-077a-4ab0-9466-40bf0f079c6c","ios":"levelo://app?vid=9770d4a3-077a-4ab0-9466-40bf0f079c6c"},"vehicle_type_id":"4","last_reported":1748859097,"current_range_meters":16000,"station_id":"ce4bgn92rcd13ifvqbvg","pricing_plan_id":"cebpf4jnsgd1na2vs0mg"},{"bike_id":"3e12a5c4-055c-468d-8bcf-8fef782e4ba3","system_id":"levelo_inurba_marseille","lat":43.30535,"lon":5.36702,"is_reserved":false,"is_disabled":false,"rental_uris":{"android":"levelo://app?vid=3e12a5c4-055c-468d-8bcf-8fef782e4ba3","ios":"levelo://app?vid=3e12a5c4-055c-468d-8bcf-8fef782e4ba3"},"vehicle_type_id":"4","last_reported":1748859097,"current_range_meters":16000,"station_id":"ce4bgrp2rcd13ifvqc9g","pricing_plan_id":"cebpf4jnsgd1na2vs0mg"},{"bike_id":"892a02a0-4ef8-4a12-936a-726d9ca6a05a","system_id":"levelo_inurba_marseille","lat":43.28863,"lon":5.35851,"is_reserved":false,"is_disabled":false,"rental_uris":{"android":"levelo://app?vid=892a02a0-4ef8-4a12-936a-726d9ca6a05a","ios":"levelo://app?vid=892a02a0-4ef8-4a12-936a-726d9ca6a05a"},"vehicle_type_id":"4","last_reported":1748859097,"current_range_meters":16000,"station_id":"ce4bhb12rcd13ifvqem0","pricing_plan_id":"cebpf4jnsgd1na2vs0mg"},{"bike_id":"e548df02-9ca0-4e3b-b642-5dc4ecf186eb","system_id":"levelo_inurba_marseille","lat":43.28271,"lon":5.35073,"is_reserved":false,"is_disabled":false,"rental_uris":{"android":"levelo://app?vid=e548df02-9ca0-4e3b-b642-5dc4ecf186eb","ios":"levelo://app?vid=e548df02-9ca0-4e3b-b642-5dc4ecf186eb"},"vehicle_type_id":"4","last_reported":1748859097,"current_range_meters":16000,"station_id":"ce4bhbp2rcd13ifvqerg","pricing_plan_id":"cebpf4jnsgd1na2vs0mg"},{"bike_id":"32cdc2ba-8bb5-4859-bee4-c93f3a3853c0","system_id":"levelo_inurba_marseille","lat":43.27814,"lon":5.40706,"is_reserved":false,"is_disabled":false,"rental_uris":{"android":"levelo://app?vid=32cdc2ba-8bb5-4859-bee4-c93f3a3853c0","ios":"levelo://app?vid=32cdc2ba-8bb5-4859-bee4-c93f3a3853c0"},"vehicle_type_id":"4","last_reported":1748859097,"current_range_meters":16000,"station_id":"ce4bhnh2rcd13ifvqgtg","pricing_plan_id":"cebpf4jnsgd1na2vs0mg"},{"bike_id":"04c0d0ae-d92d-4af3-8380-e0197cf9aefe","system_id":"levelo_inurba_marseille","lat":43.31383,"lon":5.36677,"is_reserved":false,"is_disabled":false,"rental_uris":{"android":"levelo://app?vid=04c0d0ae-d92d-4af3-8380-e0197cf9aefe","ios":"levelo://app?vid=04c0d0ae-d92d-4af3-8380-e0197cf9aefe"},"vehicle_type_id":"4","last_reported":1748859097,"current_range_meters":16400,"station_id":"","pricing_plan_id":"cebpf4jnsgd1na2vs0mg"},{"bike_id":"10415325-182c-4cb0-a290-1c6ff811cb42","system_id":"levelo_inurba_marseille","lat":43.2973,"lon":5.37679,"is_reserved":false,"is_disabled":false,"rental_uris":{"android":"levelo://app?vid=10415325-182c-4cb0-a290-1c6ff811cb42","ios":"levelo://app?vid=10415325-182c-4cb0-a290-1c6ff811cb42"},"vehicle_type_id":"4","last_reported":1748859097,"current_range_meters":16400,"station_id":"ce4bgkh2rcd13ifvqbl0","pricing_plan_id":"cebpf4jnsgd1na2vs0mg"},{"bike_id":"ae7aa735-1011-4857-8bab-7d6f9c7288e5","system_id":"levelo_inurba_marseille","lat":43.305433,"lon":5.365495,"is_reserved":false,"is_disabled":false,"rental_uris":{"android":"levelo://app?vid=ae7aa735-1011-4857-8bab-7d6f9c7288e5","ios":"levelo://app?vid=ae7aa735-1011-4857-8bab-7d6f9c7288e5"},"vehicle_type_id":"4","last_reported":1748859097,"current_range_meters":16400,"station_id":"ce4bgs12rcd13ifvqcag","pricing_plan_id":"cebpf4jnsgd1na2vs0mg"},{"bike_id":"ba0ad73f-9b93-48b9-a2f6-562edffece5f","system_id":"levelo_inurba_marseille","lat":43.30917,"lon":5.36844,"is_reserved":false,"is_disabled":false,"rental_uris":{"android":"levelo://app?vid=ba0ad73f-9b93-48b9-a2f6-562edffece5f","ios":"levelo://app?vid=ba0ad73f-9b93-48b9-a2f6-562edffece5f"},"vehicle_type_id":"4","last_reported":1748859097,"current_range_meters":16800,"station_id":"ce4bgn92rcd13ifvqbvg","pricing_plan_id":"cebpf4jnsgd1na2vs0mg"},{"bike_id":"0b0ef775-465f-4518-99d4-c673d7719e67","system_id":"levelo_inurba_marseille","lat":43.27936,"lon":5.41017,"is_reserved":false,"is_disabled":false,"rental_uris":{"android":"levelo://app?vid=0b0ef775-465f-4518-99d4-c673d7719e67","ios":"levelo://app?vid=0b0ef775-465f-4518-99d4-c673d7719e67"},"vehicle_type_id":"4","last_reported":1748859097,"current_range_meters":16800,"station_id":"ce4bhnp2rcd13ifvqh0g","pricing_plan_id":"cebpf4jnsgd1na2vs0mg"},{"bike_id":"6b40d269-3252-44de-9099-c4e724d5d0fc","system_id":"levelo_inurba_marseille","lat":43.28098,"lon":5.37835,"is_reserved":false,"is_disabled":false,"rental_uris":{"android":"levelo://app?vid=6b40d269-3252-44de-9099-c4e724d5d0fc","ios":"levelo://app?vid=6b40d269-3252-44de-9099-c4e724d5d0fc"},"vehicle_type_id":"4","last_reported":1748859097,"current_range_meters":17200,"station_id":"ce4bha12rcd13ifvqee0","pricing_plan_id":"cebpf4jnsgd1na2vs0mg"},{"bike_id":"5e0bcced-1b52-482f-b3d2-f3908ade4c11","system_id":"levelo_inurba_marseille","lat":43.28488,"lon":5.38417,"is_reserved":false,"is_disabled":false,"rental_uris":{"android":"levelo://app?vid=5e0bcced-1b52-482f-b3d2-f3908ade4c11","ios":"levelo://app?vid=5e0bcced-1b52-482f-b3d2-f3908ade4c11"},"vehicle_type_id":"4","last_reported":1748859097,"current_range_meters":17600,"station_id":"ce4bh512rcd13ifvqe3g","pricing_plan_id":"cebpf4jnsgd1na2vs0mg"},{"bike_id":"644bed19-7ea0-4f53-911e-db7c62c74e4c","system_id":"levelo_inurba_marseille","lat":43.25118,"lon":5.40317,"is_reserved":false,"is_disabled":false,"rental_uris":{"android":"levelo://app?vid=644bed19-7ea0-4f53-911e-db7c62c74e4c","ios":"levelo://app?vid=644bed19-7ea0-4f53-911e-db7c62c74e4c"},"vehicle_type_id":"4","last_reported":1748859097,"current_range_meters":17600,"station_id":"ce4bhlh2rcd13ifvqgig","pricing_plan_id":"cebpf4jnsgd1na2vs0mg"},{"bike_id":"a2baceb5-eff0-45de-ae00-9172b7ee2d7b","system_id":"levelo_inurba_marseille","lat":43.31264,"lon":5.37584,"is_reserved":false,"is_disabled":false,"rental_uris":{"android":"levelo://app?vid=a2baceb5-eff0-45de-ae00-9172b7ee2d7b","ios":"levelo://app?vid=a2baceb5-eff0-45de-ae00-9172b7ee2d7b"},"vehicle_type_id":"4","last_reported":1748859097,"current_range_meters":18000,"station_id":"","pricing_plan_id":"cebpf4jnsgd1na2vs0mg"},{"bike_id":"6f08fec4-b802-4ef4-a712-11634af817ce","system_id":"levelo_inurba_marseille","lat":43.30151,"lon":5.38091,"is_reserved":false,"is_disabled":false,"rental_uris":{"android":"levelo://app?vid=6f08fec4-b802-4ef4-a712-11634af817ce","ios":"levelo://app?vid=6f08fec4-b802-4ef4-a712-11634af817ce"},"vehicle_type_id":"4","last_reported":1748859097,"current_range_meters":18000,"station_id":"ce4bgjp2rcd13ifvqbh0","pricing_plan_id":"cebpf4jnsgd1na2vs0mg"},{"bike_id":"c330ae30-b198-4ebd-9910-ca8f1a37a0b6","system_id":"levelo_inurba_marseille","lat":43.30144,"lon":5.37418,"is_reserved":false,"is_disabled":false,"rental_uris":{"android":"levelo://app?vid=c330ae30-b198-4ebd-9910-ca8f1a37a0b6","ios":"levelo://app?vid=c330ae30-b198-4ebd-9910-ca8f1a37a0b6"},"vehicle_type_id":"4","last_reported":1748859097,"current_range_meters":18000,"station_id":"ce4bgs92rcd13ifvqcc0","pricing_plan_id":"cebpf4jnsgd1na2vs0mg"},{"bike_id":"7f520926-4985-476b-a498-c541bc8dead0","system_id":"levelo_inurba_marseille","lat":43.31331,"lon":5.39688,"is_reserved":false,"is_disabled":false,"rental_uris":{"android":"levelo://app?vid=7f520926-4985-476b-a498-c541bc8dead0","ios":"levelo://app?vid=7f520926-4985-476b-a498-c541bc8dead0"},"vehicle_type_id":"4","last_reported":1748859097,"current_range_meters":18000,"station_id":"ce4bgvp2rcd13ifvqcu0","pricing_plan_id":"cebpf4jnsgd1na2vs0mg"},{"bike_id":"653a2aae-3b8d-49c9-b867-523e60951faf","system_id":"levelo_inurba_marseille","lat":43.29027,"lon":5.39977,"is_reserved":false,"is_disabled":false,"rental_uris":{"android":"levelo://app?vid=653a2aae-3b8d-49c9-b867-523e60951faf","ios":"levelo://app?vid=653a2aae-3b8d-49c9-b867-523e60951faf"},"vehicle_type_id":"4","last_reported":1748859097,"current_range_meters":18000,"station_id":"ce4bh392rcd13ifvqdm0","pricing_plan_id":"cebpf4jnsgd1na2vs0mg"},{"bike_id":"c7484275-d4d1-4a04-9d4c-6ab83f8f05b2","system_id":"levelo_inurba_marseille","lat":43.284179,"lon":5.349864,"is_reserved":false,"is_disabled":false,"rental_uris":{"android":"levelo://app?vid=c7484275-d4d1-4a04-9d4c-6ab83f8f05b2","ios":"levelo://app?vid=c7484275-d4d1-4a04-9d4c-6ab83f8f05b2"},"vehicle_type_id":"4","last_reported":1748859097,"current_range_meters":18000,"station_id":"ce4bhbh2rcd13ifvqepg","pricing_plan_id":"cebpf4jnsgd1na2vs0mg"},{"bike_id":"8b1e8b45-f57f-4122-b27a-d1f00d2e0d23","system_id":"levelo_inurba_marseille","lat":43.26031,"lon":5.37539,"is_reserved":false,"is_disabled":false,"rental_uris":{"android":"levelo://app?vid=8b1e8b45-f57f-4122-b27a-d1f00d2e0d23","ios":"levelo://app?vid=8b1e8b45-f57f-4122-b27a-d1f00d2e0d23"},"vehicle_type_id":"4","last_reported":1748859097,"current_range_meters":18000,"station_id":"ce4bhgh2rcd13ifvqfa0","pricing_plan_id":"cebpf4jnsgd1na2vs0mg"},{"bike_id":"10e933de-9219-43e0-8d98-07b347a4c5e1","system_id":"levelo_inurba_marseille","lat":43.25003,"lon":5.38895,"is_reserved":false,"is_disabled":false,"rental_uris":{"android":"levelo://app?vid=10e933de-9219-43e0-8d98-07b347a4c5e1","ios":"levelo://app?vid=10e933de-9219-43e0-8d98-07b347a4c5e1"},"vehicle_type_id":"4","last_reported":1748859097,"current_range_meters":18000,"station_id":"ce4bhgp2rcd13ifvqfd0","pricing_plan_id":"cebpf4jnsgd1na2vs0mg"},{"bike_id":"083f334d-909d-4df4-8315-e8058ca61af2","system_id":"levelo_inurba_marseille","lat":43.26204,"lon":5.40443,"is_reserved":false,"is_disabled":false,"rental_uris":{"android":"levelo://app?vid=083f334d-909d-4df4-8315-e8058ca61af2","ios":"levelo://app?vid=083f334d-909d-4df4-8315-e8058ca61af2"},"vehicle_type_id":"4","last_reported":1748859097,"current_range_meters":18000,"station_id":"ce4bhmh2rcd13ifvqgmg","pricing_plan_id":"cebpf4jnsgd1na2vs0mg"},{"bike_id":"245863db-4ec2-4fc4-ad5b-9e28017ff01f","system_id":"levelo_inurba_marseille","lat":43.29887,"lon":5.43659,"is_reserved":false,"is_disabled":false,"rental_uris":{"android":"levelo://app?vid=245863db-4ec2-4fc4-ad5b-9e28017ff01f","ios":"levelo://app?vid=245863db-4ec2-4fc4-ad5b-9e28017ff01f"},"vehicle_type_id":"4","last_reported":1748859097,"current_range_meters":18000,"station_id":"ce4bhpp2rcd13ifvqhfg","pricing_plan_id":"cebpf4jnsgd1na2vs0mg"},{"bike_id":"e6b3b729-2100-45a7-92a9-ee8e96b378e2","system_id":"levelo_inurba_marseille","lat":43.29577,"lon":5.37519,"is_reserved":false,"is_disabled":false,"rental_uris":{"android":"levelo://app?vid=e6b3b729-2100-45a7-92a9-ee8e96b378e2","ios":"levelo://app?vid=e6b3b729-2100-45a7-92a9-ee8e96b378e2"},"vehicle_type_id":"4","last_reported":1748859097,"current_range_meters":18800,"station_id":"ce4bgh92rcd13ifvqb50","pricing_plan_id":"cebpf4jnsgd1na2vs0mg"},{"bike_id":"321f9c8a-d368-42bd-aed0-3189fc450645","system_id":"levelo_inurba_marseille","lat":43.30556,"lon":5.36563,"is_reserved":false,"is_disabled":false,"rental_uris":{"android":"levelo://app?vid=321f9c8a-d368-42bd-aed0-3189fc450645","ios":"levelo://app?vid=321f9c8a-d368-42bd-aed0-3189fc450645"},"vehicle_type_id":"4","last_reported":1748859097,"current_range_meters":18800,"station_id":"ce4bgs12rcd13ifvqcag","pricing_plan_id":"cebpf4jnsgd1na2vs0mg"},{"bike_id":"1cbd4534-6a18-48be-8bf4-bba7eca62dbf","system_id":"levelo_inurba_marseille","lat":43.30469,"lon":5.37917,"is_reserved":false,"is_disabled":false,"rental_uris":{"android":"levelo://app?vid=1cbd4534-6a18-48be-8bf4-bba7eca62dbf","ios":"levelo://app?vid=1cbd4534-6a18-48be-8bf4-bba7eca62dbf"},"vehicle_type_id":"4","last_reported":1748859097,"current_range_meters":18800,"station_id":"ce4bgup2rcd13ifvqcn0","pricing_plan_id":"cebpf4jnsgd1na2vs0mg"},{"bike_id":"924866f6-76e7-404c-920e-c3b6b84c1e8e","system_id":"levelo_inurba_marseille","lat":43.29253,"lon":5.40899,"is_reserved":false,"is_disabled":false,"rental_uris":{"android":"levelo://app?vid=924866f6-76e7-404c-920e-c3b6b84c1e8e","ios":"levelo://app?vid=924866f6-76e7-404c-920e-c3b6b84c1e8e"},"vehicle_type_id":"4","last_reported":1748859097,"current_range_meters":18800,"station_id":"ce4bh192rcd13ifvqdc0","pricing_plan_id":"cebpf4jnsgd1na2vs0mg"},{"bike_id":"0911ee34-835a-45eb-80d8-b8d2447a0a65","system_id":"levelo_inurba_marseille","lat":43.23966,"lon":5.36632,"is_reserved":false,"is_disabled":false,"rental_uris":{"android":"levelo://app?vid=0911ee34-835a-45eb-80d8-b8d2447a0a65","ios":"levelo://app?vid=0911ee34-835a-45eb-80d8-b8d2447a0a65"},"vehicle_type_id":"4","last_reported":1748859097,"current_range_meters":18800,"station_id":"ce4bhi12rcd13ifvqfp0","pricing_plan_id":"cebpf4jnsgd1na2vs0mg"},{"bike_id":"858839b0-f1d2-44fa-9c6a-752577aefb45","system_id":"levelo_inurba_marseille","lat":43.28151,"lon":5.42629,"is_reserved":false,"is_disabled":false,"rental_uris":{"android":"levelo://app?vid=858839b0-f1d2-44fa-9c6a-752577aefb45","ios":"levelo://app?vid=858839b0-f1d2-44fa-9c6a-752577aefb45"},"vehicle_type_id":"4","last_reported":1748859097,"current_range_meters":18800,"station_id":"ce4bhnh2rcd13ifvqgug","pricing_plan_id":"cebpf4jnsgd1na2vs0mg"},{"bike_id":"da4b004f-e0f6-4588-8cb7-185348fd55c0","system_id":"levelo_inurba_marseille","lat":43.262236,"lon":5.40143,"is_reserved":false,"is_disabled":false,"rental_uris":{"android":"levelo://app?vid=da4b004f-e0f6-4588-8cb7-185348fd55c0","ios":"levelo://app?vid=da4b004f-e0f6-4588-8cb7-185348fd55c0"},"vehicle_type_id":"4","last_reported":1748859097,"current_range_meters":19200,"station_id":"","pricing_plan_id":"cebpf4jnsgd1na2vs0mg"},{"bike_id":"65ae298f-8b5a-4b0f-9092-11a31dc06f4e","system_id":"levelo_inurba_marseille","lat":43.28848,"lon":5.39323,"is_reserved":false,"is_disabled":false,"rental_uris":{"android":"levelo://app?vid=65ae298f-8b5a-4b0f-9092-11a31dc06f4e","ios":"levelo://app?vid=65ae298f-8b5a-4b0f-9092-11a31dc06f4e"},"vehicle_type_id":"4","last_reported":1748859097,"current_range_meters":19200,"station_id":"ce4bh2p2rcd13ifvqdi0","pricing_plan_id":"cebpf4jnsgd1na2vs0mg"},{"bike_id":"caeda4d1-c0c1-45c3-a776-09d5e1f51cf3","system_id":"levelo_inurba_marseille","lat":43.29023,"lon":5.38638,"is_reserved":false,"is_disabled":false,"rental_uris":{"android":"levelo://app?vid=caeda4d1-c0c1-45c3-a776-09d5e1f51cf3","ios":"levelo://app?vid=caeda4d1-c0c1-45c3-a776-09d5e1f51cf3"},"vehicle_type_id":"4","last_reported":1748859097,"current_range_meters":19200,"station_id":"ce4bh4p2rcd13ifvqe0g","pricing_plan_id":"cebpf4jnsgd1na2vs0mg"},{"bike_id":"c42b36b3-a2fa-4428-84f9-664b5368d0ff","system_id":"levelo_inurba_marseille","lat":43.28482,"lon":5.38558,"is_reserved":false,"is_disabled":false,"rental_uris":{"android":"levelo://app?vid=c42b36b3-a2fa-4428-84f9-664b5368d0ff","ios":"levelo://app?vid=c42b36b3-a2fa-4428-84f9-664b5368d0ff"},"vehicle_type_id":"4","last_reported":1748859097,"current_range_meters":19200,"station_id":"ce4bh8p2rcd13ifvqeb0","pricing_plan_id":"cebpf4jnsgd1na2vs0mg"},{"bike_id":"626c96a6-ff66-417b-bb08-d146f3d937ff","system_id":"levelo_inurba_marseille","lat":43.231498,"lon":5.437038,"is_reserved":false,"is_disabled":false,"rental_uris":{"android":"levelo://app?vid=626c96a6-ff66-417b-bb08-d146f3d937ff","ios":"levelo://app?vid=626c96a6-ff66-417b-bb08-d146f3d937ff"},"vehicle_type_id":"4","last_reported":1748859097,"current_range_meters":19200,"station_id":"ce4bhmp2rcd13ifvqgog","pricing_plan_id":"cebpf4jnsgd1na2vs0mg"},{"bike_id":"1d65bc3d-3f50-4f46-a580-c121857e8e69","system_id":"levelo_inurba_marseille","lat":43.28158,"lon":5.42626,"is_reserved":false,"is_disabled":false,"rental_uris":{"android":"levelo://app?vid=1d65bc3d-3f50-4f46-a580-c121857e8e69","ios":"levelo://app?vid=1d65bc3d-3f50-4f46-a580-c121857e8e69"},"vehicle_type_id":"4","last_reported":1748859097,"current_range_meters":19200,"station_id":"ce4bhnh2rcd13ifvqgug","pricing_plan_id":"cebpf4jnsgd1na2vs0mg"},{"bike_id":"17db2b72-b7e3-41a0-88c5-ce61fc6789ad","system_id":"levelo_inurba_marseille","lat":43.23056,"lon":5.35482,"is_reserved":false,"is_disabled":false,"rental_uris":{"android":"levelo://app?vid=17db2b72-b7e3-41a0-88c5-ce61fc6789ad","ios":"levelo://app?vid=17db2b72-b7e3-41a0-88c5-ce61fc6789ad"},"vehicle_type_id":"4","last_reported":1748859097,"current_range_meters":19200,"station_id":"cpo3342slgdg3j2ifvpg","pricing_plan_id":"cebpf4jnsgd1na2vs0mg"},{"bike_id":"9eee2957-7122-4de6-a9e8-90fea7c83aa8","system_id":"levelo_inurba_marseille","lat":43.30938,"lon":5.40145,"is_reserved":false,"is_disabled":false,"rental_uris":{"android":"levelo://app?vid=9eee2957-7122-4de6-a9e8-90fea7c83aa8","ios":"levelo://app?vid=9eee2957-7122-4de6-a9e8-90fea7c83aa8"},"vehicle_type_id":"4","last_reported":1748859097,"current_range_meters":19600,"station_id":"","pricing_plan_id":"cebpf4jnsgd1na2vs0mg"},{"bike_id":"4b790c0b-cff1-4dc9-8b99-0762b549c6e4","system_id":"levelo_inurba_marseille","lat":43.2961,"lon":5.37717,"is_reserved":false,"is_disabled":false,"rental_uris":{"android":"levelo://app?vid=4b790c0b-cff1-4dc9-8b99-0762b549c6e4","ios":"levelo://app?vid=4b790c0b-cff1-4dc9-8b99-0762b549c6e4"},"vehicle_type_id":"4","last_reported":1748859097,"current_range_meters":19600,"station_id":"ce4bgi92rcd13ifvqb90","pricing_plan_id":"cebpf4jnsgd1na2vs0mg"},{"bike_id":"768b277d-238a-4c35-a73a-bd4cafe77892","system_id":"levelo_inurba_marseille","lat":43.29799,"lon":5.38083,"is_reserved":false,"is_disabled":false,"rental_uris":{"android":"levelo://app?vid=768b277d-238a-4c35-a73a-bd4cafe77892","ios":"levelo://app?vid=768b277d-238a-4c35-a73a-bd4cafe77892"},"vehicle_type_id":"4","last_reported":1748859097,"current_range_meters":19600,"station_id":"ce4bgip2rcd13ifvqbb0","pricing_plan_id":"cebpf4jnsgd1na2vs0mg"},{"bike_id":"e1ceebff-f982-46fe-9e13-58d942923086","system_id":"levelo_inurba_marseille","lat":43.3055,"lon":5.36547,"is_reserved":false,"is_disabled":false,"rental_uris":{"android":"levelo://app?vid=e1ceebff-f982-46fe-9e13-58d942923086","ios":"levelo://app?vid=e1ceebff-f982-46fe-9e13-58d942923086"},"vehicle_type_id":"4","last_reported":1748859097,"current_range_meters":19600,"station_id":"ce4bgs12rcd13ifvqcag","pricing_plan_id":"cebpf4jnsgd1na2vs0mg"},{"bike_id":"6b14581d-7d7c-4cd6-8bb5-46171bfc086b","system_id":"levelo_inurba_marseille","lat":43.31479,"lon":5.37305,"is_reserved":false,"is_disabled":false,"rental_uris":{"android":"levelo://app?vid=6b14581d-7d7c-4cd6-8bb5-46171bfc086b","ios":"levelo://app?vid=6b14581d-7d7c-4cd6-8bb5-46171bfc086b"},"vehicle_type_id":"4","last_reported":1748859097,"current_range_meters":19600,"station_id":"ce4bgt12rcd13ifvqcd0","pricing_plan_id":"cebpf4jnsgd1na2vs0mg"},{"bike_id":"f6559c78-0198-4b17-b5ca-2752af839636","system_id":"levelo_inurba_marseille","lat":43.30789,"lon":5.37647,"is_reserved":false,"is_disabled":false,"rental_uris":{"android":"levelo://app?vid=f6559c78-0198-4b17-b5ca-2752af839636","ios":"levelo://app?vid=f6559c78-0198-4b17-b5ca-2752af839636"},"vehicle_type_id":"4","last_reported":1748859097,"current_range_meters":19600,"station_id":"ce4bgv92rcd13ifvqcq0","pricing_plan_id":"cebpf4jnsgd1na2vs0mg"},{"bike_id":"8bb35802-1570-4969-8422-3f5c2ec441ac","system_id":"levelo_inurba_marseille","lat":43.29185,"lon":5.35815,"is_reserved":false,"is_disabled":false,"rental_uris":{"android":"levelo://app?vid=8bb35802-1570-4969-8422-3f5c2ec441ac","ios":"levelo://app?vid=8bb35802-1570-4969-8422-3f5c2ec441ac"},"vehicle_type_id":"4","last_reported":1748859097,"current_range_meters":19600,"station_id":"ce4bhb12rcd13ifvqel0","pricing_plan_id":"cebpf4jnsgd1na2vs0mg"},{"bike_id":"32c44f89-664a-4983-b403-b86012670adb","system_id":"levelo_inurba_marseille","lat":43.26793,"lon":5.39419,"is_reserved":false,"is_disabled":false,"rental_uris":{"android":"levelo://app?vid=32c44f89-664a-4983-b403-b86012670adb","ios":"levelo://app?vid=32c44f89-664a-4983-b403-b86012670adb"},"vehicle_type_id":"4","last_reported":1748859097,"current_range_meters":19600,"station_id":"ce4bhh12rcd13ifvqfg0","pricing_plan_id":"cebpf4jnsgd1na2vs0mg"},{"bike_id":"91fc325b-ef7f-40e8-a7b0-68a0fb45832b","system_id":"levelo_inurba_marseille","lat":43.23153,"lon":5.43704,"is_reserved":false,"is_disabled":false,"rental_uris":{"android":"levelo://app?vid=91fc325b-ef7f-40e8-a7b0-68a0fb45832b","ios":"levelo://app?vid=91fc325b-ef7f-40e8-a7b0-68a0fb45832b"},"vehicle_type_id":"4","last_reported":1748859097,"current_range_meters":19600,"station_id":"ce4bhmp2rcd13ifvqgog","pricing_plan_id":"cebpf4jnsgd1na2vs0mg"},{"bike_id":"11c29518-7973-4ca5-a8dd-7538a6783bb3","system_id":"levelo_inurba_marseille","lat":43.323616,"lon":5.367465,"is_reserved":false,"is_disabled":false,"rental_uris":{"android":"levelo://app?vid=11c29518-7973-4ca5-a8dd-7538a6783bb3","ios":"levelo://app?vid=11c29518-7973-4ca5-a8dd-7538a6783bb3"},"vehicle_type_id":"4","last_reported":1748859097,"current_range_meters":19600,"station_id":"ce4bhsh2rcd13ifvqi2g","pricing_plan_id":"cebpf4jnsgd1na2vs0mg"},{"bike_id":"25ec67d4-0e3b-4c14-8823-534c6ab10894","system_id":"levelo_inurba_marseille","lat":43.30922,"lon":5.36846,"is_reserved":false,"is_disabled":false,"rental_uris":{"android":"levelo://app?vid=25ec67d4-0e3b-4c14-8823-534c6ab10894","ios":"levelo://app?vid=25ec67d4-0e3b-4c14-8823-534c6ab10894"},"vehicle_type_id":"4","last_reported":1748859097,"current_range_meters":20000,"station_id":"ce4bgn92rcd13ifvqbvg","pricing_plan_id":"cebpf4jnsgd1na2vs0mg"},{"bike_id":"febaf7e4-8a19-4a58-8327-6e5404662d47","system_id":"levelo_inurba_marseille","lat":43.29032,"lon":5.38642,"is_reserved":false,"is_disabled":false,"rental_uris":{"android":"levelo://app?vid=febaf7e4-8a19-4a58-8327-6e5404662d47","ios":"levelo://app?vid=febaf7e4-8a19-4a58-8327-6e5404662d47"},"vehicle_type_id":"4","last_reported":1748859097,"current_range_meters":20000,"station_id":"ce4bh4p2rcd13ifvqe0g","pricing_plan_id":"cebpf4jnsgd1na2vs0mg"},{"bike_id":"4de3e846-8d2d-43f7-ba57-a05f0b4bb2fb","system_id":"levelo_inurba_marseille","lat":43.246566,"lon":5.373869,"is_reserved":false,"is_disabled":false,"rental_uris":{"android":"levelo://app?vid=4de3e846-8d2d-43f7-ba57-a05f0b4bb2fb","ios":"levelo://app?vid=4de3e846-8d2d-43f7-ba57-a05f0b4bb2fb"},"vehicle_type_id":"4","last_reported":1748859097,"current_range_meters":20000,"station_id":"ce4bhhh2rcd13ifvqfk0","pricing_plan_id":"cebpf4jnsgd1na2vs0mg"},{"bike_id":"0f8606fb-3049-4d03-be35-e596889b5abe","system_id":"levelo_inurba_marseille","lat":43.2439,"lon":5.37061,"is_reserved":false,"is_disabled":false,"rental_uris":{"android":"levelo://app?vid=0f8606fb-3049-4d03-be35-e596889b5abe","ios":"levelo://app?vid=0f8606fb-3049-4d03-be35-e596889b5abe"},"vehicle_type_id":"4","last_reported":1748859097,"current_range_meters":20000,"station_id":"ce4bhhh2rcd13ifvqfk0","pricing_plan_id":"cebpf4jnsgd1na2vs0mg"},{"bike_id":"60d8779b-d335-48e5-b4f1-b9da6adf75a8","system_id":"levelo_inurba_marseille","lat":43.21751,"lon":5.34606,"is_reserved":false,"is_disabled":false,"rental_uris":{"android":"levelo://app?vid=60d8779b-d335-48e5-b4f1-b9da6adf75a8","ios":"levelo://app?vid=60d8779b-d335-48e5-b4f1-b9da6adf75a8"},"vehicle_type_id":"4","last_reported":1748859097,"current_range_meters":20000,"station_id":"st_cvj6r9ubvosntc0bgbag","pricing_plan_id":"cebpf4jnsgd1na2vs0mg"},{"bike_id":"13c5a0f0-d226-4ffe-894b-630c4d86cc0c","system_id":"levelo_inurba_marseille","lat":43.28669,"lon":5.3867,"is_reserved":false,"is_disabled":false,"rental_uris":{"android":"levelo://app?vid=13c5a0f0-d226-4ffe-894b-630c4d86cc0c","ios":"levelo://app?vid=13c5a0f0-d226-4ffe-894b-630c4d86cc0c"},"vehicle_type_id":"4","last_reported":1748859097,"current_range_meters":20400,"station_id":"ce4bh492rcd13ifvqdug","pricing_plan_id":"cebpf4jnsgd1na2vs0mg"},{"bike_id":"adeb53d0-a1ed-4edc-ace0-5ba02181543c","system_id":"levelo_inurba_marseille","lat":43.24999,"lon":5.3893,"is_reserved":false,"is_disabled":false,"rental_uris":{"android":"levelo://app?vid=adeb53d0-a1ed-4edc-ace0-5ba02181543c","ios":"levelo://app?vid=adeb53d0-a1ed-4edc-ace0-5ba02181543c"},"vehicle_type_id":"4","last_reported":1748859097,"current_range_meters":20400,"station_id":"ce4bhgp2rcd13ifvqfd0","pricing_plan_id":"cebpf4jnsgd1na2vs0mg"},{"bike_id":"48a1bfde-f369-406d-a708-9196401f640b","system_id":"levelo_inurba_marseille","lat":43.25585,"lon":5.38242,"is_reserved":false,"is_disabled":false,"rental_uris":{"android":"levelo://app?vid=48a1bfde-f369-406d-a708-9196401f640b","ios":"levelo://app?vid=48a1bfde-f369-406d-a708-9196401f640b"},"vehicle_type_id":"4","last_reported":1748859097,"current_range_meters":20400,"station_id":"ce4bhih2rcd13ifvqfs0","pricing_plan_id":"cebpf4jnsgd1na2vs0mg"},{"bike_id":"81661448-d55a-4769-a4d7-6c69e782c7aa","system_id":"levelo_inurba_marseille","lat":43.33727,"lon":5.39189,"is_reserved":false,"is_disabled":false,"rental_uris":{"android":"levelo://app?vid=81661448-d55a-4769-a4d7-6c69e782c7aa","ios":"levelo://app?vid=81661448-d55a-4769-a4d7-6c69e782c7aa"},"vehicle_type_id":"4","last_reported":1748859097,"current_range_meters":20400,"station_id":"ce4bhr92rcd13ifvqhsg","pricing_plan_id":"cebpf4jnsgd1na2vs0mg"},{"bike_id":"44ae34a2-447e-418d-9f31-8eaf75b00fdf","system_id":"levelo_inurba_marseille","lat":43.31237,"lon":5.36866,"is_reserved":false,"is_disabled":false,"rental_uris":{"android":"levelo://app?vid=44ae34a2-447e-418d-9f31-8eaf75b00fdf","ios":"levelo://app?vid=44ae34a2-447e-418d-9f31-8eaf75b00fdf"},"vehicle_type_id":"4","last_reported":1748859097,"current_range_meters":20800,"station_id":"ce4bgl92rcd13ifvqbq0","pricing_plan_id":"cebpf4jnsgd1na2vs0mg"},{"bike_id":"a25381fc-228d-4863-ad80-bf1a6549d9a7","system_id":"levelo_inurba_marseille","lat":43.28725,"lon":5.36076,"is_reserved":false,"is_disabled":false,"rental_uris":{"android":"levelo://app?vid=a25381fc-228d-4863-ad80-bf1a6549d9a7","ios":"levelo://app?vid=a25381fc-228d-4863-ad80-bf1a6549d9a7"},"vehicle_type_id":"4","last_reported":1748859097,"current_range_meters":20800,"station_id":"cki0cbj6b192h4jlfktg","pricing_plan_id":"cebpf4jnsgd1na2vs0mg"},{"bike_id":"49a884c6-32c5-4489-8361-5676db2be1d3","system_id":"levelo_inurba_marseille","lat":43.30482,"lon":5.37099,"is_reserved":false,"is_disabled":false,"rental_uris":{"android":"levelo://app?vid=49a884c6-32c5-4489-8361-5676db2be1d3","ios":"levelo://app?vid=49a884c6-32c5-4489-8361-5676db2be1d3"},"vehicle_type_id":"4","last_reported":1748859097,"current_range_meters":21600,"station_id":"","pricing_plan_id":"cebpf4jnsgd1na2vs0mg"},{"bike_id":"c241f39a-372f-4543-8442-b961460b4650","system_id":"levelo_inurba_marseille","lat":43.26075,"lon":5.41867,"is_reserved":false,"is_disabled":false,"rental_uris":{"android":"levelo://app?vid=c241f39a-372f-4543-8442-b961460b4650","ios":"levelo://app?vid=c241f39a-372f-4543-8442-b961460b4650"},"vehicle_type_id":"4","last_reported":1748859097,"current_range_meters":21600,"station_id":"","pricing_plan_id":"cebpf4jnsgd1na2vs0mg"},{"bike_id":"d6421780-aef4-4f43-bca4-a5885932ea7f","system_id":"levelo_inurba_marseille","lat":43.29795,"lon":5.38102,"is_reserved":false,"is_disabled":false,"rental_uris":{"android":"levelo://app?vid=d6421780-aef4-4f43-bca4-a5885932ea7f","ios":"levelo://app?vid=d6421780-aef4-4f43-bca4-a5885932ea7f"},"vehicle_type_id":"4","last_reported":1748859097,"current_range_meters":21600,"station_id":"ce4bgip2rcd13ifvqbb0","pricing_plan_id":"cebpf4jnsgd1na2vs0mg"},{"bike_id":"6cf133ba-dabe-4ce5-8dd9-200eb73e3298","system_id":"levelo_inurba_marseille","lat":43.31355,"lon":5.36759,"is_reserved":false,"is_disabled":false,"rental_uris":{"android":"levelo://app?vid=6cf133ba-dabe-4ce5-8dd9-200eb73e3298","ios":"levelo://app?vid=6cf133ba-dabe-4ce5-8dd9-200eb73e3298"},"vehicle_type_id":"4","last_reported":1748859097,"current_range_meters":21600,"station_id":"ce4bgr92rcd13ifvqc6g","pricing_plan_id":"cebpf4jnsgd1na2vs0mg"},{"bike_id":"b86c1d44-4ba6-46ec-a0be-e86795258776","system_id":"levelo_inurba_marseille","lat":43.30481,"lon":5.37912,"is_reserved":false,"is_disabled":false,"rental_uris":{"android":"levelo://app?vid=b86c1d44-4ba6-46ec-a0be-e86795258776","ios":"levelo://app?vid=b86c1d44-4ba6-46ec-a0be-e86795258776"},"vehicle_type_id":"4","last_reported":1748859097,"current_range_meters":21600,"station_id":"ce4bgup2rcd13ifvqcn0","pricing_plan_id":"cebpf4jnsgd1na2vs0mg"},{"bike_id":"abdba402-5fdb-4ad8-a01f-544baf4efbb2","system_id":"levelo_inurba_marseille","lat":43.302145,"lon":5.394683,"is_reserved":false,"is_disabled":false,"rental_uris":{"android":"levelo://app?vid=abdba402-5fdb-4ad8-a01f-544baf4efbb2","ios":"levelo://app?vid=abdba402-5fdb-4ad8-a01f-544baf4efbb2"},"vehicle_type_id":"4","last_reported":1748859097,"current_range_meters":21600,"station_id":"ce4bh0p2rcd13ifvqd70","pricing_plan_id":"cebpf4jnsgd1na2vs0mg"},{"bike_id":"76e61468-a839-4c6d-b17f-9a098f18e4d8","system_id":"levelo_inurba_marseille","lat":43.2903,"lon":5.38124,"is_reserved":false,"is_disabled":false,"rental_uris":{"android":"levelo://app?vid=76e61468-a839-4c6d-b17f-9a098f18e4d8","ios":"levelo://app?vid=76e61468-a839-4c6d-b17f-9a098f18e4d8"},"vehicle_type_id":"4","last_reported":1748859097,"current_range_meters":21600,"station_id":"ce4bh4p2rcd13ifvqe1g","pricing_plan_id":"cebpf4jnsgd1na2vs0mg"},{"bike_id":"0d18cae4-7618-4fcd-af24-0d27051ed148","system_id":"levelo_inurba_marseille","lat":43.29791,"lon":5.37107,"is_reserved":false,"is_disabled":false,"rental_uris":{"android":"levelo://app?vid=0d18cae4-7618-4fcd-af24-0d27051ed148","ios":"levelo://app?vid=0d18cae4-7618-4fcd-af24-0d27051ed148"},"vehicle_type_id":"4","last_reported":1748859097,"current_range_meters":22000,"station_id":"ce4bgop2rcd13ifvqc1g","pricing_plan_id":"cebpf4jnsgd1na2vs0mg"},{"bike_id":"69474dd6-5e51-4dd8-9695-b72c4340567e","system_id":"levelo_inurba_marseille","lat":43.30532,"lon":5.36707,"is_reserved":false,"is_disabled":false,"rental_uris":{"android":"levelo://app?vid=69474dd6-5e51-4dd8-9695-b72c4340567e","ios":"levelo://app?vid=69474dd6-5e51-4dd8-9695-b72c4340567e"},"vehicle_type_id":"4","last_reported":1748859097,"current_range_meters":22000,"station_id":"ce4bgrp2rcd13ifvqc9g","pricing_plan_id":"cebpf4jnsgd1na2vs0mg"},{"bike_id":"a39a3a65-ca3e-4859-b57b-a59060775b99","system_id":"levelo_inurba_marseille","lat":43.24805,"lon":5.37447,"is_reserved":false,"is_disabled":false,"rental_uris":{"android":"levelo://app?vid=a39a3a65-ca3e-4859-b57b-a59060775b99","ios":"levelo://app?vid=a39a3a65-ca3e-4859-b57b-a59060775b99"},"vehicle_type_id":"4","last_reported":1748859097,"current_range_meters":22000,"station_id":"ce4bhgh2rcd13ifvqfb0","pricing_plan_id":"cebpf4jnsgd1na2vs0mg"},{"bike_id":"b4efe1cc-7098-4cf2-8cf7-0d77b6c5dc47","system_id":"levelo_inurba_marseille","lat":43.269565,"lon":5.386364,"is_reserved":false,"is_disabled":false,"rental_uris":{"android":"levelo://app?vid=b4efe1cc-7098-4cf2-8cf7-0d77b6c5dc47","ios":"levelo://app?vid=b4efe1cc-7098-4cf2-8cf7-0d77b6c5dc47"},"vehicle_type_id":"4","last_reported":1748859097,"current_range_meters":22000,"station_id":"ce4bhh92rcd13ifvqfh0","pricing_plan_id":"cebpf4jnsgd1na2vs0mg"},{"bike_id":"a3aef21e-4c1c-4697-a4f2-824ca478ddb8","system_id":"levelo_inurba_marseille","lat":43.2466,"lon":5.38162,"is_reserved":false,"is_disabled":false,"rental_uris":{"android":"levelo://app?vid=a3aef21e-4c1c-4697-a4f2-824ca478ddb8","ios":"levelo://app?vid=a3aef21e-4c1c-4697-a4f2-824ca478ddb8"},"vehicle_type_id":"4","last_reported":1748859097,"current_range_meters":22000,"station_id":"ce4bhih2rcd13ifvqfr0","pricing_plan_id":"cebpf4jnsgd1na2vs0mg"},{"bike_id":"63131b8b-483f-4eb6-a2cc-238342fe923b","system_id":"levelo_inurba_marseille","lat":43.274967,"lon":5.424582,"is_reserved":false,"is_disabled":false,"rental_uris":{"android":"levelo://app?vid=63131b8b-483f-4eb6-a2cc-238342fe923b","ios":"levelo://app?vid=63131b8b-483f-4eb6-a2cc-238342fe923b"},"vehicle_type_id":"4","last_reported":1748859097,"current_range_meters":22000,"station_id":"ce4bhn92rcd13ifvqgrg","pricing_plan_id":"cebpf4jnsgd1na2vs0mg"},{"bike_id":"eb99f786-0119-4463-b7ba-b25bff46fd39","system_id":"levelo_inurba_marseille","lat":43.28001,"lon":5.40017,"is_reserved":false,"is_disabled":false,"rental_uris":{"android":"levelo://app?vid=eb99f786-0119-4463-b7ba-b25bff46fd39","ios":"levelo://app?vid=eb99f786-0119-4463-b7ba-b25bff46fd39"},"vehicle_type_id":"4","last_reported":1748859097,"current_range_meters":22000,"station_id":"ce4bho92rcd13ifvqh4g","pricing_plan_id":"cebpf4jnsgd1na2vs0mg"},{"bike_id":"aca9ecb1-f998-466e-af2d-5c380b057d3d","system_id":"levelo_inurba_marseille","lat":43.29621,"lon":5.37165,"is_reserved":false,"is_disabled":false,"rental_uris":{"android":"levelo://app?vid=aca9ecb1-f998-466e-af2d-5c380b057d3d","ios":"levelo://app?vid=aca9ecb1-f998-466e-af2d-5c380b057d3d"},"vehicle_type_id":"4","last_reported":1748859097,"current_range_meters":22400,"station_id":"ce4bgnh2rcd13ifvqc0g","pricing_plan_id":"cebpf4jnsgd1na2vs0mg"},{"bike_id":"b079d4ae-d0a8-42d8-8edf-5f72090c7bd9","system_id":"levelo_inurba_marseille","lat":43.28372,"lon":5.3863,"is_reserved":false,"is_disabled":false,"rental_uris":{"android":"levelo://app?vid=b079d4ae-d0a8-42d8-8edf-5f72090c7bd9","ios":"levelo://app?vid=b079d4ae-d0a8-42d8-8edf-5f72090c7bd9"},"vehicle_type_id":"4","last_reported":1748859097,"current_range_meters":22400,"station_id":"ce4bh492rcd13ifvqdvg","pricing_plan_id":"cebpf4jnsgd1na2vs0mg"},{"bike_id":"b43d4a9d-2ed3-4ae7-8e0f-8ce9175122af","system_id":"levelo_inurba_marseille","lat":43.29007,"lon":5.37792,"is_reserved":false,"is_disabled":false,"rental_uris":{"android":"levelo://app?vid=b43d4a9d-2ed3-4ae7-8e0f-8ce9175122af","ios":"levelo://app?vid=b43d4a9d-2ed3-4ae7-8e0f-8ce9175122af"},"vehicle_type_id":"4","last_reported":1748859097,"current_range_meters":22400,"station_id":"ce4bh9p2rcd13ifvqed0","pricing_plan_id":"cebpf4jnsgd1na2vs0mg"},{"bike_id":"2820fe64-9e1c-4c71-a433-93f84af047bc","system_id":"levelo_inurba_marseille","lat":43.29228,"lon":5.36057,"is_reserved":false,"is_disabled":false,"rental_uris":{"android":"levelo://app?vid=2820fe64-9e1c-4c71-a433-93f84af047bc","ios":"levelo://app?vid=2820fe64-9e1c-4c71-a433-93f84af047bc"},"vehicle_type_id":"4","last_reported":1748859097,"current_range_meters":22400,"station_id":"ce4bhbh2rcd13ifvqeqg","pricing_plan_id":"cebpf4jnsgd1na2vs0mg"},{"bike_id":"80d74ab5-9561-4703-b53b-c6865ed1be15","system_id":"levelo_inurba_marseille","lat":43.26959,"lon":5.38631,"is_reserved":false,"is_disabled":false,"rental_uris":{"android":"levelo://app?vid=80d74ab5-9561-4703-b53b-c6865ed1be15","ios":"levelo://app?vid=80d74ab5-9561-4703-b53b-c6865ed1be15"},"vehicle_type_id":"4","last_reported":1748859097,"current_range_meters":22400,"station_id":"ce4bhh92rcd13ifvqfh0","pricing_plan_id":"cebpf4jnsgd1na2vs0mg"},{"bike_id":"57cbd297-1102-418d-9bf6-eb881d7df8d0","system_id":"levelo_inurba_marseille","lat":43.29897,"lon":5.43673,"is_reserved":false,"is_disabled":false,"rental_uris":{"android":"levelo://app?vid=57cbd297-1102-418d-9bf6-eb881d7df8d0","ios":"levelo://app?vid=57cbd297-1102-418d-9bf6-eb881d7df8d0"},"vehicle_type_id":"4","last_reported":1748859097,"current_range_meters":22400,"station_id":"ce4bhpp2rcd13ifvqhfg","pricing_plan_id":"cebpf4jnsgd1na2vs0mg"},{"bike_id":"493da746-dafe-48bd-9690-7311072be67d","system_id":"levelo_inurba_marseille","lat":43.32362,"lon":5.36758,"is_reserved":false,"is_disabled":false,"rental_uris":{"android":"levelo://app?vid=493da746-dafe-48bd-9690-7311072be67d","ios":"levelo://app?vid=493da746-dafe-48bd-9690-7311072be67d"},"vehicle_type_id":"4","last_reported":1748859097,"current_range_meters":22400,"station_id":"ce4bhsh2rcd13ifvqi2g","pricing_plan_id":"cebpf4jnsgd1na2vs0mg"},{"bike_id":"99554f13-0282-40cf-8fc7-46d43f616047","system_id":"levelo_inurba_marseille","lat":43.2786,"lon":5.35431,"is_reserved":false,"is_disabled":false,"rental_uris":{"android":"levelo://app?vid=99554f13-0282-40cf-8fc7-46d43f616047","ios":"levelo://app?vid=99554f13-0282-40cf-8fc7-46d43f616047"},"vehicle_type_id":"4","last_reported":1748859097,"current_range_meters":22800,"station_id":"","pricing_plan_id":"cebpf4jnsgd1na2vs0mg"},{"bike_id":"e41c5c2b-bf52-4de7-8213-5d82b9a04d4b","system_id":"levelo_inurba_marseille","lat":43.31388,"lon":5.36688,"is_reserved":false,"is_disabled":false,"rental_uris":{"android":"levelo://app?vid=e41c5c2b-bf52-4de7-8213-5d82b9a04d4b","ios":"levelo://app?vid=e41c5c2b-bf52-4de7-8213-5d82b9a04d4b"},"vehicle_type_id":"4","last_reported":1748859097,"current_range_meters":22800,"station_id":"","pricing_plan_id":"cebpf4jnsgd1na2vs0mg"},{"bike_id":"4935bc87-befa-49d3-ba27-86dec7e223a5","system_id":"levelo_inurba_marseille","lat":43.30932,"lon":5.36848,"is_reserved":false,"is_disabled":false,"rental_uris":{"android":"levelo://app?vid=4935bc87-befa-49d3-ba27-86dec7e223a5","ios":"levelo://app?vid=4935bc87-befa-49d3-ba27-86dec7e223a5"},"vehicle_type_id":"4","last_reported":1748859097,"current_range_meters":22800,"station_id":"ce4bgn92rcd13ifvqbvg","pricing_plan_id":"cebpf4jnsgd1na2vs0mg"},{"bike_id":"e6cb6e2a-f5d4-4836-9f68-deffd9f77281","system_id":"levelo_inurba_marseille","lat":43.29774,"lon":5.37081,"is_reserved":false,"is_disabled":false,"rental_uris":{"android":"levelo://app?vid=e6cb6e2a-f5d4-4836-9f68-deffd9f77281","ios":"levelo://app?vid=e6cb6e2a-f5d4-4836-9f68-deffd9f77281"},"vehicle_type_id":"4","last_reported":1748859097,"current_range_meters":22800,"station_id":"ce4bgop2rcd13ifvqc1g","pricing_plan_id":"cebpf4jnsgd1na2vs0mg"},{"bike_id":"dc090d17-1d78-4e0a-bd96-a69cc3e27458","system_id":"levelo_inurba_marseille","lat":43.30545,"lon":5.36549,"is_reserved":false,"is_disabled":false,"rental_uris":{"android":"levelo://app?vid=dc090d17-1d78-4e0a-bd96-a69cc3e27458","ios":"levelo://app?vid=dc090d17-1d78-4e0a-bd96-a69cc3e27458"},"vehicle_type_id":"4","last_reported":1748859097,"current_range_meters":22800,"station_id":"ce4bgs12rcd13ifvqcag","pricing_plan_id":"cebpf4jnsgd1na2vs0mg"},{"bike_id":"b9b753d6-ab75-4b69-ad5e-af471630d1a7","system_id":"levelo_inurba_marseille","lat":43.30481,"lon":5.37914,"is_reserved":false,"is_disabled":false,"rental_uris":{"android":"levelo://app?vid=b9b753d6-ab75-4b69-ad5e-af471630d1a7","ios":"levelo://app?vid=b9b753d6-ab75-4b69-ad5e-af471630d1a7"},"vehicle_type_id":"4","last_reported":1748859097,"current_range_meters":22800,"station_id":"ce4bgup2rcd13ifvqcn0","pricing_plan_id":"cebpf4jnsgd1na2vs0mg"},{"bike_id":"920a976b-5052-4c3d-861d-9fcc975d3d45","system_id":"levelo_inurba_marseille","lat":43.29264,"lon":5.40904,"is_reserved":false,"is_disabled":false,"rental_uris":{"android":"levelo://app?vid=920a976b-5052-4c3d-861d-9fcc975d3d45","ios":"levelo://app?vid=920a976b-5052-4c3d-861d-9fcc975d3d45"},"vehicle_type_id":"4","last_reported":1748859097,"current_range_meters":22800,"station_id":"ce4bh192rcd13ifvqdc0","pricing_plan_id":"cebpf4jnsgd1na2vs0mg"},{"bike_id":"2747ddc4-14b2-469c-bb52-a01a5a500419","system_id":"levelo_inurba_marseille","lat":43.2904,"lon":5.39964,"is_reserved":false,"is_disabled":false,"rental_uris":{"android":"levelo://app?vid=2747ddc4-14b2-469c-bb52-a01a5a500419","ios":"levelo://app?vid=2747ddc4-14b2-469c-bb52-a01a5a500419"},"vehicle_type_id":"4","last_reported":1748859097,"current_range_meters":22800,"station_id":"ce4bh392rcd13ifvqdm0","pricing_plan_id":"cebpf4jnsgd1na2vs0mg"},{"bike_id":"95af9d6f-0ab4-417d-8371-5ebb6745aea7","system_id":"levelo_inurba_marseille","lat":43.26064,"lon":5.39399,"is_reserved":false,"is_disabled":false,"rental_uris":{"android":"levelo://app?vid=95af9d6f-0ab4-417d-8371-5ebb6745aea7","ios":"levelo://app?vid=95af9d6f-0ab4-417d-8371-5ebb6745aea7"},"vehicle_type_id":"4","last_reported":1748859097,"current_range_meters":22800,"station_id":"ce4bhh92rcd13ifvqfj0","pricing_plan_id":"cebpf4jnsgd1na2vs0mg"},{"bike_id":"8f1f301c-b49d-4639-8ca0-7968acd30807","system_id":"levelo_inurba_marseille","lat":43.23968,"lon":5.36629,"is_reserved":false,"is_disabled":false,"rental_uris":{"android":"levelo://app?vid=8f1f301c-b49d-4639-8ca0-7968acd30807","ios":"levelo://app?vid=8f1f301c-b49d-4639-8ca0-7968acd30807"},"vehicle_type_id":"4","last_reported":1748859097,"current_range_meters":22800,"station_id":"ce4bhi12rcd13ifvqfp0","pricing_plan_id":"cebpf4jnsgd1na2vs0mg"},{"bike_id":"ecb87fd8-0db7-4c9e-bce5-a240361af706","system_id":"levelo_inurba_marseille","lat":43.25721,"lon":5.41113,"is_reserved":false,"is_disabled":false,"rental_uris":{"android":"levelo://app?vid=ecb87fd8-0db7-4c9e-bce5-a240361af706","ios":"levelo://app?vid=ecb87fd8-0db7-4c9e-bce5-a240361af706"},"vehicle_type_id":"4","last_reported":1748859097,"current_range_meters":22800,"station_id":"ce4bhkp2rcd13ifvqgd0","pricing_plan_id":"cebpf4jnsgd1na2vs0mg"},{"bike_id":"e6ac337b-b153-4252-bc71-cd164ee8862b","system_id":"levelo_inurba_marseille","lat":43.24177,"lon":5.39726,"is_reserved":false,"is_disabled":false,"rental_uris":{"android":"levelo://app?vid=e6ac337b-b153-4252-bc71-cd164ee8862b","ios":"levelo://app?vid=e6ac337b-b153-4252-bc71-cd164ee8862b"},"vehicle_type_id":"4","last_reported":1748859097,"current_range_meters":22800,"station_id":"ce4bhn12rcd13ifvqgpg","pricing_plan_id":"cebpf4jnsgd1na2vs0mg"},