{"last_updated":1752167530,"ttl":60,"version":"2.2","data":{"bikes":[{"bike_id":"cd20cfea-2f2f-444d-a882-a49b6cf370eb","system_id":"levelo_inurba_marseille","lat":43.337444,"lon":5.374475,"is_reserved":false,"is_disabled":true,"rental_uris":{"android":"levelo://app?vid=cd20cfea-2f2f-444d-a882-a49b6cf370eb","ios":"levelo://app?vid=cd20cfea-2f2f-444d-a882-a49b6cf370eb"},"vehicle_type_id":"4","last_reported":1752167530,"current_range_meters":0,"station_id":"","pricing_plan_id":"cebpf4jnsgd1na2vs0mg"},{"bike_id":"3da29fb8-fc97-44c6-b9ac-31dd456b2fd4","system_id":"levelo_inurba_marseille","lat":43.33771,"lon":5.37424,"is_reserved":false,"is_disabled":true,"rental_uris":{"android":"levelo://app?vid=3da29fb8-fc97-44c6-b9ac-31dd456b2fd4","ios":"levelo://app?vid=3da29fb8-fc97-44c6-b9ac-31dd456b2fd4"},"vehicle_type_id":"4","last_reported":1752167530,"current_range_meters":0,"station_id":"","pricing_plan_id":"cebpf4jnsgd1na2vs0mg"},{"bike_id":"01861ad8-a8d7-4be6-816e-651927c87584","system_id":"levelo_inurba_marseille","lat":43.33751,"lon":5.37456,"is_reserved":false,"is_disabled":true,"rental_uris":{"android":"levelo://app?vid=01861ad8-a8d7-4be6-816e-651927c87584","ios":"levelo://app?vid=01861ad8-a8d7-4be6-816e-651927c87584"},"vehicle_type_id":"4","last_reported":1752167530,"current_range_meters":0,"station_id":"","pricing_plan_id":"cebpf4jnsgd1na2vs0mg"},{"bike_id":"37f2becd-23f9-4f13-a711-38b8024eeec7","system_id":"levelo_inurba_marseille","lat":43.33768,"lon":5.37516,"is_reserved":false,"is_disabled":true,"rental_uris":{"android":"levelo://app?vid=37f2becd-23f9-4f13-a711-38b8024eeec7","ios":"levelo://app?vid=37f2becd-23f9-4f13-a711-38b8024eeec7"},"vehicle_type_id":"4","last_reported":1752167530,"current_range_meters":0,"station_id":"","pricing_plan_id":"cebpf4jnsgd1na2vs0mg"},{"bike_id":"53b1a31e-8ada-40c0-8d64-113a81233c84","system_id":"levelo_inurba_marseille","lat":43.36401,"lon":5.31905,"is_reserved":false,"is_disabled":true,"rental_uris":{"android":"levelo://app?vid=53b1a31e-8ada-40c0-8d64-113a81233c84","ios":"levelo://app?vid=53b1a31e-8ada-40c0-8d64-113a81233c84"},"vehicle_type_id":"4","last_reported":1752167530,"current_range_meters":0,"station_id":"","pricing_plan_id":"cebpf4jnsgd1na2vs0mg"},{"bike_id":"61bd1c86-bc66-4924-9303-c649799e7284","system_id":"levelo_inurba_marseille","lat":43.27379,"lon":5.36256,"is_reserved":false,"is_disabled":true,"rental_uris":{"android":"levelo://app?vid=61bd1c86-bc66-4924-9303-c649799e7284","ios":"levelo://app?vid=61bd1c86-bc66-4924-9303-c649799e7284"},"vehicle_type_id":"4","last_reported":1752167530,"current_range_meters":0,"station_id":"ce4bhbh2rcd13ifvqeo0","pricing_plan_id":"cebpf4jnsgd1na2vs0mg"},{"bike_id":"a0518eb3-d928-481d-9e19-68b82879115b","system_id":"levelo_inurba_marseille","lat":43.292725,"lon":5.368363,"is_reserved":false,"is_disabled":true,"rental_uris":{"android":"levelo://app?vid=a0518eb3-d928-481d-9e19-68b82879115b","ios":"levelo://app?vid=a0518eb3-d928-481d-9e19-68b82879115b"},"vehicle_type_id":"4","last_reported":1752167530,"current_range_meters":0,"station_id":"ce4bhi12rcd13ifvqfo0","pricing_plan_id":"cebpf4jnsgd1na2vs0mg"},{"bike_id":"fd253d23-20da-405b-9198-c84d57bedb11","system_id":"levelo_inurba_marseille","lat":43.26197,"lon":5.3795,"is_reserved":false,"is_disabled":true,"rental_uris":{"android":"levelo://app?vid=fd253d23-20da-405b-9198-c84d57bedb11","ios":"levelo://app?vid=fd253d23-20da-405b-9198-c84d57bedb11"},"vehicle_type_id":"4","last_reported":1752167530,"current_range_meters":0,"station_id":"ce4bhjp2rcd13ifvqg90","pricing_plan_id":"cebpf4jnsgd1na2vs0mg"},{"bike_id":"d3f8ab9d-270d-468d-8e22-a718a8a0bc60","system_id":"levelo_inurba_marseille","lat":43.24165,"lon":5.3972,"is_reserved":false,"is_disabled":true,"rental_uris":{"android":"levelo://app?vid=d3f8ab9d-270d-468d-8e22-a718a8a0bc60","ios":"levelo://app?vid=d3f8ab9d-270d-468d-8e22-a718a8a0bc60"},"vehicle_type_id":"4","last_reported":1752167530,"current_range_meters":0,"station_id":"ce4bhn12rcd13ifvqgpg","pricing_plan_id":"cebpf4jnsgd1na2vs0mg"},{"bike_id":"50d29d87-be07-4be0-8b6b-4da41d4d3fab","system_id":"levelo_inurba_marseille","lat":43.31103,"lon":5.42419,"is_reserved":false,"is_disabled":true,"rental_uris":{"android":"levelo://app?vid=50d29d87-be07-4be0-8b6b-4da41d4d3fab","ios":"levelo://app?vid=50d29d87-be07-4be0-8b6b-4da41d4d3fab"},"vehicle_type_id":"4","last_reported":1752167530,"current_range_meters":0,"station_id":"ce4bhp92rcd13ifvqhag","pricing_plan_id":"cebpf4jnsgd1na2vs0mg"},{"bike_id":"1ea07c30-7637-4836-8280-b70950b610b5","system_id":"levelo_inurba_marseille","lat":43.225037,"lon":5.347858,"is_reserved":false,"is_disabled":true,"rental_uris":{"android":"levelo://app?vid=1ea07c30-7637-4836-8280-b70950b610b5","ios":"levelo://app?vid=1ea07c30-7637-4836-8280-b70950b610b5"},"vehicle_type_id":"4","last_reported":1752167530,"current_range_meters":0,"station_id":"st_cvj5dfep6f1abm77gieg","pricing_plan_id":"cebpf4jnsgd1na2vs0mg"},{"bike_id":"09fce645-58bd-4a97-997e-dd8c8b0ced07","system_id":"levelo_inurba_marseille","lat":43.21746,"lon":5.34603,"is_reserved":false,"is_disabled":true,"rental_uris":{"android":"levelo://app?vid=09fce645-58bd-4a97-997e-dd8c8b0ced07","ios":"levelo://app?vid=09fce645-58bd-4a97-997e-dd8c8b0ced07"},"vehicle_type_id":"4","last_reported":1752167530,"current_range_meters":800,"station_id":"","pricing_plan_id":"cebpf4jnsgd1na2vs0mg"},{"bike_id":"266c1f8a-427b-4a92-a7c7-3d9e1f29ee98","system_id":"levelo_inurba_marseille","lat":43.30591,"lon":5.39346,"is_reserved":false,"is_disabled":true,"rental_uris":{"android":"levelo://app?vid=266c1f8a-427b-4a92-a7c7-3d9e1f29ee98","ios":"levelo://app?vid=266c1f8a-427b-4a92-a7c7-3d9e1f29ee98"},"vehicle_type_id":"4","last_reported":1752167530,"current_range_meters":800,"station_id":"ce4bh0p2rcd13ifvqd80","pricing_plan_id":"cebpf4jnsgd1na2vs0mg"},{"bike_id":"0078f736-5b92-4ee2-bb8b-c035b47df601","system_id":"levelo_inurba_marseille","lat":43.286102,"lon":5.351158,"is_reserved":false,"is_disabled":true,"rental_uris":{"android":"levelo://app?vid=0078f736-5b92-4ee2-bb8b-c035b47df601","ios":"levelo://app?vid=0078f736-5b92-4ee2-bb8b-c035b47df601"},"vehicle_type_id":"4","last_reported":1752167530,"current_range_meters":800,"station_id":"ce4bhch2rcd13ifvqeug","pricing_plan_id":"cebpf4jnsgd1na2vs0mg"},{"bike_id":"888522e3-39b6-4ff3-ad74-ff6c6f771157","system_id":"levelo_inurba_marseille","lat":43.294912,"lon":5.402676,"is_reserved":false,"is_disabled":true,"rental_uris":{"android":"levelo://app?vid=888522e3-39b6-4ff3-ad74-ff6c6f771157","ios":"levelo://app?vid=888522e3-39b6-4ff3-ad74-ff6c6f771157"},"vehicle_type_id":"4","last_reported":1752167530,"current_range_meters":1200,"station_id":"","pricing_plan_id":"cebpf4jnsgd1na2vs0mg"},{"bike_id":"73cfb400-7fd2-441f-89d0-0af972870bd4","system_id":"levelo_inurba_marseille","lat":43.28972,"lon":5.37841,"is_reserved":false,"is_disabled":true,"rental_uris":{"android":"levelo://app?vid=73cfb400-7fd2-441f-89d0-0af972870bd4","ios":"levelo://app?vid=73cfb400-7fd2-441f-89d0-0af972870bd4"},"vehicle_type_id":"4","last_reported":1752167530,"current_range_meters":1200,"station_id":"ce4bh9p2rcd13ifvqed0","pricing_plan_id":"cebpf4jnsgd1na2vs0mg"},{"bike_id":"bef3b551-60ca-407d-8211-d45c24eb3f01","system_id":"levelo_inurba_marseille","lat":43.29219,"lon":5.36052,"is_reserved":false,"is_disabled":true,"rental_uris":{"android":"levelo://app?vid=bef3b551-60ca-407d-8211-d45c24eb3f01","ios":"levelo://app?vid=bef3b551-60ca-407d-8211-d45c24eb3f01"},"vehicle_type_id":"4","last_reported":1752167530,"current_range_meters":1200,"station_id":"ce4bhbh2rcd13ifvqeqg","pricing_plan_id":"cebpf4jnsgd1na2vs0mg"},{"bike_id":"3a3f718b-7046-41ad-85db-ed79103fc14d","system_id":"levelo_inurba_marseille","lat":43.26211,"lon":5.37443,"is_reserved":false,"is_disabled":false,"rental_uris":{"android":"levelo://app?vid=3a3f718b-7046-41ad-85db-ed79103fc14d","ios":"levelo://app?vid=3a3f718b-7046-41ad-85db-ed79103fc14d"},"vehicle_type_id":"4","last_reported":1752167530,"current_range_meters":1200,"station_id":"ce4bhgp2rcd13ifvqfc0","pricing_plan_id":"cebpf4jnsgd1na2vs0mg"},{"bike_id":"8b3160c6-3225-49dd-9a3b-fee6f99fa00d","system_id":"levelo_inurba_marseille","lat":43.26197,"lon":5.37446,"is_reserved":false,"is_disabled":true,"rental_uris":{"android":"levelo://app?vid=8b3160c6-3225-49dd-9a3b-fee6f99fa00d","ios":"levelo://app?vid=8b3160c6-3225-49dd-9a3b-fee6f99fa00d"},"vehicle_type_id":"4","last_reported":1752167530,"current_range_meters":1200,"station_id":"ce4bhgp2rcd13ifvqfc0","pricing_plan_id":"cebpf4jnsgd1na2vs0mg"},{"bike_id":"cffad3ec-3c9d-4d6f-94f4-29e627f8cd29","system_id":"levelo_inurba_marseille","lat":43.27818,"lon":5.40718,"is_reserved":false,"is_disabled":true,"rental_uris":{"android":"levelo://app?vid=cffad3ec-3c9d-4d6f-94f4-29e627f8cd29","ios":"levelo://app?vid=cffad3ec-3c9d-4d6f-94f4-29e627f8cd29"},"vehicle_type_id":"4","last_reported":1752167530,"current_range_meters":1600,"station_id":"ce4bhnh2rcd13ifvqgtg","pricing_plan_id":"cebpf4jnsgd1na2vs0mg"},{"bike_id":"fe557580-7d40-428c-bab9-732dac0da7f1","system_id":"levelo_inurba_marseille","lat":43.21208,"lon":5.35041,"is_reserved":false,"is_disabled":true,"rental_uris":{"android":"levelo://app?vid=fe557580-7d40-428c-bab9-732dac0da7f1","ios":"levelo://app?vid=fe557580-7d40-428c-bab9-732dac0da7f1"},"vehicle_type_id":"4","last_reported":1752167530,"current_range_meters":1600,"station_id":"st_cvj6sg6p6f1abm77japg","pricing_plan_id":"cebpf4jnsgd1na2vs0mg"},{"bike_id":"3ac98dd6-e1ae-4b42-98f3-3e782a6ca8b1","system_id":"levelo_inurba_marseille","lat":43.304749,"lon":5.37932,"is_reserved":false,"is_disabled":true,"rental_uris":{"android":"levelo://app?vid=3ac98dd6-e1ae-4b42-98f3-3e782a6ca8b1","ios":"levelo://app?vid=3ac98dd6-e1ae-4b42-98f3-3e782a6ca8b1"},"vehicle_type_id":"4","last_reported":1752167530,"current_range_meters":2000,"station_id":"ce4bgup2rcd13ifvqcn0","pricing_plan_id":"cebpf4jnsgd1na2vs0mg"},{"bike_id":"440af5f4-2a35-4708-92d4-8d10d2c1dfb6","system_id":"levelo_inurba_marseille","lat":43.30888,"lon":5.37191,"is_reserved":false,"is_disabled":false,"rental_uris":{"android":"levelo://app?vid=440af5f4-2a35-4708-92d4-8d10d2c1dfb6","ios":"levelo://app?vid=440af5f4-2a35-4708-92d4-8d10d2c1dfb6"},"vehicle_type_id":"4","last_reported":1752167530,"current_range_meters":2800,"station_id":"ce4bguh2rcd13ifvqckg","pricing_plan_id":"cebpf4jnsgd1na2vs0mg"},{"bike_id":"3811cf19-7ee8-4d04-af31-4662baab8adf","system_id":"levelo_inurba_marseille","lat":43.27377,"lon":5.36242,"is_reserved":false,"is_disabled":false,"rental_uris":{"android":"levelo://app?vid=3811cf19-7ee8-4d04-af31-4662baab8adf","ios":"levelo://app?vid=3811cf19-7ee8-4d04-af31-4662baab8adf"},"vehicle_type_id":"4","last_reported":1752167530,"current_range_meters":2800,"station_id":"ce4bhbh2rcd13ifvqeo0","pricing_plan_id":"cebpf4jnsgd1na2vs0mg"},{"bike_id":"1a1f053e-c595-4ce2-8bd9-8671456e86d6","system_id":"levelo_inurba_marseille","lat":43.286072,"lon":5.351091,"is_reserved":false,"is_disabled":false,"rental_uris":{"android":"levelo://app?vid=1a1f053e-c595-4ce2-8bd9-8671456e86d6","ios":"levelo://app?vid=1a1f053e-c595-4ce2-8bd9-8671456e86d6"},"vehicle_type_id":"4","last_reported":1752167530,"current_range_meters":3200,"station_id":"ce4bhch2rcd13ifvqeug","pricing_plan_id":"cebpf4jnsgd1na2vs0mg"},{"bike_id":"2354f4ca-20d1-4b1b-b469-739d1656dff6","system_id":"levelo_inurba_marseille","lat":43.29863,"lon":5.38549,"is_reserved":false,"is_disabled":false,"rental_uris":{"android":"levelo://app?vid=2354f4ca-20d1-4b1b-b469-739d1656dff6","ios":"levelo://app?vid=2354f4ca-20d1-4b1b-b469-739d1656dff6"},"vehicle_type_id":"4","last_reported":1752167530,"current_range_meters":4000,"station_id":"","pricing_plan_id":"cebpf4jnsgd1na2vs0mg"},{"bike_id":"e1e2419f-093a-40a2-99e0-e21d456faf60","system_id":"levelo_inurba_marseille","lat":43.25499,"lon":5.37649,"is_reserved":false,"is_disabled":false,"rental_uris":{"android":"levelo://app?vid=e1e2419f-093a-40a2-99e0-e21d456faf60","ios":"levelo://app?vid=e1e2419f-093a-40a2-99e0-e21d456faf60"},"vehicle_type_id":"4","last_reported":1752167530,"current_range_meters":4000,"station_id":"ce4bhh12rcd13ifvqff0","pricing_plan_id":"cebpf4jnsgd1na2vs0mg"},{"bike_id":"918db7a5-06cc-478d-8cba-8e2ddad33277","system_id":"levelo_inurba_marseille","lat":43.26786,"lon":5.39414,"is_reserved":false,"is_disabled":false,"rental_uris":{"android":"levelo://app?vid=918db7a5-06cc-478d-8cba-8e2ddad33277","ios":"levelo://app?vid=918db7a5-06cc-478d-8cba-8e2ddad33277"},"vehicle_type_id":"4","last_reported":1752167530,"current_range_meters":4000,"station_id":"ce4bhh12rcd13ifvqfg0","pricing_plan_id":"cebpf4jnsgd1na2vs0mg"},{"bike_id":"6b6a5200-330a-4dc9-b271-807d027af3d2","system_id":"levelo_inurba_marseille","lat":43.297821,"lon":5.371123,"is_reserved":false,"is_disabled":false,"rental_uris":{"android":"levelo://app?vid=6b6a5200-330a-4dc9-b271-807d027af3d2","ios":"levelo://app?vid=6b6a5200-330a-4dc9-b271-807d027af3d2"},"vehicle_type_id":"4","last_reported":1752167530,"current_range_meters":4400,"station_id":"ce4bgop2rcd13ifvqc1g","pricing_plan_id":"cebpf4jnsgd1na2vs0mg"},{"bike_id":"b4871758-d6d4-4e9e-964a-702921772d52","system_id":"levelo_inurba_marseille","lat":43.27378,"lon":5.36251,"is_reserved":false,"is_disabled":false,"rental_uris":{"android":"levelo://app?vid=b4871758-d6d4-4e9e-964a-702921772d52","ios":"levelo://app?vid=b4871758-d6d4-4e9e-964a-702921772d52"},"vehicle_type_id":"4","last_reported":1752167530,"current_range_meters":4400,"station_id":"ce4bhbh2rcd13ifvqeo0","pricing_plan_id":"cebpf4jnsgd1na2vs0mg"},{"bike_id":"272e800b-0576-4363-8ca1-5d67149cba0f","system_id":"levelo_inurba_marseille","lat":43.2841,"lon":5.34992,"is_reserved":false,"is_disabled":false,"rental_uris":{"android":"levelo://app?vid=272e800b-0576-4363-8ca1-5d67149cba0f","ios":"levelo://app?vid=272e800b-0576-4363-8ca1-5d67149cba0f"},"vehicle_type_id":"4","last_reported":1752167530,"current_range_meters":4400,"station_id":"ce4bhbh2rcd13ifvqepg","pricing_plan_id":"cebpf4jnsgd1na2vs0mg"},{"bike_id":"98abdb4e-f8ab-432d-abde-55506a339876","system_id":"levelo_inurba_marseille","lat":43.248053,"lon":5.374558,"is_reserved":false,"is_disabled":false,"rental_uris":{"android":"levelo://app?vid=98abdb4e-f8ab-432d-abde-55506a339876","ios":"levelo://app?vid=98abdb4e-f8ab-432d-abde-55506a339876"},"vehicle_type_id":"4","last_reported":1752167530,"current_range_meters":4400,"station_id":"ce4bhgh2rcd13ifvqfa0","pricing_plan_id":"cebpf4jnsgd1na2vs0mg"},{"bike_id":"1a05989c-b520-42a7-b4bd-dc947cecbd67","system_id":"levelo_inurba_marseille","lat":43.24806,"lon":5.37453,"is_reserved":false,"is_disabled":false,"rental_uris":{"android":"levelo://app?vid=1a05989c-b520-42a7-b4bd-dc947cecbd67","ios":"levelo://app?vid=1a05989c-b520-42a7-b4bd-dc947cecbd67"},"vehicle_type_id":"4","last_reported":1752167530,"current_range_meters":4400,"station_id":"ce4bhgh2rcd13ifvqfb0","pricing_plan_id":"cebpf4jnsgd1na2vs0mg"},{"bike_id":"f0f9b3b0-4609-4b9c-9b59-1b9d2284ef1f","system_id":"levelo_inurba_marseille","lat":43.28905,"lon":5.3664,"is_reserved":false,"is_disabled":false,"rental_uris":{"android":"levelo://app?vid=f0f9b3b0-4609-4b9c-9b59-1b9d2284ef1f","ios":"levelo://app?vid=f0f9b3b0-4609-4b9c-9b59-1b9d2284ef1f"},"vehicle_type_id":"4","last_reported":1752167530,"current_range_meters":4800,"station_id":"","pricing_plan_id":"cebpf4jnsgd1na2vs0mg"},{"bike_id":"0c1ff6ef-4284-4ff3-9e4a-713db4eb9fa4","system_id":"levelo_inurba_marseille","lat":43.28275,"lon":5.35066,"is_reserved":false,"is_disabled":false,"rental_uris":{"android":"levelo://app?vid=0c1ff6ef-4284-4ff3-9e4a-713db4eb9fa4","ios":"levelo://app?vid=0c1ff6ef-4284-4ff3-9e4a-713db4eb9fa4"},"vehicle_type_id":"4","last_reported":1752167530,"current_range_meters":4800,"station_id":"ce4bhbp2rcd13ifvqerg","pricing_plan_id":"cebpf4jnsgd1na2vs0mg"},{"bike_id":"7adfe782-161f-426c-9909-9086b0500199","system_id":"levelo_inurba_marseille","lat":43.23155,"lon":5.43704,"is_reserved":false,"is_disabled":false,"rental_uris":{"android":"levelo://app?vid=7adfe782-161f-426c-9909-9086b0500199","ios":"levelo://app?vid=7adfe782-161f-426c-9909-9086b0500199"},"vehicle_type_id":"4","last_reported":1752167530,"current_range_meters":4800,"station_id":"ce4bhmp2rcd13ifvqgog","pricing_plan_id":"cebpf4jnsgd1na2vs0mg"},{"bike_id":"f989a2be-23b1-438c-a41f-9e555c042183","system_id":"levelo_inurba_marseille","lat":43.26564,"lon":5.37286,"is_reserved":false,"is_disabled":false,"rental_uris":{"android":"levelo://app?vid=f989a2be-23b1-438c-a41f-9e555c042183","ios":"levelo://app?vid=f989a2be-23b1-438c-a41f-9e555c042183"},"vehicle_type_id":"4","last_reported":1752167530,"current_range_meters":5600,"station_id":"ce4bhg12rcd13ifvqf70","pricing_plan_id":"cebpf4jnsgd1na2vs0mg"},{"bike_id":"4d203810-9ade-4f0b-a054-97fde9007430","system_id":"levelo_inurba_marseille","lat":43.27578,"lon":5.38416,"is_reserved":false,"is_disabled":false,"rental_uris":{"android":"levelo://app?vid=4d203810-9ade-4f0b-a054-97fde9007430","ios":"levelo://app?vid=4d203810-9ade-4f0b-a054-97fde9007430"},"vehicle_type_id":"4","last_reported":1752167530,"current_range_meters":5600,"station_id":"ce4bhh92rcd13ifvqfi0","pricing_plan_id":"cebpf4jnsgd1na2vs0mg"},{"bike_id":"cd5fdbc7-ec17-4ebb-aaed-afdfe0668da3","system_id":"levelo_inurba_marseille","lat":43.25728,"lon":5.41105,"is_reserved":false,"is_disabled":false,"rental_uris":{"android":"levelo://app?vid=cd5fdbc7-ec17-4ebb-aaed-afdfe0668da3","ios":"levelo://app?vid=cd5fdbc7-ec17-4ebb-aaed-afdfe0668da3"},"vehicle_type_id":"4","last_reported":1752167530,"current_range_meters":5600,"station_id":"ce4bhkp2rcd13ifvqgd0","pricing_plan_id":"cebpf4jnsgd1na2vs0mg"},{"bike_id":"85357dd6-caf4-4916-8390-a967654a12a9","system_id":"levelo_inurba_marseille","lat":43.29424,"lon":5.38602,"is_reserved":false,"is_disabled":false,"rental_uris":{"android":"levelo://app?vid=85357dd6-caf4-4916-8390-a967654a12a9","ios":"levelo://app?vid=85357dd6-caf4-4916-8390-a967654a12a9"},"vehicle_type_id":"4","last_reported":1752167530,"current_range_meters":6000,"station_id":"ce4bh2h2rcd13ifvqdh0","pricing_plan_id":"cebpf4jnsgd1na2vs0mg"},{"bike_id":"2e9be419-f2b1-4ce4-8bc3-6cbec123269c","system_id":"levelo_inurba_marseille","lat":43.29036,"lon":5.38148,"is_reserved":false,"is_disabled":false,"rental_uris":{"android":"levelo://app?vid=2e9be419-f2b1-4ce4-8bc3-6cbec123269c","ios":"levelo://app?vid=2e9be419-f2b1-4ce4-8bc3-6cbec123269c"},"vehicle_type_id":"4","last_reported":1752167530,"current_range_meters":6000,"station_id":"ce4bh4p2rcd13ifvqe1g","pricing_plan_id":"cebpf4jnsgd1na2vs0mg"},{"bike_id":"c764ceeb-b1e2-4c84-bebc-e87af4101e59","system_id":"levelo_inurba_marseille","lat":43.29197,"lon":5.35793,"is_reserved":false,"is_disabled":false,"rental_uris":{"android":"levelo://app?vid=c764ceeb-b1e2-4c84-bebc-e87af4101e59","ios":"levelo://app?vid=c764ceeb-b1e2-4c84-bebc-e87af4101e59"},"vehicle_type_id":"4","last_reported":1752167530,"current_range_meters":6000,"station_id":"ce4bhb12rcd13ifvqel0","pricing_plan_id":"cebpf4jnsgd1na2vs0mg"},{"bike_id":"21270359-be0e-4f81-9df7-c4f2e51ea27a","system_id":"levelo_inurba_marseille","lat":43.26222,"lon":5.37436,"is_reserved":false,"is_disabled":false,"rental_uris":{"android":"levelo://app?vid=21270359-be0e-4f81-9df7-c4f2e51ea27a","ios":"levelo://app?vid=21270359-be0e-4f81-9df7-c4f2e51ea27a"},"vehicle_type_id":"4","last_reported":1752167530,"current_range_meters":6000,"station_id":"ce4bhgp2rcd13ifvqfc0","pricing_plan_id":"cebpf4jnsgd1na2vs0mg"},{"bike_id":"336fcccf-1af9-41f1-b7ba-1a3de8324f05","system_id":"levelo_inurba_marseille","lat":43.30467,"lon":5.37909,"is_reserved":false,"is_disabled":false,"rental_uris":{"android":"levelo://app?vid=336fcccf-1af9-41f1-b7ba-1a3de8324f05","ios":"levelo://app?vid=336fcccf-1af9-41f1-b7ba-1a3de8324f05"},"vehicle_type_id":"4","last_reported":1752167530,"current_range_meters":6400,"station_id":"ce4bgup2rcd13ifvqcn0","pricing_plan_id":"cebpf4jnsgd1na2vs0mg"},{"bike_id":"fa705065-5bba-43b8-8164-538716f41348","system_id":"levelo_inurba_marseille","lat":43.30206,"lon":5.39466,"is_reserved":false,"is_disabled":false,"rental_uris":{"android":"levelo://app?vid=fa705065-5bba-43b8-8164-538716f41348","ios":"levelo://app?vid=fa705065-5bba-43b8-8164-538716f41348"},"vehicle_type_id":"4","last_reported":1752167530,"current_range_meters":6400,"station_id":"ce4bh0p2rcd13ifvqd70","pricing_plan_id":"cebpf4jnsgd1na2vs0mg"},{"bike_id":"9697f4f6-e5bd-4cd1-b89d-af3e22325777","system_id":"levelo_inurba_marseille","lat":43.29424,"lon":5.38614,"is_reserved":false,"is_disabled":false,"rental_uris":{"android":"levelo://app?vid=9697f4f6-e5bd-4cd1-b89d-af3e22325777","ios":"levelo://app?vid=9697f4f6-e5bd-4cd1-b89d-af3e22325777"},"vehicle_type_id":"4","last_reported":1752167530,"current_range_meters":6400,"station_id":"ce4bh2h2rcd13ifvqdh0","pricing_plan_id":"cebpf4jnsgd1na2vs0mg"},{"bike_id":"721afe3f-0bb8-4762-ad8c-7403d22a611d","system_id":"levelo_inurba_marseille","lat":43.28107,"lon":5.37842,"is_reserved":false,"is_disabled":false,"rental_uris":{"android":"levelo://app?vid=721afe3f-0bb8-4762-ad8c-7403d22a611d","ios":"levelo://app?vid=721afe3f-0bb8-4762-ad8c-7403d22a611d"},"vehicle_type_id":"4","last_reported":1752167530,"current_range_meters":6400,"station_id":"ce4bha12rcd13ifvqee0","pricing_plan_id":"cebpf4jnsgd1na2vs0mg"},{"bike_id":"026931da-261f-4c7f-8e1a-8d92506dbc48","system_id":"levelo_inurba_marseille","lat":43.302174,"lon":5.394674,"is_reserved":false,"is_disabled":false,"rental_uris":{"android":"levelo://app?vid=026931da-261f-4c7f-8e1a-8d92506dbc48","ios":"levelo://app?vid=026931da-261f-4c7f-8e1a-8d92506dbc48"},"vehicle_type_id":"4","last_reported":1752167530,"current_range_meters":6800,"station_id":"ce4bh0p2rcd13ifvqd70","pricing_plan_id":"cebpf4jnsgd1na2vs0mg"},{"bike_id":"bb6f6226-d593-4dfb-8c81-52917af548ab","system_id":"levelo_inurba_marseille","lat":43.28412,"lon":5.34985,"is_reserved":false,"is_disabled":false,"rental_uris":{"android":"levelo://app?vid=bb6f6226-d593-4dfb-8c81-52917af548ab","ios":"levelo://app?vid=bb6f6226-d593-4dfb-8c81-52917af548ab"},"vehicle_type_id":"4","last_reported":1752167530,"current_range_meters":6800,"station_id":"ce4bhbh2rcd13ifvqepg","pricing_plan_id":"cebpf4jnsgd1na2vs0mg"},{"bike_id":"6fcbbaee-3377-483d-833b-aa46699226b5","system_id":"levelo_inurba_marseille","lat":43.28937,"lon":5.38397,"is_reserved":false,"is_disabled":false,"rental_uris":{"android":"levelo://app?vid=6fcbbaee-3377-483d-833b-aa46699226b5","ios":"levelo://app?vid=6fcbbaee-3377-483d-833b-aa46699226b5"},"vehicle_type_id":"4","last_reported":1752167530,"current_range_meters":7200,"station_id":"ce4bh612rcd13ifvqe6g","pricing_plan_id":"cebpf4jnsgd1na2vs0mg"},{"bike_id":"bb892312-52a8-4595-bcb1-2be1cb922852","system_id":"levelo_inurba_marseille","lat":43.29195,"lon":5.35796,"is_reserved":false,"is_disabled":false,"rental_uris":{"android":"levelo://app?vid=bb892312-52a8-4595-bcb1-2be1cb922852","ios":"levelo://app?vid=bb892312-52a8-4595-bcb1-2be1cb922852"},"vehicle_type_id":"4","last_reported":1752167530,"current_range_meters":7200,"station_id":"ce4bhb12rcd13ifvqel0","pricing_plan_id":"cebpf4jnsgd1na2vs0mg"},{"bike_id":"009dbf84-7693-456d-bbfe-7f7999637c26","system_id":"levelo_inurba_marseille","lat":43.2707,"lon":5.42272,"is_reserved":false,"is_disabled":false,"rental_uris":{"android":"levelo://app?vid=009dbf84-7693-456d-bbfe-7f7999637c26","ios":"levelo://app?vid=009dbf84-7693-456d-bbfe-7f7999637c26"},"vehicle_type_id":"4","last_reported":1752167530,"current_range_meters":7200,"station_id":"ce4bhk92rcd13ifvqgb0","pricing_plan_id":"cebpf4jnsgd1na2vs0mg"},{"bike_id":"483ccda4-e509-42e8-92ee-76d598e3e7e9","system_id":"levelo_inurba_marseille","lat":43.23184,"lon":5.3999,"is_reserved":false,"is_disabled":false,"rental_uris":{"android":"levelo://app?vid=483ccda4-e509-42e8-92ee-76d598e3e7e9","ios":"levelo://app?vid=483ccda4-e509-42e8-92ee-76d598e3e7e9"},"vehicle_type_id":"4","last_reported":1752167530,"current_range_meters":7200,"station_id":"ce4bhn12rcd13ifvqgqg","pricing_plan_id":"cebpf4jnsgd1na2vs0mg"},{"bike_id":"74105b47-6b3b-40a4-a18a-c9c731aa201a","system_id":"levelo_inurba_marseille","lat":43.31097,"lon":5.36746,"is_reserved":false,"is_disabled":false,"rental_uris":{"android":"levelo://app?vid=74105b47-6b3b-40a4-a18a-c9c731aa201a","ios":"levelo://app?vid=74105b47-6b3b-40a4-a18a-c9c731aa201a"},"vehicle_type_id":"4","last_reported":1752167530,"current_range_meters":8400,"station_id":"","pricing_plan_id":"cebpf4jnsgd1na2vs0mg"},{"bike_id":"f573a8fb-f1f8-47c4-901e-ddf2739a5cca","system_id":"levelo_inurba_marseille","lat":43.359969,"lon":5.32478,"is_reserved":false,"is_disabled":false,"rental_uris":{"android":"levelo://app?vid=f573a8fb-f1f8-47c4-901e-ddf2739a5cca","ios":"levelo://app?vid=f573a8fb-f1f8-47c4-901e-ddf2739a5cca"},"vehicle_type_id":"4","last_reported":1752167530,"current_range_meters":8400,"station_id":"","pricing_plan_id":"cebpf4jnsgd1na2vs0mg"},{"bike_id":"b2f60116-997c-4a71-83ae-88ca8cdf5bba","system_id":"levelo_inurba_marseille","lat":43.27619,"lon":5.36107,"is_reserved":false,"is_disabled":false,"rental_uris":{"android":"levelo://app?vid=b2f60116-997c-4a71-83ae-88ca8cdf5bba","ios":"levelo://app?vid=b2f60116-997c-4a71-83ae-88ca8cdf5bba"},"vehicle_type_id":"4","last_reported":1752167530,"current_range_meters":8800,"station_id":"ce4bgj92rcd13ifvqbe0","pricing_plan_id":"cebpf4jnsgd1na2vs0mg"},{"bike_id":"5203a2a0-4938-4d77-a6d5-7b47c639c968","system_id":"levelo_inurba_marseille","lat":43.3091,"lon":5.36845,"is_reserved":false,"is_disabled":false,"rental_uris":{"android":"levelo://app?vid=5203a2a0-4938-4d77-a6d5-7b47c639c968","ios":"levelo://app?vid=5203a2a0-4938-4d77-a6d5-7b47c639c968"},"vehicle_type_id":"4","last_reported":1752167530,"current_range_meters":8800,"station_id":"ce4bgn92rcd13ifvqbvg","pricing_plan_id":"cebpf4jnsgd1na2vs0mg"},{"bike_id":"4a33089d-1470-44ee-b14d-b94e5e5b6409","system_id":"levelo_inurba_marseille","lat":43.26574,"lon":5.39,"is_reserved":false,"is_disabled":false,"rental_uris":{"android":"levelo://app?vid=4a33089d-1470-44ee-b14d-b94e5e5b6409","ios":"levelo://app?vid=4a33089d-1470-44ee-b14d-b94e5e5b6409"},"vehicle_type_id":"4","last_reported":1752167530,"current_range_meters":8800,"station_id":"ce4bhe12rcd13ifvqf30","pricing_plan_id":"cebpf4jnsgd1na2vs0mg"},{"bike_id":"31848a8d-17d0-439e-8462-8105fbf32134","system_id":"levelo_inurba_marseille","lat":43.25495,"lon":5.37645,"is_reserved":false,"is_disabled":false,"rental_uris":{"android":"levelo://app?vid=31848a8d-17d0-439e-8462-8105fbf32134","ios":"levelo://app?vid=31848a8d-17d0-439e-8462-8105fbf32134"},"vehicle_type_id":"4","last_reported":1752167530,"current_range_meters":8800,"station_id":"ce4bhh12rcd13ifvqff0","pricing_plan_id":"cebpf4jnsgd1na2vs0mg"},{"bike_id":"ddaf3fc9-0e91-40ce-b64c-f5c2731f506a","system_id":"levelo_inurba_marseille","lat":43.28726,"lon":5.36087,"is_reserved":false,"is_disabled":false,"rental_uris":{"android":"levelo://app?vid=ddaf3fc9-0e91-40ce-b64c-f5c2731f506a","ios":"levelo://app?vid=ddaf3fc9-0e91-40ce-b64c-f5c2731f506a"},"vehicle_type_id":"4","last_reported":1752167530,"current_range_meters":8800,"station_id":"cki0cbj6b192h4jlfktg","pricing_plan_id":"cebpf4jnsgd1na2vs0mg"},{"bike_id":"ba480b1d-fbef-4d54-9bb0-c2fa8b787212","system_id":"levelo_inurba_marseille","lat":43.2119,"lon":5.35071,"is_reserved":false,"is_disabled":false,"rental_uris":{"android":"levelo://app?vid=ba480b1d-fbef-4d54-9bb0-c2fa8b787212","ios":"levelo://app?vid=ba480b1d-fbef-4d54-9bb0-c2fa8b787212"},"vehicle_type_id":"4","last_reported":1752167530,"current_range_meters":8800,"station_id":"st_cvj6sg6p6f1abm77japg","pricing_plan_id":"cebpf4jnsgd1na2vs0mg"},{"bike_id":"84e7e709-4e4f-4764-818c-af719435bfca","system_id":"levelo_inurba_marseille","lat":43.31926,"lon":5.36775,"is_reserved":false,"is_disabled":false,"rental_uris":{"android":"levelo://app?vid=84e7e709-4e4f-4764-818c-af719435bfca","ios":"levelo://app?vid=84e7e709-4e4f-4764-818c-af719435bfca"},"vehicle_type_id":"4","last_reported":1752167530,"current_range_meters":9200,"station_id":"","pricing_plan_id":"cebpf4jnsgd1na2vs0mg"},{"bike_id":"c887d9c8-a70f-465a-bc71-8d2afec5de7a","system_id":"levelo_inurba_marseille","lat":43.28424,"lon":5.34984,"is_reserved":false,"is_disabled":false,"rental_uris":{"android":"levelo://app?vid=c887d9c8-a70f-465a-bc71-8d2afec5de7a","ios":"levelo://app?vid=c887d9c8-a70f-465a-bc71-8d2afec5de7a"},"vehicle_type_id":"4","last_reported":1752167530,"current_range_meters":9200,"station_id":"ce4bhbh2rcd13ifvqepg","pricing_plan_id":"cebpf4jnsgd1na2vs0mg"},{"bike_id":"52810e48-ccc0-47e3-964a-9771ebcb6c5a","system_id":"levelo_inurba_marseille","lat":43.28421,"lon":5.349935,"is_reserved":false,"is_disabled":false,"rental_uris":{"android":"levelo://app?vid=52810e48-ccc0-47e3-964a-9771ebcb6c5a","ios":"levelo://app?vid=52810e48-ccc0-47e3-964a-9771ebcb6c5a"},"vehicle_type_id":"4","last_reported":1752167530,"current_range_meters":9200,"station_id":"ce4bhbh2rcd13ifvqepg","pricing_plan_id":"cebpf4jnsgd1na2vs0mg"},{"bike_id":"d2b82fa8-a43c-4630-a339-491e1c15da2d","system_id":"levelo_inurba_marseille","lat":43.271799,"lon":5.409984,"is_reserved":false,"is_disabled":false,"rental_uris":{"android":"levelo://app?vid=d2b82fa8-a43c-4630-a339-491e1c15da2d","ios":"levelo://app?vid=d2b82fa8-a43c-4630-a339-491e1c15da2d"},"vehicle_type_id":"4","last_reported":1752167530,"current_range_meters":9200,"station_id":"ce4bhl12rcd13ifvqgf0","pricing_plan_id":"cebpf4jnsgd1na2vs0mg"},{"bike_id":"e803c48b-e1cb-44b5-8669-a414d4e20c34","system_id":"levelo_inurba_marseille","lat":43.29005,"lon":5.35616,"is_reserved":false,"is_disabled":false,"rental_uris":{"android":"levelo://app?vid=e803c48b-e1cb-44b5-8669-a414d4e20c34","ios":"levelo://app?vid=e803c48b-e1cb-44b5-8669-a414d4e20c34"},"vehicle_type_id":"4","last_reported":1752167530,"current_range_meters":9600,"station_id":"ce4bhb92rcd13ifvqen0","pricing_plan_id":"cebpf4jnsgd1na2vs0mg"},{"bike_id":"298809f7-0a38-4670-b28d-6a0bf3cc560d","system_id":"levelo_inurba_marseille","lat":43.273825,"lon":5.362592,"is_reserved":false,"is_disabled":false,"rental_uris":{"android":"levelo://app?vid=298809f7-0a38-4670-b28d-6a0bf3cc560d","ios":"levelo://app?vid=298809f7-0a38-4670-b28d-6a0bf3cc560d"},"vehicle_type_id":"4","last_reported":1752167530,"current_range_meters":9600,"station_id":"ce4bhbh2rcd13ifvqeo0","pricing_plan_id":"cebpf4jnsgd1na2vs0mg"},{"bike_id":"993f1c0d-8afc-4381-ae18-d8d534716fce","system_id":"levelo_inurba_marseille","lat":43.28424,"lon":5.34989,"is_reserved":false,"is_disabled":false,"rental_uris":{"android":"levelo://app?vid=993f1c0d-8afc-4381-ae18-d8d534716fce","ios":"levelo://app?vid=993f1c0d-8afc-4381-ae18-d8d534716fce"},"vehicle_type_id":"4","last_reported":1752167530,"current_range_meters":9600,"station_id":"ce4bhbh2rcd13ifvqepg","pricing_plan_id":"cebpf4jnsgd1na2vs0mg"},{"bike_id":"38b29baf-6ca9-42ef-be0c-1c796126a414","system_id":"levelo_inurba_marseille","lat":43.28422,"lon":5.34987,"is_reserved":false,"is_disabled":false,"rental_uris":{"android":"levelo://app?vid=38b29baf-6ca9-42ef-be0c-1c796126a414","ios":"levelo://app?vid=38b29baf-6ca9-42ef-be0c-1c796126a414"},"vehicle_type_id":"4","last_reported":1752167530,"current_range_meters":9600,"station_id":"ce4bhbh2rcd13ifvqepg","pricing_plan_id":"cebpf4jnsgd1na2vs0mg"},{"bike_id":"56c06933-7b74-48ca-a11b-e8bafb8a11d2","system_id":"levelo_inurba_marseille","lat":43.28422,"lon":5.34987,"is_reserved":false,"is_disabled":false,"rental_uris":{"android":"levelo://app?vid=56c06933-7b74-48ca-a11b-e8bafb8a11d2","ios":"levelo://app?vid=56c06933-7b74-48ca-a11b-e8bafb8a11d2"},"vehicle_type_id":"4","last_reported":1752167530,"current_range_meters":9600,"station_id":"ce4bhbh2rcd13ifvqepg","pricing_plan_id":"cebpf4jnsgd1na2vs0mg"},{"bike_id":"ba654da9-7e0e-4154-8edc-98847a735030","system_id":"levelo_inurba_marseille","lat":43.28271,"lon":5.35063,"is_reserved":false,"is_disabled":false,"rental_uris":{"android":"levelo://app?vid=ba654da9-7e0e-4154-8edc-98847a735030","ios":"levelo://app?vid=ba654da9-7e0e-4154-8edc-98847a735030"},"vehicle_type_id":"4","last_reported":1752167530,"current_range_meters":9600,"station_id":"ce4bhbp2rcd13ifvqerg","pricing_plan_id":"cebpf4jnsgd1na2vs0mg"},{"bike_id":"45f7b34d-b4f5-4ad7-9cd1-9c50567c16ab","system_id":"levelo_inurba_marseille","lat":43.28613,"lon":5.35112,"is_reserved":false,"is_disabled":false,"rental_uris":{"android":"levelo://app?vid=45f7b34d-b4f5-4ad7-9cd1-9c50567c16ab","ios":"levelo://app?vid=45f7b34d-b4f5-4ad7-9cd1-9c50567c16ab"},"vehicle_type_id":"4","last_reported":1752167530,"current_range_meters":9600,"station_id":"ce4bhch2rcd13ifvqeug","pricing_plan_id":"cebpf4jnsgd1na2vs0mg"},{"bike_id":"6e41647d-5326-44ed-8a88-8e93c973aaf9","system_id":"levelo_inurba_marseille","lat":43.23197,"lon":5.35548,"is_reserved":false,"is_disabled":false,"rental_uris":{"android":"levelo://app?vid=6e41647d-5326-44ed-8a88-8e93c973aaf9","ios":"levelo://app?vid=6e41647d-5326-44ed-8a88-8e93c973aaf9"},"vehicle_type_id":"4","last_reported":1752167530,"current_range_meters":9600,"station_id":"ce4bhu92rcd13ifvqi70","pricing_plan_id":"cebpf4jnsgd1na2vs0mg"},{"bike_id":"6e5c2657-ccb8-4153-8b94-2143bc427a03","system_id":"levelo_inurba_marseille","lat":43.2251,"lon":5.34782,"is_reserved":false,"is_disabled":false,"rental_uris":{"android":"levelo://app?vid=6e5c2657-ccb8-4153-8b94-2143bc427a03","ios":"levelo://app?vid=6e5c2657-ccb8-4153-8b94-2143bc427a03"},"vehicle_type_id":"4","last_reported":1752167530,"current_range_meters":9600,"station_id":"st_cvj5dfep6f1abm77gieg","pricing_plan_id":"cebpf4jnsgd1na2vs0mg"},{"bike_id":"b757ffbb-2b71-4330-9f60-5f8a9d46d16e","system_id":"levelo_inurba_marseille","lat":43.29673,"lon":5.37101,"is_reserved":false,"is_disabled":false,"rental_uris":{"android":"levelo://app?vid=b757ffbb-2b71-4330-9f60-5f8a9d46d16e","ios":"levelo://app?vid=b757ffbb-2b71-4330-9f60-5f8a9d46d16e"},"vehicle_type_id":"4","last_reported":1752167530,"current_range_meters":10000,"station_id":"","pricing_plan_id":"cebpf4jnsgd1na2vs0mg"},{"bike_id":"b2caa530-bb19-4cc6-a6bd-61e3e1d7432e","system_id":"levelo_inurba_marseille","lat":43.33763,"lon":5.37461,"is_reserved":false,"is_disabled":false,"rental_uris":{"android":"levelo://app?vid=b2caa530-bb19-4cc6-a6bd-61e3e1d7432e","ios":"levelo://app?vid=b2caa530-bb19-4cc6-a6bd-61e3e1d7432e"},"vehicle_type_id":"4","last_reported":1752167530,"current_range_meters":10000,"station_id":"","pricing_plan_id":"cebpf4jnsgd1na2vs0mg"},{"bike_id":"83caaf0d-b918-4b8a-83e5-fb6a9ff083fb","system_id":"levelo_inurba_marseille","lat":43.29451,"lon":5.37458,"is_reserved":false,"is_disabled":false,"rental_uris":{"android":"levelo://app?vid=83caaf0d-b918-4b8a-83e5-fb6a9ff083fb","ios":"levelo://app?vid=83caaf0d-b918-4b8a-83e5-fb6a9ff083fb"},"vehicle_type_id":"4","last_reported":1752167530,"current_range_meters":10000,"station_id":"","pricing_plan_id":"cebpf4jnsgd1na2vs0mg"},{"bike_id":"833f97ec-e704-4051-ab3b-2e9eb58f71d0","system_id":"levelo_inurba_marseille","lat":43.30235,"lon":5.37539,"is_reserved":false,"is_disabled":false,"rental_uris":{"android":"levelo://app?vid=833f97ec-e704-4051-ab3b-2e9eb58f71d0","ios":"levelo://app?vid=833f97ec-e704-4051-ab3b-2e9eb58f71d0"},"vehicle_type_id":"4","last_reported":1752167530,"current_range_meters":10000,"station_id":"","pricing_plan_id":"cebpf4jnsgd1na2vs0mg"},{"bike_id":"6ef5f3ea-45a5-4129-a8bc-9005968550f8","system_id":"levelo_inurba_marseille","lat":43.30418,"lon":5.36846,"is_reserved":false,"is_disabled":false,"rental_uris":{"android":"levelo://app?vid=6ef5f3ea-45a5-4129-a8bc-9005968550f8","ios":"levelo://app?vid=6ef5f3ea-45a5-4129-a8bc-9005968550f8"},"vehicle_type_id":"4","last_reported":1752167530,"current_range_meters":10000,"station_id":"","pricing_plan_id":"cebpf4jnsgd1na2vs0mg"},{"bike_id":"0a5a8014-9a41-4181-a0f7-b5bcb9826727","system_id":"levelo_inurba_marseille","lat":43.30145,"lon":5.38089,"is_reserved":false,"is_disabled":false,"rental_uris":{"android":"levelo://app?vid=0a5a8014-9a41-4181-a0f7-b5bcb9826727","ios":"levelo://app?vid=0a5a8014-9a41-4181-a0f7-b5bcb9826727"},"vehicle_type_id":"4","last_reported":1752167530,"current_range_meters":10000,"station_id":"ce4bgjp2rcd13ifvqbh0","pricing_plan_id":"cebpf4jnsgd1na2vs0mg"},{"bike_id":"9b39a73d-c207-4987-805a-242d298fdd18","system_id":"levelo_inurba_marseille","lat":43.27812,"lon":5.40711,"is_reserved":false,"is_disabled":false,"rental_uris":{"android":"levelo://app?vid=9b39a73d-c207-4987-805a-242d298fdd18","ios":"levelo://app?vid=9b39a73d-c207-4987-805a-242d298fdd18"},"vehicle_type_id":"4","last_reported":1752167530,"current_range_meters":10000,"station_id":"ce4bhnh2rcd13ifvqgtg","pricing_plan_id":"cebpf4jnsgd1na2vs0mg"},{"bike_id":"fdc767f0-9c3d-463f-908e-f830f4be7336","system_id":"levelo_inurba_marseille","lat":43.2971,"lon":5.37698,"is_reserved":false,"is_disabled":false,"rental_uris":{"android":"levelo://app?vid=fdc767f0-9c3d-463f-908e-f830f4be7336","ios":"levelo://app?vid=fdc767f0-9c3d-463f-908e-f830f4be7336"},"vehicle_type_id":"4","last_reported":1752167530,"current_range_meters":10800,"station_id":"ce4bgkh2rcd13ifvqbl0","pricing_plan_id":"cebpf4jnsgd1na2vs0mg"},{"bike_id":"051e4d81-7ebf-4304-8d7c-7acb25a25457","system_id":"levelo_inurba_marseille","lat":43.29009,"lon":5.35641,"is_reserved":false,"is_disabled":false,"rental_uris":{"android":"levelo://app?vid=051e4d81-7ebf-4304-8d7c-7acb25a25457","ios":"levelo://app?vid=051e4d81-7ebf-4304-8d7c-7acb25a25457"},"vehicle_type_id":"4","last_reported":1752167530,"current_range_meters":10800,"station_id":"ce4bhb92rcd13ifvqen0","pricing_plan_id":"cebpf4jnsgd1na2vs0mg"},{"bike_id":"b044b02e-96f0-42bc-944b-a13b3c08707f","system_id":"levelo_inurba_marseille","lat":43.2841,"lon":5.34987,"is_reserved":false,"is_disabled":false,"rental_uris":{"android":"levelo://app?vid=b044b02e-96f0-42bc-944b-a13b3c08707f","ios":"levelo://app?vid=b044b02e-96f0-42bc-944b-a13b3c08707f"},"vehicle_type_id":"4","last_reported":1752167530,"current_range_meters":10800,"station_id":"ce4bhbh2rcd13ifvqepg","pricing_plan_id":"cebpf4jnsgd1na2vs0mg"},{"bike_id":"af5f2d13-a59b-4a57-a272-e84f7525f466","system_id":"levelo_inurba_marseille","lat":43.2827,"lon":5.35059,"is_reserved":false,"is_disabled":false,"rental_uris":{"android":"levelo://app?vid=af5f2d13-a59b-4a57-a272-e84f7525f466","ios":"levelo://app?vid=af5f2d13-a59b-4a57-a272-e84f7525f466"},"vehicle_type_id":"4","last_reported":1752167530,"current_range_meters":10800,"station_id":"ce4bhbp2rcd13ifvqerg","pricing_plan_id":"cebpf4jnsgd1na2vs0mg"},{"bike_id":"75b3246f-c6c5-4cb4-b582-95e731cbb8b9","system_id":"levelo_inurba_marseille","lat":43.28617,"lon":5.35102,"is_reserved":false,"is_disabled":false,"rental_uris":{"android":"levelo://app?vid=75b3246f-c6c5-4cb4-b582-95e731cbb8b9","ios":"levelo://app?vid=75b3246f-c6c5-4cb4-b582-95e731cbb8b9"},"vehicle_type_id":"4","last_reported":1752167530,"current_range_meters":10800,"station_id":"ce4bhch2rcd13ifvqeug","pricing_plan_id":"cebpf4jnsgd1na2vs0mg"},{"bike_id":"6afe4ec8-f404-4688-88ff-e604a654e216","system_id":"levelo_inurba_marseille","lat":43.2971,"lon":5.36597,"is_reserved":false,"is_disabled":false,"rental_uris":{"android":"levelo://app?vid=6afe4ec8-f404-4688-88ff-e604a654e216","ios":"levelo://app?vid=6afe4ec8-f404-4688-88ff-e604a654e216"},"vehicle_type_id":"4","last_reported":1752167530,"current_range_meters":11200,"station_id":"ce4bgn12rcd13ifvqbt0","pricing_plan_id":"cebpf4jnsgd1na2vs0mg"},{"bike_id":"d7e7ad64-03e6-4f0e-bbc7-1e6c905ca785","system_id":"levelo_inurba_marseille","lat":43.29188,"lon":5.358,"is_reserved":false,"is_disabled":false,"rental_uris":{"android":"levelo://app?vid=d7e7ad64-03e6-4f0e-bbc7-1e6c905ca785","ios":"levelo://app?vid=d7e7ad64-03e6-4f0e-bbc7-1e6c905ca785"},"vehicle_type_id":"4","last_reported":1752167530,"current_range_meters":11200,"station_id":"ce4bhb12rcd13ifvqel0","pricing_plan_id":"cebpf4jnsgd1na2vs0mg"},{"bike_id":"73fc7984-12e3-4bae-9195-8440a99a0ee7","system_id":"levelo_inurba_marseille","lat":43.28614,"lon":5.351,"is_reserved":false,"is_disabled":false,"rental_uris":{"android":"levelo://app?vid=73fc7984-12e3-4bae-9195-8440a99a0ee7","ios":"levelo://app?vid=73fc7984-12e3-4bae-9195-8440a99a0ee7"},"vehicle_type_id":"4","last_reported":1752167530,"current_range_meters":11200,"station_id":"ce4bhch2rcd13ifvqeug","pricing_plan_id":"cebpf4jnsgd1na2vs0mg"},{"bike_id":"2a2c2ba3-f4e7-4476-b21e-559d75857b71","system_id":"levelo_inurba_marseille","lat":43.27064,"lon":5.4229,"is_reserved":false,"is_disabled":false,"rental_uris":{"android":"levelo://app?vid=2a2c2ba3-f4e7-4476-b21e-559d75857b71","ios":"levelo://app?vid=2a2c2ba3-f4e7-4476-b21e-559d75857b71"},"vehicle_type_id":"4","last_reported":1752167530,"current_range_meters":11200,"station_id":"ce4bhk92rcd13ifvqgb0","pricing_plan_id":"cebpf4jnsgd1na2vs0mg"},{"bike_id":"f19cfed9-37fa-4e11-9d2e-80fea88e1abf","system_id":"levelo_inurba_marseille","lat":43.30379,"lon":5.42489,"is_reserved":false,"is_disabled":false,"rental_uris":{"android":"levelo://app?vid=f19cfed9-37fa-4e11-9d2e-80fea88e1abf","ios":"levelo://app?vid=f19cfed9-37fa-4e11-9d2e-80fea88e1abf"},"vehicle_type_id":"4","last_reported":1752167530,"current_range_meters":11200,"station_id":"ce4bhoh2rcd13ifvqh6g","pricing_plan_id":"cebpf4jnsgd1na2vs0mg"},{"bike_id":"f9ee97f3-793a-4037-86cc-dfe626a501ba","system_id":"levelo_inurba_marseille","lat":43.28427,"lon":5.34988,"is_reserved":false,"is_disabled":false,"rental_uris":{"android":"levelo://app?vid=f9ee97f3-793a-4037-86cc-dfe626a501ba","ios":"levelo://app?vid=f9ee97f3-793a-4037-86cc-dfe626a501ba"},"vehicle_type_id":"4","last_reported":1752167530,"current_range_meters":11600,"station_id":"ce4bhbh2rcd13ifvqepg","pricing_plan_id":"cebpf4jnsgd1na2vs0mg"},{"bike_id":"911fb65e-605a-41f3-aea9-a838749a8f81","system_id":"levelo_inurba_marseille","lat":43.248024,"lon":5.374579,"is_reserved":false,"is_disabled":false,"rental_uris":{"android":"levelo://app?vid=911fb65e-605a-41f3-aea9-a838749a8f81","ios":"levelo://app?vid=911fb65e-605a-41f3-aea9-a838749a8f81"},"vehicle_type_id":"4","last_reported":1752167530,"current_range_meters":11600,"station_id":"ce4bhgh2rcd13ifvqfb0","pricing_plan_id":"cebpf4jnsgd1na2vs0mg"},{"bike_id":"3e9bf0ba-20ef-4d1d-8346-6d7b9775dbd9","system_id":"levelo_inurba_marseille","lat":43.28418,"lon":5.3499,"is_reserved":false,"is_disabled":false,"rental_uris":{"android":"levelo://app?vid=3e9bf0ba-20ef-4d1d-8346-6d7b9775dbd9","ios":"levelo://app?vid=3e9bf0ba-20ef-4d1d-8346-6d7b9775dbd9"},"vehicle_type_id":"4","last_reported":1752167530,"current_range_meters":12000,"station_id":"ce4bhbh2rcd13ifvqepg","pricing_plan_id":"cebpf4jnsgd1na2vs0mg"},{"bike_id":"32b0a09d-db22-4845-ba5e-b043bb8d161e","system_id":"levelo_inurba_marseille","lat":43.2841,"lon":5.34985,"is_reserved":false,"is_disabled":false,"rental_uris":{"android":"levelo://app?vid=32b0a09d-db22-4845-ba5e-b043bb8d161e","ios":"levelo://app?vid=32b0a09d-db22-4845-ba5e-b043bb8d161e"},"vehicle_type_id":"4","last_reported":1752167530,"current_range_meters":12000,"station_id":"ce4bhbh2rcd13ifvqepg","pricing_plan_id":"cebpf4jnsgd1na2vs0mg"},{"bike_id":"36114969-1f46-402f-b864-fb74509942e9","system_id":"levelo_inurba_marseille","lat":43.28416,"lon":5.37519,"is_reserved":false,"is_disabled":false,"rental_uris":{"android":"levelo://app?vid=36114969-1f46-402f-b864-fb74509942e9","ios":"levelo://app?vid=36114969-1f46-402f-b864-fb74509942e9"},"vehicle_type_id":"4","last_reported":1752167530,"current_range_meters":12400,"station_id":"ce4bh412rcd13ifvqds0","pricing_plan_id":"cebpf4jnsgd1na2vs0mg"},{"bike_id":"ce28c9c3-2392-4fc2-8a9a-4bdf5f9620c6","system_id":"levelo_inurba_marseille","lat":43.31727,"lon":5.42395,"is_reserved":false,"is_disabled":false,"rental_uris":{"android":"levelo://app?vid=ce28c9c3-2392-4fc2-8a9a-4bdf5f9620c6","ios":"levelo://app?vid=ce28c9c3-2392-4fc2-8a9a-4bdf5f9620c6"},"vehicle_type_id":"4","last_reported":1752167530,"current_range_meters":12400,"station_id":"ce4bhp92rcd13ifvqhbg","pricing_plan_id":"cebpf4jnsgd1na2vs0mg"},{"bike_id":"feaa7e3a-cbe4-4489-be11-8a12d7eec173","system_id":"levelo_inurba_marseille","lat":43.25169,"lon":5.42484,"is_reserved":false,"is_disabled":false,"rental_uris":{"android":"levelo://app?vid=feaa7e3a-cbe4-4489-be11-8a12d7eec173","ios":"levelo://app?vid=feaa7e3a-cbe4-4489-be11-8a12d7eec173"},"vehicle_type_id":"4","last_reported":1752167530,"current_range_meters":12800,"station_id":"","pricing_plan_id":"cebpf4jnsgd1na2vs0mg"},{"bike_id":"a4d981d0-abe8-4fb3-947d-575b5838dea6","system_id":"levelo_inurba_marseille","lat":43.287047,"lon":5.400294,"is_reserved":false,"is_disabled":false,"rental_uris":{"android":"levelo://app?vid=a4d981d0-abe8-4fb3-947d-575b5838dea6","ios":"levelo://app?vid=a4d981d0-abe8-4fb3-947d-575b5838dea6"},"vehicle_type_id":"4","last_reported":1752167530,"current_range_meters":12800,"station_id":"ce4bho92rcd13ifvqh3g","pricing_plan_id":"cebpf4jnsgd1na2vs0mg"},{"bike_id":"9c8f498b-4015-40a3-96b2-555930ef1a5e","system_id":"levelo_inurba_marseille","lat":43.30262,"lon":5.40076,"is_reserved":false,"is_disabled":false,"rental_uris":{"android":"levelo://app?vid=9c8f498b-4015-40a3-96b2-555930ef1a5e","ios":"levelo://app?vid=9c8f498b-4015-40a3-96b2-555930ef1a5e"},"vehicle_type_id":"4","last_reported":1752167530,"current_range_meters":13600,"station_id":"ce4bgvh2rcd13ifvqcs0","pricing_plan_id":"cebpf4jnsgd1na2vs0mg"},{"bike_id":"de010bc4-5e98-41bd-aed3-9094f259cc5a","system_id":"levelo_inurba_marseille","lat":43.24168,"lon":5.3641,"is_reserved":false,"is_disabled":false,"rental_uris":{"android":"levelo://app?vid=de010bc4-5e98-41bd-aed3-9094f259cc5a","ios":"levelo://app?vid=de010bc4-5e98-41bd-aed3-9094f259cc5a"},"vehicle_type_id":"4","last_reported":1752167530,"current_range_meters":13600,"station_id":"cpo36qri1sfpv3e86is0","pricing_plan_id":"cebpf4jnsgd1na2vs0mg"},{"bike_id":"d4fef870-f3df-418c-b45a-632453acc9ad","system_id":"levelo_inurba_marseille","lat":43.22523,"lon":5.34759,"is_reserved":false,"is_disabled":false,"rental_uris":{"android":"levelo://app?vid=d4fef870-f3df-418c-b45a-632453acc9ad","ios":"levelo://app?vid=d4fef870-f3df-418c-b45a-632453acc9ad"},"vehicle_type_id":"4","last_reported":1752167530,"current_range_meters":13600,"station_id":"st_cvj5dfep6f1abm77gieg","pricing_plan_id":"cebpf4jnsgd1na2vs0mg"},{"bike_id":"d738154a-b7a8-47ee-b4de-b37e92312c88","system_id":"levelo_inurba_marseille","lat":43.26177,"lon":5.37049,"is_reserved":false,"is_disabled":false,"rental_uris":{"android":"levelo://app?vid=d738154a-b7a8-47ee-b4de-b37e92312c88","ios":"levelo://app?vid=d738154a-b7a8-47ee-b4de-b37e92312c88"},"vehicle_type_id":"4","last_reported":1752167530,"current_range_meters":14000,"station_id":"","pricing_plan_id":"cebpf4jnsgd1na2vs0mg"},{"bike_id":"d3e8264f-5e78-41b8-b5b0-557e389e6623","system_id":"levelo_inurba_marseille","lat":43.31371,"lon":5.37159,"is_reserved":false,"is_disabled":false,"rental_uris":{"android":"levelo://app?vid=d3e8264f-5e78-41b8-b5b0-557e389e6623","ios":"levelo://app?vid=d3e8264f-5e78-41b8-b5b0-557e389e6623"},"vehicle_type_id":"4","last_reported":1752167530,"current_range_meters":14000,"station_id":"","pricing_plan_id":"cebpf4jnsgd1na2vs0mg"},{"bike_id":"7cf55c75-0015-44a1-b036-cc661ec97deb","system_id":"levelo_inurba_marseille","lat":43.29251,"lon":5.40908,"is_reserved":false,"is_disabled":false,"rental_uris":{"android":"levelo://app?vid=7cf55c75-0015-44a1-b036-cc661ec97deb","ios":"levelo://app?vid=7cf55c75-0015-44a1-b036-cc661ec97deb"},"vehicle_type_id":"4","last_reported":1752167530,"current_range_meters":14000,"station_id":"ce4bh192rcd13ifvqdc0","pricing_plan_id":"cebpf4jnsgd1na2vs0mg"},{"bike_id":"c1a2a69e-9bf5-4849-b55f-6847b98c70a7","system_id":"levelo_inurba_marseille","lat":43.29008,"lon":5.35614,"is_reserved":false,"is_disabled":false,"rental_uris":{"android":"levelo://app?vid=c1a2a69e-9bf5-4849-b55f-6847b98c70a7","ios":"levelo://app?vid=c1a2a69e-9bf5-4849-b55f-6847b98c70a7"},"vehicle_type_id":"4","last_reported":1752167530,"current_range_meters":14400,"station_id":"","pricing_plan_id":"cebpf4jnsgd1na2vs0mg"},{"bike_id":"f32f6ada-b962-4b95-b6f2-23b61857e6ea","system_id":"levelo_inurba_marseille","lat":43.31497,"lon":5.37305,"is_reserved":false,"is_disabled":false,"rental_uris":{"android":"levelo://app?vid=f32f6ada-b962-4b95-b6f2-23b61857e6ea","ios":"levelo://app?vid=f32f6ada-b962-4b95-b6f2-23b61857e6ea"},"vehicle_type_id":"4","last_reported":1752167530,"current_range_meters":14400,"station_id":"ce4bgt12rcd13ifvqcd0","pricing_plan_id":"cebpf4jnsgd1na2vs0mg"},{"bike_id":"5e652fbf-2930-4f54-b983-f14790f50846","system_id":"levelo_inurba_marseille","lat":43.2738,"lon":5.36258,"is_reserved":false,"is_disabled":false,"rental_uris":{"android":"levelo://app?vid=5e652fbf-2930-4f54-b983-f14790f50846","ios":"levelo://app?vid=5e652fbf-2930-4f54-b983-f14790f50846"},"vehicle_type_id":"4","last_reported":1752167530,"current_range_meters":14400,"station_id":"ce4bhbh2rcd13ifvqeo0","pricing_plan_id":"cebpf4jnsgd1na2vs0mg"},{"bike_id":"2475ccac-1fc0-4e21-95df-5b2f6894069f","system_id":"levelo_inurba_marseille","lat":43.28424,"lon":5.3499,"is_reserved":false,"is_disabled":false,"rental_uris":{"android":"levelo://app?vid=2475ccac-1fc0-4e21-95df-5b2f6894069f","ios":"levelo://app?vid=2475ccac-1fc0-4e21-95df-5b2f6894069f"},"vehicle_type_id":"4","last_reported":1752167530,"current_range_meters":14400,"station_id":"ce4bhbh2rcd13ifvqepg","pricing_plan_id":"cebpf4jnsgd1na2vs0mg"},{"bike_id":"119b7eed-1582-4766-b484-107798ee8de6","system_id":"levelo_inurba_marseille","lat":43.28414,"lon":5.34987,"is_reserved":false,"is_disabled":false,"rental_uris":{"android":"levelo://app?vid=119b7eed-1582-4766-b484-107798ee8de6","ios":"levelo://app?vid=119b7eed-1582-4766-b484-107798ee8de6"},"vehicle_type_id":"4","last_reported":1752167530,"current_range_meters":14400,"station_id":"ce4bhbh2rcd13ifvqepg","pricing_plan_id":"cebpf4jnsgd1na2vs0mg"},{"bike_id":"894d3ebd-d045-4ff8-b9d2-4110b381a17d","system_id":"levelo_inurba_marseille","lat":43.28618,"lon":5.35108,"is_reserved":false,"is_disabled":false,"rental_uris":{"android":"levelo://app?vid=894d3ebd-d045-4ff8-b9d2-4110b381a17d","ios":"levelo://app?vid=894d3ebd-d045-4ff8-b9d2-4110b381a17d"},"vehicle_type_id":"4","last_reported":1752167530,"current_range_meters":14400,"station_id":"ce4bhch2rcd13ifvqeug","pricing_plan_id":"cebpf4jnsgd1na2vs0mg"},{"bike_id":"636ce4df-2204-49fe-b81d-146876cbd765","system_id":"levelo_inurba_marseille","lat":43.26784,"lon":5.39414,"is_reserved":false,"is_disabled":false,"rental_uris":{"android":"levelo://app?vid=636ce4df-2204-49fe-b81d-146876cbd765","ios":"levelo://app?vid=636ce4df-2204-49fe-b81d-146876cbd765"},"vehicle_type_id":"4","last_reported":1752167530,"current_range_meters":14400,"station_id":"ce4bhh12rcd13ifvqfg0","pricing_plan_id":"cebpf4jnsgd1na2vs0mg"},{"bike_id":"f373e4a8-33e3-4f72-ae8e-e7ab386910f4","system_id":"levelo_inurba_marseille","lat":43.22504,"lon":5.34787,"is_reserved":false,"is_disabled":false,"rental_uris":{"android":"levelo://app?vid=f373e4a8-33e3-4f72-ae8e-e7ab386910f4","ios":"levelo://app?vid=f373e4a8-33e3-4f72-ae8e-e7ab386910f4"},"vehicle_type_id":"4","last_reported":1752167530,"current_range_meters":14400,"station_id":"st_cvj5dfep6f1abm77gieg","pricing_plan_id":"cebpf4jnsgd1na2vs0mg"},{"bike_id":"f329a464-f32a-44a1-8604-195d61720d2c","system_id":"levelo_inurba_marseille","lat":43.30307,"lon":5.39217,"is_reserved":false,"is_disabled":false,"rental_uris":{"android":"levelo://app?vid=f329a464-f32a-44a1-8604-195d61720d2c","ios":"levelo://app?vid=f329a464-f32a-44a1-8604-195d61720d2c"},"vehicle_type_id":"4","last_reported":1752167530,"current_range_meters":14800,"station_id":"ce4bgkh2rcd13ifvqbk0","pricing_plan_id":"cebpf4jnsgd1na2vs0mg"},{"bike_id":"5a264379-ef60-4c3e-b100-efe17bdc47f0","system_id":"levelo_inurba_marseille","lat":43.29259,"lon":5.40911,"is_reserved":false,"is_disabled":false,"rental_uris":{"android":"levelo://app?vid=5a264379-ef60-4c3e-b100-efe17bdc47f0","ios":"levelo://app?vid=5a264379-ef60-4c3e-b100-efe17bdc47f0"},"vehicle_type_id":"4","last_reported":1752167530,"current_range_meters":14800,"station_id":"ce4bh192rcd13ifvqdc0","pricing_plan_id":"cebpf4jnsgd1na2vs0mg"},{"bike_id":"0f34b748-7e50-48c0-a940-4a607fdb7b7c","system_id":"levelo_inurba_marseille","lat":43.28705,"lon":5.37392,"is_reserved":false,"is_disabled":false,"rental_uris":{"android":"levelo://app?vid=0f34b748-7e50-48c0-a940-4a607fdb7b7c","ios":"levelo://app?vid=0f34b748-7e50-48c0-a940-4a607fdb7b7c"},"vehicle_type_id":"4","last_reported":1752167530,"current_range_meters":14800,"station_id":"ce4bh3p2rcd13ifvqdq0","pricing_plan_id":"cebpf4jnsgd1na2vs0mg"},{"bike_id":"3cab54a8-abad-4186-ae72-a8253cd84308","system_id":"levelo_inurba_marseille","lat":43.28485,"lon":5.38555,"is_reserved":false,"is_disabled":false,"rental_uris":{"android":"levelo://app?vid=3cab54a8-abad-4186-ae72-a8253cd84308","ios":"levelo://app?vid=3cab54a8-abad-4186-ae72-a8253cd84308"},"vehicle_type_id":"4","last_reported":1752167530,"current_range_meters":14800,"station_id":"ce4bh8p2rcd13ifvqeb0","pricing_plan_id":"cebpf4jnsgd1na2vs0mg"},{"bike_id":"a8fbda43-881b-4391-9568-4f8558c6370e","system_id":"levelo_inurba_marseille","lat":43.28038,"lon":5.3694,"is_reserved":false,"is_disabled":false,"rental_uris":{"android":"levelo://app?vid=a8fbda43-881b-4391-9568-4f8558c6370e","ios":"levelo://app?vid=a8fbda43-881b-4391-9568-4f8558c6370e"},"vehicle_type_id":"4","last_reported":1752167530,"current_range_meters":14800,"station_id":"ce4bha12rcd13ifvqef0","pricing_plan_id":"cebpf4jnsgd1na2vs0mg"},{"bike_id":"cd75a637-cb44-4860-80c5-72a0738ab912","system_id":"levelo_inurba_marseille","lat":43.28268,"lon":5.35069,"is_reserved":false,"is_disabled":false,"rental_uris":{"android":"levelo://app?vid=cd75a637-cb44-4860-80c5-72a0738ab912","ios":"levelo://app?vid=cd75a637-cb44-4860-80c5-72a0738ab912"},"vehicle_type_id":"4","last_reported":1752167530,"current_range_meters":14800,"station_id":"ce4bhbp2rcd13ifvqerg","pricing_plan_id":"cebpf4jnsgd1na2vs0mg"},{"bike_id":"f4d8afa1-8f4d-42c0-b795-8a2d2ea9a8de","system_id":"levelo_inurba_marseille","lat":43.27827,"lon":5.40706,"is_reserved":false,"is_disabled":false,"rental_uris":{"android":"levelo://app?vid=f4d8afa1-8f4d-42c0-b795-8a2d2ea9a8de","ios":"levelo://app?vid=f4d8afa1-8f4d-42c0-b795-8a2d2ea9a8de"},"vehicle_type_id":"4","last_reported":1752167530,"current_range_meters":14800,"station_id":"ce4bhnh2rcd13ifvqgtg","pricing_plan_id":"cebpf4jnsgd1na2vs0mg"},{"bike_id":"cb0890e8-3c02-4962-99e3-73812f6ce8d5","system_id":"levelo_inurba_marseille","lat":43.2956,"lon":5.42292,"is_reserved":false,"is_disabled":false,"rental_uris":{"android":"levelo://app?vid=cb0890e8-3c02-4962-99e3-73812f6ce8d5","ios":"levelo://app?vid=cb0890e8-3c02-4962-99e3-73812f6ce8d5"},"vehicle_type_id":"4","last_reported":1752167530,"current_range_meters":14800,"station_id":"ce4bhph2rcd13ifvqhdg","pricing_plan_id":"cebpf4jnsgd1na2vs0mg"},{"bike_id":"73fe94e8-74f9-41f0-85e9-7d8c52adf2fc","system_id":"levelo_inurba_marseille","lat":43.2127,"lon":5.35284,"is_reserved":false,"is_disabled":false,"rental_uris":{"android":"levelo://app?vid=73fe94e8-74f9-41f0-85e9-7d8c52adf2fc","ios":"levelo://app?vid=73fe94e8-74f9-41f0-85e9-7d8c52adf2fc"},"vehicle_type_id":"4","last_reported":1752167530,"current_range_meters":15200,"station_id":"","pricing_plan_id":"cebpf4jnsgd1na2vs0mg"},{"bike_id":"9f5e74ce-2459-4c6f-a171-f6d1e8a1ed83","system_id":"levelo_inurba_marseille","lat":43.31864,"lon":5.37556,"is_reserved":false,"is_disabled":false,"rental_uris":{"android":"levelo://app?vid=9f5e74ce-2459-4c6f-a171-f6d1e8a1ed83","ios":"levelo://app?vid=9f5e74ce-2459-4c6f-a171-f6d1e8a1ed83"},"vehicle_type_id":"4","last_reported":1752167530,"current_range_meters":15200,"station_id":"","pricing_plan_id":"cebpf4jnsgd1na2vs0mg"},{"bike_id":"3dedc701-b284-449d-9ead-7b72c6d26200","system_id":"levelo_inurba_marseille","lat":43.28616,"lon":5.35105,"is_reserved":false,"is_disabled":false,"rental_uris":{"android":"levelo://app?vid=3dedc701-b284-449d-9ead-7b72c6d26200","ios":"levelo://app?vid=3dedc701-b284-449d-9ead-7b72c6d26200"},"vehicle_type_id":"4","last_reported":1752167530,"current_range_meters":15200,"station_id":"ce4bhch2rcd13ifvqeug","pricing_plan_id":"cebpf4jnsgd1na2vs0mg"},{"bike_id":"8330a68f-2f6e-4337-9657-35d7d87c04ca","system_id":"levelo_inurba_marseille","lat":43.25451,"lon":5.37946,"is_reserved":false,"is_disabled":false,"rental_uris":{"android":"levelo://app?vid=8330a68f-2f6e-4337-9657-35d7d87c04ca","ios":"levelo://app?vid=8330a68f-2f6e-4337-9657-35d7d87c04ca"},"vehicle_type_id":"4","last_reported":1752167530,"current_range_meters":16000,"station_id":"","pricing_plan_id":"cebpf4jnsgd1na2vs0mg"},{"bike_id":"fa87fcb5-aacb-41a1-a789-0296bbd02085","system_id":"levelo_inurba_marseille","lat":43.24594,"lon":5.37382,"is_reserved":false,"is_disabled":false,"rental_uris":{"android":"levelo://app?vid=fa87fcb5-aacb-41a1-a789-0296bbd02085","ios":"levelo://app?vid=fa87fcb5-aacb-41a1-a789-0296bbd02085"},"vehicle_type_id":"4","last_reported":1752167530,"current_range_meters":16000,"station_id":"","pricing_plan_id":"cebpf4jnsgd1na2vs0mg"},{"bike_id":"4e209b0c-855f-4b51-8120-2faef8673853","system_id":"levelo_inurba_marseille","lat":43.306071,"lon":5.368788,"is_reserved":false,"is_disabled":false,"rental_uris":{"android":"levelo://app?vid=4e209b0c-855f-4b51-8120-2faef8673853","ios":"levelo://app?vid=4e209b0c-855f-4b51-8120-2faef8673853"},"vehicle_type_id":"4","last_reported":1752167530,"current_range_meters":16000,"station_id":"","pricing_plan_id":"cebpf4jnsgd1na2vs0mg"},{"bike_id":"04148f14-4cd8-42b8-8416-c87a9d5cb2a7","system_id":"levelo_inurba_marseille","lat":43.28421,"lon":5.34988,"is_reserved":false,"is_disabled":false,"rental_uris":{"android":"levelo://app?vid=04148f14-4cd8-42b8-8416-c87a9d5cb2a7","ios":"levelo://app?vid=04148f14-4cd8-42b8-8416-c87a9d5cb2a7"},"vehicle_type_id":"4","last_reported":1752167530,"current_range_meters":16000,"station_id":"ce4bhbh2rcd13ifvqepg","pricing_plan_id":"cebpf4jnsgd1na2vs0mg"},{"bike_id":"5e212923-e6ec-476a-bb8a-48bc6dd5d369","system_id":"levelo_inurba_marseille","lat":43.28267,"lon":5.35067,"is_reserved":false,"is_disabled":false,"rental_uris":{"android":"levelo://app?vid=5e212923-e6ec-476a-bb8a-48bc6dd5d369","ios":"levelo://app?vid=5e212923-e6ec-476a-bb8a-48bc6dd5d369"},"vehicle_type_id":"4","last_reported":1752167530,"current_range_meters":16000,"station_id":"ce4bhbp2rcd13ifvqerg","pricing_plan_id":"cebpf4jnsgd1na2vs0mg"},{"bike_id":"aa8afd1f-10e9-4480-9b3d-67d68911505f","system_id":"levelo_inurba_marseille","lat":43.2417,"lon":5.36393,"is_reserved":false,"is_disabled":false,"rental_uris":{"android":"levelo://app?vid=aa8afd1f-10e9-4480-9b3d-67d68911505f","ios":"levelo://app?vid=aa8afd1f-10e9-4480-9b3d-67d68911505f"},"vehicle_type_id":"4","last_reported":1752167530,"current_range_meters":16000,"station_id":"cpo36qri1sfpv3e86is0","pricing_plan_id":"cebpf4jnsgd1na2vs0mg"},{"bike_id":"15ab90ec-56d6-4852-abe6-f4c7ffe49d82","system_id":"levelo_inurba_marseille","lat":43.28289,"lon":5.35076,"is_reserved":false,"is_disabled":false,"rental_uris":{"android":"levelo://app?vid=15ab90ec-56d6-4852-abe6-f4c7ffe49d82","ios":"levelo://app?vid=15ab90ec-56d6-4852-abe6-f4c7ffe49d82"},"vehicle_type_id":"4","last_reported":1752167530,"current_range_meters":16400,"station_id":"ce4bhbp2rcd13ifvqerg","pricing_plan_id":"cebpf4jnsgd1na2vs0mg"},{"bike_id":"d9a86388-88da-4833-835c-35163985472a","system_id":"levelo_inurba_marseille","lat":43.24806,"lon":5.37455,"is_reserved":false,"is_disabled":false,"rental_uris":{"android":"levelo://app?vid=d9a86388-88da-4833-835c-35163985472a","ios":"levelo://app?vid=d9a86388-88da-4833-835c-35163985472a"},"vehicle_type_id":"4","last_reported":1752167530,"current_range_meters":16400,"station_id":"ce4bhgh2rcd13ifvqfb0","pricing_plan_id":"cebpf4jnsgd1na2vs0mg"},{"bike_id":"c3c5b26c-e834-4db6-994b-52abb31f20f1","system_id":"levelo_inurba_marseille","lat":43.24076,"lon":5.37762,"is_reserved":false,"is_disabled":false,"rental_uris":{"android":"levelo://app?vid=c3c5b26c-e834-4db6-994b-52abb31f20f1","ios":"levelo://app?vid=c3c5b26c-e834-4db6-994b-52abb31f20f1"},"vehicle_type_id":"4","last_reported":1752167530,"current_range_meters":16400,"station_id":"ce4bhnp2rcd13ifvqgvg","pricing_plan_id":"cebpf4jnsgd1na2vs0mg"},{"bike_id":"3a7e7c5d-cce3-423c-b92b-23dbe513d34a","system_id":"levelo_inurba_marseille","lat":43.337256,"lon":5.391904,"is_reserved":false,"is_disabled":false,"rental_uris":{"android":"levelo://app?vid=3a7e7c5d-cce3-423c-b92b-23dbe513d34a","ios":"levelo://app?vid=3a7e7c5d-cce3-423c-b92b-23dbe513d34a"},"vehicle_type_id":"4","last_reported":1752167530,"current_range_meters":16400,"station_id":"ce4bhr92rcd13ifvqhsg","pricing_plan_id":"cebpf4jnsgd1na2vs0mg"},{"bike_id":"ee1ac907-8623-4d00-ac01-d41dd90be9fe","system_id":"levelo_inurba_marseille","lat":43.21196,"lon":5.35079,"is_reserved":false,"is_disabled":false,"rental_uris":{"android":"levelo://app?vid=ee1ac907-8623-4d00-ac01-d41dd90be9fe","ios":"levelo://app?vid=ee1ac907-8623-4d00-ac01-d41dd90be9fe"},"vehicle_type_id":"4","last_reported":1752167530,"current_range_meters":16400,"station_id":"st_cvj6sg6p6f1abm77japg","pricing_plan_id":"cebpf4jnsgd1na2vs0mg"},{"bike_id":"a5a6c2c1-2d48-4581-8647-6eab6c0bbb54","system_id":"levelo_inurba_marseille","lat":43.263203,"lon":5.373883,"is_reserved":false,"is_disabled":false,"rental_uris":{"android":"levelo://app?vid=a5a6c2c1-2d48-4581-8647-6eab6c0bbb54","ios":"levelo://app?vid=a5a6c2c1-2d48-4581-8647-6eab6c0bbb54"},"vehicle_type_id":"4","last_reported":1752167530,"current_range_meters":16800,"station_id":"","pricing_plan_id":"cebpf4jnsgd1na2vs0mg"},{"bike_id":"c7bc0b85-c966-4913-8908-15a71d65944b","system_id":"levelo_inurba_marseille","lat":43.35454,"lon":5.35717,"is_reserved":false,"is_disabled":false,"rental_uris":{"android":"levelo://app?vid=c7bc0b85-c966-4913-8908-15a71d65944b","ios":"levelo://app?vid=c7bc0b85-c966-4913-8908-15a71d65944b"},"vehicle_type_id":"4","last_reported":1752167530,"current_range_meters":16800,"station_id":"","pricing_plan_id":"cebpf4jnsgd1na2vs0mg"},{"bike_id":"24b17f7b-dff1-4936-b27a-7c2c6813a894","system_id":"levelo_inurba_marseille","lat":43.24586,"lon":5.373769,"is_reserved":false,"is_disabled":false,"rental_uris":{"android":"levelo://app?vid=24b17f7b-dff1-4936-b27a-7c2c6813a894","ios":"levelo://app?vid=24b17f7b-dff1-4936-b27a-7c2c6813a894"},"vehicle_type_id":"4","last_reported":1752167530,"current_range_meters":16800,"station_id":"","pricing_plan_id":"cebpf4jnsgd1na2vs0mg"},{"bike_id":"2b7774e0-3c21-42ed-b128-221dab19f142","system_id":"levelo_inurba_marseille","lat":43.28419,"lon":5.34993,"is_reserved":false,"is_disabled":false,"rental_uris":{"android":"levelo://app?vid=2b7774e0-3c21-42ed-b128-221dab19f142","ios":"levelo://app?vid=2b7774e0-3c21-42ed-b128-221dab19f142"},"vehicle_type_id":"4","last_reported":1752167530,"current_range_meters":16800,"station_id":"ce4bhbh2rcd13ifvqepg","pricing_plan_id":"cebpf4jnsgd1na2vs0mg"},{"bike_id":"cd8b1ac9-b6ec-438b-8fe5-3e6f3e5658d7","system_id":"levelo_inurba_marseille","lat":43.28282,"lon":5.35072,"is_reserved":false,"is_disabled":false,"rental_uris":{"android":"levelo://app?vid=cd8b1ac9-b6ec-438b-8fe5-3e6f3e5658d7","ios":"levelo://app?vid=cd8b1ac9-b6ec-438b-8fe5-3e6f3e5658d7"},"vehicle_type_id":"4","last_reported":1752167530,"current_range_meters":16800,"station_id":"ce4bhbp2rcd13ifvqerg","pricing_plan_id":"cebpf4jnsgd1na2vs0mg"},{"bike_id":"bcb5093d-72d2-421e-92d3-1be69245626d","system_id":"levelo_inurba_marseille","lat":43.282715,"lon":5.350704,"is_reserved":false,"is_disabled":false,"rental_uris":{"android":"levelo://app?vid=bcb5093d-72d2-421e-92d3-1be69245626d","ios":"levelo://app?vid=bcb5093d-72d2-421e-92d3-1be69245626d"},"vehicle_type_id":"4","last_reported":1752167530,"current_range_meters":16800,"station_id":"ce4bhbp2rcd13ifvqerg","pricing_plan_id":"cebpf4jnsgd1na2vs0mg"},{"bike_id":"42aa8419-20a0-453b-acca-b1259f8ff718","system_id":"levelo_inurba_marseille","lat":43.28615,"lon":5.35109,"is_reserved":false,"is_disabled":false,"rental_uris":{"android":"levelo://app?vid=42aa8419-20a0-453b-acca-b1259f8ff718","ios":"levelo://app?vid=42aa8419-20a0-453b-acca-b1259f8ff718"},"vehicle_type_id":"4","last_reported":1752167530,"current_range_meters":16800,"station_id":"ce4bhch2rcd13ifvqeug","pricing_plan_id":"cebpf4jnsgd1na2vs0mg"},{"bike_id":"0f708211-c646-4f12-98c1-c1c9da393df5","system_id":"levelo_inurba_marseille","lat":43.30357,"lon":5.41881,"is_reserved":false,"is_disabled":false,"rental_uris":{"android":"levelo://app?vid=0f708211-c646-4f12-98c1-c1c9da393df5","ios":"levelo://app?vid=0f708211-c646-4f12-98c1-c1c9da393df5"},"vehicle_type_id":"4","last_reported":1752167530,"current_range_meters":16800,"station_id":"ce4bhop2rcd13ifvqh7g","pricing_plan_id":"cebpf4jnsgd1na2vs0mg"},{"bike_id":"8f89e4f3-495a-4317-bd6d-37a19186d65b","system_id":"levelo_inurba_marseille","lat":43.337335,"lon":5.391861,"is_reserved":false,"is_disabled":false,"rental_uris":{"android":"levelo://app?vid=8f89e4f3-495a-4317-bd6d-37a19186d65b","ios":"levelo://app?vid=8f89e4f3-495a-4317-bd6d-37a19186d65b"},"vehicle_type_id":"4","last_reported":1752167530,"current_range_meters":16800,"station_id":"ce4bhr92rcd13ifvqhsg","pricing_plan_id":"cebpf4jnsgd1na2vs0mg"},{"bike_id":"620c39dc-a416-4605-b27e-d4faf78ab1bf","system_id":"levelo_inurba_marseille","lat":43.22934,"lon":5.35384,"is_reserved":false,"is_disabled":false,"rental_uris":{"android":"levelo://app?vid=620c39dc-a416-4605-b27e-d4faf78ab1bf","ios":"levelo://app?vid=620c39dc-a416-4605-b27e-d4faf78ab1bf"},"vehicle_type_id":"4","last_reported":1752167530,"current_range_meters":16800,"station_id":"cpo3532slgdg3j2ikp40","pricing_plan_id":"cebpf4jnsgd1na2vs0mg"},{"bike_id":"37aae3bf-1666-4b50-a869-6d8dfe4b2676","system_id":"levelo_inurba_marseille","lat":43.22505,"lon":5.34778,"is_reserved":false,"is_disabled":false,"rental_uris":{"android":"levelo://app?vid=37aae3bf-1666-4b50-a869-6d8dfe4b2676","ios":"levelo://app?vid=37aae3bf-1666-4b50-a869-6d8dfe4b2676"},"vehicle_type_id":"4","last_reported":1752167530,"current_range_meters":16800,"station_id":"st_cvj5dfep6f1abm77gieg","pricing_plan_id":"cebpf4jnsgd1na2vs0mg"},{"bike_id":"f768f329-6af8-4ae3-9183-de962236779a","system_id":"levelo_inurba_marseille","lat":43.2681,"lon":5.40269,"is_reserved":false,"is_disabled":false,"rental_uris":{"android":"levelo://app?vid=f768f329-6af8-4ae3-9183-de962236779a","ios":"levelo://app?vid=f768f329-6af8-4ae3-9183-de962236779a"},"vehicle_type_id":"4","last_reported":1752167530,"current_range_meters":17200,"station_id":"ce501612rcd8frsf0b60","pricing_plan_id":"cebpf4jnsgd1na2vs0mg"},{"bike_id":"9b8d88ed-6470-44a5-bbbe-5ed7e95c1cb7","system_id":"levelo_inurba_marseille","lat":43.24175,"lon":5.36405,"is_reserved":false,"is_disabled":false,"rental_uris":{"android":"levelo://app?vid=9b8d88ed-6470-44a5-bbbe-5ed7e95c1cb7","ios":"levelo://app?vid=9b8d88ed-6470-44a5-bbbe-5ed7e95c1cb7"},"vehicle_type_id":"4","last_reported":1752167530,"current_range_meters":17200,"station_id":"cpo36qri1sfpv3e86is0","pricing_plan_id":"cebpf4jnsgd1na2vs0mg"},{"bike_id":"6737467a-fe5d-470c-a191-2df05ebbb3bb","system_id":"levelo_inurba_marseille","lat":43.22516,"lon":5.34769,"is_reserved":false,"is_disabled":false,"rental_uris":{"android":"levelo://app?vid=6737467a-fe5d-470c-a191-2df05ebbb3bb","ios":"levelo://app?vid=6737467a-fe5d-470c-a191-2df05ebbb3bb"},"vehicle_type_id":"4","last_reported":1752167530,"current_range_meters":17200,"station_id":"st_cvj5dfep6f1abm77gieg","pricing_plan_id":"cebpf4jnsgd1na2vs0mg"},{"bike_id":"3207fc58-cc64-4794-85af-122b23309525","system_id":"levelo_inurba_marseille","lat":43.296108,"lon":5.380914,"is_reserved":false,"is_disabled":false,"rental_uris":{"android":"levelo://app?vid=3207fc58-cc64-4794-85af-122b23309525","ios":"levelo://app?vid=3207fc58-cc64-4794-85af-122b23309525"},"vehicle_type_id":"4","last_reported":1752167530,"current_range_meters":17600,"station_id":"ce4bgl12rcd13ifvqbo0","pricing_plan_id":"cebpf4jnsgd1na2vs0mg"},{"bike_id":"152f61c4-38ed-4616-ab2f-7c7de42b5006","system_id":"levelo_inurba_marseille","lat":43.291675,"lon":5.356019,"is_reserved":false,"is_disabled":false,"rental_uris":{"android":"levelo://app?vid=152f61c4-38ed-4616-ab2f-7c7de42b5006","ios":"levelo://app?vid=152f61c4-38ed-4616-ab2f-7c7de42b5006"},"vehicle_type_id":"4","last_reported":1752167530,"current_range_meters":17600,"station_id":"ce4bhb92rcd13ifvqen0","pricing_plan_id":"cebpf4jnsgd1na2vs0mg"},{"bike_id":"bb5f6e14-9798-4952-af04-7c292094af51","system_id":"levelo_inurba_marseille","lat":43.28622,"lon":5.35085,"is_reserved":false,"is_disabled":false,"rental_uris":{"android":"levelo://app?vid=bb5f6e14-9798-4952-af04-7c292094af51","ios":"levelo://app?vid=bb5f6e14-9798-4952-af04-7c292094af51"},"vehicle_type_id":"4","last_reported":1752167530,"current_range_meters":17600,"station_id":"ce4bhch2rcd13ifvqeug","pricing_plan_id":"cebpf4jnsgd1na2vs0mg"},{"bike_id":"6d526cf2-f7c6-43f0-8c10-b635af2f14a9","system_id":"levelo_inurba_marseille","lat":43.229414,"lon":5.353814,"is_reserved":false,"is_disabled":false,"rental_uris":{"android":"levelo://app?vid=6d526cf2-f7c6-43f0-8c10-b635af2f14a9","ios":"levelo://app?vid=6d526cf2-f7c6-43f0-8c10-b635af2f14a9"},"vehicle_type_id":"4","last_reported":1752167530,"current_range_meters":17600,"station_id":"cpo3532slgdg3j2ikp40","pricing_plan_id":"cebpf4jnsgd1na2vs0mg"},{"bike_id":"29a0a180-d29f-4a4e-a71b-d1d9d42cb217","system_id":"levelo_inurba_marseille","lat":43.21198,"lon":5.35066,"is_reserved":false,"is_disabled":false,"rental_uris":{"android":"levelo://app?vid=29a0a180-d29f-4a4e-a71b-d1d9d42cb217","ios":"levelo://app?vid=29a0a180-d29f-4a4e-a71b-d1d9d42cb217"},"vehicle_type_id":"4","last_reported":1752167530,"current_range_meters":17600,"station_id":"st_cvj6sg6p6f1abm77japg","pricing_plan_id":"cebpf4jnsgd1na2vs0mg"},{"bike_id":"595e9351-a7ce-45de-8995-771f7d9fe86e","system_id":"levelo_inurba_marseille","lat":43.309243,"lon":5.378088,"is_reserved":false,"is_disabled":false,"rental_uris":{"android":"levelo://app?vid=595e9351-a7ce-45de-8995-771f7d9fe86e","ios":"levelo://app?vid=595e9351-a7ce-45de-8995-771f7d9fe86e"},"vehicle_type_id":"4","last_reported":1752167530,"current_range_meters":18000,"station_id":"","pricing_plan_id":"cebpf4jnsgd1na2vs0mg"},{"bike_id":"8b440aeb-3c8b-4650-9f24-9c9b62dd74de","system_id":"levelo_inurba_marseille","lat":43.21222,"lon":5.35062,"is_reserved":false,"is_disabled":false,"rental_uris":{"android":"levelo://app?vid=8b440aeb-3c8b-4650-9f24-9c9b62dd74de","ios":"levelo://app?vid=8b440aeb-3c8b-4650-9f24-9c9b62dd74de"},"vehicle_type_id":"4","last_reported":1752167530,"current_range_meters":18000,"station_id":"","pricing_plan_id":"cebpf4jnsgd1na2vs0mg"},{"bike_id":"b083e4b6-8284-48af-8e8a-4cb43566ba6e","system_id":"levelo_inurba_marseille","lat":43.27627,"lon":5.361,"is_reserved":false,"is_disabled":false,"rental_uris":{"android":"levelo://app?vid=b083e4b6-8284-48af-8e8a-4cb43566ba6e","ios":"levelo://app?vid=b083e4b6-8284-48af-8e8a-4cb43566ba6e"},"vehicle_type_id":"4","last_reported":1752167530,"current_range_meters":18000,"station_id":"ce4bgj92rcd13ifvqbe0","pricing_plan_id":"cebpf4jnsgd1na2vs0mg"},{"bike_id":"b9f50a13-e58d-4238-b8a3-aa02fea5fbbc","system_id":"levelo_inurba_marseille","lat":43.29007,"lon":5.35616,"is_reserved":false,"is_disabled":false,"rental_uris":{"android":"levelo://app?vid=b9f50a13-e58d-4238-b8a3-aa02fea5fbbc","ios":"levelo://app?vid=b9f50a13-e58d-4238-b8a3-aa02fea5fbbc"},"vehicle_type_id":"4","last_reported":1752167530,"current_range_meters":18000,"station_id":"ce4bhb92rcd13ifvqen0","pricing_plan_id":"cebpf4jnsgd1na2vs0mg"},{"bike_id":"96493667-9202-4d3c-ad4d-311823444d22","system_id":"levelo_inurba_marseille","lat":43.2738,"lon":5.36253,"is_reserved":false,"is_disabled":false,"rental_uris":{"android":"levelo://app?vid=96493667-9202-4d3c-ad4d-311823444d22","ios":"levelo://app?vid=96493667-9202-4d3c-ad4d-311823444d22"},"vehicle_type_id":"4","last_reported":1752167530,"current_range_meters":18000,"station_id":"ce4bhbh2rcd13ifvqeo0","pricing_plan_id":"cebpf4jnsgd1na2vs0mg"},{"bike_id":"d33cbabe-8724-4b7d-a873-a5476968f7d3","system_id":"levelo_inurba_marseille","lat":43.2843,"lon":5.34987,"is_reserved":false,"is_disabled":false,"rental_uris":{"android":"levelo://app?vid=d33cbabe-8724-4b7d-a873-a5476968f7d3","ios":"levelo://app?vid=d33cbabe-8724-4b7d-a873-a5476968f7d3"},"vehicle_type_id":"4","last_reported":1752167530,"current_range_meters":18000,"station_id":"ce4bhbh2rcd13ifvqepg","pricing_plan_id":"cebpf4jnsgd1na2vs0mg"},{"bike_id":"daf60180-81f5-4f25-b820-8ee8d887845f","system_id":"levelo_inurba_marseille","lat":43.25117,"lon":5.4034,"is_reserved":false,"is_disabled":false,"rental_uris":{"android":"levelo://app?vid=daf60180-81f5-4f25-b820-8ee8d887845f","ios":"levelo://app?vid=daf60180-81f5-4f25-b820-8ee8d887845f"},"vehicle_type_id":"4","last_reported":1752167530,"current_range_meters":18000,"station_id":"ce4bhlh2rcd13ifvqgig","pricing_plan_id":"cebpf4jnsgd1na2vs0mg"},{"bike_id":"e3a75ee9-c614-467b-8cc2-f813bcef2ab1","system_id":"levelo_inurba_marseille","lat":43.33743,"lon":5.3919,"is_reserved":false,"is_disabled":false,"rental_uris":{"android":"levelo://app?vid=e3a75ee9-c614-467b-8cc2-f813bcef2ab1","ios":"levelo://app?vid=e3a75ee9-c614-467b-8cc2-f813bcef2ab1"},"vehicle_type_id":"4","last_reported":1752167530,"current_range_meters":18000,"station_id":"ce4bhr92rcd13ifvqhsg","pricing_plan_id":"cebpf4jnsgd1na2vs0mg"},{"bike_id":"5423e7d5-07f9-4264-9d42-219884898d7f","system_id":"levelo_inurba_marseille","lat":43.24173,"lon":5.36384,"is_reserved":false,"is_disabled":false,"rental_uris":{"android":"levelo://app?vid=5423e7d5-07f9-4264-9d42-219884898d7f","ios":"levelo://app?vid=5423e7d5-07f9-4264-9d42-219884898d7f"},"vehicle_type_id":"4","last_reported":1752167530,"current_range_meters":18000,"station_id":"cpo36qri1sfpv3e86is0","pricing_plan_id":"cebpf4jnsgd1na2vs0mg"},{"bike_id":"3b79343b-2865-43d5-bc13-b5c1772bb146","system_id":"levelo_inurba_marseille","lat":43.29271,"lon":5.37629,"is_reserved":false,"is_disabled":false,"rental_uris":{"android":"levelo://app?vid=3b79343b-2865-43d5-bc13-b5c1772bb146","ios":"levelo://app?vid=3b79343b-2865-43d5-bc13-b5c1772bb146"},"vehicle_type_id":"4","last_reported":1752167530,"current_range_meters":18800,"station_id":"ce4bgi12rcd13ifvqb80","pricing_plan_id":"cebpf4jnsgd1na2vs0mg"},{"bike_id":"568a4e79-4edc-4f60-86ba-566cc8cdd5ac","system_id":"levelo_inurba_marseille","lat":43.28485,"lon":5.38424,"is_reserved":false,"is_disabled":false,"rental_uris":{"android":"levelo://app?vid=568a4e79-4edc-4f60-86ba-566cc8cdd5ac","ios":"levelo://app?vid=568a4e79-4edc-4f60-86ba-566cc8cdd5ac"},"vehicle_type_id":"4","last_reported":1752167530,"current_range_meters":18800,"station_id":"ce4bh512rcd13ifvqe3g","pricing_plan_id":"cebpf4jnsgd1na2vs0mg"},{"bike_id":"b1074e7c-a109-4f74-a46c-ba6ac55bcd09","system_id":"levelo_inurba_marseille","lat":43.27383,"lon":5.36245,"is_reserved":false,"is_disabled":false,"rental_uris":{"android":"levelo://app?vid=b1074e7c-a109-4f74-a46c-ba6ac55bcd09","ios":"levelo://app?vid=b1074e7c-a109-4f74-a46c-ba6ac55bcd09"},"vehicle_type_id":"4","last_reported":1752167530,"current_range_meters":18800,"station_id":"ce4bhbh2rcd13ifvqeo0","pricing_plan_id":"cebpf4jnsgd1na2vs0mg"},{"bike_id":"74b56b5c-7101-429d-bd50-fa33a326ffc2","system_id":"levelo_inurba_marseille","lat":43.2842,"lon":5.3499,"is_reserved":false,"is_disabled":false,"rental_uris":{"android":"levelo://app?vid=74b56b5c-7101-429d-bd50-fa33a326ffc2","ios":"levelo://app?vid=74b56b5c-7101-429d-bd50-fa33a326ffc2"},"vehicle_type_id":"4","last_reported":1752167530,"current_range_meters":18800,"station_id":"ce4bhbh2rcd13ifvqepg","pricing_plan_id":"cebpf4jnsgd1na2vs0mg"},{"bike_id":"0c5fa442-c00e-48a4-8d03-29c07aabf9b8","system_id":"levelo_inurba_marseille","lat":43.28616,"lon":5.35103,"is_reserved":false,"is_disabled":false,"rental_uris":{"android":"levelo://app?vid=0c5fa442-c00e-48a4-8d03-29c07aabf9b8","ios":"levelo://app?vid=0c5fa442-c00e-48a4-8d03-29c07aabf9b8"},"vehicle_type_id":"4","last_reported":1752167530,"current_range_meters":18800,"station_id":"ce4bhch2rcd13ifvqeug","pricing_plan_id":"cebpf4jnsgd1na2vs0mg"},{"bike_id":"bd69f1e7-b901-41a0-b2c9-aee4bd027443","system_id":"levelo_inurba_marseille","lat":43.21193,"lon":5.35058,"is_reserved":false,"is_disabled":false,"rental_uris":{"android":"levelo://app?vid=bd69f1e7-b901-41a0-b2c9-aee4bd027443","ios":"levelo://app?vid=bd69f1e7-b901-41a0-b2c9-aee4bd027443"},"vehicle_type_id":"4","last_reported":1752167530,"current_range_meters":18800,"station_id":"st_cvj6sg6p6f1abm77japg","pricing_plan_id":"cebpf4jnsgd1na2vs0mg"},{"bike_id":"96f82260-718a-4e3a-9802-28ac9d732e83","system_id":"levelo_inurba_marseille","lat":43.26161,"lon":5.37468,"is_reserved":false,"is_disabled":false,"rental_uris":{"android":"levelo://app?vid=96f82260-718a-4e3a-9802-28ac9d732e83","ios":"levelo://app?vid=96f82260-718a-4e3a-9802-28ac9d732e83"},"vehicle_type_id":"4","last_reported":1752167530,"current_range_meters":19200,"station_id":"","pricing_plan_id":"cebpf4jnsgd1na2vs0mg"},{"bike_id":"cb8db05c-7ef4-4fcf-b321-cdc13d7cccad","system_id":"levelo_inurba_marseille","lat":43.29098,"lon":5.355573,"is_reserved":false,"is_disabled":false,"rental_uris":{"android":"levelo://app?vid=cb8db05c-7ef4-4fcf-b321-cdc13d7cccad","ios":"levelo://app?vid=cb8db05c-7ef4-4fcf-b321-cdc13d7cccad"},"vehicle_type_id":"4","last_reported":1752167530,"current_range_meters":19200,"station_id":"","pricing_plan_id":"cebpf4jnsgd1na2vs0mg"},{"bike_id":"2b6bd3ba-dfe0-4fa1-b1ff-f2c2b313332f","system_id":"levelo_inurba_marseille","lat":43.3065,"lon":5.4009,"is_reserved":false,"is_disabled":false,"rental_uris":{"android":"levelo://app?vid=2b6bd3ba-dfe0-4fa1-b1ff-f2c2b313332f","ios":"levelo://app?vid=2b6bd3ba-dfe0-4fa1-b1ff-f2c2b313332f"},"vehicle_type_id":"4","last_reported":1752167530,"current_range_meters":19200,"station_id":"ce4bh112rcd13ifvqda0","pricing_plan_id":"cebpf4jnsgd1na2vs0mg"},{"bike_id":"74e28da6-3b32-49bf-b00e-3c1cff23531a","system_id":"levelo_inurba_marseille","lat":43.27379,"lon":5.36242,"is_reserved":false,"is_disabled":false,"rental_uris":{"android":"levelo://app?vid=74e28da6-3b32-49bf-b00e-3c1cff23531a","ios":"levelo://app?vid=74e28da6-3b32-49bf-b00e-3c1cff23531a"},"vehicle_type_id":"4","last_reported":1752167530,"current_range_meters":19200,"station_id":"ce4bhbh2rcd13ifvqeo0","pricing_plan_id":"cebpf4jnsgd1na2vs0mg"},{"bike_id":"93514bb1-ccbc-4c15-9cdc-2aa48ff0d69d","system_id":"levelo_inurba_marseille","lat":43.282603,"lon":5.350702,"is_reserved":false,"is_disabled":false,"rental_uris":{"android":"levelo://app?vid=93514bb1-ccbc-4c15-9cdc-2aa48ff0d69d","ios":"levelo://app?vid=93514bb1-ccbc-4c15-9cdc-2aa48ff0d69d"},"vehicle_type_id":"4","last_reported":1752167530,"current_range_meters":19200,"station_id":"ce4bhbp2rcd13ifvqerg","pricing_plan_id":"cebpf4jnsgd1na2vs0mg"},{"bike_id":"bf7090ed-5736-4d75-b67a-53615f222a8f","system_id":"levelo_inurba_marseille","lat":43.28616,"lon":5.35105,"is_reserved":false,"is_disabled":false,"rental_uris":{"android":"levelo://app?vid=bf7090ed-5736-4d75-b67a-53615f222a8f","ios":"levelo://app?vid=bf7090ed-5736-4d75-b67a-53615f222a8f"},"vehicle_type_id":"4","last_reported":1752167530,"current_range_meters":19200,"station_id":"ce4bhch2rcd13ifvqeug","pricing_plan_id":"cebpf4jnsgd1na2vs0mg"},{"bike_id":"7e9058c3-0d8a-4294-9939-c45e64923765","system_id":"levelo_inurba_marseille","lat":43.26205,"lon":5.37926,"is_reserved":false,"is_disabled":false,"rental_uris":{"android":"levelo://app?vid=7e9058c3-0d8a-4294-9939-c45e64923765","ios":"levelo://app?vid=7e9058c3-0d8a-4294-9939-c45e64923765"},"vehicle_type_id":"4","last_reported":1752167530,"current_range_meters":19200,"station_id":"ce4bhjp2rcd13ifvqg90","pricing_plan_id":"cebpf4jnsgd1na2vs0mg"},{"bike_id":"479b69d4-3376-4ae6-bc74-41dcf16b0474","system_id":"levelo_inurba_marseille","lat":43.22504,"lon":5.34773,"is_reserved":false,"is_disabled":false,"rental_uris":{"android":"levelo://app?vid=479b69d4-3376-4ae6-bc74-41dcf16b0474","ios":"levelo://app?vid=479b69d4-3376-4ae6-bc74-41dcf16b0474"},"vehicle_type_id":"4","last_reported":1752167530,"current_range_meters":19200,"station_id":"st_cvj5dfep6f1abm77gieg","pricing_plan_id":"cebpf4jnsgd1na2vs0mg"},{"bike_id":"495b42e7-c480-4c9f-af1d-45f0e83f40b6","system_id":"levelo_inurba_marseille","lat":43.21746,"lon":5.34607,"is_reserved":false,"is_disabled":false,"rental_uris":{"android":"levelo://app?vid=495b42e7-c480-4c9f-af1d-45f0e83f40b6","ios":"levelo://app?vid=495b42e7-c480-4c9f-af1d-45f0e83f40b6"},"vehicle_type_id":"4","last_reported":1752167530,"current_range_meters":19200,"station_id":"st_cvj6r9ubvosntc0bgbag","pricing_plan_id":"cebpf4jnsgd1na2vs0mg"},{"bike_id":"9b003035-8bff-4cec-8757-913f78164efb","system_id":"levelo_inurba_marseille","lat":43.29261,"lon":5.38429,"is_reserved":false,"is_disabled":false,"rental_uris":{"android":"levelo://app?vid=9b003035-8bff-4cec-8757-913f78164efb","ios":"levelo://app?vid=9b003035-8bff-4cec-8757-913f78164efb"},"vehicle_type_id":"4","last_reported":1752167530,"current_range_meters":19600,"station_id":"ce4bh692rcd13ifvqea0","pricing_plan_id":"cebpf4jnsgd1na2vs0mg"},{"bike_id":"5f0955da-9edc-4d6d-9ee2-9f0d5deb1f0d","system_id":"levelo_inurba_marseille","lat":43.29004,"lon":5.3561,"is_reserved":false,"is_disabled":false,"rental_uris":{"android":"levelo://app?vid=5f0955da-9edc-4d6d-9ee2-9f0d5deb1f0d","ios":"levelo://app?vid=5f0955da-9edc-4d6d-9ee2-9f0d5deb1f0d"},"vehicle_type_id":"4","last_reported":1752167530,"current_range_meters":19600,"station_id":"ce4bhb92rcd13ifvqen0","pricing_plan_id":"cebpf4jnsgd1na2vs0mg"},{"bike_id":"f89cbb7d-c8f7-4239-a061-c56dfbaf8fe7","system_id":"levelo_inurba_marseille","lat":43.28418,"lon":5.34989,"is_reserved":false,"is_disabled":false,"rental_uris":{"android":"levelo://app?vid=f89cbb7d-c8f7-4239-a061-c56dfbaf8fe7","ios":"levelo://app?vid=f89cbb7d-c8f7-4239-a061-c56dfbaf8fe7"},"vehicle_type_id":"4","last_reported":1752167530,"current_range_meters":19600,"station_id":"ce4bhbh2rcd13ifvqepg","pricing_plan_id":"cebpf4jnsgd1na2vs0mg"},{"bike_id":"a2534aed-2e43-4783-b6f9-1c191e60dc9b","system_id":"levelo_inurba_marseille","lat":43.27813,"lon":5.40714,"is_reserved":false,"is_disabled":false,"rental_uris":{"android":"levelo://app?vid=a2534aed-2e43-4783-b6f9-1c191e60dc9b","ios":"levelo://app?vid=a2534aed-2e43-4783-b6f9-1c191e60dc9b"},"vehicle_type_id":"4","last_reported":1752167530,"current_range_meters":19600,"station_id":"ce4bhnh2rcd13ifvqgtg","pricing_plan_id":"cebpf4jnsgd1na2vs0mg"},{"bike_id":"dafa5a87-b26d-4379-9a6b-1f02133b78a6","system_id":"levelo_inurba_marseille","lat":43.21189,"lon":5.35073,"is_reserved":false,"is_disabled":false,"rental_uris":{"android":"levelo://app?vid=dafa5a87-b26d-4379-9a6b-1f02133b78a6","ios":"levelo://app?vid=dafa5a87-b26d-4379-9a6b-1f02133b78a6"},"vehicle_type_id":"4","last_reported":1752167530,"current_range_meters":19600,"station_id":"st_cvj6sg6p6f1abm77japg","pricing_plan_id":"cebpf4jnsgd1na2vs0mg"},{"bike_id":"37b84a38-055a-4a6e-a56a-8ff3d0c1b2ec","system_id":"levelo_inurba_marseille","lat":43.211898,"lon":5.350741,"is_reserved":false,"is_disabled":false,"rental_uris":{"android":"levelo://app?vid=37b84a38-055a-4a6e-a56a-8ff3d0c1b2ec","ios":"levelo://app?vid=37b84a38-055a-4a6e-a56a-8ff3d0c1b2ec"},"vehicle_type_id":"4","last_reported":1752167530,"current_range_meters":19600,"station_id":"st_cvj6sg6p6f1abm77japg","pricing_plan_id":"cebpf4jnsgd1na2vs0mg"},{"bike_id":"43b90c82-97e0-4fa7-8b67-2448f07d529e","system_id":"levelo_inurba_marseille","lat":43.21195,"lon":5.35075,"is_reserved":false,"is_disabled":false,"rental_uris":{"android":"levelo://app?vid=43b90c82-97e0-4fa7-8b67-2448f07d529e","ios":"levelo://app?vid=43b90c82-97e0-4fa7-8b67-2448f07d529e"},"vehicle_type_id":"4","last_reported":1752167530,"current_range_meters":20000,"station_id":"","pricing_plan_id":"cebpf4jnsgd1na2vs0mg"},{"bike_id":"52bbed55-bb43-4609-aa14-ca80dd09df26","system_id":"levelo_inurba_marseille","lat":43.33754,"lon":5.3743,"is_reserved":false,"is_disabled":false,"rental_uris":{"android":"levelo://app?vid=52bbed55-bb43-4609-aa14-ca80dd09df26","ios":"levelo://app?vid=52bbed55-bb43-4609-aa14-ca80dd09df26"},"vehicle_type_id":"4","last_reported":1752167530,"current_range_meters":20000,"station_id":"","pricing_plan_id":"cebpf4jnsgd1na2vs0mg"},{"bike_id":"7b5cd6ce-df57-4328-854d-cb2d1407ab18","system_id":"levelo_inurba_marseille","lat":43.33074,"lon":5.38985,"is_reserved":false,"is_disabled":false,"rental_uris":{"android":"levelo://app?vid=7b5cd6ce-df57-4328-854d-cb2d1407ab18","ios":"levelo://app?vid=7b5cd6ce-df57-4328-854d-cb2d1407ab18"},"vehicle_type_id":"4","last_reported":1752167530,"current_range_meters":20000,"station_id":"","pricing_plan_id":"cebpf4jnsgd1na2vs0mg"},{"bike_id":"5fa4e574-228c-4762-be66-97a1d6d79eb3","system_id":"levelo_inurba_marseille","lat":43.29199,"lon":5.35799,"is_reserved":false,"is_disabled":false,"rental_uris":{"android":"levelo://app?vid=5fa4e574-228c-4762-be66-97a1d6d79eb3","ios":"levelo://app?vid=5fa4e574-228c-4762-be66-97a1d6d79eb3"},"vehicle_type_id":"4","last_reported":1752167530,"current_range_meters":20000,"station_id":"ce4bhb12rcd13ifvqel0","pricing_plan_id":"cebpf4jnsgd1na2vs0mg"},{"bike_id":"cd0db069-a7fa-4c85-b822-14eda541dcdf","system_id":"levelo_inurba_marseille","lat":43.28435,"lon":5.34987,"is_reserved":false,"is_disabled":false,"rental_uris":{"android":"levelo://app?vid=cd0db069-a7fa-4c85-b822-14eda541dcdf","ios":"levelo://app?vid=cd0db069-a7fa-4c85-b822-14eda541dcdf"},"vehicle_type_id":"4","last_reported":1752167530,"current_range_meters":20000,"station_id":"ce4bhbh2rcd13ifvqepg","pricing_plan_id":"cebpf4jnsgd1na2vs0mg"},{"bike_id":"7feb4f17-470f-4f5e-af29-ccfc3eb44b1e","system_id":"levelo_inurba_marseille","lat":43.28728,"lon":5.36078,"is_reserved":false,"is_disabled":false,"rental_uris":{"android":"levelo://app?vid=7feb4f17-470f-4f5e-af29-ccfc3eb44b1e","ios":"levelo://app?vid=7feb4f17-470f-4f5e-af29-ccfc3eb44b1e"},"vehicle_type_id":"4","last_reported":1752167530,"current_range_meters":20000,"station_id":"cki0cbj6b192h4jlfktg","pricing_plan_id":"cebpf4jnsgd1na2vs0mg"},{"bike_id":"88ae071b-05d8-478f-85f8-91f0f866dfb9","system_id":"levelo_inurba_marseille","lat":43.24171,"lon":5.36397,"is_reserved":false,"is_disabled":false,"rental_uris":{"android":"levelo://app?vid=88ae071b-05d8-478f-85f8-91f0f866dfb9","ios":"levelo://app?vid=88ae071b-05d8-478f-85f8-91f0f866dfb9"},"vehicle_type_id":"4","last_reported":1752167530,"current_range_meters":20000,"station_id":"cpo36qri1sfpv3e86is0","pricing_plan_id":"cebpf4jnsgd1na2vs0mg"},{"bike_id":"203872c4-f715-4eb5-ae46-de4606864fcf","system_id":"levelo_inurba_marseille","lat":43.30449,"lon":5.38888,"is_reserved":false,"is_disabled":false,"rental_uris":{"android":"levelo://app?vid=203872c4-f715-4eb5-ae46-de4606864fcf","ios":"levelo://app?vid=203872c4-f715-4eb5-ae46-de4606864fcf"},"vehicle_type_id":"4","last_reported":1752167530,"current_range_meters":20400,"station_id":"ce4bgk12rcd13ifvqbi0","pricing_plan_id":"cebpf4jnsgd1na2vs0mg"},{"bike_id":"8d50bc62-fb4a-43e7-b6d7-bcaeee9069f4","system_id":"levelo_inurba_marseille","lat":43.295236,"lon":5.390458,"is_reserved":false,"is_disabled":false,"rental_uris":{"android":"levelo://app?vid=8d50bc62-fb4a-43e7-b6d7-bcaeee9069f4","ios":"levelo://app?vid=8d50bc62-fb4a-43e7-b6d7-bcaeee9069f4"},"vehicle_type_id":"4","last_reported":1752167530,"current_range_meters":20400,"station_id":"ce4bh3p2rcd13ifvqdp0","pricing_plan_id":"cebpf4jnsgd1na2vs0mg"},{"bike_id":"e100d0ee-ffbc-4200-b42d-387df46e815d","system_id":"levelo_inurba_marseille","lat":43.28938,"lon":5.38405,"is_reserved":false,"is_disabled":false,"rental_uris":{"android":"levelo://app?vid=e100d0ee-ffbc-4200-b42d-387df46e815d","ios":"levelo://app?vid=e100d0ee-ffbc-4200-b42d-387df46e815d"},"vehicle_type_id":"4","last_reported":1752167530,"current_range_meters":20400,"station_id":"ce4bh612rcd13ifvqe6g","pricing_plan_id":"cebpf4jnsgd1na2vs0mg"},{"bike_id":"4766337b-2e7b-4b1f-bd9f-4ce5c9ac4751","system_id":"levelo_inurba_marseille","lat":43.29211,"lon":5.35787,"is_reserved":false,"is_disabled":false,"rental_uris":{"android":"levelo://app?vid=4766337b-2e7b-4b1f-bd9f-4ce5c9ac4751","ios":"levelo://app?vid=4766337b-2e7b-4b1f-bd9f-4ce5c9ac4751"},"vehicle_type_id":"4","last_reported":1752167530,"current_range_meters":20400,"station_id":"ce4bhb12rcd13ifvqel0","pricing_plan_id":"cebpf4jnsgd1na2vs0mg"},{"bike_id":"68826ec1-2d41-4bb5-a405-afb62c7d1197","system_id":"levelo_inurba_marseille","lat":43.28427,"lon":5.34982,"is_reserved":false,"is_disabled":false,"rental_uris":{"android":"levelo://app?vid=68826ec1-2d41-4bb5-a405-afb62c7d1197","ios":"levelo://app?vid=68826ec1-2d41-4bb5-a405-afb62c7d1197"},"vehicle_type_id":"4","last_reported":1752167530,"current_range_meters":20400,"station_id":"ce4bhbh2rcd13ifvqepg","pricing_plan_id":"cebpf4jnsgd1na2vs0mg"},{"bike_id":"a3042b5d-3cd0-4f41-8219-7e482d1658d7","system_id":"levelo_inurba_marseille","lat":43.28273,"lon":5.35073,"is_reserved":false,"is_disabled":false,"rental_uris":{"android":"levelo://app?vid=a3042b5d-3cd0-4f41-8219-7e482d1658d7","ios":"levelo://app?vid=a3042b5d-3cd0-4f41-8219-7e482d1658d7"},"vehicle_type_id":"4","last_reported":1752167530,"current_range_meters":20400,"station_id":"ce4bhbp2rcd13ifvqerg","pricing_plan_id":"cebpf4jnsgd1na2vs0mg"},{"bike_id":"dcb9a461-921f-4970-a3ff-23cbfd722cb1","system_id":"levelo_inurba_marseille","lat":43.26194,"lon":5.37448,"is_reserved":false,"is_disabled":false,"rental_uris":{"android":"levelo://app?vid=dcb9a461-921f-4970-a3ff-23cbfd722cb1","ios":"levelo://app?vid=dcb9a461-921f-4970-a3ff-23cbfd722cb1"},"vehicle_type_id":"4","last_reported":1752167530,"current_range_meters":20400,"station_id":"ce4bhgp2rcd13ifvqfc0","pricing_plan_id":"cebpf4jnsgd1na2vs0mg"},{"bike_id":"dbba3321-20c7-4989-a7b5-ea9ab2c4b3e8","system_id":"levelo_inurba_marseille","lat":43.261935,"lon":5.374477,"is_reserved":false,"is_disabled":false,"rental_uris":{"android":"levelo://app?vid=dbba3321-20c7-4989-a7b5-ea9ab2c4b3e8","ios":"levelo://app?vid=dbba3321-20c7-4989-a7b5-ea9ab2c4b3e8"},"vehicle_type_id":"4","last_reported":1752167530,"current_range_meters":20400,"station_id":"ce4bhgp2rcd13ifvqfc0","pricing_plan_id":"cebpf4jnsgd1na2vs0mg"},{"bike_id":"6008315e-1f21-4d1b-8275-f2e34dd27c69","system_id":"levelo_inurba_marseille","lat":43.27997,"lon":5.40008,"is_reserved":false,"is_disabled":false,"rental_uris":{"android":"levelo://app?vid=6008315e-1f21-4d1b-8275-f2e34dd27c69","ios":"levelo://app?vid=6008315e-1f21-4d1b-8275-f2e34dd27c69"},"vehicle_type_id":"4","last_reported":1752167530,"current_range_meters":20400,"station_id":"ce4bho92rcd13ifvqh4g","pricing_plan_id":"cebpf4jnsgd1na2vs0mg"},{"bike_id":"52e17cb9-3244-4eaa-8702-0add62e2a730","system_id":"levelo_inurba_marseille","lat":43.23198,"lon":5.35554,"is_reserved":false,"is_disabled":false,"rental_uris":{"android":"levelo://app?vid=52e17cb9-3244-4eaa-8702-0add62e2a730","ios":"levelo://app?vid=52e17cb9-3244-4eaa-8702-0add62e2a730"},"vehicle_type_id":"4","last_reported":1752167530,"current_range_meters":20400,"station_id":"ce4bhu92rcd13ifvqi70","pricing_plan_id":"cebpf4jnsgd1na2vs0mg"},{"bike_id":"5f9facdb-d1e1-40e1-8ceb-766e4b9ac193","system_id":"levelo_inurba_marseille","lat":43.21754,"lon":5.345992,"is_reserved":false,"is_disabled":false,"rental_uris":{"android":"levelo://app?vid=5f9facdb-d1e1-40e1-8ceb-766e4b9ac193","ios":"levelo://app?vid=5f9facdb-d1e1-40e1-8ceb-766e4b9ac193"},"vehicle_type_id":"4","last_reported":1752167530,"current_range_meters":20800,"station_id":"","pricing_plan_id":"cebpf4jnsgd1na2vs0mg"},{"bike_id":"aa55a102-263c-4734-af36-45c5cc1d0407","system_id":"levelo_inurba_marseille","lat":43.28422,"lon":5.37519,"is_reserved":false,"is_disabled":false,"rental_uris":{"android":"levelo://app?vid=aa55a102-263c-4734-af36-45c5cc1d0407","ios":"levelo://app?vid=aa55a102-263c-4734-af36-45c5cc1d0407"},"vehicle_type_id":"4","last_reported":1752167530,"current_range_meters":20800,"station_id":"ce4bh412rcd13ifvqds0","pricing_plan_id":"cebpf4jnsgd1na2vs0mg"},{"bike_id":"0af24e78-6dae-48dc-829b-a3825afe41f9","system_id":"levelo_inurba_marseille","lat":43.262042,"lon":5.379233,"is_reserved":false,"is_disabled":false,"rental_uris":{"android":"levelo://app?vid=0af24e78-6dae-48dc-829b-a3825afe41f9","ios":"levelo://app?vid=0af24e78-6dae-48dc-829b-a3825afe41f9"},"vehicle_type_id":"4","last_reported":1752167530,"current_range_meters":20800,"station_id":"ce4bhjp2rcd13ifvqg90","pricing_plan_id":"cebpf4jnsgd1na2vs0mg"},{"bike_id":"b6dcd2c1-0d76-4767-8413-3866b661d382","system_id":"levelo_inurba_marseille","lat":43.279991,"lon":5.410655,"is_reserved":false,"is_disabled":false,"rental_uris":{"android":"levelo://app?vid=b6dcd2c1-0d76-4767-8413-3866b661d382","ios":"levelo://app?vid=b6dcd2c1-0d76-4767-8413-3866b661d382"},"vehicle_type_id":"4","last_reported":1752167530,"current_range_meters":20800,"station_id":"ce4bhnp2rcd13ifvqh0g","pricing_plan_id":"cebpf4jnsgd1na2vs0mg"},{"bike_id":"9d0d85e3-ee19-452d-93c5-fbfc98a09acf","system_id":"levelo_inurba_marseille","lat":43.29534,"lon":5.43836,"is_reserved":false,"is_disabled":false,"rental_uris":{"android":"levelo://app?vid=9d0d85e3-ee19-452d-93c5-fbfc98a09acf","ios":"levelo://app?vid=9d0d85e3-ee19-452d-93c5-fbfc98a09acf"},"vehicle_type_id":"4","last_reported":1752167530,"current_range_meters":21600,"station_id":"","pricing_plan_id":"cebpf4jnsgd1na2vs0mg"},{"bike_id":"ec8f48e0-76ec-477e-a3d5-c18a3450aaa6","system_id":"levelo_inurba_marseille","lat":43.2761,"lon":5.36104,"is_reserved":false,"is_disabled":false,"rental_uris":{"android":"levelo://app?vid=ec8f48e0-76ec-477e-a3d5-c18a3450aaa6","ios":"levelo://app?vid=ec8f48e0-76ec-477e-a3d5-c18a3450aaa6"},"vehicle_type_id":"4","last_reported":1752167530,"current_range_meters":21600,"station_id":"ce4bgj92rcd13ifvqbe0","pricing_plan_id":"cebpf4jnsgd1na2vs0mg"},{"bike_id":"bfbe8c58-f6fc-4f32-8a72-1153756b1db3","system_id":"levelo_inurba_marseille","lat":43.3026,"lon":5.400778,"is_reserved":false,"is_disabled":false,"rental_uris":{"android":"levelo://app?vid=bfbe8c58-f6fc-4f32-8a72-1153756b1db3","ios":"levelo://app?vid=bfbe8c58-f6fc-4f32-8a72-1153756b1db3"},"vehicle_type_id":"4","last_reported":1752167530,"current_range_meters":21600,"station_id":"ce4bgvh2rcd13ifvqcs0","pricing_plan_id":"cebpf4jnsgd1na2vs0mg"},{"bike_id":"8c0b9306-39e5-4cc0-a651-fb38e2bee8a0","system_id":"levelo_inurba_marseille","lat":43.28487,"lon":5.38426,"is_reserved":false,"is_disabled":false,"rental_uris":{"android":"levelo://app?vid=8c0b9306-39e5-4cc0-a651-fb38e2bee8a0","ios":"levelo://app?vid=8c0b9306-39e5-4cc0-a651-fb38e2bee8a0"},"vehicle_type_id":"4","last_reported":1752167530,"current_range_meters":21600,"station_id":"ce4bh512rcd13ifvqe3g","pricing_plan_id":"cebpf4jnsgd1na2vs0mg"},{"bike_id":"5e8e2973-8562-414c-a2a7-f651670dd623","system_id":"levelo_inurba_marseille","lat":43.28417,"lon":5.34984,"is_reserved":false,"is_disabled":false,"rental_uris":{"android":"levelo://app?vid=5e8e2973-8562-414c-a2a7-f651670dd623","ios":"levelo://app?vid=5e8e2973-8562-414c-a2a7-f651670dd623"},"vehicle_type_id":"4","last_reported":1752167530,"current_range_meters":21600,"station_id":"ce4bhbh2rcd13ifvqepg","pricing_plan_id":"cebpf4jnsgd1na2vs0mg"},{"bike_id":"5a1444c2-278f-4e2b-ba2f-f7ede85db0ac","system_id":"levelo_inurba_marseille","lat":43.30422,"lon":5.41281,"is_reserved":false,"is_disabled":false,"rental_uris":{"android":"levelo://app?vid=5a1444c2-278f-4e2b-ba2f-f7ede85db0ac","ios":"levelo://app?vid=5a1444c2-278f-4e2b-ba2f-f7ede85db0ac"},"vehicle_type_id":"4","last_reported":1752167530,"current_range_meters":21600,"station_id":"ce4bhop2rcd13ifvqh8g","pricing_plan_id":"cebpf4jnsgd1na2vs0mg"},{"bike_id":"e1d93387-0760-4e52-97c0-2da94b06d908","system_id":"levelo_inurba_marseille","lat":43.276129,"lon":5.360936,"is_reserved":false,"is_disabled":false,"rental_uris":{"android":"levelo://app?vid=e1d93387-0760-4e52-97c0-2da94b06d908","ios":"levelo://app?vid=e1d93387-0760-4e52-97c0-2da94b06d908"},"vehicle_type_id":"4","last_reported":1752167530,"current_range_meters":22000,"station_id":"ce4bgj92rcd13ifvqbe0","pricing_plan_id":"cebpf4jnsgd1na2vs0mg"},{"bike_id":"d12dd977-955d-4f48-972a-d5e908fe3f03","system_id":"levelo_inurba_marseille","lat":43.30541,"lon":5.36558,"is_reserved":false,"is_disabled":false,"rental_uris":{"android":"levelo://app?vid=d12dd977-955d-4f48-972a-d5e908fe3f03","ios":"levelo://app?vid=d12dd977-955d-4f48-972a-d5e908fe3f03"},"vehicle_type_id":"4","last_reported":1752167530,"current_range_meters":22000,"station_id":"ce4bgs12rcd13ifvqcag","pricing_plan_id":"cebpf4jnsgd1na2vs0mg"},{"bike_id":"5e9cabcc-124a-4970-ba77-ec35b15f1734","system_id":"levelo_inurba_marseille","lat":43.30953,"lon":5.39028,"is_reserved":false,"is_disabled":false,"rental_uris":{"android":"levelo://app?vid=5e9cabcc-124a-4970-ba77-ec35b15f1734","ios":"levelo://app?vid=5e9cabcc-124a-4970-ba77-ec35b15f1734"},"vehicle_type_id":"4","last_reported":1752167530,"current_range_meters":22000,"station_id":"ce4bgup2rcd13ifvqco0","pricing_plan_id":"cebpf4jnsgd1na2vs0mg"},{"bike_id":"545e7abc-908b-48fd-bbae-af281df2b1d4","system_id":"levelo_inurba_marseille","lat":43.311646,"lon":5.387153,"is_reserved":false,"is_disabled":false,"rental_uris":{"android":"levelo://app?vid=545e7abc-908b-48fd-bbae-af281df2b1d4","ios":"levelo://app?vid=545e7abc-908b-48fd-bbae-af281df2b1d4"},"vehicle_type_id":"4","last_reported":1752167530,"current_range_meters":22000,"station_id":"ce4bgv12rcd13ifvqcp0","pricing_plan_id":"cebpf4jnsgd1na2vs0mg"},{"bike_id":"5fd454bc-c190-4521-9ff0-8d349d07fa0c","system_id":"levelo_inurba_marseille","lat":43.28421,"lon":5.3499,"is_reserved":false,"is_disabled":false,"rental_uris":{"android":"levelo://app?vid=5fd454bc-c190-4521-9ff0-8d349d07fa0c","ios":"levelo://app?vid=5fd454bc-c190-4521-9ff0-8d349d07fa0c"},"vehicle_type_id":"4","last_reported":1752167530,"current_range_meters":22000,"station_id":"ce4bhbh2rcd13ifvqepg","pricing_plan_id":"cebpf4jnsgd1na2vs0mg"},{"bike_id":"656c3883-e59e-49db-8976-daef946471e6","system_id":"levelo_inurba_marseille","lat":43.28272,"lon":5.3506,"is_reserved":false,"is_disabled":false,"rental_uris":{"android":"levelo://app?vid=656c3883-e59e-49db-8976-daef946471e6","ios":"levelo://app?vid=656c3883-e59e-49db-8976-daef946471e6"},"vehicle_type_id":"4","last_reported":1752167530,"current_range_meters":22000,"station_id":"ce4bhbp2rcd13ifvqerg","pricing_plan_id":"cebpf4jnsgd1na2vs0mg"},{"bike_id":"39438dbc-87f6-42fd-8e4b-472a9231b8ee","system_id":"levelo_inurba_marseille","lat":43.26196,"lon":5.37445,"is_reserved":false,"is_disabled":false,"rental_uris":{"android":"levelo://app?vid=39438dbc-87f6-42fd-8e4b-472a9231b8ee","ios":"levelo://app?vid=39438dbc-87f6-42fd-8e4b-472a9231b8ee"},"vehicle_type_id":"4","last_reported":1752167530,"current_range_meters":22000,"station_id":"ce4bhgp2rcd13ifvqfc0","pricing_plan_id":"cebpf4jnsgd1na2vs0mg"},{"bike_id":"6ba4463b-4cbe-48f2-94f9-e8013ea3d870","system_id":"levelo_inurba_marseille","lat":43.28156,"lon":5.4265,"is_reserved":false,"is_disabled":false,"rental_uris":{"android":"levelo://app?vid=6ba4463b-4cbe-48f2-94f9-e8013ea3d870","ios":"levelo://app?vid=6ba4463b-4cbe-48f2-94f9-e8013ea3d870"},"vehicle_type_id":"4","last_reported":1752167530,"current_range_meters":22000,"station_id":"ce4bhnh2rcd13ifvqgug","pricing_plan_id":"cebpf4jnsgd1na2vs0mg"},{"bike_id":"e86ba8c9-208d-482c-a826-4c100938472a","system_id":"levelo_inurba_marseille","lat":43.21189,"lon":5.3507,"is_reserved":false,"is_disabled":false,"rental_uris":{"android":"levelo://app?vid=e86ba8c9-208d-482c-a826-4c100938472a","ios":"levelo://app?vid=e86ba8c9-208d-482c-a826-4c100938472a"},"vehicle_type_id":"4","last_reported":1752167530,"current_range_meters":22000,"station_id":"st_cvj6sg6p6f1abm77japg","pricing_plan_id":"cebpf4jnsgd1na2vs0mg"},