{"last_updated":1733232038,"ttl":60,"version":"2.2","data":{"bikes":[{"bike_id":"c6fcab72-3b24-4c75-b975-ad816d9a147b","system_id":"levelo_inurba_marseille","lat":43.24078,"lon":5.37756,"is_reserved":false,"is_disabled":true,"rental_uris":{"android":"levelo://app?vid=c6fcab72-3b24-4c75-b975-ad816d9a147b","ios":"levelo://app?vid=c6fcab72-3b24-4c75-b975-ad816d9a147b"},"vehicle_type_id":"4","last_reported":1733232039,"current_range_meters":0,"station_id":"ce4bhnp2rcd13ifvqgvg","pricing_plan_id":"cebpf4jnsgd1na2vs0mg"},{"bike_id":"df479c2c-35ac-44ad-b9d6-81c89ed769ce","system_id":"levelo_inurba_marseille","lat":43.2969,"lon":5.37062,"is_reserved":false,"is_disabled":true,"rental_uris":{"android":"levelo://app?vid=df479c2c-35ac-44ad-b9d6-81c89ed769ce","ios":"levelo://app?vid=df479c2c-35ac-44ad-b9d6-81c89ed769ce"},"vehicle_type_id":"4","last_reported":1733232039,"current_range_meters":0,"station_id":"","pricing_plan_id":"cebpf4jnsgd1na2vs0mg"},{"bike_id":"8e029eaf-e104-4c5d-858d-6cd39de73d09","system_id":"levelo_inurba_marseille","lat":43.24167,"lon":5.36401,"is_reserved":false,"is_disabled":false,"rental_uris":{"android":"levelo://app?vid=8e029eaf-e104-4c5d-858d-6cd39de73d09","ios":"levelo://app?vid=8e029eaf-e104-4c5d-858d-6cd39de73d09"},"vehicle_type_id":"4","last_reported":1733232039,"current_range_meters":14800,"station_id":"cpo36qri1sfpv3e86is0","pricing_plan_id":"cebpf4jnsgd1na2vs0mg"},{"bike_id":"bd8cd1c7-abef-42cd-bb74-c23362a9f370","system_id":"levelo_inurba_marseille","lat":43.29408,"lon":5.38622,"is_reserved":false,"is_disabled":true,"rental_uris":{"android":"levelo://app?vid=bd8cd1c7-abef-42cd-bb74-c23362a9f370","ios":"levelo://app?vid=bd8cd1c7-abef-42cd-bb74-c23362a9f370"},"vehicle_type_id":"4","last_reported":1733232039,"current_range_meters":16800,"station_id":"ce4bh2h2rcd13ifvqdh0","pricing_plan_id":"cebpf4jnsgd1na2vs0mg"},{"bike_id":"fd85f247-bc9f-4512-8957-89e7641ccdee","system_id":"levelo_inurba_marseille","lat":43.32476,"lon":5.36575,"is_reserved":false,"is_disabled":false,"rental_uris":{"android":"levelo://app?vid=fd85f247-bc9f-4512-8957-89e7641ccdee","ios":"levelo://app?vid=fd85f247-bc9f-4512-8957-89e7641ccdee"},"vehicle_type_id":"4","last_reported":1733232039,"current_range_meters":38800,"station_id":"ce4bhs12rcd13ifvqhvg","pricing_plan_id":"cebpf4jnsgd1na2vs0mg"},{"bike_id":"6751e088-9085-47e4-9487-dd161728d9e3","system_id":"levelo_inurba_marseille","lat":43.31485,"lon":5.37318,"is_reserved":false,"is_disabled":false,"rental_uris":{"android":"levelo://app?vid=6751e088-9085-47e4-9487-dd161728d9e3","ios":"levelo://app?vid=6751e088-9085-47e4-9487-dd161728d9e3"},"vehicle_type_id":"4","last_reported":1733232039,"current_range_meters":20800,"station_id":"ce4bgt12rcd13ifvqcd0","pricing_plan_id":"cebpf4jnsgd1na2vs0mg"},{"bike_id":"12652c73-7b25-4805-92ca-4c9bb1159096","system_id":"levelo_inurba_marseille","lat":43.27611,"lon":5.36111,"is_reserved":false,"is_disabled":true,"rental_uris":{"android":"levelo://app?vid=12652c73-7b25-4805-92ca-4c9bb1159096","ios":"levelo://app?vid=12652c73-7b25-4805-92ca-4c9bb1159096"},"vehicle_type_id":"4","last_reported":1733232039,"current_range_meters":38000,"station_id":"ce4bgj92rcd13ifvqbe0","pricing_plan_id":"cebpf4jnsgd1na2vs0mg"},{"bike_id":"4c49a6ec-87f1-469b-b46c-51fa3d37c9d3","system_id":"levelo_inurba_marseille","lat":43.316,"lon":5.38135,"is_reserved":false,"is_disabled":false,"rental_uris":{"android":"levelo://app?vid=4c49a6ec-87f1-469b-b46c-51fa3d37c9d3","ios":"levelo://app?vid=4c49a6ec-87f1-469b-b46c-51fa3d37c9d3"},"vehicle_type_id":"4","last_reported":1733232039,"current_range_meters":38400,"station_id":"","pricing_plan_id":"cebpf4jnsgd1na2vs0mg"},{"bike_id":"d758d859-5ad9-44a8-b6cb-875b0acd2b1d","system_id":"levelo_inurba_marseille","lat":43.29438,"lon":5.39749,"is_reserved":false,"is_disabled":false,"rental_uris":{"android":"levelo://app?vid=d758d859-5ad9-44a8-b6cb-875b0acd2b1d","ios":"levelo://app?vid=d758d859-5ad9-44a8-b6cb-875b0acd2b1d"},"vehicle_type_id":"4","last_reported":1733232039,"current_range_meters":2000,"station_id":"ce4bh3h2rcd13ifvqdo0","pricing_plan_id":"cebpf4jnsgd1na2vs0mg"},{"bike_id":"be407bbe-d1ce-48de-8db2-09114af9efd7","system_id":"levelo_inurba_marseille","lat":43.337444,"lon":5.374475,"is_reserved":false,"is_disabled":false,"rental_uris":{"android":"levelo://app?vid=be407bbe-d1ce-48de-8db2-09114af9efd7","ios":"levelo://app?vid=be407bbe-d1ce-48de-8db2-09114af9efd7"},"vehicle_type_id":"4","last_reported":1733232039,"current_range_meters":38400,"station_id":"","pricing_plan_id":"cebpf4jnsgd1na2vs0mg"},{"bike_id":"02f5618e-66bf-4911-a327-d72d361f58c9","system_id":"levelo_inurba_marseille","lat":43.30181,"lon":5.36606,"is_reserved":false,"is_disabled":false,"rental_uris":{"android":"levelo://app?vid=02f5618e-66bf-4911-a327-d72d361f58c9","ios":"levelo://app?vid=02f5618e-66bf-4911-a327-d72d361f58c9"},"vehicle_type_id":"4","last_reported":1733232039,"current_range_meters":38800,"station_id":"ce4bgrh2rcd13ifvqc8g","pricing_plan_id":"cebpf4jnsgd1na2vs0mg"},{"bike_id":"3156a369-568f-481d-b39d-8ff7a71dd8b1","system_id":"levelo_inurba_marseille","lat":43.26951,"lon":5.40244,"is_reserved":false,"is_disabled":true,"rental_uris":{"android":"levelo://app?vid=3156a369-568f-481d-b39d-8ff7a71dd8b1","ios":"levelo://app?vid=3156a369-568f-481d-b39d-8ff7a71dd8b1"},"vehicle_type_id":"4","last_reported":1733232039,"current_range_meters":2000,"station_id":"cjm6bp8fraef2m0cb0m0","pricing_plan_id":"cebpf4jnsgd1na2vs0mg"},{"bike_id":"8bd642b2-0279-44c7-9ee2-fc3b57332c83","system_id":"levelo_inurba_marseille","lat":43.27455,"lon":5.40073,"is_reserved":false,"is_disabled":true,"rental_uris":{"android":"levelo://app?vid=8bd642b2-0279-44c7-9ee2-fc3b57332c83","ios":"levelo://app?vid=8bd642b2-0279-44c7-9ee2-fc3b57332c83"},"vehicle_type_id":"4","last_reported":1733232039,"current_range_meters":0,"station_id":"","pricing_plan_id":"cebpf4jnsgd1na2vs0mg"},{"bike_id":"4f952dd8-aab3-4e4e-ae53-f13b90112ad9","system_id":"levelo_inurba_marseille","lat":43.28929,"lon":5.36643,"is_reserved":false,"is_disabled":false,"rental_uris":{"android":"levelo://app?vid=4f952dd8-aab3-4e4e-ae53-f13b90112ad9","ios":"levelo://app?vid=4f952dd8-aab3-4e4e-ae53-f13b90112ad9"},"vehicle_type_id":"4","last_reported":1733232039,"current_range_meters":17200,"station_id":"ce4bhap2rcd13ifvqek0","pricing_plan_id":"cebpf4jnsgd1na2vs0mg"},{"bike_id":"e6cd8a84-18ce-4cb2-b9d4-ba084e7a7e81","system_id":"levelo_inurba_marseille","lat":43.25726,"lon":5.4111,"is_reserved":false,"is_disabled":false,"rental_uris":{"android":"levelo://app?vid=e6cd8a84-18ce-4cb2-b9d4-ba084e7a7e81","ios":"levelo://app?vid=e6cd8a84-18ce-4cb2-b9d4-ba084e7a7e81"},"vehicle_type_id":"4","last_reported":1733232039,"current_range_meters":26800,"station_id":"ce4bhkp2rcd13ifvqgd0","pricing_plan_id":"cebpf4jnsgd1na2vs0mg"},{"bike_id":"6484fda0-a4a5-4835-863b-fd43d58e7131","system_id":"levelo_inurba_marseille","lat":43.29267,"lon":5.3685,"is_reserved":false,"is_disabled":false,"rental_uris":{"android":"levelo://app?vid=6484fda0-a4a5-4835-863b-fd43d58e7131","ios":"levelo://app?vid=6484fda0-a4a5-4835-863b-fd43d58e7131"},"vehicle_type_id":"4","last_reported":1733232039,"current_range_meters":16400,"station_id":"ce4bhbp2rcd13ifvqesg","pricing_plan_id":"cebpf4jnsgd1na2vs0mg"},{"bike_id":"647c9f5d-38ae-406a-af37-47e78bdb92c8","system_id":"levelo_inurba_marseille","lat":43.337444,"lon":5.374475,"is_reserved":false,"is_disabled":false,"rental_uris":{"android":"levelo://app?vid=647c9f5d-38ae-406a-af37-47e78bdb92c8","ios":"levelo://app?vid=647c9f5d-38ae-406a-af37-47e78bdb92c8"},"vehicle_type_id":"4","last_reported":1733232039,"current_range_meters":24800,"station_id":"","pricing_plan_id":"cebpf4jnsgd1na2vs0mg"},{"bike_id":"06f2ef85-9e2f-4689-b8da-a168ccc7e338","system_id":"levelo_inurba_marseille","lat":43.29077,"lon":5.37156,"is_reserved":false,"is_disabled":false,"rental_uris":{"android":"levelo://app?vid=06f2ef85-9e2f-4689-b8da-a168ccc7e338","ios":"levelo://app?vid=06f2ef85-9e2f-4689-b8da-a168ccc7e338"},"vehicle_type_id":"4","last_reported":1733232039,"current_range_meters":33600,"station_id":"ce4bh5p2rcd13ifvqe4g","pricing_plan_id":"cebpf4jnsgd1na2vs0mg"},{"bike_id":"c0bec7ea-31af-49de-8a97-a7d6bf5d8bb8","system_id":"levelo_inurba_marseille","lat":43.29047,"lon":5.3592,"is_reserved":false,"is_disabled":true,"rental_uris":{"android":"levelo://app?vid=c0bec7ea-31af-49de-8a97-a7d6bf5d8bb8","ios":"levelo://app?vid=c0bec7ea-31af-49de-8a97-a7d6bf5d8bb8"},"vehicle_type_id":"4","last_reported":1733232039,"current_range_meters":38800,"station_id":"ce4bha92rcd13ifvqeg0","pricing_plan_id":"cebpf4jnsgd1na2vs0mg"},{"bike_id":"4a146e2e-4951-41ab-b4ce-a1b89d9a7694","system_id":"levelo_inurba_marseille","lat":43.29978,"lon":5.38491,"is_reserved":false,"is_disabled":false,"rental_uris":{"android":"levelo://app?vid=4a146e2e-4951-41ab-b4ce-a1b89d9a7694","ios":"levelo://app?vid=4a146e2e-4951-41ab-b4ce-a1b89d9a7694"},"vehicle_type_id":"4","last_reported":1733232039,"current_range_meters":25600,"station_id":"ce4bgj92rcd13ifvqbd0","pricing_plan_id":"cebpf4jnsgd1na2vs0mg"},{"bike_id":"742ca14f-c914-4aff-847b-6e73cc69df5e","system_id":"levelo_inurba_marseille","lat":43.29247,"lon":5.38465,"is_reserved":false,"is_disabled":false,"rental_uris":{"android":"levelo://app?vid=742ca14f-c914-4aff-847b-6e73cc69df5e","ios":"levelo://app?vid=742ca14f-c914-4aff-847b-6e73cc69df5e"},"vehicle_type_id":"4","last_reported":1733232039,"current_range_meters":37600,"station_id":"ce4bh692rcd13ifvqea0","pricing_plan_id":"cebpf4jnsgd1na2vs0mg"},{"bike_id":"22ca9d08-39d7-4f88-a37e-da5c52e74d91","system_id":"levelo_inurba_marseille","lat":43.30478,"lon":5.3791,"is_reserved":false,"is_disabled":true,"rental_uris":{"android":"levelo://app?vid=22ca9d08-39d7-4f88-a37e-da5c52e74d91","ios":"levelo://app?vid=22ca9d08-39d7-4f88-a37e-da5c52e74d91"},"vehicle_type_id":"4","last_reported":1733232039,"current_range_meters":800,"station_id":"ce4bgup2rcd13ifvqcn0","pricing_plan_id":"cebpf4jnsgd1na2vs0mg"},{"bike_id":"c7b633c3-9976-4339-92cd-eeebfe8cea37","system_id":"levelo_inurba_marseille","lat":43.27614,"lon":5.36108,"is_reserved":false,"is_disabled":false,"rental_uris":{"android":"levelo://app?vid=c7b633c3-9976-4339-92cd-eeebfe8cea37","ios":"levelo://app?vid=c7b633c3-9976-4339-92cd-eeebfe8cea37"},"vehicle_type_id":"4","last_reported":1733232039,"current_range_meters":27200,"station_id":"ce4bgj92rcd13ifvqbe0","pricing_plan_id":"cebpf4jnsgd1na2vs0mg"},{"bike_id":"68417c34-343c-40a1-b9fe-2291edb2e6ca","system_id":"levelo_inurba_marseille","lat":43.28727,"lon":5.36089,"is_reserved":false,"is_disabled":false,"rental_uris":{"android":"levelo://app?vid=68417c34-343c-40a1-b9fe-2291edb2e6ca","ios":"levelo://app?vid=68417c34-343c-40a1-b9fe-2291edb2e6ca"},"vehicle_type_id":"4","last_reported":1733232039,"current_range_meters":14800,"station_id":"cki0cbj6b192h4jlfktg","pricing_plan_id":"cebpf4jnsgd1na2vs0mg"},{"bike_id":"b3f478ac-3b05-4edf-bdbf-76399090f8e9","system_id":"levelo_inurba_marseille","lat":43.29994,"lon":5.37639,"is_reserved":false,"is_disabled":true,"rental_uris":{"android":"levelo://app?vid=b3f478ac-3b05-4edf-bdbf-76399090f8e9","ios":"levelo://app?vid=b3f478ac-3b05-4edf-bdbf-76399090f8e9"},"vehicle_type_id":"4","last_reported":1733232039,"current_range_meters":0,"station_id":"","pricing_plan_id":"cebpf4jnsgd1na2vs0mg"},{"bike_id":"c3587c28-5435-41c6-a9b7-aa468e6b19aa","system_id":"levelo_inurba_marseille","lat":43.29746,"lon":5.37916,"is_reserved":false,"is_disabled":true,"rental_uris":{"android":"levelo://app?vid=c3587c28-5435-41c6-a9b7-aa468e6b19aa","ios":"levelo://app?vid=c3587c28-5435-41c6-a9b7-aa468e6b19aa"},"vehicle_type_id":"4","last_reported":1733232039,"current_range_meters":0,"station_id":"","pricing_plan_id":"cebpf4jnsgd1na2vs0mg"},{"bike_id":"47af75fc-7551-40e0-a473-9253a8718461","system_id":"levelo_inurba_marseille","lat":43.29036,"lon":5.3757,"is_reserved":false,"is_disabled":false,"rental_uris":{"android":"levelo://app?vid=47af75fc-7551-40e0-a473-9253a8718461","ios":"levelo://app?vid=47af75fc-7551-40e0-a473-9253a8718461"},"vehicle_type_id":"4","last_reported":1733232039,"current_range_meters":24800,"station_id":"ce4bh692rcd13ifvqe90","pricing_plan_id":"cebpf4jnsgd1na2vs0mg"},{"bike_id":"8dc4e48d-7076-404b-bc1d-c47f2714d4fd","system_id":"levelo_inurba_marseille","lat":43.24648,"lon":5.38894,"is_reserved":false,"is_disabled":false,"rental_uris":{"android":"levelo://app?vid=8dc4e48d-7076-404b-bc1d-c47f2714d4fd","ios":"levelo://app?vid=8dc4e48d-7076-404b-bc1d-c47f2714d4fd"},"vehicle_type_id":"4","last_reported":1733232039,"current_range_meters":18000,"station_id":"ce4bhg12rcd13ifvqf60","pricing_plan_id":"cebpf4jnsgd1na2vs0mg"},{"bike_id":"e8d9fcd3-6c4c-4c2e-a87e-41c5e4dfa6d0","system_id":"levelo_inurba_marseille","lat":43.25438,"lon":5.38158,"is_reserved":false,"is_disabled":true,"rental_uris":{"android":"levelo://app?vid=e8d9fcd3-6c4c-4c2e-a87e-41c5e4dfa6d0","ios":"levelo://app?vid=e8d9fcd3-6c4c-4c2e-a87e-41c5e4dfa6d0"},"vehicle_type_id":"4","last_reported":1733232039,"current_range_meters":0,"station_id":"","pricing_plan_id":"cebpf4jnsgd1na2vs0mg"},{"bike_id":"e7c2b082-ef91-42b1-9ef0-9e4329cee9cb","system_id":"levelo_inurba_marseille","lat":43.29876,"lon":5.40351,"is_reserved":false,"is_disabled":true,"rental_uris":{"android":"levelo://app?vid=e7c2b082-ef91-42b1-9ef0-9e4329cee9cb","ios":"levelo://app?vid=e7c2b082-ef91-42b1-9ef0-9e4329cee9cb"},"vehicle_type_id":"4","last_reported":1733232039,"current_range_meters":0,"station_id":"","pricing_plan_id":"cebpf4jnsgd1na2vs0mg"},{"bike_id":"16e03701-590e-4b64-8a34-43e9f78250b8","system_id":"levelo_inurba_marseille","lat":43.31324,"lon":5.39702,"is_reserved":false,"is_disabled":false,"rental_uris":{"android":"levelo://app?vid=16e03701-590e-4b64-8a34-43e9f78250b8","ios":"levelo://app?vid=16e03701-590e-4b64-8a34-43e9f78250b8"},"vehicle_type_id":"4","last_reported":1733232039,"current_range_meters":38000,"station_id":"ce4bgvp2rcd13ifvqcu0","pricing_plan_id":"cebpf4jnsgd1na2vs0mg"},{"bike_id":"4673f8d8-8295-437d-8f1d-a884bed9d1e4","system_id":"levelo_inurba_marseille","lat":43.23145,"lon":5.43723,"is_reserved":false,"is_disabled":false,"rental_uris":{"android":"levelo://app?vid=4673f8d8-8295-437d-8f1d-a884bed9d1e4","ios":"levelo://app?vid=4673f8d8-8295-437d-8f1d-a884bed9d1e4"},"vehicle_type_id":"4","last_reported":1733232039,"current_range_meters":38800,"station_id":"ce4bhmp2rcd13ifvqgog","pricing_plan_id":"cebpf4jnsgd1na2vs0mg"},{"bike_id":"e5af8f06-b11d-4a9c-a17e-c358f51ba456","system_id":"levelo_inurba_marseille","lat":43.24811,"lon":5.37462,"is_reserved":false,"is_disabled":true,"rental_uris":{"android":"levelo://app?vid=e5af8f06-b11d-4a9c-a17e-c358f51ba456","ios":"levelo://app?vid=e5af8f06-b11d-4a9c-a17e-c358f51ba456"},"vehicle_type_id":"4","last_reported":1733232039,"current_range_meters":0,"station_id":"ce4bhgh2rcd13ifvqfb0","pricing_plan_id":"cebpf4jnsgd1na2vs0mg"},{"bike_id":"525e387d-f53d-4c13-8e33-a48ec09c1aef","system_id":"levelo_inurba_marseille","lat":43.30532,"lon":5.36551,"is_reserved":false,"is_disabled":false,"rental_uris":{"android":"levelo://app?vid=525e387d-f53d-4c13-8e33-a48ec09c1aef","ios":"levelo://app?vid=525e387d-f53d-4c13-8e33-a48ec09c1aef"},"vehicle_type_id":"4","last_reported":1733232039,"current_range_meters":27600,"station_id":"ce4bgs12rcd13ifvqcag","pricing_plan_id":"cebpf4jnsgd1na2vs0mg"},{"bike_id":"0ee0ab59-5abb-4d53-bc4d-a3af2b711996","system_id":"levelo_inurba_marseille","lat":43.32354,"lon":5.36759,"is_reserved":false,"is_disabled":false,"rental_uris":{"android":"levelo://app?vid=0ee0ab59-5abb-4d53-bc4d-a3af2b711996","ios":"levelo://app?vid=0ee0ab59-5abb-4d53-bc4d-a3af2b711996"},"vehicle_type_id":"4","last_reported":1733232039,"current_range_meters":34800,"station_id":"ce4bhsh2rcd13ifvqi2g","pricing_plan_id":"cebpf4jnsgd1na2vs0mg"},{"bike_id":"7043e385-76bc-48c3-8107-716c8414d1c6","system_id":"levelo_inurba_marseille","lat":43.26569,"lon":5.39017,"is_reserved":false,"is_disabled":false,"rental_uris":{"android":"levelo://app?vid=7043e385-76bc-48c3-8107-716c8414d1c6","ios":"levelo://app?vid=7043e385-76bc-48c3-8107-716c8414d1c6"},"vehicle_type_id":"4","last_reported":1733232039,"current_range_meters":25600,"station_id":"ce4bhe12rcd13ifvqf30","pricing_plan_id":"cebpf4jnsgd1na2vs0mg"},{"bike_id":"96693db7-b597-448a-8bfe-613a90735916","system_id":"levelo_inurba_marseille","lat":43.27997,"lon":5.40013,"is_reserved":false,"is_disabled":false,"rental_uris":{"android":"levelo://app?vid=96693db7-b597-448a-8bfe-613a90735916","ios":"levelo://app?vid=96693db7-b597-448a-8bfe-613a90735916"},"vehicle_type_id":"4","last_reported":1733232039,"current_range_meters":39200,"station_id":"ce4bho92rcd13ifvqh4g","pricing_plan_id":"cebpf4jnsgd1na2vs0mg"},{"bike_id":"e12bdda5-dc2c-4545-bb40-fff311effa17","system_id":"levelo_inurba_marseille","lat":43.29775,"lon":5.38089,"is_reserved":false,"is_disabled":true,"rental_uris":{"android":"levelo://app?vid=e12bdda5-dc2c-4545-bb40-fff311effa17","ios":"levelo://app?vid=e12bdda5-dc2c-4545-bb40-fff311effa17"},"vehicle_type_id":"4","last_reported":1733232039,"current_range_meters":800,"station_id":"ce4bgip2rcd13ifvqbb0","pricing_plan_id":"cebpf4jnsgd1na2vs0mg"},{"bike_id":"460edbbc-7a55-43f3-bf55-b9fec7ea3a39","system_id":"levelo_inurba_marseille","lat":43.31322,"lon":5.36647,"is_reserved":false,"is_disabled":false,"rental_uris":{"android":"levelo://app?vid=460edbbc-7a55-43f3-bf55-b9fec7ea3a39","ios":"levelo://app?vid=460edbbc-7a55-43f3-bf55-b9fec7ea3a39"},"vehicle_type_id":"4","last_reported":1733232039,"current_range_meters":7200,"station_id":"","pricing_plan_id":"cebpf4jnsgd1na2vs0mg"},{"bike_id":"9748bc33-3a5e-4f58-9f77-2f558b4b70fd","system_id":"levelo_inurba_marseille","lat":43.26676,"lon":5.38272,"is_reserved":false,"is_disabled":false,"rental_uris":{"android":"levelo://app?vid=9748bc33-3a5e-4f58-9f77-2f558b4b70fd","ios":"levelo://app?vid=9748bc33-3a5e-4f58-9f77-2f558b4b70fd"},"vehicle_type_id":"4","last_reported":1733232039,"current_range_meters":24400,"station_id":"ce4bhg92rcd13ifvqf90","pricing_plan_id":"cebpf4jnsgd1na2vs0mg"},{"bike_id":"16bea42d-3248-41fd-8b51-39fb3d7ec2c4","system_id":"levelo_inurba_marseille","lat":43.26482,"lon":5.38535,"is_reserved":false,"is_disabled":true,"rental_uris":{"android":"levelo://app?vid=16bea42d-3248-41fd-8b51-39fb3d7ec2c4","ios":"levelo://app?vid=16bea42d-3248-41fd-8b51-39fb3d7ec2c4"},"vehicle_type_id":"4","last_reported":1733232039,"current_range_meters":0,"station_id":"","pricing_plan_id":"cebpf4jnsgd1na2vs0mg"},{"bike_id":"28a52322-5992-406c-a66b-6c88162f623a","system_id":"levelo_inurba_marseille","lat":43.2319,"lon":5.39989,"is_reserved":false,"is_disabled":false,"rental_uris":{"android":"levelo://app?vid=28a52322-5992-406c-a66b-6c88162f623a","ios":"levelo://app?vid=28a52322-5992-406c-a66b-6c88162f623a"},"vehicle_type_id":"4","last_reported":1733232039,"current_range_meters":38800,"station_id":"ce4bhn12rcd13ifvqgqg","pricing_plan_id":"cebpf4jnsgd1na2vs0mg"},{"bike_id":"2b54ddc5-0583-4fc9-accb-0a4c7f0b096a","system_id":"levelo_inurba_marseille","lat":43.26686,"lon":5.38271,"is_reserved":false,"is_disabled":false,"rental_uris":{"android":"levelo://app?vid=2b54ddc5-0583-4fc9-accb-0a4c7f0b096a","ios":"levelo://app?vid=2b54ddc5-0583-4fc9-accb-0a4c7f0b096a"},"vehicle_type_id":"4","last_reported":1733232039,"current_range_meters":25600,"station_id":"ce4bhg92rcd13ifvqf90","pricing_plan_id":"cebpf4jnsgd1na2vs0mg"},{"bike_id":"eaa73896-04a8-4ef6-a4c7-4d4e56920b82","system_id":"levelo_inurba_marseille","lat":43.29305,"lon":5.37441,"is_reserved":false,"is_disabled":true,"rental_uris":{"android":"levelo://app?vid=eaa73896-04a8-4ef6-a4c7-4d4e56920b82","ios":"levelo://app?vid=eaa73896-04a8-4ef6-a4c7-4d4e56920b82"},"vehicle_type_id":"4","last_reported":1733232039,"current_range_meters":0,"station_id":"ce4bgi12rcd13ifvqb70","pricing_plan_id":"cebpf4jnsgd1na2vs0mg"},{"bike_id":"ff2355da-c62c-4f25-94a3-7237e9e3c7e2","system_id":"levelo_inurba_marseille","lat":43.29508,"lon":5.39409,"is_reserved":false,"is_disabled":true,"rental_uris":{"android":"levelo://app?vid=ff2355da-c62c-4f25-94a3-7237e9e3c7e2","ios":"levelo://app?vid=ff2355da-c62c-4f25-94a3-7237e9e3c7e2"},"vehicle_type_id":"4","last_reported":1733232039,"current_range_meters":0,"station_id":"ce4bh292rcd13ifvqdf0","pricing_plan_id":"cebpf4jnsgd1na2vs0mg"},{"bike_id":"f343a832-b6b0-4a03-b073-92a5c4223d7e","system_id":"levelo_inurba_marseille","lat":43.31364,"lon":5.36708,"is_reserved":false,"is_disabled":false,"rental_uris":{"android":"levelo://app?vid=f343a832-b6b0-4a03-b073-92a5c4223d7e","ios":"levelo://app?vid=f343a832-b6b0-4a03-b073-92a5c4223d7e"},"vehicle_type_id":"4","last_reported":1733232039,"current_range_meters":32000,"station_id":"ce4bgr92rcd13ifvqc6g","pricing_plan_id":"cebpf4jnsgd1na2vs0mg"},{"bike_id":"dc024656-8506-4b5a-a609-460bbae9d176","system_id":"levelo_inurba_marseille","lat":43.30875,"lon":5.36852,"is_reserved":false,"is_disabled":true,"rental_uris":{"android":"levelo://app?vid=dc024656-8506-4b5a-a609-460bbae9d176","ios":"levelo://app?vid=dc024656-8506-4b5a-a609-460bbae9d176"},"vehicle_type_id":"4","last_reported":1733232039,"current_range_meters":2000,"station_id":"ce4bgl92rcd13ifvqbq0","pricing_plan_id":"cebpf4jnsgd1na2vs0mg"},{"bike_id":"212c1f2a-b6e6-4a41-b6b7-e9408cd0d79f","system_id":"levelo_inurba_marseille","lat":43.28934,"lon":5.36642,"is_reserved":false,"is_disabled":false,"rental_uris":{"android":"levelo://app?vid=212c1f2a-b6e6-4a41-b6b7-e9408cd0d79f","ios":"levelo://app?vid=212c1f2a-b6e6-4a41-b6b7-e9408cd0d79f"},"vehicle_type_id":"4","last_reported":1733232039,"current_range_meters":30800,"station_id":"ce4bhap2rcd13ifvqek0","pricing_plan_id":"cebpf4jnsgd1na2vs0mg"},{"bike_id":"c4c8f2be-153c-46a3-8007-1720bab4e970","system_id":"levelo_inurba_marseille","lat":43.30907,"lon":5.36848,"is_reserved":false,"is_disabled":false,"rental_uris":{"android":"levelo://app?vid=c4c8f2be-153c-46a3-8007-1720bab4e970","ios":"levelo://app?vid=c4c8f2be-153c-46a3-8007-1720bab4e970"},"vehicle_type_id":"4","last_reported":1733232039,"current_range_meters":23200,"station_id":"ce4bgn92rcd13ifvqbvg","pricing_plan_id":"cebpf4jnsgd1na2vs0mg"},{"bike_id":"13dfe381-fb81-4f23-ab67-d3e6ef9f740c","system_id":"levelo_inurba_marseille","lat":43.32533,"lon":5.41451,"is_reserved":false,"is_disabled":false,"rental_uris":{"android":"levelo://app?vid=13dfe381-fb81-4f23-ab67-d3e6ef9f740c","ios":"levelo://app?vid=13dfe381-fb81-4f23-ab67-d3e6ef9f740c"},"vehicle_type_id":"4","last_reported":1733232039,"current_range_meters":25200,"station_id":"ce4bhq12rcd13ifvqhhg","pricing_plan_id":"cebpf4jnsgd1na2vs0mg"},{"bike_id":"203f41b8-c644-4ce2-a6bb-13348773843a","system_id":"levelo_inurba_marseille","lat":43.29595,"lon":5.381,"is_reserved":false,"is_disabled":false,"rental_uris":{"android":"levelo://app?vid=203f41b8-c644-4ce2-a6bb-13348773843a","ios":"levelo://app?vid=203f41b8-c644-4ce2-a6bb-13348773843a"},"vehicle_type_id":"4","last_reported":1733232039,"current_range_meters":38000,"station_id":"ce4bgl12rcd13ifvqbo0","pricing_plan_id":"cebpf4jnsgd1na2vs0mg"},{"bike_id":"0f2f655e-7d04-479a-99e2-ffe602d6d7e0","system_id":"levelo_inurba_marseille","lat":43.28716,"lon":5.37947,"is_reserved":false,"is_disabled":false,"rental_uris":{"android":"levelo://app?vid=0f2f655e-7d04-479a-99e2-ffe602d6d7e0","ios":"levelo://app?vid=0f2f655e-7d04-479a-99e2-ffe602d6d7e0"},"vehicle_type_id":"4","last_reported":1733232039,"current_range_meters":36400,"station_id":"ce4bh9p2rcd13ifvqec0","pricing_plan_id":"cebpf4jnsgd1na2vs0mg"},{"bike_id":"7932e894-60e4-4259-ad2b-e25a6bbb7ae7","system_id":"levelo_inurba_marseille","lat":43.28406,"lon":5.37525,"is_reserved":false,"is_disabled":true,"rental_uris":{"android":"levelo://app?vid=7932e894-60e4-4259-ad2b-e25a6bbb7ae7","ios":"levelo://app?vid=7932e894-60e4-4259-ad2b-e25a6bbb7ae7"},"vehicle_type_id":"4","last_reported":1733232039,"current_range_meters":24000,"station_id":"ce4bh412rcd13ifvqds0","pricing_plan_id":"cebpf4jnsgd1na2vs0mg"},{"bike_id":"f186e61f-1d23-48c8-a4e5-08f4f99029e6","system_id":"levelo_inurba_marseille","lat":43.29538,"lon":5.39391,"is_reserved":false,"is_disabled":false,"rental_uris":{"android":"levelo://app?vid=f186e61f-1d23-48c8-a4e5-08f4f99029e6","ios":"levelo://app?vid=f186e61f-1d23-48c8-a4e5-08f4f99029e6"},"vehicle_type_id":"4","last_reported":1733232039,"current_range_meters":6400,"station_id":"ce4bh292rcd13ifvqdf0","pricing_plan_id":"cebpf4jnsgd1na2vs0mg"},{"bike_id":"763a15e5-5c0c-4db3-84a6-87cc9fff8ea4","system_id":"levelo_inurba_marseille","lat":43.27983,"lon":5.44223,"is_reserved":false,"is_disabled":false,"rental_uris":{"android":"levelo://app?vid=763a15e5-5c0c-4db3-84a6-87cc9fff8ea4","ios":"levelo://app?vid=763a15e5-5c0c-4db3-84a6-87cc9fff8ea4"},"vehicle_type_id":"4","last_reported":1733232039,"current_range_meters":17600,"station_id":"","pricing_plan_id":"cebpf4jnsgd1na2vs0mg"},{"bike_id":"20597529-c5b4-4b06-8e49-bd0c0851632d","system_id":"levelo_inurba_marseille","lat":43.3095,"lon":5.39028,"is_reserved":false,"is_disabled":false,"rental_uris":{"android":"levelo://app?vid=20597529-c5b4-4b06-8e49-bd0c0851632d","ios":"levelo://app?vid=20597529-c5b4-4b06-8e49-bd0c0851632d"},"vehicle_type_id":"4","last_reported":1733232039,"current_range_meters":38800,"station_id":"ce4bgup2rcd13ifvqco0","pricing_plan_id":"cebpf4jnsgd1na2vs0mg"},{"bike_id":"b6c38e26-812c-4c74-9fbf-b2ff80e0a354","system_id":"levelo_inurba_marseille","lat":43.2871,"lon":5.37944,"is_reserved":false,"is_disabled":false,"rental_uris":{"android":"levelo://app?vid=b6c38e26-812c-4c74-9fbf-b2ff80e0a354","ios":"levelo://app?vid=b6c38e26-812c-4c74-9fbf-b2ff80e0a354"},"vehicle_type_id":"4","last_reported":1733232039,"current_range_meters":7200,"station_id":"ce4bh9p2rcd13ifvqec0","pricing_plan_id":"cebpf4jnsgd1na2vs0mg"},{"bike_id":"90c1965f-3375-4b66-9a38-3f2b5e631bb2","system_id":"levelo_inurba_marseille","lat":43.26945,"lon":5.40248,"is_reserved":false,"is_disabled":false,"rental_uris":{"android":"levelo://app?vid=90c1965f-3375-4b66-9a38-3f2b5e631bb2","ios":"levelo://app?vid=90c1965f-3375-4b66-9a38-3f2b5e631bb2"},"vehicle_type_id":"4","last_reported":1733232039,"current_range_meters":38800,"station_id":"cjm6bp8fraef2m0cb0m0","pricing_plan_id":"cebpf4jnsgd1na2vs0mg"},{"bike_id":"9d15a3eb-8404-4c29-8dde-d13d82b93d2b","system_id":"levelo_inurba_marseille","lat":43.29791,"lon":5.38086,"is_reserved":false,"is_disabled":false,"rental_uris":{"android":"levelo://app?vid=9d15a3eb-8404-4c29-8dde-d13d82b93d2b","ios":"levelo://app?vid=9d15a3eb-8404-4c29-8dde-d13d82b93d2b"},"vehicle_type_id":"4","last_reported":1733232039,"current_range_meters":29600,"station_id":"ce4bgip2rcd13ifvqbb0","pricing_plan_id":"cebpf4jnsgd1na2vs0mg"},{"bike_id":"45ff3798-a743-4ffc-962c-fbce8ce4e073","system_id":"levelo_inurba_marseille","lat":43.23152,"lon":5.43713,"is_reserved":false,"is_disabled":false,"rental_uris":{"android":"levelo://app?vid=45ff3798-a743-4ffc-962c-fbce8ce4e073","ios":"levelo://app?vid=45ff3798-a743-4ffc-962c-fbce8ce4e073"},"vehicle_type_id":"4","last_reported":1733232039,"current_range_meters":11600,"station_id":"ce4bhmp2rcd13ifvqgog","pricing_plan_id":"cebpf4jnsgd1na2vs0mg"},{"bike_id":"b6bf0fc6-e8dd-4244-b189-4fd4fe6327fb","system_id":"levelo_inurba_marseille","lat":43.30549,"lon":5.3654,"is_reserved":false,"is_disabled":false,"rental_uris":{"android":"levelo://app?vid=b6bf0fc6-e8dd-4244-b189-4fd4fe6327fb","ios":"levelo://app?vid=b6bf0fc6-e8dd-4244-b189-4fd4fe6327fb"},"vehicle_type_id":"4","last_reported":1733232039,"current_range_meters":38800,"station_id":"ce4bgs12rcd13ifvqcag","pricing_plan_id":"cebpf4jnsgd1na2vs0mg"},{"bike_id":"3d0bdc34-1c2d-4c5f-bb79-ce421c95e0bb","system_id":"levelo_inurba_marseille","lat":43.29976,"lon":5.38497,"is_reserved":false,"is_disabled":false,"rental_uris":{"android":"levelo://app?vid=3d0bdc34-1c2d-4c5f-bb79-ce421c95e0bb","ios":"levelo://app?vid=3d0bdc34-1c2d-4c5f-bb79-ce421c95e0bb"},"vehicle_type_id":"4","last_reported":1733232039,"current_range_meters":38800,"station_id":"ce4bgj92rcd13ifvqbd0","pricing_plan_id":"cebpf4jnsgd1na2vs0mg"},{"bike_id":"cdfe6590-4984-4014-86c8-6dd70747c27a","system_id":"levelo_inurba_marseille","lat":43.29737,"lon":5.37434,"is_reserved":false,"is_disabled":true,"rental_uris":{"android":"levelo://app?vid=cdfe6590-4984-4014-86c8-6dd70747c27a","ios":"levelo://app?vid=cdfe6590-4984-4014-86c8-6dd70747c27a"},"vehicle_type_id":"4","last_reported":1733232039,"current_range_meters":0,"station_id":"","pricing_plan_id":"cebpf4jnsgd1na2vs0mg"},{"bike_id":"8c10b77e-9276-4f90-bb28-d9403699abca","system_id":"levelo_inurba_marseille","lat":43.27567,"lon":5.38435,"is_reserved":false,"is_disabled":true,"rental_uris":{"android":"levelo://app?vid=8c10b77e-9276-4f90-bb28-d9403699abca","ios":"levelo://app?vid=8c10b77e-9276-4f90-bb28-d9403699abca"},"vehicle_type_id":"4","last_reported":1733232039,"current_range_meters":0,"station_id":"ce4bhh92rcd13ifvqfi0","pricing_plan_id":"cebpf4jnsgd1na2vs0mg"},{"bike_id":"37ec9453-9f61-4d8c-8eff-06cb599e5eb1","system_id":"levelo_inurba_marseille","lat":43.29792,"lon":5.38098,"is_reserved":false,"is_disabled":false,"rental_uris":{"android":"levelo://app?vid=37ec9453-9f61-4d8c-8eff-06cb599e5eb1","ios":"levelo://app?vid=37ec9453-9f61-4d8c-8eff-06cb599e5eb1"},"vehicle_type_id":"4","last_reported":1733232039,"current_range_meters":38800,"station_id":"ce4bgip2rcd13ifvqbb0","pricing_plan_id":"cebpf4jnsgd1na2vs0mg"},{"bike_id":"36142e23-8ff6-4096-ad19-b039c8156b69","system_id":"levelo_inurba_marseille","lat":43.28655,"lon":5.36361,"is_reserved":false,"is_disabled":true,"rental_uris":{"android":"levelo://app?vid=36142e23-8ff6-4096-ad19-b039c8156b69","ios":"levelo://app?vid=36142e23-8ff6-4096-ad19-b039c8156b69"},"vehicle_type_id":"4","last_reported":1733232039,"current_range_meters":30800,"station_id":"ce4bhah2rcd13ifvqej0","pricing_plan_id":"cebpf4jnsgd1na2vs0mg"},{"bike_id":"4f1a437d-eec4-42aa-9337-47d7de8b470e","system_id":"levelo_inurba_marseille","lat":43.26954,"lon":5.38636,"is_reserved":false,"is_disabled":false,"rental_uris":{"android":"levelo://app?vid=4f1a437d-eec4-42aa-9337-47d7de8b470e","ios":"levelo://app?vid=4f1a437d-eec4-42aa-9337-47d7de8b470e"},"vehicle_type_id":"4","last_reported":1733232039,"current_range_meters":14400,"station_id":"ce4bhh92rcd13ifvqfh0","pricing_plan_id":"cebpf4jnsgd1na2vs0mg"},{"bike_id":"b9206c6a-6573-4c96-8047-f380a4395cc7","system_id":"levelo_inurba_marseille","lat":43.29022,"lon":5.38134,"is_reserved":false,"is_disabled":true,"rental_uris":{"android":"levelo://app?vid=b9206c6a-6573-4c96-8047-f380a4395cc7","ios":"levelo://app?vid=b9206c6a-6573-4c96-8047-f380a4395cc7"},"vehicle_type_id":"4","last_reported":1733232039,"current_range_meters":1600,"station_id":"ce4bh4p2rcd13ifvqe1g","pricing_plan_id":"cebpf4jnsgd1na2vs0mg"},{"bike_id":"4c3fb316-febe-4764-b0a1-d58fd67e3e9a","system_id":"levelo_inurba_marseille","lat":43.28186,"lon":5.38301,"is_reserved":false,"is_disabled":true,"rental_uris":{"android":"levelo://app?vid=4c3fb316-febe-4764-b0a1-d58fd67e3e9a","ios":"levelo://app?vid=4c3fb316-febe-4764-b0a1-d58fd67e3e9a"},"vehicle_type_id":"4","last_reported":1733232039,"current_range_meters":26800,"station_id":"","pricing_plan_id":"cebpf4jnsgd1na2vs0mg"},{"bike_id":"987a5ab4-d60c-480c-94b6-7cab38975402","system_id":"levelo_inurba_marseille","lat":43.29748,"lon":5.37971,"is_reserved":false,"is_disabled":true,"rental_uris":{"android":"levelo://app?vid=987a5ab4-d60c-480c-94b6-7cab38975402","ios":"levelo://app?vid=987a5ab4-d60c-480c-94b6-7cab38975402"},"vehicle_type_id":"4","last_reported":1733232039,"current_range_meters":0,"station_id":"","pricing_plan_id":"cebpf4jnsgd1na2vs0mg"},{"bike_id":"6877f033-d09d-44d8-8868-c02f5054dd5f","system_id":"levelo_inurba_marseille","lat":43.31487,"lon":5.37266,"is_reserved":false,"is_disabled":false,"rental_uris":{"android":"levelo://app?vid=6877f033-d09d-44d8-8868-c02f5054dd5f","ios":"levelo://app?vid=6877f033-d09d-44d8-8868-c02f5054dd5f"},"vehicle_type_id":"4","last_reported":1733232039,"current_range_meters":11600,"station_id":"ce4bgt12rcd13ifvqcd0","pricing_plan_id":"cebpf4jnsgd1na2vs0mg"},{"bike_id":"2c4596ad-0ad9-4016-b92b-0093349de2b4","system_id":"levelo_inurba_marseille","lat":43.3072,"lon":5.38245,"is_reserved":false,"is_disabled":true,"rental_uris":{"android":"levelo://app?vid=2c4596ad-0ad9-4016-b92b-0093349de2b4","ios":"levelo://app?vid=2c4596ad-0ad9-4016-b92b-0093349de2b4"},"vehicle_type_id":"4","last_reported":1733232039,"current_range_meters":0,"station_id":"","pricing_plan_id":"cebpf4jnsgd1na2vs0mg"},{"bike_id":"7d983c55-9658-4810-b4fd-d68e94d0e0d8","system_id":"levelo_inurba_marseille","lat":43.30533,"lon":5.36547,"is_reserved":false,"is_disabled":false,"rental_uris":{"android":"levelo://app?vid=7d983c55-9658-4810-b4fd-d68e94d0e0d8","ios":"levelo://app?vid=7d983c55-9658-4810-b4fd-d68e94d0e0d8"},"vehicle_type_id":"4","last_reported":1733232039,"current_range_meters":38800,"station_id":"ce4bgs12rcd13ifvqcag","pricing_plan_id":"cebpf4jnsgd1na2vs0mg"},{"bike_id":"1f28300c-d8be-4d08-b5ea-d3aadf1e301d","system_id":"levelo_inurba_marseille","lat":43.26243,"lon":5.42167,"is_reserved":false,"is_disabled":false,"rental_uris":{"android":"levelo://app?vid=1f28300c-d8be-4d08-b5ea-d3aadf1e301d","ios":"levelo://app?vid=1f28300c-d8be-4d08-b5ea-d3aadf1e301d"},"vehicle_type_id":"4","last_reported":1733232039,"current_range_meters":18800,"station_id":"","pricing_plan_id":"cebpf4jnsgd1na2vs0mg"},{"bike_id":"b7ab8c01-033f-4395-8276-23c850ad3d02","system_id":"levelo_inurba_marseille","lat":43.30326,"lon":5.36596,"is_reserved":false,"is_disabled":true,"rental_uris":{"android":"levelo://app?vid=b7ab8c01-033f-4395-8276-23c850ad3d02","ios":"levelo://app?vid=b7ab8c01-033f-4395-8276-23c850ad3d02"},"vehicle_type_id":"4","last_reported":1733232039,"current_range_meters":0,"station_id":"","pricing_plan_id":"cebpf4jnsgd1na2vs0mg"},{"bike_id":"f9bbc2e4-0933-4022-8165-34c36ba100ce","system_id":"levelo_inurba_marseille","lat":43.28666,"lon":5.3867,"is_reserved":false,"is_disabled":false,"rental_uris":{"android":"levelo://app?vid=f9bbc2e4-0933-4022-8165-34c36ba100ce","ios":"levelo://app?vid=f9bbc2e4-0933-4022-8165-34c36ba100ce"},"vehicle_type_id":"4","last_reported":1733232039,"current_range_meters":27200,"station_id":"ce4bh492rcd13ifvqdug","pricing_plan_id":"cebpf4jnsgd1na2vs0mg"},{"bike_id":"c6e6729e-5027-422b-b134-990c8bb67ebc","system_id":"levelo_inurba_marseille","lat":43.28035,"lon":5.36946,"is_reserved":false,"is_disabled":true,"rental_uris":{"android":"levelo://app?vid=c6e6729e-5027-422b-b134-990c8bb67ebc","ios":"levelo://app?vid=c6e6729e-5027-422b-b134-990c8bb67ebc"},"vehicle_type_id":"4","last_reported":1733232039,"current_range_meters":0,"station_id":"ce4bha12rcd13ifvqef0","pricing_plan_id":"cebpf4jnsgd1na2vs0mg"},{"bike_id":"7c71c018-bf19-4472-8fa0-cf8d8e39231a","system_id":"levelo_inurba_marseille","lat":43.29226,"lon":5.36062,"is_reserved":false,"is_disabled":false,"rental_uris":{"android":"levelo://app?vid=7c71c018-bf19-4472-8fa0-cf8d8e39231a","ios":"levelo://app?vid=7c71c018-bf19-4472-8fa0-cf8d8e39231a"},"vehicle_type_id":"4","last_reported":1733232039,"current_range_meters":21600,"station_id":"ce4bhbh2rcd13ifvqeqg","pricing_plan_id":"cebpf4jnsgd1na2vs0mg"},{"bike_id":"7a8ee5d9-4808-4769-a02b-2b45186e80b5","system_id":"levelo_inurba_marseille","lat":43.337444,"lon":5.374475,"is_reserved":false,"is_disabled":true,"rental_uris":{"android":"levelo://app?vid=7a8ee5d9-4808-4769-a02b-2b45186e80b5","ios":"levelo://app?vid=7a8ee5d9-4808-4769-a02b-2b45186e80b5"},"vehicle_type_id":"4","last_reported":1733232039,"current_range_meters":0,"station_id":"","pricing_plan_id":"cebpf4jnsgd1na2vs0mg"},{"bike_id":"52e284ed-286c-41ec-a0e1-33e67adcb323","system_id":"levelo_inurba_marseille","lat":43.29787,"lon":5.3813,"is_reserved":false,"is_disabled":false,"rental_uris":{"android":"levelo://app?vid=52e284ed-286c-41ec-a0e1-33e67adcb323","ios":"levelo://app?vid=52e284ed-286c-41ec-a0e1-33e67adcb323"},"vehicle_type_id":"4","last_reported":1733232039,"current_range_meters":9200,"station_id":"ce4bgip2rcd13ifvqbb0","pricing_plan_id":"cebpf4jnsgd1na2vs0mg"},{"bike_id":"330a642a-274e-4e68-8fe1-5d4031c17262","system_id":"levelo_inurba_marseille","lat":43.26496,"lon":5.39544,"is_reserved":false,"is_disabled":false,"rental_uris":{"android":"levelo://app?vid=330a642a-274e-4e68-8fe1-5d4031c17262","ios":"levelo://app?vid=330a642a-274e-4e68-8fe1-5d4031c17262"},"vehicle_type_id":"4","last_reported":1733232039,"current_range_meters":36000,"station_id":"ce4bhi12rcd13ifvqfq0","pricing_plan_id":"cebpf4jnsgd1na2vs0mg"},{"bike_id":"6cc6805f-c0ca-4585-bdf1-b5a0339762b0","system_id":"levelo_inurba_marseille","lat":43.29014,"lon":5.42809,"is_reserved":false,"is_disabled":false,"rental_uris":{"android":"levelo://app?vid=6cc6805f-c0ca-4585-bdf1-b5a0339762b0","ios":"levelo://app?vid=6cc6805f-c0ca-4585-bdf1-b5a0339762b0"},"vehicle_type_id":"4","last_reported":1733232039,"current_range_meters":3600,"station_id":"","pricing_plan_id":"cebpf4jnsgd1na2vs0mg"},{"bike_id":"114d7db9-5b09-4b92-96b6-be34bbe961bc","system_id":"levelo_inurba_marseille","lat":43.30919,"lon":5.36852,"is_reserved":false,"is_disabled":false,"rental_uris":{"android":"levelo://app?vid=114d7db9-5b09-4b92-96b6-be34bbe961bc","ios":"levelo://app?vid=114d7db9-5b09-4b92-96b6-be34bbe961bc"},"vehicle_type_id":"4","last_reported":1733232039,"current_range_meters":6800,"station_id":"ce4bgn92rcd13ifvqbvg","pricing_plan_id":"cebpf4jnsgd1na2vs0mg"},{"bike_id":"8d1c8b92-79bb-4181-b0d2-5e94db1a14d0","system_id":"levelo_inurba_marseille","lat":43.30007,"lon":5.38274,"is_reserved":false,"is_disabled":true,"rental_uris":{"android":"levelo://app?vid=8d1c8b92-79bb-4181-b0d2-5e94db1a14d0","ios":"levelo://app?vid=8d1c8b92-79bb-4181-b0d2-5e94db1a14d0"},"vehicle_type_id":"4","last_reported":1733232039,"current_range_meters":0,"station_id":"","pricing_plan_id":"cebpf4jnsgd1na2vs0mg"},{"bike_id":"24e79dec-aeaa-4e3c-b2dd-48c2b2e62520","system_id":"levelo_inurba_marseille","lat":43.2695,"lon":5.38632,"is_reserved":false,"is_disabled":false,"rental_uris":{"android":"levelo://app?vid=24e79dec-aeaa-4e3c-b2dd-48c2b2e62520","ios":"levelo://app?vid=24e79dec-aeaa-4e3c-b2dd-48c2b2e62520"},"vehicle_type_id":"4","last_reported":1733232039,"current_range_meters":24800,"station_id":"ce4bhh92rcd13ifvqfh0","pricing_plan_id":"cebpf4jnsgd1na2vs0mg"},{"bike_id":"805c01bc-d4d3-404c-8cbd-20255ab25f6b","system_id":"levelo_inurba_marseille","lat":43.31709,"lon":5.43711,"is_reserved":false,"is_disabled":false,"rental_uris":{"android":"levelo://app?vid=805c01bc-d4d3-404c-8cbd-20255ab25f6b","ios":"levelo://app?vid=805c01bc-d4d3-404c-8cbd-20255ab25f6b"},"vehicle_type_id":"4","last_reported":1733232039,"current_range_meters":36400,"station_id":"ce4bhp92rcd13ifvqhcg","pricing_plan_id":"cebpf4jnsgd1na2vs0mg"},{"bike_id":"d692109b-ad98-49bc-9d0b-2573b84dfc5e","system_id":"levelo_inurba_marseille","lat":43.23151,"lon":5.43722,"is_reserved":false,"is_disabled":false,"rental_uris":{"android":"levelo://app?vid=d692109b-ad98-49bc-9d0b-2573b84dfc5e","ios":"levelo://app?vid=d692109b-ad98-49bc-9d0b-2573b84dfc5e"},"vehicle_type_id":"4","last_reported":1733232039,"current_range_meters":8800,"station_id":"ce4bhmp2rcd13ifvqgog","pricing_plan_id":"cebpf4jnsgd1na2vs0mg"},{"bike_id":"6a95206e-9f5f-4245-893c-d82a7d37354f","system_id":"levelo_inurba_marseille","lat":43.30443,"lon":5.38892,"is_reserved":false,"is_disabled":false,"rental_uris":{"android":"levelo://app?vid=6a95206e-9f5f-4245-893c-d82a7d37354f","ios":"levelo://app?vid=6a95206e-9f5f-4245-893c-d82a7d37354f"},"vehicle_type_id":"4","last_reported":1733232039,"current_range_meters":27600,"station_id":"ce4bgk12rcd13ifvqbi0","pricing_plan_id":"cebpf4jnsgd1na2vs0mg"},{"bike_id":"d12e07bc-303e-4665-a4bc-2ae6e909e195","system_id":"levelo_inurba_marseille","lat":43.30812,"lon":5.40026,"is_reserved":false,"is_disabled":false,"rental_uris":{"android":"levelo://app?vid=d12e07bc-303e-4665-a4bc-2ae6e909e195","ios":"levelo://app?vid=d12e07bc-303e-4665-a4bc-2ae6e909e195"},"vehicle_type_id":"4","last_reported":1733232039,"current_range_meters":36800,"station_id":"","pricing_plan_id":"cebpf4jnsgd1na2vs0mg"},{"bike_id":"add096e8-a9c7-42d2-b66d-86614bd148df","system_id":"levelo_inurba_marseille","lat":43.30271,"lon":5.37719,"is_reserved":false,"is_disabled":false,"rental_uris":{"android":"levelo://app?vid=add096e8-a9c7-42d2-b66d-86614bd148df","ios":"levelo://app?vid=add096e8-a9c7-42d2-b66d-86614bd148df"},"vehicle_type_id":"4","last_reported":1733232039,"current_range_meters":37600,"station_id":"ce4bguh2rcd13ifvqcj0","pricing_plan_id":"cebpf4jnsgd1na2vs0mg"},{"bike_id":"8c6ae27f-3733-439a-943c-f088570574ea","system_id":"levelo_inurba_marseille","lat":43.24803,"lon":5.37454,"is_reserved":false,"is_disabled":false,"rental_uris":{"android":"levelo://app?vid=8c6ae27f-3733-439a-943c-f088570574ea","ios":"levelo://app?vid=8c6ae27f-3733-439a-943c-f088570574ea"},"vehicle_type_id":"4","last_reported":1733232039,"current_range_meters":38800,"station_id":"ce4bhgh2rcd13ifvqfb0","pricing_plan_id":"cebpf4jnsgd1na2vs0mg"},{"bike_id":"8933ae40-7d11-4f85-bbf4-6a6429e9e816","system_id":"levelo_inurba_marseille","lat":43.31759,"lon":5.38763,"is_reserved":false,"is_disabled":false,"rental_uris":{"android":"levelo://app?vid=8933ae40-7d11-4f85-bbf4-6a6429e9e816","ios":"levelo://app?vid=8933ae40-7d11-4f85-bbf4-6a6429e9e816"},"vehicle_type_id":"4","last_reported":1733232039,"current_range_meters":6000,"station_id":"","pricing_plan_id":"cebpf4jnsgd1na2vs0mg"},{"bike_id":"01ac64e6-1f1f-4196-a4f5-2ab0b372a75f","system_id":"levelo_inurba_marseille","lat":43.28697,"lon":5.37959,"is_reserved":false,"is_disabled":true,"rental_uris":{"android":"levelo://app?vid=01ac64e6-1f1f-4196-a4f5-2ab0b372a75f","ios":"levelo://app?vid=01ac64e6-1f1f-4196-a4f5-2ab0b372a75f"},"vehicle_type_id":"4","last_reported":1733232039,"current_range_meters":38800,"station_id":"ce4bh9p2rcd13ifvqec0","pricing_plan_id":"cebpf4jnsgd1na2vs0mg"},{"bike_id":"64b321cb-c55c-40ab-9985-479d45091f3f","system_id":"levelo_inurba_marseille","lat":43.31702,"lon":5.40479,"is_reserved":false,"is_disabled":false,"rental_uris":{"android":"levelo://app?vid=64b321cb-c55c-40ab-9985-479d45091f3f","ios":"levelo://app?vid=64b321cb-c55c-40ab-9985-479d45091f3f"},"vehicle_type_id":"4","last_reported":1733232039,"current_range_meters":36800,"station_id":"ce4bh012rcd13ifvqd00","pricing_plan_id":"cebpf4jnsgd1na2vs0mg"},{"bike_id":"b6fe56cb-5946-4515-86a9-1f9700473f0b","system_id":"levelo_inurba_marseille","lat":43.28339,"lon":5.38111,"is_reserved":false,"is_disabled":true,"rental_uris":{"android":"levelo://app?vid=b6fe56cb-5946-4515-86a9-1f9700473f0b","ios":"levelo://app?vid=b6fe56cb-5946-4515-86a9-1f9700473f0b"},"vehicle_type_id":"4","last_reported":1733232039,"current_range_meters":1600,"station_id":"ce4bh412rcd13ifvqdr0","pricing_plan_id":"cebpf4jnsgd1na2vs0mg"},{"bike_id":"4f8c6457-7b21-40cc-8da9-83dbe00b2111","system_id":"levelo_inurba_marseille","lat":43.27949,"lon":5.41064,"is_reserved":false,"is_disabled":true,"rental_uris":{"android":"levelo://app?vid=4f8c6457-7b21-40cc-8da9-83dbe00b2111","ios":"levelo://app?vid=4f8c6457-7b21-40cc-8da9-83dbe00b2111"},"vehicle_type_id":"4","last_reported":1733232039,"current_range_meters":36800,"station_id":"ce4bhnp2rcd13ifvqh0g","pricing_plan_id":"cebpf4jnsgd1na2vs0mg"},{"bike_id":"9e61057c-4c30-4525-a4c3-f6aaf764c910","system_id":"levelo_inurba_marseille","lat":43.27208,"lon":5.39189,"is_reserved":false,"is_disabled":false,"rental_uris":{"android":"levelo://app?vid=9e61057c-4c30-4525-a4c3-f6aaf764c910","ios":"levelo://app?vid=9e61057c-4c30-4525-a4c3-f6aaf764c910"},"vehicle_type_id":"4","last_reported":1733232039,"current_range_meters":24400,"station_id":"ce4bhhp2rcd13ifvqfm0","pricing_plan_id":"cebpf4jnsgd1na2vs0mg"},{"bike_id":"9f4deee7-7f31-4c2e-82c6-46a38d5aa3cf","system_id":"levelo_inurba_marseille","lat":43.2984,"lon":5.36269,"is_reserved":false,"is_disabled":false,"rental_uris":{"android":"levelo://app?vid=9f4deee7-7f31-4c2e-82c6-46a38d5aa3cf","ios":"levelo://app?vid=9f4deee7-7f31-4c2e-82c6-46a38d5aa3cf"},"vehicle_type_id":"4","last_reported":1733232039,"current_range_meters":39200,"station_id":"ce4bgpp2rcd13ifvqc3g","pricing_plan_id":"cebpf4jnsgd1na2vs0mg"},{"bike_id":"9c77a68d-2e99-44e9-b903-950fb6644d35","system_id":"levelo_inurba_marseille","lat":43.25263,"lon":5.39474,"is_reserved":false,"is_disabled":true,"rental_uris":{"android":"levelo://app?vid=9c77a68d-2e99-44e9-b903-950fb6644d35","ios":"levelo://app?vid=9c77a68d-2e99-44e9-b903-950fb6644d35"},"vehicle_type_id":"4","last_reported":1733232039,"current_range_meters":0,"station_id":"","pricing_plan_id":"cebpf4jnsgd1na2vs0mg"},{"bike_id":"05d94541-7d41-4c72-af36-2d042e805f04","system_id":"levelo_inurba_marseille","lat":43.24073,"lon":5.37751,"is_reserved":false,"is_disabled":false,"rental_uris":{"android":"levelo://app?vid=05d94541-7d41-4c72-af36-2d042e805f04","ios":"levelo://app?vid=05d94541-7d41-4c72-af36-2d042e805f04"},"vehicle_type_id":"4","last_reported":1733232039,"current_range_meters":25600,"station_id":"ce4bhnp2rcd13ifvqgvg","pricing_plan_id":"cebpf4jnsgd1na2vs0mg"},{"bike_id":"d343be82-d45b-4580-9267-ab2a574eac02","system_id":"levelo_inurba_marseille","lat":43.32221,"lon":5.37836,"is_reserved":false,"is_disabled":true,"rental_uris":{"android":"levelo://app?vid=d343be82-d45b-4580-9267-ab2a574eac02","ios":"levelo://app?vid=d343be82-d45b-4580-9267-ab2a574eac02"},"vehicle_type_id":"4","last_reported":1733232039,"current_range_meters":0,"station_id":"","pricing_plan_id":"cebpf4jnsgd1na2vs0mg"},{"bike_id":"e2ef5e1d-37e9-4d20-b538-56f53add8679","system_id":"levelo_inurba_marseille","lat":43.32653,"lon":5.40988,"is_reserved":false,"is_disabled":false,"rental_uris":{"android":"levelo://app?vid=e2ef5e1d-37e9-4d20-b538-56f53add8679","ios":"levelo://app?vid=e2ef5e1d-37e9-4d20-b538-56f53add8679"},"vehicle_type_id":"4","last_reported":1733232039,"current_range_meters":34000,"station_id":"ce4bhpp2rcd13ifvqhgg","pricing_plan_id":"cebpf4jnsgd1na2vs0mg"},{"bike_id":"c17531e3-2798-489b-8b1b-7c5687fee335","system_id":"levelo_inurba_marseille","lat":43.31495,"lon":5.37308,"is_reserved":false,"is_disabled":false,"rental_uris":{"android":"levelo://app?vid=c17531e3-2798-489b-8b1b-7c5687fee335","ios":"levelo://app?vid=c17531e3-2798-489b-8b1b-7c5687fee335"},"vehicle_type_id":"4","last_reported":1733232039,"current_range_meters":38800,"station_id":"ce4bgt12rcd13ifvqcd0","pricing_plan_id":"cebpf4jnsgd1na2vs0mg"},{"bike_id":"4ea402f6-45b0-4846-84f5-29270e62c818","system_id":"levelo_inurba_marseille","lat":43.30843,"lon":5.374,"is_reserved":false,"is_disabled":true,"rental_uris":{"android":"levelo://app?vid=4ea402f6-45b0-4846-84f5-29270e62c818","ios":"levelo://app?vid=4ea402f6-45b0-4846-84f5-29270e62c818"},"vehicle_type_id":"4","last_reported":1733232039,"current_range_meters":0,"station_id":"","pricing_plan_id":"cebpf4jnsgd1na2vs0mg"},{"bike_id":"83985555-c848-4b28-808f-8a7e7cf8519e","system_id":"levelo_inurba_marseille","lat":43.2811,"lon":5.44174,"is_reserved":false,"is_disabled":true,"rental_uris":{"android":"levelo://app?vid=83985555-c848-4b28-808f-8a7e7cf8519e","ios":"levelo://app?vid=83985555-c848-4b28-808f-8a7e7cf8519e"},"vehicle_type_id":"4","last_reported":1733232039,"current_range_meters":0,"station_id":"","pricing_plan_id":"cebpf4jnsgd1na2vs0mg"},{"bike_id":"2efae194-dc94-42b9-a7db-f31b2881d0ed","system_id":"levelo_inurba_marseille","lat":43.29511,"lon":5.37523,"is_reserved":false,"is_disabled":false,"rental_uris":{"android":"levelo://app?vid=2efae194-dc94-42b9-a7db-f31b2881d0ed","ios":"levelo://app?vid=2efae194-dc94-42b9-a7db-f31b2881d0ed"},"vehicle_type_id":"4","last_reported":1733232039,"current_range_meters":33200,"station_id":"ce4bgkp2rcd13ifvqbmg","pricing_plan_id":"cebpf4jnsgd1na2vs0mg"},{"bike_id":"24680a53-4438-4273-b1ba-6bdb48ce463f","system_id":"levelo_inurba_marseille","lat":43.24548,"lon":5.3953,"is_reserved":false,"is_disabled":false,"rental_uris":{"android":"levelo://app?vid=24680a53-4438-4273-b1ba-6bdb48ce463f","ios":"levelo://app?vid=24680a53-4438-4273-b1ba-6bdb48ce463f"},"vehicle_type_id":"4","last_reported":1733232039,"current_range_meters":39200,"station_id":"ce4bhlp2rcd13ifvqgjg","pricing_plan_id":"cebpf4jnsgd1na2vs0mg"},{"bike_id":"941eeae1-8936-4a86-b31a-ea87d84b2048","system_id":"levelo_inurba_marseille","lat":43.28056,"lon":5.3564,"is_reserved":false,"is_disabled":false,"rental_uris":{"android":"levelo://app?vid=941eeae1-8936-4a86-b31a-ea87d84b2048","ios":"levelo://app?vid=941eeae1-8936-4a86-b31a-ea87d84b2048"},"vehicle_type_id":"4","last_reported":1733232039,"current_range_meters":6800,"station_id":"","pricing_plan_id":"cebpf4jnsgd1na2vs0mg"},{"bike_id":"12aaa168-098f-4992-8b67-5e28da805ec4","system_id":"levelo_inurba_marseille","lat":43.29791,"lon":5.38086,"is_reserved":false,"is_disabled":false,"rental_uris":{"android":"levelo://app?vid=12aaa168-098f-4992-8b67-5e28da805ec4","ios":"levelo://app?vid=12aaa168-098f-4992-8b67-5e28da805ec4"},"vehicle_type_id":"4","last_reported":1733232039,"current_range_meters":17200,"station_id":"ce4bgip2rcd13ifvqbb0","pricing_plan_id":"cebpf4jnsgd1na2vs0mg"},{"bike_id":"38f794f5-5184-4298-803a-3748656c4422","system_id":"levelo_inurba_marseille","lat":43.29418,"lon":5.38629,"is_reserved":false,"is_disabled":false,"rental_uris":{"android":"levelo://app?vid=38f794f5-5184-4298-803a-3748656c4422","ios":"levelo://app?vid=38f794f5-5184-4298-803a-3748656c4422"},"vehicle_type_id":"4","last_reported":1733232039,"current_range_meters":37600,"station_id":"ce4bh2h2rcd13ifvqdh0","pricing_plan_id":"cebpf4jnsgd1na2vs0mg"},{"bike_id":"355f9b9d-f767-4c7c-b2c2-99f45fb7404f","system_id":"levelo_inurba_marseille","lat":43.30781,"lon":5.37654,"is_reserved":false,"is_disabled":false,"rental_uris":{"android":"levelo://app?vid=355f9b9d-f767-4c7c-b2c2-99f45fb7404f","ios":"levelo://app?vid=355f9b9d-f767-4c7c-b2c2-99f45fb7404f"},"vehicle_type_id":"4","last_reported":1733232039,"current_range_meters":37600,"station_id":"ce4bgv92rcd13ifvqcq0","pricing_plan_id":"cebpf4jnsgd1na2vs0mg"},{"bike_id":"d1a8240c-6717-4129-b791-865274eca2a9","system_id":"levelo_inurba_marseille","lat":43.30533,"lon":5.36544,"is_reserved":false,"is_disabled":false,"rental_uris":{"android":"levelo://app?vid=d1a8240c-6717-4129-b791-865274eca2a9","ios":"levelo://app?vid=d1a8240c-6717-4129-b791-865274eca2a9"},"vehicle_type_id":"4","last_reported":1733232039,"current_range_meters":35600,"station_id":"ce4bgs12rcd13ifvqcag","pricing_plan_id":"cebpf4jnsgd1na2vs0mg"},{"bike_id":"d5dc8b48-0564-4629-a65c-97bbfeb5bca1","system_id":"levelo_inurba_marseille","lat":43.26204,"lon":5.37463,"is_reserved":false,"is_disabled":false,"rental_uris":{"android":"levelo://app?vid=d5dc8b48-0564-4629-a65c-97bbfeb5bca1","ios":"levelo://app?vid=d5dc8b48-0564-4629-a65c-97bbfeb5bca1"},"vehicle_type_id":"4","last_reported":1733232039,"current_range_meters":36800,"station_id":"ce4bhgp2rcd13ifvqfc0","pricing_plan_id":"cebpf4jnsgd1na2vs0mg"},{"bike_id":"39490c28-87a3-4e06-ae1b-808acdc82f66","system_id":"levelo_inurba_marseille","lat":43.28476,"lon":5.38424,"is_reserved":false,"is_disabled":false,"rental_uris":{"android":"levelo://app?vid=39490c28-87a3-4e06-ae1b-808acdc82f66","ios":"levelo://app?vid=39490c28-87a3-4e06-ae1b-808acdc82f66"},"vehicle_type_id":"4","last_reported":1733232039,"current_range_meters":38400,"station_id":"ce4bh512rcd13ifvqe3g","pricing_plan_id":"cebpf4jnsgd1na2vs0mg"},{"bike_id":"d968385f-de2b-44eb-96a8-54efc707caa9","system_id":"levelo_inurba_marseille","lat":43.23198,"lon":5.35543,"is_reserved":false,"is_disabled":false,"rental_uris":{"android":"levelo://app?vid=d968385f-de2b-44eb-96a8-54efc707caa9","ios":"levelo://app?vid=d968385f-de2b-44eb-96a8-54efc707caa9"},"vehicle_type_id":"4","last_reported":1733232039,"current_range_meters":39200,"station_id":"ce4bhu92rcd13ifvqi70","pricing_plan_id":"cebpf4jnsgd1na2vs0mg"},{"bike_id":"9ebb14bb-13f9-4197-82b0-644ebf303db2","system_id":"levelo_inurba_marseille","lat":43.29721,"lon":5.37696,"is_reserved":false,"is_disabled":false,"rental_uris":{"android":"levelo://app?vid=9ebb14bb-13f9-4197-82b0-644ebf303db2","ios":"levelo://app?vid=9ebb14bb-13f9-4197-82b0-644ebf303db2"},"vehicle_type_id":"4","last_reported":1733232039,"current_range_meters":28400,"station_id":"ce4bgkh2rcd13ifvqbl0","pricing_plan_id":"cebpf4jnsgd1na2vs0mg"},{"bike_id":"e218f52a-3c8a-490a-99d9-5af7196625b0","system_id":"levelo_inurba_marseille","lat":43.23196,"lon":5.35547,"is_reserved":false,"is_disabled":false,"rental_uris":{"android":"levelo://app?vid=e218f52a-3c8a-490a-99d9-5af7196625b0","ios":"levelo://app?vid=e218f52a-3c8a-490a-99d9-5af7196625b0"},"vehicle_type_id":"4","last_reported":1733232039,"current_range_meters":38800,"station_id":"ce4bhu92rcd13ifvqi70","pricing_plan_id":"cebpf4jnsgd1na2vs0mg"},{"bike_id":"307ca336-3f57-4d5b-849b-5b9df48faeaf","system_id":"levelo_inurba_marseille","lat":43.30026,"lon":5.38889,"is_reserved":false,"is_disabled":true,"rental_uris":{"android":"levelo://app?vid=307ca336-3f57-4d5b-849b-5b9df48faeaf","ios":"levelo://app?vid=307ca336-3f57-4d5b-849b-5b9df48faeaf"},"vehicle_type_id":"4","last_reported":1733232039,"current_range_meters":0,"station_id":"","pricing_plan_id":"cebpf4jnsgd1na2vs0mg"},{"bike_id":"506c09f4-6c9b-4fb3-996c-4c7f86dd75a8","system_id":"levelo_inurba_marseille","lat":43.24557,"lon":5.37351,"is_reserved":false,"is_disabled":true,"rental_uris":{"android":"levelo://app?vid=506c09f4-6c9b-4fb3-996c-4c7f86dd75a8","ios":"levelo://app?vid=506c09f4-6c9b-4fb3-996c-4c7f86dd75a8"},"vehicle_type_id":"4","last_reported":1733232039,"current_range_meters":0,"station_id":"","pricing_plan_id":"cebpf4jnsgd1na2vs0mg"},{"bike_id":"0648d7f3-0115-4674-a631-4af963b6bc53","system_id":"levelo_inurba_marseille","lat":43.29413,"lon":5.38623,"is_reserved":false,"is_disabled":true,"rental_uris":{"android":"levelo://app?vid=0648d7f3-0115-4674-a631-4af963b6bc53","ios":"levelo://app?vid=0648d7f3-0115-4674-a631-4af963b6bc53"},"vehicle_type_id":"4","last_reported":1733232039,"current_range_meters":28000,"station_id":"","pricing_plan_id":"cebpf4jnsgd1na2vs0mg"},{"bike_id":"9202c63e-372c-4469-a5c1-8e35757d1940","system_id":"levelo_inurba_marseille","lat":43.30053,"lon":5.38832,"is_reserved":false,"is_disabled":true,"rental_uris":{"android":"levelo://app?vid=9202c63e-372c-4469-a5c1-8e35757d1940","ios":"levelo://app?vid=9202c63e-372c-4469-a5c1-8e35757d1940"},"vehicle_type_id":"4","last_reported":1733232039,"current_range_meters":0,"station_id":"","pricing_plan_id":"cebpf4jnsgd1na2vs0mg"},{"bike_id":"1f6da603-a084-4c97-8b6e-b209557ae134","system_id":"levelo_inurba_marseille","lat":43.29901,"lon":5.38131,"is_reserved":false,"is_disabled":false,"rental_uris":{"android":"levelo://app?vid=1f6da603-a084-4c97-8b6e-b209557ae134","ios":"levelo://app?vid=1f6da603-a084-4c97-8b6e-b209557ae134"},"vehicle_type_id":"4","last_reported":1733232039,"current_range_meters":34000,"station_id":"ce4bgj12rcd13ifvqbc0","pricing_plan_id":"cebpf4jnsgd1na2vs0mg"},{"bike_id":"2df8da6a-f191-4af7-8272-3c4d84a1c880","system_id":"levelo_inurba_marseille","lat":43.32668,"lon":5.40981,"is_reserved":false,"is_disabled":false,"rental_uris":{"android":"levelo://app?vid=2df8da6a-f191-4af7-8272-3c4d84a1c880","ios":"levelo://app?vid=2df8da6a-f191-4af7-8272-3c4d84a1c880"},"vehicle_type_id":"4","last_reported":1733232039,"current_range_meters":33600,"station_id":"ce4bhpp2rcd13ifvqhgg","pricing_plan_id":"cebpf4jnsgd1na2vs0mg"},{"bike_id":"59fe6ee5-2970-40fb-8f17-79075f699540","system_id":"levelo_inurba_marseille","lat":43.27049,"lon":5.40275,"is_reserved":false,"is_disabled":false,"rental_uris":{"android":"levelo://app?vid=59fe6ee5-2970-40fb-8f17-79075f699540","ios":"levelo://app?vid=59fe6ee5-2970-40fb-8f17-79075f699540"},"vehicle_type_id":"4","last_reported":1733232039,"current_range_meters":38800,"station_id":"ce4bhk92rcd13ifvqgc0","pricing_plan_id":"cebpf4jnsgd1na2vs0mg"},{"bike_id":"7b1fff5e-7f40-4cf4-acb4-4a2d8ef10296","system_id":"levelo_inurba_marseille","lat":43.31349,"lon":5.36724,"is_reserved":false,"is_disabled":false,"rental_uris":{"android":"levelo://app?vid=7b1fff5e-7f40-4cf4-acb4-4a2d8ef10296","ios":"levelo://app?vid=7b1fff5e-7f40-4cf4-acb4-4a2d8ef10296"},"vehicle_type_id":"4","last_reported":1733232039,"current_range_meters":19200,"station_id":"ce4bgr92rcd13ifvqc6g","pricing_plan_id":"cebpf4jnsgd1na2vs0mg"},{"bike_id":"72401246-0d93-497b-82fa-c0de71a5c822","system_id":"levelo_inurba_marseille","lat":43.30594,"lon":5.37213,"is_reserved":false,"is_disabled":false,"rental_uris":{"android":"levelo://app?vid=72401246-0d93-497b-82fa-c0de71a5c822","ios":"levelo://app?vid=72401246-0d93-497b-82fa-c0de71a5c822"},"vehicle_type_id":"4","last_reported":1733232039,"current_range_meters":38800,"station_id":"ce4bgqh2rcd13ifvqc4g","pricing_plan_id":"cebpf4jnsgd1na2vs0mg"},{"bike_id":"091e9107-b35b-4e74-a2ab-f0ba7dc4a1b0","system_id":"levelo_inurba_marseille","lat":43.27369,"lon":5.36263,"is_reserved":false,"is_disabled":false,"rental_uris":{"android":"levelo://app?vid=091e9107-b35b-4e74-a2ab-f0ba7dc4a1b0","ios":"levelo://app?vid=091e9107-b35b-4e74-a2ab-f0ba7dc4a1b0"},"vehicle_type_id":"4","last_reported":1733232039,"current_range_meters":36000,"station_id":"ce4bhbh2rcd13ifvqeo0","pricing_plan_id":"cebpf4jnsgd1na2vs0mg"},{"bike_id":"8cbb1876-809e-4922-953b-40d493b437d4","system_id":"levelo_inurba_marseille","lat":43.32339,"lon":5.4062,"is_reserved":false,"is_disabled":false,"rental_uris":{"android":"levelo://app?vid=8cbb1876-809e-4922-953b-40d493b437d4","ios":"levelo://app?vid=8cbb1876-809e-4922-953b-40d493b437d4"},"vehicle_type_id":"4","last_reported":1733232039,"current_range_meters":24000,"station_id":"ce4bhq92rcd13ifvqhjg","pricing_plan_id":"cebpf4jnsgd1na2vs0mg"},{"bike_id":"29e5a72a-1f12-4815-9cbd-7b8f7c59d95d","system_id":"levelo_inurba_marseille","lat":43.23148,"lon":5.43721,"is_reserved":false,"is_disabled":false,"rental_uris":{"android":"levelo://app?vid=29e5a72a-1f12-4815-9cbd-7b8f7c59d95d","ios":"levelo://app?vid=29e5a72a-1f12-4815-9cbd-7b8f7c59d95d"},"vehicle_type_id":"4","last_reported":1733232039,"current_range_meters":28000,"station_id":"ce4bhmp2rcd13ifvqgog","pricing_plan_id":"cebpf4jnsgd1na2vs0mg"},{"bike_id":"9bd8af31-ba0d-4e9c-9470-867a25cfc67b","system_id":"levelo_inurba_marseille","lat":43.29129,"lon":5.38076,"is_reserved":false,"is_disabled":false,"rental_uris":{"android":"levelo://app?vid=9bd8af31-ba0d-4e9c-9470-867a25cfc67b","ios":"levelo://app?vid=9bd8af31-ba0d-4e9c-9470-867a25cfc67b"},"vehicle_type_id":"4","last_reported":1733232039,"current_range_meters":35600,"station_id":"","pricing_plan_id":"cebpf4jnsgd1na2vs0mg"},{"bike_id":"1440dee1-785b-4885-81bf-b5e320079f06","system_id":"levelo_inurba_marseille","lat":43.2511,"lon":5.40322,"is_reserved":false,"is_disabled":false,"rental_uris":{"android":"levelo://app?vid=1440dee1-785b-4885-81bf-b5e320079f06","ios":"levelo://app?vid=1440dee1-785b-4885-81bf-b5e320079f06"},"vehicle_type_id":"4","last_reported":1733232039,"current_range_meters":17600,"station_id":"ce4bhlh2rcd13ifvqgig","pricing_plan_id":"cebpf4jnsgd1na2vs0mg"},{"bike_id":"719e509a-25e4-4b1b-9830-f708d85d7593","system_id":"levelo_inurba_marseille","lat":43.29569,"lon":5.37512,"is_reserved":false,"is_disabled":true,"rental_uris":{"android":"levelo://app?vid=719e509a-25e4-4b1b-9830-f708d85d7593","ios":"levelo://app?vid=719e509a-25e4-4b1b-9830-f708d85d7593"},"vehicle_type_id":"4","last_reported":1733232039,"current_range_meters":0,"station_id":"ce4bgh92rcd13ifvqb50","pricing_plan_id":"cebpf4jnsgd1na2vs0mg"},{"bike_id":"34990873-3196-4058-b006-4ffbc0216fdf","system_id":"levelo_inurba_marseille","lat":43.23195,"lon":5.35545,"is_reserved":false,"is_disabled":false,"rental_uris":{"android":"levelo://app?vid=34990873-3196-4058-b006-4ffbc0216fdf","ios":"levelo://app?vid=34990873-3196-4058-b006-4ffbc0216fdf"},"vehicle_type_id":"4","last_reported":1733232039,"current_range_meters":38800,"station_id":"ce4bhu92rcd13ifvqi70","pricing_plan_id":"cebpf4jnsgd1na2vs0mg"},{"bike_id":"0bf26240-ea4a-4fb0-a3eb-5657a82a1aac","system_id":"levelo_inurba_marseille","lat":43.30533,"lon":5.36711,"is_reserved":false,"is_disabled":false,"rental_uris":{"android":"levelo://app?vid=0bf26240-ea4a-4fb0-a3eb-5657a82a1aac","ios":"levelo://app?vid=0bf26240-ea4a-4fb0-a3eb-5657a82a1aac"},"vehicle_type_id":"4","last_reported":1733232039,"current_range_meters":6000,"station_id":"ce4bgrp2rcd13ifvqc9g","pricing_plan_id":"cebpf4jnsgd1na2vs0mg"},{"bike_id":"b8c4c32e-75d5-42c2-ae07-2a3da3c2053b","system_id":"levelo_inurba_marseille","lat":43.25458,"lon":5.40772,"is_reserved":false,"is_disabled":true,"rental_uris":{"android":"levelo://app?vid=b8c4c32e-75d5-42c2-ae07-2a3da3c2053b","ios":"levelo://app?vid=b8c4c32e-75d5-42c2-ae07-2a3da3c2053b"},"vehicle_type_id":"4","last_reported":1733232039,"current_range_meters":28800,"station_id":"","pricing_plan_id":"cebpf4jnsgd1na2vs0mg"},{"bike_id":"235e4433-937e-41f8-a4d6-6889c27bd8c1","system_id":"levelo_inurba_marseille","lat":43.31071,"lon":5.38338,"is_reserved":false,"is_disabled":false,"rental_uris":{"android":"levelo://app?vid=235e4433-937e-41f8-a4d6-6889c27bd8c1","ios":"levelo://app?vid=235e4433-937e-41f8-a4d6-6889c27bd8c1"},"vehicle_type_id":"4","last_reported":1733232039,"current_range_meters":24400,"station_id":"ce4bgv92rcd13ifvqcr0","pricing_plan_id":"cebpf4jnsgd1na2vs0mg"},{"bike_id":"7c828069-36d6-4267-9c5d-5fd9a17df083","system_id":"levelo_inurba_marseille","lat":43.24648,"lon":5.38893,"is_reserved":false,"is_disabled":false,"rental_uris":{"android":"levelo://app?vid=7c828069-36d6-4267-9c5d-5fd9a17df083","ios":"levelo://app?vid=7c828069-36d6-4267-9c5d-5fd9a17df083"},"vehicle_type_id":"4","last_reported":1733232039,"current_range_meters":29600,"station_id":"ce4bhg12rcd13ifvqf60","pricing_plan_id":"cebpf4jnsgd1na2vs0mg"},{"bike_id":"2cf65095-36e5-4949-abae-c54c2895d97b","system_id":"levelo_inurba_marseille","lat":43.3254,"lon":5.41442,"is_reserved":false,"is_disabled":false,"rental_uris":{"android":"levelo://app?vid=2cf65095-36e5-4949-abae-c54c2895d97b","ios":"levelo://app?vid=2cf65095-36e5-4949-abae-c54c2895d97b"},"vehicle_type_id":"4","last_reported":1733232039,"current_range_meters":38800,"station_id":"ce4bhq12rcd13ifvqhhg","pricing_plan_id":"cebpf4jnsgd1na2vs0mg"},{"bike_id":"4e3855bb-d8fb-4736-926f-4a2e6331827d","system_id":"levelo_inurba_marseille","lat":43.30549,"lon":5.36529,"is_reserved":false,"is_disabled":false,"rental_uris":{"android":"levelo://app?vid=4e3855bb-d8fb-4736-926f-4a2e6331827d","ios":"levelo://app?vid=4e3855bb-d8fb-4736-926f-4a2e6331827d"},"vehicle_type_id":"4","last_reported":1733232039,"current_range_meters":36000,"station_id":"ce4bgs12rcd13ifvqcag","pricing_plan_id":"cebpf4jnsgd1na2vs0mg"},{"bike_id":"7eeb5ac6-a3ab-4724-a0d1-17bed7e385e6","system_id":"levelo_inurba_marseille","lat":43.28007,"lon":5.41673,"is_reserved":false,"is_disabled":true,"rental_uris":{"android":"levelo://app?vid=7eeb5ac6-a3ab-4724-a0d1-17bed7e385e6","ios":"levelo://app?vid=7eeb5ac6-a3ab-4724-a0d1-17bed7e385e6"},"vehicle_type_id":"4","last_reported":1733232039,"current_range_meters":30400,"station_id":"ce4bho12rcd13ifvqh1g","pricing_plan_id":"cebpf4jnsgd1na2vs0mg"},{"bike_id":"48f7fad5-9736-4854-ad66-3ac0235f4d2f","system_id":"levelo_inurba_marseille","lat":43.27061,"lon":5.40259,"is_reserved":false,"is_disabled":false,"rental_uris":{"android":"levelo://app?vid=48f7fad5-9736-4854-ad66-3ac0235f4d2f","ios":"levelo://app?vid=48f7fad5-9736-4854-ad66-3ac0235f4d2f"},"vehicle_type_id":"4","last_reported":1733232039,"current_range_meters":24400,"station_id":"ce4bhk92rcd13ifvqgc0","pricing_plan_id":"cebpf4jnsgd1na2vs0mg"},{"bike_id":"e7a16e2d-4d76-4047-97e2-25d55827c655","system_id":"levelo_inurba_marseille","lat":43.2962,"lon":5.37722,"is_reserved":false,"is_disabled":false,"rental_uris":{"android":"levelo://app?vid=e7a16e2d-4d76-4047-97e2-25d55827c655","ios":"levelo://app?vid=e7a16e2d-4d76-4047-97e2-25d55827c655"},"vehicle_type_id":"4","last_reported":1733232039,"current_range_meters":38800,"station_id":"ce4bgi92rcd13ifvqb90","pricing_plan_id":"cebpf4jnsgd1na2vs0mg"},{"bike_id":"71559070-26d1-4226-bb14-e649d6ac8d9b","system_id":"levelo_inurba_marseille","lat":43.29602,"lon":5.38098,"is_reserved":false,"is_disabled":false,"rental_uris":{"android":"levelo://app?vid=71559070-26d1-4226-bb14-e649d6ac8d9b","ios":"levelo://app?vid=71559070-26d1-4226-bb14-e649d6ac8d9b"},"vehicle_type_id":"4","last_reported":1733232039,"current_range_meters":6400,"station_id":"ce4bgl12rcd13ifvqbo0","pricing_plan_id":"cebpf4jnsgd1na2vs0mg"},{"bike_id":"1765576d-ad21-4bb0-85a8-4c7cde4f5294","system_id":"levelo_inurba_marseille","lat":43.29623,"lon":5.37155,"is_reserved":false,"is_disabled":true,"rental_uris":{"android":"levelo://app?vid=1765576d-ad21-4bb0-85a8-4c7cde4f5294","ios":"levelo://app?vid=1765576d-ad21-4bb0-85a8-4c7cde4f5294"},"vehicle_type_id":"4","last_reported":1733232039,"current_range_meters":6400,"station_id":"ce4bgnh2rcd13ifvqc0g","pricing_plan_id":"cebpf4jnsgd1na2vs0mg"},{"bike_id":"628a7f38-3ec1-4333-99ec-c5703fc35bba","system_id":"levelo_inurba_marseille","lat":43.2407,"lon":5.37767,"is_reserved":false,"is_disabled":false,"rental_uris":{"android":"levelo://app?vid=628a7f38-3ec1-4333-99ec-c5703fc35bba","ios":"levelo://app?vid=628a7f38-3ec1-4333-99ec-c5703fc35bba"},"vehicle_type_id":"4","last_reported":1733232039,"current_range_meters":25200,"station_id":"ce4bhnp2rcd13ifvqgvg","pricing_plan_id":"cebpf4jnsgd1na2vs0mg"},{"bike_id":"7c3a53b3-8fc7-4177-95a8-33425acc6c06","system_id":"levelo_inurba_marseille","lat":43.2873,"lon":5.36095,"is_reserved":false,"is_disabled":false,"rental_uris":{"android":"levelo://app?vid=7c3a53b3-8fc7-4177-95a8-33425acc6c06","ios":"levelo://app?vid=7c3a53b3-8fc7-4177-95a8-33425acc6c06"},"vehicle_type_id":"4","last_reported":1733232039,"current_range_meters":20400,"station_id":"cki0cbj6b192h4jlfktg","pricing_plan_id":"cebpf4jnsgd1na2vs0mg"},{"bike_id":"8dbc495a-3278-4e61-8c53-9289dd18982d","system_id":"levelo_inurba_marseille","lat":43.2511,"lon":5.40326,"is_reserved":false,"is_disabled":false,"rental_uris":{"android":"levelo://app?vid=8dbc495a-3278-4e61-8c53-9289dd18982d","ios":"levelo://app?vid=8dbc495a-3278-4e61-8c53-9289dd18982d"},"vehicle_type_id":"4","last_reported":1733232039,"current_range_meters":38800,"station_id":"ce4bhlh2rcd13ifvqgig","pricing_plan_id":"cebpf4jnsgd1na2vs0mg"},{"bike_id":"306ac285-bc0c-4835-93e0-a6039d545963","system_id":"levelo_inurba_marseille","lat":43.30097,"lon":5.39086,"is_reserved":false,"is_disabled":true,"rental_uris":{"android":"levelo://app?vid=306ac285-bc0c-4835-93e0-a6039d545963","ios":"levelo://app?vid=306ac285-bc0c-4835-93e0-a6039d545963"},"vehicle_type_id":"4","last_reported":1733232039,"current_range_meters":38800,"station_id":"ce4bh192rcd13ifvqdb0","pricing_plan_id":"cebpf4jnsgd1na2vs0mg"},{"bike_id":"922c5544-e3bd-4d10-a747-bfef96b5581b","system_id":"levelo_inurba_marseille","lat":43.29522,"lon":5.39033,"is_reserved":false,"is_disabled":true,"rental_uris":{"android":"levelo://app?vid=922c5544-e3bd-4d10-a747-bfef96b5581b","ios":"levelo://app?vid=922c5544-e3bd-4d10-a747-bfef96b5581b"},"vehicle_type_id":"4","last_reported":1733232039,"current_range_meters":24800,"station_id":"ce4bh3p2rcd13ifvqdp0","pricing_plan_id":"cebpf4jnsgd1na2vs0mg"},{"bike_id":"83bb64ce-f3d7-4d16-8334-da85c7286bc2","system_id":"levelo_inurba_marseille","lat":43.2848,"lon":5.38412,"is_reserved":false,"is_disabled":false,"rental_uris":{"android":"levelo://app?vid=83bb64ce-f3d7-4d16-8334-da85c7286bc2","ios":"levelo://app?vid=83bb64ce-f3d7-4d16-8334-da85c7286bc2"},"vehicle_type_id":"4","last_reported":1733232039,"current_range_meters":24400,"station_id":"ce4bh512rcd13ifvqe3g","pricing_plan_id":"cebpf4jnsgd1na2vs0mg"},{"bike_id":"1dc70cdf-4f74-41af-9e95-77502d50e11a","system_id":"levelo_inurba_marseille","lat":43.30417,"lon":5.41277,"is_reserved":false,"is_disabled":true,"rental_uris":{"android":"levelo://app?vid=1dc70cdf-4f74-41af-9e95-77502d50e11a","ios":"levelo://app?vid=1dc70cdf-4f74-41af-9e95-77502d50e11a"},"vehicle_type_id":"4","last_reported":1733232039,"current_range_meters":17600,"station_id":"ce4bhop2rcd13ifvqh8g","pricing_plan_id":"cebpf4jnsgd1na2vs0mg"},{"bike_id":"493af9ec-780a-44a3-be54-8ea9bc9b1958","system_id":"levelo_inurba_marseille","lat":43.30138,"lon":5.37428,"is_reserved":false,"is_disabled":false,"rental_uris":{"android":"levelo://app?vid=493af9ec-780a-44a3-be54-8ea9bc9b1958","ios":"levelo://app?vid=493af9ec-780a-44a3-be54-8ea9bc9b1958"},"vehicle_type_id":"4","last_reported":1733232039,"current_range_meters":32400,"station_id":"ce4bgs92rcd13ifvqcc0","pricing_plan_id":"cebpf4jnsgd1na2vs0mg"},{"bike_id":"2d069d51-c9d7-42c5-8ef4-c4be7331dcb8","system_id":"levelo_inurba_marseille","lat":43.290066,"lon":5.356182,"is_reserved":false,"is_disabled":false,"rental_uris":{"android":"levelo://app?vid=2d069d51-c9d7-42c5-8ef4-c4be7331dcb8","ios":"levelo://app?vid=2d069d51-c9d7-42c5-8ef4-c4be7331dcb8"},"vehicle_type_id":"4","last_reported":1733232039,"current_range_meters":26800,"station_id":"ce4bhb92rcd13ifvqen0","pricing_plan_id":"cebpf4jnsgd1na2vs0mg"},{"bike_id":"a8470222-8fc2-465c-8f1d-616d899efbab","system_id":"levelo_inurba_marseille","lat":43.25939,"lon":5.40907,"is_reserved":false,"is_disabled":false,"rental_uris":{"android":"levelo://app?vid=a8470222-8fc2-465c-8f1d-616d899efbab","ios":"levelo://app?vid=a8470222-8fc2-465c-8f1d-616d899efbab"},"vehicle_type_id":"4","last_reported":1733232039,"current_range_meters":28400,"station_id":"ce4bhm92rcd13ifvqglg","pricing_plan_id":"cebpf4jnsgd1na2vs0mg"},{"bike_id":"1be4d483-548e-4389-9520-8fdef6d6ff47","system_id":"levelo_inurba_marseille","lat":43.28616,"lon":5.35109,"is_reserved":false,"is_disabled":false,"rental_uris":{"android":"levelo://app?vid=1be4d483-548e-4389-9520-8fdef6d6ff47","ios":"levelo://app?vid=1be4d483-548e-4389-9520-8fdef6d6ff47"},"vehicle_type_id":"4","last_reported":1733232039,"current_range_meters":24000,"station_id":"ce4bhch2rcd13ifvqeug","pricing_plan_id":"cebpf4jnsgd1na2vs0mg"},{"bike_id":"6be34e8d-e6a4-4244-912f-4a919c181796","system_id":"levelo_inurba_marseille","lat":43.32537,"lon":5.41454,"is_reserved":false,"is_disabled":false,"rental_uris":{"android":"levelo://app?vid=6be34e8d-e6a4-4244-912f-4a919c181796","ios":"levelo://app?vid=6be34e8d-e6a4-4244-912f-4a919c181796"},"vehicle_type_id":"4","last_reported":1733232039,"current_range_meters":38800,"station_id":"ce4bhq12rcd13ifvqhhg","pricing_plan_id":"cebpf4jnsgd1na2vs0mg"},{"bike_id":"79c8ea6d-5102-4a1e-b941-afdabc095945","system_id":"levelo_inurba_marseille","lat":43.29066,"lon":5.38346,"is_reserved":false,"is_disabled":true,"rental_uris":{"android":"levelo://app?vid=79c8ea6d-5102-4a1e-b941-afdabc095945","ios":"levelo://app?vid=79c8ea6d-5102-4a1e-b941-afdabc095945"},"vehicle_type_id":"4","last_reported":1733232039,"current_range_meters":25200,"station_id":"","pricing_plan_id":"cebpf4jnsgd1na2vs0mg"},{"bike_id":"d85fe9b9-a328-4c45-85c9-2ca7bf4076d8","system_id":"levelo_inurba_marseille","lat":43.3247,"lon":5.36587,"is_reserved":false,"is_disabled":false,"rental_uris":{"android":"levelo://app?vid=d85fe9b9-a328-4c45-85c9-2ca7bf4076d8","ios":"levelo://app?vid=d85fe9b9-a328-4c45-85c9-2ca7bf4076d8"},"vehicle_type_id":"4","last_reported":1733232039,"current_range_meters":32000,"station_id":"ce4bhs12rcd13ifvqhvg","pricing_plan_id":"cebpf4jnsgd1na2vs0mg"},{"bike_id":"b107272f-c42e-49e8-90dc-465fffb7a287","system_id":"levelo_inurba_marseille","lat":43.25107,"lon":5.40317,"is_reserved":false,"is_disabled":false,"rental_uris":{"android":"levelo://app?vid=b107272f-c42e-49e8-90dc-465fffb7a287","ios":"levelo://app?vid=b107272f-c42e-49e8-90dc-465fffb7a287"},"vehicle_type_id":"4","last_reported":1733232039,"current_range_meters":15200,"station_id":"ce4bhlh2rcd13ifvqgig","pricing_plan_id":"cebpf4jnsgd1na2vs0mg"},{"bike_id":"6a251842-a891-40c7-849d-ee8431730983","system_id":"levelo_inurba_marseille","lat":43.2892,"lon":5.36369,"is_reserved":false,"is_disabled":false,"rental_uris":{"android":"levelo://app?vid=6a251842-a891-40c7-849d-ee8431730983","ios":"levelo://app?vid=6a251842-a891-40c7-849d-ee8431730983"},"vehicle_type_id":"4","last_reported":1733232039,"current_range_meters":35200,"station_id":"ce4bhc92rcd13ifvqetg","pricing_plan_id":"cebpf4jnsgd1na2vs0mg"},{"bike_id":"d337693b-82b2-4f65-ad74-9a2472a5f9cd","system_id":"levelo_inurba_marseille","lat":43.297831,"lon":5.381164,"is_reserved":false,"is_disabled":true,"rental_uris":{"android":"levelo://app?vid=d337693b-82b2-4f65-ad74-9a2472a5f9cd","ios":"levelo://app?vid=d337693b-82b2-4f65-ad74-9a2472a5f9cd"},"vehicle_type_id":"4","last_reported":1733232039,"current_range_meters":36000,"station_id":"ce4bgip2rcd13ifvqbb0","pricing_plan_id":"cebpf4jnsgd1na2vs0mg"},{"bike_id":"1f3491f0-7911-4ef6-949b-178332ea511b","system_id":"levelo_inurba_marseille","lat":43.2794,"lon":5.38732,"is_reserved":false,"is_disabled":false,"rental_uris":{"android":"levelo://app?vid=1f3491f0-7911-4ef6-949b-178332ea511b","ios":"levelo://app?vid=1f3491f0-7911-4ef6-949b-178332ea511b"},"vehicle_type_id":"4","last_reported":1733232039,"current_range_meters":24400,"station_id":"ce4bhg12rcd13ifvqf80","pricing_plan_id":"cebpf4jnsgd1na2vs0mg"},{"bike_id":"a89070b4-8de7-46a5-b4dc-1bcf7ee76fe5","system_id":"levelo_inurba_marseille","lat":43.29168,"lon":5.37165,"is_reserved":false,"is_disabled":false,"rental_uris":{"android":"levelo://app?vid=a89070b4-8de7-46a5-b4dc-1bcf7ee76fe5","ios":"levelo://app?vid=a89070b4-8de7-46a5-b4dc-1bcf7ee76fe5"},"vehicle_type_id":"4","last_reported":1733232039,"current_range_meters":18800,"station_id":"ce4bha92rcd13ifvqeh0","pricing_plan_id":"cebpf4jnsgd1na2vs0mg"},{"bike_id":"bbd2233b-92f7-4bae-91fa-d852ded44878","system_id":"levelo_inurba_marseille","lat":43.27495,"lon":5.42455,"is_reserved":false,"is_disabled":false,"rental_uris":{"android":"levelo://app?vid=bbd2233b-92f7-4bae-91fa-d852ded44878","ios":"levelo://app?vid=bbd2233b-92f7-4bae-91fa-d852ded44878"},"vehicle_type_id":"4","last_reported":1733232039,"current_range_meters":24800,"station_id":"ce4bhn92rcd13ifvqgrg","pricing_plan_id":"cebpf4jnsgd1na2vs0mg"},{"bike_id":"427d7497-fe79-4531-b7d6-69d2614ceec1","system_id":"levelo_inurba_marseille","lat":43.29197,"lon":5.38484,"is_reserved":false,"is_disabled":true,"rental_uris":{"android":"levelo://app?vid=427d7497-fe79-4531-b7d6-69d2614ceec1","ios":"levelo://app?vid=427d7497-fe79-4531-b7d6-69d2614ceec1"},"vehicle_type_id":"4","last_reported":1733232039,"current_range_meters":9200,"station_id":"","pricing_plan_id":"cebpf4jnsgd1na2vs0mg"},{"bike_id":"17fbe41b-51fc-47a2-a00a-adece6860a99","system_id":"levelo_inurba_marseille","lat":43.24062,"lon":5.37766,"is_reserved":false,"is_disabled":false,"rental_uris":{"android":"levelo://app?vid=17fbe41b-51fc-47a2-a00a-adece6860a99","ios":"levelo://app?vid=17fbe41b-51fc-47a2-a00a-adece6860a99"},"vehicle_type_id":"4","last_reported":1733232039,"current_range_meters":37600,"station_id":"ce4bhnp2rcd13ifvqgvg","pricing_plan_id":"cebpf4jnsgd1na2vs0mg"},{"bike_id":"8fe55c2d-7384-438a-a0b6-fefb37ed3c90","system_id":"levelo_inurba_marseille","lat":43.28469,"lon":5.35881,"is_reserved":false,"is_disabled":false,"rental_uris":{"android":"levelo://app?vid=8fe55c2d-7384-438a-a0b6-fefb37ed3c90","ios":"levelo://app?vid=8fe55c2d-7384-438a-a0b6-fefb37ed3c90"},"vehicle_type_id":"4","last_reported":1733232039,"current_range_meters":38800,"station_id":"ce4bhah2rcd13ifvqei0","pricing_plan_id":"cebpf4jnsgd1na2vs0mg"},{"bike_id":"daa64a8d-65e1-48f3-89e8-4d94f47a6133","system_id":"levelo_inurba_marseille","lat":43.30537,"lon":5.3655,"is_reserved":false,"is_disabled":false,"rental_uris":{"android":"levelo://app?vid=daa64a8d-65e1-48f3-89e8-4d94f47a6133","ios":"levelo://app?vid=daa64a8d-65e1-48f3-89e8-4d94f47a6133"},"vehicle_type_id":"4","last_reported":1733232039,"current_range_meters":38800,"station_id":"ce4bgs12rcd13ifvqcag","pricing_plan_id":"cebpf4jnsgd1na2vs0mg"},{"bike_id":"a4b9e425-64b8-4ce2-a5ab-5fcc5d1230a4","system_id":"levelo_inurba_marseille","lat":43.32106,"lon":5.36779,"is_reserved":false,"is_disabled":false,"rental_uris":{"android":"levelo://app?vid=a4b9e425-64b8-4ce2-a5ab-5fcc5d1230a4","ios":"levelo://app?vid=a4b9e425-64b8-4ce2-a5ab-5fcc5d1230a4"},"vehicle_type_id":"4","last_reported":1733232039,"current_range_meters":10800,"station_id":"ce4bhrh2rcd13ifvqhug","pricing_plan_id":"cebpf4jnsgd1na2vs0mg"},{"bike_id":"e06e0fc4-3305-4240-92a8-296dc8707f9b","system_id":"levelo_inurba_marseille","lat":43.29287,"lon":5.37462,"is_reserved":false,"is_disabled":false,"rental_uris":{"android":"levelo://app?vid=e06e0fc4-3305-4240-92a8-296dc8707f9b","ios":"levelo://app?vid=e06e0fc4-3305-4240-92a8-296dc8707f9b"},"vehicle_type_id":"4","last_reported":1733232039,"current_range_meters":23200,"station_id":"ce4bgi12rcd13ifvqb70","pricing_plan_id":"cebpf4jnsgd1na2vs0mg"},{"bike_id":"c0475334-562b-4d92-8981-a7a932dfce5d","system_id":"levelo_inurba_marseille","lat":43.32493,"lon":5.42153,"is_reserved":false,"is_disabled":false,"rental_uris":{"android":"levelo://app?vid=c0475334-562b-4d92-8981-a7a932dfce5d","ios":"levelo://app?vid=c0475334-562b-4d92-8981-a7a932dfce5d"},"vehicle_type_id":"4","last_reported":1733232039,"current_range_meters":39200,"station_id":"ce4bhq92rcd13ifvqhkg","pricing_plan_id":"cebpf4jnsgd1na2vs0mg"},{"bike_id":"302ce1df-994c-4294-90e0-6c4c05857211","system_id":"levelo_inurba_marseille","lat":43.24807,"lon":5.37459,"is_reserved":false,"is_disabled":false,"rental_uris":{"android":"levelo://app?vid=302ce1df-994c-4294-90e0-6c4c05857211","ios":"levelo://app?vid=302ce1df-994c-4294-90e0-6c4c05857211"},"vehicle_type_id":"4","last_reported":1733232039,"current_range_meters":19600,"station_id":"ce4bhgh2rcd13ifvqfb0","pricing_plan_id":"cebpf4jnsgd1na2vs0mg"},{"bike_id":"b2bc1728-46a3-400e-bd39-12c204f62d20","system_id":"levelo_inurba_marseille","lat":43.26942,"lon":5.40242,"is_reserved":false,"is_disabled":true,"rental_uris":{"android":"levelo://app?vid=b2bc1728-46a3-400e-bd39-12c204f62d20","ios":"levelo://app?vid=b2bc1728-46a3-400e-bd39-12c204f62d20"},"vehicle_type_id":"4","last_reported":1733232039,"current_range_meters":26800,"station_id":"cjm6bp8fraef2m0cb0m0","pricing_plan_id":"cebpf4jnsgd1na2vs0mg"},{"bike_id":"b1e6b49b-359d-4791-b1ed-8e1b7d5c7a6e","system_id":"levelo_inurba_marseille","lat":43.28,"lon":5.40015,"is_reserved":false,"is_disabled":false,"rental_uris":{"android":"levelo://app?vid=b1e6b49b-359d-4791-b1ed-8e1b7d5c7a6e","ios":"levelo://app?vid=b1e6b49b-359d-4791-b1ed-8e1b7d5c7a6e"},"vehicle_type_id":"4","last_reported":1733232039,"current_range_meters":10800,"station_id":"ce4bho92rcd13ifvqh4g","pricing_plan_id":"cebpf4jnsgd1na2vs0mg"},{"bike_id":"a1aa5620-2892-4184-bf59-35078f0ef66f","system_id":"levelo_inurba_marseille","lat":43.32534,"lon":5.41438,"is_reserved":false,"is_disabled":false,"rental_uris":{"android":"levelo://app?vid=a1aa5620-2892-4184-bf59-35078f0ef66f","ios":"levelo://app?vid=a1aa5620-2892-4184-bf59-35078f0ef66f"},"vehicle_type_id":"4","last_reported":1733232039,"current_range_meters":30000,"station_id":"ce4bhq12rcd13ifvqhhg","pricing_plan_id":"cebpf4jnsgd1na2vs0mg"},{"bike_id":"027237e3-7331-49d2-98d0-38aee47caa3e","system_id":"levelo_inurba_marseille","lat":43.26927,"lon":5.3892,"is_reserved":false,"is_disabled":false,"rental_uris":{"android":"levelo://app?vid=027237e3-7331-49d2-98d0-38aee47caa3e","ios":"levelo://app?vid=027237e3-7331-49d2-98d0-38aee47caa3e"},"vehicle_type_id":"4","last_reported":1733232039,"current_range_meters":28000,"station_id":"ce4bhhh2rcd13ifvqfl0","pricing_plan_id":"cebpf4jnsgd1na2vs0mg"},{"bike_id":"0112a8c7-aaf7-4044-b05d-a8dc345517a8","system_id":"levelo_inurba_marseille","lat":43.3133,"lon":5.39706,"is_reserved":false,"is_disabled":false,"rental_uris":{"android":"levelo://app?vid=0112a8c7-aaf7-4044-b05d-a8dc345517a8","ios":"levelo://app?vid=0112a8c7-aaf7-4044-b05d-a8dc345517a8"},"vehicle_type_id":"4","last_reported":1733232039,"current_range_meters":28400,"station_id":"ce4bgvp2rcd13ifvqcu0","pricing_plan_id":"cebpf4jnsgd1na2vs0mg"},{"bike_id":"11744467-450c-46ed-abf6-d52a26a54042","system_id":"levelo_inurba_marseille","lat":43.28941,"lon":5.36388,"is_reserved":false,"is_disabled":false,"rental_uris":{"android":"levelo://app?vid=11744467-450c-46ed-abf6-d52a26a54042","ios":"levelo://app?vid=11744467-450c-46ed-abf6-d52a26a54042"},"vehicle_type_id":"4","last_reported":1733232039,"current_range_meters":38800,"station_id":"ce4bhc92rcd13ifvqetg","pricing_plan_id":"cebpf4jnsgd1na2vs0mg"},{"bike_id":"d964f6b0-8387-40a1-865c-47c085075252","system_id":"levelo_inurba_marseille","lat":43.29011,"lon":5.38136,"is_reserved":false,"is_disabled":false,"rental_uris":{"android":"levelo://app?vid=d964f6b0-8387-40a1-865c-47c085075252","ios":"levelo://app?vid=d964f6b0-8387-40a1-865c-47c085075252"},"vehicle_type_id":"4","last_reported":1733232039,"current_range_meters":38800,"station_id":"ce4bh4p2rcd13ifvqe1g","pricing_plan_id":"cebpf4jnsgd1na2vs0mg"},{"bike_id":"1f705920-1902-480f-838e-dcfc3df08a4c","system_id":"levelo_inurba_marseille","lat":43.26803,"lon":5.40267,"is_reserved":false,"is_disabled":false,"rental_uris":{"android":"levelo://app?vid=1f705920-1902-480f-838e-dcfc3df08a4c","ios":"levelo://app?vid=1f705920-1902-480f-838e-dcfc3df08a4c"},"vehicle_type_id":"4","last_reported":1733232039,"current_range_meters":38800,"station_id":"ce501612rcd8frsf0b60","pricing_plan_id":"cebpf4jnsgd1na2vs0mg"},{"bike_id":"e574a8cd-cb8b-4705-988d-a54eaa629839","system_id":"levelo_inurba_marseille","lat":43.32361,"lon":5.36763,"is_reserved":false,"is_disabled":false,"rental_uris":{"android":"levelo://app?vid=e574a8cd-cb8b-4705-988d-a54eaa629839","ios":"levelo://app?vid=e574a8cd-cb8b-4705-988d-a54eaa629839"},"vehicle_type_id":"4","last_reported":1733232039,"current_range_meters":38800,"station_id":"ce4bhsh2rcd13ifvqi2g","pricing_plan_id":"cebpf4jnsgd1na2vs0mg"},{"bike_id":"f4af382a-5363-4221-874b-b6fb29128c7b","system_id":"levelo_inurba_marseille","lat":43.29416,"lon":5.38637,"is_reserved":false,"is_disabled":false,"rental_uris":{"android":"levelo://app?vid=f4af382a-5363-4221-874b-b6fb29128c7b","ios":"levelo://app?vid=f4af382a-5363-4221-874b-b6fb29128c7b"},"vehicle_type_id":"4","last_reported":1733232039,"current_range_meters":38800,"station_id":"ce4bh2h2rcd13ifvqdh0","pricing_plan_id":"cebpf4jnsgd1na2vs0mg"},{"bike_id":"a111a6cd-4af3-4fd0-a2de-0037d38b47f9","system_id":"levelo_inurba_marseille","lat":43.29838,"lon":5.36267,"is_reserved":false,"is_disabled":false,"rental_uris":{"android":"levelo://app?vid=a111a6cd-4af3-4fd0-a2de-0037d38b47f9","ios":"levelo://app?vid=a111a6cd-4af3-4fd0-a2de-0037d38b47f9"},"vehicle_type_id":"4","last_reported":1733232039,"current_range_meters":22000,"station_id":"ce4bgpp2rcd13ifvqc3g","pricing_plan_id":"cebpf4jnsgd1na2vs0mg"},{"bike_id":"b5a03233-d31f-4598-84c4-07d6d6043f52","system_id":"levelo_inurba_marseille","lat":43.28152,"lon":5.4267,"is_reserved":false,"is_disabled":false,"rental_uris":{"android":"levelo://app?vid=b5a03233-d31f-4598-84c4-07d6d6043f52","ios":"levelo://app?vid=b5a03233-d31f-4598-84c4-07d6d6043f52"},"vehicle_type_id":"4","last_reported":1733232039,"current_range_meters":36000,"station_id":"ce4bhnh2rcd13ifvqgug","pricing_plan_id":"cebpf4jnsgd1na2vs0mg"},{"bike_id":"57e0f190-7f16-4931-934d-384b1700b76f","system_id":"levelo_inurba_marseille","lat":43.31481,"lon":5.37306,"is_reserved":false,"is_disabled":false,"rental_uris":{"android":"levelo://app?vid=57e0f190-7f16-4931-934d-384b1700b76f","ios":"levelo://app?vid=57e0f190-7f16-4931-934d-384b1700b76f"},"vehicle_type_id":"4","last_reported":1733232039,"current_range_meters":8800,"station_id":"ce4bgt12rcd13ifvqcd0","pricing_plan_id":"cebpf4jnsgd1na2vs0mg"},{"bike_id":"5e160b8e-5c83-4423-b051-bd2cf577003d","system_id":"levelo_inurba_marseille","lat":43.23198,"lon":5.3555,"is_reserved":false,"is_disabled":false,"rental_uris":{"android":"levelo://app?vid=5e160b8e-5c83-4423-b051-bd2cf577003d","ios":"levelo://app?vid=5e160b8e-5c83-4423-b051-bd2cf577003d"},"vehicle_type_id":"4","last_reported":1733232039,"current_range_meters":38800,"station_id":"ce4bhu92rcd13ifvqi70","pricing_plan_id":"cebpf4jnsgd1na2vs0mg"},{"bike_id":"322cf6fe-0822-422b-95a4-35c4bd952f62","system_id":"levelo_inurba_marseille","lat":43.27178,"lon":5.4099,"is_reserved":false,"is_disabled":false,"rental_uris":{"android":"levelo://app?vid=322cf6fe-0822-422b-95a4-35c4bd952f62","ios":"levelo://app?vid=322cf6fe-0822-422b-95a4-35c4bd952f62"},"vehicle_type_id":"4","last_reported":1733232039,"current_range_meters":24400,"station_id":"ce4bhl12rcd13ifvqgf0","pricing_plan_id":"cebpf4jnsgd1na2vs0mg"},{"bike_id":"56281bcb-3cfb-4688-b61f-bc7934d481c3","system_id":"levelo_inurba_marseille","lat":43.29506,"lon":5.37523,"is_reserved":false,"is_disabled":false,"rental_uris":{"android":"levelo://app?vid=56281bcb-3cfb-4688-b61f-bc7934d481c3","ios":"levelo://app?vid=56281bcb-3cfb-4688-b61f-bc7934d481c3"},"vehicle_type_id":"4","last_reported":1733232039,"current_range_meters":38800,"station_id":"ce4bgkp2rcd13ifvqbmg","pricing_plan_id":"cebpf4jnsgd1na2vs0mg"},{"bike_id":"7707ba29-5b91-4931-aa98-df59c8261c4e","system_id":"levelo_inurba_marseille","lat":43.32663,"lon":5.4099,"is_reserved":false,"is_disabled":false,"rental_uris":{"android":"levelo://app?vid=7707ba29-5b91-4931-aa98-df59c8261c4e","ios":"levelo://app?vid=7707ba29-5b91-4931-aa98-df59c8261c4e"},"vehicle_type_id":"4","last_reported":1733232039,"current_range_meters":30400,"station_id":"ce4bhpp2rcd13ifvqhgg","pricing_plan_id":"cebpf4jnsgd1na2vs0mg"},{"bike_id":"0ecfd779-5539-47af-aacd-2f9643bc2006","system_id":"levelo_inurba_marseille","lat":43.301514,"lon":5.38077,"is_reserved":false,"is_disabled":false,"rental_uris":{"android":"levelo://app?vid=0ecfd779-5539-47af-aacd-2f9643bc2006","ios":"levelo://app?vid=0ecfd779-5539-47af-aacd-2f9643bc2006"},"vehicle_type_id":"4","last_reported":1733232039,"current_range_meters":29600,"station_id":"ce4bgjp2rcd13ifvqbh0","pricing_plan_id":"cebpf4jnsgd1na2vs0mg"},{"bike_id":"6cbae373-2d43-47f4-8be6-ac2a76d211c2","system_id":"levelo_inurba_marseille","lat":43.32648,"lon":5.40993,"is_reserved":false,"is_disabled":false,"rental_uris":{"android":"levelo://app?vid=6cbae373-2d43-47f4-8be6-ac2a76d211c2","ios":"levelo://app?vid=6cbae373-2d43-47f4-8be6-ac2a76d211c2"},"vehicle_type_id":"4","last_reported":1733232039,"current_range_meters":23200,"station_id":"ce4bhpp2rcd13ifvqhgg","pricing_plan_id":"cebpf4jnsgd1na2vs0mg"},{"bike_id":"4fea2e51-5207-4de7-8e56-1a7d310cc144","system_id":"levelo_inurba_marseille","lat":43.24804,"lon":5.37456,"is_reserved":false,"is_disabled":false,"rental_uris":{"android":"levelo://app?vid=4fea2e51-5207-4de7-8e56-1a7d310cc144","ios":"levelo://app?vid=4fea2e51-5207-4de7-8e56-1a7d310cc144"},"vehicle_type_id":"4","last_reported":1733232039,"current_range_meters":34800,"station_id":"ce4bhgh2rcd13ifvqfb0","pricing_plan_id":"cebpf4jnsgd1na2vs0mg"},{"bike_id":"a5ec52a0-fc7c-4022-8b79-b922e907dca7","system_id":"levelo_inurba_marseille","lat":43.29779,"lon":5.37087,"is_reserved":false,"is_disabled":false,"rental_uris":{"android":"levelo://app?vid=a5ec52a0-fc7c-4022-8b79-b922e907dca7","ios":"levelo://app?vid=a5ec52a0-fc7c-4022-8b79-b922e907dca7"},"vehicle_type_id":"4","last_reported":1733232039,"current_range_meters":38800,"station_id":"ce4bgop2rcd13ifvqc1g","pricing_plan_id":"cebpf4jnsgd1na2vs0mg"},{"bike_id":"da5aa3eb-3586-404d-89e2-44ff032b3acb","system_id":"levelo_inurba_marseille","lat":43.30537,"lon":5.36695,"is_reserved":false,"is_disabled":false,"rental_uris":{"android":"levelo://app?vid=da5aa3eb-3586-404d-89e2-44ff032b3acb","ios":"levelo://app?vid=da5aa3eb-3586-404d-89e2-44ff032b3acb"},"vehicle_type_id":"4","last_reported":1733232039,"current_range_meters":38800,"station_id":"ce4bgrp2rcd13ifvqc9g","pricing_plan_id":"cebpf4jnsgd1na2vs0mg"},{"bike_id":"1caaebae-656e-4593-a47a-be222f59f175","system_id":"levelo_inurba_marseille","lat":43.28461,"lon":5.35889,"is_reserved":false,"is_disabled":false,"rental_uris":{"android":"levelo://app?vid=1caaebae-656e-4593-a47a-be222f59f175","ios":"levelo://app?vid=1caaebae-656e-4593-a47a-be222f59f175"},"vehicle_type_id":"4","last_reported":1733232039,"current_range_meters":20400,"station_id":"ce4bhah2rcd13ifvqei0","pricing_plan_id":"cebpf4jnsgd1na2vs0mg"},{"bike_id":"e63aa962-a242-44bd-8328-31cf6c0d9d3d","system_id":"levelo_inurba_marseille","lat":43.29302,"lon":5.37176,"is_reserved":false,"is_disabled":true,"rental_uris":{"android":"levelo://app?vid=e63aa962-a242-44bd-8328-31cf6c0d9d3d","ios":"levelo://app?vid=e63aa962-a242-44bd-8328-31cf6c0d9d3d"},"vehicle_type_id":"4","last_reported":1733232039,"current_range_meters":0,"station_id":"ce4bgh92rcd13ifvqb40","pricing_plan_id":"cebpf4jnsgd1na2vs0mg"},{"bike_id":"f8bcc820-9a1c-492a-9f26-6a6b26934b17","system_id":"levelo_inurba_marseille","lat":43.28616,"lon":5.37066,"is_reserved":false,"is_disabled":true,"rental_uris":{"android":"levelo://app?vid=f8bcc820-9a1c-492a-9f26-6a6b26934b17","ios":"levelo://app?vid=f8bcc820-9a1c-492a-9f26-6a6b26934b17"},"vehicle_type_id":"4","last_reported":1733232039,"current_range_meters":8000,"station_id":"ce4bht12rcd13ifvqi60","pricing_plan_id":"cebpf4jnsgd1na2vs0mg"},{"bike_id":"8270202d-4d45-457f-b385-42f0ff5378cd","system_id":"levelo_inurba_marseille","lat":43.291,"lon":5.38146,"is_reserved":false,"is_disabled":false,"rental_uris":{"android":"levelo://app?vid=8270202d-4d45-457f-b385-42f0ff5378cd","ios":"levelo://app?vid=8270202d-4d45-457f-b385-42f0ff5378cd"},"vehicle_type_id":"4","last_reported":1733232039,"current_range_meters":29600,"station_id":"ce4bh512rcd13ifvqe2g","pricing_plan_id":"cebpf4jnsgd1na2vs0mg"},{"bike_id":"f8125bb0-fddc-466b-9315-4dd48e162507","system_id":"levelo_inurba_marseille","lat":43.28659,"lon":5.38591,"is_reserved":false,"is_disabled":false,"rental_uris":{"android":"levelo://app?vid=f8125bb0-fddc-466b-9315-4dd48e162507","ios":"levelo://app?vid=f8125bb0-fddc-466b-9315-4dd48e162507"},"vehicle_type_id":"4","last_reported":1733232039,"current_range_meters":38800,"station_id":"ce4bgkh2rcd13ifvqbl0","pricing_plan_id":"cebpf4jnsgd1na2vs0mg"},{"bike_id":"897ac26a-4be0-4611-ac6d-8aaca22f84ba","system_id":"levelo_inurba_marseille","lat":43.29971,"lon":5.38514,"is_reserved":false,"is_disabled":false,"rental_uris":{"android":"levelo://app?vid=897ac26a-4be0-4611-ac6d-8aaca22f84ba","ios":"levelo://app?vid=897ac26a-4be0-4611-ac6d-8aaca22f84ba"},"vehicle_type_id":"4","last_reported":1733232039,"current_range_meters":36800,"station_id":"ce4bgj92rcd13ifvqbd0","pricing_plan_id":"cebpf4jnsgd1na2vs0mg"},{"bike_id":"3a9149f3-357c-4d0a-859b-18382ef024a5","system_id":"levelo_inurba_marseille","lat":43.32112,"lon":5.36775,"is_reserved":false,"is_disabled":false,"rental_uris":{"android":"levelo://app?vid=3a9149f3-357c-4d0a-859b-18382ef024a5","ios":"levelo://app?vid=3a9149f3-357c-4d0a-859b-18382ef024a5"},"vehicle_type_id":"4","last_reported":1733232039,"current_range_meters":32000,"station_id":"ce4bhrh2rcd13ifvqhug","pricing_plan_id":"cebpf4jnsgd1na2vs0mg"},{"bike_id":"6304671d-13a7-4774-a409-39262296d631","system_id":"levelo_inurba_marseille","lat":43.31712,"lon":5.43711,"is_reserved":false,"is_disabled":false,"rental_uris":{"android":"levelo://app?vid=6304671d-13a7-4774-a409-39262296d631","ios":"levelo://app?vid=6304671d-13a7-4774-a409-39262296d631"},"vehicle_type_id":"4","last_reported":1733232039,"current_range_meters":32800,"station_id":"ce4bhp92rcd13ifvqhcg","pricing_plan_id":"cebpf4jnsgd1na2vs0mg"},{"bike_id":"0f473cf7-4b64-44f2-aeb7-f54a1dd5cf4d","system_id":"levelo_inurba_marseille","lat":43.29624,"lon":5.37729,"is_reserved":false,"is_disabled":false,"rental_uris":{"android":"levelo://app?vid=0f473cf7-4b64-44f2-aeb7-f54a1dd5cf4d","ios":"levelo://app?vid=0f473cf7-4b64-44f2-aeb7-f54a1dd5cf4d"},"vehicle_type_id":"4","last_reported":1733232039,"current_range_meters":24000,"station_id":"ce4bgi92rcd13ifvqb90","pricing_plan_id":"cebpf4jnsgd1na2vs0mg"},{"bike_id":"da6a7a1d-e653-4950-af8c-8137b06f7d40","system_id":"levelo_inurba_marseille","lat":43.3004,"lon":5.37551,"is_reserved":false,"is_disabled":true,"rental_uris":{"android":"levelo://app?vid=da6a7a1d-e653-4950-af8c-8137b06f7d40","ios":"levelo://app?vid=da6a7a1d-e653-4950-af8c-8137b06f7d40"},"vehicle_type_id":"4","last_reported":1733232039,"current_range_meters":0,"station_id":"","pricing_plan_id":"cebpf4jnsgd1na2vs0mg"},{"bike_id":"504406eb-1b0d-4eaa-afdd-f1199e10994c","system_id":"levelo_inurba_marseille","lat":43.31161,"lon":5.38725,"is_reserved":false,"is_disabled":false,"rental_uris":{"android":"levelo://app?vid=504406eb-1b0d-4eaa-afdd-f1199e10994c","ios":"levelo://app?vid=504406eb-1b0d-4eaa-afdd-f1199e10994c"},"vehicle_type_id":"4","last_reported":1733232039,"current_range_meters":18000,"station_id":"ce4bgv12rcd13ifvqcp0","pricing_plan_id":"cebpf4jnsgd1na2vs0mg"},{"bike_id":"6fa219e0-9f23-47e4-aca4-88e49fc228ce","system_id":"levelo_inurba_marseille","lat":43.31361,"lon":5.38356,"is_reserved":false,"is_disabled":false,"rental_uris":{"android":"levelo://app?vid=6fa219e0-9f23-47e4-aca4-88e49fc228ce","ios":"levelo://app?vid=6fa219e0-9f23-47e4-aca4-88e49fc228ce"},"vehicle_type_id":"4","last_reported":1733232039,"current_range_meters":4800,"station_id":"","pricing_plan_id":"cebpf4jnsgd1na2vs0mg"},{"bike_id":"87779b40-d0ed-4337-9bf7-c9a883db3960","system_id":"levelo_inurba_marseille","lat":43.3042,"lon":5.4128,"is_reserved":false,"is_disabled":false,"rental_uris":{"android":"levelo://app?vid=87779b40-d0ed-4337-9bf7-c9a883db3960","ios":"levelo://app?vid=87779b40-d0ed-4337-9bf7-c9a883db3960"},"vehicle_type_id":"4","last_reported":1733232039,"current_range_meters":19600,"station_id":"ce4bhop2rcd13ifvqh8g","pricing_plan_id":"cebpf4jnsgd1na2vs0mg"},{"bike_id":"e6bbbf53-985a-487e-a0c4-ee284d44b44d","system_id":"levelo_inurba_marseille","lat":43.2886,"lon":5.39333,"is_reserved":false,"is_disabled":true,"rental_uris":{"android":"levelo://app?vid=e6bbbf53-985a-487e-a0c4-ee284d44b44d","ios":"levelo://app?vid=e6bbbf53-985a-487e-a0c4-ee284d44b44d"},"vehicle_type_id":"4","last_reported":1733232039,"current_range_meters":30000,"station_id":"ce4bh2p2rcd13ifvqdi0","pricing_plan_id":"cebpf4jnsgd1na2vs0mg"},{"bike_id":"e7d50269-078a-4e44-a55b-466bfc27d4c0","system_id":"levelo_inurba_marseille","lat":43.2978,"lon":5.38108,"is_reserved":false,"is_disabled":false,"rental_uris":{"android":"levelo://app?vid=e7d50269-078a-4e44-a55b-466bfc27d4c0","ios":"levelo://app?vid=e7d50269-078a-4e44-a55b-466bfc27d4c0"},"vehicle_type_id":"4","last_reported":1733232039,"current_range_meters":27200,"station_id":"ce4bgip2rcd13ifvqbb0","pricing_plan_id":"cebpf4jnsgd1na2vs0mg"},{"bike_id":"acab11c7-676b-4fcd-bf03-f3c84a114b96","system_id":"levelo_inurba_marseille","lat":43.2695,"lon":5.38633,"is_reserved":false,"is_disabled":false,"rental_uris":{"android":"levelo://app?vid=acab11c7-676b-4fcd-bf03-f3c84a114b96","ios":"levelo://app?vid=acab11c7-676b-4fcd-bf03-f3c84a114b96"},"vehicle_type_id":"4","last_reported":1733232039,"current_range_meters":20000,"station_id":"ce4bhh92rcd13ifvqfh0","pricing_plan_id":"cebpf4jnsgd1na2vs0mg"},{"bike_id":"776b382d-575b-4ad7-8214-1678f34da237","system_id":"levelo_inurba_marseille","lat":43.24545,"lon":5.39519,"is_reserved":false,"is_disabled":false,"rental_uris":{"android":"levelo://app?vid=776b382d-575b-4ad7-8214-1678f34da237","ios":"levelo://app?vid=776b382d-575b-4ad7-8214-1678f34da237"},"vehicle_type_id":"4","last_reported":1733232039,"current_range_meters":38800,"station_id":"ce4bhlp2rcd13ifvqgjg","pricing_plan_id":"cebpf4jnsgd1na2vs0mg"},{"bike_id":"9f182489-b5c1-4400-91e1-858ac18cbfca","system_id":"levelo_inurba_marseille","lat":43.29579,"lon":5.36734,"is_reserved":false,"is_disabled":false,"rental_uris":{"android":"levelo://app?vid=9f182489-b5c1-4400-91e1-858ac18cbfca","ios":"levelo://app?vid=9f182489-b5c1-4400-91e1-858ac18cbfca"},"vehicle_type_id":"4","last_reported":1733232039,"current_range_meters":38400,"station_id":"ce4bgph2rcd13ifvqc2g","pricing_plan_id":"cebpf4jnsgd1na2vs0mg"},{"bike_id":"176e5e07-e501-4dcf-b9ba-541322ffacae","system_id":"levelo_inurba_marseille","lat":43.31696,"lon":5.37729,"is_reserved":false,"is_disabled":false,"rental_uris":{"android":"levelo://app?vid=176e5e07-e501-4dcf-b9ba-541322ffacae","ios":"levelo://app?vid=176e5e07-e501-4dcf-b9ba-541322ffacae"},"vehicle_type_id":"4","last_reported":1733232039,"current_range_meters":38800,"station_id":"ce4bgth2rcd13ifvqch0","pricing_plan_id":"cebpf4jnsgd1na2vs0mg"},{"bike_id":"4c0c4336-3476-402a-a1a8-96946670ae7d","system_id":"levelo_inurba_marseille","lat":43.29617,"lon":5.37725,"is_reserved":false,"is_disabled":false,"rental_uris":{"android":"levelo://app?vid=4c0c4336-3476-402a-a1a8-96946670ae7d","ios":"levelo://app?vid=4c0c4336-3476-402a-a1a8-96946670ae7d"},"vehicle_type_id":"4","last_reported":1733232039,"current_range_meters":37600,"station_id":"ce4bgi92rcd13ifvqb90","pricing_plan_id":"cebpf4jnsgd1na2vs0mg"},{"bike_id":"70c61673-8159-49b2-b6ed-4b8c3dd127e4","system_id":"levelo_inurba_marseille","lat":43.25085,"lon":5.39518,"is_reserved":false,"is_disabled":false,"rental_uris":{"android":"levelo://app?vid=70c61673-8159-49b2-b6ed-4b8c3dd127e4","ios":"levelo://app?vid=70c61673-8159-49b2-b6ed-4b8c3dd127e4"},"vehicle_type_id":"4","last_reported":1733232039,"current_range_meters":38800,"station_id":"ce4bhm12rcd13ifvqgkg","pricing_plan_id":"cebpf4jnsgd1na2vs0mg"},{"bike_id":"cec39c51-4930-4285-8177-5a6279c7f4d1","system_id":"levelo_inurba_marseille","lat":43.30785,"lon":5.37648,"is_reserved":false,"is_disabled":false,"rental_uris":{"android":"levelo://app?vid=cec39c51-4930-4285-8177-5a6279c7f4d1","ios":"levelo://app?vid=cec39c51-4930-4285-8177-5a6279c7f4d1"},"vehicle_type_id":"4","last_reported":1733232039,"current_range_meters":26000,"station_id":"ce4bgv92rcd13ifvqcq0","pricing_plan_id":"cebpf4jnsgd1na2vs0mg"},{"bike_id":"b3a8ed75-6ec5-42a0-b33b-640199f567d2","system_id":"levelo_inurba_marseille","lat":43.27967,"lon":5.38731,"is_reserved":false,"is_disabled":false,"rental_uris":{"android":"levelo://app?vid=b3a8ed75-6ec5-42a0-b33b-640199f567d2","ios":"levelo://app?vid=b3a8ed75-6ec5-42a0-b33b-640199f567d2"},"vehicle_type_id":"4","last_reported":1733232039,"current_range_meters":12800,"station_id":"ce4bhg12rcd13ifvqf80","pricing_plan_id":"cebpf4jnsgd1na2vs0mg"},{"bike_id":"c5d0f9b8-bffd-4a47-94a7-767a5dc1cdf7","system_id":"levelo_inurba_marseille","lat":43.29534,"lon":5.38545,"is_reserved":false,"is_disabled":false,"rental_uris":{"android":"levelo://app?vid=c5d0f9b8-bffd-4a47-94a7-767a5dc1cdf7","ios":"levelo://app?vid=c5d0f9b8-bffd-4a47-94a7-767a5dc1cdf7"},"vehicle_type_id":"4","last_reported":1733232039,"current_range_meters":24000,"station_id":"ce4bgih2rcd13ifvqba0","pricing_plan_id":"cebpf4jnsgd1na2vs0mg"},{"bike_id":"0a2f1f9e-26e1-44a7-8c5e-9e6a6f7abf3b","system_id":"levelo_inurba_marseille","lat":43.28996,"lon":5.35613,"is_reserved":false,"is_disabled":true,"rental_uris":{"android":"levelo://app?vid=0a2f1f9e-26e1-44a7-8c5e-9e6a6f7abf3b","ios":"levelo://app?vid=0a2f1f9e-26e1-44a7-8c5e-9e6a6f7abf3b"},"vehicle_type_id":"4","last_reported":1733232039,"current_range_meters":28400,"station_id":"ce4bhb92rcd13ifvqen0","pricing_plan_id":"cebpf4jnsgd1na2vs0mg"},{"bike_id":"54011dec-694c-4ef7-a1e4-2c1b4048fa72","system_id":"levelo_inurba_marseille","lat":43.27174,"lon":5.40997,"is_reserved":false,"is_disabled":false,"rental_uris":{"android":"levelo://app?vid=54011dec-694c-4ef7-a1e4-2c1b4048fa72","ios":"levelo://app?vid=54011dec-694c-4ef7-a1e4-2c1b4048fa72"},"vehicle_type_id":"4","last_reported":1733232039,"current_range_meters":36400,"station_id":"ce4bhl12rcd13ifvqgf0","pricing_plan_id":"cebpf4jnsgd1na2vs0mg"},{"bike_id":"d9594733-6e50-4ddc-8ecb-4d3854d84bf6","system_id":"levelo_inurba_marseille","lat":43.26207,"lon":5.37458,"is_reserved":false,"is_disabled":false,"rental_uris":{"android":"levelo://app?vid=d9594733-6e50-4ddc-8ecb-4d3854d84bf6","ios":"levelo://app?vid=d9594733-6e50-4ddc-8ecb-4d3854d84bf6"},