{"last_updated":1738163322,"ttl":60,"version":"2.2","data":{"bikes":[{"bike_id":"dea77bf3-ba3f-492a-9d81-e64d4a4025f6","system_id":"levelo_inurba_marseille","lat":43.28036,"lon":5.36947,"is_reserved":false,"is_disabled":false,"rental_uris":{"android":"levelo://app?vid=dea77bf3-ba3f-492a-9d81-e64d4a4025f6","ios":"levelo://app?vid=dea77bf3-ba3f-492a-9d81-e64d4a4025f6"},"vehicle_type_id":"4","last_reported":1738163323,"current_range_meters":24800,"station_id":"ce4bha12rcd13ifvqef0","pricing_plan_id":"cebpf4jnsgd1na2vs0mg"},{"bike_id":"ee5e61c1-197e-4ec6-883c-2846f16a43b2","system_id":"levelo_inurba_marseille","lat":43.26952,"lon":5.40247,"is_reserved":false,"is_disabled":false,"rental_uris":{"android":"levelo://app?vid=ee5e61c1-197e-4ec6-883c-2846f16a43b2","ios":"levelo://app?vid=ee5e61c1-197e-4ec6-883c-2846f16a43b2"},"vehicle_type_id":"4","last_reported":1738163323,"current_range_meters":8400,"station_id":"cjm6bp8fraef2m0cb0m0","pricing_plan_id":"cebpf4jnsgd1na2vs0mg"},{"bike_id":"041686b5-fe9c-4b96-a9ce-907665db98ab","system_id":"levelo_inurba_marseille","lat":43.295288,"lon":5.390351,"is_reserved":false,"is_disabled":false,"rental_uris":{"android":"levelo://app?vid=041686b5-fe9c-4b96-a9ce-907665db98ab","ios":"levelo://app?vid=041686b5-fe9c-4b96-a9ce-907665db98ab"},"vehicle_type_id":"4","last_reported":1738163323,"current_range_meters":35600,"station_id":"ce4bh3p2rcd13ifvqdp0","pricing_plan_id":"cebpf4jnsgd1na2vs0mg"},{"bike_id":"fbab4446-7869-47ab-83ba-487a546e0d24","system_id":"levelo_inurba_marseille","lat":43.24612,"lon":5.38168,"is_reserved":false,"is_disabled":false,"rental_uris":{"android":"levelo://app?vid=fbab4446-7869-47ab-83ba-487a546e0d24","ios":"levelo://app?vid=fbab4446-7869-47ab-83ba-487a546e0d24"},"vehicle_type_id":"4","last_reported":1738163323,"current_range_meters":22400,"station_id":"","pricing_plan_id":"cebpf4jnsgd1na2vs0mg"},{"bike_id":"a8dcf4d3-0fa3-476c-92e6-d0d14581a95b","system_id":"levelo_inurba_marseille","lat":43.26212,"lon":5.37437,"is_reserved":false,"is_disabled":false,"rental_uris":{"android":"levelo://app?vid=a8dcf4d3-0fa3-476c-92e6-d0d14581a95b","ios":"levelo://app?vid=a8dcf4d3-0fa3-476c-92e6-d0d14581a95b"},"vehicle_type_id":"4","last_reported":1738163323,"current_range_meters":38000,"station_id":"ce4bhgp2rcd13ifvqfc0","pricing_plan_id":"cebpf4jnsgd1na2vs0mg"},{"bike_id":"6e03df0c-fe46-4f90-85d9-72630160992d","system_id":"levelo_inurba_marseille","lat":43.26959,"lon":5.38635,"is_reserved":false,"is_disabled":false,"rental_uris":{"android":"levelo://app?vid=6e03df0c-fe46-4f90-85d9-72630160992d","ios":"levelo://app?vid=6e03df0c-fe46-4f90-85d9-72630160992d"},"vehicle_type_id":"4","last_reported":1738163323,"current_range_meters":39200,"station_id":"ce4bhh92rcd13ifvqfh0","pricing_plan_id":"cebpf4jnsgd1na2vs0mg"},{"bike_id":"56f49f8b-4bf2-4d84-97ce-54c8a66ab5f7","system_id":"levelo_inurba_marseille","lat":43.29971,"lon":5.371655,"is_reserved":false,"is_disabled":false,"rental_uris":{"android":"levelo://app?vid=56f49f8b-4bf2-4d84-97ce-54c8a66ab5f7","ios":"levelo://app?vid=56f49f8b-4bf2-4d84-97ce-54c8a66ab5f7"},"vehicle_type_id":"4","last_reported":1738163323,"current_range_meters":38800,"station_id":"ce4bgr92rcd13ifvqc7g","pricing_plan_id":"cebpf4jnsgd1na2vs0mg"},{"bike_id":"707cfefd-369c-4ee1-b4b7-07baa282312a","system_id":"levelo_inurba_marseille","lat":43.27943,"lon":5.41037,"is_reserved":false,"is_disabled":false,"rental_uris":{"android":"levelo://app?vid=707cfefd-369c-4ee1-b4b7-07baa282312a","ios":"levelo://app?vid=707cfefd-369c-4ee1-b4b7-07baa282312a"},"vehicle_type_id":"4","last_reported":1738163323,"current_range_meters":25200,"station_id":"ce4bhnp2rcd13ifvqh0g","pricing_plan_id":"cebpf4jnsgd1na2vs0mg"},{"bike_id":"f7f8117f-03ef-415e-85c6-2eeaf165e4f2","system_id":"levelo_inurba_marseille","lat":43.26263,"lon":5.40391,"is_reserved":false,"is_disabled":true,"rental_uris":{"android":"levelo://app?vid=f7f8117f-03ef-415e-85c6-2eeaf165e4f2","ios":"levelo://app?vid=f7f8117f-03ef-415e-85c6-2eeaf165e4f2"},"vehicle_type_id":"4","last_reported":1738163323,"current_range_meters":28800,"station_id":"","pricing_plan_id":"cebpf4jnsgd1na2vs0mg"},{"bike_id":"60b94ec1-a2e5-42fc-ad7c-d66b2ada9c44","system_id":"levelo_inurba_marseille","lat":43.23964,"lon":5.36635,"is_reserved":false,"is_disabled":false,"rental_uris":{"android":"levelo://app?vid=60b94ec1-a2e5-42fc-ad7c-d66b2ada9c44","ios":"levelo://app?vid=60b94ec1-a2e5-42fc-ad7c-d66b2ada9c44"},"vehicle_type_id":"4","last_reported":1738163323,"current_range_meters":38800,"station_id":"ce4bhi12rcd13ifvqfp0","pricing_plan_id":"cebpf4jnsgd1na2vs0mg"},{"bike_id":"b661b3b7-017b-4cae-872c-5ba6e14cff08","system_id":"levelo_inurba_marseille","lat":43.30207,"lon":5.39458,"is_reserved":false,"is_disabled":false,"rental_uris":{"android":"levelo://app?vid=b661b3b7-017b-4cae-872c-5ba6e14cff08","ios":"levelo://app?vid=b661b3b7-017b-4cae-872c-5ba6e14cff08"},"vehicle_type_id":"4","last_reported":1738163323,"current_range_meters":38800,"station_id":"ce4bh0p2rcd13ifvqd70","pricing_plan_id":"cebpf4jnsgd1na2vs0mg"},{"bike_id":"68640d3f-c334-4d54-b86b-f5e8a87a18e9","system_id":"levelo_inurba_marseille","lat":43.278205,"lon":5.407005,"is_reserved":false,"is_disabled":false,"rental_uris":{"android":"levelo://app?vid=68640d3f-c334-4d54-b86b-f5e8a87a18e9","ios":"levelo://app?vid=68640d3f-c334-4d54-b86b-f5e8a87a18e9"},"vehicle_type_id":"4","last_reported":1738163323,"current_range_meters":34800,"station_id":"ce4bhnh2rcd13ifvqgtg","pricing_plan_id":"cebpf4jnsgd1na2vs0mg"},{"bike_id":"269d9297-6dbf-4f05-98c0-e001f8e68811","system_id":"levelo_inurba_marseille","lat":43.25002,"lon":5.38948,"is_reserved":false,"is_disabled":false,"rental_uris":{"android":"levelo://app?vid=269d9297-6dbf-4f05-98c0-e001f8e68811","ios":"levelo://app?vid=269d9297-6dbf-4f05-98c0-e001f8e68811"},"vehicle_type_id":"4","last_reported":1738163323,"current_range_meters":36000,"station_id":"ce4bhgp2rcd13ifvqfd0","pricing_plan_id":"cebpf4jnsgd1na2vs0mg"},{"bike_id":"f93041b9-b8e0-42d2-8838-ad70483b616d","system_id":"levelo_inurba_marseille","lat":43.267714,"lon":5.394272,"is_reserved":false,"is_disabled":false,"rental_uris":{"android":"levelo://app?vid=f93041b9-b8e0-42d2-8838-ad70483b616d","ios":"levelo://app?vid=f93041b9-b8e0-42d2-8838-ad70483b616d"},"vehicle_type_id":"4","last_reported":1738163323,"current_range_meters":17200,"station_id":"ce4bhh12rcd13ifvqfg0","pricing_plan_id":"cebpf4jnsgd1na2vs0mg"},{"bike_id":"adc2855c-ce96-4ab1-9132-d4c82e18f627","system_id":"levelo_inurba_marseille","lat":43.26497,"lon":5.39544,"is_reserved":false,"is_disabled":false,"rental_uris":{"android":"levelo://app?vid=adc2855c-ce96-4ab1-9132-d4c82e18f627","ios":"levelo://app?vid=adc2855c-ce96-4ab1-9132-d4c82e18f627"},"vehicle_type_id":"4","last_reported":1738163323,"current_range_meters":32400,"station_id":"ce4bhi12rcd13ifvqfq0","pricing_plan_id":"cebpf4jnsgd1na2vs0mg"},{"bike_id":"3fbfbd60-098f-4bf5-a9e5-f84a629323b0","system_id":"levelo_inurba_marseille","lat":43.28614,"lon":5.3511,"is_reserved":false,"is_disabled":false,"rental_uris":{"android":"levelo://app?vid=3fbfbd60-098f-4bf5-a9e5-f84a629323b0","ios":"levelo://app?vid=3fbfbd60-098f-4bf5-a9e5-f84a629323b0"},"vehicle_type_id":"4","last_reported":1738163323,"current_range_meters":19200,"station_id":"ce4bhch2rcd13ifvqeug","pricing_plan_id":"cebpf4jnsgd1na2vs0mg"},{"bike_id":"df517269-7978-40e7-92b9-aba0b6440d0d","system_id":"levelo_inurba_marseille","lat":43.27372,"lon":5.36225,"is_reserved":false,"is_disabled":false,"rental_uris":{"android":"levelo://app?vid=df517269-7978-40e7-92b9-aba0b6440d0d","ios":"levelo://app?vid=df517269-7978-40e7-92b9-aba0b6440d0d"},"vehicle_type_id":"4","last_reported":1738163323,"current_range_meters":28800,"station_id":"ce4bhbh2rcd13ifvqeo0","pricing_plan_id":"cebpf4jnsgd1na2vs0mg"},{"bike_id":"96c6d005-88bb-4fd6-98f4-0a014c553eb8","system_id":"levelo_inurba_marseille","lat":43.33017,"lon":5.39039,"is_reserved":false,"is_disabled":false,"rental_uris":{"android":"levelo://app?vid=96c6d005-88bb-4fd6-98f4-0a014c553eb8","ios":"levelo://app?vid=96c6d005-88bb-4fd6-98f4-0a014c553eb8"},"vehicle_type_id":"4","last_reported":1738163323,"current_range_meters":38800,"station_id":"ce4bhr92rcd13ifvqhrg","pricing_plan_id":"cebpf4jnsgd1na2vs0mg"},{"bike_id":"73c4a85e-c64d-40c4-9c70-e2b4caa8d957","system_id":"levelo_inurba_marseille","lat":43.27811,"lon":5.4071,"is_reserved":false,"is_disabled":false,"rental_uris":{"android":"levelo://app?vid=73c4a85e-c64d-40c4-9c70-e2b4caa8d957","ios":"levelo://app?vid=73c4a85e-c64d-40c4-9c70-e2b4caa8d957"},"vehicle_type_id":"4","last_reported":1738163323,"current_range_meters":11200,"station_id":"ce4bhnh2rcd13ifvqgtg","pricing_plan_id":"cebpf4jnsgd1na2vs0mg"},{"bike_id":"98a3ba5e-7b1f-4ae4-a5ba-7108abb6a4b3","system_id":"levelo_inurba_marseille","lat":43.31483,"lon":5.37304,"is_reserved":false,"is_disabled":false,"rental_uris":{"android":"levelo://app?vid=98a3ba5e-7b1f-4ae4-a5ba-7108abb6a4b3","ios":"levelo://app?vid=98a3ba5e-7b1f-4ae4-a5ba-7108abb6a4b3"},"vehicle_type_id":"4","last_reported":1738163323,"current_range_meters":7200,"station_id":"ce4bgt12rcd13ifvqcd0","pricing_plan_id":"cebpf4jnsgd1na2vs0mg"},{"bike_id":"69899191-e293-497b-a27d-18f1e8ac236e","system_id":"levelo_inurba_marseille","lat":43.30062,"lon":5.39082,"is_reserved":false,"is_disabled":false,"rental_uris":{"android":"levelo://app?vid=69899191-e293-497b-a27d-18f1e8ac236e","ios":"levelo://app?vid=69899191-e293-497b-a27d-18f1e8ac236e"},"vehicle_type_id":"4","last_reported":1738163323,"current_range_meters":36800,"station_id":"ce4bh192rcd13ifvqdb0","pricing_plan_id":"cebpf4jnsgd1na2vs0mg"},{"bike_id":"e05d3339-457c-46fa-9827-97d4d0e79dfd","system_id":"levelo_inurba_marseille","lat":43.25875,"lon":5.39901,"is_reserved":false,"is_disabled":false,"rental_uris":{"android":"levelo://app?vid=e05d3339-457c-46fa-9827-97d4d0e79dfd","ios":"levelo://app?vid=e05d3339-457c-46fa-9827-97d4d0e79dfd"},"vehicle_type_id":"4","last_reported":1738163323,"current_range_meters":39200,"station_id":"ce4bhl92rcd13ifvqghg","pricing_plan_id":"cebpf4jnsgd1na2vs0mg"},{"bike_id":"ac0347e7-a4e7-4b02-bfa2-0ecaf65999dc","system_id":"levelo_inurba_marseille","lat":43.30953,"lon":5.39033,"is_reserved":false,"is_disabled":false,"rental_uris":{"android":"levelo://app?vid=ac0347e7-a4e7-4b02-bfa2-0ecaf65999dc","ios":"levelo://app?vid=ac0347e7-a4e7-4b02-bfa2-0ecaf65999dc"},"vehicle_type_id":"4","last_reported":1738163323,"current_range_meters":26000,"station_id":"ce4bgup2rcd13ifvqco0","pricing_plan_id":"cebpf4jnsgd1na2vs0mg"},{"bike_id":"9bd21267-26f6-4122-9567-2f0b5d4f790f","system_id":"levelo_inurba_marseille","lat":43.3236,"lon":5.38881,"is_reserved":false,"is_disabled":false,"rental_uris":{"android":"levelo://app?vid=9bd21267-26f6-4122-9567-2f0b5d4f790f","ios":"levelo://app?vid=9bd21267-26f6-4122-9567-2f0b5d4f790f"},"vehicle_type_id":"4","last_reported":1738163323,"current_range_meters":8400,"station_id":"ce4bhqp2rcd13ifvqhog","pricing_plan_id":"cebpf4jnsgd1na2vs0mg"},{"bike_id":"d6463cf5-d2eb-4922-82da-35b8aae097d6","system_id":"levelo_inurba_marseille","lat":43.30797,"lon":5.38143,"is_reserved":false,"is_disabled":false,"rental_uris":{"android":"levelo://app?vid=d6463cf5-d2eb-4922-82da-35b8aae097d6","ios":"levelo://app?vid=d6463cf5-d2eb-4922-82da-35b8aae097d6"},"vehicle_type_id":"4","last_reported":1738163323,"current_range_meters":27600,"station_id":"ce4bgt12rcd13ifvqce0","pricing_plan_id":"cebpf4jnsgd1na2vs0mg"},{"bike_id":"93128da9-dde1-46b2-80e9-7cd33681002e","system_id":"levelo_inurba_marseille","lat":43.30283,"lon":5.37714,"is_reserved":false,"is_disabled":false,"rental_uris":{"android":"levelo://app?vid=93128da9-dde1-46b2-80e9-7cd33681002e","ios":"levelo://app?vid=93128da9-dde1-46b2-80e9-7cd33681002e"},"vehicle_type_id":"4","last_reported":1738163323,"current_range_meters":11200,"station_id":"ce4bguh2rcd13ifvqcj0","pricing_plan_id":"cebpf4jnsgd1na2vs0mg"},{"bike_id":"62fa4956-a921-4fb6-aa16-b51e55abc994","system_id":"levelo_inurba_marseille","lat":43.26223,"lon":5.40466,"is_reserved":false,"is_disabled":false,"rental_uris":{"android":"levelo://app?vid=62fa4956-a921-4fb6-aa16-b51e55abc994","ios":"levelo://app?vid=62fa4956-a921-4fb6-aa16-b51e55abc994"},"vehicle_type_id":"4","last_reported":1738163323,"current_range_meters":11200,"station_id":"ce4bhmh2rcd13ifvqgmg","pricing_plan_id":"cebpf4jnsgd1na2vs0mg"},{"bike_id":"6846e24f-0f92-4d10-a09c-6464c645059c","system_id":"levelo_inurba_marseille","lat":43.27835,"lon":5.39212,"is_reserved":false,"is_disabled":false,"rental_uris":{"android":"levelo://app?vid=6846e24f-0f92-4d10-a09c-6464c645059c","ios":"levelo://app?vid=6846e24f-0f92-4d10-a09c-6464c645059c"},"vehicle_type_id":"4","last_reported":1738163323,"current_range_meters":32800,"station_id":"ce4bhjp2rcd13ifvqga0","pricing_plan_id":"cebpf4jnsgd1na2vs0mg"},{"bike_id":"88742122-ac11-41f2-878f-0f3cbb39e3ff","system_id":"levelo_inurba_marseille","lat":43.29321,"lon":5.41151,"is_reserved":false,"is_disabled":false,"rental_uris":{"android":"levelo://app?vid=88742122-ac11-41f2-878f-0f3cbb39e3ff","ios":"levelo://app?vid=88742122-ac11-41f2-878f-0f3cbb39e3ff"},"vehicle_type_id":"4","last_reported":1738163323,"current_range_meters":36000,"station_id":"","pricing_plan_id":"cebpf4jnsgd1na2vs0mg"},{"bike_id":"1c63fa7b-8bb3-4da5-8267-9c40ab75cc0b","system_id":"levelo_inurba_marseille","lat":43.33724,"lon":5.39186,"is_reserved":false,"is_disabled":false,"rental_uris":{"android":"levelo://app?vid=1c63fa7b-8bb3-4da5-8267-9c40ab75cc0b","ios":"levelo://app?vid=1c63fa7b-8bb3-4da5-8267-9c40ab75cc0b"},"vehicle_type_id":"4","last_reported":1738163323,"current_range_meters":38000,"station_id":"ce4bhr92rcd13ifvqhsg","pricing_plan_id":"cebpf4jnsgd1na2vs0mg"},{"bike_id":"e91c96b5-9be8-4d36-82c9-b84d1011de85","system_id":"levelo_inurba_marseille","lat":43.25097,"lon":5.39502,"is_reserved":false,"is_disabled":false,"rental_uris":{"android":"levelo://app?vid=e91c96b5-9be8-4d36-82c9-b84d1011de85","ios":"levelo://app?vid=e91c96b5-9be8-4d36-82c9-b84d1011de85"},"vehicle_type_id":"4","last_reported":1738163323,"current_range_meters":16800,"station_id":"ce4bhm12rcd13ifvqgkg","pricing_plan_id":"cebpf4jnsgd1na2vs0mg"},{"bike_id":"fb57aee5-301b-407c-a9d0-c23dec2dfbec","system_id":"levelo_inurba_marseille","lat":43.2737,"lon":5.36245,"is_reserved":false,"is_disabled":false,"rental_uris":{"android":"levelo://app?vid=fb57aee5-301b-407c-a9d0-c23dec2dfbec","ios":"levelo://app?vid=fb57aee5-301b-407c-a9d0-c23dec2dfbec"},"vehicle_type_id":"4","last_reported":1738163323,"current_range_meters":30000,"station_id":"ce4bhbh2rcd13ifvqeo0","pricing_plan_id":"cebpf4jnsgd1na2vs0mg"},{"bike_id":"5d4915e0-4a9f-4c36-821a-8bde58abc3cd","system_id":"levelo_inurba_marseille","lat":43.25112,"lon":5.40343,"is_reserved":false,"is_disabled":true,"rental_uris":{"android":"levelo://app?vid=5d4915e0-4a9f-4c36-821a-8bde58abc3cd","ios":"levelo://app?vid=5d4915e0-4a9f-4c36-821a-8bde58abc3cd"},"vehicle_type_id":"4","last_reported":1738163323,"current_range_meters":38800,"station_id":"ce4bhlh2rcd13ifvqgig","pricing_plan_id":"cebpf4jnsgd1na2vs0mg"},{"bike_id":"e9ee4796-d3ed-4c58-8a6b-07e24484c213","system_id":"levelo_inurba_marseille","lat":43.32469,"lon":5.36563,"is_reserved":false,"is_disabled":false,"rental_uris":{"android":"levelo://app?vid=e9ee4796-d3ed-4c58-8a6b-07e24484c213","ios":"levelo://app?vid=e9ee4796-d3ed-4c58-8a6b-07e24484c213"},"vehicle_type_id":"4","last_reported":1738163323,"current_range_meters":23200,"station_id":"ce4bhs12rcd13ifvqhvg","pricing_plan_id":"cebpf4jnsgd1na2vs0mg"},{"bike_id":"3e374112-fbcb-4a4c-9923-132aeda9cf24","system_id":"levelo_inurba_marseille","lat":43.29197,"lon":5.35808,"is_reserved":false,"is_disabled":false,"rental_uris":{"android":"levelo://app?vid=3e374112-fbcb-4a4c-9923-132aeda9cf24","ios":"levelo://app?vid=3e374112-fbcb-4a4c-9923-132aeda9cf24"},"vehicle_type_id":"4","last_reported":1738163323,"current_range_meters":13600,"station_id":"ce4bhb12rcd13ifvqel0","pricing_plan_id":"cebpf4jnsgd1na2vs0mg"},{"bike_id":"6325b2e4-1145-482e-a98b-ea9ba7994f1b","system_id":"levelo_inurba_marseille","lat":43.25934,"lon":5.40876,"is_reserved":false,"is_disabled":false,"rental_uris":{"android":"levelo://app?vid=6325b2e4-1145-482e-a98b-ea9ba7994f1b","ios":"levelo://app?vid=6325b2e4-1145-482e-a98b-ea9ba7994f1b"},"vehicle_type_id":"4","last_reported":1738163323,"current_range_meters":30800,"station_id":"ce4bhm92rcd13ifvqglg","pricing_plan_id":"cebpf4jnsgd1na2vs0mg"},{"bike_id":"4ee9812a-bfec-44dd-95a2-7e8fa1341ffd","system_id":"levelo_inurba_marseille","lat":43.30797,"lon":5.38157,"is_reserved":false,"is_disabled":false,"rental_uris":{"android":"levelo://app?vid=4ee9812a-bfec-44dd-95a2-7e8fa1341ffd","ios":"levelo://app?vid=4ee9812a-bfec-44dd-95a2-7e8fa1341ffd"},"vehicle_type_id":"4","last_reported":1738163323,"current_range_meters":34000,"station_id":"ce4bgt12rcd13ifvqce0","pricing_plan_id":"cebpf4jnsgd1na2vs0mg"},{"bike_id":"3e0a6bd6-ca8b-4431-a664-ab1d902045cc","system_id":"levelo_inurba_marseille","lat":43.28353,"lon":5.43233,"is_reserved":false,"is_disabled":false,"rental_uris":{"android":"levelo://app?vid=3e0a6bd6-ca8b-4431-a664-ab1d902045cc","ios":"levelo://app?vid=3e0a6bd6-ca8b-4431-a664-ab1d902045cc"},"vehicle_type_id":"4","last_reported":1738163323,"current_range_meters":38400,"station_id":"","pricing_plan_id":"cebpf4jnsgd1na2vs0mg"},{"bike_id":"0a7e7607-24fe-42d2-ac43-c29bfc549f3d","system_id":"levelo_inurba_marseille","lat":43.28443,"lon":5.39191,"is_reserved":false,"is_disabled":true,"rental_uris":{"android":"levelo://app?vid=0a7e7607-24fe-42d2-ac43-c29bfc549f3d","ios":"levelo://app?vid=0a7e7607-24fe-42d2-ac43-c29bfc549f3d"},"vehicle_type_id":"4","last_reported":1738163323,"current_range_meters":800,"station_id":"ce4bhoh2rcd13ifvqh5g","pricing_plan_id":"cebpf4jnsgd1na2vs0mg"},{"bike_id":"d6af585f-c468-474f-9bf8-9417f47a5f4b","system_id":"levelo_inurba_marseille","lat":43.31352,"lon":5.3672,"is_reserved":false,"is_disabled":false,"rental_uris":{"android":"levelo://app?vid=d6af585f-c468-474f-9bf8-9417f47a5f4b","ios":"levelo://app?vid=d6af585f-c468-474f-9bf8-9417f47a5f4b"},"vehicle_type_id":"4","last_reported":1738163323,"current_range_meters":38800,"station_id":"ce4bgr92rcd13ifvqc6g","pricing_plan_id":"cebpf4jnsgd1na2vs0mg"},{"bike_id":"e5ca479d-ca21-4afd-a91c-850e79f8676a","system_id":"levelo_inurba_marseille","lat":43.29052,"lon":5.37159,"is_reserved":false,"is_disabled":false,"rental_uris":{"android":"levelo://app?vid=e5ca479d-ca21-4afd-a91c-850e79f8676a","ios":"levelo://app?vid=e5ca479d-ca21-4afd-a91c-850e79f8676a"},"vehicle_type_id":"4","last_reported":1738163323,"current_range_meters":38800,"station_id":"ce4bh5p2rcd13ifvqe4g","pricing_plan_id":"cebpf4jnsgd1na2vs0mg"},{"bike_id":"8d3819e1-dff8-492c-b97c-e2fc6c17bea3","system_id":"levelo_inurba_marseille","lat":43.30215,"lon":5.3946,"is_reserved":false,"is_disabled":false,"rental_uris":{"android":"levelo://app?vid=8d3819e1-dff8-492c-b97c-e2fc6c17bea3","ios":"levelo://app?vid=8d3819e1-dff8-492c-b97c-e2fc6c17bea3"},"vehicle_type_id":"4","last_reported":1738163323,"current_range_meters":24800,"station_id":"ce4bh0p2rcd13ifvqd70","pricing_plan_id":"cebpf4jnsgd1na2vs0mg"},{"bike_id":"3c6336fe-eb72-435e-95d3-a1bde11ea3e3","system_id":"levelo_inurba_marseille","lat":43.303617,"lon":5.418891,"is_reserved":false,"is_disabled":false,"rental_uris":{"android":"levelo://app?vid=3c6336fe-eb72-435e-95d3-a1bde11ea3e3","ios":"levelo://app?vid=3c6336fe-eb72-435e-95d3-a1bde11ea3e3"},"vehicle_type_id":"4","last_reported":1738163323,"current_range_meters":38400,"station_id":"ce4bhop2rcd13ifvqh7g","pricing_plan_id":"cebpf4jnsgd1na2vs0mg"},{"bike_id":"d1b1a642-ef47-44b0-ab2d-5a3556cba4ac","system_id":"levelo_inurba_marseille","lat":43.27314,"lon":5.39082,"is_reserved":false,"is_disabled":false,"rental_uris":{"android":"levelo://app?vid=d1b1a642-ef47-44b0-ab2d-5a3556cba4ac","ios":"levelo://app?vid=d1b1a642-ef47-44b0-ab2d-5a3556cba4ac"},"vehicle_type_id":"4","last_reported":1738163323,"current_range_meters":30000,"station_id":"ce4bhgp2rcd13ifvqfe0","pricing_plan_id":"cebpf4jnsgd1na2vs0mg"},{"bike_id":"1d3d6cfb-1973-4ef0-b19e-3b4fa3b6b11c","system_id":"levelo_inurba_marseille","lat":43.23956,"lon":5.36637,"is_reserved":false,"is_disabled":false,"rental_uris":{"android":"levelo://app?vid=1d3d6cfb-1973-4ef0-b19e-3b4fa3b6b11c","ios":"levelo://app?vid=1d3d6cfb-1973-4ef0-b19e-3b4fa3b6b11c"},"vehicle_type_id":"4","last_reported":1738163323,"current_range_meters":6800,"station_id":"ce4bhi12rcd13ifvqfp0","pricing_plan_id":"cebpf4jnsgd1na2vs0mg"},{"bike_id":"b7bc4200-4c00-4bb8-8698-bf6e911ed194","system_id":"levelo_inurba_marseille","lat":43.29445,"lon":5.39752,"is_reserved":false,"is_disabled":false,"rental_uris":{"android":"levelo://app?vid=b7bc4200-4c00-4bb8-8698-bf6e911ed194","ios":"levelo://app?vid=b7bc4200-4c00-4bb8-8698-bf6e911ed194"},"vehicle_type_id":"4","last_reported":1738163323,"current_range_meters":4800,"station_id":"ce4bh3h2rcd13ifvqdo0","pricing_plan_id":"cebpf4jnsgd1na2vs0mg"},{"bike_id":"722ce177-0c4a-4ce3-80ae-b0fd2c692aab","system_id":"levelo_inurba_marseille","lat":43.27214,"lon":5.39173,"is_reserved":false,"is_disabled":false,"rental_uris":{"android":"levelo://app?vid=722ce177-0c4a-4ce3-80ae-b0fd2c692aab","ios":"levelo://app?vid=722ce177-0c4a-4ce3-80ae-b0fd2c692aab"},"vehicle_type_id":"4","last_reported":1738163323,"current_range_meters":25200,"station_id":"ce4bhhp2rcd13ifvqfm0","pricing_plan_id":"cebpf4jnsgd1na2vs0mg"},{"bike_id":"2726ab7d-4283-49db-be89-c5e6b97f39e0","system_id":"levelo_inurba_marseille","lat":43.29732,"lon":5.37715,"is_reserved":false,"is_disabled":false,"rental_uris":{"android":"levelo://app?vid=2726ab7d-4283-49db-be89-c5e6b97f39e0","ios":"levelo://app?vid=2726ab7d-4283-49db-be89-c5e6b97f39e0"},"vehicle_type_id":"4","last_reported":1738163323,"current_range_meters":30800,"station_id":"ce4bgkh2rcd13ifvqbl0","pricing_plan_id":"cebpf4jnsgd1na2vs0mg"},{"bike_id":"9f7cbc3c-6e0b-4442-8c70-64c0b2a1452e","system_id":"levelo_inurba_marseille","lat":43.23057,"lon":5.35494,"is_reserved":false,"is_disabled":false,"rental_uris":{"android":"levelo://app?vid=9f7cbc3c-6e0b-4442-8c70-64c0b2a1452e","ios":"levelo://app?vid=9f7cbc3c-6e0b-4442-8c70-64c0b2a1452e"},"vehicle_type_id":"4","last_reported":1738163323,"current_range_meters":17600,"station_id":"cpo3342slgdg3j2ifvpg","pricing_plan_id":"cebpf4jnsgd1na2vs0mg"},{"bike_id":"c8a3a0ed-dff2-4f3c-87dc-2e6b47b1ad28","system_id":"levelo_inurba_marseille","lat":43.337444,"lon":5.374475,"is_reserved":false,"is_disabled":true,"rental_uris":{"android":"levelo://app?vid=c8a3a0ed-dff2-4f3c-87dc-2e6b47b1ad28","ios":"levelo://app?vid=c8a3a0ed-dff2-4f3c-87dc-2e6b47b1ad28"},"vehicle_type_id":"4","last_reported":1738163323,"current_range_meters":400,"station_id":"","pricing_plan_id":"cebpf4jnsgd1na2vs0mg"},{"bike_id":"56b21505-0aab-463f-8b11-cb19b7370689","system_id":"levelo_inurba_marseille","lat":43.30222,"lon":5.40044,"is_reserved":false,"is_disabled":false,"rental_uris":{"android":"levelo://app?vid=56b21505-0aab-463f-8b11-cb19b7370689","ios":"levelo://app?vid=56b21505-0aab-463f-8b11-cb19b7370689"},"vehicle_type_id":"4","last_reported":1738163323,"current_range_meters":8400,"station_id":"ce4bgvh2rcd13ifvqcs0","pricing_plan_id":"cebpf4jnsgd1na2vs0mg"},{"bike_id":"d323c514-0964-4830-ab1c-7976c00b8559","system_id":"levelo_inurba_marseille","lat":43.23154,"lon":5.43732,"is_reserved":false,"is_disabled":false,"rental_uris":{"android":"levelo://app?vid=d323c514-0964-4830-ab1c-7976c00b8559","ios":"levelo://app?vid=d323c514-0964-4830-ab1c-7976c00b8559"},"vehicle_type_id":"4","last_reported":1738163323,"current_range_meters":38800,"station_id":"ce4bhmp2rcd13ifvqgog","pricing_plan_id":"cebpf4jnsgd1na2vs0mg"},{"bike_id":"7ccc4015-ab66-4cd2-8b6c-f41e712512eb","system_id":"levelo_inurba_marseille","lat":43.2944,"lon":5.39754,"is_reserved":false,"is_disabled":false,"rental_uris":{"android":"levelo://app?vid=7ccc4015-ab66-4cd2-8b6c-f41e712512eb","ios":"levelo://app?vid=7ccc4015-ab66-4cd2-8b6c-f41e712512eb"},"vehicle_type_id":"4","last_reported":1738163323,"current_range_meters":25200,"station_id":"ce4bh3h2rcd13ifvqdo0","pricing_plan_id":"cebpf4jnsgd1na2vs0mg"},{"bike_id":"d7448807-8935-4e55-98f5-c3d99ed497f8","system_id":"levelo_inurba_marseille","lat":43.30281,"lon":5.37704,"is_reserved":false,"is_disabled":false,"rental_uris":{"android":"levelo://app?vid=d7448807-8935-4e55-98f5-c3d99ed497f8","ios":"levelo://app?vid=d7448807-8935-4e55-98f5-c3d99ed497f8"},"vehicle_type_id":"4","last_reported":1738163323,"current_range_meters":16000,"station_id":"ce4bguh2rcd13ifvqcj0","pricing_plan_id":"cebpf4jnsgd1na2vs0mg"},{"bike_id":"e055110e-8e50-4402-9b32-8745c1542d21","system_id":"levelo_inurba_marseille","lat":43.23962,"lon":5.36636,"is_reserved":false,"is_disabled":false,"rental_uris":{"android":"levelo://app?vid=e055110e-8e50-4402-9b32-8745c1542d21","ios":"levelo://app?vid=e055110e-8e50-4402-9b32-8745c1542d21"},"vehicle_type_id":"4","last_reported":1738163323,"current_range_meters":36800,"station_id":"ce4bhi12rcd13ifvqfp0","pricing_plan_id":"cebpf4jnsgd1na2vs0mg"},{"bike_id":"6acd79e6-d07e-437a-b9ff-a79f21491a8c","system_id":"levelo_inurba_marseille","lat":43.32542,"lon":5.41429,"is_reserved":false,"is_disabled":false,"rental_uris":{"android":"levelo://app?vid=6acd79e6-d07e-437a-b9ff-a79f21491a8c","ios":"levelo://app?vid=6acd79e6-d07e-437a-b9ff-a79f21491a8c"},"vehicle_type_id":"4","last_reported":1738163323,"current_range_meters":38800,"station_id":"ce4bhq12rcd13ifvqhhg","pricing_plan_id":"cebpf4jnsgd1na2vs0mg"},{"bike_id":"a99754b0-533c-4b68-ad89-42118685fbc7","system_id":"levelo_inurba_marseille","lat":43.280007,"lon":5.41679,"is_reserved":false,"is_disabled":false,"rental_uris":{"android":"levelo://app?vid=a99754b0-533c-4b68-ad89-42118685fbc7","ios":"levelo://app?vid=a99754b0-533c-4b68-ad89-42118685fbc7"},"vehicle_type_id":"4","last_reported":1738163323,"current_range_meters":24000,"station_id":"ce4bho12rcd13ifvqh1g","pricing_plan_id":"cebpf4jnsgd1na2vs0mg"},{"bike_id":"da360c82-7701-4bdd-8b1b-a4cdf5705823","system_id":"levelo_inurba_marseille","lat":43.30787,"lon":5.37651,"is_reserved":false,"is_disabled":false,"rental_uris":{"android":"levelo://app?vid=da360c82-7701-4bdd-8b1b-a4cdf5705823","ios":"levelo://app?vid=da360c82-7701-4bdd-8b1b-a4cdf5705823"},"vehicle_type_id":"4","last_reported":1738163323,"current_range_meters":20800,"station_id":"ce4bgv92rcd13ifvqcq0","pricing_plan_id":"cebpf4jnsgd1na2vs0mg"},{"bike_id":"015709e4-3507-439d-a8ec-79247d2d3816","system_id":"levelo_inurba_marseille","lat":43.2894,"lon":5.36388,"is_reserved":false,"is_disabled":false,"rental_uris":{"android":"levelo://app?vid=015709e4-3507-439d-a8ec-79247d2d3816","ios":"levelo://app?vid=015709e4-3507-439d-a8ec-79247d2d3816"},"vehicle_type_id":"4","last_reported":1738163323,"current_range_meters":37600,"station_id":"ce4bhc92rcd13ifvqetg","pricing_plan_id":"cebpf4jnsgd1na2vs0mg"},{"bike_id":"a217eca2-76bf-464c-aef5-0f63397f1780","system_id":"levelo_inurba_marseille","lat":43.29903,"lon":5.43674,"is_reserved":false,"is_disabled":false,"rental_uris":{"android":"levelo://app?vid=a217eca2-76bf-464c-aef5-0f63397f1780","ios":"levelo://app?vid=a217eca2-76bf-464c-aef5-0f63397f1780"},"vehicle_type_id":"4","last_reported":1738163323,"current_range_meters":14800,"station_id":"ce4bhpp2rcd13ifvqhfg","pricing_plan_id":"cebpf4jnsgd1na2vs0mg"},{"bike_id":"96111419-020e-4b85-8005-96ab906d2273","system_id":"levelo_inurba_marseille","lat":43.28154,"lon":5.42636,"is_reserved":false,"is_disabled":true,"rental_uris":{"android":"levelo://app?vid=96111419-020e-4b85-8005-96ab906d2273","ios":"levelo://app?vid=96111419-020e-4b85-8005-96ab906d2273"},"vehicle_type_id":"4","last_reported":1738163323,"current_range_meters":0,"station_id":"ce4bhnh2rcd13ifvqgug","pricing_plan_id":"cebpf4jnsgd1na2vs0mg"},{"bike_id":"6154358a-439a-46b5-9df8-fc726363e491","system_id":"levelo_inurba_marseille","lat":43.28875,"lon":5.38456,"is_reserved":false,"is_disabled":false,"rental_uris":{"android":"levelo://app?vid=6154358a-439a-46b5-9df8-fc726363e491","ios":"levelo://app?vid=6154358a-439a-46b5-9df8-fc726363e491"},"vehicle_type_id":"4","last_reported":1738163323,"current_range_meters":8000,"station_id":"","pricing_plan_id":"cebpf4jnsgd1na2vs0mg"},{"bike_id":"9838cc78-2b53-49d3-ae13-82df62c4fd64","system_id":"levelo_inurba_marseille","lat":43.28412,"lon":5.40934,"is_reserved":false,"is_disabled":true,"rental_uris":{"android":"levelo://app?vid=9838cc78-2b53-49d3-ae13-82df62c4fd64","ios":"levelo://app?vid=9838cc78-2b53-49d3-ae13-82df62c4fd64"},"vehicle_type_id":"4","last_reported":1738163323,"current_range_meters":0,"station_id":"","pricing_plan_id":"cebpf4jnsgd1na2vs0mg"},{"bike_id":"a765fe06-018c-4a73-898c-2082c09f528c","system_id":"levelo_inurba_marseille","lat":43.27197,"lon":5.40986,"is_reserved":false,"is_disabled":false,"rental_uris":{"android":"levelo://app?vid=a765fe06-018c-4a73-898c-2082c09f528c","ios":"levelo://app?vid=a765fe06-018c-4a73-898c-2082c09f528c"},"vehicle_type_id":"4","last_reported":1738163323,"current_range_meters":27200,"station_id":"ce4bhl12rcd13ifvqgf0","pricing_plan_id":"cebpf4jnsgd1na2vs0mg"},{"bike_id":"c01c3492-3b23-45a3-8aa8-ecd597d43db6","system_id":"levelo_inurba_marseille","lat":43.33017,"lon":5.39037,"is_reserved":false,"is_disabled":false,"rental_uris":{"android":"levelo://app?vid=c01c3492-3b23-45a3-8aa8-ecd597d43db6","ios":"levelo://app?vid=c01c3492-3b23-45a3-8aa8-ecd597d43db6"},"vehicle_type_id":"4","last_reported":1738163323,"current_range_meters":16400,"station_id":"ce4bhr92rcd13ifvqhrg","pricing_plan_id":"cebpf4jnsgd1na2vs0mg"},{"bike_id":"17d275f7-c680-4bcd-b65f-9474194cc8b5","system_id":"levelo_inurba_marseille","lat":43.28708,"lon":5.39983,"is_reserved":false,"is_disabled":false,"rental_uris":{"android":"levelo://app?vid=17d275f7-c680-4bcd-b65f-9474194cc8b5","ios":"levelo://app?vid=17d275f7-c680-4bcd-b65f-9474194cc8b5"},"vehicle_type_id":"4","last_reported":1738163323,"current_range_meters":36000,"station_id":"ce4bho92rcd13ifvqh3g","pricing_plan_id":"cebpf4jnsgd1na2vs0mg"},{"bike_id":"c4b612cf-bd83-4c1a-9a6d-5ad5ed4741f9","system_id":"levelo_inurba_marseille","lat":43.27181,"lon":5.41003,"is_reserved":false,"is_disabled":false,"rental_uris":{"android":"levelo://app?vid=c4b612cf-bd83-4c1a-9a6d-5ad5ed4741f9","ios":"levelo://app?vid=c4b612cf-bd83-4c1a-9a6d-5ad5ed4741f9"},"vehicle_type_id":"4","last_reported":1738163323,"current_range_meters":39200,"station_id":"ce4bhl12rcd13ifvqgf0","pricing_plan_id":"cebpf4jnsgd1na2vs0mg"},{"bike_id":"cebc1cc3-2475-48cb-aa41-05d47858d44e","system_id":"levelo_inurba_marseille","lat":43.29903,"lon":5.43664,"is_reserved":false,"is_disabled":false,"rental_uris":{"android":"levelo://app?vid=cebc1cc3-2475-48cb-aa41-05d47858d44e","ios":"levelo://app?vid=cebc1cc3-2475-48cb-aa41-05d47858d44e"},"vehicle_type_id":"4","last_reported":1738163323,"current_range_meters":27200,"station_id":"ce4bhpp2rcd13ifvqhfg","pricing_plan_id":"cebpf4jnsgd1na2vs0mg"},{"bike_id":"e358e4d6-8f5f-469b-beed-eded1e001bb0","system_id":"levelo_inurba_marseille","lat":43.29917,"lon":5.37477,"is_reserved":false,"is_disabled":false,"rental_uris":{"android":"levelo://app?vid=e358e4d6-8f5f-469b-beed-eded1e001bb0","ios":"levelo://app?vid=e358e4d6-8f5f-469b-beed-eded1e001bb0"},"vehicle_type_id":"4","last_reported":1738163323,"current_range_meters":14000,"station_id":"ce4bgjh2rcd13ifvqbg0","pricing_plan_id":"cebpf4jnsgd1na2vs0mg"},{"bike_id":"d09fbc8b-1664-4bee-b0d4-ddf0f6322931","system_id":"levelo_inurba_marseille","lat":43.30553,"lon":5.36564,"is_reserved":false,"is_disabled":false,"rental_uris":{"android":"levelo://app?vid=d09fbc8b-1664-4bee-b0d4-ddf0f6322931","ios":"levelo://app?vid=d09fbc8b-1664-4bee-b0d4-ddf0f6322931"},"vehicle_type_id":"4","last_reported":1738163323,"current_range_meters":29600,"station_id":"ce4bgs12rcd13ifvqcag","pricing_plan_id":"cebpf4jnsgd1na2vs0mg"},{"bike_id":"1dcad5e8-7d4e-4f6d-91f6-0f4d2cc97870","system_id":"levelo_inurba_marseille","lat":43.24167,"lon":5.39729,"is_reserved":false,"is_disabled":false,"rental_uris":{"android":"levelo://app?vid=1dcad5e8-7d4e-4f6d-91f6-0f4d2cc97870","ios":"levelo://app?vid=1dcad5e8-7d4e-4f6d-91f6-0f4d2cc97870"},"vehicle_type_id":"4","last_reported":1738163323,"current_range_meters":8000,"station_id":"ce4bhn12rcd13ifvqgpg","pricing_plan_id":"cebpf4jnsgd1na2vs0mg"},{"bike_id":"542c2176-6593-4f82-a71f-f1de3a92562f","system_id":"levelo_inurba_marseille","lat":43.22932,"lon":5.35382,"is_reserved":false,"is_disabled":false,"rental_uris":{"android":"levelo://app?vid=542c2176-6593-4f82-a71f-f1de3a92562f","ios":"levelo://app?vid=542c2176-6593-4f82-a71f-f1de3a92562f"},"vehicle_type_id":"4","last_reported":1738163323,"current_range_meters":38800,"station_id":"cpo3532slgdg3j2ikp40","pricing_plan_id":"cebpf4jnsgd1na2vs0mg"},{"bike_id":"09130998-2642-499c-96ff-0f01aafa31f5","system_id":"levelo_inurba_marseille","lat":43.29701,"lon":5.36612,"is_reserved":false,"is_disabled":false,"rental_uris":{"android":"levelo://app?vid=09130998-2642-499c-96ff-0f01aafa31f5","ios":"levelo://app?vid=09130998-2642-499c-96ff-0f01aafa31f5"},"vehicle_type_id":"4","last_reported":1738163323,"current_range_meters":29600,"station_id":"ce4bgn12rcd13ifvqbt0","pricing_plan_id":"cebpf4jnsgd1na2vs0mg"},{"bike_id":"d979d8d2-ec65-47af-9229-e4270aab279a","system_id":"levelo_inurba_marseille","lat":43.2306,"lon":5.35505,"is_reserved":false,"is_disabled":false,"rental_uris":{"android":"levelo://app?vid=d979d8d2-ec65-47af-9229-e4270aab279a","ios":"levelo://app?vid=d979d8d2-ec65-47af-9229-e4270aab279a"},"vehicle_type_id":"4","last_reported":1738163323,"current_range_meters":18800,"station_id":"cpo3342slgdg3j2ifvpg","pricing_plan_id":"cebpf4jnsgd1na2vs0mg"},{"bike_id":"beec82ff-6bac-4064-befa-4bdf4421761b","system_id":"levelo_inurba_marseille","lat":43.3173,"lon":5.42431,"is_reserved":false,"is_disabled":false,"rental_uris":{"android":"levelo://app?vid=beec82ff-6bac-4064-befa-4bdf4421761b","ios":"levelo://app?vid=beec82ff-6bac-4064-befa-4bdf4421761b"},"vehicle_type_id":"4","last_reported":1738163323,"current_range_meters":35600,"station_id":"ce4bhp92rcd13ifvqhbg","pricing_plan_id":"cebpf4jnsgd1na2vs0mg"},{"bike_id":"aec583a2-45af-40e8-a122-88c6ef8524d3","system_id":"levelo_inurba_marseille","lat":43.30794,"lon":5.37352,"is_reserved":false,"is_disabled":false,"rental_uris":{"android":"levelo://app?vid=aec583a2-45af-40e8-a122-88c6ef8524d3","ios":"levelo://app?vid=aec583a2-45af-40e8-a122-88c6ef8524d3"},"vehicle_type_id":"4","last_reported":1738163323,"current_range_meters":26800,"station_id":"","pricing_plan_id":"cebpf4jnsgd1na2vs0mg"},{"bike_id":"a12460e5-ac14-4bf6-bb58-e47f6b7def4d","system_id":"levelo_inurba_marseille","lat":43.31758,"lon":5.39014,"is_reserved":false,"is_disabled":false,"rental_uris":{"android":"levelo://app?vid=a12460e5-ac14-4bf6-bb58-e47f6b7def4d","ios":"levelo://app?vid=a12460e5-ac14-4bf6-bb58-e47f6b7def4d"},"vehicle_type_id":"4","last_reported":1738163323,"current_range_meters":20000,"station_id":"ce4bhqp2rcd13ifvqhng","pricing_plan_id":"cebpf4jnsgd1na2vs0mg"},{"bike_id":"fd1b0acf-be7b-4b50-80ff-b4d511d71416","system_id":"levelo_inurba_marseille","lat":43.31344,"lon":5.36768,"is_reserved":false,"is_disabled":false,"rental_uris":{"android":"levelo://app?vid=fd1b0acf-be7b-4b50-80ff-b4d511d71416","ios":"levelo://app?vid=fd1b0acf-be7b-4b50-80ff-b4d511d71416"},"vehicle_type_id":"4","last_reported":1738163323,"current_range_meters":12000,"station_id":"ce4bgr92rcd13ifvqc6g","pricing_plan_id":"cebpf4jnsgd1na2vs0mg"},{"bike_id":"815df10a-417d-4ac6-a444-446308a0c916","system_id":"levelo_inurba_marseille","lat":43.27372,"lon":5.36257,"is_reserved":false,"is_disabled":false,"rental_uris":{"android":"levelo://app?vid=815df10a-417d-4ac6-a444-446308a0c916","ios":"levelo://app?vid=815df10a-417d-4ac6-a444-446308a0c916"},"vehicle_type_id":"4","last_reported":1738163323,"current_range_meters":38800,"station_id":"ce4bhbh2rcd13ifvqeo0","pricing_plan_id":"cebpf4jnsgd1na2vs0mg"},{"bike_id":"a7fa174b-9e7a-480f-96ea-d7b68ff91040","system_id":"levelo_inurba_marseille","lat":43.29975,"lon":5.38497,"is_reserved":false,"is_disabled":true,"rental_uris":{"android":"levelo://app?vid=a7fa174b-9e7a-480f-96ea-d7b68ff91040","ios":"levelo://app?vid=a7fa174b-9e7a-480f-96ea-d7b68ff91040"},"vehicle_type_id":"4","last_reported":1738163323,"current_range_meters":34000,"station_id":"ce4bgj92rcd13ifvqbd0","pricing_plan_id":"cebpf4jnsgd1na2vs0mg"},{"bike_id":"d8b1c3f9-ff6e-4179-8423-4ba0d2a2af0e","system_id":"levelo_inurba_marseille","lat":43.33728,"lon":5.39162,"is_reserved":false,"is_disabled":false,"rental_uris":{"android":"levelo://app?vid=d8b1c3f9-ff6e-4179-8423-4ba0d2a2af0e","ios":"levelo://app?vid=d8b1c3f9-ff6e-4179-8423-4ba0d2a2af0e"},"vehicle_type_id":"4","last_reported":1738163323,"current_range_meters":38800,"station_id":"ce4bhr92rcd13ifvqhsg","pricing_plan_id":"cebpf4jnsgd1na2vs0mg"},{"bike_id":"7d4e6bce-30f1-4aec-adc8-d3b709dae326","system_id":"levelo_inurba_marseille","lat":43.28696,"lon":5.37406,"is_reserved":false,"is_disabled":false,"rental_uris":{"android":"levelo://app?vid=7d4e6bce-30f1-4aec-adc8-d3b709dae326","ios":"levelo://app?vid=7d4e6bce-30f1-4aec-adc8-d3b709dae326"},"vehicle_type_id":"4","last_reported":1738163323,"current_range_meters":36400,"station_id":"ce4bh3p2rcd13ifvqdq0","pricing_plan_id":"cebpf4jnsgd1na2vs0mg"},{"bike_id":"42d87150-9c0e-420b-919d-c5d7697d840c","system_id":"levelo_inurba_marseille","lat":43.33033,"lon":5.39036,"is_reserved":false,"is_disabled":false,"rental_uris":{"android":"levelo://app?vid=42d87150-9c0e-420b-919d-c5d7697d840c","ios":"levelo://app?vid=42d87150-9c0e-420b-919d-c5d7697d840c"},"vehicle_type_id":"4","last_reported":1738163323,"current_range_meters":38000,"station_id":"ce4bhr92rcd13ifvqhrg","pricing_plan_id":"cebpf4jnsgd1na2vs0mg"},{"bike_id":"91394c05-5d2c-4802-8f5f-6f60929bbe7d","system_id":"levelo_inurba_marseille","lat":43.26782,"lon":5.39411,"is_reserved":false,"is_disabled":false,"rental_uris":{"android":"levelo://app?vid=91394c05-5d2c-4802-8f5f-6f60929bbe7d","ios":"levelo://app?vid=91394c05-5d2c-4802-8f5f-6f60929bbe7d"},"vehicle_type_id":"4","last_reported":1738163323,"current_range_meters":36800,"station_id":"ce4bhh12rcd13ifvqfg0","pricing_plan_id":"cebpf4jnsgd1na2vs0mg"},{"bike_id":"079e5888-ba98-4a94-9462-980624eb2b46","system_id":"levelo_inurba_marseille","lat":43.30558,"lon":5.36543,"is_reserved":false,"is_disabled":false,"rental_uris":{"android":"levelo://app?vid=079e5888-ba98-4a94-9462-980624eb2b46","ios":"levelo://app?vid=079e5888-ba98-4a94-9462-980624eb2b46"},"vehicle_type_id":"4","last_reported":1738163323,"current_range_meters":23200,"station_id":"ce4bgs12rcd13ifvqcag","pricing_plan_id":"cebpf4jnsgd1na2vs0mg"},{"bike_id":"f4dd74a9-a4e1-4171-8564-2f3d5f39ace6","system_id":"levelo_inurba_marseille","lat":43.27822,"lon":5.40701,"is_reserved":false,"is_disabled":false,"rental_uris":{"android":"levelo://app?vid=f4dd74a9-a4e1-4171-8564-2f3d5f39ace6","ios":"levelo://app?vid=f4dd74a9-a4e1-4171-8564-2f3d5f39ace6"},"vehicle_type_id":"4","last_reported":1738163323,"current_range_meters":36000,"station_id":"ce4bhnh2rcd13ifvqgtg","pricing_plan_id":"cebpf4jnsgd1na2vs0mg"},{"bike_id":"3c9c9088-9c27-4609-bc62-8218c0dc2be8","system_id":"levelo_inurba_marseille","lat":43.23187,"lon":5.35559,"is_reserved":false,"is_disabled":false,"rental_uris":{"android":"levelo://app?vid=3c9c9088-9c27-4609-bc62-8218c0dc2be8","ios":"levelo://app?vid=3c9c9088-9c27-4609-bc62-8218c0dc2be8"},"vehicle_type_id":"4","last_reported":1738163323,"current_range_meters":39200,"station_id":"ce4bhu92rcd13ifvqi70","pricing_plan_id":"cebpf4jnsgd1na2vs0mg"},{"bike_id":"b706ee1a-d897-43ba-94d9-1c4fa11f12be","system_id":"levelo_inurba_marseille","lat":43.337444,"lon":5.374475,"is_reserved":false,"is_disabled":false,"rental_uris":{"android":"levelo://app?vid=b706ee1a-d897-43ba-94d9-1c4fa11f12be","ios":"levelo://app?vid=b706ee1a-d897-43ba-94d9-1c4fa11f12be"},"vehicle_type_id":"4","last_reported":1738163323,"current_range_meters":30800,"station_id":"","pricing_plan_id":"cebpf4jnsgd1na2vs0mg"},{"bike_id":"d39706cf-4521-445c-b3de-d2f0addf77b2","system_id":"levelo_inurba_marseille","lat":43.27986,"lon":5.41665,"is_reserved":false,"is_disabled":false,"rental_uris":{"android":"levelo://app?vid=d39706cf-4521-445c-b3de-d2f0addf77b2","ios":"levelo://app?vid=d39706cf-4521-445c-b3de-d2f0addf77b2"},"vehicle_type_id":"4","last_reported":1738163323,"current_range_meters":35200,"station_id":"ce4bho12rcd13ifvqh1g","pricing_plan_id":"cebpf4jnsgd1na2vs0mg"},{"bike_id":"a5f4d6e0-f085-446a-9a67-e76c6eed91fd","system_id":"levelo_inurba_marseille","lat":43.27682,"lon":5.38892,"is_reserved":false,"is_disabled":false,"rental_uris":{"android":"levelo://app?vid=a5f4d6e0-f085-446a-9a67-e76c6eed91fd","ios":"levelo://app?vid=a5f4d6e0-f085-446a-9a67-e76c6eed91fd"},"vehicle_type_id":"4","last_reported":1738163323,"current_range_meters":24800,"station_id":"ce4bhi12rcd13ifvqfo0","pricing_plan_id":"cebpf4jnsgd1na2vs0mg"},{"bike_id":"53fa82d1-eb43-4e19-8ac1-1347a372b80a","system_id":"levelo_inurba_marseille","lat":43.25862,"lon":5.39906,"is_reserved":false,"is_disabled":false,"rental_uris":{"android":"levelo://app?vid=53fa82d1-eb43-4e19-8ac1-1347a372b80a","ios":"levelo://app?vid=53fa82d1-eb43-4e19-8ac1-1347a372b80a"},"vehicle_type_id":"4","last_reported":1738163323,"current_range_meters":33600,"station_id":"ce4bhl92rcd13ifvqghg","pricing_plan_id":"cebpf4jnsgd1na2vs0mg"},{"bike_id":"684d9683-ae51-473c-b687-84d92f8716cd","system_id":"levelo_inurba_marseille","lat":43.33721,"lon":5.39184,"is_reserved":false,"is_disabled":false,"rental_uris":{"android":"levelo://app?vid=684d9683-ae51-473c-b687-84d92f8716cd","ios":"levelo://app?vid=684d9683-ae51-473c-b687-84d92f8716cd"},"vehicle_type_id":"4","last_reported":1738163323,"current_range_meters":14000,"station_id":"ce4bhr92rcd13ifvqhsg","pricing_plan_id":"cebpf4jnsgd1na2vs0mg"},{"bike_id":"48cc1431-bf16-4836-809c-4ca6e6d8f2a9","system_id":"levelo_inurba_marseille","lat":43.26787,"lon":5.39415,"is_reserved":false,"is_disabled":false,"rental_uris":{"android":"levelo://app?vid=48cc1431-bf16-4836-809c-4ca6e6d8f2a9","ios":"levelo://app?vid=48cc1431-bf16-4836-809c-4ca6e6d8f2a9"},"vehicle_type_id":"4","last_reported":1738163323,"current_range_meters":24000,"station_id":"ce4bhh12rcd13ifvqfg0","pricing_plan_id":"cebpf4jnsgd1na2vs0mg"},{"bike_id":"d611e932-db5b-4782-82a8-4491bb0b9085","system_id":"levelo_inurba_marseille","lat":43.25106,"lon":5.40322,"is_reserved":false,"is_disabled":false,"rental_uris":{"android":"levelo://app?vid=d611e932-db5b-4782-82a8-4491bb0b9085","ios":"levelo://app?vid=d611e932-db5b-4782-82a8-4491bb0b9085"},"vehicle_type_id":"4","last_reported":1738163323,"current_range_meters":17200,"station_id":"ce4bhlh2rcd13ifvqgig","pricing_plan_id":"cebpf4jnsgd1na2vs0mg"},{"bike_id":"7427c665-2cc8-4882-8959-647a0d86024a","system_id":"levelo_inurba_marseille","lat":43.30354,"lon":5.41883,"is_reserved":false,"is_disabled":false,"rental_uris":{"android":"levelo://app?vid=7427c665-2cc8-4882-8959-647a0d86024a","ios":"levelo://app?vid=7427c665-2cc8-4882-8959-647a0d86024a"},"vehicle_type_id":"4","last_reported":1738163323,"current_range_meters":38800,"station_id":"ce4bhop2rcd13ifvqh7g","pricing_plan_id":"cebpf4jnsgd1na2vs0mg"},{"bike_id":"80cc3ce6-282d-4c9e-b73b-78694b8fc6c6","system_id":"levelo_inurba_marseille","lat":43.30602,"lon":5.37223,"is_reserved":false,"is_disabled":false,"rental_uris":{"android":"levelo://app?vid=80cc3ce6-282d-4c9e-b73b-78694b8fc6c6","ios":"levelo://app?vid=80cc3ce6-282d-4c9e-b73b-78694b8fc6c6"},"vehicle_type_id":"4","last_reported":1738163323,"current_range_meters":25200,"station_id":"ce4bgqh2rcd13ifvqc4g","pricing_plan_id":"cebpf4jnsgd1na2vs0mg"},{"bike_id":"53d46465-1c69-4274-9bb5-d6a4feb5e603","system_id":"levelo_inurba_marseille","lat":43.313594,"lon":5.36717,"is_reserved":false,"is_disabled":false,"rental_uris":{"android":"levelo://app?vid=53d46465-1c69-4274-9bb5-d6a4feb5e603","ios":"levelo://app?vid=53d46465-1c69-4274-9bb5-d6a4feb5e603"},"vehicle_type_id":"4","last_reported":1738163323,"current_range_meters":38800,"station_id":"ce4bgr92rcd13ifvqc6g","pricing_plan_id":"cebpf4jnsgd1na2vs0mg"},{"bike_id":"bd5c737c-bc35-4c8f-a9fb-2f17cc25ad82","system_id":"levelo_inurba_marseille","lat":43.29777,"lon":5.39335,"is_reserved":false,"is_disabled":false,"rental_uris":{"android":"levelo://app?vid=bd5c737c-bc35-4c8f-a9fb-2f17cc25ad82","ios":"levelo://app?vid=bd5c737c-bc35-4c8f-a9fb-2f17cc25ad82"},"vehicle_type_id":"4","last_reported":1738163323,"current_range_meters":14000,"station_id":"chh1huq6cuj3fo74tm60","pricing_plan_id":"cebpf4jnsgd1na2vs0mg"},{"bike_id":"05b11dd3-6a9c-4f38-8b8d-f8ec90669833","system_id":"levelo_inurba_marseille","lat":43.33603,"lon":5.4101,"is_reserved":false,"is_disabled":false,"rental_uris":{"android":"levelo://app?vid=05b11dd3-6a9c-4f38-8b8d-f8ec90669833","ios":"levelo://app?vid=05b11dd3-6a9c-4f38-8b8d-f8ec90669833"},"vehicle_type_id":"4","last_reported":1738163323,"current_range_meters":38800,"station_id":"ce4bhqh2rcd13ifvqhmg","pricing_plan_id":"cebpf4jnsgd1na2vs0mg"},{"bike_id":"b95c6824-888f-43b5-95fc-495e4bb07f42","system_id":"levelo_inurba_marseille","lat":43.26226,"lon":5.40449,"is_reserved":false,"is_disabled":false,"rental_uris":{"android":"levelo://app?vid=b95c6824-888f-43b5-95fc-495e4bb07f42","ios":"levelo://app?vid=b95c6824-888f-43b5-95fc-495e4bb07f42"},"vehicle_type_id":"4","last_reported":1738163323,"current_range_meters":38400,"station_id":"ce4bhmh2rcd13ifvqgmg","pricing_plan_id":"cebpf4jnsgd1na2vs0mg"},{"bike_id":"ab2c796a-c23b-4a3a-9534-777b873d6a05","system_id":"levelo_inurba_marseille","lat":43.24166,"lon":5.36403,"is_reserved":false,"is_disabled":false,"rental_uris":{"android":"levelo://app?vid=ab2c796a-c23b-4a3a-9534-777b873d6a05","ios":"levelo://app?vid=ab2c796a-c23b-4a3a-9534-777b873d6a05"},"vehicle_type_id":"4","last_reported":1738163323,"current_range_meters":16000,"station_id":"cpo36qri1sfpv3e86is0","pricing_plan_id":"cebpf4jnsgd1na2vs0mg"},{"bike_id":"60665302-7df0-4c33-9415-ddbe58f8cfd4","system_id":"levelo_inurba_marseille","lat":43.29551,"lon":5.42284,"is_reserved":false,"is_disabled":false,"rental_uris":{"android":"levelo://app?vid=60665302-7df0-4c33-9415-ddbe58f8cfd4","ios":"levelo://app?vid=60665302-7df0-4c33-9415-ddbe58f8cfd4"},"vehicle_type_id":"4","last_reported":1738163323,"current_range_meters":32000,"station_id":"ce4bhph2rcd13ifvqhdg","pricing_plan_id":"cebpf4jnsgd1na2vs0mg"},{"bike_id":"73fbaa45-d5ee-435c-a116-28331e7c9ff5","system_id":"levelo_inurba_marseille","lat":43.2558,"lon":5.38228,"is_reserved":false,"is_disabled":false,"rental_uris":{"android":"levelo://app?vid=73fbaa45-d5ee-435c-a116-28331e7c9ff5","ios":"levelo://app?vid=73fbaa45-d5ee-435c-a116-28331e7c9ff5"},"vehicle_type_id":"4","last_reported":1738163323,"current_range_meters":9200,"station_id":"ce4bhih2rcd13ifvqfs0","pricing_plan_id":"cebpf4jnsgd1na2vs0mg"},{"bike_id":"1ae0d9e2-f188-46c3-bfad-63b2aaa31071","system_id":"levelo_inurba_marseille","lat":43.29197,"lon":5.35805,"is_reserved":false,"is_disabled":false,"rental_uris":{"android":"levelo://app?vid=1ae0d9e2-f188-46c3-bfad-63b2aaa31071","ios":"levelo://app?vid=1ae0d9e2-f188-46c3-bfad-63b2aaa31071"},"vehicle_type_id":"4","last_reported":1738163323,"current_range_meters":39200,"station_id":"ce4bhb12rcd13ifvqel0","pricing_plan_id":"cebpf4jnsgd1na2vs0mg"},{"bike_id":"7023018f-a9cc-4d01-b59d-de75cc5a9d8d","system_id":"levelo_inurba_marseille","lat":43.30145,"lon":5.38089,"is_reserved":false,"is_disabled":false,"rental_uris":{"android":"levelo://app?vid=7023018f-a9cc-4d01-b59d-de75cc5a9d8d","ios":"levelo://app?vid=7023018f-a9cc-4d01-b59d-de75cc5a9d8d"},"vehicle_type_id":"4","last_reported":1738163323,"current_range_meters":33200,"station_id":"ce4bgjp2rcd13ifvqbh0","pricing_plan_id":"cebpf4jnsgd1na2vs0mg"},{"bike_id":"e17bae85-ac7a-4f85-afe6-b25e8db02192","system_id":"levelo_inurba_marseille","lat":43.31715,"lon":5.42402,"is_reserved":false,"is_disabled":false,"rental_uris":{"android":"levelo://app?vid=e17bae85-ac7a-4f85-afe6-b25e8db02192","ios":"levelo://app?vid=e17bae85-ac7a-4f85-afe6-b25e8db02192"},"vehicle_type_id":"4","last_reported":1738163323,"current_range_meters":37600,"station_id":"ce4bhp92rcd13ifvqhbg","pricing_plan_id":"cebpf4jnsgd1na2vs0mg"},{"bike_id":"fe713561-de3a-4ef9-bb4f-2954ca6b290f","system_id":"levelo_inurba_marseille","lat":43.29026,"lon":5.37572,"is_reserved":false,"is_disabled":false,"rental_uris":{"android":"levelo://app?vid=fe713561-de3a-4ef9-bb4f-2954ca6b290f","ios":"levelo://app?vid=fe713561-de3a-4ef9-bb4f-2954ca6b290f"},"vehicle_type_id":"4","last_reported":1738163323,"current_range_meters":10800,"station_id":"ce4bh692rcd13ifvqe90","pricing_plan_id":"cebpf4jnsgd1na2vs0mg"},{"bike_id":"246143f4-f460-4038-8231-c338d74d4ed7","system_id":"levelo_inurba_marseille","lat":43.25124,"lon":5.40303,"is_reserved":false,"is_disabled":false,"rental_uris":{"android":"levelo://app?vid=246143f4-f460-4038-8231-c338d74d4ed7","ios":"levelo://app?vid=246143f4-f460-4038-8231-c338d74d4ed7"},"vehicle_type_id":"4","last_reported":1738163323,"current_range_meters":26000,"station_id":"ce4bhlh2rcd13ifvqgig","pricing_plan_id":"cebpf4jnsgd1na2vs0mg"},{"bike_id":"f0f07e84-01c4-443b-852b-4e00b882c1d8","system_id":"levelo_inurba_marseille","lat":43.30805,"lon":5.43515,"is_reserved":false,"is_disabled":false,"rental_uris":{"android":"levelo://app?vid=f0f07e84-01c4-443b-852b-4e00b882c1d8","ios":"levelo://app?vid=f0f07e84-01c4-443b-852b-4e00b882c1d8"},"vehicle_type_id":"4","last_reported":1738163323,"current_range_meters":39200,"station_id":"ce4bhph2rcd13ifvqheg","pricing_plan_id":"cebpf4jnsgd1na2vs0mg"},{"bike_id":"c0f8261b-04d7-40c6-a29f-a96918706f61","system_id":"levelo_inurba_marseille","lat":43.283666,"lon":5.386318,"is_reserved":false,"is_disabled":false,"rental_uris":{"android":"levelo://app?vid=c0f8261b-04d7-40c6-a29f-a96918706f61","ios":"levelo://app?vid=c0f8261b-04d7-40c6-a29f-a96918706f61"},"vehicle_type_id":"4","last_reported":1738163323,"current_range_meters":24400,"station_id":"ce4bh492rcd13ifvqdvg","pricing_plan_id":"cebpf4jnsgd1na2vs0mg"},{"bike_id":"f96007ff-ae2d-4fea-b4ae-efa7c38d9f94","system_id":"levelo_inurba_marseille","lat":43.3064,"lon":5.40082,"is_reserved":false,"is_disabled":false,"rental_uris":{"android":"levelo://app?vid=f96007ff-ae2d-4fea-b4ae-efa7c38d9f94","ios":"levelo://app?vid=f96007ff-ae2d-4fea-b4ae-efa7c38d9f94"},"vehicle_type_id":"4","last_reported":1738163323,"current_range_meters":23200,"station_id":"ce4bh112rcd13ifvqda0","pricing_plan_id":"cebpf4jnsgd1na2vs0mg"},{"bike_id":"4e331cde-9b58-436f-9288-d266e9017c62","system_id":"levelo_inurba_marseille","lat":43.24185,"lon":5.3973,"is_reserved":false,"is_disabled":false,"rental_uris":{"android":"levelo://app?vid=4e331cde-9b58-436f-9288-d266e9017c62","ios":"levelo://app?vid=4e331cde-9b58-436f-9288-d266e9017c62"},"vehicle_type_id":"4","last_reported":1738163323,"current_range_meters":11200,"station_id":"ce4bhn12rcd13ifvqgpg","pricing_plan_id":"cebpf4jnsgd1na2vs0mg"},{"bike_id":"26d95b40-24c9-4b23-ba26-3ee7c953630f","system_id":"levelo_inurba_marseille","lat":43.26951,"lon":5.38645,"is_reserved":false,"is_disabled":false,"rental_uris":{"android":"levelo://app?vid=26d95b40-24c9-4b23-ba26-3ee7c953630f","ios":"levelo://app?vid=26d95b40-24c9-4b23-ba26-3ee7c953630f"},"vehicle_type_id":"4","last_reported":1738163323,"current_range_meters":36000,"station_id":"ce4bhh92rcd13ifvqfh0","pricing_plan_id":"cebpf4jnsgd1na2vs0mg"},{"bike_id":"3afe2907-14fe-40b0-8ce8-247215ed16c8","system_id":"levelo_inurba_marseille","lat":43.26942,"lon":5.389329,"is_reserved":false,"is_disabled":true,"rental_uris":{"android":"levelo://app?vid=3afe2907-14fe-40b0-8ce8-247215ed16c8","ios":"levelo://app?vid=3afe2907-14fe-40b0-8ce8-247215ed16c8"},"vehicle_type_id":"4","last_reported":1738163323,"current_range_meters":4000,"station_id":"ce4bhhh2rcd13ifvqfl0","pricing_plan_id":"cebpf4jnsgd1na2vs0mg"},{"bike_id":"e8e1f7c6-d773-4c38-bfcc-4a6d773355ce","system_id":"levelo_inurba_marseille","lat":43.22931,"lon":5.35382,"is_reserved":false,"is_disabled":false,"rental_uris":{"android":"levelo://app?vid=e8e1f7c6-d773-4c38-bfcc-4a6d773355ce","ios":"levelo://app?vid=e8e1f7c6-d773-4c38-bfcc-4a6d773355ce"},"vehicle_type_id":"4","last_reported":1738163323,"current_range_meters":38800,"station_id":"cpo3532slgdg3j2ikp40","pricing_plan_id":"cebpf4jnsgd1na2vs0mg"},{"bike_id":"f0ed3e26-8dad-4678-bee9-f6903412b754","system_id":"levelo_inurba_marseille","lat":43.28113,"lon":5.37833,"is_reserved":false,"is_disabled":false,"rental_uris":{"android":"levelo://app?vid=f0ed3e26-8dad-4678-bee9-f6903412b754","ios":"levelo://app?vid=f0ed3e26-8dad-4678-bee9-f6903412b754"},"vehicle_type_id":"4","last_reported":1738163323,"current_range_meters":37600,"station_id":"ce4bha12rcd13ifvqee0","pricing_plan_id":"cebpf4jnsgd1na2vs0mg"},{"bike_id":"b9c67b31-5b70-486d-ab63-ac678ea85199","system_id":"levelo_inurba_marseille","lat":43.2619,"lon":5.37456,"is_reserved":false,"is_disabled":false,"rental_uris":{"android":"levelo://app?vid=b9c67b31-5b70-486d-ab63-ac678ea85199","ios":"levelo://app?vid=b9c67b31-5b70-486d-ab63-ac678ea85199"},"vehicle_type_id":"4","last_reported":1738163323,"current_range_meters":23200,"station_id":"ce4bhgp2rcd13ifvqfc0","pricing_plan_id":"cebpf4jnsgd1na2vs0mg"},{"bike_id":"41c5bafb-ff9b-4482-80ef-bb42a31f89b7","system_id":"levelo_inurba_marseille","lat":43.29043,"lon":5.39978,"is_reserved":false,"is_disabled":false,"rental_uris":{"android":"levelo://app?vid=41c5bafb-ff9b-4482-80ef-bb42a31f89b7","ios":"levelo://app?vid=41c5bafb-ff9b-4482-80ef-bb42a31f89b7"},"vehicle_type_id":"4","last_reported":1738163323,"current_range_meters":36800,"station_id":"ce4bh392rcd13ifvqdm0","pricing_plan_id":"cebpf4jnsgd1na2vs0mg"},{"bike_id":"96c307b1-4cd8-4f34-89f4-9871d4c9c179","system_id":"levelo_inurba_marseille","lat":43.27376,"lon":5.36253,"is_reserved":false,"is_disabled":false,"rental_uris":{"android":"levelo://app?vid=96c307b1-4cd8-4f34-89f4-9871d4c9c179","ios":"levelo://app?vid=96c307b1-4cd8-4f34-89f4-9871d4c9c179"},"vehicle_type_id":"4","last_reported":1738163323,"current_range_meters":38800,"station_id":"ce4bhbh2rcd13ifvqeo0","pricing_plan_id":"cebpf4jnsgd1na2vs0mg"},{"bike_id":"b44e55cf-bb88-4765-93bb-b3366d96aec2","system_id":"levelo_inurba_marseille","lat":43.27373,"lon":5.36265,"is_reserved":false,"is_disabled":false,"rental_uris":{"android":"levelo://app?vid=b44e55cf-bb88-4765-93bb-b3366d96aec2","ios":"levelo://app?vid=b44e55cf-bb88-4765-93bb-b3366d96aec2"},"vehicle_type_id":"4","last_reported":1738163323,"current_range_meters":38800,"station_id":"ce4bhbh2rcd13ifvqeo0","pricing_plan_id":"cebpf4jnsgd1na2vs0mg"},{"bike_id":"2ee01295-203c-44f2-acac-171d52e6945f","system_id":"levelo_inurba_marseille","lat":43.26793,"lon":5.39412,"is_reserved":false,"is_disabled":false,"rental_uris":{"android":"levelo://app?vid=2ee01295-203c-44f2-acac-171d52e6945f","ios":"levelo://app?vid=2ee01295-203c-44f2-acac-171d52e6945f"},"vehicle_type_id":"4","last_reported":1738163323,"current_range_meters":38800,"station_id":"ce4bhh12rcd13ifvqfg0","pricing_plan_id":"cebpf4jnsgd1na2vs0mg"},{"bike_id":"85c0abed-efa8-4e0b-a265-86dc7d72090a","system_id":"levelo_inurba_marseille","lat":43.24065,"lon":5.37761,"is_reserved":false,"is_disabled":false,"rental_uris":{"android":"levelo://app?vid=85c0abed-efa8-4e0b-a265-86dc7d72090a","ios":"levelo://app?vid=85c0abed-efa8-4e0b-a265-86dc7d72090a"},"vehicle_type_id":"4","last_reported":1738163323,"current_range_meters":9600,"station_id":"ce4bhnp2rcd13ifvqgvg","pricing_plan_id":"cebpf4jnsgd1na2vs0mg"},{"bike_id":"dd195832-ff3f-4763-a260-74003ef7ff4c","system_id":"levelo_inurba_marseille","lat":43.29211,"lon":5.36055,"is_reserved":false,"is_disabled":false,"rental_uris":{"android":"levelo://app?vid=dd195832-ff3f-4763-a260-74003ef7ff4c","ios":"levelo://app?vid=dd195832-ff3f-4763-a260-74003ef7ff4c"},"vehicle_type_id":"4","last_reported":1738163323,"current_range_meters":33600,"station_id":"ce4bhbh2rcd13ifvqeqg","pricing_plan_id":"cebpf4jnsgd1na2vs0mg"},{"bike_id":"90e4f7fe-f8df-48d8-a322-dceedd2c6521","system_id":"levelo_inurba_marseille","lat":43.28701,"lon":5.37403,"is_reserved":false,"is_disabled":false,"rental_uris":{"android":"levelo://app?vid=90e4f7fe-f8df-48d8-a322-dceedd2c6521","ios":"levelo://app?vid=90e4f7fe-f8df-48d8-a322-dceedd2c6521"},"vehicle_type_id":"4","last_reported":1738163323,"current_range_meters":6400,"station_id":"ce4bh3p2rcd13ifvqdq0","pricing_plan_id":"cebpf4jnsgd1na2vs0mg"},{"bike_id":"a855a6ee-fa68-4120-925d-00ec05bf22ff","system_id":"levelo_inurba_marseille","lat":43.26805,"lon":5.40271,"is_reserved":false,"is_disabled":false,"rental_uris":{"android":"levelo://app?vid=a855a6ee-fa68-4120-925d-00ec05bf22ff","ios":"levelo://app?vid=a855a6ee-fa68-4120-925d-00ec05bf22ff"},"vehicle_type_id":"4","last_reported":1738163323,"current_range_meters":28000,"station_id":"ce501612rcd8frsf0b60","pricing_plan_id":"cebpf4jnsgd1na2vs0mg"},{"bike_id":"38fa3637-17b7-42eb-b673-b9efb2b91fee","system_id":"levelo_inurba_marseille","lat":43.29618,"lon":5.37169,"is_reserved":false,"is_disabled":false,"rental_uris":{"android":"levelo://app?vid=38fa3637-17b7-42eb-b673-b9efb2b91fee","ios":"levelo://app?vid=38fa3637-17b7-42eb-b673-b9efb2b91fee"},"vehicle_type_id":"4","last_reported":1738163323,"current_range_meters":16000,"station_id":"ce4bgnh2rcd13ifvqc0g","pricing_plan_id":"cebpf4jnsgd1na2vs0mg"},{"bike_id":"c1d1ce73-8f8f-42c4-8303-66858ad4f592","system_id":"levelo_inurba_marseille","lat":43.27498,"lon":5.42475,"is_reserved":false,"is_disabled":true,"rental_uris":{"android":"levelo://app?vid=c1d1ce73-8f8f-42c4-8303-66858ad4f592","ios":"levelo://app?vid=c1d1ce73-8f8f-42c4-8303-66858ad4f592"},"vehicle_type_id":"4","last_reported":1738163323,"current_range_meters":27600,"station_id":"ce4bhn92rcd13ifvqgrg","pricing_plan_id":"cebpf4jnsgd1na2vs0mg"},{"bike_id":"71f34f72-d3b7-46a5-9bd4-1fe057b3152f","system_id":"levelo_inurba_marseille","lat":43.22933,"lon":5.35383,"is_reserved":false,"is_disabled":false,"rental_uris":{"android":"levelo://app?vid=71f34f72-d3b7-46a5-9bd4-1fe057b3152f","ios":"levelo://app?vid=71f34f72-d3b7-46a5-9bd4-1fe057b3152f"},"vehicle_type_id":"4","last_reported":1738163323,"current_range_meters":39200,"station_id":"cpo3532slgdg3j2ikp40","pricing_plan_id":"cebpf4jnsgd1na2vs0mg"},{"bike_id":"20029bdd-9f9c-4ff9-86e4-5ba6ed30f46a","system_id":"levelo_inurba_marseille","lat":43.23161,"lon":5.4372,"is_reserved":false,"is_disabled":true,"rental_uris":{"android":"levelo://app?vid=20029bdd-9f9c-4ff9-86e4-5ba6ed30f46a","ios":"levelo://app?vid=20029bdd-9f9c-4ff9-86e4-5ba6ed30f46a"},"vehicle_type_id":"4","last_reported":1738163323,"current_range_meters":0,"station_id":"ce4bhmp2rcd13ifvqgog","pricing_plan_id":"cebpf4jnsgd1na2vs0mg"},{"bike_id":"2985637e-2459-4dc7-806f-992191cb28e4","system_id":"levelo_inurba_marseille","lat":43.32071,"lon":5.41539,"is_reserved":false,"is_disabled":false,"rental_uris":{"android":"levelo://app?vid=2985637e-2459-4dc7-806f-992191cb28e4","ios":"levelo://app?vid=2985637e-2459-4dc7-806f-992191cb28e4"},"vehicle_type_id":"4","last_reported":1738163323,"current_range_meters":39200,"station_id":"ce4bhq92rcd13ifvqhkg","pricing_plan_id":"cebpf4jnsgd1na2vs0mg"},{"bike_id":"d3c91d9a-016c-45aa-b131-078582c4ea49","system_id":"levelo_inurba_marseille","lat":43.28936,"lon":5.36641,"is_reserved":false,"is_disabled":false,"rental_uris":{"android":"levelo://app?vid=d3c91d9a-016c-45aa-b131-078582c4ea49","ios":"levelo://app?vid=d3c91d9a-016c-45aa-b131-078582c4ea49"},"vehicle_type_id":"4","last_reported":1738163323,"current_range_meters":17600,"station_id":"ce4bhap2rcd13ifvqek0","pricing_plan_id":"cebpf4jnsgd1na2vs0mg"},{"bike_id":"ecf6e76f-5faa-4cd6-aaac-ee69b01d2a2c","system_id":"levelo_inurba_marseille","lat":43.26193,"lon":5.37446,"is_reserved":false,"is_disabled":true,"rental_uris":{"android":"levelo://app?vid=ecf6e76f-5faa-4cd6-aaac-ee69b01d2a2c","ios":"levelo://app?vid=ecf6e76f-5faa-4cd6-aaac-ee69b01d2a2c"},"vehicle_type_id":"4","last_reported":1738163323,"current_range_meters":0,"station_id":"ce4bhgp2rcd13ifvqfc0","pricing_plan_id":"cebpf4jnsgd1na2vs0mg"},{"bike_id":"1b185599-de49-4c48-9611-1d6359af08f1","system_id":"levelo_inurba_marseille","lat":43.28848,"lon":5.35848,"is_reserved":false,"is_disabled":false,"rental_uris":{"android":"levelo://app?vid=1b185599-de49-4c48-9611-1d6359af08f1","ios":"levelo://app?vid=1b185599-de49-4c48-9611-1d6359af08f1"},"vehicle_type_id":"4","last_reported":1738163323,"current_range_meters":31200,"station_id":"ce4bhb12rcd13ifvqem0","pricing_plan_id":"cebpf4jnsgd1na2vs0mg"},{"bike_id":"fa377574-90b7-4096-8953-090f03f92c04","system_id":"levelo_inurba_marseille","lat":43.31325,"lon":5.397,"is_reserved":false,"is_disabled":false,"rental_uris":{"android":"levelo://app?vid=fa377574-90b7-4096-8953-090f03f92c04","ios":"levelo://app?vid=fa377574-90b7-4096-8953-090f03f92c04"},"vehicle_type_id":"4","last_reported":1738163323,"current_range_meters":38800,"station_id":"ce4bgvp2rcd13ifvqcu0","pricing_plan_id":"cebpf4jnsgd1na2vs0mg"},{"bike_id":"46f1f77e-98b6-4ba2-a396-1e36c4b255d1","system_id":"levelo_inurba_marseille","lat":43.28104,"lon":5.37833,"is_reserved":false,"is_disabled":false,"rental_uris":{"android":"levelo://app?vid=46f1f77e-98b6-4ba2-a396-1e36c4b255d1","ios":"levelo://app?vid=46f1f77e-98b6-4ba2-a396-1e36c4b255d1"},"vehicle_type_id":"4","last_reported":1738163323,"current_range_meters":18800,"station_id":"ce4bha12rcd13ifvqee0","pricing_plan_id":"cebpf4jnsgd1na2vs0mg"},{"bike_id":"c6601606-edbd-4fa4-a373-a6b94d4a2ed6","system_id":"levelo_inurba_marseille","lat":43.26675,"lon":5.38259,"is_reserved":false,"is_disabled":false,"rental_uris":{"android":"levelo://app?vid=c6601606-edbd-4fa4-a373-a6b94d4a2ed6","ios":"levelo://app?vid=c6601606-edbd-4fa4-a373-a6b94d4a2ed6"},"vehicle_type_id":"4","last_reported":1738163323,"current_range_meters":25200,"station_id":"ce4bhg92rcd13ifvqf90","pricing_plan_id":"cebpf4jnsgd1na2vs0mg"},{"bike_id":"ac57c428-a19a-41cd-ba3c-9d46f04d1b63","system_id":"levelo_inurba_marseille","lat":43.25484,"lon":5.3766,"is_reserved":false,"is_disabled":false,"rental_uris":{"android":"levelo://app?vid=ac57c428-a19a-41cd-ba3c-9d46f04d1b63","ios":"levelo://app?vid=ac57c428-a19a-41cd-ba3c-9d46f04d1b63"},"vehicle_type_id":"4","last_reported":1738163323,"current_range_meters":34000,"station_id":"ce4bhh12rcd13ifvqff0","pricing_plan_id":"cebpf4jnsgd1na2vs0mg"},{"bike_id":"1bb61175-66dc-4c57-ac7d-5617be01127e","system_id":"levelo_inurba_marseille","lat":43.29004,"lon":5.35611,"is_reserved":false,"is_disabled":true,"rental_uris":{"android":"levelo://app?vid=1bb61175-66dc-4c57-ac7d-5617be01127e","ios":"levelo://app?vid=1bb61175-66dc-4c57-ac7d-5617be01127e"},"vehicle_type_id":"4","last_reported":1738163323,"current_range_meters":0,"station_id":"ce4bhb92rcd13ifvqen0","pricing_plan_id":"cebpf4jnsgd1na2vs0mg"},{"bike_id":"2ec84c22-8666-467b-b9ab-b38e4ac8ff9f","system_id":"levelo_inurba_marseille","lat":43.29898,"lon":5.43657,"is_reserved":false,"is_disabled":true,"rental_uris":{"android":"levelo://app?vid=2ec84c22-8666-467b-b9ab-b38e4ac8ff9f","ios":"levelo://app?vid=2ec84c22-8666-467b-b9ab-b38e4ac8ff9f"},"vehicle_type_id":"4","last_reported":1738163323,"current_range_meters":33200,"station_id":"ce4bhpp2rcd13ifvqhfg","pricing_plan_id":"cebpf4jnsgd1na2vs0mg"},{"bike_id":"46caf8e6-cbe3-43b5-a1cb-d90ec324531c","system_id":"levelo_inurba_marseille","lat":43.30254,"lon":5.40048,"is_reserved":false,"is_disabled":false,"rental_uris":{"android":"levelo://app?vid=46caf8e6-cbe3-43b5-a1cb-d90ec324531c","ios":"levelo://app?vid=46caf8e6-cbe3-43b5-a1cb-d90ec324531c"},"vehicle_type_id":"4","last_reported":1738163323,"current_range_meters":21600,"station_id":"ce4bgvh2rcd13ifvqcs0","pricing_plan_id":"cebpf4jnsgd1na2vs0mg"},{"bike_id":"a9eaae4d-3875-4425-8362-4de13abed7b5","system_id":"levelo_inurba_marseille","lat":43.24647,"lon":5.38889,"is_reserved":false,"is_disabled":false,"rental_uris":{"android":"levelo://app?vid=a9eaae4d-3875-4425-8362-4de13abed7b5","ios":"levelo://app?vid=a9eaae4d-3875-4425-8362-4de13abed7b5"},"vehicle_type_id":"4","last_reported":1738163323,"current_range_meters":37600,"station_id":"ce4bhg12rcd13ifvqf60","pricing_plan_id":"cebpf4jnsgd1na2vs0mg"},{"bike_id":"ff68af14-5554-4f8d-a3de-4549d987f602","system_id":"levelo_inurba_marseille","lat":43.298992,"lon":5.43667,"is_reserved":false,"is_disabled":false,"rental_uris":{"android":"levelo://app?vid=ff68af14-5554-4f8d-a3de-4549d987f602","ios":"levelo://app?vid=ff68af14-5554-4f8d-a3de-4549d987f602"},"vehicle_type_id":"4","last_reported":1738163323,"current_range_meters":30800,"station_id":"ce4bhpp2rcd13ifvqhfg","pricing_plan_id":"cebpf4jnsgd1na2vs0mg"},{"bike_id":"296acca2-a355-4830-bc97-a6939a85f573","system_id":"levelo_inurba_marseille","lat":43.255651,"lon":5.382473,"is_reserved":false,"is_disabled":false,"rental_uris":{"android":"levelo://app?vid=296acca2-a355-4830-bc97-a6939a85f573","ios":"levelo://app?vid=296acca2-a355-4830-bc97-a6939a85f573"},"vehicle_type_id":"4","last_reported":1738163323,"current_range_meters":24000,"station_id":"ce4bhih2rcd13ifvqfs0","pricing_plan_id":"cebpf4jnsgd1na2vs0mg"},{"bike_id":"2b7bc25b-60ad-4cab-badc-edb74e380f88","system_id":"levelo_inurba_marseille","lat":43.29523,"lon":5.39059,"is_reserved":false,"is_disabled":false,"rental_uris":{"android":"levelo://app?vid=2b7bc25b-60ad-4cab-badc-edb74e380f88","ios":"levelo://app?vid=2b7bc25b-60ad-4cab-badc-edb74e380f88"},"vehicle_type_id":"4","last_reported":1738163323,"current_range_meters":32400,"station_id":"ce4bh3p2rcd13ifvqdp0","pricing_plan_id":"cebpf4jnsgd1na2vs0mg"},{"bike_id":"8381ecee-e398-4ae4-a060-80727e153d18","system_id":"levelo_inurba_marseille","lat":43.305559,"lon":5.367164,"is_reserved":false,"is_disabled":false,"rental_uris":{"android":"levelo://app?vid=8381ecee-e398-4ae4-a060-80727e153d18","ios":"levelo://app?vid=8381ecee-e398-4ae4-a060-80727e153d18"},"vehicle_type_id":"4","last_reported":1738163323,"current_range_meters":38800,"station_id":"ce4bgrp2rcd13ifvqc9g","pricing_plan_id":"cebpf4jnsgd1na2vs0mg"},{"bike_id":"c07cf835-82fd-414c-9d67-c9ce5b5ffc14","system_id":"levelo_inurba_marseille","lat":43.30647,"lon":5.4009,"is_reserved":false,"is_disabled":false,"rental_uris":{"android":"levelo://app?vid=c07cf835-82fd-414c-9d67-c9ce5b5ffc14","ios":"levelo://app?vid=c07cf835-82fd-414c-9d67-c9ce5b5ffc14"},"vehicle_type_id":"4","last_reported":1738163323,"current_range_meters":22000,"station_id":"ce4bh112rcd13ifvqda0","pricing_plan_id":"cebpf4jnsgd1na2vs0mg"},{"bike_id":"6495545f-cda1-4e91-8cbb-b0b8bb021bc9","system_id":"levelo_inurba_marseille","lat":43.29528,"lon":5.37508,"is_reserved":false,"is_disabled":false,"rental_uris":{"android":"levelo://app?vid=6495545f-cda1-4e91-8cbb-b0b8bb021bc9","ios":"levelo://app?vid=6495545f-cda1-4e91-8cbb-b0b8bb021bc9"},"vehicle_type_id":"4","last_reported":1738163323,"current_range_meters":24400,"station_id":"ce4bgkp2rcd13ifvqbmg","pricing_plan_id":"cebpf4jnsgd1na2vs0mg"},{"bike_id":"b941ea82-c25d-4572-9e25-c992fa364ae3","system_id":"levelo_inurba_marseille","lat":43.29967,"lon":5.37172,"is_reserved":false,"is_disabled":false,"rental_uris":{"android":"levelo://app?vid=b941ea82-c25d-4572-9e25-c992fa364ae3","ios":"levelo://app?vid=b941ea82-c25d-4572-9e25-c992fa364ae3"},"vehicle_type_id":"4","last_reported":1738163323,"current_range_meters":25600,"station_id":"ce4bgr92rcd13ifvqc7g","pricing_plan_id":"cebpf4jnsgd1na2vs0mg"},{"bike_id":"3d8f0195-5d2c-4c8e-871e-b599e365f913","system_id":"levelo_inurba_marseille","lat":43.28441,"lon":5.39189,"is_reserved":false,"is_disabled":false,"rental_uris":{"android":"levelo://app?vid=3d8f0195-5d2c-4c8e-871e-b599e365f913","ios":"levelo://app?vid=3d8f0195-5d2c-4c8e-871e-b599e365f913"},"vehicle_type_id":"4","last_reported":1738163323,"current_range_meters":24400,"station_id":"ce4bhoh2rcd13ifvqh5g","pricing_plan_id":"cebpf4jnsgd1na2vs0mg"},{"bike_id":"60ce30e7-9301-4ca8-982f-21e0e801cbbe","system_id":"levelo_inurba_marseille","lat":43.29935,"lon":5.37483,"is_reserved":false,"is_disabled":false,"rental_uris":{"android":"levelo://app?vid=60ce30e7-9301-4ca8-982f-21e0e801cbbe","ios":"levelo://app?vid=60ce30e7-9301-4ca8-982f-21e0e801cbbe"},"vehicle_type_id":"4","last_reported":1738163323,"current_range_meters":38800,"station_id":"ce4bgjh2rcd13ifvqbg0","pricing_plan_id":"cebpf4jnsgd1na2vs0mg"},{"bike_id":"053833af-ba3d-4612-b908-e90298b33a73","system_id":"levelo_inurba_marseille","lat":43.30555,"lon":5.3652,"is_reserved":false,"is_disabled":false,"rental_uris":{"android":"levelo://app?vid=053833af-ba3d-4612-b908-e90298b33a73","ios":"levelo://app?vid=053833af-ba3d-4612-b908-e90298b33a73"},"vehicle_type_id":"4","last_reported":1738163323,"current_range_meters":19200,"station_id":"ce4bgs12rcd13ifvqcag","pricing_plan_id":"cebpf4jnsgd1na2vs0mg"},{"bike_id":"35a5c402-13ca-468f-8a93-76197813b571","system_id":"levelo_inurba_marseille","lat":43.25945,"lon":5.409,"is_reserved":false,"is_disabled":true,"rental_uris":{"android":"levelo://app?vid=35a5c402-13ca-468f-8a93-76197813b571","ios":"levelo://app?vid=35a5c402-13ca-468f-8a93-76197813b571"},"vehicle_type_id":"4","last_reported":1738163323,"current_range_meters":2000,"station_id":"ce4bhm92rcd13ifvqglg","pricing_plan_id":"cebpf4jnsgd1na2vs0mg"},{"bike_id":"86fc14ee-d03a-45f0-b66a-0050f206491b","system_id":"levelo_inurba_marseille","lat":43.29195,"lon":5.35806,"is_reserved":false,"is_disabled":false,"rental_uris":{"android":"levelo://app?vid=86fc14ee-d03a-45f0-b66a-0050f206491b","ios":"levelo://app?vid=86fc14ee-d03a-45f0-b66a-0050f206491b"},"vehicle_type_id":"4","last_reported":1738163323,"current_range_meters":32000,"station_id":"ce4bhb12rcd13ifvqel0","pricing_plan_id":"cebpf4jnsgd1na2vs0mg"},{"bike_id":"e3c5a10e-948d-477c-91ce-8c835a7fe362","system_id":"levelo_inurba_marseille","lat":43.28074,"lon":5.39638,"is_reserved":false,"is_disabled":true,"rental_uris":{"android":"levelo://app?vid=e3c5a10e-948d-477c-91ce-8c835a7fe362","ios":"levelo://app?vid=e3c5a10e-948d-477c-91ce-8c835a7fe362"},"vehicle_type_id":"4","last_reported":1738163323,"current_range_meters":0,"station_id":"ce4bho12rcd13ifvqh2g","pricing_plan_id":"cebpf4jnsgd1na2vs0mg"},{"bike_id":"89e64e4b-b81b-4be4-b525-ff54e7bc09e5","system_id":"levelo_inurba_marseille","lat":43.28929,"lon":5.38404,"is_reserved":false,"is_disabled":false,"rental_uris":{"android":"levelo://app?vid=89e64e4b-b81b-4be4-b525-ff54e7bc09e5","ios":"levelo://app?vid=89e64e4b-b81b-4be4-b525-ff54e7bc09e5"},"vehicle_type_id":"4","last_reported":1738163323,"current_range_meters":2000,"station_id":"ce4bh612rcd13ifvqe6g","pricing_plan_id":"cebpf4jnsgd1na2vs0mg"},{"bike_id":"855e237d-8f43-470f-82da-c683a5e3d1b6","system_id":"levelo_inurba_marseille","lat":43.29875,"lon":5.39737,"is_reserved":false,"is_disabled":false,"rental_uris":{"android":"levelo://app?vid=855e237d-8f43-470f-82da-c683a5e3d1b6","ios":"levelo://app?vid=855e237d-8f43-470f-82da-c683a5e3d1b6"},"vehicle_type_id":"4","last_reported":1738163323,"current_range_meters":39200,"station_id":"ce4bh0h2rcd13ifvqd50","pricing_plan_id":"cebpf4jnsgd1na2vs0mg"},{"bike_id":"1e7882da-a016-4654-9a16-4361fd531dc2","system_id":"levelo_inurba_marseille","lat":43.27172,"lon":5.40996,"is_reserved":false,"is_disabled":false,"rental_uris":{"android":"levelo://app?vid=1e7882da-a016-4654-9a16-4361fd531dc2","ios":"levelo://app?vid=1e7882da-a016-4654-9a16-4361fd531dc2"},"vehicle_type_id":"4","last_reported":1738163323,"current_range_meters":24000,"station_id":"ce4bhl12rcd13ifvqgf0","pricing_plan_id":"cebpf4jnsgd1na2vs0mg"},{"bike_id":"fef8f4dc-7b3f-4f9d-9ace-5962177c579b","system_id":"levelo_inurba_marseille","lat":43.26555,"lon":5.37255,"is_reserved":false,"is_disabled":false,"rental_uris":{"android":"levelo://app?vid=fef8f4dc-7b3f-4f9d-9ace-5962177c579b","ios":"levelo://app?vid=fef8f4dc-7b3f-4f9d-9ace-5962177c579b"},"vehicle_type_id":"4","last_reported":1738163323,"current_range_meters":38800,"station_id":"ce4bhg12rcd13ifvqf70","pricing_plan_id":"cebpf4jnsgd1na2vs0mg"},{"bike_id":"10f7f217-9b57-475c-88bb-e42666c5af42","system_id":"levelo_inurba_marseille","lat":43.29521,"lon":5.39037,"is_reserved":false,"is_disabled":false,"rental_uris":{"android":"levelo://app?vid=10f7f217-9b57-475c-88bb-e42666c5af42","ios":"levelo://app?vid=10f7f217-9b57-475c-88bb-e42666c5af42"},"vehicle_type_id":"4","last_reported":1738163323,"current_range_meters":38000,"station_id":"ce4bh3p2rcd13ifvqdp0","pricing_plan_id":"cebpf4jnsgd1na2vs0mg"},{"bike_id":"085eb1b9-3157-475b-a7c3-09fe52f481b0","system_id":"levelo_inurba_marseille","lat":43.27815,"lon":5.40725,"is_reserved":false,"is_disabled":false,"rental_uris":{"android":"levelo://app?vid=085eb1b9-3157-475b-a7c3-09fe52f481b0","ios":"levelo://app?vid=085eb1b9-3157-475b-a7c3-09fe52f481b0"},"vehicle_type_id":"4","last_reported":1738163323,"current_range_meters":38800,"station_id":"ce4bhnh2rcd13ifvqgtg","pricing_plan_id":"cebpf4jnsgd1na2vs0mg"},{"bike_id":"7ce749c3-df67-4f3b-b58c-7da7f5e03c12","system_id":"levelo_inurba_marseille","lat":43.2904,"lon":5.37572,"is_reserved":false,"is_disabled":false,"rental_uris":{"android":"levelo://app?vid=7ce749c3-df67-4f3b-b58c-7da7f5e03c12","ios":"levelo://app?vid=7ce749c3-df67-4f3b-b58c-7da7f5e03c12"},"vehicle_type_id":"4","last_reported":1738163323,"current_range_meters":6000,"station_id":"ce4bh692rcd13ifvqe90","pricing_plan_id":"cebpf4jnsgd1na2vs0mg"},{"bike_id":"dc7c1c67-58fd-4b23-90e5-a1f21ef47cbc","system_id":"levelo_inurba_marseille","lat":43.296,"lon":5.36731,"is_reserved":false,"is_disabled":false,"rental_uris":{"android":"levelo://app?vid=dc7c1c67-58fd-4b23-90e5-a1f21ef47cbc","ios":"levelo://app?vid=dc7c1c67-58fd-4b23-90e5-a1f21ef47cbc"},"vehicle_type_id":"4","last_reported":1738163323,"current_range_meters":38800,"station_id":"ce4bgph2rcd13ifvqc2g","pricing_plan_id":"cebpf4jnsgd1na2vs0mg"},{"bike_id":"8c0f2ec6-f1b5-4ac5-902f-68abbce56127","system_id":"levelo_inurba_marseille","lat":43.27071,"lon":5.42278,"is_reserved":false,"is_disabled":false,"rental_uris":{"android":"levelo://app?vid=8c0f2ec6-f1b5-4ac5-902f-68abbce56127","ios":"levelo://app?vid=8c0f2ec6-f1b5-4ac5-902f-68abbce56127"},"vehicle_type_id":"4","last_reported":1738163323,"current_range_meters":36000,"station_id":"ce4bhk92rcd13ifvqgb0","pricing_plan_id":"cebpf4jnsgd1na2vs0mg"},{"bike_id":"b891a845-22ae-4964-87fe-61c6bc3a8303","system_id":"levelo_inurba_marseille","lat":43.27807,"lon":5.40698,"is_reserved":false,"is_disabled":false,"rental_uris":{"android":"levelo://app?vid=b891a845-22ae-4964-87fe-61c6bc3a8303","ios":"levelo://app?vid=b891a845-22ae-4964-87fe-61c6bc3a8303"},"vehicle_type_id":"4","last_reported":1738163323,"current_range_meters":32000,"station_id":"ce4bhnh2rcd13ifvqgtg","pricing_plan_id":"cebpf4jnsgd1na2vs0mg"},{"bike_id":"e6d2245b-cbf1-407e-807e-92ab22a34ea9","system_id":"levelo_inurba_marseille","lat":43.28723,"lon":5.37942,"is_reserved":false,"is_disabled":false,"rental_uris":{"android":"levelo://app?vid=e6d2245b-cbf1-407e-807e-92ab22a34ea9","ios":"levelo://app?vid=e6d2245b-cbf1-407e-807e-92ab22a34ea9"},"vehicle_type_id":"4","last_reported":1738163323,"current_range_meters":22000,"station_id":"ce4bh9p2rcd13ifvqec0","pricing_plan_id":"cebpf4jnsgd1na2vs0mg"},{"bike_id":"c8e92635-d335-4ecb-9c16-9c6842f4b70e","system_id":"levelo_inurba_marseille","lat":43.24807,"lon":5.37461,"is_reserved":false,"is_disabled":false,"rental_uris":{"android":"levelo://app?vid=c8e92635-d335-4ecb-9c16-9c6842f4b70e","ios":"levelo://app?vid=c8e92635-d335-4ecb-9c16-9c6842f4b70e"},"vehicle_type_id":"4","last_reported":1738163323,"current_range_meters":24400,"station_id":"ce4bhgh2rcd13ifvqfb0","pricing_plan_id":"cebpf4jnsgd1na2vs0mg"},{"bike_id":"1932502a-a386-4bd4-8041-b68d3b661876","system_id":"levelo_inurba_marseille","lat":43.27615,"lon":5.36112,"is_reserved":false,"is_disabled":false,"rental_uris":{"android":"levelo://app?vid=1932502a-a386-4bd4-8041-b68d3b661876","ios":"levelo://app?vid=1932502a-a386-4bd4-8041-b68d3b661876"},"vehicle_type_id":"4","last_reported":1738163323,"current_range_meters":20800,"station_id":"ce4bgj92rcd13ifvqbe0","pricing_plan_id":"cebpf4jnsgd1na2vs0mg"},{"bike_id":"3ad10b32-c1b1-4c7a-9f3c-30dcc350bc0c","system_id":"levelo_inurba_marseille","lat":43.27953,"lon":5.41042,"is_reserved":false,"is_disabled":false,"rental_uris":{"android":"levelo://app?vid=3ad10b32-c1b1-4c7a-9f3c-30dcc350bc0c","ios":"levelo://app?vid=3ad10b32-c1b1-4c7a-9f3c-30dcc350bc0c"},"vehicle_type_id":"4","last_reported":1738163323,"current_range_meters":11200,"station_id":"ce4bhnp2rcd13ifvqh0g","pricing_plan_id":"cebpf4jnsgd1na2vs0mg"},{"bike_id":"8382186f-0d25-40e6-beca-2632cc8590f2","system_id":"levelo_inurba_marseille","lat":43.29547,"lon":5.42277,"is_reserved":false,"is_disabled":true,"rental_uris":{"android":"levelo://app?vid=8382186f-0d25-40e6-beca-2632cc8590f2","ios":"levelo://app?vid=8382186f-0d25-40e6-beca-2632cc8590f2"},"vehicle_type_id":"4","last_reported":1738163323,"current_range_meters":12800,"station_id":"ce4bhph2rcd13ifvqhdg","pricing_plan_id":"cebpf4jnsgd1na2vs0mg"},{"bike_id":"44a2692f-71ce-4483-a988-fcdcfe06292b","system_id":"levelo_inurba_marseille","lat":43.29969,"lon":5.37181,"is_reserved":false,"is_disabled":false,"rental_uris":{"android":"levelo://app?vid=44a2692f-71ce-4483-a988-fcdcfe06292b","ios":"levelo://app?vid=44a2692f-71ce-4483-a988-fcdcfe06292b"},"vehicle_type_id":"4","last_reported":1738163323,"current_range_meters":26800,"station_id":"ce4bgr92rcd13ifvqc7g","pricing_plan_id":"cebpf4jnsgd1na2vs0mg"},{"bike_id":"b9db93bb-df95-41d0-a2a8-b4a9d2fb07ca","system_id":"levelo_inurba_marseille","lat":43.28615,"lon":5.35104,"is_reserved":false,"is_disabled":false,"rental_uris":{"android":"levelo://app?vid=b9db93bb-df95-41d0-a2a8-b4a9d2fb07ca","ios":"levelo://app?vid=b9db93bb-df95-41d0-a2a8-b4a9d2fb07ca"},"vehicle_type_id":"4","last_reported":1738163323,"current_range_meters":24000,"station_id":"ce4bhch2rcd13ifvqeug","pricing_plan_id":"cebpf4jnsgd1na2vs0mg"},{"bike_id":"13ba26b5-4152-4b77-9fff-ef4c19d81f08","system_id":"levelo_inurba_marseille","lat":43.30426,"lon":5.39749,"is_reserved":false,"is_disabled":false,"rental_uris":{"android":"levelo://app?vid=13ba26b5-4152-4b77-9fff-ef4c19d81f08","ios":"levelo://app?vid=13ba26b5-4152-4b77-9fff-ef4c19d81f08"},"vehicle_type_id":"4","last_reported":1738163323,"current_range_meters":37600,"station_id":"ce4bh092rcd13ifvqd20","pricing_plan_id":"cebpf4jnsgd1na2vs0mg"},{"bike_id":"151449cb-c8f0-4294-b81b-c0f4dcefc348","system_id":"levelo_inurba_marseille","lat":43.28268,"lon":5.35078,"is_reserved":false,"is_disabled":true,"rental_uris":{"android":"levelo://app?vid=151449cb-c8f0-4294-b81b-c0f4dcefc348","ios":"levelo://app?vid=151449cb-c8f0-4294-b81b-c0f4dcefc348"},"vehicle_type_id":"4","last_reported":1738163323,"current_range_meters":2000,"station_id":"ce4bhbp2rcd13ifvqerg","pricing_plan_id":"cebpf4jnsgd1na2vs0mg"},{"bike_id":"7c3df97a-2f27-4ded-9b4c-5f084cc1020d","system_id":"levelo_inurba_marseille","lat":43.28032,"lon":5.36936,"is_reserved":false,"is_disabled":false,"rental_uris":{"android":"levelo://app?vid=7c3df97a-2f27-4ded-9b4c-5f084cc1020d","ios":"levelo://app?vid=7c3df97a-2f27-4ded-9b4c-5f084cc1020d"},"vehicle_type_id":"4","last_reported":1738163323,"current_range_meters":4000,"station_id":"ce4bha12rcd13ifvqef0","pricing_plan_id":"cebpf4jnsgd1na2vs0mg"},{"bike_id":"07e2c46a-bed8-4c07-9b59-4347ea94c5a8","system_id":"levelo_inurba_marseille","lat":43.31115,"lon":5.37776,"is_reserved":false,"is_disabled":false,"rental_uris":{"android":"levelo://app?vid=07e2c46a-bed8-4c07-9b59-4347ea94c5a8","ios":"levelo://app?vid=07e2c46a-bed8-4c07-9b59-4347ea94c5a8"},"vehicle_type_id":"4","last_reported":1738163323,"current_range_meters":24400,"station_id":"ce4bgt92rcd13ifvqcg0","pricing_plan_id":"cebpf4jnsgd1na2vs0mg"},{"bike_id":"4e25d392-4200-41fa-9bdc-7fd393881cbd","system_id":"levelo_inurba_marseille","lat":43.28416,"lon":5.37521,"is_reserved":false,"is_disabled":false,"rental_uris":{"android":"levelo://app?vid=4e25d392-4200-41fa-9bdc-7fd393881cbd","ios":"levelo://app?vid=4e25d392-4200-41fa-9bdc-7fd393881cbd"},"vehicle_type_id":"4","last_reported":1738163323,"current_range_meters":10000,"station_id":"ce4bh412rcd13ifvqds0","pricing_plan_id":"cebpf4jnsgd1na2vs0mg"},{"bike_id":"732e0f21-9776-437d-9e9c-e54f5beff5db","system_id":"levelo_inurba_marseille","lat":43.28004,"lon":5.40009,"is_reserved":false,"is_disabled":false,"rental_uris":{"android":"levelo://app?vid=732e0f21-9776-437d-9e9c-e54f5beff5db","ios":"levelo://app?vid=732e0f21-9776-437d-9e9c-e54f5beff5db"},"vehicle_type_id":"4","last_reported":1738163323,"current_range_meters":12000,"station_id":"ce4bho92rcd13ifvqh4g","pricing_plan_id":"cebpf4jnsgd1na2vs0mg"},{"bike_id":"f41a1e34-accd-406d-829e-29c2eebefd57","system_id":"levelo_inurba_marseille","lat":43.27666,"lon":5.38906,"is_reserved":false,"is_disabled":false,"rental_uris":{"android":"levelo://app?vid=f41a1e34-accd-406d-829e-29c2eebefd57","ios":"levelo://app?vid=f41a1e34-accd-406d-829e-29c2eebefd57"},"vehicle_type_id":"4","last_reported":1738163323,"current_range_meters":22800,"station_id":"ce4bhi12rcd13ifvqfo0","pricing_plan_id":"cebpf4jnsgd1na2vs0mg"},{"bike_id":"e3e26aee-15e1-425c-a48f-db58aa520742","system_id":"levelo_inurba_marseille","lat":43.23064,"lon":5.35491,"is_reserved":false,"is_disabled":false,"rental_uris":{"android":"levelo://app?vid=e3e26aee-15e1-425c-a48f-db58aa520742","ios":"levelo://app?vid=e3e26aee-15e1-425c-a48f-db58aa520742"},"vehicle_type_id":"4","last_reported":1738163323,"current_range_meters":33200,"station_id":"cpo3342slgdg3j2ifvpg","pricing_plan_id":"cebpf4jnsgd1na2vs0mg"},{"bike_id":"0a2fd205-d616-4064-aa75-d4d529957d90","system_id":"levelo_inurba_marseille","lat":43.23067,"lon":5.35491,"is_reserved":false,"is_disabled":false,"rental_uris":{"android":"levelo://app?vid=0a2fd205-d616-4064-aa75-d4d529957d90","ios":"levelo://app?vid=0a2fd205-d616-4064-aa75-d4d529957d90"},"vehicle_type_id":"4","last_reported":1738163323,"current_range_meters":28000,"station_id":"cpo3342slgdg3j2ifvpg","pricing_plan_id":"cebpf4jnsgd1na2vs0mg"},{"bike_id":"051c1ce2-6411-405c-ab17-20b9744b01d6","system_id":"levelo_inurba_marseille","lat":43.29028,"lon":5.38139,"is_reserved":false,"is_disabled":false,"rental_uris":{"android":"levelo://app?vid=051c1ce2-6411-405c-ab17-20b9744b01d6","ios":"levelo://app?vid=051c1ce2-6411-405c-ab17-20b9744b01d6"},"vehicle_type_id":"4","last_reported":1738163323,"current_range_meters":39200,"station_id":"ce4bh4p2rcd13ifvqe1g","pricing_plan_id":"cebpf4jnsgd1na2vs0mg"},{"bike_id":"a1fe48f5-d875-4519-9246-11144936ea2b","system_id":"levelo_inurba_marseille","lat":43.27671,"lon":5.38901,"is_reserved":false,"is_disabled":false,"rental_uris":{"android":"levelo://app?vid=a1fe48f5-d875-4519-9246-11144936ea2b","ios":"levelo://app?vid=a1fe48f5-d875-4519-9246-11144936ea2b"},"vehicle_type_id":"4","last_reported":1738163323,"current_range_meters":6000,"station_id":"ce4bhi12rcd13ifvqfo0","pricing_plan_id":"cebpf4jnsgd1na2vs0mg"},{"bike_id":"e4083074-e92a-473e-bcc2-f7b10a8f53e9","system_id":"levelo_inurba_marseille","lat":43.33024,"lon":5.39042,"is_reserved":false,"is_disabled":false,"rental_uris":{"android":"levelo://app?vid=e4083074-e92a-473e-bcc2-f7b10a8f53e9","ios":"levelo://app?vid=e4083074-e92a-473e-bcc2-f7b10a8f53e9"},"vehicle_type_id":"4","last_reported":1738163323,"current_range_meters":28800,"station_id":"ce4bhr92rcd13ifvqhrg","pricing_plan_id":"cebpf4jnsgd1na2vs0mg"},{"bike_id":"7c78a755-c7f5-4f07-a96b-621451d47948","system_id":"levelo_inurba_marseille","lat":43.29897,"lon":5.43671,"is_reserved":false,"is_disabled":false,"rental_uris":{"android":"levelo://app?vid=7c78a755-c7f5-4f07-a96b-621451d47948","ios":"levelo://app?vid=7c78a755-c7f5-4f07-a96b-621451d47948"},"vehicle_type_id":"4","last_reported":1738163323,"current_range_meters":18000,"station_id":"ce4bhpp2rcd13ifvqhfg","pricing_plan_id":"cebpf4jnsgd1na2vs0mg"},{"bike_id":"8601fd7a-d2d8-41bd-967c-1c273ce39cff","system_id":"levelo_inurba_marseille","lat":43.29272,"lon":5.40123,"is_reserved":false,"is_disabled":false,"rental_uris":{"android":"levelo://app?vid=8601fd7a-d2d8-41bd-967c-1c273ce39cff","ios":"levelo://app?vid=8601fd7a-d2d8-41bd-967c-1c273ce39cff"},"vehicle_type_id":"4","last_reported":1738163323,"current_range_meters":23200,"station_id":"ce4bh312rcd13ifvqdk0","pricing_plan_id":"cebpf4jnsgd1na2vs0mg"},{"bike_id":"3d1fcd99-fa1f-402d-be1e-7639922ccd47","system_id":"levelo_inurba_marseille","lat":43.22963,"lon":5.35376,"is_reserved":false,"is_disabled":false,"rental_uris":{"android":"levelo://app?vid=3d1fcd99-fa1f-402d-be1e-7639922ccd47","ios":"levelo://app?vid=3d1fcd99-fa1f-402d-be1e-7639922ccd47"},"vehicle_type_id":"4","last_reported":1738163323,"current_range_meters":39200,"station_id":"cpo3532slgdg3j2ikp40","pricing_plan_id":"cebpf4jnsgd1na2vs0mg"},{"bike_id":"2073d1d5-276f-4c95-b9a8-faa50a643868","system_id":"levelo_inurba_marseille","lat":43.29844,"lon":5.36276,"is_reserved":false,"is_disabled":false,"rental_uris":{"android":"levelo://app?vid=2073d1d5-276f-4c95-b9a8-faa50a643868","ios":"levelo://app?vid=2073d1d5-276f-4c95-b9a8-faa50a643868"},"vehicle_type_id":"4","last_reported":1738163323,"current_range_meters":36800,"station_id":"ce4bgpp2rcd13ifvqc3g","pricing_plan_id":"cebpf4jnsgd1na2vs0mg"},{"bike_id":"803e03d8-7d2e-4feb-ac46-774902d16dee","system_id":"levelo_inurba_marseille","lat":43.33731,"lon":5.37442,"is_reserved":false,"is_disabled":true,"rental_uris":{"android":"levelo://app?vid=803e03d8-7d2e-4feb-ac46-774902d16dee","ios":"levelo://app?vid=803e03d8-7d2e-4feb-ac46-774902d16dee"},"vehicle_type_id":"4","last_reported":1738163323,"current_range_meters":33200,"station_id":"","pricing_plan_id":"cebpf4jnsgd1na2vs0mg"},{"bike_id":"5e547fc5-b060-4de2-a758-6859dcae79b0","system_id":"levelo_inurba_marseille","lat":43.27412,"lon":5.39404,"is_reserved":false,"is_disabled":false,"rental_uris":{"android":"levelo://app?vid=5e547fc5-b060-4de2-a758-6859dcae79b0","ios":"levelo://app?vid=5e547fc5-b060-4de2-a758-6859dcae79b0"},"vehicle_type_id":"4","last_reported":1738163323,"current_range_meters":30000,"station_id":"ce4bhdp2rcd13ifvqf20","pricing_plan_id":"cebpf4jnsgd1na2vs0mg"},{"bike_id":"72da52e5-f9d6-4be0-86bb-ad65ebadd0b9","system_id":"levelo_inurba_marseille","lat":43.27199,"lon":5.40962,"is_reserved":false,"is_disabled":false,"rental_uris":{"android":"levelo://app?vid=72da52e5-f9d6-4be0-86bb-ad65ebadd0b9","ios":"levelo://app?vid=72da52e5-f9d6-4be0-86bb-ad65ebadd0b9"},"vehicle_type_id":"4","last_reported":1738163323,"current_range_meters":28000,"station_id":"ce4bhl12rcd13ifvqgf0","pricing_plan_id":"cebpf4jnsgd1na2vs0mg"},{"bike_id":"3ca0b02d-0211-487d-b570-96974d36540a","system_id":"levelo_inurba_marseille","lat":43.30798,"lon":5.38165,"is_reserved":false,"is_disabled":false,"rental_uris":{"android":"levelo://app?vid=3ca0b02d-0211-487d-b570-96974d36540a","ios":"levelo://app?vid=3ca0b02d-0211-487d-b570-96974d36540a"},"vehicle_type_id":"4","last_reported":1738163323,"current_range_meters":38000,"station_id":"ce4bgt12rcd13ifvqce0","pricing_plan_id":"cebpf4jnsgd1na2vs0mg"},{"bike_id":"e01b48cb-9ca7-4c6e-9fce-13ad8af1a3f4","system_id":"levelo_inurba_marseille","lat":43.28023,"lon":5.36949,"is_reserved":false,"is_disabled":false,"rental_uris":{"android":"levelo://app?vid=e01b48cb-9ca7-4c6e-9fce-13ad8af1a3f4","ios":"levelo://app?vid=e01b48cb-9ca7-4c6e-9fce-13ad8af1a3f4"},"vehicle_type_id":"4","last_reported":1738163323,"current_range_meters":9600,"station_id":"ce4bha12rcd13ifvqef0","pricing_plan_id":"cebpf4jnsgd1na2vs0mg"},{"bike_id":"6d1da78d-00cf-4bf6-8937-cad8764c7ccc","system_id":"levelo_inurba_marseille","lat":43.30317,"lon":5.36887,"is_reserved":false,"is_disabled":false,"rental_uris":{"android":"levelo://app?vid=6d1da78d-00cf-4bf6-8937-cad8764c7ccc","ios":"levelo://app?vid=6d1da78d-00cf-4bf6-8937-cad8764c7ccc"},"vehicle_type_id":"4","last_reported":1738163323,"current_range_meters":10800,"station_id":"ce4bgqh2rcd13ifvqc5g","pricing_plan_id":"cebpf4jnsgd1na2vs0mg"},{"bike_id":"3622e152-b5be-42cb-bc60-3cf0f1d519df","system_id":"levelo_inurba_marseille","lat":43.26673,"lon":5.38253,"is_reserved":false,"is_disabled":false,"rental_uris":{"android":"levelo://app?vid=3622e152-b5be-42cb-bc60-3cf0f1d519df","ios":"levelo://app?vid=3622e152-b5be-42cb-bc60-3cf0f1d519df"},"vehicle_type_id":"4","last_reported":1738163323,"current_range_meters":38800,"station_id":"ce4bhg92rcd13ifvqf90","pricing_plan_id":"cebpf4jnsgd1na2vs0mg"},{"bike_id":"fbf4a090-7867-4075-a3fd-edc6192db4f7","system_id":"levelo_inurba_marseille","lat":43.32656,"lon":5.40991,"is_reserved":false,"is_disabled":false,"rental_uris":{"android":"levelo://app?vid=fbf4a090-7867-4075-a3fd-edc6192db4f7","ios":"levelo://app?vid=fbf4a090-7867-4075-a3fd-edc6192db4f7"},"vehicle_type_id":"4","last_reported":1738163323,"current_range_meters":38800,"station_id":"ce4bhpp2rcd13ifvqhgg","pricing_plan_id":"cebpf4jnsgd1na2vs0mg"},{"bike_id":"92390a94-1623-4131-914a-d374170e1d02","system_id":"levelo_inurba_marseille","lat":43.30601,"lon":5.37227,"is_reserved":false,"is_disabled":false,"rental_uris":{"android":"levelo://app?vid=92390a94-1623-4131-914a-d374170e1d02","ios":"levelo://app?vid=92390a94-1623-4131-914a-d374170e1d02"},"vehicle_type_id":"4","last_reported":1738163323,"current_range_meters":36400,"station_id":"ce4bgqh2rcd13ifvqc4g","pricing_plan_id":"cebpf4jnsgd1na2vs0mg"},{"bike_id":"7a932788-39f8-4d3a-8997-624b5a4df5c4","system_id":"levelo_inurba_marseille","lat":43.32476,"lon":5.36548,"is_reserved":false,"is_disabled":false,"rental_uris":{"android":"levelo://app?vid=7a932788-39f8-4d3a-8997-624b5a4df5c4","ios":"levelo://app?vid=7a932788-39f8-4d3a-8997-624b5a4df5c4"},"vehicle_type_id":"4","last_reported":1738163323,"current_range_meters":38800,"station_id":"ce4bhs12rcd13ifvqhvg","pricing_plan_id":"cebpf4jnsgd1na2vs0mg"},{"bike_id":"98b3fb70-9c33-4b67-a512-5e693f108cce","system_id":"levelo_inurba_marseille","lat":43.23959,"lon":5.3665,"is_reserved":false,"is_disabled":false,"rental_uris":{"android":"levelo://app?vid=98b3fb70-9c33-4b67-a512-5e693f108cce","ios":"levelo://app?vid=98b3fb70-9c33-4b67-a512-5e693f108cce"},"vehicle_type_id":"4","last_reported":1738163323,"current_range_meters":20000,"station_id":"ce4bhi12rcd13ifvqfp0","pricing_plan_id":"cebpf4jnsgd1na2vs0mg"},{"bike_id":"2bbb8feb-9ae3-49df-9748-9c71064b7c29","system_id":"levelo_inurba_marseille","lat":43.32109,"lon":5.36776,"is_reserved":false,"is_disabled":false,"rental_uris":{"android":"levelo://app?vid=2bbb8feb-9ae3-49df-9748-9c71064b7c29","ios":"levelo://app?vid=2bbb8feb-9ae3-49df-9748-9c71064b7c29"},"vehicle_type_id":"4","last_reported":1738163323,"current_range_meters":24800,"station_id":"ce4bhrh2rcd13ifvqhug","pricing_plan_id":"cebpf4jnsgd1na2vs0mg"},{"bike_id":"3cab5ce9-fa36-4f37-a4fd-aa59591df4d1","system_id":"levelo_inurba_marseille","lat":43.2842,"lon":5.34996,"is_reserved":false,"is_disabled":true,"rental_uris":{"android":"levelo://app?vid=3cab5ce9-fa36-4f37-a4fd-aa59591df4d1","ios":"levelo://app?vid=3cab5ce9-fa36-4f37-a4fd-aa59591df4d1"},"vehicle_type_id":"4","last_reported":1738163323,"current_range_meters":30000,"station_id":"ce4bhbh2rcd13ifvqepg","pricing_plan_id":"cebpf4jnsgd1na2vs0mg"},{"bike_id":"bb3f52a9-5d78-4a6f-ba4d-1fe6751046d2","system_id":"levelo_inurba_marseille","lat":43.31076,"lon":5.38353,"is_reserved":false,"is_disabled":false,"rental_uris":{"android":"levelo://app?vid=bb3f52a9-5d78-4a6f-ba4d-1fe6751046d2","ios":"levelo://app?vid=bb3f52a9-5d78-4a6f-ba4d-1fe6751046d2"},"vehicle_type_id":"4","last_reported":1738163323,"current_range_meters":35600,"station_id":"ce4bgv92rcd13ifvqcr0","pricing_plan_id":"cebpf4jnsgd1na2vs0mg"},{"bike_id":"85af6c92-372c-4cd2-84da-c4ec61fa470d","system_id":"levelo_inurba_marseille","lat":43.25696,"lon":5.41109,"is_reserved":false,"is_disabled":true,"rental_uris":{"android":"levelo://app?vid=85af6c92-372c-4cd2-84da-c4ec61fa470d","ios":"levelo://app?vid=85af6c92-372c-4cd2-84da-c4ec61fa470d"},"vehicle_type_id":"4","last_reported":1738163323,"current_range_meters":36400,"station_id":"ce4bhkp2rcd13ifvqgd0","pricing_plan_id":"cebpf4jnsgd1na2vs0mg"},{"bike_id":"56e711b3-1927-4727-8be2-14c615ada067","system_id":"levelo_inurba_marseille","lat":43.28999,"lon":5.35616,"is_reserved":false,"is_disabled":false,"rental_uris":{"android":"levelo://app?vid=56e711b3-1927-4727-8be2-14c615ada067","ios":"levelo://app?vid=56e711b3-1927-4727-8be2-14c615ada067"},"vehicle_type_id":"4","last_reported":1738163323,"current_range_meters":30400,"station_id":"ce4bhb92rcd13ifvqen0","pricing_plan_id":"cebpf4jnsgd1na2vs0mg"},{"bike_id":"d706ac42-ddfe-48d3-88ff-5f6ab255b7c9","system_id":"levelo_inurba_marseille","lat":43.25106,"lon":5.40326,"is_reserved":false,"is_disabled":false,"rental_uris":{"android":"levelo://app?vid=d706ac42-ddfe-48d3-88ff-5f6ab255b7c9","ios":"levelo://app?vid=d706ac42-ddfe-48d3-88ff-5f6ab255b7c9"},"vehicle_type_id":"4","last_reported":1738163323,"current_range_meters":16000,"station_id":"ce4bhlh2rcd13ifvqgig","pricing_plan_id":"cebpf4jnsgd1na2vs0mg"},{"bike_id":"2f2a5ee6-1adc-4961-9186-7506ae57541c","system_id":"levelo_inurba_marseille","lat":43.2902,"lon":5.38137,"is_reserved":false,"is_disabled":false,"rental_uris":{"android":"levelo://app?vid=2f2a5ee6-1adc-4961-9186-7506ae57541c","ios":"levelo://app?vid=2f2a5ee6-1adc-4961-9186-7506ae57541c"},"vehicle_type_id":"4","last_reported":1738163323,"current_range_meters":33600,"station_id":"ce4bh4p2rcd13ifvqe1g","pricing_plan_id":"cebpf4jnsgd1na2vs0mg"},{"bike_id":"0d3f46ad-475b-45ab-bba3-a9b43b092108","system_id":"levelo_inurba_marseille","lat":43.27624,"lon":5.36089,"is_reserved":false,"is_disabled":false,"rental_uris":{"android":"levelo://app?vid=0d3f46ad-475b-45ab-bba3-a9b43b092108","ios":"levelo://app?vid=0d3f46ad-475b-45ab-bba3-a9b43b092108"},"vehicle_type_id":"4","last_reported":1738163323,"current_range_meters":38800,"station_id":"ce4bgj92rcd13ifvqbe0","pricing_plan_id":"cebpf4jnsgd1na2vs0mg"},{"bike_id":"7a2257c1-f3b7-4b69-a1d7-4fe6443e5424","system_id":"levelo_inurba_marseille","lat":43.27571,"lon":5.38421,"is_reserved":false,"is_disabled":true,"rental_uris":{"android":"levelo://app?vid=7a2257c1-f3b7-4b69-a1d7-4fe6443e5424","ios":"levelo://app?vid=7a2257c1-f3b7-4b69-a1d7-4fe6443e5424"},"vehicle_type_id":"4","last_reported":1738163323,"current_range_meters":400,"station_id":"ce4bhh92rcd13ifvqfi0","pricing_plan_id":"cebpf4jnsgd1na2vs0mg"},{"bike_id":"34720737-96d6-4e74-86fe-e1339612c4ab","system_id":"levelo_inurba_marseille","lat":43.28732,"lon":5.36071,"is_reserved":false,"is_disabled":false,"rental_uris":{"android":"levelo://app?vid=34720737-96d6-4e74-86fe-e1339612c4ab","ios":"levelo://app?vid=34720737-96d6-4e74-86fe-e1339612c4ab"},"vehicle_type_id":"4","last_reported":1738163323,"current_range_meters":14800,"station_id":"","pricing_plan_id":"cebpf4jnsgd1na2vs0mg"},{"bike_id":"3d98c6ce-e80d-46e8-b577-648cd8c28632","system_id":"levelo_inurba_marseille","lat":43.34699,"lon":5.34741,"is_reserved":false,"is_disabled":true,"rental_uris":{"android":"levelo://app?vid=3d98c6ce-e80d-46e8-b577-648cd8c28632","ios":"levelo://app?vid=3d98c6ce-e80d-46e8-b577-648cd8c28632"},"vehicle_type_id":"4","last_reported":1738163323,"current_range_meters":0,"station_id":"","pricing_plan_id":"cebpf4jnsgd1na2vs0mg"},{"bike_id":"4cf6d350-7d8c-408b-848d-8fd2991d0194","system_id":"levelo_inurba_marseille","lat":43.25489,"lon":5.37652,"is_reserved":false,"is_disabled":false,"rental_uris":{"android":"levelo://app?vid=4cf6d350-7d8c-408b-848d-8fd2991d0194","ios":"levelo://app?vid=4cf6d350-7d8c-408b-848d-8fd2991d0194"},"vehicle_type_id":"4","last_reported":1738163323,"current_range_meters":37600,"station_id":"ce4bhh12rcd13ifvqff0","pricing_plan_id":"cebpf4jnsgd1na2vs0mg"},{"bike_id":"7313dec2-5949-49e8-85f7-d76938192ea4","system_id":"levelo_inurba_marseille","lat":43.29888,"lon":5.37474,"is_reserved":false,"is_disabled":false,"rental_uris":{"android":"levelo://app?vid=7313dec2-5949-49e8-85f7-d76938192ea4","ios":"levelo://app?vid=7313dec2-5949-49e8-85f7-d76938192ea4"},"vehicle_type_id":"4","last_reported":1738163323,"current_range_meters":18800,"station_id":"ce4bgjh2rcd13ifvqbg0","pricing_plan_id":"cebpf4jnsgd1na2vs0mg"},{"bike_id":"399650eb-1f99-4a83-8fc7-4d589cf367a1","system_id":"levelo_inurba_marseille","lat":43.27558,"lon":5.38412,"is_reserved":false,"is_disabled":false,"rental_uris":{"android":"levelo://app?vid=399650eb-1f99-4a83-8fc7-4d589cf367a1","ios":"levelo://app?vid=399650eb-1f99-4a83-8fc7-4d589cf367a1"},"vehicle_type_id":"4","last_reported":1738163323,"current_range_meters":28400,"station_id":"ce4bhh92rcd13ifvqfi0","pricing_plan_id":"cebpf4jnsgd1na2vs0mg"},{"bike_id":"dbbd005c-e291-4546-902c-e5ac4339e8b6","system_id":"levelo_inurba_marseille","lat":43.25712,"lon":5.41139,"is_reserved":false,"is_disabled":false,"rental_uris":{"android":"levelo://app?vid=dbbd005c-e291-4546-902c-e5ac4339e8b6","ios":"levelo://app?vid=dbbd005c-e291-4546-902c-e5ac4339e8b6"},"vehicle_type_id":"4","last_reported":1738163323,"current_range_meters":39200,"station_id":"ce4bhkp2rcd13ifvqgd0","pricing_plan_id":"cebpf4jnsgd1na2vs0mg"},{"bike_id":"95fe77dc-4ce0-40d6-92d7-776ff99fd904","system_id":"levelo_inurba_marseille","lat":43.2846,"lon":5.35887,"is_reserved":false,"is_disabled":false,"rental_uris":{"android":"levelo://app?vid=95fe77dc-4ce0-40d6-92d7-776ff99fd904","ios":"levelo://app?vid=95fe77dc-4ce0-40d6-92d7-776ff99fd904"},"vehicle_type_id":"4","last_reported":1738163323,"current_range_meters":38800,"station_id":"ce4bhah2rcd13ifvqei0","pricing_plan_id":"cebpf4jnsgd1na2vs0mg"},{"bike_id":"7bdef33e-8627-40c5-8883-2cce0d523ef1","system_id":"levelo_inurba_marseille","lat":43.26678,"lon":5.38252,"is_reserved":false,"is_disabled":false,"rental_uris":{"android":"levelo://app?vid=7bdef33e-8627-40c5-8883-2cce0d523ef1","ios":"levelo://app?vid=7bdef33e-8627-40c5-8883-2cce0d523ef1"},"vehicle_type_id":"4","last_reported":1738163323,"current_range_meters":34800,"station_id":"ce4bhg92rcd13ifvqf90","pricing_plan_id":"cebpf4jnsgd1na2vs0mg"},{"bike_id":"1cc72904-73db-4690-8d8d-9db3a2e22526","system_id":"levelo_inurba_marseille","lat":43.31093,"lon":5.42438,"is_reserved":false,"is_disabled":false,"rental_uris":{"android":"levelo://app?vid=1cc72904-73db-4690-8d8d-9db3a2e22526","ios":"levelo://app?vid=1cc72904-73db-4690-8d8d-9db3a2e22526"},"vehicle_type_id":"4","last_reported":1738163323,"current_range_meters":38000,"station_id":"ce4bhp92rcd13ifvqhag","pricing_plan_id":"cebpf4jnsgd1na2vs0mg"},{"bike_id":"f15b679f-02f3-4d89-b601-b09943064eea","system_id":"levelo_inurba_marseille","lat":43.2668,"lon":5.38262,"is_reserved":false,"is_disabled":false,"rental_uris":{"android":"levelo://app?vid=f15b679f-02f3-4d89-b601-b09943064eea","ios":"levelo://app?vid=f15b679f-02f3-4d89-b601-b09943064eea"},"vehicle_type_id":"4","last_reported":1738163323,"current_range_meters":6000,"station_id":"ce4bhg92rcd13ifvqf90","pricing_plan_id":"cebpf4jnsgd1na2vs0mg"},{"bike_id":"b1afbc66-c10c-49df-92ed-231f783bc76e","system_id":"levelo_inurba_marseille","lat":43.25108,"lon":5.40314,"is_reserved":false,"is_disabled":false,"rental_uris":{"android":"levelo://app?vid=b1afbc66-c10c-49df-92ed-231f783bc76e","ios":"levelo://app?vid=b1afbc66-c10c-49df-92ed-231f783bc76e"},"vehicle_type_id":"4","last_reported":1738163323,"current_range_meters":39200,"station_id":"ce4bhlh2rcd13ifvqgig","pricing_plan_id":"cebpf4jnsgd1na2vs0mg"},{"bike_id":"34b2f8cb-53e7-4f73-a080-f9a100b4887f","system_id":"levelo_inurba_marseille","lat":43.30797,"lon":5.38155,"is_reserved":false,"is_disabled":false,"rental_uris":{"android":"levelo://app?vid=34b2f8cb-53e7-4f73-a080-f9a100b4887f","ios":"levelo://app?vid=34b2f8cb-53e7-4f73-a080-f9a100b4887f"},"vehicle_type_id":"4","last_reported":1738163323,"current_range_meters":38400,"station_id":"ce4bgt12rcd13ifvqce0","pricing_plan_id":"cebpf4jnsgd1na2vs0mg"},