{"last_updated":1708106935,"ttl":30,"version":"2.2","data":{"bikes":[{"bike_id":"bbcb9c2c-d2de-406d-ad3e-23f2d2aa5b77","system_id":"levelo_inurba_marseille","lat":43.312239,"lon":5.368562,"is_reserved":false,"is_disabled":false,"rental_uris":{"android":"levelo://app?vid=bbcb9c2c-d2de-406d-ad3e-23f2d2aa5b77","ios":"levelo://app?vid=bbcb9c2c-d2de-406d-ad3e-23f2d2aa5b77"},"vehicle_type_id":"4","last_reported":1708106935,"current_range_meters":10000,"station_id":"ce4bgl92rcd13ifvqbq0","pricing_plan_id":"cebpf4jnsgd1na2vs0mg"},{"bike_id":"9c530efc-568a-4a7a-b7b8-961298c4086c","system_id":"levelo_inurba_marseille","lat":43.309076,"lon":5.368465,"is_reserved":false,"is_disabled":false,"rental_uris":{"android":"levelo://app?vid=9c530efc-568a-4a7a-b7b8-961298c4086c","ios":"levelo://app?vid=9c530efc-568a-4a7a-b7b8-961298c4086c"},"vehicle_type_id":"4","last_reported":1708106935,"current_range_meters":11200,"station_id":"ce4bgn92rcd13ifvqbvg","pricing_plan_id":"cebpf4jnsgd1na2vs0mg"},{"bike_id":"21f02fb1-d1dd-49ec-b462-92a86a26968a","system_id":"levelo_inurba_marseille","lat":43.309076,"lon":5.368465,"is_reserved":false,"is_disabled":false,"rental_uris":{"android":"levelo://app?vid=21f02fb1-d1dd-49ec-b462-92a86a26968a","ios":"levelo://app?vid=21f02fb1-d1dd-49ec-b462-92a86a26968a"},"vehicle_type_id":"4","last_reported":1708106935,"current_range_meters":3600,"station_id":"ce4bgn92rcd13ifvqbvg","pricing_plan_id":"cebpf4jnsgd1na2vs0mg"},{"bike_id":"9d91bbdb-0375-4aab-8956-199130c5b677","system_id":"levelo_inurba_marseille","lat":43.314811,"lon":5.373104,"is_reserved":false,"is_disabled":false,"rental_uris":{"android":"levelo://app?vid=9d91bbdb-0375-4aab-8956-199130c5b677","ios":"levelo://app?vid=9d91bbdb-0375-4aab-8956-199130c5b677"},"vehicle_type_id":"4","last_reported":1708106935,"current_range_meters":4400,"station_id":"ce4bgt12rcd13ifvqcd0","pricing_plan_id":"cebpf4jnsgd1na2vs0mg"},{"bike_id":"a50f194f-c1f4-4ca2-b7bd-0200ee4f5a4e","system_id":"levelo_inurba_marseille","lat":43.314811,"lon":5.373104,"is_reserved":false,"is_disabled":false,"rental_uris":{"android":"levelo://app?vid=a50f194f-c1f4-4ca2-b7bd-0200ee4f5a4e","ios":"levelo://app?vid=a50f194f-c1f4-4ca2-b7bd-0200ee4f5a4e"},"vehicle_type_id":"4","last_reported":1708106935,"current_range_meters":29200,"station_id":"ce4bgt12rcd13ifvqcd0","pricing_plan_id":"cebpf4jnsgd1na2vs0mg"},{"bike_id":"5f896cac-5c87-4996-b8ad-a4ced64222fb","system_id":"levelo_inurba_marseille","lat":43.314811,"lon":5.373103,"is_reserved":false,"is_disabled":false,"rental_uris":{"android":"levelo://app?vid=5f896cac-5c87-4996-b8ad-a4ced64222fb","ios":"levelo://app?vid=5f896cac-5c87-4996-b8ad-a4ced64222fb"},"vehicle_type_id":"4","last_reported":1708106935,"current_range_meters":19600,"station_id":"ce4bgt12rcd13ifvqcd0","pricing_plan_id":"cebpf4jnsgd1na2vs0mg"},{"bike_id":"952f28e2-5094-4a39-9224-04ec81404962","system_id":"levelo_inurba_marseille","lat":43.3055,"lon":5.36556,"is_reserved":false,"is_disabled":false,"rental_uris":{"android":"levelo://app?vid=952f28e2-5094-4a39-9224-04ec81404962","ios":"levelo://app?vid=952f28e2-5094-4a39-9224-04ec81404962"},"vehicle_type_id":"4","last_reported":1708106935,"current_range_meters":19200,"station_id":"ce4bgs12rcd13ifvqcag","pricing_plan_id":"cebpf4jnsgd1na2vs0mg"},{"bike_id":"5818abce-d6b0-4f49-9ee4-05befc955725","system_id":"levelo_inurba_marseille","lat":43.305495,"lon":5.365379,"is_reserved":false,"is_disabled":false,"rental_uris":{"android":"levelo://app?vid=5818abce-d6b0-4f49-9ee4-05befc955725","ios":"levelo://app?vid=5818abce-d6b0-4f49-9ee4-05befc955725"},"vehicle_type_id":"4","last_reported":1708106935,"current_range_meters":14000,"station_id":"ce4bgs12rcd13ifvqcag","pricing_plan_id":"cebpf4jnsgd1na2vs0mg"},{"bike_id":"ac5b9b36-2d65-4770-8b85-be5fa144ef28","system_id":"levelo_inurba_marseille","lat":43.305483,"lon":5.365397,"is_reserved":false,"is_disabled":false,"rental_uris":{"android":"levelo://app?vid=ac5b9b36-2d65-4770-8b85-be5fa144ef28","ios":"levelo://app?vid=ac5b9b36-2d65-4770-8b85-be5fa144ef28"},"vehicle_type_id":"4","last_reported":1708106935,"current_range_meters":22000,"station_id":"ce4bgs12rcd13ifvqcag","pricing_plan_id":"cebpf4jnsgd1na2vs0mg"},{"bike_id":"e81f6338-fbff-4834-8e3c-1b91c9664449","system_id":"levelo_inurba_marseille","lat":43.305488,"lon":5.365328,"is_reserved":false,"is_disabled":false,"rental_uris":{"android":"levelo://app?vid=e81f6338-fbff-4834-8e3c-1b91c9664449","ios":"levelo://app?vid=e81f6338-fbff-4834-8e3c-1b91c9664449"},"vehicle_type_id":"4","last_reported":1708106935,"current_range_meters":10400,"station_id":"ce4bgs12rcd13ifvqcag","pricing_plan_id":"cebpf4jnsgd1na2vs0mg"},{"bike_id":"5b8d60b1-0dea-4d36-8d75-69b1c6cd54fa","system_id":"levelo_inurba_marseille","lat":43.309039,"lon":5.371797,"is_reserved":false,"is_disabled":false,"rental_uris":{"android":"levelo://app?vid=5b8d60b1-0dea-4d36-8d75-69b1c6cd54fa","ios":"levelo://app?vid=5b8d60b1-0dea-4d36-8d75-69b1c6cd54fa"},"vehicle_type_id":"4","last_reported":1708106935,"current_range_meters":4000,"station_id":"ce4bguh2rcd13ifvqckg","pricing_plan_id":"cebpf4jnsgd1na2vs0mg"},{"bike_id":"e45edf22-68be-41c8-89fc-590fba67d888","system_id":"levelo_inurba_marseille","lat":43.305368,"lon":5.367343,"is_reserved":false,"is_disabled":false,"rental_uris":{"android":"levelo://app?vid=e45edf22-68be-41c8-89fc-590fba67d888","ios":"levelo://app?vid=e45edf22-68be-41c8-89fc-590fba67d888"},"vehicle_type_id":"4","last_reported":1708106935,"current_range_meters":6800,"station_id":"ce4bgrp2rcd13ifvqc9g","pricing_plan_id":"cebpf4jnsgd1na2vs0mg"},{"bike_id":"8fe469c5-84f8-4a2d-85a4-a180086c270c","system_id":"levelo_inurba_marseille","lat":43.305989,"lon":5.37225,"is_reserved":false,"is_disabled":false,"rental_uris":{"android":"levelo://app?vid=8fe469c5-84f8-4a2d-85a4-a180086c270c","ios":"levelo://app?vid=8fe469c5-84f8-4a2d-85a4-a180086c270c"},"vehicle_type_id":"4","last_reported":1708106935,"current_range_meters":21200,"station_id":"ce4bgqh2rcd13ifvqc4g","pricing_plan_id":"cebpf4jnsgd1na2vs0mg"},{"bike_id":"a3830b8f-60f8-4b84-8e37-6122928e9904","system_id":"levelo_inurba_marseille","lat":43.305989,"lon":5.37225,"is_reserved":false,"is_disabled":false,"rental_uris":{"android":"levelo://app?vid=a3830b8f-60f8-4b84-8e37-6122928e9904","ios":"levelo://app?vid=a3830b8f-60f8-4b84-8e37-6122928e9904"},"vehicle_type_id":"4","last_reported":1708106935,"current_range_meters":10400,"station_id":"ce4bgqh2rcd13ifvqc4g","pricing_plan_id":"cebpf4jnsgd1na2vs0mg"},{"bike_id":"b29f639d-2d17-4f5f-b749-b9d7419d46dd","system_id":"levelo_inurba_marseille","lat":43.311182,"lon":5.377686,"is_reserved":false,"is_disabled":false,"rental_uris":{"android":"levelo://app?vid=b29f639d-2d17-4f5f-b749-b9d7419d46dd","ios":"levelo://app?vid=b29f639d-2d17-4f5f-b749-b9d7419d46dd"},"vehicle_type_id":"4","last_reported":1708106935,"current_range_meters":2000,"station_id":"ce4bgt92rcd13ifvqcg0","pricing_plan_id":"cebpf4jnsgd1na2vs0mg"},{"bike_id":"04cecffb-c4bf-4003-ac85-e3921495aab8","system_id":"levelo_inurba_marseille","lat":43.311131,"lon":5.377651,"is_reserved":false,"is_disabled":false,"rental_uris":{"android":"levelo://app?vid=04cecffb-c4bf-4003-ac85-e3921495aab8","ios":"levelo://app?vid=04cecffb-c4bf-4003-ac85-e3921495aab8"},"vehicle_type_id":"4","last_reported":1708106935,"current_range_meters":4400,"station_id":"ce4bgt92rcd13ifvqcg0","pricing_plan_id":"cebpf4jnsgd1na2vs0mg"},{"bike_id":"ffb03e30-ff74-457d-ba2c-2cd35bbd3e9b","system_id":"levelo_inurba_marseille","lat":43.317075,"lon":5.377367,"is_reserved":false,"is_disabled":false,"rental_uris":{"android":"levelo://app?vid=ffb03e30-ff74-457d-ba2c-2cd35bbd3e9b","ios":"levelo://app?vid=ffb03e30-ff74-457d-ba2c-2cd35bbd3e9b"},"vehicle_type_id":"4","last_reported":1708106935,"current_range_meters":5200,"station_id":"ce4bgth2rcd13ifvqch0","pricing_plan_id":"cebpf4jnsgd1na2vs0mg"},{"bike_id":"b8503d1f-72be-4134-9519-07cbef17fa5a","system_id":"levelo_inurba_marseille","lat":43.307887,"lon":5.376519,"is_reserved":false,"is_disabled":false,"rental_uris":{"android":"levelo://app?vid=b8503d1f-72be-4134-9519-07cbef17fa5a","ios":"levelo://app?vid=b8503d1f-72be-4134-9519-07cbef17fa5a"},"vehicle_type_id":"4","last_reported":1708106935,"current_range_meters":28000,"station_id":"ce4bgv92rcd13ifvqcq0","pricing_plan_id":"cebpf4jnsgd1na2vs0mg"},{"bike_id":"6589231a-ecca-4ae7-8f54-d9c0dfa74678","system_id":"levelo_inurba_marseille","lat":43.30789,"lon":5.37654,"is_reserved":false,"is_disabled":false,"rental_uris":{"android":"levelo://app?vid=6589231a-ecca-4ae7-8f54-d9c0dfa74678","ios":"levelo://app?vid=6589231a-ecca-4ae7-8f54-d9c0dfa74678"},"vehicle_type_id":"4","last_reported":1708106935,"current_range_meters":22000,"station_id":"ce4bgv92rcd13ifvqcq0","pricing_plan_id":"cebpf4jnsgd1na2vs0mg"},{"bike_id":"af45449b-f86d-4a2c-b9ce-b4012fed59d1","system_id":"levelo_inurba_marseille","lat":43.30785,"lon":5.37653,"is_reserved":false,"is_disabled":false,"rental_uris":{"android":"levelo://app?vid=af45449b-f86d-4a2c-b9ce-b4012fed59d1","ios":"levelo://app?vid=af45449b-f86d-4a2c-b9ce-b4012fed59d1"},"vehicle_type_id":"4","last_reported":1708106935,"current_range_meters":19200,"station_id":"ce4bgv92rcd13ifvqcq0","pricing_plan_id":"cebpf4jnsgd1na2vs0mg"},{"bike_id":"fc90378a-9fa2-4a0c-bede-597f863667f4","system_id":"levelo_inurba_marseille","lat":43.30781,"lon":5.37653,"is_reserved":false,"is_disabled":false,"rental_uris":{"android":"levelo://app?vid=fc90378a-9fa2-4a0c-bede-597f863667f4","ios":"levelo://app?vid=fc90378a-9fa2-4a0c-bede-597f863667f4"},"vehicle_type_id":"4","last_reported":1708106935,"current_range_meters":16400,"station_id":"ce4bgv92rcd13ifvqcq0","pricing_plan_id":"cebpf4jnsgd1na2vs0mg"},{"bike_id":"8148dcf1-3afb-4ffe-aee5-47850c3932df","system_id":"levelo_inurba_marseille","lat":43.307945,"lon":5.376487,"is_reserved":false,"is_disabled":false,"rental_uris":{"android":"levelo://app?vid=8148dcf1-3afb-4ffe-aee5-47850c3932df","ios":"levelo://app?vid=8148dcf1-3afb-4ffe-aee5-47850c3932df"},"vehicle_type_id":"4","last_reported":1708106935,"current_range_meters":2000,"station_id":"ce4bgv92rcd13ifvqcq0","pricing_plan_id":"cebpf4jnsgd1na2vs0mg"},{"bike_id":"b9567b88-37de-411a-94c4-a25bf1255180","system_id":"levelo_inurba_marseille","lat":43.307945,"lon":5.376487,"is_reserved":false,"is_disabled":false,"rental_uris":{"android":"levelo://app?vid=b9567b88-37de-411a-94c4-a25bf1255180","ios":"levelo://app?vid=b9567b88-37de-411a-94c4-a25bf1255180"},"vehicle_type_id":"4","last_reported":1708106935,"current_range_meters":23200,"station_id":"ce4bgv92rcd13ifvqcq0","pricing_plan_id":"cebpf4jnsgd1na2vs0mg"},{"bike_id":"e0ab11de-fc9c-4d4b-971a-3b2ba2a23340","system_id":"levelo_inurba_marseille","lat":43.317075,"lon":5.377367,"is_reserved":false,"is_disabled":false,"rental_uris":{"android":"levelo://app?vid=e0ab11de-fc9c-4d4b-971a-3b2ba2a23340","ios":"levelo://app?vid=e0ab11de-fc9c-4d4b-971a-3b2ba2a23340"},"vehicle_type_id":"4","last_reported":1708106935,"current_range_meters":31200,"station_id":"ce4bgth2rcd13ifvqch0","pricing_plan_id":"cebpf4jnsgd1na2vs0mg"},{"bike_id":"e8396d9b-01ad-42aa-ae6a-25e7361077f6","system_id":"levelo_inurba_marseille","lat":43.317075,"lon":5.377367,"is_reserved":false,"is_disabled":false,"rental_uris":{"android":"levelo://app?vid=e8396d9b-01ad-42aa-ae6a-25e7361077f6","ios":"levelo://app?vid=e8396d9b-01ad-42aa-ae6a-25e7361077f6"},"vehicle_type_id":"4","last_reported":1708106935,"current_range_meters":31200,"station_id":"ce4bgth2rcd13ifvqch0","pricing_plan_id":"cebpf4jnsgd1na2vs0mg"},{"bike_id":"cc5957e6-fbd1-424d-9cd7-351143fc571e","system_id":"levelo_inurba_marseille","lat":43.317075,"lon":5.377367,"is_reserved":false,"is_disabled":false,"rental_uris":{"android":"levelo://app?vid=cc5957e6-fbd1-424d-9cd7-351143fc571e","ios":"levelo://app?vid=cc5957e6-fbd1-424d-9cd7-351143fc571e"},"vehicle_type_id":"4","last_reported":1708106935,"current_range_meters":24000,"station_id":"ce4bgth2rcd13ifvqch0","pricing_plan_id":"cebpf4jnsgd1na2vs0mg"},{"bike_id":"e841ab86-75f1-48f4-99c6-c0452dc2f6ec","system_id":"levelo_inurba_marseille","lat":43.31704,"lon":5.377581,"is_reserved":false,"is_disabled":false,"rental_uris":{"android":"levelo://app?vid=e841ab86-75f1-48f4-99c6-c0452dc2f6ec","ios":"levelo://app?vid=e841ab86-75f1-48f4-99c6-c0452dc2f6ec"},"vehicle_type_id":"4","last_reported":1708106935,"current_range_meters":20000,"station_id":"ce4bgth2rcd13ifvqch0","pricing_plan_id":"cebpf4jnsgd1na2vs0mg"},{"bike_id":"a9531e14-b43f-4c5b-9c30-9a60ea895c45","system_id":"levelo_inurba_marseille","lat":43.317075,"lon":5.377367,"is_reserved":false,"is_disabled":false,"rental_uris":{"android":"levelo://app?vid=a9531e14-b43f-4c5b-9c30-9a60ea895c45","ios":"levelo://app?vid=a9531e14-b43f-4c5b-9c30-9a60ea895c45"},"vehicle_type_id":"4","last_reported":1708106935,"current_range_meters":31200,"station_id":"ce4bgth2rcd13ifvqch0","pricing_plan_id":"cebpf4jnsgd1na2vs0mg"},{"bike_id":"0059c36f-e434-465b-b808-3f6d5cd3216c","system_id":"levelo_inurba_marseille","lat":43.317075,"lon":5.377367,"is_reserved":false,"is_disabled":false,"rental_uris":{"android":"levelo://app?vid=0059c36f-e434-465b-b808-3f6d5cd3216c","ios":"levelo://app?vid=0059c36f-e434-465b-b808-3f6d5cd3216c"},"vehicle_type_id":"4","last_reported":1708106935,"current_range_meters":10400,"station_id":"ce4bgth2rcd13ifvqch0","pricing_plan_id":"cebpf4jnsgd1na2vs0mg"},{"bike_id":"d14c6b08-f17f-4756-bf03-548f68454f74","system_id":"levelo_inurba_marseille","lat":43.317075,"lon":5.377367,"is_reserved":false,"is_disabled":false,"rental_uris":{"android":"levelo://app?vid=d14c6b08-f17f-4756-bf03-548f68454f74","ios":"levelo://app?vid=d14c6b08-f17f-4756-bf03-548f68454f74"},"vehicle_type_id":"4","last_reported":1708106935,"current_range_meters":24000,"station_id":"ce4bgth2rcd13ifvqch0","pricing_plan_id":"cebpf4jnsgd1na2vs0mg"},{"bike_id":"0e1bb166-0a2c-4f3b-ba78-1c392089197c","system_id":"levelo_inurba_marseille","lat":43.303046,"lon":5.368981,"is_reserved":false,"is_disabled":false,"rental_uris":{"android":"levelo://app?vid=0e1bb166-0a2c-4f3b-ba78-1c392089197c","ios":"levelo://app?vid=0e1bb166-0a2c-4f3b-ba78-1c392089197c"},"vehicle_type_id":"4","last_reported":1708106935,"current_range_meters":20000,"station_id":"ce4bgqh2rcd13ifvqc5g","pricing_plan_id":"cebpf4jnsgd1na2vs0mg"},{"bike_id":"bd358fc6-c8f1-4017-aba5-09b1b508f5e5","system_id":"levelo_inurba_marseille","lat":43.315293,"lon":5.380349,"is_reserved":false,"is_disabled":false,"rental_uris":{"android":"levelo://app?vid=bd358fc6-c8f1-4017-aba5-09b1b508f5e5","ios":"levelo://app?vid=bd358fc6-c8f1-4017-aba5-09b1b508f5e5"},"vehicle_type_id":"4","last_reported":1708106935,"current_range_meters":4800,"station_id":"ce4bhsp2rcd13ifvqi50","pricing_plan_id":"cebpf4jnsgd1na2vs0mg"},{"bike_id":"cc581105-d44c-4fc8-8453-0d12fa3514f9","system_id":"levelo_inurba_marseille","lat":43.301939,"lon":5.366286,"is_reserved":false,"is_disabled":false,"rental_uris":{"android":"levelo://app?vid=cc581105-d44c-4fc8-8453-0d12fa3514f9","ios":"levelo://app?vid=cc581105-d44c-4fc8-8453-0d12fa3514f9"},"vehicle_type_id":"4","last_reported":1708106935,"current_range_meters":12000,"station_id":"ce4bgrh2rcd13ifvqc8g","pricing_plan_id":"cebpf4jnsgd1na2vs0mg"},{"bike_id":"a7fbe995-7e07-4640-8104-a31a9badee7b","system_id":"levelo_inurba_marseille","lat":43.308963,"lon":5.380627,"is_reserved":false,"is_disabled":false,"rental_uris":{"android":"levelo://app?vid=a7fbe995-7e07-4640-8104-a31a9badee7b","ios":"levelo://app?vid=a7fbe995-7e07-4640-8104-a31a9badee7b"},"vehicle_type_id":"4","last_reported":1708106935,"current_range_meters":0,"station_id":"","pricing_plan_id":"cebpf4jnsgd1na2vs0mg"},{"bike_id":"72160303-50b2-48bf-a860-be9f71c31b48","system_id":"levelo_inurba_marseille","lat":43.301939,"lon":5.366286,"is_reserved":false,"is_disabled":false,"rental_uris":{"android":"levelo://app?vid=72160303-50b2-48bf-a860-be9f71c31b48","ios":"levelo://app?vid=72160303-50b2-48bf-a860-be9f71c31b48"},"vehicle_type_id":"4","last_reported":1708106935,"current_range_meters":20400,"station_id":"ce4bgrh2rcd13ifvqc8g","pricing_plan_id":"cebpf4jnsgd1na2vs0mg"},{"bike_id":"ffa6605d-482e-4721-839c-9897862478bc","system_id":"levelo_inurba_marseille","lat":43.301939,"lon":5.366286,"is_reserved":false,"is_disabled":false,"rental_uris":{"android":"levelo://app?vid=ffa6605d-482e-4721-839c-9897862478bc","ios":"levelo://app?vid=ffa6605d-482e-4721-839c-9897862478bc"},"vehicle_type_id":"4","last_reported":1708106935,"current_range_meters":12000,"station_id":"ce4bgrh2rcd13ifvqc8g","pricing_plan_id":"cebpf4jnsgd1na2vs0mg"},{"bike_id":"f44a9d65-cfae-4d5c-b292-a8e5a9e7dd63","system_id":"levelo_inurba_marseille","lat":43.308012,"lon":5.381511,"is_reserved":false,"is_disabled":false,"rental_uris":{"android":"levelo://app?vid=f44a9d65-cfae-4d5c-b292-a8e5a9e7dd63","ios":"levelo://app?vid=f44a9d65-cfae-4d5c-b292-a8e5a9e7dd63"},"vehicle_type_id":"4","last_reported":1708106935,"current_range_meters":22000,"station_id":"ce4bgt12rcd13ifvqce0","pricing_plan_id":"cebpf4jnsgd1na2vs0mg"},{"bike_id":"2ad824c0-4281-4f3b-b9ac-7b571652ee38","system_id":"levelo_inurba_marseille","lat":43.304606,"lon":5.379026,"is_reserved":false,"is_disabled":false,"rental_uris":{"android":"levelo://app?vid=2ad824c0-4281-4f3b-b9ac-7b571652ee38","ios":"levelo://app?vid=2ad824c0-4281-4f3b-b9ac-7b571652ee38"},"vehicle_type_id":"4","last_reported":1708106935,"current_range_meters":18400,"station_id":"ce4bgup2rcd13ifvqcn0","pricing_plan_id":"cebpf4jnsgd1na2vs0mg"},{"bike_id":"3a1ee309-0250-4c70-8451-c92492a2b02d","system_id":"levelo_inurba_marseille","lat":43.304606,"lon":5.379026,"is_reserved":false,"is_disabled":false,"rental_uris":{"android":"levelo://app?vid=3a1ee309-0250-4c70-8451-c92492a2b02d","ios":"levelo://app?vid=3a1ee309-0250-4c70-8451-c92492a2b02d"},"vehicle_type_id":"4","last_reported":1708106935,"current_range_meters":29200,"station_id":"ce4bgup2rcd13ifvqcn0","pricing_plan_id":"cebpf4jnsgd1na2vs0mg"},{"bike_id":"ea5e91ff-e042-404e-a60a-faebb03d014a","system_id":"levelo_inurba_marseille","lat":43.304606,"lon":5.379026,"is_reserved":false,"is_disabled":false,"rental_uris":{"android":"levelo://app?vid=ea5e91ff-e042-404e-a60a-faebb03d014a","ios":"levelo://app?vid=ea5e91ff-e042-404e-a60a-faebb03d014a"},"vehicle_type_id":"4","last_reported":1708106935,"current_range_meters":18400,"station_id":"ce4bgup2rcd13ifvqcn0","pricing_plan_id":"cebpf4jnsgd1na2vs0mg"},{"bike_id":"6b7ad964-2936-4ab3-b121-8c67db0f562d","system_id":"levelo_inurba_marseille","lat":43.310804,"lon":5.38359,"is_reserved":false,"is_disabled":false,"rental_uris":{"android":"levelo://app?vid=6b7ad964-2936-4ab3-b121-8c67db0f562d","ios":"levelo://app?vid=6b7ad964-2936-4ab3-b121-8c67db0f562d"},"vehicle_type_id":"4","last_reported":1708106935,"current_range_meters":20800,"station_id":"ce4bgv92rcd13ifvqcr0","pricing_plan_id":"cebpf4jnsgd1na2vs0mg"},{"bike_id":"99c81edb-b57e-438c-8ec6-cc469446db51","system_id":"levelo_inurba_marseille","lat":43.324771,"lon":5.36557,"is_reserved":false,"is_disabled":false,"rental_uris":{"android":"levelo://app?vid=99c81edb-b57e-438c-8ec6-cc469446db51","ios":"levelo://app?vid=99c81edb-b57e-438c-8ec6-cc469446db51"},"vehicle_type_id":"4","last_reported":1708106935,"current_range_meters":5600,"station_id":"ce4bhs12rcd13ifvqhvg","pricing_plan_id":"cebpf4jnsgd1na2vs0mg"},{"bike_id":"3af487a9-52e6-47a1-b645-48e1c5e124c8","system_id":"levelo_inurba_marseille","lat":43.324771,"lon":5.36557,"is_reserved":false,"is_disabled":false,"rental_uris":{"android":"levelo://app?vid=3af487a9-52e6-47a1-b645-48e1c5e124c8","ios":"levelo://app?vid=3af487a9-52e6-47a1-b645-48e1c5e124c8"},"vehicle_type_id":"4","last_reported":1708106935,"current_range_meters":16400,"station_id":"ce4bhs12rcd13ifvqhvg","pricing_plan_id":"cebpf4jnsgd1na2vs0mg"},{"bike_id":"47024265-3d51-4a77-b25d-6d74135771d6","system_id":"levelo_inurba_marseille","lat":43.324874,"lon":5.36564,"is_reserved":false,"is_disabled":false,"rental_uris":{"android":"levelo://app?vid=47024265-3d51-4a77-b25d-6d74135771d6","ios":"levelo://app?vid=47024265-3d51-4a77-b25d-6d74135771d6"},"vehicle_type_id":"4","last_reported":1708106935,"current_range_meters":7200,"station_id":"ce4bhs12rcd13ifvqhvg","pricing_plan_id":"cebpf4jnsgd1na2vs0mg"},{"bike_id":"e4b61d04-1f65-4b69-987e-48eb73204e86","system_id":"levelo_inurba_marseille","lat":43.324771,"lon":5.36557,"is_reserved":false,"is_disabled":false,"rental_uris":{"android":"levelo://app?vid=e4b61d04-1f65-4b69-987e-48eb73204e86","ios":"levelo://app?vid=e4b61d04-1f65-4b69-987e-48eb73204e86"},"vehicle_type_id":"4","last_reported":1708106935,"current_range_meters":9600,"station_id":"ce4bhs12rcd13ifvqhvg","pricing_plan_id":"cebpf4jnsgd1na2vs0mg"},{"bike_id":"d923658c-e5c6-4653-8780-3258a4a11b9c","system_id":"levelo_inurba_marseille","lat":43.310804,"lon":5.38359,"is_reserved":false,"is_disabled":false,"rental_uris":{"android":"levelo://app?vid=d923658c-e5c6-4653-8780-3258a4a11b9c","ios":"levelo://app?vid=d923658c-e5c6-4653-8780-3258a4a11b9c"},"vehicle_type_id":"4","last_reported":1708106935,"current_range_meters":2800,"station_id":"ce4bgv92rcd13ifvqcr0","pricing_plan_id":"cebpf4jnsgd1na2vs0mg"},{"bike_id":"9a731e7a-43e5-4fc3-8f5b-b0106b841a6a","system_id":"levelo_inurba_marseille","lat":43.310804,"lon":5.38359,"is_reserved":false,"is_disabled":false,"rental_uris":{"android":"levelo://app?vid=9a731e7a-43e5-4fc3-8f5b-b0106b841a6a","ios":"levelo://app?vid=9a731e7a-43e5-4fc3-8f5b-b0106b841a6a"},"vehicle_type_id":"4","last_reported":1708106935,"current_range_meters":22000,"station_id":"ce4bgv92rcd13ifvqcr0","pricing_plan_id":"cebpf4jnsgd1na2vs0mg"},{"bike_id":"ab30b2d8-abc4-4ae2-9618-c8fd7ee00b83","system_id":"levelo_inurba_marseille","lat":43.30143,"lon":5.37413,"is_reserved":false,"is_disabled":false,"rental_uris":{"android":"levelo://app?vid=ab30b2d8-abc4-4ae2-9618-c8fd7ee00b83","ios":"levelo://app?vid=ab30b2d8-abc4-4ae2-9618-c8fd7ee00b83"},"vehicle_type_id":"4","last_reported":1708106935,"current_range_meters":6800,"station_id":"ce4bgs92rcd13ifvqcc0","pricing_plan_id":"cebpf4jnsgd1na2vs0mg"},{"bike_id":"2d76af47-c728-4336-9ab6-040dda11a28b","system_id":"levelo_inurba_marseille","lat":43.319935,"lon":5.381699,"is_reserved":false,"is_disabled":false,"rental_uris":{"android":"levelo://app?vid=2d76af47-c728-4336-9ab6-040dda11a28b","ios":"levelo://app?vid=2d76af47-c728-4336-9ab6-040dda11a28b"},"vehicle_type_id":"4","last_reported":1708106935,"current_range_meters":7200,"station_id":"ce4bhr12rcd13ifvqhpg","pricing_plan_id":"cebpf4jnsgd1na2vs0mg"},{"bike_id":"cec17300-11df-45f5-9fc2-654bdac57e67","system_id":"levelo_inurba_marseille","lat":43.319935,"lon":5.381699,"is_reserved":false,"is_disabled":false,"rental_uris":{"android":"levelo://app?vid=cec17300-11df-45f5-9fc2-654bdac57e67","ios":"levelo://app?vid=cec17300-11df-45f5-9fc2-654bdac57e67"},"vehicle_type_id":"4","last_reported":1708106935,"current_range_meters":0,"station_id":"ce4bhr12rcd13ifvqhpg","pricing_plan_id":"cebpf4jnsgd1na2vs0mg"},{"bike_id":"9d8c0a3b-7f60-4523-aa49-51e9485356f5","system_id":"levelo_inurba_marseille","lat":43.319935,"lon":5.381699,"is_reserved":false,"is_disabled":false,"rental_uris":{"android":"levelo://app?vid=9d8c0a3b-7f60-4523-aa49-51e9485356f5","ios":"levelo://app?vid=9d8c0a3b-7f60-4523-aa49-51e9485356f5"},"vehicle_type_id":"4","last_reported":1708106935,"current_range_meters":12400,"station_id":"ce4bhr12rcd13ifvqhpg","pricing_plan_id":"cebpf4jnsgd1na2vs0mg"},{"bike_id":"fcd1c5ff-7ff1-45d7-a993-8e4b91a97aff","system_id":"levelo_inurba_marseille","lat":43.319935,"lon":5.381699,"is_reserved":false,"is_disabled":false,"rental_uris":{"android":"levelo://app?vid=fcd1c5ff-7ff1-45d7-a993-8e4b91a97aff","ios":"levelo://app?vid=fcd1c5ff-7ff1-45d7-a993-8e4b91a97aff"},"vehicle_type_id":"4","last_reported":1708106935,"current_range_meters":28000,"station_id":"ce4bhr12rcd13ifvqhpg","pricing_plan_id":"cebpf4jnsgd1na2vs0mg"},{"bike_id":"253f57d7-e42e-4792-99e9-60a4836727c6","system_id":"levelo_inurba_marseille","lat":43.319935,"lon":5.381699,"is_reserved":false,"is_disabled":false,"rental_uris":{"android":"levelo://app?vid=253f57d7-e42e-4792-99e9-60a4836727c6","ios":"levelo://app?vid=253f57d7-e42e-4792-99e9-60a4836727c6"},"vehicle_type_id":"4","last_reported":1708106935,"current_range_meters":1600,"station_id":"ce4bhr12rcd13ifvqhpg","pricing_plan_id":"cebpf4jnsgd1na2vs0mg"},{"bike_id":"a01b2ae4-3880-4ec4-8bd9-6e5e09b4e373","system_id":"levelo_inurba_marseille","lat":43.319935,"lon":5.381699,"is_reserved":false,"is_disabled":false,"rental_uris":{"android":"levelo://app?vid=a01b2ae4-3880-4ec4-8bd9-6e5e09b4e373","ios":"levelo://app?vid=a01b2ae4-3880-4ec4-8bd9-6e5e09b4e373"},"vehicle_type_id":"4","last_reported":1708106935,"current_range_meters":14800,"station_id":"ce4bhr12rcd13ifvqhpg","pricing_plan_id":"cebpf4jnsgd1na2vs0mg"},{"bike_id":"845fd323-50ae-414f-82a1-786341fa975e","system_id":"levelo_inurba_marseille","lat":43.319935,"lon":5.381699,"is_reserved":false,"is_disabled":false,"rental_uris":{"android":"levelo://app?vid=845fd323-50ae-414f-82a1-786341fa975e","ios":"levelo://app?vid=845fd323-50ae-414f-82a1-786341fa975e"},"vehicle_type_id":"4","last_reported":1708106935,"current_range_meters":3200,"station_id":"ce4bhr12rcd13ifvqhpg","pricing_plan_id":"cebpf4jnsgd1na2vs0mg"},{"bike_id":"d61716a1-f041-48a6-b4b7-d68f667bec05","system_id":"levelo_inurba_marseille","lat":43.313571,"lon":5.384829,"is_reserved":false,"is_disabled":false,"rental_uris":{"android":"levelo://app?vid=d61716a1-f041-48a6-b4b7-d68f667bec05","ios":"levelo://app?vid=d61716a1-f041-48a6-b4b7-d68f667bec05"},"vehicle_type_id":"4","last_reported":1708106935,"current_range_meters":26400,"station_id":"ce4bgt92rcd13ifvqcf0","pricing_plan_id":"cebpf4jnsgd1na2vs0mg"},{"bike_id":"9026063a-c4a8-4b99-8813-7eea6e72a959","system_id":"levelo_inurba_marseille","lat":43.313571,"lon":5.384829,"is_reserved":false,"is_disabled":false,"rental_uris":{"android":"levelo://app?vid=9026063a-c4a8-4b99-8813-7eea6e72a959","ios":"levelo://app?vid=9026063a-c4a8-4b99-8813-7eea6e72a959"},"vehicle_type_id":"4","last_reported":1708106935,"current_range_meters":11600,"station_id":"ce4bgt92rcd13ifvqcf0","pricing_plan_id":"cebpf4jnsgd1na2vs0mg"},{"bike_id":"77470458-96b1-4fde-b55d-0e1a2012d7cb","system_id":"levelo_inurba_marseille","lat":43.299475,"lon":5.365459,"is_reserved":false,"is_disabled":false,"rental_uris":{"android":"levelo://app?vid=77470458-96b1-4fde-b55d-0e1a2012d7cb","ios":"levelo://app?vid=77470458-96b1-4fde-b55d-0e1a2012d7cb"},"vehicle_type_id":"4","last_reported":1708106935,"current_range_meters":18800,"station_id":"ce4bgm92rcd13ifvqbr0","pricing_plan_id":"cebpf4jnsgd1na2vs0mg"},{"bike_id":"bc00c201-004e-443a-8509-fb029f271b40","system_id":"levelo_inurba_marseille","lat":43.299724,"lon":5.371829,"is_reserved":false,"is_disabled":false,"rental_uris":{"android":"levelo://app?vid=bc00c201-004e-443a-8509-fb029f271b40","ios":"levelo://app?vid=bc00c201-004e-443a-8509-fb029f271b40"},"vehicle_type_id":"4","last_reported":1708106935,"current_range_meters":16000,"station_id":"ce4bgr92rcd13ifvqc7g","pricing_plan_id":"cebpf4jnsgd1na2vs0mg"},{"bike_id":"8879e26d-c39c-4e0a-b79c-1825fc1a114b","system_id":"levelo_inurba_marseille","lat":43.299724,"lon":5.371829,"is_reserved":false,"is_disabled":false,"rental_uris":{"android":"levelo://app?vid=8879e26d-c39c-4e0a-b79c-1825fc1a114b","ios":"levelo://app?vid=8879e26d-c39c-4e0a-b79c-1825fc1a114b"},"vehicle_type_id":"4","last_reported":1708106935,"current_range_meters":21200,"station_id":"ce4bgr92rcd13ifvqc7g","pricing_plan_id":"cebpf4jnsgd1na2vs0mg"},{"bike_id":"9348e240-fb5b-46f5-a8dd-6d3f36013335","system_id":"levelo_inurba_marseille","lat":43.299724,"lon":5.371829,"is_reserved":false,"is_disabled":false,"rental_uris":{"android":"levelo://app?vid=9348e240-fb5b-46f5-a8dd-6d3f36013335","ios":"levelo://app?vid=9348e240-fb5b-46f5-a8dd-6d3f36013335"},"vehicle_type_id":"4","last_reported":1708106935,"current_range_meters":18800,"station_id":"ce4bgr92rcd13ifvqc7g","pricing_plan_id":"cebpf4jnsgd1na2vs0mg"},{"bike_id":"b7836c59-0ac8-4177-926e-cfd04c71ab12","system_id":"levelo_inurba_marseille","lat":43.299724,"lon":5.371829,"is_reserved":false,"is_disabled":false,"rental_uris":{"android":"levelo://app?vid=b7836c59-0ac8-4177-926e-cfd04c71ab12","ios":"levelo://app?vid=b7836c59-0ac8-4177-926e-cfd04c71ab12"},"vehicle_type_id":"4","last_reported":1708106935,"current_range_meters":2000,"station_id":"ce4bgr92rcd13ifvqc7g","pricing_plan_id":"cebpf4jnsgd1na2vs0mg"},{"bike_id":"dfdf9fba-d380-4d80-bda4-b50e23d545fc","system_id":"levelo_inurba_marseille","lat":43.299575,"lon":5.371683,"is_reserved":false,"is_disabled":false,"rental_uris":{"android":"levelo://app?vid=dfdf9fba-d380-4d80-bda4-b50e23d545fc","ios":"levelo://app?vid=dfdf9fba-d380-4d80-bda4-b50e23d545fc"},"vehicle_type_id":"4","last_reported":1708106935,"current_range_meters":26400,"station_id":"ce4bgr92rcd13ifvqc7g","pricing_plan_id":"cebpf4jnsgd1na2vs0mg"},{"bike_id":"dd2be7c7-d39e-42f9-b4aa-905d49619990","system_id":"levelo_inurba_marseille","lat":43.322872,"lon":5.382756,"is_reserved":false,"is_disabled":false,"rental_uris":{"android":"levelo://app?vid=dd2be7c7-d39e-42f9-b4aa-905d49619990","ios":"levelo://app?vid=dd2be7c7-d39e-42f9-b4aa-905d49619990"},"vehicle_type_id":"4","last_reported":1708106935,"current_range_meters":1600,"station_id":"ce4bhr12rcd13ifvqhqg","pricing_plan_id":"cebpf4jnsgd1na2vs0mg"},{"bike_id":"24314aa1-f34b-4484-80ca-f22e84fa27de","system_id":"levelo_inurba_marseille","lat":43.298433,"lon":5.362774,"is_reserved":false,"is_disabled":false,"rental_uris":{"android":"levelo://app?vid=24314aa1-f34b-4484-80ca-f22e84fa27de","ios":"levelo://app?vid=24314aa1-f34b-4484-80ca-f22e84fa27de"},"vehicle_type_id":"4","last_reported":1708106935,"current_range_meters":4400,"station_id":"ce4bgpp2rcd13ifvqc3g","pricing_plan_id":"cebpf4jnsgd1na2vs0mg"},{"bike_id":"4b1cda39-7d52-4721-8509-23c9f1d52b93","system_id":"levelo_inurba_marseille","lat":43.299243,"lon":5.374807,"is_reserved":false,"is_disabled":false,"rental_uris":{"android":"levelo://app?vid=4b1cda39-7d52-4721-8509-23c9f1d52b93","ios":"levelo://app?vid=4b1cda39-7d52-4721-8509-23c9f1d52b93"},"vehicle_type_id":"4","last_reported":1708106935,"current_range_meters":4400,"station_id":"ce4bgjh2rcd13ifvqbg0","pricing_plan_id":"cebpf4jnsgd1na2vs0mg"},{"bike_id":"4e9c45e0-91d1-4d15-abf0-bddc19137c55","system_id":"levelo_inurba_marseille","lat":43.305364,"lon":5.384119,"is_reserved":false,"is_disabled":false,"rental_uris":{"android":"levelo://app?vid=4e9c45e0-91d1-4d15-abf0-bddc19137c55","ios":"levelo://app?vid=4e9c45e0-91d1-4d15-abf0-bddc19137c55"},"vehicle_type_id":"4","last_reported":1708106935,"current_range_meters":13200,"station_id":"ce4bgg92rcd13ifvqb30","pricing_plan_id":"cebpf4jnsgd1na2vs0mg"},{"bike_id":"05211267-316b-44a1-8e06-80ad7840db1d","system_id":"levelo_inurba_marseille","lat":43.29928,"lon":5.375,"is_reserved":false,"is_disabled":false,"rental_uris":{"android":"levelo://app?vid=05211267-316b-44a1-8e06-80ad7840db1d","ios":"levelo://app?vid=05211267-316b-44a1-8e06-80ad7840db1d"},"vehicle_type_id":"4","last_reported":1708106935,"current_range_meters":16800,"station_id":"ce4bgjh2rcd13ifvqbg0","pricing_plan_id":"cebpf4jnsgd1na2vs0mg"},{"bike_id":"c750b096-d474-46ba-b2cc-f890da1807e2","system_id":"levelo_inurba_marseille","lat":43.299243,"lon":5.374807,"is_reserved":false,"is_disabled":false,"rental_uris":{"android":"levelo://app?vid=c750b096-d474-46ba-b2cc-f890da1807e2","ios":"levelo://app?vid=c750b096-d474-46ba-b2cc-f890da1807e2"},"vehicle_type_id":"4","last_reported":1708106935,"current_range_meters":0,"station_id":"ce4bgjh2rcd13ifvqbg0","pricing_plan_id":"cebpf4jnsgd1na2vs0mg"},{"bike_id":"128e9271-a662-4c3c-ae11-ae223d3cacf6","system_id":"levelo_inurba_marseille","lat":43.311722,"lon":5.387247,"is_reserved":false,"is_disabled":false,"rental_uris":{"android":"levelo://app?vid=128e9271-a662-4c3c-ae11-ae223d3cacf6","ios":"levelo://app?vid=128e9271-a662-4c3c-ae11-ae223d3cacf6"},"vehicle_type_id":"4","last_reported":1708106935,"current_range_meters":10800,"station_id":"ce4bgv12rcd13ifvqcp0","pricing_plan_id":"cebpf4jnsgd1na2vs0mg"},{"bike_id":"34d8b8ee-ecf6-44ab-91c4-36cff7b5f8d3","system_id":"levelo_inurba_marseille","lat":43.299158,"lon":5.374984,"is_reserved":false,"is_disabled":false,"rental_uris":{"android":"levelo://app?vid=34d8b8ee-ecf6-44ab-91c4-36cff7b5f8d3","ios":"levelo://app?vid=34d8b8ee-ecf6-44ab-91c4-36cff7b5f8d3"},"vehicle_type_id":"4","last_reported":1708106935,"current_range_meters":0,"station_id":"ce4bgjh2rcd13ifvqbg0","pricing_plan_id":"cebpf4jnsgd1na2vs0mg"},{"bike_id":"70eafe38-1027-4423-ac4b-7fe911837f5c","system_id":"levelo_inurba_marseille","lat":43.32663,"lon":5.374436,"is_reserved":false,"is_disabled":false,"rental_uris":{"android":"levelo://app?vid=70eafe38-1027-4423-ac4b-7fe911837f5c","ios":"levelo://app?vid=70eafe38-1027-4423-ac4b-7fe911837f5c"},"vehicle_type_id":"4","last_reported":1708106935,"current_range_meters":4800,"station_id":"","pricing_plan_id":"cebpf4jnsgd1na2vs0mg"},{"bike_id":"b13fb1f9-b572-463c-aaba-30c891733337","system_id":"levelo_inurba_marseille","lat":43.297794,"lon":5.370888,"is_reserved":false,"is_disabled":false,"rental_uris":{"android":"levelo://app?vid=b13fb1f9-b572-463c-aaba-30c891733337","ios":"levelo://app?vid=b13fb1f9-b572-463c-aaba-30c891733337"},"vehicle_type_id":"4","last_reported":1708106935,"current_range_meters":17600,"station_id":"ce4bgop2rcd13ifvqc1g","pricing_plan_id":"cebpf4jnsgd1na2vs0mg"},{"bike_id":"1bc44a83-e689-44ff-9a65-969764fc32fd","system_id":"levelo_inurba_marseille","lat":43.327993,"lon":5.366944,"is_reserved":false,"is_disabled":false,"rental_uris":{"android":"levelo://app?vid=1bc44a83-e689-44ff-9a65-969764fc32fd","ios":"levelo://app?vid=1bc44a83-e689-44ff-9a65-969764fc32fd"},"vehicle_type_id":"4","last_reported":1708106935,"current_range_meters":28000,"station_id":"ce4bhs92rcd13ifvqi0g","pricing_plan_id":"cebpf4jnsgd1na2vs0mg"},{"bike_id":"3d149655-a53b-43cc-af49-d0904740e2d1","system_id":"levelo_inurba_marseille","lat":43.322872,"lon":5.382756,"is_reserved":false,"is_disabled":false,"rental_uris":{"android":"levelo://app?vid=3d149655-a53b-43cc-af49-d0904740e2d1","ios":"levelo://app?vid=3d149655-a53b-43cc-af49-d0904740e2d1"},"vehicle_type_id":"4","last_reported":1708106935,"current_range_meters":1200,"station_id":"ce4bhr12rcd13ifvqhqg","pricing_plan_id":"cebpf4jnsgd1na2vs0mg"},{"bike_id":"a202a36e-1199-484b-bfaa-acfa7b1a6854","system_id":"levelo_inurba_marseille","lat":43.322872,"lon":5.382756,"is_reserved":false,"is_disabled":false,"rental_uris":{"android":"levelo://app?vid=a202a36e-1199-484b-bfaa-acfa7b1a6854","ios":"levelo://app?vid=a202a36e-1199-484b-bfaa-acfa7b1a6854"},"vehicle_type_id":"4","last_reported":1708106935,"current_range_meters":0,"station_id":"ce4bhr12rcd13ifvqhqg","pricing_plan_id":"cebpf4jnsgd1na2vs0mg"},{"bike_id":"ec21c626-faeb-41e5-9192-4d2bef3ee4d3","system_id":"levelo_inurba_marseille","lat":43.3282,"lon":5.36671,"is_reserved":false,"is_disabled":false,"rental_uris":{"android":"levelo://app?vid=ec21c626-faeb-41e5-9192-4d2bef3ee4d3","ios":"levelo://app?vid=ec21c626-faeb-41e5-9192-4d2bef3ee4d3"},"vehicle_type_id":"4","last_reported":1708106935,"current_range_meters":800,"station_id":"ce4bhs92rcd13ifvqi0g","pricing_plan_id":"cebpf4jnsgd1na2vs0mg"},{"bike_id":"e4cc1337-7654-41c0-8296-b1f3b25edb39","system_id":"levelo_inurba_marseille","lat":43.328223,"lon":5.366829,"is_reserved":false,"is_disabled":false,"rental_uris":{"android":"levelo://app?vid=e4cc1337-7654-41c0-8296-b1f3b25edb39","ios":"levelo://app?vid=e4cc1337-7654-41c0-8296-b1f3b25edb39"},"vehicle_type_id":"4","last_reported":1708106935,"current_range_meters":17200,"station_id":"ce4bhs92rcd13ifvqi0g","pricing_plan_id":"cebpf4jnsgd1na2vs0mg"},{"bike_id":"c9b88aad-86c2-4a51-9436-08e8586a0048","system_id":"levelo_inurba_marseille","lat":43.328371,"lon":5.366909,"is_reserved":false,"is_disabled":false,"rental_uris":{"android":"levelo://app?vid=c9b88aad-86c2-4a51-9436-08e8586a0048","ios":"levelo://app?vid=c9b88aad-86c2-4a51-9436-08e8586a0048"},"vehicle_type_id":"4","last_reported":1708106935,"current_range_meters":10400,"station_id":"ce4bhs92rcd13ifvqi0g","pricing_plan_id":"cebpf4jnsgd1na2vs0mg"},{"bike_id":"b354d40e-f748-45df-b8a4-085ee0f39b31","system_id":"levelo_inurba_marseille","lat":43.328244,"lon":5.366809,"is_reserved":false,"is_disabled":false,"rental_uris":{"android":"levelo://app?vid=b354d40e-f748-45df-b8a4-085ee0f39b31","ios":"levelo://app?vid=b354d40e-f748-45df-b8a4-085ee0f39b31"},"vehicle_type_id":"4","last_reported":1708106935,"current_range_meters":15600,"station_id":"ce4bhs92rcd13ifvqi0g","pricing_plan_id":"cebpf4jnsgd1na2vs0mg"},{"bike_id":"d059372d-713e-4306-a0dc-ef5b2b5ad059","system_id":"levelo_inurba_marseille","lat":43.328251,"lon":5.366728,"is_reserved":false,"is_disabled":false,"rental_uris":{"android":"levelo://app?vid=d059372d-713e-4306-a0dc-ef5b2b5ad059","ios":"levelo://app?vid=d059372d-713e-4306-a0dc-ef5b2b5ad059"},"vehicle_type_id":"4","last_reported":1708106935,"current_range_meters":26400,"station_id":"ce4bhs92rcd13ifvqi0g","pricing_plan_id":"cebpf4jnsgd1na2vs0mg"},{"bike_id":"a587ca06-20c3-495b-af00-feeb2b6eba27","system_id":"levelo_inurba_marseille","lat":43.328252,"lon":5.36682,"is_reserved":false,"is_disabled":false,"rental_uris":{"android":"levelo://app?vid=a587ca06-20c3-495b-af00-feeb2b6eba27","ios":"levelo://app?vid=a587ca06-20c3-495b-af00-feeb2b6eba27"},"vehicle_type_id":"4","last_reported":1708106935,"current_range_meters":400,"station_id":"ce4bhs92rcd13ifvqi0g","pricing_plan_id":"cebpf4jnsgd1na2vs0mg"},{"bike_id":"4a0314a3-53ac-4faf-a81a-365240b15a43","system_id":"levelo_inurba_marseille","lat":43.328255,"lon":5.366834,"is_reserved":false,"is_disabled":false,"rental_uris":{"android":"levelo://app?vid=4a0314a3-53ac-4faf-a81a-365240b15a43","ios":"levelo://app?vid=4a0314a3-53ac-4faf-a81a-365240b15a43"},"vehicle_type_id":"4","last_reported":1708106935,"current_range_meters":21600,"station_id":"ce4bhs92rcd13ifvqi0g","pricing_plan_id":"cebpf4jnsgd1na2vs0mg"},{"bike_id":"18e2c73a-6142-4193-b7b8-60c34b367900","system_id":"levelo_inurba_marseille","lat":43.32826,"lon":5.36675,"is_reserved":false,"is_disabled":false,"rental_uris":{"android":"levelo://app?vid=18e2c73a-6142-4193-b7b8-60c34b367900","ios":"levelo://app?vid=18e2c73a-6142-4193-b7b8-60c34b367900"},"vehicle_type_id":"4","last_reported":1708106935,"current_range_meters":25600,"station_id":"ce4bhs92rcd13ifvqi0g","pricing_plan_id":"cebpf4jnsgd1na2vs0mg"},{"bike_id":"3833ec15-b081-4b20-84c5-72daf8aa7006","system_id":"levelo_inurba_marseille","lat":43.32827,"lon":5.36682,"is_reserved":false,"is_disabled":false,"rental_uris":{"android":"levelo://app?vid=3833ec15-b081-4b20-84c5-72daf8aa7006","ios":"levelo://app?vid=3833ec15-b081-4b20-84c5-72daf8aa7006"},"vehicle_type_id":"4","last_reported":1708106935,"current_range_meters":26000,"station_id":"ce4bhs92rcd13ifvqi0g","pricing_plan_id":"cebpf4jnsgd1na2vs0mg"},{"bike_id":"ecc597d3-f2ea-41b5-b374-bc2279e4f21f","system_id":"levelo_inurba_marseille","lat":43.328289,"lon":5.366824,"is_reserved":false,"is_disabled":false,"rental_uris":{"android":"levelo://app?vid=ecc597d3-f2ea-41b5-b374-bc2279e4f21f","ios":"levelo://app?vid=ecc597d3-f2ea-41b5-b374-bc2279e4f21f"},"vehicle_type_id":"4","last_reported":1708106935,"current_range_meters":2400,"station_id":"ce4bhs92rcd13ifvqi0g","pricing_plan_id":"cebpf4jnsgd1na2vs0mg"},{"bike_id":"db22ed90-3327-46a9-9568-3a914f891c9a","system_id":"levelo_inurba_marseille","lat":43.328295,"lon":5.366839,"is_reserved":false,"is_disabled":false,"rental_uris":{"android":"levelo://app?vid=db22ed90-3327-46a9-9568-3a914f891c9a","ios":"levelo://app?vid=db22ed90-3327-46a9-9568-3a914f891c9a"},"vehicle_type_id":"4","last_reported":1708106935,"current_range_meters":26000,"station_id":"ce4bhs92rcd13ifvqi0g","pricing_plan_id":"cebpf4jnsgd1na2vs0mg"},{"bike_id":"cc924a54-60e4-4421-b12c-5aa0bb659927","system_id":"levelo_inurba_marseille","lat":43.328298,"lon":5.366744,"is_reserved":false,"is_disabled":false,"rental_uris":{"android":"levelo://app?vid=cc924a54-60e4-4421-b12c-5aa0bb659927","ios":"levelo://app?vid=cc924a54-60e4-4421-b12c-5aa0bb659927"},"vehicle_type_id":"4","last_reported":1708106935,"current_range_meters":6800,"station_id":"ce4bhs92rcd13ifvqi0g","pricing_plan_id":"cebpf4jnsgd1na2vs0mg"},{"bike_id":"450855bd-9170-4401-b777-657ee10a3b46","system_id":"levelo_inurba_marseille","lat":43.328371,"lon":5.366909,"is_reserved":false,"is_disabled":false,"rental_uris":{"android":"levelo://app?vid=450855bd-9170-4401-b777-657ee10a3b46","ios":"levelo://app?vid=450855bd-9170-4401-b777-657ee10a3b46"},"vehicle_type_id":"4","last_reported":1708106935,"current_range_meters":27200,"station_id":"ce4bhs92rcd13ifvqi0g","pricing_plan_id":"cebpf4jnsgd1na2vs0mg"},{"bike_id":"e536bf6c-ee0c-41c7-a791-7f0da32f9f1f","system_id":"levelo_inurba_marseille","lat":43.297163,"lon":5.365866,"is_reserved":false,"is_disabled":false,"rental_uris":{"android":"levelo://app?vid=e536bf6c-ee0c-41c7-a791-7f0da32f9f1f","ios":"levelo://app?vid=e536bf6c-ee0c-41c7-a791-7f0da32f9f1f"},"vehicle_type_id":"4","last_reported":1708106935,"current_range_meters":21600,"station_id":"ce4bgn12rcd13ifvqbt0","pricing_plan_id":"cebpf4jnsgd1na2vs0mg"},{"bike_id":"78cab5ee-01f7-42ac-98d6-c9f795103c35","system_id":"levelo_inurba_marseille","lat":43.297163,"lon":5.365866,"is_reserved":false,"is_disabled":false,"rental_uris":{"android":"levelo://app?vid=78cab5ee-01f7-42ac-98d6-c9f795103c35","ios":"levelo://app?vid=78cab5ee-01f7-42ac-98d6-c9f795103c35"},"vehicle_type_id":"4","last_reported":1708106935,"current_range_meters":6400,"station_id":"ce4bgn12rcd13ifvqbt0","pricing_plan_id":"cebpf4jnsgd1na2vs0mg"},{"bike_id":"c90182ff-9ea0-4b25-a706-29d33563c66b","system_id":"levelo_inurba_marseille","lat":43.297163,"lon":5.365866,"is_reserved":false,"is_disabled":false,"rental_uris":{"android":"levelo://app?vid=c90182ff-9ea0-4b25-a706-29d33563c66b","ios":"levelo://app?vid=c90182ff-9ea0-4b25-a706-29d33563c66b"},"vehicle_type_id":"4","last_reported":1708106935,"current_range_meters":20000,"station_id":"ce4bgn12rcd13ifvqbt0","pricing_plan_id":"cebpf4jnsgd1na2vs0mg"},{"bike_id":"d051f4e6-1ba9-42b7-a42d-f84e3a49220a","system_id":"levelo_inurba_marseille","lat":43.297163,"lon":5.365866,"is_reserved":false,"is_disabled":false,"rental_uris":{"android":"levelo://app?vid=d051f4e6-1ba9-42b7-a42d-f84e3a49220a","ios":"levelo://app?vid=d051f4e6-1ba9-42b7-a42d-f84e3a49220a"},"vehicle_type_id":"4","last_reported":1708106935,"current_range_meters":16800,"station_id":"ce4bgn12rcd13ifvqbt0","pricing_plan_id":"cebpf4jnsgd1na2vs0mg"},{"bike_id":"4fef2b73-2e9e-4352-801e-627e673b82f8","system_id":"levelo_inurba_marseille","lat":43.297163,"lon":5.365866,"is_reserved":false,"is_disabled":false,"rental_uris":{"android":"levelo://app?vid=4fef2b73-2e9e-4352-801e-627e673b82f8","ios":"levelo://app?vid=4fef2b73-2e9e-4352-801e-627e673b82f8"},"vehicle_type_id":"4","last_reported":1708106935,"current_range_meters":24800,"station_id":"ce4bgn12rcd13ifvqbt0","pricing_plan_id":"cebpf4jnsgd1na2vs0mg"},{"bike_id":"882a7756-b761-42d1-b628-43ec0c4f327a","system_id":"levelo_inurba_marseille","lat":43.29695,"lon":5.36605,"is_reserved":false,"is_disabled":false,"rental_uris":{"android":"levelo://app?vid=882a7756-b761-42d1-b628-43ec0c4f327a","ios":"levelo://app?vid=882a7756-b761-42d1-b628-43ec0c4f327a"},"vehicle_type_id":"4","last_reported":1708106935,"current_range_meters":16800,"station_id":"","pricing_plan_id":"cebpf4jnsgd1na2vs0mg"},{"bike_id":"a1ff49d6-858f-49c2-8a7b-0a3179afad1a","system_id":"levelo_inurba_marseille","lat":43.297163,"lon":5.365866,"is_reserved":false,"is_disabled":false,"rental_uris":{"android":"levelo://app?vid=a1ff49d6-858f-49c2-8a7b-0a3179afad1a","ios":"levelo://app?vid=a1ff49d6-858f-49c2-8a7b-0a3179afad1a"},"vehicle_type_id":"4","last_reported":1708106935,"current_range_meters":4000,"station_id":"ce4bgn12rcd13ifvqbt0","pricing_plan_id":"cebpf4jnsgd1na2vs0mg"},{"bike_id":"f2c808f1-5d80-4f05-945d-b07926cb5ea6","system_id":"levelo_inurba_marseille","lat":43.2968,"lon":5.37291,"is_reserved":false,"is_disabled":false,"rental_uris":{"android":"levelo://app?vid=f2c808f1-5d80-4f05-945d-b07926cb5ea6","ios":"levelo://app?vid=f2c808f1-5d80-4f05-945d-b07926cb5ea6"},"vehicle_type_id":"4","last_reported":1708106935,"current_range_meters":1200,"station_id":"ce4bgk12rcd13ifvqbj0","pricing_plan_id":"cebpf4jnsgd1na2vs0mg"},{"bike_id":"e5b872ed-ecab-45b1-9366-a9a226a143e7","system_id":"levelo_inurba_marseille","lat":43.2968,"lon":5.37291,"is_reserved":false,"is_disabled":false,"rental_uris":{"android":"levelo://app?vid=e5b872ed-ecab-45b1-9366-a9a226a143e7","ios":"levelo://app?vid=e5b872ed-ecab-45b1-9366-a9a226a143e7"},"vehicle_type_id":"4","last_reported":1708106935,"current_range_meters":16000,"station_id":"ce4bgk12rcd13ifvqbj0","pricing_plan_id":"cebpf4jnsgd1na2vs0mg"},{"bike_id":"8794d8d2-e9cc-4178-afaa-48e25af65606","system_id":"levelo_inurba_marseille","lat":43.296129,"lon":5.370777,"is_reserved":false,"is_disabled":false,"rental_uris":{"android":"levelo://app?vid=8794d8d2-e9cc-4178-afaa-48e25af65606","ios":"levelo://app?vid=8794d8d2-e9cc-4178-afaa-48e25af65606"},"vehicle_type_id":"4","last_reported":1708106935,"current_range_meters":0,"station_id":"ce4bgnh2rcd13ifvqc0g","pricing_plan_id":"cebpf4jnsgd1na2vs0mg"},{"bike_id":"a3898850-aec0-4774-a58e-639ce6158035","system_id":"levelo_inurba_marseille","lat":43.296129,"lon":5.370777,"is_reserved":false,"is_disabled":false,"rental_uris":{"android":"levelo://app?vid=a3898850-aec0-4774-a58e-639ce6158035","ios":"levelo://app?vid=a3898850-aec0-4774-a58e-639ce6158035"},"vehicle_type_id":"4","last_reported":1708106935,"current_range_meters":10000,"station_id":"ce4bgnh2rcd13ifvqc0g","pricing_plan_id":"cebpf4jnsgd1na2vs0mg"},{"bike_id":"ca5c0a22-4d11-4913-a07f-2b18f0c5e1bb","system_id":"levelo_inurba_marseille","lat":43.296129,"lon":5.370777,"is_reserved":false,"is_disabled":false,"rental_uris":{"android":"levelo://app?vid=ca5c0a22-4d11-4913-a07f-2b18f0c5e1bb","ios":"levelo://app?vid=ca5c0a22-4d11-4913-a07f-2b18f0c5e1bb"},"vehicle_type_id":"4","last_reported":1708106935,"current_range_meters":9200,"station_id":"ce4bgnh2rcd13ifvqc0g","pricing_plan_id":"cebpf4jnsgd1na2vs0mg"},{"bike_id":"f62ae43f-9ad3-456f-93bf-e78be5cde196","system_id":"levelo_inurba_marseille","lat":43.299028,"lon":5.381509,"is_reserved":false,"is_disabled":false,"rental_uris":{"android":"levelo://app?vid=f62ae43f-9ad3-456f-93bf-e78be5cde196","ios":"levelo://app?vid=f62ae43f-9ad3-456f-93bf-e78be5cde196"},"vehicle_type_id":"4","last_reported":1708106935,"current_range_meters":2000,"station_id":"ce4bgj12rcd13ifvqbc0","pricing_plan_id":"cebpf4jnsgd1na2vs0mg"},{"bike_id":"2264ef29-8c80-49e6-b933-81f4dcd584ab","system_id":"levelo_inurba_marseille","lat":43.29712,"lon":5.37696,"is_reserved":false,"is_disabled":false,"rental_uris":{"android":"levelo://app?vid=2264ef29-8c80-49e6-b933-81f4dcd584ab","ios":"levelo://app?vid=2264ef29-8c80-49e6-b933-81f4dcd584ab"},"vehicle_type_id":"4","last_reported":1708106935,"current_range_meters":0,"station_id":"ce4bgkh2rcd13ifvqbl0","pricing_plan_id":"cebpf4jnsgd1na2vs0mg"},{"bike_id":"b65d8c60-292d-4a36-9ead-3e3f532d1921","system_id":"levelo_inurba_marseille","lat":43.304278,"lon":5.388868,"is_reserved":false,"is_disabled":false,"rental_uris":{"android":"levelo://app?vid=b65d8c60-292d-4a36-9ead-3e3f532d1921","ios":"levelo://app?vid=b65d8c60-292d-4a36-9ead-3e3f532d1921"},"vehicle_type_id":"4","last_reported":1708106935,"current_range_meters":1600,"station_id":"ce4bgk12rcd13ifvqbi0","pricing_plan_id":"cebpf4jnsgd1na2vs0mg"},{"bike_id":"c216a171-ec34-4270-8151-47e4cd3f987b","system_id":"levelo_inurba_marseille","lat":43.299028,"lon":5.381509,"is_reserved":false,"is_disabled":false,"rental_uris":{"android":"levelo://app?vid=c216a171-ec34-4270-8151-47e4cd3f987b","ios":"levelo://app?vid=c216a171-ec34-4270-8151-47e4cd3f987b"},"vehicle_type_id":"4","last_reported":1708106935,"current_range_meters":15600,"station_id":"ce4bgj12rcd13ifvqbc0","pricing_plan_id":"cebpf4jnsgd1na2vs0mg"},{"bike_id":"ea56c7e5-5c6e-452b-98b3-9e640a16ed45","system_id":"levelo_inurba_marseille","lat":43.299028,"lon":5.381509,"is_reserved":false,"is_disabled":false,"rental_uris":{"android":"levelo://app?vid=ea56c7e5-5c6e-452b-98b3-9e640a16ed45","ios":"levelo://app?vid=ea56c7e5-5c6e-452b-98b3-9e640a16ed45"},"vehicle_type_id":"4","last_reported":1708106935,"current_range_meters":14400,"station_id":"ce4bgj12rcd13ifvqbc0","pricing_plan_id":"cebpf4jnsgd1na2vs0mg"},{"bike_id":"47cbab22-20ac-47bd-aa6f-cdebd05b475b","system_id":"levelo_inurba_marseille","lat":43.317557,"lon":5.390173,"is_reserved":false,"is_disabled":false,"rental_uris":{"android":"levelo://app?vid=47cbab22-20ac-47bd-aa6f-cdebd05b475b","ios":"levelo://app?vid=47cbab22-20ac-47bd-aa6f-cdebd05b475b"},"vehicle_type_id":"4","last_reported":1708106935,"current_range_meters":28800,"station_id":"ce4bhqp2rcd13ifvqhng","pricing_plan_id":"cebpf4jnsgd1na2vs0mg"},{"bike_id":"1b7a4234-bddd-44fc-a528-80a01224d060","system_id":"levelo_inurba_marseille","lat":43.31763,"lon":5.3901,"is_reserved":false,"is_disabled":false,"rental_uris":{"android":"levelo://app?vid=1b7a4234-bddd-44fc-a528-80a01224d060","ios":"levelo://app?vid=1b7a4234-bddd-44fc-a528-80a01224d060"},"vehicle_type_id":"4","last_reported":1708106935,"current_range_meters":3200,"station_id":"ce4bhqp2rcd13ifvqhng","pricing_plan_id":"cebpf4jnsgd1na2vs0mg"},{"bike_id":"ed10a435-1a4b-4dcb-9298-e3f009503610","system_id":"levelo_inurba_marseille","lat":43.317557,"lon":5.390173,"is_reserved":false,"is_disabled":false,"rental_uris":{"android":"levelo://app?vid=ed10a435-1a4b-4dcb-9298-e3f009503610","ios":"levelo://app?vid=ed10a435-1a4b-4dcb-9298-e3f009503610"},"vehicle_type_id":"4","last_reported":1708106935,"current_range_meters":28000,"station_id":"ce4bhqp2rcd13ifvqhng","pricing_plan_id":"cebpf4jnsgd1na2vs0mg"},{"bike_id":"af75b88f-9132-426d-b2bc-62adb25a1d84","system_id":"levelo_inurba_marseille","lat":43.31757,"lon":5.39014,"is_reserved":false,"is_disabled":false,"rental_uris":{"android":"levelo://app?vid=af75b88f-9132-426d-b2bc-62adb25a1d84","ios":"levelo://app?vid=af75b88f-9132-426d-b2bc-62adb25a1d84"},"vehicle_type_id":"4","last_reported":1708106935,"current_range_meters":23600,"station_id":"ce4bhqp2rcd13ifvqhng","pricing_plan_id":"cebpf4jnsgd1na2vs0mg"},{"bike_id":"67f268d0-14b3-4f60-98dd-1d63500bdf9a","system_id":"levelo_inurba_marseille","lat":43.31751,"lon":5.39018,"is_reserved":false,"is_disabled":false,"rental_uris":{"android":"levelo://app?vid=67f268d0-14b3-4f60-98dd-1d63500bdf9a","ios":"levelo://app?vid=67f268d0-14b3-4f60-98dd-1d63500bdf9a"},"vehicle_type_id":"4","last_reported":1708106935,"current_range_meters":17600,"station_id":"ce4bhqp2rcd13ifvqhng","pricing_plan_id":"cebpf4jnsgd1na2vs0mg"},{"bike_id":"b3dcb9ba-bf07-48c1-aada-2fbdb761a352","system_id":"levelo_inurba_marseille","lat":43.317557,"lon":5.390173,"is_reserved":false,"is_disabled":false,"rental_uris":{"android":"levelo://app?vid=b3dcb9ba-bf07-48c1-aada-2fbdb761a352","ios":"levelo://app?vid=b3dcb9ba-bf07-48c1-aada-2fbdb761a352"},"vehicle_type_id":"4","last_reported":1708106935,"current_range_meters":31200,"station_id":"ce4bhqp2rcd13ifvqhng","pricing_plan_id":"cebpf4jnsgd1na2vs0mg"},{"bike_id":"0ddd06ca-78d6-4fdc-92ed-9c8ef81f47fe","system_id":"levelo_inurba_marseille","lat":43.317557,"lon":5.390173,"is_reserved":false,"is_disabled":false,"rental_uris":{"android":"levelo://app?vid=0ddd06ca-78d6-4fdc-92ed-9c8ef81f47fe","ios":"levelo://app?vid=0ddd06ca-78d6-4fdc-92ed-9c8ef81f47fe"},"vehicle_type_id":"4","last_reported":1708106935,"current_range_meters":31600,"station_id":"ce4bhqp2rcd13ifvqhng","pricing_plan_id":"cebpf4jnsgd1na2vs0mg"},{"bike_id":"6ccb21c5-f410-4f97-a31b-5d3674cc4c24","system_id":"levelo_inurba_marseille","lat":43.317557,"lon":5.390173,"is_reserved":false,"is_disabled":false,"rental_uris":{"android":"levelo://app?vid=6ccb21c5-f410-4f97-a31b-5d3674cc4c24","ios":"levelo://app?vid=6ccb21c5-f410-4f97-a31b-5d3674cc4c24"},"vehicle_type_id":"4","last_reported":1708106935,"current_range_meters":31600,"station_id":"ce4bhqp2rcd13ifvqhng","pricing_plan_id":"cebpf4jnsgd1na2vs0mg"},{"bike_id":"f6535c2f-d091-4f83-8ee7-dcd26141ca83","system_id":"levelo_inurba_marseille","lat":43.31759,"lon":5.39018,"is_reserved":false,"is_disabled":false,"rental_uris":{"android":"levelo://app?vid=f6535c2f-d091-4f83-8ee7-dcd26141ca83","ios":"levelo://app?vid=f6535c2f-d091-4f83-8ee7-dcd26141ca83"},"vehicle_type_id":"4","last_reported":1708106935,"current_range_meters":20000,"station_id":"ce4bhqp2rcd13ifvqhng","pricing_plan_id":"cebpf4jnsgd1na2vs0mg"},{"bike_id":"2ca97d81-6eeb-49fd-a3cc-b94b782f5563","system_id":"levelo_inurba_marseille","lat":43.31759,"lon":5.39018,"is_reserved":false,"is_disabled":false,"rental_uris":{"android":"levelo://app?vid=2ca97d81-6eeb-49fd-a3cc-b94b782f5563","ios":"levelo://app?vid=2ca97d81-6eeb-49fd-a3cc-b94b782f5563"},"vehicle_type_id":"4","last_reported":1708106935,"current_range_meters":29200,"station_id":"ce4bhqp2rcd13ifvqhng","pricing_plan_id":"cebpf4jnsgd1na2vs0mg"},{"bike_id":"92c4433a-1432-4883-85e8-2b2d9843ff33","system_id":"levelo_inurba_marseille","lat":43.31758,"lon":5.39019,"is_reserved":false,"is_disabled":false,"rental_uris":{"android":"levelo://app?vid=92c4433a-1432-4883-85e8-2b2d9843ff33","ios":"levelo://app?vid=92c4433a-1432-4883-85e8-2b2d9843ff33"},"vehicle_type_id":"4","last_reported":1708106935,"current_range_meters":10000,"station_id":"ce4bhqp2rcd13ifvqhng","pricing_plan_id":"cebpf4jnsgd1na2vs0mg"},{"bike_id":"8b19d0ec-456b-4753-8097-2e2ef0dad484","system_id":"levelo_inurba_marseille","lat":43.317557,"lon":5.390173,"is_reserved":false,"is_disabled":false,"rental_uris":{"android":"levelo://app?vid=8b19d0ec-456b-4753-8097-2e2ef0dad484","ios":"levelo://app?vid=8b19d0ec-456b-4753-8097-2e2ef0dad484"},"vehicle_type_id":"4","last_reported":1708106935,"current_range_meters":13200,"station_id":"ce4bhqp2rcd13ifvqhng","pricing_plan_id":"cebpf4jnsgd1na2vs0mg"},{"bike_id":"44c0a2a0-88a3-4e19-8fc3-deba4ee3e011","system_id":"levelo_inurba_marseille","lat":43.317557,"lon":5.390173,"is_reserved":false,"is_disabled":false,"rental_uris":{"android":"levelo://app?vid=44c0a2a0-88a3-4e19-8fc3-deba4ee3e011","ios":"levelo://app?vid=44c0a2a0-88a3-4e19-8fc3-deba4ee3e011"},"vehicle_type_id":"4","last_reported":1708106935,"current_range_meters":24800,"station_id":"ce4bhqp2rcd13ifvqhng","pricing_plan_id":"cebpf4jnsgd1na2vs0mg"},{"bike_id":"a203661e-355b-42f4-9955-ac4c89f27d54","system_id":"levelo_inurba_marseille","lat":43.317557,"lon":5.390173,"is_reserved":false,"is_disabled":false,"rental_uris":{"android":"levelo://app?vid=a203661e-355b-42f4-9955-ac4c89f27d54","ios":"levelo://app?vid=a203661e-355b-42f4-9955-ac4c89f27d54"},"vehicle_type_id":"4","last_reported":1708106935,"current_range_meters":30400,"station_id":"ce4bhqp2rcd13ifvqhng","pricing_plan_id":"cebpf4jnsgd1na2vs0mg"},{"bike_id":"ed87d69f-71e3-4a80-a6a0-6a1355afd957","system_id":"levelo_inurba_marseille","lat":43.31762,"lon":5.39029,"is_reserved":false,"is_disabled":false,"rental_uris":{"android":"levelo://app?vid=ed87d69f-71e3-4a80-a6a0-6a1355afd957","ios":"levelo://app?vid=ed87d69f-71e3-4a80-a6a0-6a1355afd957"},"vehicle_type_id":"4","last_reported":1708106935,"current_range_meters":16000,"station_id":"ce4bhqp2rcd13ifvqhng","pricing_plan_id":"cebpf4jnsgd1na2vs0mg"},{"bike_id":"3dc6262b-983c-4b52-9816-f02848a96667","system_id":"levelo_inurba_marseille","lat":43.298021,"lon":5.380914,"is_reserved":false,"is_disabled":false,"rental_uris":{"android":"levelo://app?vid=3dc6262b-983c-4b52-9816-f02848a96667","ios":"levelo://app?vid=3dc6262b-983c-4b52-9816-f02848a96667"},"vehicle_type_id":"4","last_reported":1708106935,"current_range_meters":0,"station_id":"ce4bgip2rcd13ifvqbb0","pricing_plan_id":"cebpf4jnsgd1na2vs0mg"},{"bike_id":"38e7584d-94a5-4644-bd17-16fb1fa82255","system_id":"levelo_inurba_marseille","lat":43.304274,"lon":5.388873,"is_reserved":false,"is_disabled":false,"rental_uris":{"android":"levelo://app?vid=38e7584d-94a5-4644-bd17-16fb1fa82255","ios":"levelo://app?vid=38e7584d-94a5-4644-bd17-16fb1fa82255"},"vehicle_type_id":"4","last_reported":1708106935,"current_range_meters":24400,"station_id":"ce4bgk12rcd13ifvqbi0","pricing_plan_id":"cebpf4jnsgd1na2vs0mg"},{"bike_id":"509b78bf-a451-489f-a74b-7c9e253077b4","system_id":"levelo_inurba_marseille","lat":43.29789,"lon":5.38104,"is_reserved":false,"is_disabled":false,"rental_uris":{"android":"levelo://app?vid=509b78bf-a451-489f-a74b-7c9e253077b4","ios":"levelo://app?vid=509b78bf-a451-489f-a74b-7c9e253077b4"},"vehicle_type_id":"4","last_reported":1708106935,"current_range_meters":27600,"station_id":"ce4bgip2rcd13ifvqbb0","pricing_plan_id":"cebpf4jnsgd1na2vs0mg"},{"bike_id":"7a867e06-407f-4209-8d8a-4f7e9f8a342b","system_id":"levelo_inurba_marseille","lat":43.304274,"lon":5.388873,"is_reserved":false,"is_disabled":false,"rental_uris":{"android":"levelo://app?vid=7a867e06-407f-4209-8d8a-4f7e9f8a342b","ios":"levelo://app?vid=7a867e06-407f-4209-8d8a-4f7e9f8a342b"},"vehicle_type_id":"4","last_reported":1708106935,"current_range_meters":10400,"station_id":"ce4bgk12rcd13ifvqbi0","pricing_plan_id":"cebpf4jnsgd1na2vs0mg"},{"bike_id":"993458e8-7f60-4c3c-8d61-0e070a245101","system_id":"levelo_inurba_marseille","lat":43.295748,"lon":5.37522,"is_reserved":false,"is_disabled":false,"rental_uris":{"android":"levelo://app?vid=993458e8-7f60-4c3c-8d61-0e070a245101","ios":"levelo://app?vid=993458e8-7f60-4c3c-8d61-0e070a245101"},"vehicle_type_id":"4","last_reported":1708106935,"current_range_meters":29200,"station_id":"ce4bgh92rcd13ifvqb50","pricing_plan_id":"cebpf4jnsgd1na2vs0mg"},{"bike_id":"d334f47d-12b8-467b-9939-ffe62f597417","system_id":"levelo_inurba_marseille","lat":43.304278,"lon":5.388868,"is_reserved":false,"is_disabled":false,"rental_uris":{"android":"levelo://app?vid=d334f47d-12b8-467b-9939-ffe62f597417","ios":"levelo://app?vid=d334f47d-12b8-467b-9939-ffe62f597417"},"vehicle_type_id":"4","last_reported":1708106935,"current_range_meters":800,"station_id":"ce4bgk12rcd13ifvqbi0","pricing_plan_id":"cebpf4jnsgd1na2vs0mg"},{"bike_id":"569afbe9-aab1-430c-bf82-2e642cffd3dd","system_id":"levelo_inurba_marseille","lat":43.297646,"lon":5.380744,"is_reserved":false,"is_disabled":false,"rental_uris":{"android":"levelo://app?vid=569afbe9-aab1-430c-bf82-2e642cffd3dd","ios":"levelo://app?vid=569afbe9-aab1-430c-bf82-2e642cffd3dd"},"vehicle_type_id":"4","last_reported":1708106935,"current_range_meters":10800,"station_id":"ce4bgip2rcd13ifvqbb0","pricing_plan_id":"cebpf4jnsgd1na2vs0mg"},{"bike_id":"48adb7d7-fe31-43dd-a88d-d14ddb438d6f","system_id":"levelo_inurba_marseille","lat":43.29618,"lon":5.3773,"is_reserved":false,"is_disabled":false,"rental_uris":{"android":"levelo://app?vid=48adb7d7-fe31-43dd-a88d-d14ddb438d6f","ios":"levelo://app?vid=48adb7d7-fe31-43dd-a88d-d14ddb438d6f"},"vehicle_type_id":"4","last_reported":1708106935,"current_range_meters":0,"station_id":"ce4bgi92rcd13ifvqb90","pricing_plan_id":"cebpf4jnsgd1na2vs0mg"},{"bike_id":"b333987e-7016-46fd-835d-2b20e5ec3684","system_id":"levelo_inurba_marseille","lat":43.29614,"lon":5.37723,"is_reserved":false,"is_disabled":false,"rental_uris":{"android":"levelo://app?vid=b333987e-7016-46fd-835d-2b20e5ec3684","ios":"levelo://app?vid=b333987e-7016-46fd-835d-2b20e5ec3684"},"vehicle_type_id":"4","last_reported":1708106935,"current_range_meters":0,"station_id":"ce4bgi92rcd13ifvqb90","pricing_plan_id":"cebpf4jnsgd1na2vs0mg"},{"bike_id":"68fc07d3-b0d4-48a3-8579-54facd973ce7","system_id":"levelo_inurba_marseille","lat":43.299707,"lon":5.384859,"is_reserved":false,"is_disabled":false,"rental_uris":{"android":"levelo://app?vid=68fc07d3-b0d4-48a3-8579-54facd973ce7","ios":"levelo://app?vid=68fc07d3-b0d4-48a3-8579-54facd973ce7"},"vehicle_type_id":"4","last_reported":1708106935,"current_range_meters":16800,"station_id":"ce4bgj92rcd13ifvqbd0","pricing_plan_id":"cebpf4jnsgd1na2vs0mg"},{"bike_id":"91bad72c-2d5c-42f3-aae9-f490064765dc","system_id":"levelo_inurba_marseille","lat":43.295279,"lon":5.375048,"is_reserved":false,"is_disabled":false,"rental_uris":{"android":"levelo://app?vid=91bad72c-2d5c-42f3-aae9-f490064765dc","ios":"levelo://app?vid=91bad72c-2d5c-42f3-aae9-f490064765dc"},"vehicle_type_id":"4","last_reported":1708106935,"current_range_meters":15200,"station_id":"ce4bgkp2rcd13ifvqbmg","pricing_plan_id":"cebpf4jnsgd1na2vs0mg"},{"bike_id":"d9acd33a-0272-4604-8f78-1ff7a0230451","system_id":"levelo_inurba_marseille","lat":43.299707,"lon":5.384859,"is_reserved":false,"is_disabled":false,"rental_uris":{"android":"levelo://app?vid=d9acd33a-0272-4604-8f78-1ff7a0230451","ios":"levelo://app?vid=d9acd33a-0272-4604-8f78-1ff7a0230451"},"vehicle_type_id":"4","last_reported":1708106935,"current_range_meters":13600,"station_id":"ce4bgj92rcd13ifvqbd0","pricing_plan_id":"cebpf4jnsgd1na2vs0mg"},{"bike_id":"cd8f3704-1d96-46a4-bedf-c716b2eead4d","system_id":"levelo_inurba_marseille","lat":43.295233,"lon":5.374988,"is_reserved":false,"is_disabled":false,"rental_uris":{"android":"levelo://app?vid=cd8f3704-1d96-46a4-bedf-c716b2eead4d","ios":"levelo://app?vid=cd8f3704-1d96-46a4-bedf-c716b2eead4d"},"vehicle_type_id":"4","last_reported":1708106935,"current_range_meters":0,"station_id":"ce4bgkp2rcd13ifvqbmg","pricing_plan_id":"cebpf4jnsgd1na2vs0mg"},{"bike_id":"46d7eeeb-b2ec-470b-bb6e-ab204f32e041","system_id":"levelo_inurba_marseille","lat":43.29526,"lon":5.37512,"is_reserved":false,"is_disabled":false,"rental_uris":{"android":"levelo://app?vid=46d7eeeb-b2ec-470b-bb6e-ab204f32e041","ios":"levelo://app?vid=46d7eeeb-b2ec-470b-bb6e-ab204f32e041"},"vehicle_type_id":"4","last_reported":1708106935,"current_range_meters":14800,"station_id":"ce4bgkp2rcd13ifvqbmg","pricing_plan_id":"cebpf4jnsgd1na2vs0mg"},{"bike_id":"8c74d2f1-501c-4a12-9ff7-8e7f81fb6d0a","system_id":"levelo_inurba_marseille","lat":43.299707,"lon":5.384859,"is_reserved":false,"is_disabled":false,"rental_uris":{"android":"levelo://app?vid=8c74d2f1-501c-4a12-9ff7-8e7f81fb6d0a","ios":"levelo://app?vid=8c74d2f1-501c-4a12-9ff7-8e7f81fb6d0a"},"vehicle_type_id":"4","last_reported":1708106935,"current_range_meters":9200,"station_id":"ce4bgj92rcd13ifvqbd0","pricing_plan_id":"cebpf4jnsgd1na2vs0mg"},{"bike_id":"0ebb368d-6d5b-449a-b9da-116687524d0e","system_id":"levelo_inurba_marseille","lat":43.299717,"lon":5.384845,"is_reserved":false,"is_disabled":false,"rental_uris":{"android":"levelo://app?vid=0ebb368d-6d5b-449a-b9da-116687524d0e","ios":"levelo://app?vid=0ebb368d-6d5b-449a-b9da-116687524d0e"},"vehicle_type_id":"4","last_reported":1708106935,"current_range_meters":22400,"station_id":"ce4bgj92rcd13ifvqbd0","pricing_plan_id":"cebpf4jnsgd1na2vs0mg"},{"bike_id":"bad9b61d-a991-4d6b-944c-9c8a4da60c49","system_id":"levelo_inurba_marseille","lat":43.299717,"lon":5.384845,"is_reserved":false,"is_disabled":false,"rental_uris":{"android":"levelo://app?vid=bad9b61d-a991-4d6b-944c-9c8a4da60c49","ios":"levelo://app?vid=bad9b61d-a991-4d6b-944c-9c8a4da60c49"},"vehicle_type_id":"4","last_reported":1708106935,"current_range_meters":5200,"station_id":"ce4bgj92rcd13ifvqbd0","pricing_plan_id":"cebpf4jnsgd1na2vs0mg"},{"bike_id":"b51a2290-12ea-4efb-886f-8014cedd7ee1","system_id":"levelo_inurba_marseille","lat":43.295279,"lon":5.375048,"is_reserved":false,"is_disabled":false,"rental_uris":{"android":"levelo://app?vid=b51a2290-12ea-4efb-886f-8014cedd7ee1","ios":"levelo://app?vid=b51a2290-12ea-4efb-886f-8014cedd7ee1"},"vehicle_type_id":"4","last_reported":1708106935,"current_range_meters":14000,"station_id":"ce4bgkp2rcd13ifvqbmg","pricing_plan_id":"cebpf4jnsgd1na2vs0mg"},{"bike_id":"d6ce9a7f-a864-41cd-b574-52fa8dca12a3","system_id":"levelo_inurba_marseille","lat":43.29971,"lon":5.38501,"is_reserved":false,"is_disabled":false,"rental_uris":{"android":"levelo://app?vid=d6ce9a7f-a864-41cd-b574-52fa8dca12a3","ios":"levelo://app?vid=d6ce9a7f-a864-41cd-b574-52fa8dca12a3"},"vehicle_type_id":"4","last_reported":1708106935,"current_range_meters":21600,"station_id":"ce4bgj92rcd13ifvqbd0","pricing_plan_id":"cebpf4jnsgd1na2vs0mg"},{"bike_id":"57636800-941e-41c0-9b90-021055f876bd","system_id":"levelo_inurba_marseille","lat":43.29966,"lon":5.38498,"is_reserved":false,"is_disabled":false,"rental_uris":{"android":"levelo://app?vid=57636800-941e-41c0-9b90-021055f876bd","ios":"levelo://app?vid=57636800-941e-41c0-9b90-021055f876bd"},"vehicle_type_id":"4","last_reported":1708106935,"current_range_meters":4800,"station_id":"ce4bgj92rcd13ifvqbd0","pricing_plan_id":"cebpf4jnsgd1na2vs0mg"},{"bike_id":"d99ea834-4ad0-4f31-842a-16b9e97c9127","system_id":"levelo_inurba_marseille","lat":43.299717,"lon":5.384845,"is_reserved":false,"is_disabled":false,"rental_uris":{"android":"levelo://app?vid=d99ea834-4ad0-4f31-842a-16b9e97c9127","ios":"levelo://app?vid=d99ea834-4ad0-4f31-842a-16b9e97c9127"},"vehicle_type_id":"4","last_reported":1708106935,"current_range_meters":400,"station_id":"ce4bgj92rcd13ifvqbd0","pricing_plan_id":"cebpf4jnsgd1na2vs0mg"},{"bike_id":"bbd687b0-bfb8-48d4-8c8f-b488e56eec89","system_id":"levelo_inurba_marseille","lat":43.295279,"lon":5.375048,"is_reserved":false,"is_disabled":false,"rental_uris":{"android":"levelo://app?vid=bbd687b0-bfb8-48d4-8c8f-b488e56eec89","ios":"levelo://app?vid=bbd687b0-bfb8-48d4-8c8f-b488e56eec89"},"vehicle_type_id":"4","last_reported":1708106935,"current_range_meters":10800,"station_id":"ce4bgkp2rcd13ifvqbmg","pricing_plan_id":"cebpf4jnsgd1na2vs0mg"},{"bike_id":"7eb78fbf-efdf-4f55-a30f-cdc6153aeea8","system_id":"levelo_inurba_marseille","lat":43.299724,"lon":5.384848,"is_reserved":false,"is_disabled":false,"rental_uris":{"android":"levelo://app?vid=7eb78fbf-efdf-4f55-a30f-cdc6153aeea8","ios":"levelo://app?vid=7eb78fbf-efdf-4f55-a30f-cdc6153aeea8"},"vehicle_type_id":"4","last_reported":1708106935,"current_range_meters":8400,"station_id":"ce4bgj92rcd13ifvqbd0","pricing_plan_id":"cebpf4jnsgd1na2vs0mg"},{"bike_id":"14118ec6-e9aa-4d3e-8d76-bfdd251a0df7","system_id":"levelo_inurba_marseille","lat":43.295279,"lon":5.375048,"is_reserved":false,"is_disabled":false,"rental_uris":{"android":"levelo://app?vid=14118ec6-e9aa-4d3e-8d76-bfdd251a0df7","ios":"levelo://app?vid=14118ec6-e9aa-4d3e-8d76-bfdd251a0df7"},"vehicle_type_id":"4","last_reported":1708106935,"current_range_meters":3600,"station_id":"ce4bgkp2rcd13ifvqbmg","pricing_plan_id":"cebpf4jnsgd1na2vs0mg"},{"bike_id":"a821f5c6-f918-4d8f-ae20-10b0f32c86fa","system_id":"levelo_inurba_marseille","lat":43.323617,"lon":5.387912,"is_reserved":false,"is_disabled":false,"rental_uris":{"android":"levelo://app?vid=a821f5c6-f918-4d8f-ae20-10b0f32c86fa","ios":"levelo://app?vid=a821f5c6-f918-4d8f-ae20-10b0f32c86fa"},"vehicle_type_id":"4","last_reported":1708106935,"current_range_meters":10800,"station_id":"ce4bhqp2rcd13ifvqhog","pricing_plan_id":"cebpf4jnsgd1na2vs0mg"},{"bike_id":"9285197b-4ae7-44f5-97b8-62ce803967c5","system_id":"levelo_inurba_marseille","lat":43.305364,"lon":5.384119,"is_reserved":false,"is_disabled":false,"rental_uris":{"android":"levelo://app?vid=9285197b-4ae7-44f5-97b8-62ce803967c5","ios":"levelo://app?vid=9285197b-4ae7-44f5-97b8-62ce803967c5"},"vehicle_type_id":"4","last_reported":1708106935,"current_range_meters":15600,"station_id":"ce4bgg92rcd13ifvqb30","pricing_plan_id":"cebpf4jnsgd1na2vs0mg"},{"bike_id":"d216c28e-854c-4908-8c79-53a35b1acfca","system_id":"levelo_inurba_marseille","lat":43.299724,"lon":5.371829,"is_reserved":false,"is_disabled":false,"rental_uris":{"android":"levelo://app?vid=d216c28e-854c-4908-8c79-53a35b1acfca","ios":"levelo://app?vid=d216c28e-854c-4908-8c79-53a35b1acfca"},"vehicle_type_id":"4","last_reported":1708106935,"current_range_meters":14000,"station_id":"ce4bgr92rcd13ifvqc7g","pricing_plan_id":"cebpf4jnsgd1na2vs0mg"},{"bike_id":"8d9c95e9-5346-4090-bfa2-fe38ff51fab1","system_id":"levelo_inurba_marseille","lat":43.32367,"lon":5.388836,"is_reserved":false,"is_disabled":false,"rental_uris":{"android":"levelo://app?vid=8d9c95e9-5346-4090-bfa2-fe38ff51fab1","ios":"levelo://app?vid=8d9c95e9-5346-4090-bfa2-fe38ff51fab1"},"vehicle_type_id":"4","last_reported":1708106935,"current_range_meters":9200,"station_id":"ce4bhqp2rcd13ifvqhog","pricing_plan_id":"cebpf4jnsgd1na2vs0mg"},{"bike_id":"bdf91a16-037f-4ec4-bf8a-dcede17366ef","system_id":"levelo_inurba_marseille","lat":43.295169,"lon":5.390426,"is_reserved":false,"is_disabled":false,"rental_uris":{"android":"levelo://app?vid=bdf91a16-037f-4ec4-bf8a-dcede17366ef","ios":"levelo://app?vid=bdf91a16-037f-4ec4-bf8a-dcede17366ef"},"vehicle_type_id":"4","last_reported":1708106935,"current_range_meters":0,"station_id":"ce4bh3p2rcd13ifvqdp0","pricing_plan_id":"cebpf4jnsgd1na2vs0mg"},{"bike_id":"db5a62d4-f9ba-40ff-9ae3-5d05cc8e7704","system_id":"levelo_inurba_marseille","lat":43.32362,"lon":5.38879,"is_reserved":false,"is_disabled":false,"rental_uris":{"android":"levelo://app?vid=db5a62d4-f9ba-40ff-9ae3-5d05cc8e7704","ios":"levelo://app?vid=db5a62d4-f9ba-40ff-9ae3-5d05cc8e7704"},"vehicle_type_id":"4","last_reported":1708106935,"current_range_meters":31200,"station_id":"ce4bhqp2rcd13ifvqhog","pricing_plan_id":"cebpf4jnsgd1na2vs0mg"},{"bike_id":"fceacd93-f4c6-434d-bb12-36d15d3b0640","system_id":"levelo_inurba_marseille","lat":43.32367,"lon":5.388836,"is_reserved":false,"is_disabled":false,"rental_uris":{"android":"levelo://app?vid=fceacd93-f4c6-434d-bb12-36d15d3b0640","ios":"levelo://app?vid=fceacd93-f4c6-434d-bb12-36d15d3b0640"},"vehicle_type_id":"4","last_reported":1708106935,"current_range_meters":30800,"station_id":"ce4bhqp2rcd13ifvqhog","pricing_plan_id":"cebpf4jnsgd1na2vs0mg"},{"bike_id":"1c22149e-e036-4fea-a797-1cd51593053f","system_id":"levelo_inurba_marseille","lat":43.323663,"lon":5.38881,"is_reserved":false,"is_disabled":false,"rental_uris":{"android":"levelo://app?vid=1c22149e-e036-4fea-a797-1cd51593053f","ios":"levelo://app?vid=1c22149e-e036-4fea-a797-1cd51593053f"},"vehicle_type_id":"4","last_reported":1708106935,"current_range_meters":29200,"station_id":"ce4bhqp2rcd13ifvqhog","pricing_plan_id":"cebpf4jnsgd1na2vs0mg"},{"bike_id":"9a785585-c85b-4fa3-85aa-80d29ca57d9f","system_id":"levelo_inurba_marseille","lat":43.323623,"lon":5.38885,"is_reserved":false,"is_disabled":false,"rental_uris":{"android":"levelo://app?vid=9a785585-c85b-4fa3-85aa-80d29ca57d9f","ios":"levelo://app?vid=9a785585-c85b-4fa3-85aa-80d29ca57d9f"},"vehicle_type_id":"4","last_reported":1708106935,"current_range_meters":4400,"station_id":"ce4bhqp2rcd13ifvqhog","pricing_plan_id":"cebpf4jnsgd1na2vs0mg"},{"bike_id":"a8a3ad88-3aa3-4deb-a961-f2c130a0207e","system_id":"levelo_inurba_marseille","lat":43.323668,"lon":5.388808,"is_reserved":false,"is_disabled":false,"rental_uris":{"android":"levelo://app?vid=a8a3ad88-3aa3-4deb-a961-f2c130a0207e","ios":"levelo://app?vid=a8a3ad88-3aa3-4deb-a961-f2c130a0207e"},"vehicle_type_id":"4","last_reported":1708106935,"current_range_meters":28000,"station_id":"ce4bhqp2rcd13ifvqhog","pricing_plan_id":"cebpf4jnsgd1na2vs0mg"},{"bike_id":"2327eaa2-eb6d-4642-af18-22514541f9a8","system_id":"levelo_inurba_marseille","lat":43.32364,"lon":5.38884,"is_reserved":false,"is_disabled":false,"rental_uris":{"android":"levelo://app?vid=2327eaa2-eb6d-4642-af18-22514541f9a8","ios":"levelo://app?vid=2327eaa2-eb6d-4642-af18-22514541f9a8"},"vehicle_type_id":"4","last_reported":1708106935,"current_range_meters":21600,"station_id":"ce4bhqp2rcd13ifvqhog","pricing_plan_id":"cebpf4jnsgd1na2vs0mg"},{"bike_id":"11f16d73-52cf-4b59-8120-4e257d4d363b","system_id":"levelo_inurba_marseille","lat":43.32367,"lon":5.388836,"is_reserved":false,"is_disabled":false,"rental_uris":{"android":"levelo://app?vid=11f16d73-52cf-4b59-8120-4e257d4d363b","ios":"levelo://app?vid=11f16d73-52cf-4b59-8120-4e257d4d363b"},"vehicle_type_id":"4","last_reported":1708106935,"current_range_meters":13200,"station_id":"ce4bhqp2rcd13ifvqhog","pricing_plan_id":"cebpf4jnsgd1na2vs0mg"},{"bike_id":"f9386ca3-cf78-41ba-b174-602a0647c8e4","system_id":"levelo_inurba_marseille","lat":43.32367,"lon":5.38882,"is_reserved":false,"is_disabled":false,"rental_uris":{"android":"levelo://app?vid=f9386ca3-cf78-41ba-b174-602a0647c8e4","ios":"levelo://app?vid=f9386ca3-cf78-41ba-b174-602a0647c8e4"},"vehicle_type_id":"4","last_reported":1708106935,"current_range_meters":16800,"station_id":"ce4bhqp2rcd13ifvqhog","pricing_plan_id":"cebpf4jnsgd1na2vs0mg"},{"bike_id":"377f63f9-4fe9-464c-92d6-3de7cb5a28ad","system_id":"levelo_inurba_marseille","lat":43.32367,"lon":5.38884,"is_reserved":false,"is_disabled":false,"rental_uris":{"android":"levelo://app?vid=377f63f9-4fe9-464c-92d6-3de7cb5a28ad","ios":"levelo://app?vid=377f63f9-4fe9-464c-92d6-3de7cb5a28ad"},"vehicle_type_id":"4","last_reported":1708106935,"current_range_meters":30400,"station_id":"ce4bhqp2rcd13ifvqhog","pricing_plan_id":"cebpf4jnsgd1na2vs0mg"},{"bike_id":"23ecbbb4-6fc0-4f04-8136-96ce969263e1","system_id":"levelo_inurba_marseille","lat":43.32367,"lon":5.388836,"is_reserved":false,"is_disabled":false,"rental_uris":{"android":"levelo://app?vid=23ecbbb4-6fc0-4f04-8136-96ce969263e1","ios":"levelo://app?vid=23ecbbb4-6fc0-4f04-8136-96ce969263e1"},"vehicle_type_id":"4","last_reported":1708106935,"current_range_meters":12000,"station_id":"ce4bhqp2rcd13ifvqhog","pricing_plan_id":"cebpf4jnsgd1na2vs0mg"},{"bike_id":"6af73b7c-3333-47f9-9c52-fb4e2c063bc2","system_id":"levelo_inurba_marseille","lat":43.32367,"lon":5.388836,"is_reserved":false,"is_disabled":false,"rental_uris":{"android":"levelo://app?vid=6af73b7c-3333-47f9-9c52-fb4e2c063bc2","ios":"levelo://app?vid=6af73b7c-3333-47f9-9c52-fb4e2c063bc2"},"vehicle_type_id":"4","last_reported":1708106935,"current_range_meters":15600,"station_id":"ce4bhqp2rcd13ifvqhog","pricing_plan_id":"cebpf4jnsgd1na2vs0mg"},{"bike_id":"67e8879b-193d-41fb-b133-c51309ca16e8","system_id":"levelo_inurba_marseille","lat":43.32365,"lon":5.38888,"is_reserved":false,"is_disabled":false,"rental_uris":{"android":"levelo://app?vid=67e8879b-193d-41fb-b133-c51309ca16e8","ios":"levelo://app?vid=67e8879b-193d-41fb-b133-c51309ca16e8"},"vehicle_type_id":"4","last_reported":1708106935,"current_range_meters":28000,"station_id":"ce4bhqp2rcd13ifvqhog","pricing_plan_id":"cebpf4jnsgd1na2vs0mg"},{"bike_id":"7b8ae2a5-fea4-420f-9e1d-5f67a20c6887","system_id":"levelo_inurba_marseille","lat":43.32367,"lon":5.388836,"is_reserved":false,"is_disabled":false,"rental_uris":{"android":"levelo://app?vid=7b8ae2a5-fea4-420f-9e1d-5f67a20c6887","ios":"levelo://app?vid=7b8ae2a5-fea4-420f-9e1d-5f67a20c6887"},"vehicle_type_id":"4","last_reported":1708106935,"current_range_meters":16000,"station_id":"ce4bhqp2rcd13ifvqhog","pricing_plan_id":"cebpf4jnsgd1na2vs0mg"},{"bike_id":"39218043-babe-4383-8f3e-ac96355ba56e","system_id":"levelo_inurba_marseille","lat":43.32362,"lon":5.38893,"is_reserved":false,"is_disabled":false,"rental_uris":{"android":"levelo://app?vid=39218043-babe-4383-8f3e-ac96355ba56e","ios":"levelo://app?vid=39218043-babe-4383-8f3e-ac96355ba56e"},"vehicle_type_id":"4","last_reported":1708106935,"current_range_meters":8800,"station_id":"ce4bhqp2rcd13ifvqhog","pricing_plan_id":"cebpf4jnsgd1na2vs0mg"},{"bike_id":"47eafb4f-c4f4-4c49-adff-f0631aa24f49","system_id":"levelo_inurba_marseille","lat":43.32367,"lon":5.388836,"is_reserved":false,"is_disabled":false,"rental_uris":{"android":"levelo://app?vid=47eafb4f-c4f4-4c49-adff-f0631aa24f49","ios":"levelo://app?vid=47eafb4f-c4f4-4c49-adff-f0631aa24f49"},"vehicle_type_id":"4","last_reported":1708106935,"current_range_meters":22400,"station_id":"ce4bhqp2rcd13ifvqhog","pricing_plan_id":"cebpf4jnsgd1na2vs0mg"},{"bike_id":"c091ed13-351f-4f66-a7e1-a69953e7562d","system_id":"levelo_inurba_marseille","lat":43.29602,"lon":5.381084,"is_reserved":false,"is_disabled":false,"rental_uris":{"android":"levelo://app?vid=c091ed13-351f-4f66-a7e1-a69953e7562d","ios":"levelo://app?vid=c091ed13-351f-4f66-a7e1-a69953e7562d"},"vehicle_type_id":"4","last_reported":1708106935,"current_range_meters":6000,"station_id":"ce4bgl12rcd13ifvqbo0","pricing_plan_id":"cebpf4jnsgd1na2vs0mg"},{"bike_id":"aa9cd0cd-be5e-42ed-be62-a6e399c1f11e","system_id":"levelo_inurba_marseille","lat":43.29602,"lon":5.381084,"is_reserved":false,"is_disabled":false,"rental_uris":{"android":"levelo://app?vid=aa9cd0cd-be5e-42ed-be62-a6e399c1f11e","ios":"levelo://app?vid=aa9cd0cd-be5e-42ed-be62-a6e399c1f11e"},"vehicle_type_id":"4","last_reported":1708106935,"current_range_meters":18000,"station_id":"ce4bgl12rcd13ifvqbo0","pricing_plan_id":"cebpf4jnsgd1na2vs0mg"},{"bike_id":"d405518c-d6da-4111-9568-461ce339f9d6","system_id":"levelo_inurba_marseille","lat":43.292749,"lon":5.368402,"is_reserved":false,"is_disabled":false,"rental_uris":{"android":"levelo://app?vid=d405518c-d6da-4111-9568-461ce339f9d6","ios":"levelo://app?vid=d405518c-d6da-4111-9568-461ce339f9d6"},"vehicle_type_id":"4","last_reported":1708106935,"current_range_meters":2400,"station_id":"ce4bhbp2rcd13ifvqesg","pricing_plan_id":"cebpf4jnsgd1na2vs0mg"},{"bike_id":"3e714f5d-5d3d-4276-bf0b-aae0032a5028","system_id":"levelo_inurba_marseille","lat":43.292749,"lon":5.368402,"is_reserved":false,"is_disabled":false,"rental_uris":{"android":"levelo://app?vid=3e714f5d-5d3d-4276-bf0b-aae0032a5028","ios":"levelo://app?vid=3e714f5d-5d3d-4276-bf0b-aae0032a5028"},"vehicle_type_id":"4","last_reported":1708106935,"current_range_meters":0,"station_id":"ce4bhbp2rcd13ifvqesg","pricing_plan_id":"cebpf4jnsgd1na2vs0mg"},{"bike_id":"ba9286b3-dccd-4a17-bfaa-83775dda8e96","system_id":"levelo_inurba_marseille","lat":43.278399,"lon":5.392139,"is_reserved":false,"is_disabled":false,"rental_uris":{"android":"levelo://app?vid=ba9286b3-dccd-4a17-bfaa-83775dda8e96","ios":"levelo://app?vid=ba9286b3-dccd-4a17-bfaa-83775dda8e96"},"vehicle_type_id":"4","last_reported":1708106935,"current_range_meters":1200,"station_id":"ce4bhjp2rcd13ifvqga0","pricing_plan_id":"cebpf4jnsgd1na2vs0mg"},{"bike_id":"fc3f00cf-9612-4bc1-b376-9ed8be31e0ca","system_id":"levelo_inurba_marseille","lat":43.293009,"lon":5.374584,"is_reserved":false,"is_disabled":false,"rental_uris":{"android":"levelo://app?vid=fc3f00cf-9612-4bc1-b376-9ed8be31e0ca","ios":"levelo://app?vid=fc3f00cf-9612-4bc1-b376-9ed8be31e0ca"},"vehicle_type_id":"4","last_reported":1708106935,"current_range_meters":26400,"station_id":"ce4bgi12rcd13ifvqb70","pricing_plan_id":"cebpf4jnsgd1na2vs0mg"},{"bike_id":"3438d5b6-05fc-4485-b02e-ed7c400cdd5a","system_id":"levelo_inurba_marseille","lat":43.29307,"lon":5.37175,"is_reserved":false,"is_disabled":false,"rental_uris":{"android":"levelo://app?vid=3438d5b6-05fc-4485-b02e-ed7c400cdd5a","ios":"levelo://app?vid=3438d5b6-05fc-4485-b02e-ed7c400cdd5a"},"vehicle_type_id":"4","last_reported":1708106935,"current_range_meters":10000,"station_id":"ce4bgh92rcd13ifvqb40","pricing_plan_id":"cebpf4jnsgd1na2vs0mg"},{"bike_id":"ed2e3d94-6498-447d-9fb9-f7d92ce39eb2","system_id":"levelo_inurba_marseille","lat":43.29304,"lon":5.371822,"is_reserved":false,"is_disabled":false,"rental_uris":{"android":"levelo://app?vid=ed2e3d94-6498-447d-9fb9-f7d92ce39eb2","ios":"levelo://app?vid=ed2e3d94-6498-447d-9fb9-f7d92ce39eb2"},"vehicle_type_id":"4","last_reported":1708106935,"current_range_meters":0,"station_id":"ce4bgh92rcd13ifvqb40","pricing_plan_id":"cebpf4jnsgd1na2vs0mg"},{"bike_id":"ec54705a-ed02-4cba-925c-4c86e0ca7ff9","system_id":"levelo_inurba_marseille","lat":43.292749,"lon":5.368402,"is_reserved":false,"is_disabled":false,"rental_uris":{"android":"levelo://app?vid=ec54705a-ed02-4cba-925c-4c86e0ca7ff9","ios":"levelo://app?vid=ec54705a-ed02-4cba-925c-4c86e0ca7ff9"},"vehicle_type_id":"4","last_reported":1708106935,"current_range_meters":10400,"station_id":"ce4bhbp2rcd13ifvqesg","pricing_plan_id":"cebpf4jnsgd1na2vs0mg"},{"bike_id":"5a4a1cb0-caab-4fff-b0a1-401da55ac033","system_id":"levelo_inurba_marseille","lat":43.292749,"lon":5.368402,"is_reserved":false,"is_disabled":false,"rental_uris":{"android":"levelo://app?vid=5a4a1cb0-caab-4fff-b0a1-401da55ac033","ios":"levelo://app?vid=5a4a1cb0-caab-4fff-b0a1-401da55ac033"},"vehicle_type_id":"4","last_reported":1708106935,"current_range_meters":16800,"station_id":"ce4bhbp2rcd13ifvqesg","pricing_plan_id":"cebpf4jnsgd1na2vs0mg"},{"bike_id":"da78e7cb-2283-491e-a802-3227771612ed","system_id":"levelo_inurba_marseille","lat":43.295169,"lon":5.390426,"is_reserved":false,"is_disabled":false,"rental_uris":{"android":"levelo://app?vid=da78e7cb-2283-491e-a802-3227771612ed","ios":"levelo://app?vid=da78e7cb-2283-491e-a802-3227771612ed"},"vehicle_type_id":"4","last_reported":1708106935,"current_range_meters":22400,"station_id":"ce4bh3p2rcd13ifvqdp0","pricing_plan_id":"cebpf4jnsgd1na2vs0mg"},{"bike_id":"d4a0d91c-28f7-434a-9607-4d6ee3d4cafe","system_id":"levelo_inurba_marseille","lat":43.293009,"lon":5.374584,"is_reserved":false,"is_disabled":false,"rental_uris":{"android":"levelo://app?vid=d4a0d91c-28f7-434a-9607-4d6ee3d4cafe","ios":"levelo://app?vid=d4a0d91c-28f7-434a-9607-4d6ee3d4cafe"},"vehicle_type_id":"4","last_reported":1708106935,"current_range_meters":28800,"station_id":"ce4bgi12rcd13ifvqb70","pricing_plan_id":"cebpf4jnsgd1na2vs0mg"},{"bike_id":"5ca666a1-698e-498f-aa90-bde84f099638","system_id":"levelo_inurba_marseille","lat":43.293009,"lon":5.374584,"is_reserved":false,"is_disabled":false,"rental_uris":{"android":"levelo://app?vid=5ca666a1-698e-498f-aa90-bde84f099638","ios":"levelo://app?vid=5ca666a1-698e-498f-aa90-bde84f099638"},"vehicle_type_id":"4","last_reported":1708106935,"current_range_meters":10000,"station_id":"ce4bgi12rcd13ifvqb70","pricing_plan_id":"cebpf4jnsgd1na2vs0mg"},{"bike_id":"9770457d-843a-4836-8a4e-3e614fd44658","system_id":"levelo_inurba_marseille","lat":43.293009,"lon":5.374584,"is_reserved":false,"is_disabled":false,"rental_uris":{"android":"levelo://app?vid=9770457d-843a-4836-8a4e-3e614fd44658","ios":"levelo://app?vid=9770457d-843a-4836-8a4e-3e614fd44658"},"vehicle_type_id":"4","last_reported":1708106935,"current_range_meters":30400,"station_id":"ce4bgi12rcd13ifvqb70","pricing_plan_id":"cebpf4jnsgd1na2vs0mg"},{"bike_id":"3ae8ed3f-bf69-411b-9db5-664ce8047297","system_id":"levelo_inurba_marseille","lat":43.302992,"lon":5.392136,"is_reserved":false,"is_disabled":false,"rental_uris":{"android":"levelo://app?vid=3ae8ed3f-bf69-411b-9db5-664ce8047297","ios":"levelo://app?vid=3ae8ed3f-bf69-411b-9db5-664ce8047297"},"vehicle_type_id":"4","last_reported":1708106935,"current_range_meters":17200,"station_id":"ce4bgkh2rcd13ifvqbk0","pricing_plan_id":"cebpf4jnsgd1na2vs0mg"},{"bike_id":"7d975519-e55e-4811-9223-6b7b3058a053","system_id":"levelo_inurba_marseille","lat":43.303002,"lon":5.392142,"is_reserved":false,"is_disabled":false,"rental_uris":{"android":"levelo://app?vid=7d975519-e55e-4811-9223-6b7b3058a053","ios":"levelo://app?vid=7d975519-e55e-4811-9223-6b7b3058a053"},"vehicle_type_id":"4","last_reported":1708106935,"current_range_meters":18000,"station_id":"ce4bgkh2rcd13ifvqbk0","pricing_plan_id":"cebpf4jnsgd1na2vs0mg"},{"bike_id":"ce28e986-2b4a-4262-aa88-7fe39a4be927","system_id":"levelo_inurba_marseille","lat":43.302992,"lon":5.392136,"is_reserved":false,"is_disabled":false,"rental_uris":{"android":"levelo://app?vid=ce28e986-2b4a-4262-aa88-7fe39a4be927","ios":"levelo://app?vid=ce28e986-2b4a-4262-aa88-7fe39a4be927"},"vehicle_type_id":"4","last_reported":1708106935,"current_range_meters":9200,"station_id":"ce4bgkh2rcd13ifvqbk0","pricing_plan_id":"cebpf4jnsgd1na2vs0mg"},{"bike_id":"a9724320-0ee4-4269-bb41-e6a18ba097bd","system_id":"levelo_inurba_marseille","lat":43.302992,"lon":5.392136,"is_reserved":false,"is_disabled":false,"rental_uris":{"android":"levelo://app?vid=a9724320-0ee4-4269-bb41-e6a18ba097bd","ios":"levelo://app?vid=a9724320-0ee4-4269-bb41-e6a18ba097bd"},"vehicle_type_id":"4","last_reported":1708106935,"current_range_meters":18400,"station_id":"ce4bgkh2rcd13ifvqbk0","pricing_plan_id":"cebpf4jnsgd1na2vs0mg"},{"bike_id":"9094c8a6-4839-42de-860f-b942d90f2c88","system_id":"levelo_inurba_marseille","lat":43.2936,"lon":5.37835,"is_reserved":false,"is_disabled":false,"rental_uris":{"android":"levelo://app?vid=9094c8a6-4839-42de-860f-b942d90f2c88","ios":"levelo://app?vid=9094c8a6-4839-42de-860f-b942d90f2c88"},"vehicle_type_id":"4","last_reported":1708106935,"current_range_meters":3200,"station_id":"ce4bgjh2rcd13ifvqbf0","pricing_plan_id":"cebpf4jnsgd1na2vs0mg"},{"bike_id":"f4b38c12-8eca-4588-9431-38541259ccbd","system_id":"levelo_inurba_marseille","lat":43.293622,"lon":5.37856,"is_reserved":false,"is_disabled":false,"rental_uris":{"android":"levelo://app?vid=f4b38c12-8eca-4588-9431-38541259ccbd","ios":"levelo://app?vid=f4b38c12-8eca-4588-9431-38541259ccbd"},"vehicle_type_id":"4","last_reported":1708106935,"current_range_meters":0,"station_id":"ce4bgjh2rcd13ifvqbf0","pricing_plan_id":"cebpf4jnsgd1na2vs0mg"},{"bike_id":"5d6fcc5c-9328-45c6-a75a-5b5b130993f6","system_id":"levelo_inurba_marseille","lat":43.292311,"lon":5.360731,"is_reserved":false,"is_disabled":false,"rental_uris":{"android":"levelo://app?vid=5d6fcc5c-9328-45c6-a75a-5b5b130993f6","ios":"levelo://app?vid=5d6fcc5c-9328-45c6-a75a-5b5b130993f6"},"vehicle_type_id":"4","last_reported":1708106935,"current_range_meters":27600,"station_id":"ce4bhbh2rcd13ifvqeqg","pricing_plan_id":"cebpf4jnsgd1na2vs0mg"},{"bike_id":"c17151a2-4801-4db6-952f-f784dcaf43af","system_id":"levelo_inurba_marseille","lat":43.292311,"lon":5.360731,"is_reserved":false,"is_disabled":false,"rental_uris":{"android":"levelo://app?vid=c17151a2-4801-4db6-952f-f784dcaf43af","ios":"levelo://app?vid=c17151a2-4801-4db6-952f-f784dcaf43af"},"vehicle_type_id":"4","last_reported":1708106935,"current_range_meters":20000,"station_id":"ce4bhbh2rcd13ifvqeqg","pricing_plan_id":"cebpf4jnsgd1na2vs0mg"},{"bike_id":"3ec3e54a-331b-4ccf-bc18-391967458380","system_id":"levelo_inurba_marseille","lat":43.30085,"lon":5.390856,"is_reserved":false,"is_disabled":false,"rental_uris":{"android":"levelo://app?vid=3ec3e54a-331b-4ccf-bc18-391967458380","ios":"levelo://app?vid=3ec3e54a-331b-4ccf-bc18-391967458380"},"vehicle_type_id":"4","last_reported":1708106935,"current_range_meters":21200,"station_id":"ce4bh192rcd13ifvqdb0","pricing_plan_id":"cebpf4jnsgd1na2vs0mg"},{"bike_id":"d274e7b8-10f7-4410-8c12-7264d21f1612","system_id":"levelo_inurba_marseille","lat":43.298764,"lon":5.388973,"is_reserved":false,"is_disabled":false,"rental_uris":{"android":"levelo://app?vid=d274e7b8-10f7-4410-8c12-7264d21f1612","ios":"levelo://app?vid=d274e7b8-10f7-4410-8c12-7264d21f1612"},"vehicle_type_id":"4","last_reported":1708106935,"current_range_meters":14800,"station_id":"ce4bh392rcd13ifvqdl0","pricing_plan_id":"cebpf4jnsgd1na2vs0mg"},{"bike_id":"f11857e8-cd50-4041-b79c-019b527b5683","system_id":"levelo_inurba_marseille","lat":43.291671,"lon":5.371575,"is_reserved":false,"is_disabled":false,"rental_uris":{"android":"levelo://app?vid=f11857e8-cd50-4041-b79c-019b527b5683","ios":"levelo://app?vid=f11857e8-cd50-4041-b79c-019b527b5683"},"vehicle_type_id":"4","last_reported":1708106935,"current_range_meters":5600,"station_id":"ce4bha92rcd13ifvqeh0","pricing_plan_id":"cebpf4jnsgd1na2vs0mg"},{"bike_id":"89141636-9e71-4b5c-90ff-f0766dc9c369","system_id":"levelo_inurba_marseille","lat":43.291994,"lon":5.357886,"is_reserved":false,"is_disabled":false,"rental_uris":{"android":"levelo://app?vid=89141636-9e71-4b5c-90ff-f0766dc9c369","ios":"levelo://app?vid=89141636-9e71-4b5c-90ff-f0766dc9c369"},"vehicle_type_id":"4","last_reported":1708106935,"current_range_meters":6000,"station_id":"ce4bhb12rcd13ifvqel0","pricing_plan_id":"cebpf4jnsgd1na2vs0mg"},{"bike_id":"f25e9000-da4a-4b23-96b7-09b8e54cca91","system_id":"levelo_inurba_marseille","lat":43.29197,"lon":5.358,"is_reserved":false,"is_disabled":false,"rental_uris":{"android":"levelo://app?vid=f25e9000-da4a-4b23-96b7-09b8e54cca91","ios":"levelo://app?vid=f25e9000-da4a-4b23-96b7-09b8e54cca91"},"vehicle_type_id":"4","last_reported":1708106935,"current_range_meters":31600,"station_id":"ce4bhb12rcd13ifvqel0","pricing_plan_id":"cebpf4jnsgd1na2vs0mg"},{"bike_id":"c50c5f2c-6aed-489e-88ef-b1d2302a7c93","system_id":"levelo_inurba_marseille","lat":43.313137,"lon":5.396846,"is_reserved":false,"is_disabled":false,"rental_uris":{"android":"levelo://app?vid=c50c5f2c-6aed-489e-88ef-b1d2302a7c93","ios":"levelo://app?vid=c50c5f2c-6aed-489e-88ef-b1d2302a7c93"},"vehicle_type_id":"4","last_reported":1708106935,"current_range_meters":12400,"station_id":"ce4bgvp2rcd13ifvqcu0","pricing_plan_id":"cebpf4jnsgd1na2vs0mg"},{"bike_id":"18bcd50c-98a7-4fd9-adf2-3811a91bcc69","system_id":"levelo_inurba_marseille","lat":43.291994,"lon":5.357886,"is_reserved":false,"is_disabled":false,"rental_uris":{"android":"levelo://app?vid=18bcd50c-98a7-4fd9-adf2-3811a91bcc69","ios":"levelo://app?vid=18bcd50c-98a7-4fd9-adf2-3811a91bcc69"},"vehicle_type_id":"4","last_reported":1708106935,"current_range_meters":20800,"station_id":"ce4bhb12rcd13ifvqel0","pricing_plan_id":"cebpf4jnsgd1na2vs0mg"},{"bike_id":"9a7d2ed4-2d92-43bb-8aa8-19acaf580c74","system_id":"levelo_inurba_marseille","lat":43.291994,"lon":5.357886,"is_reserved":false,"is_disabled":false,"rental_uris":{"android":"levelo://app?vid=9a7d2ed4-2d92-43bb-8aa8-19acaf580c74","ios":"levelo://app?vid=9a7d2ed4-2d92-43bb-8aa8-19acaf580c74"},"vehicle_type_id":"4","last_reported":1708106935,"current_range_meters":9200,"station_id":"ce4bhb12rcd13ifvqel0","pricing_plan_id":"cebpf4jnsgd1na2vs0mg"},{"bike_id":"65957180-fc1c-487a-8de2-5d55b67a182a","system_id":"levelo_inurba_marseille","lat":43.313291,"lon":5.396838,"is_reserved":false,"is_disabled":false,"rental_uris":{"android":"levelo://app?vid=65957180-fc1c-487a-8de2-5d55b67a182a","ios":"levelo://app?vid=65957180-fc1c-487a-8de2-5d55b67a182a"},"vehicle_type_id":"4","last_reported":1708106935,"current_range_meters":5200,"station_id":"ce4bgvp2rcd13ifvqcu0","pricing_plan_id":"cebpf4jnsgd1na2vs0mg"},{"bike_id":"860e8b26-6d31-435c-9111-02a8b81fd99a","system_id":"levelo_inurba_marseille","lat":43.29541,"lon":5.38547,"is_reserved":false,"is_disabled":false,"rental_uris":{"android":"levelo://app?vid=860e8b26-6d31-435c-9111-02a8b81fd99a","ios":"levelo://app?vid=860e8b26-6d31-435c-9111-02a8b81fd99a"},"vehicle_type_id":"4","last_reported":1708106935,"current_range_meters":23600,"station_id":"ce4bgih2rcd13ifvqba0","pricing_plan_id":"cebpf4jnsgd1na2vs0mg"},{"bike_id":"46be199f-e49f-4512-90eb-6bec4cd1fa58","system_id":"levelo_inurba_marseille","lat":43.29529,"lon":5.385581,"is_reserved":false,"is_disabled":false,"rental_uris":{"android":"levelo://app?vid=46be199f-e49f-4512-90eb-6bec4cd1fa58","ios":"levelo://app?vid=46be199f-e49f-4512-90eb-6bec4cd1fa58"},"vehicle_type_id":"4","last_reported":1708106935,"current_range_meters":26800,"station_id":"ce4bgih2rcd13ifvqba0","pricing_plan_id":"cebpf4jnsgd1na2vs0mg"},{"bike_id":"f41e4f3f-c306-44f5-bb56-ae3d3c39ceb6","system_id":"levelo_inurba_marseille","lat":43.29529,"lon":5.385581,"is_reserved":false,"is_disabled":false,"rental_uris":{"android":"levelo://app?vid=f41e4f3f-c306-44f5-bb56-ae3d3c39ceb6","ios":"levelo://app?vid=f41e4f3f-c306-44f5-bb56-ae3d3c39ceb6"},"vehicle_type_id":"4","last_reported":1708106935,"current_range_meters":30400,"station_id":"ce4bgih2rcd13ifvqba0","pricing_plan_id":"cebpf4jnsgd1na2vs0mg"},{"bike_id":"b64a32cb-951a-44a5-83d6-cc828adbe2b2","system_id":"levelo_inurba_marseille","lat":43.2954,"lon":5.38552,"is_reserved":false,"is_disabled":false,"rental_uris":{"android":"levelo://app?vid=b64a32cb-951a-44a5-83d6-cc828adbe2b2","ios":"levelo://app?vid=b64a32cb-951a-44a5-83d6-cc828adbe2b2"},"vehicle_type_id":"4","last_reported":1708106935,"current_range_meters":2400,"station_id":"ce4bgih2rcd13ifvqba0","pricing_plan_id":"cebpf4jnsgd1na2vs0mg"},{"bike_id":"0a772bc0-bad7-42f7-ba9b-baebd3d30833","system_id":"levelo_inurba_marseille","lat":43.29536,"lon":5.38546,"is_reserved":false,"is_disabled":false,"rental_uris":{"android":"levelo://app?vid=0a772bc0-bad7-42f7-ba9b-baebd3d30833","ios":"levelo://app?vid=0a772bc0-bad7-42f7-ba9b-baebd3d30833"},"vehicle_type_id":"4","last_reported":1708106935,"current_range_meters":20800,"station_id":"ce4bgih2rcd13ifvqba0","pricing_plan_id":"cebpf4jnsgd1na2vs0mg"},{"bike_id":"fead519c-6e6a-48c9-af74-8d0dcc640f42","system_id":"levelo_inurba_marseille","lat":43.295368,"lon":5.385482,"is_reserved":false,"is_disabled":false,"rental_uris":{"android":"levelo://app?vid=fead519c-6e6a-48c9-af74-8d0dcc640f42","ios":"levelo://app?vid=fead519c-6e6a-48c9-af74-8d0dcc640f42"},"vehicle_type_id":"4","last_reported":1708106935,"current_range_meters":18400,"station_id":"ce4bgih2rcd13ifvqba0","pricing_plan_id":"cebpf4jnsgd1na2vs0mg"},{"bike_id":"d854582c-cbf6-4974-81d1-abb702446985","system_id":"levelo_inurba_marseille","lat":43.29529,"lon":5.385581,"is_reserved":false,"is_disabled":false,"rental_uris":{"android":"levelo://app?vid=d854582c-cbf6-4974-81d1-abb702446985","ios":"levelo://app?vid=d854582c-cbf6-4974-81d1-abb702446985"},"vehicle_type_id":"4","last_reported":1708106935,"current_range_meters":12400,"station_id":"ce4bgih2rcd13ifvqba0","pricing_plan_id":"cebpf4jnsgd1na2vs0mg"},{"bike_id":"a21d17e0-1348-4b90-bd97-1f3b43f203bb","system_id":"levelo_inurba_marseille","lat":43.29533,"lon":5.38544,"is_reserved":false,"is_disabled":false,"rental_uris":{"android":"levelo://app?vid=a21d17e0-1348-4b90-bd97-1f3b43f203bb","ios":"levelo://app?vid=a21d17e0-1348-4b90-bd97-1f3b43f203bb"},"vehicle_type_id":"4","last_reported":1708106935,"current_range_meters":25200,"station_id":"ce4bgih2rcd13ifvqba0","pricing_plan_id":"cebpf4jnsgd1na2vs0mg"},{"bike_id":"694f80dc-7f27-4bef-b755-0a2588c65bb4","system_id":"levelo_inurba_marseille","lat":43.29529,"lon":5.385581,"is_reserved":false,"is_disabled":false,"rental_uris":{"android":"levelo://app?vid=694f80dc-7f27-4bef-b755-0a2588c65bb4","ios":"levelo://app?vid=694f80dc-7f27-4bef-b755-0a2588c65bb4"},"vehicle_type_id":"4","last_reported":1708106935,"current_range_meters":30000,"station_id":"ce4bgih2rcd13ifvqba0","pricing_plan_id":"cebpf4jnsgd1na2vs0mg"},{"bike_id":"52babf1d-fe2c-426c-b240-1919f36615ef","system_id":"levelo_inurba_marseille","lat":43.29529,"lon":5.385581,"is_reserved":false,"is_disabled":false,"rental_uris":{"android":"levelo://app?vid=52babf1d-fe2c-426c-b240-1919f36615ef","ios":"levelo://app?vid=52babf1d-fe2c-426c-b240-1919f36615ef"},"vehicle_type_id":"4","last_reported":1708106935,"current_range_meters":14800,"station_id":"ce4bgih2rcd13ifvqba0","pricing_plan_id":"cebpf4jnsgd1na2vs0mg"},{"bike_id":"03e80fcc-39ba-45ab-b273-c98878c1eb95","system_id":"levelo_inurba_marseille","lat":43.29529,"lon":5.385581,"is_reserved":false,"is_disabled":false,"rental_uris":{"android":"levelo://app?vid=03e80fcc-39ba-45ab-b273-c98878c1eb95","ios":"levelo://app?vid=03e80fcc-39ba-45ab-b273-c98878c1eb95"},"vehicle_type_id":"4","last_reported":1708106935,"current_range_meters":18000,"station_id":"ce4bgih2rcd13ifvqba0","pricing_plan_id":"cebpf4jnsgd1na2vs0mg"},{"bike_id":"d914d257-e6c5-446b-8664-959aa9acc16f","system_id":"levelo_inurba_marseille","lat":43.29529,"lon":5.385581,"is_reserved":false,"is_disabled":false,"rental_uris":{"android":"levelo://app?vid=d914d257-e6c5-446b-8664-959aa9acc16f","ios":"levelo://app?vid=d914d257-e6c5-446b-8664-959aa9acc16f"},"vehicle_type_id":"4","last_reported":1708106935,"current_range_meters":19200,"station_id":"ce4bgih2rcd13ifvqba0","pricing_plan_id":"cebpf4jnsgd1na2vs0mg"},{"bike_id":"168214b0-12bf-4e20-a9be-f26c614f10ec","system_id":"levelo_inurba_marseille","lat":43.295287,"lon":5.385403,"is_reserved":false,"is_disabled":false,"rental_uris":{"android":"levelo://app?vid=168214b0-12bf-4e20-a9be-f26c614f10ec","ios":"levelo://app?vid=168214b0-12bf-4e20-a9be-f26c614f10ec"},"vehicle_type_id":"4","last_reported":1708106935,"current_range_meters":26800,"station_id":"ce4bgih2rcd13ifvqba0","pricing_plan_id":"cebpf4jnsgd1na2vs0mg"},{"bike_id":"5a43da2a-df9c-43b4-8fff-6ebe8401b5c2","system_id":"levelo_inurba_marseille","lat":43.2953,"lon":5.38543,"is_reserved":false,"is_disabled":false,"rental_uris":{"android":"levelo://app?vid=5a43da2a-df9c-43b4-8fff-6ebe8401b5c2","ios":"levelo://app?vid=5a43da2a-df9c-43b4-8fff-6ebe8401b5c2"},"vehicle_type_id":"4","last_reported":1708106935,"current_range_meters":12800,"station_id":"ce4bgih2rcd13ifvqba0","pricing_plan_id":"cebpf4jnsgd1na2vs0mg"},{"bike_id":"8f632f4b-83d6-470c-af67-ee457fd47db2","system_id":"levelo_inurba_marseille","lat":43.295288,"lon":5.385425,"is_reserved":false,"is_disabled":false,"rental_uris":{"android":"levelo://app?vid=8f632f4b-83d6-470c-af67-ee457fd47db2","ios":"levelo://app?vid=8f632f4b-83d6-470c-af67-ee457fd47db2"},"vehicle_type_id":"4","last_reported":1708106935,"current_range_meters":4800,"station_id":"ce4bgih2rcd13ifvqba0","pricing_plan_id":"cebpf4jnsgd1na2vs0mg"},{"bike_id":"4c15c958-2364-41a2-acc4-9c3f376349d0","system_id":"levelo_inurba_marseille","lat":43.295367,"lon":5.385577,"is_reserved":false,"is_disabled":false,"rental_uris":{"android":"levelo://app?vid=4c15c958-2364-41a2-acc4-9c3f376349d0","ios":"levelo://app?vid=4c15c958-2364-41a2-acc4-9c3f376349d0"},"vehicle_type_id":"4","last_reported":1708106935,"current_range_meters":19600,"station_id":"ce4bgih2rcd13ifvqba0","pricing_plan_id":"cebpf4jnsgd1na2vs0mg"},{"bike_id":"6023bcc8-b7f9-4410-a74f-5c9f4c2494e7","system_id":"levelo_inurba_marseille","lat":43.29529,"lon":5.385581,"is_reserved":false,"is_disabled":false,"rental_uris":{"android":"levelo://app?vid=6023bcc8-b7f9-4410-a74f-5c9f4c2494e7","ios":"levelo://app?vid=6023bcc8-b7f9-4410-a74f-5c9f4c2494e7"},"vehicle_type_id":"4","last_reported":1708106935,"current_range_meters":29200,"station_id":"ce4bgih2rcd13ifvqba0","pricing_plan_id":"cebpf4jnsgd1na2vs0mg"},{"bike_id":"accfe0a2-9501-4366-82b7-da9241ef5f0a","system_id":"levelo_inurba_marseille","lat":43.29529,"lon":5.385581,"is_reserved":false,"is_disabled":false,"rental_uris":{"android":"levelo://app?vid=accfe0a2-9501-4366-82b7-da9241ef5f0a","ios":"levelo://app?vid=accfe0a2-9501-4366-82b7-da9241ef5f0a"},"vehicle_type_id":"4","last_reported":1708106935,"current_range_meters":14800,"station_id":"ce4bgih2rcd13ifvqba0","pricing_plan_id":"cebpf4jnsgd1na2vs0mg"},{"bike_id":"fd1a5b55-198b-4b9d-aae6-fe8d42bafbcc","system_id":"levelo_inurba_marseille","lat":43.304606,"lon":5.379026,"is_reserved":false,"is_disabled":false,"rental_uris":{"android":"levelo://app?vid=fd1a5b55-198b-4b9d-aae6-fe8d42bafbcc","ios":"levelo://app?vid=fd1a5b55-198b-4b9d-aae6-fe8d42bafbcc"},"vehicle_type_id":"4","last_reported":1708106935,"current_range_meters":11600,"station_id":"ce4bgup2rcd13ifvqcn0","pricing_plan_id":"cebpf4jnsgd1na2vs0mg"},{"bike_id":"2fd85139-ca86-406e-8967-b3ff47334d4e","system_id":"levelo_inurba_marseille","lat":43.290631,"lon":5.359244,"is_reserved":false,"is_disabled":false,"rental_uris":{"android":"levelo://app?vid=2fd85139-ca86-406e-8967-b3ff47334d4e","ios":"levelo://app?vid=2fd85139-ca86-406e-8967-b3ff47334d4e"},"vehicle_type_id":"4","last_reported":1708106935,"current_range_meters":11600,"station_id":"ce4bha92rcd13ifvqeg0","pricing_plan_id":"cebpf4jnsgd1na2vs0mg"},{"bike_id":"01e9d3ed-0d72-45b9-acfd-9c83b12f2022","system_id":"levelo_inurba_marseille","lat":43.29529,"lon":5.385581,"is_reserved":false,"is_disabled":false,"rental_uris":{"android":"levelo://app?vid=01e9d3ed-0d72-45b9-acfd-9c83b12f2022","ios":"levelo://app?vid=01e9d3ed-0d72-45b9-acfd-9c83b12f2022"},"vehicle_type_id":"4","last_reported":1708106935,"current_range_meters":19600,"station_id":"ce4bgih2rcd13ifvqba0","pricing_plan_id":"cebpf4jnsgd1na2vs0mg"},{"bike_id":"27964943-f0ad-4b79-9679-c5fb85e1a6cc","system_id":"levelo_inurba_marseille","lat":43.290631,"lon":5.359244,"is_reserved":false,"is_disabled":false,"rental_uris":{"android":"levelo://app?vid=27964943-f0ad-4b79-9679-c5fb85e1a6cc","ios":"levelo://app?vid=27964943-f0ad-4b79-9679-c5fb85e1a6cc"},"vehicle_type_id":"4","last_reported":1708106935,"current_range_meters":16000,"station_id":"ce4bha92rcd13ifvqeg0","pricing_plan_id":"cebpf4jnsgd1na2vs0mg"},