{"last_updated":1700953581,"ttl":30,"version":"2.2","data":{"bikes":[{"bike_id":"1be7a314-267b-4c36-b676-668997f729fc","system_id":"levelo_inurba_marseille","lat":43.31341,"lon":5.367098,"is_reserved":false,"is_disabled":false,"rental_uris":{"android":"levelo://app?vid=1be7a314-267b-4c36-b676-668997f729fc","ios":"levelo://app?vid=1be7a314-267b-4c36-b676-668997f729fc"},"vehicle_type_id":"4","last_reported":1700953582,"current_range_meters":29600,"station_id":"ce4bgr92rcd13ifvqc6g","pricing_plan_id":"free"},{"bike_id":"f2de37ce-aea0-4fb6-be48-6463fed385ed","system_id":"levelo_inurba_marseille","lat":43.314811,"lon":5.373103,"is_reserved":false,"is_disabled":false,"rental_uris":{"android":"levelo://app?vid=f2de37ce-aea0-4fb6-be48-6463fed385ed","ios":"levelo://app?vid=f2de37ce-aea0-4fb6-be48-6463fed385ed"},"vehicle_type_id":"4","last_reported":1700953582,"current_range_meters":13600,"station_id":"ce4bgt12rcd13ifvqcd0","pricing_plan_id":"free"},{"bike_id":"81670fb0-1021-4317-9b92-c0101139260b","system_id":"levelo_inurba_marseille","lat":43.314811,"lon":5.373104,"is_reserved":false,"is_disabled":false,"rental_uris":{"android":"levelo://app?vid=81670fb0-1021-4317-9b92-c0101139260b","ios":"levelo://app?vid=81670fb0-1021-4317-9b92-c0101139260b"},"vehicle_type_id":"4","last_reported":1700953582,"current_range_meters":22400,"station_id":"ce4bgt12rcd13ifvqcd0","pricing_plan_id":"free"},{"bike_id":"56dcc7f6-2ea3-40fb-af50-611123df64d7","system_id":"levelo_inurba_marseille","lat":43.309039,"lon":5.371797,"is_reserved":false,"is_disabled":false,"rental_uris":{"android":"levelo://app?vid=56dcc7f6-2ea3-40fb-af50-611123df64d7","ios":"levelo://app?vid=56dcc7f6-2ea3-40fb-af50-611123df64d7"},"vehicle_type_id":"4","last_reported":1700953582,"current_range_meters":31200,"station_id":"ce4bguh2rcd13ifvqckg","pricing_plan_id":"free"},{"bike_id":"2c4e2ab4-2bc9-4e71-8e28-b7f9c78b7444","system_id":"levelo_inurba_marseille","lat":43.305714,"lon":5.365633,"is_reserved":false,"is_disabled":false,"rental_uris":{"android":"levelo://app?vid=2c4e2ab4-2bc9-4e71-8e28-b7f9c78b7444","ios":"levelo://app?vid=2c4e2ab4-2bc9-4e71-8e28-b7f9c78b7444"},"vehicle_type_id":"4","last_reported":1700953582,"current_range_meters":2000,"station_id":"ce4bgs12rcd13ifvqcag","pricing_plan_id":"free"},{"bike_id":"74b86f72-5bac-40d3-8697-6e3b66044c95","system_id":"levelo_inurba_marseille","lat":43.306045,"lon":5.37221,"is_reserved":false,"is_disabled":false,"rental_uris":{"android":"levelo://app?vid=74b86f72-5bac-40d3-8697-6e3b66044c95","ios":"levelo://app?vid=74b86f72-5bac-40d3-8697-6e3b66044c95"},"vehicle_type_id":"4","last_reported":1700953582,"current_range_meters":0,"station_id":"ce4bgqh2rcd13ifvqc4g","pricing_plan_id":"free"},{"bike_id":"51d26d5d-16c4-4d15-9064-641b35d1ece4","system_id":"levelo_inurba_marseille","lat":43.311125,"lon":5.377624,"is_reserved":false,"is_disabled":false,"rental_uris":{"android":"levelo://app?vid=51d26d5d-16c4-4d15-9064-641b35d1ece4","ios":"levelo://app?vid=51d26d5d-16c4-4d15-9064-641b35d1ece4"},"vehicle_type_id":"4","last_reported":1700953582,"current_range_meters":1600,"station_id":"ce4bgt92rcd13ifvqcg0","pricing_plan_id":"free"},{"bike_id":"5bc8bafc-7ec0-4cca-a3a2-21dbcbe6d760","system_id":"levelo_inurba_marseille","lat":43.31125,"lon":5.37769,"is_reserved":false,"is_disabled":false,"rental_uris":{"android":"levelo://app?vid=5bc8bafc-7ec0-4cca-a3a2-21dbcbe6d760","ios":"levelo://app?vid=5bc8bafc-7ec0-4cca-a3a2-21dbcbe6d760"},"vehicle_type_id":"4","last_reported":1700953582,"current_range_meters":4000,"station_id":"ce4bgt92rcd13ifvqcg0","pricing_plan_id":"free"},{"bike_id":"573a870a-b6c4-429d-8587-8103772b84bc","system_id":"levelo_inurba_marseille","lat":43.308175,"lon":5.376667,"is_reserved":false,"is_disabled":false,"rental_uris":{"android":"levelo://app?vid=573a870a-b6c4-429d-8587-8103772b84bc","ios":"levelo://app?vid=573a870a-b6c4-429d-8587-8103772b84bc"},"vehicle_type_id":"4","last_reported":1700953582,"current_range_meters":3600,"station_id":"ce4bgv92rcd13ifvqcq0","pricing_plan_id":"free"},{"bike_id":"f427a2c3-6e4a-446b-ae2f-9be8aa7f4122","system_id":"levelo_inurba_marseille","lat":43.31719,"lon":5.376813,"is_reserved":false,"is_disabled":false,"rental_uris":{"android":"levelo://app?vid=f427a2c3-6e4a-446b-ae2f-9be8aa7f4122","ios":"levelo://app?vid=f427a2c3-6e4a-446b-ae2f-9be8aa7f4122"},"vehicle_type_id":"4","last_reported":1700953582,"current_range_meters":23200,"station_id":"ce4bgth2rcd13ifvqch0","pricing_plan_id":"free"},{"bike_id":"b898b018-f57d-4901-bab2-fdd15d391de9","system_id":"levelo_inurba_marseille","lat":43.317168,"lon":5.376883,"is_reserved":false,"is_disabled":false,"rental_uris":{"android":"levelo://app?vid=b898b018-f57d-4901-bab2-fdd15d391de9","ios":"levelo://app?vid=b898b018-f57d-4901-bab2-fdd15d391de9"},"vehicle_type_id":"4","last_reported":1700953582,"current_range_meters":25600,"station_id":"ce4bgth2rcd13ifvqch0","pricing_plan_id":"free"},{"bike_id":"beebee03-0bc4-4463-898a-5119c41f0316","system_id":"levelo_inurba_marseille","lat":43.307945,"lon":5.376487,"is_reserved":false,"is_disabled":false,"rental_uris":{"android":"levelo://app?vid=beebee03-0bc4-4463-898a-5119c41f0316","ios":"levelo://app?vid=beebee03-0bc4-4463-898a-5119c41f0316"},"vehicle_type_id":"4","last_reported":1700953582,"current_range_meters":9200,"station_id":"ce4bgv92rcd13ifvqcq0","pricing_plan_id":"free"},{"bike_id":"08db3c7f-c42c-4b60-b1cc-3dc67d08d464","system_id":"levelo_inurba_marseille","lat":43.31529,"lon":5.38027,"is_reserved":false,"is_disabled":false,"rental_uris":{"android":"levelo://app?vid=08db3c7f-c42c-4b60-b1cc-3dc67d08d464","ios":"levelo://app?vid=08db3c7f-c42c-4b60-b1cc-3dc67d08d464"},"vehicle_type_id":"4","last_reported":1700953582,"current_range_meters":25200,"station_id":"ce4bhsp2rcd13ifvqi50","pricing_plan_id":"free"},{"bike_id":"3dd1bd93-5287-4ffc-94aa-addf69396612","system_id":"levelo_inurba_marseille","lat":43.31531,"lon":5.38036,"is_reserved":false,"is_disabled":false,"rental_uris":{"android":"levelo://app?vid=3dd1bd93-5287-4ffc-94aa-addf69396612","ios":"levelo://app?vid=3dd1bd93-5287-4ffc-94aa-addf69396612"},"vehicle_type_id":"4","last_reported":1700953582,"current_range_meters":11200,"station_id":"ce4bhsp2rcd13ifvqi50","pricing_plan_id":"free"},{"bike_id":"d3571b94-e15a-4f63-bba1-68183a631b88","system_id":"levelo_inurba_marseille","lat":43.308012,"lon":5.381511,"is_reserved":false,"is_disabled":false,"rental_uris":{"android":"levelo://app?vid=d3571b94-e15a-4f63-bba1-68183a631b88","ios":"levelo://app?vid=d3571b94-e15a-4f63-bba1-68183a631b88"},"vehicle_type_id":"4","last_reported":1700953582,"current_range_meters":17600,"station_id":"ce4bgt12rcd13ifvqce0","pricing_plan_id":"free"},{"bike_id":"b16c9a63-80f8-4403-944c-c6856aad0c57","system_id":"levelo_inurba_marseille","lat":43.308012,"lon":5.381511,"is_reserved":false,"is_disabled":false,"rental_uris":{"android":"levelo://app?vid=b16c9a63-80f8-4403-944c-c6856aad0c57","ios":"levelo://app?vid=b16c9a63-80f8-4403-944c-c6856aad0c57"},"vehicle_type_id":"4","last_reported":1700953582,"current_range_meters":24400,"station_id":"ce4bgt12rcd13ifvqce0","pricing_plan_id":"free"},{"bike_id":"9de2e330-4f84-42a2-b268-52b36d026498","system_id":"levelo_inurba_marseille","lat":43.308012,"lon":5.381511,"is_reserved":false,"is_disabled":false,"rental_uris":{"android":"levelo://app?vid=9de2e330-4f84-42a2-b268-52b36d026498","ios":"levelo://app?vid=9de2e330-4f84-42a2-b268-52b36d026498"},"vehicle_type_id":"4","last_reported":1700953582,"current_range_meters":15600,"station_id":"ce4bgt12rcd13ifvqce0","pricing_plan_id":"free"},{"bike_id":"17531208-bd07-4eb6-bf1c-ab937c5ca51c","system_id":"levelo_inurba_marseille","lat":43.308012,"lon":5.381511,"is_reserved":false,"is_disabled":false,"rental_uris":{"android":"levelo://app?vid=17531208-bd07-4eb6-bf1c-ab937c5ca51c","ios":"levelo://app?vid=17531208-bd07-4eb6-bf1c-ab937c5ca51c"},"vehicle_type_id":"4","last_reported":1700953582,"current_range_meters":6800,"station_id":"ce4bgt12rcd13ifvqce0","pricing_plan_id":"free"},{"bike_id":"6a26d0ec-e476-4178-b7a4-38d9d3eba74c","system_id":"levelo_inurba_marseille","lat":43.319935,"lon":5.381699,"is_reserved":false,"is_disabled":false,"rental_uris":{"android":"levelo://app?vid=6a26d0ec-e476-4178-b7a4-38d9d3eba74c","ios":"levelo://app?vid=6a26d0ec-e476-4178-b7a4-38d9d3eba74c"},"vehicle_type_id":"4","last_reported":1700953582,"current_range_meters":17600,"station_id":"ce4bhr12rcd13ifvqhpg","pricing_plan_id":"free"},{"bike_id":"2c0cfbc9-8aed-4ab2-9052-67d693991efd","system_id":"levelo_inurba_marseille","lat":43.319935,"lon":5.381699,"is_reserved":false,"is_disabled":false,"rental_uris":{"android":"levelo://app?vid=2c0cfbc9-8aed-4ab2-9052-67d693991efd","ios":"levelo://app?vid=2c0cfbc9-8aed-4ab2-9052-67d693991efd"},"vehicle_type_id":"4","last_reported":1700953582,"current_range_meters":4000,"station_id":"ce4bhr12rcd13ifvqhpg","pricing_plan_id":"free"},{"bike_id":"85a1b2e7-1092-41dc-8fea-b07cb6175595","system_id":"levelo_inurba_marseille","lat":43.319935,"lon":5.381699,"is_reserved":false,"is_disabled":false,"rental_uris":{"android":"levelo://app?vid=85a1b2e7-1092-41dc-8fea-b07cb6175595","ios":"levelo://app?vid=85a1b2e7-1092-41dc-8fea-b07cb6175595"},"vehicle_type_id":"4","last_reported":1700953582,"current_range_meters":20000,"station_id":"ce4bhr12rcd13ifvqhpg","pricing_plan_id":"free"},{"bike_id":"9adda1c0-69b0-4cd2-8a9b-3388a2b807a8","system_id":"levelo_inurba_marseille","lat":43.31997,"lon":5.38147,"is_reserved":false,"is_disabled":false,"rental_uris":{"android":"levelo://app?vid=9adda1c0-69b0-4cd2-8a9b-3388a2b807a8","ios":"levelo://app?vid=9adda1c0-69b0-4cd2-8a9b-3388a2b807a8"},"vehicle_type_id":"4","last_reported":1700953582,"current_range_meters":19200,"station_id":"ce4bhr12rcd13ifvqhpg","pricing_plan_id":"free"},{"bike_id":"f020304f-1893-4321-be05-e98cf596dc9f","system_id":"levelo_inurba_marseille","lat":43.319935,"lon":5.381699,"is_reserved":false,"is_disabled":false,"rental_uris":{"android":"levelo://app?vid=f020304f-1893-4321-be05-e98cf596dc9f","ios":"levelo://app?vid=f020304f-1893-4321-be05-e98cf596dc9f"},"vehicle_type_id":"4","last_reported":1700953582,"current_range_meters":22800,"station_id":"ce4bhr12rcd13ifvqhpg","pricing_plan_id":"free"},{"bike_id":"2d1e0193-2ac0-43a5-9ec8-2ca77d1a89c0","system_id":"levelo_inurba_marseille","lat":43.313571,"lon":5.384829,"is_reserved":false,"is_disabled":false,"rental_uris":{"android":"levelo://app?vid=2d1e0193-2ac0-43a5-9ec8-2ca77d1a89c0","ios":"levelo://app?vid=2d1e0193-2ac0-43a5-9ec8-2ca77d1a89c0"},"vehicle_type_id":"4","last_reported":1700953582,"current_range_meters":5200,"station_id":"ce4bgt92rcd13ifvqcf0","pricing_plan_id":"free"},{"bike_id":"71c7360e-8132-48ec-84b7-beac38dd0dd0","system_id":"levelo_inurba_marseille","lat":43.313571,"lon":5.384829,"is_reserved":false,"is_disabled":false,"rental_uris":{"android":"levelo://app?vid=71c7360e-8132-48ec-84b7-beac38dd0dd0","ios":"levelo://app?vid=71c7360e-8132-48ec-84b7-beac38dd0dd0"},"vehicle_type_id":"4","last_reported":1700953582,"current_range_meters":24400,"station_id":"ce4bgt92rcd13ifvqcf0","pricing_plan_id":"free"},{"bike_id":"b855dd65-1574-43a6-8bad-c9626b5d6150","system_id":"levelo_inurba_marseille","lat":43.313571,"lon":5.384829,"is_reserved":false,"is_disabled":false,"rental_uris":{"android":"levelo://app?vid=b855dd65-1574-43a6-8bad-c9626b5d6150","ios":"levelo://app?vid=b855dd65-1574-43a6-8bad-c9626b5d6150"},"vehicle_type_id":"4","last_reported":1700953582,"current_range_meters":7200,"station_id":"ce4bgt92rcd13ifvqcf0","pricing_plan_id":"free"},{"bike_id":"54cb0418-5cf0-4569-aff2-4805a97225b2","system_id":"levelo_inurba_marseille","lat":43.313571,"lon":5.384829,"is_reserved":false,"is_disabled":false,"rental_uris":{"android":"levelo://app?vid=54cb0418-5cf0-4569-aff2-4805a97225b2","ios":"levelo://app?vid=54cb0418-5cf0-4569-aff2-4805a97225b2"},"vehicle_type_id":"4","last_reported":1700953582,"current_range_meters":26000,"station_id":"ce4bgt92rcd13ifvqcf0","pricing_plan_id":"free"},{"bike_id":"9e589524-4b0c-4c89-a7c4-33e4f4f66427","system_id":"levelo_inurba_marseille","lat":43.299724,"lon":5.371829,"is_reserved":false,"is_disabled":false,"rental_uris":{"android":"levelo://app?vid=9e589524-4b0c-4c89-a7c4-33e4f4f66427","ios":"levelo://app?vid=9e589524-4b0c-4c89-a7c4-33e4f4f66427"},"vehicle_type_id":"4","last_reported":1700953582,"current_range_meters":3600,"station_id":"ce4bgr92rcd13ifvqc7g","pricing_plan_id":"free"},{"bike_id":"2ecadc3a-8b11-45a0-bd64-dae7b0418cf9","system_id":"levelo_inurba_marseille","lat":43.298433,"lon":5.362774,"is_reserved":false,"is_disabled":false,"rental_uris":{"android":"levelo://app?vid=2ecadc3a-8b11-45a0-bd64-dae7b0418cf9","ios":"levelo://app?vid=2ecadc3a-8b11-45a0-bd64-dae7b0418cf9"},"vehicle_type_id":"4","last_reported":1700953582,"current_range_meters":8400,"station_id":"ce4bgpp2rcd13ifvqc3g","pricing_plan_id":"free"},{"bike_id":"3cc92d4a-f598-4975-90ba-c46c07417dc7","system_id":"levelo_inurba_marseille","lat":43.298433,"lon":5.362774,"is_reserved":false,"is_disabled":false,"rental_uris":{"android":"levelo://app?vid=3cc92d4a-f598-4975-90ba-c46c07417dc7","ios":"levelo://app?vid=3cc92d4a-f598-4975-90ba-c46c07417dc7"},"vehicle_type_id":"4","last_reported":1700953582,"current_range_meters":12000,"station_id":"ce4bgpp2rcd13ifvqc3g","pricing_plan_id":"free"},{"bike_id":"4d1e0304-873a-4866-aa22-dcdbce788d6f","system_id":"levelo_inurba_marseille","lat":43.298433,"lon":5.362774,"is_reserved":false,"is_disabled":false,"rental_uris":{"android":"levelo://app?vid=4d1e0304-873a-4866-aa22-dcdbce788d6f","ios":"levelo://app?vid=4d1e0304-873a-4866-aa22-dcdbce788d6f"},"vehicle_type_id":"4","last_reported":1700953582,"current_range_meters":24400,"station_id":"ce4bgpp2rcd13ifvqc3g","pricing_plan_id":"free"},{"bike_id":"a049d5d6-5688-4698-a67e-b03645784859","system_id":"levelo_inurba_marseille","lat":43.298433,"lon":5.362774,"is_reserved":false,"is_disabled":false,"rental_uris":{"android":"levelo://app?vid=a049d5d6-5688-4698-a67e-b03645784859","ios":"levelo://app?vid=a049d5d6-5688-4698-a67e-b03645784859"},"vehicle_type_id":"4","last_reported":1700953582,"current_range_meters":31600,"station_id":"ce4bgpp2rcd13ifvqc3g","pricing_plan_id":"free"},{"bike_id":"2512e5d9-2293-4ef3-ad8d-62a3ad2e3891","system_id":"levelo_inurba_marseille","lat":43.311722,"lon":5.387247,"is_reserved":false,"is_disabled":false,"rental_uris":{"android":"levelo://app?vid=2512e5d9-2293-4ef3-ad8d-62a3ad2e3891","ios":"levelo://app?vid=2512e5d9-2293-4ef3-ad8d-62a3ad2e3891"},"vehicle_type_id":"4","last_reported":1700953582,"current_range_meters":24800,"station_id":"ce4bgv12rcd13ifvqcp0","pricing_plan_id":"free"},{"bike_id":"bf508398-ae0c-40d3-8325-40493f02cf9c","system_id":"levelo_inurba_marseille","lat":43.299243,"lon":5.374807,"is_reserved":false,"is_disabled":false,"rental_uris":{"android":"levelo://app?vid=bf508398-ae0c-40d3-8325-40493f02cf9c","ios":"levelo://app?vid=bf508398-ae0c-40d3-8325-40493f02cf9c"},"vehicle_type_id":"4","last_reported":1700953582,"current_range_meters":25600,"station_id":"ce4bgjh2rcd13ifvqbg0","pricing_plan_id":"free"},{"bike_id":"54f1ae3c-a0bb-4bd3-b567-1dfe34eab1dd","system_id":"levelo_inurba_marseille","lat":43.311722,"lon":5.387247,"is_reserved":false,"is_disabled":false,"rental_uris":{"android":"levelo://app?vid=54f1ae3c-a0bb-4bd3-b567-1dfe34eab1dd","ios":"levelo://app?vid=54f1ae3c-a0bb-4bd3-b567-1dfe34eab1dd"},"vehicle_type_id":"4","last_reported":1700953582,"current_range_meters":23200,"station_id":"ce4bgv12rcd13ifvqcp0","pricing_plan_id":"free"},{"bike_id":"0b85aafd-2d06-4b3d-bf23-17256839d1de","system_id":"levelo_inurba_marseille","lat":43.322872,"lon":5.382756,"is_reserved":false,"is_disabled":false,"rental_uris":{"android":"levelo://app?vid=0b85aafd-2d06-4b3d-bf23-17256839d1de","ios":"levelo://app?vid=0b85aafd-2d06-4b3d-bf23-17256839d1de"},"vehicle_type_id":"4","last_reported":1700953582,"current_range_meters":9200,"station_id":"ce4bhr12rcd13ifvqhqg","pricing_plan_id":"free"},{"bike_id":"5a1baf68-f9af-496c-ab26-e428d44bc382","system_id":"levelo_inurba_marseille","lat":43.322872,"lon":5.382756,"is_reserved":false,"is_disabled":false,"rental_uris":{"android":"levelo://app?vid=5a1baf68-f9af-496c-ab26-e428d44bc382","ios":"levelo://app?vid=5a1baf68-f9af-496c-ab26-e428d44bc382"},"vehicle_type_id":"4","last_reported":1700953582,"current_range_meters":30000,"station_id":"ce4bhr12rcd13ifvqhqg","pricing_plan_id":"free"},{"bike_id":"d4ce39f9-7fa1-46e3-a433-f250b4fdb796","system_id":"levelo_inurba_marseille","lat":43.322872,"lon":5.382756,"is_reserved":false,"is_disabled":false,"rental_uris":{"android":"levelo://app?vid=d4ce39f9-7fa1-46e3-a433-f250b4fdb796","ios":"levelo://app?vid=d4ce39f9-7fa1-46e3-a433-f250b4fdb796"},"vehicle_type_id":"4","last_reported":1700953582,"current_range_meters":28000,"station_id":"ce4bhr12rcd13ifvqhqg","pricing_plan_id":"free"},{"bike_id":"f9fce30d-0cf4-4e60-9d5e-3e6280524e9e","system_id":"levelo_inurba_marseille","lat":43.322872,"lon":5.382756,"is_reserved":false,"is_disabled":false,"rental_uris":{"android":"levelo://app?vid=f9fce30d-0cf4-4e60-9d5e-3e6280524e9e","ios":"levelo://app?vid=f9fce30d-0cf4-4e60-9d5e-3e6280524e9e"},"vehicle_type_id":"4","last_reported":1700953582,"current_range_meters":30000,"station_id":"ce4bhr12rcd13ifvqhqg","pricing_plan_id":"free"},{"bike_id":"b93b6f8d-67a8-4500-afbb-e8d2d1b655cf","system_id":"levelo_inurba_marseille","lat":43.32296,"lon":5.38265,"is_reserved":false,"is_disabled":false,"rental_uris":{"android":"levelo://app?vid=b93b6f8d-67a8-4500-afbb-e8d2d1b655cf","ios":"levelo://app?vid=b93b6f8d-67a8-4500-afbb-e8d2d1b655cf"},"vehicle_type_id":"4","last_reported":1700953582,"current_range_meters":4400,"station_id":"ce4bhr12rcd13ifvqhqg","pricing_plan_id":"free"},{"bike_id":"95825c38-6c59-4753-b43e-2f944bdb26b9","system_id":"levelo_inurba_marseille","lat":43.328263,"lon":5.366825,"is_reserved":false,"is_disabled":false,"rental_uris":{"android":"levelo://app?vid=95825c38-6c59-4753-b43e-2f944bdb26b9","ios":"levelo://app?vid=95825c38-6c59-4753-b43e-2f944bdb26b9"},"vehicle_type_id":"4","last_reported":1700953582,"current_range_meters":14000,"station_id":"ce4bhs92rcd13ifvqi0g","pricing_plan_id":"free"},{"bike_id":"71a104a3-4fa9-4688-bd64-7afc80b1b35c","system_id":"levelo_inurba_marseille","lat":43.297163,"lon":5.365866,"is_reserved":false,"is_disabled":false,"rental_uris":{"android":"levelo://app?vid=71a104a3-4fa9-4688-bd64-7afc80b1b35c","ios":"levelo://app?vid=71a104a3-4fa9-4688-bd64-7afc80b1b35c"},"vehicle_type_id":"4","last_reported":1700953582,"current_range_meters":12800,"station_id":"ce4bgn12rcd13ifvqbt0","pricing_plan_id":"free"},{"bike_id":"a71d6d77-69d3-4ff6-b3df-3e0812d10bee","system_id":"levelo_inurba_marseille","lat":43.297163,"lon":5.365866,"is_reserved":false,"is_disabled":false,"rental_uris":{"android":"levelo://app?vid=a71d6d77-69d3-4ff6-b3df-3e0812d10bee","ios":"levelo://app?vid=a71d6d77-69d3-4ff6-b3df-3e0812d10bee"},"vehicle_type_id":"4","last_reported":1700953582,"current_range_meters":16400,"station_id":"ce4bgn12rcd13ifvqbt0","pricing_plan_id":"free"},{"bike_id":"b929df2d-eaf2-4323-b2db-6ee4e10c019d","system_id":"levelo_inurba_marseille","lat":43.296,"lon":5.367953,"is_reserved":false,"is_disabled":false,"rental_uris":{"android":"levelo://app?vid=b929df2d-eaf2-4323-b2db-6ee4e10c019d","ios":"levelo://app?vid=b929df2d-eaf2-4323-b2db-6ee4e10c019d"},"vehicle_type_id":"4","last_reported":1700953582,"current_range_meters":2000,"station_id":"","pricing_plan_id":"free"},{"bike_id":"5fd186b1-db0d-45af-be07-73d9dc5d5a41","system_id":"levelo_inurba_marseille","lat":43.29591,"lon":5.36746,"is_reserved":false,"is_disabled":false,"rental_uris":{"android":"levelo://app?vid=5fd186b1-db0d-45af-be07-73d9dc5d5a41","ios":"levelo://app?vid=5fd186b1-db0d-45af-be07-73d9dc5d5a41"},"vehicle_type_id":"4","last_reported":1700953582,"current_range_meters":13600,"station_id":"ce4bgph2rcd13ifvqc2g","pricing_plan_id":"free"},{"bike_id":"20db5641-0ba0-4980-bd95-b520353b387a","system_id":"levelo_inurba_marseille","lat":43.296129,"lon":5.370777,"is_reserved":false,"is_disabled":false,"rental_uris":{"android":"levelo://app?vid=20db5641-0ba0-4980-bd95-b520353b387a","ios":"levelo://app?vid=20db5641-0ba0-4980-bd95-b520353b387a"},"vehicle_type_id":"4","last_reported":1700953582,"current_range_meters":27600,"station_id":"ce4bgnh2rcd13ifvqc0g","pricing_plan_id":"free"},{"bike_id":"9ca2cd3a-1dca-4147-864a-9bacdf68f3c1","system_id":"levelo_inurba_marseille","lat":43.299028,"lon":5.381509,"is_reserved":false,"is_disabled":false,"rental_uris":{"android":"levelo://app?vid=9ca2cd3a-1dca-4147-864a-9bacdf68f3c1","ios":"levelo://app?vid=9ca2cd3a-1dca-4147-864a-9bacdf68f3c1"},"vehicle_type_id":"4","last_reported":1700953582,"current_range_meters":22000,"station_id":"ce4bgj12rcd13ifvqbc0","pricing_plan_id":"free"},{"bike_id":"961dd36f-1e87-4319-9cb6-bc83eac8665b","system_id":"levelo_inurba_marseille","lat":43.317557,"lon":5.390173,"is_reserved":false,"is_disabled":false,"rental_uris":{"android":"levelo://app?vid=961dd36f-1e87-4319-9cb6-bc83eac8665b","ios":"levelo://app?vid=961dd36f-1e87-4319-9cb6-bc83eac8665b"},"vehicle_type_id":"4","last_reported":1700953582,"current_range_meters":22000,"station_id":"ce4bhqp2rcd13ifvqhng","pricing_plan_id":"free"},{"bike_id":"3b339994-3557-4ddd-b662-012dc9114e7e","system_id":"levelo_inurba_marseille","lat":43.31753,"lon":5.39023,"is_reserved":false,"is_disabled":false,"rental_uris":{"android":"levelo://app?vid=3b339994-3557-4ddd-b662-012dc9114e7e","ios":"levelo://app?vid=3b339994-3557-4ddd-b662-012dc9114e7e"},"vehicle_type_id":"4","last_reported":1700953582,"current_range_meters":17600,"station_id":"ce4bhqp2rcd13ifvqhng","pricing_plan_id":"free"},{"bike_id":"8e0b024a-cf26-4b65-ac01-3f5bea6a73f0","system_id":"levelo_inurba_marseille","lat":43.317557,"lon":5.390173,"is_reserved":false,"is_disabled":false,"rental_uris":{"android":"levelo://app?vid=8e0b024a-cf26-4b65-ac01-3f5bea6a73f0","ios":"levelo://app?vid=8e0b024a-cf26-4b65-ac01-3f5bea6a73f0"},"vehicle_type_id":"4","last_reported":1700953582,"current_range_meters":0,"station_id":"ce4bhqp2rcd13ifvqhng","pricing_plan_id":"free"},{"bike_id":"14a74451-73d8-4943-a9e2-4bf620540fce","system_id":"levelo_inurba_marseille","lat":43.296263,"lon":5.377094,"is_reserved":false,"is_disabled":false,"rental_uris":{"android":"levelo://app?vid=14a74451-73d8-4943-a9e2-4bf620540fce","ios":"levelo://app?vid=14a74451-73d8-4943-a9e2-4bf620540fce"},"vehicle_type_id":"4","last_reported":1700953582,"current_range_meters":18400,"station_id":"ce4bgi92rcd13ifvqb90","pricing_plan_id":"free"},{"bike_id":"6b621983-5e9e-42f7-990d-ad5a093820d2","system_id":"levelo_inurba_marseille","lat":43.293801,"lon":5.363066,"is_reserved":false,"is_disabled":false,"rental_uris":{"android":"levelo://app?vid=6b621983-5e9e-42f7-990d-ad5a093820d2","ios":"levelo://app?vid=6b621983-5e9e-42f7-990d-ad5a093820d2"},"vehicle_type_id":"4","last_reported":1700953582,"current_range_meters":0,"station_id":"","pricing_plan_id":"free"},{"bike_id":"596a68ec-846e-4c3e-bce4-ec87b49249bd","system_id":"levelo_inurba_marseille","lat":43.32365,"lon":5.3888,"is_reserved":false,"is_disabled":false,"rental_uris":{"android":"levelo://app?vid=596a68ec-846e-4c3e-bce4-ec87b49249bd","ios":"levelo://app?vid=596a68ec-846e-4c3e-bce4-ec87b49249bd"},"vehicle_type_id":"4","last_reported":1700953582,"current_range_meters":2800,"station_id":"ce4bhqp2rcd13ifvqhog","pricing_plan_id":"free"},{"bike_id":"c08692de-893b-4842-ac6a-624a77fd78ec","system_id":"levelo_inurba_marseille","lat":43.3238,"lon":5.38962,"is_reserved":false,"is_disabled":false,"rental_uris":{"android":"levelo://app?vid=c08692de-893b-4842-ac6a-624a77fd78ec","ios":"levelo://app?vid=c08692de-893b-4842-ac6a-624a77fd78ec"},"vehicle_type_id":"4","last_reported":1700953582,"current_range_meters":1600,"station_id":"","pricing_plan_id":"free"},{"bike_id":"acd2a96a-7f02-473d-a2df-4e233d70ccef","system_id":"levelo_inurba_marseille","lat":43.293259,"lon":5.371586,"is_reserved":false,"is_disabled":false,"rental_uris":{"android":"levelo://app?vid=acd2a96a-7f02-473d-a2df-4e233d70ccef","ios":"levelo://app?vid=acd2a96a-7f02-473d-a2df-4e233d70ccef"},"vehicle_type_id":"4","last_reported":1700953582,"current_range_meters":16000,"station_id":"ce4bgh92rcd13ifvqb40","pricing_plan_id":"free"},{"bike_id":"c084a7b6-da24-4ccf-b213-503be1055a09","system_id":"levelo_inurba_marseille","lat":43.292749,"lon":5.368398,"is_reserved":false,"is_disabled":false,"rental_uris":{"android":"levelo://app?vid=c084a7b6-da24-4ccf-b213-503be1055a09","ios":"levelo://app?vid=c084a7b6-da24-4ccf-b213-503be1055a09"},"vehicle_type_id":"4","last_reported":1700953582,"current_range_meters":6800,"station_id":"ce4bhbp2rcd13ifvqesg","pricing_plan_id":"free"},{"bike_id":"67ccee13-ce4e-4ad4-b56f-d84908bbb6ab","system_id":"levelo_inurba_marseille","lat":43.292749,"lon":5.368398,"is_reserved":false,"is_disabled":false,"rental_uris":{"android":"levelo://app?vid=67ccee13-ce4e-4ad4-b56f-d84908bbb6ab","ios":"levelo://app?vid=67ccee13-ce4e-4ad4-b56f-d84908bbb6ab"},"vehicle_type_id":"4","last_reported":1700953582,"current_range_meters":23600,"station_id":"ce4bhbp2rcd13ifvqesg","pricing_plan_id":"free"},{"bike_id":"a99a98c5-7e88-436c-8d20-73c6fda0c8bc","system_id":"levelo_inurba_marseille","lat":43.292749,"lon":5.368402,"is_reserved":false,"is_disabled":false,"rental_uris":{"android":"levelo://app?vid=a99a98c5-7e88-436c-8d20-73c6fda0c8bc","ios":"levelo://app?vid=a99a98c5-7e88-436c-8d20-73c6fda0c8bc"},"vehicle_type_id":"4","last_reported":1700953582,"current_range_meters":0,"station_id":"ce4bhbp2rcd13ifvqesg","pricing_plan_id":"free"},{"bike_id":"978a283c-4cab-4f3e-a9e1-e5f43af2adde","system_id":"levelo_inurba_marseille","lat":43.300852,"lon":5.390859,"is_reserved":false,"is_disabled":false,"rental_uris":{"android":"levelo://app?vid=978a283c-4cab-4f3e-a9e1-e5f43af2adde","ios":"levelo://app?vid=978a283c-4cab-4f3e-a9e1-e5f43af2adde"},"vehicle_type_id":"4","last_reported":1700953582,"current_range_meters":27600,"station_id":"ce4bh192rcd13ifvqdb0","pricing_plan_id":"free"},{"bike_id":"9e0e1bef-e4ed-4898-afb3-7a1671e48c11","system_id":"levelo_inurba_marseille","lat":43.300852,"lon":5.390859,"is_reserved":false,"is_disabled":false,"rental_uris":{"android":"levelo://app?vid=9e0e1bef-e4ed-4898-afb3-7a1671e48c11","ios":"levelo://app?vid=9e0e1bef-e4ed-4898-afb3-7a1671e48c11"},"vehicle_type_id":"4","last_reported":1700953582,"current_range_meters":24800,"station_id":"ce4bh192rcd13ifvqdb0","pricing_plan_id":"free"},{"bike_id":"f61714fe-3bcd-47cd-bba9-a35700513ca7","system_id":"levelo_inurba_marseille","lat":43.291671,"lon":5.371575,"is_reserved":false,"is_disabled":false,"rental_uris":{"android":"levelo://app?vid=f61714fe-3bcd-47cd-bba9-a35700513ca7","ios":"levelo://app?vid=f61714fe-3bcd-47cd-bba9-a35700513ca7"},"vehicle_type_id":"4","last_reported":1700953582,"current_range_meters":25600,"station_id":"ce4bha92rcd13ifvqeh0","pricing_plan_id":"free"},{"bike_id":"51f07ef7-4e99-4adb-ae70-d35bed4b8e8c","system_id":"levelo_inurba_marseille","lat":43.298764,"lon":5.388973,"is_reserved":false,"is_disabled":false,"rental_uris":{"android":"levelo://app?vid=51f07ef7-4e99-4adb-ae70-d35bed4b8e8c","ios":"levelo://app?vid=51f07ef7-4e99-4adb-ae70-d35bed4b8e8c"},"vehicle_type_id":"4","last_reported":1700953582,"current_range_meters":30400,"station_id":"ce4bh392rcd13ifvqdl0","pricing_plan_id":"free"},{"bike_id":"379eba17-ad60-483a-b895-c04d627d84a5","system_id":"levelo_inurba_marseille","lat":43.291994,"lon":5.357886,"is_reserved":false,"is_disabled":false,"rental_uris":{"android":"levelo://app?vid=379eba17-ad60-483a-b895-c04d627d84a5","ios":"levelo://app?vid=379eba17-ad60-483a-b895-c04d627d84a5"},"vehicle_type_id":"4","last_reported":1700953582,"current_range_meters":14400,"station_id":"ce4bhb12rcd13ifvqel0","pricing_plan_id":"free"},{"bike_id":"7fb0e822-f802-4eee-9fe8-dc6679eaff76","system_id":"levelo_inurba_marseille","lat":43.309047,"lon":5.396551,"is_reserved":false,"is_disabled":false,"rental_uris":{"android":"levelo://app?vid=7fb0e822-f802-4eee-9fe8-dc6679eaff76","ios":"levelo://app?vid=7fb0e822-f802-4eee-9fe8-dc6679eaff76"},"vehicle_type_id":"4","last_reported":1700953582,"current_range_meters":4000,"station_id":"ce4bh012rcd13ifvqcv0","pricing_plan_id":"free"},{"bike_id":"8fbab81a-6cd8-4f85-848c-e6ff17ac8348","system_id":"levelo_inurba_marseille","lat":43.313291,"lon":5.396838,"is_reserved":false,"is_disabled":false,"rental_uris":{"android":"levelo://app?vid=8fbab81a-6cd8-4f85-848c-e6ff17ac8348","ios":"levelo://app?vid=8fbab81a-6cd8-4f85-848c-e6ff17ac8348"},"vehicle_type_id":"4","last_reported":1700953582,"current_range_meters":18800,"station_id":"ce4bgvp2rcd13ifvqcu0","pricing_plan_id":"free"},{"bike_id":"d50accdd-0958-4344-a7b1-99d6174e896a","system_id":"levelo_inurba_marseille","lat":43.309047,"lon":5.396551,"is_reserved":false,"is_disabled":false,"rental_uris":{"android":"levelo://app?vid=d50accdd-0958-4344-a7b1-99d6174e896a","ios":"levelo://app?vid=d50accdd-0958-4344-a7b1-99d6174e896a"},"vehicle_type_id":"4","last_reported":1700953582,"current_range_meters":9200,"station_id":"ce4bh012rcd13ifvqcv0","pricing_plan_id":"free"},{"bike_id":"b644b194-cf7e-4b9f-ad22-91bb4f0a4f2b","system_id":"levelo_inurba_marseille","lat":43.309047,"lon":5.396551,"is_reserved":false,"is_disabled":false,"rental_uris":{"android":"levelo://app?vid=b644b194-cf7e-4b9f-ad22-91bb4f0a4f2b","ios":"levelo://app?vid=b644b194-cf7e-4b9f-ad22-91bb4f0a4f2b"},"vehicle_type_id":"4","last_reported":1700953582,"current_range_meters":400,"station_id":"ce4bh012rcd13ifvqcv0","pricing_plan_id":"free"},{"bike_id":"fb9779ef-74b8-4f04-b5c8-61b5820cbe87","system_id":"levelo_inurba_marseille","lat":43.309038,"lon":5.396546,"is_reserved":false,"is_disabled":false,"rental_uris":{"android":"levelo://app?vid=fb9779ef-74b8-4f04-b5c8-61b5820cbe87","ios":"levelo://app?vid=fb9779ef-74b8-4f04-b5c8-61b5820cbe87"},"vehicle_type_id":"4","last_reported":1700953582,"current_range_meters":24000,"station_id":"ce4bh012rcd13ifvqcv0","pricing_plan_id":"free"},{"bike_id":"11e240cd-f25a-4530-8bce-57dea2611430","system_id":"levelo_inurba_marseille","lat":43.309038,"lon":5.396546,"is_reserved":false,"is_disabled":false,"rental_uris":{"android":"levelo://app?vid=11e240cd-f25a-4530-8bce-57dea2611430","ios":"levelo://app?vid=11e240cd-f25a-4530-8bce-57dea2611430"},"vehicle_type_id":"4","last_reported":1700953582,"current_range_meters":10400,"station_id":"ce4bh012rcd13ifvqcv0","pricing_plan_id":"free"},{"bike_id":"7c274dff-986e-4e06-b4d9-c941434c9eb4","system_id":"levelo_inurba_marseille","lat":43.31336,"lon":5.39694,"is_reserved":false,"is_disabled":false,"rental_uris":{"android":"levelo://app?vid=7c274dff-986e-4e06-b4d9-c941434c9eb4","ios":"levelo://app?vid=7c274dff-986e-4e06-b4d9-c941434c9eb4"},"vehicle_type_id":"4","last_reported":1700953582,"current_range_meters":1200,"station_id":"ce4bgvp2rcd13ifvqcu0","pricing_plan_id":"free"},{"bike_id":"062a15d9-e86d-451f-8f5c-46118cffcd66","system_id":"levelo_inurba_marseille","lat":43.31323,"lon":5.39695,"is_reserved":false,"is_disabled":false,"rental_uris":{"android":"levelo://app?vid=062a15d9-e86d-451f-8f5c-46118cffcd66","ios":"levelo://app?vid=062a15d9-e86d-451f-8f5c-46118cffcd66"},"vehicle_type_id":"4","last_reported":1700953582,"current_range_meters":16000,"station_id":"ce4bgvp2rcd13ifvqcu0","pricing_plan_id":"free"},{"bike_id":"118eb32a-3cd8-43d5-aa47-764836971e68","system_id":"levelo_inurba_marseille","lat":43.309047,"lon":5.396551,"is_reserved":false,"is_disabled":false,"rental_uris":{"android":"levelo://app?vid=118eb32a-3cd8-43d5-aa47-764836971e68","ios":"levelo://app?vid=118eb32a-3cd8-43d5-aa47-764836971e68"},"vehicle_type_id":"4","last_reported":1700953582,"current_range_meters":4400,"station_id":"ce4bh012rcd13ifvqcv0","pricing_plan_id":"free"},{"bike_id":"ce5fd09d-8605-4427-a6d7-777a09222e67","system_id":"levelo_inurba_marseille","lat":43.31321,"lon":5.39696,"is_reserved":false,"is_disabled":false,"rental_uris":{"android":"levelo://app?vid=ce5fd09d-8605-4427-a6d7-777a09222e67","ios":"levelo://app?vid=ce5fd09d-8605-4427-a6d7-777a09222e67"},"vehicle_type_id":"4","last_reported":1700953582,"current_range_meters":0,"station_id":"ce4bgvp2rcd13ifvqcu0","pricing_plan_id":"free"},{"bike_id":"d313d9a4-1251-4641-b4ad-43f072888bb1","system_id":"levelo_inurba_marseille","lat":43.290624,"lon":5.359245,"is_reserved":false,"is_disabled":false,"rental_uris":{"android":"levelo://app?vid=d313d9a4-1251-4641-b4ad-43f072888bb1","ios":"levelo://app?vid=d313d9a4-1251-4641-b4ad-43f072888bb1"},"vehicle_type_id":"4","last_reported":1700953582,"current_range_meters":30000,"station_id":"ce4bha92rcd13ifvqeg0","pricing_plan_id":"free"},{"bike_id":"7722686c-7317-4740-93d6-28ea2b51fa0a","system_id":"levelo_inurba_marseille","lat":43.290327,"lon":5.375711,"is_reserved":false,"is_disabled":false,"rental_uris":{"android":"levelo://app?vid=7722686c-7317-4740-93d6-28ea2b51fa0a","ios":"levelo://app?vid=7722686c-7317-4740-93d6-28ea2b51fa0a"},"vehicle_type_id":"4","last_reported":1700953582,"current_range_meters":16400,"station_id":"ce4bh692rcd13ifvqe90","pricing_plan_id":"free"},{"bike_id":"140e0298-a523-4aa7-9a0e-6d5a6558289a","system_id":"levelo_inurba_marseille","lat":43.30427,"lon":5.39753,"is_reserved":false,"is_disabled":false,"rental_uris":{"android":"levelo://app?vid=140e0298-a523-4aa7-9a0e-6d5a6558289a","ios":"levelo://app?vid=140e0298-a523-4aa7-9a0e-6d5a6558289a"},"vehicle_type_id":"4","last_reported":1700953582,"current_range_meters":20000,"station_id":"ce4bh092rcd13ifvqd20","pricing_plan_id":"free"},{"bike_id":"5034e0c3-2473-4c50-9e58-7afdd1f8fd85","system_id":"levelo_inurba_marseille","lat":43.30425,"lon":5.39759,"is_reserved":false,"is_disabled":false,"rental_uris":{"android":"levelo://app?vid=5034e0c3-2473-4c50-9e58-7afdd1f8fd85","ios":"levelo://app?vid=5034e0c3-2473-4c50-9e58-7afdd1f8fd85"},"vehicle_type_id":"4","last_reported":1700953582,"current_range_meters":25600,"station_id":"ce4bh092rcd13ifvqd20","pricing_plan_id":"free"},{"bike_id":"c8a36fd6-28df-411d-9869-931b6764991e","system_id":"levelo_inurba_marseille","lat":43.290104,"lon":5.356111,"is_reserved":false,"is_disabled":false,"rental_uris":{"android":"levelo://app?vid=c8a36fd6-28df-411d-9869-931b6764991e","ios":"levelo://app?vid=c8a36fd6-28df-411d-9869-931b6764991e"},"vehicle_type_id":"4","last_reported":1700953582,"current_range_meters":27600,"station_id":"ce4bhb92rcd13ifvqen0","pricing_plan_id":"free"},{"bike_id":"9c9bd7db-a71c-419c-ba42-83618cc977b4","system_id":"levelo_inurba_marseille","lat":43.309601,"lon":5.40071,"is_reserved":false,"is_disabled":false,"rental_uris":{"android":"levelo://app?vid=9c9bd7db-a71c-419c-ba42-83618cc977b4","ios":"levelo://app?vid=9c9bd7db-a71c-419c-ba42-83618cc977b4"},"vehicle_type_id":"4","last_reported":1700953582,"current_range_meters":0,"station_id":"","pricing_plan_id":"free"},{"bike_id":"2b23f38a-1831-49fe-a943-86c9ec15f136","system_id":"levelo_inurba_marseille","lat":43.337462,"lon":5.374563,"is_reserved":false,"is_disabled":false,"rental_uris":{"android":"levelo://app?vid=2b23f38a-1831-49fe-a943-86c9ec15f136","ios":"levelo://app?vid=2b23f38a-1831-49fe-a943-86c9ec15f136"},"vehicle_type_id":"4","last_reported":1700953582,"current_range_meters":0,"station_id":"","pricing_plan_id":"free"},{"bike_id":"ac285e26-46ab-4b23-8672-d078d8fed511","system_id":"levelo_inurba_marseille","lat":43.337544,"lon":5.374447,"is_reserved":false,"is_disabled":false,"rental_uris":{"android":"levelo://app?vid=ac285e26-46ab-4b23-8672-d078d8fed511","ios":"levelo://app?vid=ac285e26-46ab-4b23-8672-d078d8fed511"},"vehicle_type_id":"4","last_reported":1700953582,"current_range_meters":24000,"station_id":"","pricing_plan_id":"free"},{"bike_id":"91d13a10-b07c-40ee-a39e-bb3db35d1fb0","system_id":"levelo_inurba_marseille","lat":43.306412,"lon":5.401035,"is_reserved":false,"is_disabled":false,"rental_uris":{"android":"levelo://app?vid=91d13a10-b07c-40ee-a39e-bb3db35d1fb0","ios":"levelo://app?vid=91d13a10-b07c-40ee-a39e-bb3db35d1fb0"},"vehicle_type_id":"4","last_reported":1700953582,"current_range_meters":18800,"station_id":"ce4bh112rcd13ifvqda0","pricing_plan_id":"free"},{"bike_id":"a4f3c1f1-6c0f-446a-a3e4-4feff4cb062c","system_id":"levelo_inurba_marseille","lat":43.306412,"lon":5.401035,"is_reserved":false,"is_disabled":false,"rental_uris":{"android":"levelo://app?vid=a4f3c1f1-6c0f-446a-a3e4-4feff4cb062c","ios":"levelo://app?vid=a4f3c1f1-6c0f-446a-a3e4-4feff4cb062c"},"vehicle_type_id":"4","last_reported":1700953582,"current_range_meters":28400,"station_id":"ce4bh112rcd13ifvqda0","pricing_plan_id":"free"},{"bike_id":"632db708-64e6-41a6-8129-bd2320be28c6","system_id":"levelo_inurba_marseille","lat":43.28727,"lon":5.36078,"is_reserved":false,"is_disabled":false,"rental_uris":{"android":"levelo://app?vid=632db708-64e6-41a6-8129-bd2320be28c6","ios":"levelo://app?vid=632db708-64e6-41a6-8129-bd2320be28c6"},"vehicle_type_id":"4","last_reported":1700953582,"current_range_meters":30400,"station_id":"cki0cbj6b192h4jlfktg","pricing_plan_id":"free"},{"bike_id":"019dcbb8-0b7e-47da-887b-8172a0662d79","system_id":"levelo_inurba_marseille","lat":43.286591,"lon":5.363346,"is_reserved":false,"is_disabled":false,"rental_uris":{"android":"levelo://app?vid=019dcbb8-0b7e-47da-887b-8172a0662d79","ios":"levelo://app?vid=019dcbb8-0b7e-47da-887b-8172a0662d79"},"vehicle_type_id":"4","last_reported":1700953582,"current_range_meters":25600,"station_id":"ce4bhah2rcd13ifvqej0","pricing_plan_id":"free"},{"bike_id":"d533a300-9b84-410c-be17-cd91e396edc4","system_id":"levelo_inurba_marseille","lat":43.298681,"lon":5.397225,"is_reserved":false,"is_disabled":false,"rental_uris":{"android":"levelo://app?vid=d533a300-9b84-410c-be17-cd91e396edc4","ios":"levelo://app?vid=d533a300-9b84-410c-be17-cd91e396edc4"},"vehicle_type_id":"4","last_reported":1700953582,"current_range_meters":17600,"station_id":"ce4bh0h2rcd13ifvqd50","pricing_plan_id":"free"},{"bike_id":"229bc038-4c47-4e6f-bbd7-8bdfc724d1a3","system_id":"levelo_inurba_marseille","lat":43.286591,"lon":5.363346,"is_reserved":false,"is_disabled":false,"rental_uris":{"android":"levelo://app?vid=229bc038-4c47-4e6f-bbd7-8bdfc724d1a3","ios":"levelo://app?vid=229bc038-4c47-4e6f-bbd7-8bdfc724d1a3"},"vehicle_type_id":"4","last_reported":1700953582,"current_range_meters":0,"station_id":"ce4bhah2rcd13ifvqej0","pricing_plan_id":"free"},{"bike_id":"4009a6e1-8fb8-48d6-b07c-b14d1c0f1091","system_id":"levelo_inurba_marseille","lat":43.286961,"lon":5.373785,"is_reserved":false,"is_disabled":false,"rental_uris":{"android":"levelo://app?vid=4009a6e1-8fb8-48d6-b07c-b14d1c0f1091","ios":"levelo://app?vid=4009a6e1-8fb8-48d6-b07c-b14d1c0f1091"},"vehicle_type_id":"4","last_reported":1700953582,"current_range_meters":16000,"station_id":"ce4bh3p2rcd13ifvqdq0","pricing_plan_id":"free"},{"bike_id":"28f72915-5ce0-4577-bdf1-4442450a0f25","system_id":"levelo_inurba_marseille","lat":43.286593,"lon":5.363346,"is_reserved":false,"is_disabled":false,"rental_uris":{"android":"levelo://app?vid=28f72915-5ce0-4577-bdf1-4442450a0f25","ios":"levelo://app?vid=28f72915-5ce0-4577-bdf1-4442450a0f25"},"vehicle_type_id":"4","last_reported":1700953582,"current_range_meters":22800,"station_id":"ce4bhah2rcd13ifvqej0","pricing_plan_id":"free"},{"bike_id":"a990da47-032f-42f5-935c-389cf1dccfdc","system_id":"levelo_inurba_marseille","lat":43.295196,"lon":5.39397,"is_reserved":false,"is_disabled":false,"rental_uris":{"android":"levelo://app?vid=a990da47-032f-42f5-935c-389cf1dccfdc","ios":"levelo://app?vid=a990da47-032f-42f5-935c-389cf1dccfdc"},"vehicle_type_id":"4","last_reported":1700953582,"current_range_meters":17200,"station_id":"ce4bh292rcd13ifvqdf0","pricing_plan_id":"free"},{"bike_id":"8d89aa70-539f-4149-9bb9-958422549bfe","system_id":"levelo_inurba_marseille","lat":43.290297,"lon":5.386454,"is_reserved":false,"is_disabled":false,"rental_uris":{"android":"levelo://app?vid=8d89aa70-539f-4149-9bb9-958422549bfe","ios":"levelo://app?vid=8d89aa70-539f-4149-9bb9-958422549bfe"},"vehicle_type_id":"4","last_reported":1700953582,"current_range_meters":13200,"station_id":"ce4bh4p2rcd13ifvqe0g","pricing_plan_id":"free"},{"bike_id":"784ddb13-4bda-43aa-8f37-c3450d3f29b6","system_id":"levelo_inurba_marseille","lat":43.3024,"lon":5.40066,"is_reserved":false,"is_disabled":false,"rental_uris":{"android":"levelo://app?vid=784ddb13-4bda-43aa-8f37-c3450d3f29b6","ios":"levelo://app?vid=784ddb13-4bda-43aa-8f37-c3450d3f29b6"},"vehicle_type_id":"4","last_reported":1700953582,"current_range_meters":6800,"station_id":"ce4bgvh2rcd13ifvqcs0","pricing_plan_id":"free"},{"bike_id":"70661fb3-c0a0-4e75-9cc1-95789cf8c65b","system_id":"levelo_inurba_marseille","lat":43.302759,"lon":5.400793,"is_reserved":false,"is_disabled":false,"rental_uris":{"android":"levelo://app?vid=70661fb3-c0a0-4e75-9cc1-95789cf8c65b","ios":"levelo://app?vid=70661fb3-c0a0-4e75-9cc1-95789cf8c65b"},"vehicle_type_id":"4","last_reported":1700953582,"current_range_meters":12800,"station_id":"ce4bgvh2rcd13ifvqcs0","pricing_plan_id":"free"},{"bike_id":"f8a7c781-d275-4271-96a9-43cbaa7d4d01","system_id":"levelo_inurba_marseille","lat":43.302759,"lon":5.400793,"is_reserved":false,"is_disabled":false,"rental_uris":{"android":"levelo://app?vid=f8a7c781-d275-4271-96a9-43cbaa7d4d01","ios":"levelo://app?vid=f8a7c781-d275-4271-96a9-43cbaa7d4d01"},"vehicle_type_id":"4","last_reported":1700953582,"current_range_meters":31200,"station_id":"ce4bgvh2rcd13ifvqcs0","pricing_plan_id":"free"},{"bike_id":"0f56fa0f-1117-4140-8fde-612592dc4d4f","system_id":"levelo_inurba_marseille","lat":43.286039,"lon":5.370679,"is_reserved":false,"is_disabled":false,"rental_uris":{"android":"levelo://app?vid=0f56fa0f-1117-4140-8fde-612592dc4d4f","ios":"levelo://app?vid=0f56fa0f-1117-4140-8fde-612592dc4d4f"},"vehicle_type_id":"4","last_reported":1700953582,"current_range_meters":20000,"station_id":"ce4bht12rcd13ifvqi60","pricing_plan_id":"free"},{"bike_id":"b626a7c4-4bd8-4112-b739-5f98045d4aa0","system_id":"levelo_inurba_marseille","lat":43.287184,"lon":5.37937,"is_reserved":false,"is_disabled":false,"rental_uris":{"android":"levelo://app?vid=b626a7c4-4bd8-4112-b739-5f98045d4aa0","ios":"levelo://app?vid=b626a7c4-4bd8-4112-b739-5f98045d4aa0"},"vehicle_type_id":"4","last_reported":1700953582,"current_range_meters":20000,"station_id":"ce4bh9p2rcd13ifvqec0","pricing_plan_id":"free"},{"bike_id":"00526a05-c754-4ff7-b2c7-56467f55415b","system_id":"levelo_inurba_marseille","lat":43.287185,"lon":5.379373,"is_reserved":false,"is_disabled":false,"rental_uris":{"android":"levelo://app?vid=00526a05-c754-4ff7-b2c7-56467f55415b","ios":"levelo://app?vid=00526a05-c754-4ff7-b2c7-56467f55415b"},"vehicle_type_id":"4","last_reported":1700953582,"current_range_meters":2000,"station_id":"ce4bh9p2rcd13ifvqec0","pricing_plan_id":"free"},{"bike_id":"52e1976b-20e4-45a6-b5f9-3f822ddd244a","system_id":"levelo_inurba_marseille","lat":43.287185,"lon":5.379373,"is_reserved":false,"is_disabled":false,"rental_uris":{"android":"levelo://app?vid=52e1976b-20e4-45a6-b5f9-3f822ddd244a","ios":"levelo://app?vid=52e1976b-20e4-45a6-b5f9-3f822ddd244a"},"vehicle_type_id":"4","last_reported":1700953582,"current_range_meters":20800,"station_id":"ce4bh9p2rcd13ifvqec0","pricing_plan_id":"free"},{"bike_id":"ca57b001-f9b8-47b2-ac55-5a48f04cda39","system_id":"levelo_inurba_marseille","lat":43.28464,"lon":5.35896,"is_reserved":false,"is_disabled":false,"rental_uris":{"android":"levelo://app?vid=ca57b001-f9b8-47b2-ac55-5a48f04cda39","ios":"levelo://app?vid=ca57b001-f9b8-47b2-ac55-5a48f04cda39"},"vehicle_type_id":"4","last_reported":1700953582,"current_range_meters":18400,"station_id":"ce4bhah2rcd13ifvqei0","pricing_plan_id":"free"},{"bike_id":"cdead48e-fa06-4435-b6f4-505cbd3628cf","system_id":"levelo_inurba_marseille","lat":43.294314,"lon":5.397498,"is_reserved":false,"is_disabled":false,"rental_uris":{"android":"levelo://app?vid=cdead48e-fa06-4435-b6f4-505cbd3628cf","ios":"levelo://app?vid=cdead48e-fa06-4435-b6f4-505cbd3628cf"},"vehicle_type_id":"4","last_reported":1700953582,"current_range_meters":19600,"station_id":"ce4bh3h2rcd13ifvqdo0","pricing_plan_id":"free"},{"bike_id":"95618206-f8dd-42b0-8638-2c7d6b8c67d2","system_id":"levelo_inurba_marseille","lat":43.284538,"lon":5.358657,"is_reserved":false,"is_disabled":false,"rental_uris":{"android":"levelo://app?vid=95618206-f8dd-42b0-8638-2c7d6b8c67d2","ios":"levelo://app?vid=95618206-f8dd-42b0-8638-2c7d6b8c67d2"},"vehicle_type_id":"4","last_reported":1700953582,"current_range_meters":0,"station_id":"ce4bhah2rcd13ifvqei0","pricing_plan_id":"free"},{"bike_id":"2c9e67b9-8eaf-4abf-b3f2-dd6c880ac7e1","system_id":"levelo_inurba_marseille","lat":43.28459,"lon":5.35891,"is_reserved":false,"is_disabled":false,"rental_uris":{"android":"levelo://app?vid=2c9e67b9-8eaf-4abf-b3f2-dd6c880ac7e1","ios":"levelo://app?vid=2c9e67b9-8eaf-4abf-b3f2-dd6c880ac7e1"},"vehicle_type_id":"4","last_reported":1700953582,"current_range_meters":22000,"station_id":"ce4bhah2rcd13ifvqei0","pricing_plan_id":"free"},{"bike_id":"64c66707-33ea-4fa9-83a8-bee1d5aab9dc","system_id":"levelo_inurba_marseille","lat":43.294314,"lon":5.397498,"is_reserved":false,"is_disabled":false,"rental_uris":{"android":"levelo://app?vid=64c66707-33ea-4fa9-83a8-bee1d5aab9dc","ios":"levelo://app?vid=64c66707-33ea-4fa9-83a8-bee1d5aab9dc"},"vehicle_type_id":"4","last_reported":1700953582,"current_range_meters":22000,"station_id":"ce4bh3h2rcd13ifvqdo0","pricing_plan_id":"free"},{"bike_id":"b7fe6077-f070-45d0-be65-0fd1baabf430","system_id":"levelo_inurba_marseille","lat":43.294314,"lon":5.397498,"is_reserved":false,"is_disabled":false,"rental_uris":{"android":"levelo://app?vid=b7fe6077-f070-45d0-be65-0fd1baabf430","ios":"levelo://app?vid=b7fe6077-f070-45d0-be65-0fd1baabf430"},"vehicle_type_id":"4","last_reported":1700953582,"current_range_meters":16000,"station_id":"ce4bh3h2rcd13ifvqdo0","pricing_plan_id":"free"},{"bike_id":"c7fa749f-622a-4768-a386-3579a8d542ac","system_id":"levelo_inurba_marseille","lat":43.294314,"lon":5.397498,"is_reserved":false,"is_disabled":false,"rental_uris":{"android":"levelo://app?vid=c7fa749f-622a-4768-a386-3579a8d542ac","ios":"levelo://app?vid=c7fa749f-622a-4768-a386-3579a8d542ac"},"vehicle_type_id":"4","last_reported":1700953582,"current_range_meters":6400,"station_id":"ce4bh3h2rcd13ifvqdo0","pricing_plan_id":"free"},{"bike_id":"6c75e270-e87d-4fc7-a1c6-e4b3d5c451ba","system_id":"levelo_inurba_marseille","lat":43.283998,"lon":5.375062,"is_reserved":false,"is_disabled":false,"rental_uris":{"android":"levelo://app?vid=6c75e270-e87d-4fc7-a1c6-e4b3d5c451ba","ios":"levelo://app?vid=6c75e270-e87d-4fc7-a1c6-e4b3d5c451ba"},"vehicle_type_id":"4","last_reported":1700953582,"current_range_meters":24400,"station_id":"ce4bh412rcd13ifvqds0","pricing_plan_id":"free"},{"bike_id":"e5d7a276-6bd8-49a0-a556-2c03f79d2290","system_id":"levelo_inurba_marseille","lat":43.283998,"lon":5.375062,"is_reserved":false,"is_disabled":false,"rental_uris":{"android":"levelo://app?vid=e5d7a276-6bd8-49a0-a556-2c03f79d2290","ios":"levelo://app?vid=e5d7a276-6bd8-49a0-a556-2c03f79d2290"},"vehicle_type_id":"4","last_reported":1700953582,"current_range_meters":26800,"station_id":"ce4bh412rcd13ifvqds0","pricing_plan_id":"free"},{"bike_id":"2dbd9885-a55e-4b32-8723-854d669cbcbd","system_id":"levelo_inurba_marseille","lat":43.283998,"lon":5.375062,"is_reserved":false,"is_disabled":false,"rental_uris":{"android":"levelo://app?vid=2dbd9885-a55e-4b32-8723-854d669cbcbd","ios":"levelo://app?vid=2dbd9885-a55e-4b32-8723-854d669cbcbd"},"vehicle_type_id":"4","last_reported":1700953582,"current_range_meters":800,"station_id":"ce4bh412rcd13ifvqds0","pricing_plan_id":"free"},{"bike_id":"a3c897cd-3fcc-4045-93e6-4c5a72149642","system_id":"levelo_inurba_marseille","lat":43.33717,"lon":5.391857,"is_reserved":false,"is_disabled":false,"rental_uris":{"android":"levelo://app?vid=a3c897cd-3fcc-4045-93e6-4c5a72149642","ios":"levelo://app?vid=a3c897cd-3fcc-4045-93e6-4c5a72149642"},"vehicle_type_id":"4","last_reported":1700953582,"current_range_meters":26800,"station_id":"ce4bhr92rcd13ifvqhsg","pricing_plan_id":"free"},{"bike_id":"bf8242ed-eae2-4435-9f5f-25a66fd5e97f","system_id":"levelo_inurba_marseille","lat":43.337168,"lon":5.391825,"is_reserved":false,"is_disabled":false,"rental_uris":{"android":"levelo://app?vid=bf8242ed-eae2-4435-9f5f-25a66fd5e97f","ios":"levelo://app?vid=bf8242ed-eae2-4435-9f5f-25a66fd5e97f"},"vehicle_type_id":"4","last_reported":1700953582,"current_range_meters":14400,"station_id":"ce4bhr92rcd13ifvqhsg","pricing_plan_id":"free"},{"bike_id":"ec787e1e-db2a-4cf0-b872-f832c429e8ac","system_id":"levelo_inurba_marseille","lat":43.297946,"lon":5.404063,"is_reserved":false,"is_disabled":false,"rental_uris":{"android":"levelo://app?vid=ec787e1e-db2a-4cf0-b872-f832c429e8ac","ios":"levelo://app?vid=ec787e1e-db2a-4cf0-b872-f832c429e8ac"},"vehicle_type_id":"4","last_reported":1700953582,"current_range_meters":28800,"station_id":"ce4bh112rcd13ifvqd90","pricing_plan_id":"free"},{"bike_id":"586af848-1261-4363-9661-eb4742eccbc1","system_id":"levelo_inurba_marseille","lat":43.288501,"lon":5.393087,"is_reserved":false,"is_disabled":false,"rental_uris":{"android":"levelo://app?vid=586af848-1261-4363-9661-eb4742eccbc1","ios":"levelo://app?vid=586af848-1261-4363-9661-eb4742eccbc1"},"vehicle_type_id":"4","last_reported":1700953582,"current_range_meters":15600,"station_id":"ce4bh2p2rcd13ifvqdi0","pricing_plan_id":"free"},{"bike_id":"007a3eb0-6cc4-4335-94f1-36a78a10d670","system_id":"levelo_inurba_marseille","lat":43.288501,"lon":5.393087,"is_reserved":false,"is_disabled":false,"rental_uris":{"android":"levelo://app?vid=007a3eb0-6cc4-4335-94f1-36a78a10d670","ios":"levelo://app?vid=007a3eb0-6cc4-4335-94f1-36a78a10d670"},"vehicle_type_id":"4","last_reported":1700953582,"current_range_meters":24800,"station_id":"ce4bh2p2rcd13ifvqdi0","pricing_plan_id":"free"},{"bike_id":"2d63a72b-63ea-4b7b-896b-59b42244e41c","system_id":"levelo_inurba_marseille","lat":43.284217,"lon":5.349697,"is_reserved":false,"is_disabled":false,"rental_uris":{"android":"levelo://app?vid=2d63a72b-63ea-4b7b-896b-59b42244e41c","ios":"levelo://app?vid=2d63a72b-63ea-4b7b-896b-59b42244e41c"},"vehicle_type_id":"4","last_reported":1700953582,"current_range_meters":19200,"station_id":"ce4bhbh2rcd13ifvqepg","pricing_plan_id":"free"},{"bike_id":"e2284003-4e46-4e0a-93e7-73d05c3666d9","system_id":"levelo_inurba_marseille","lat":43.33508,"lon":5.397755,"is_reserved":false,"is_disabled":false,"rental_uris":{"android":"levelo://app?vid=e2284003-4e46-4e0a-93e7-73d05c3666d9","ios":"levelo://app?vid=e2284003-4e46-4e0a-93e7-73d05c3666d9"},"vehicle_type_id":"4","last_reported":1700953582,"current_range_meters":20800,"station_id":"","pricing_plan_id":"free"},{"bike_id":"6b68e1af-cc2a-4143-8df5-d6a3a64d0ca7","system_id":"levelo_inurba_marseille","lat":43.292724,"lon":5.401131,"is_reserved":false,"is_disabled":false,"rental_uris":{"android":"levelo://app?vid=6b68e1af-cc2a-4143-8df5-d6a3a64d0ca7","ios":"levelo://app?vid=6b68e1af-cc2a-4143-8df5-d6a3a64d0ca7"},"vehicle_type_id":"4","last_reported":1700953582,"current_range_meters":8000,"station_id":"ce4bh312rcd13ifvqdk0","pricing_plan_id":"free"},{"bike_id":"a70f0394-e3d6-4d73-9db2-04eadc2eaab5","system_id":"levelo_inurba_marseille","lat":43.282744,"lon":5.350533,"is_reserved":false,"is_disabled":false,"rental_uris":{"android":"levelo://app?vid=a70f0394-e3d6-4d73-9db2-04eadc2eaab5","ios":"levelo://app?vid=a70f0394-e3d6-4d73-9db2-04eadc2eaab5"},"vehicle_type_id":"4","last_reported":1700953582,"current_range_meters":14000,"station_id":"ce4bhbp2rcd13ifvqerg","pricing_plan_id":"free"},{"bike_id":"db0ed9a9-6a60-4581-a8d4-06a35ad67137","system_id":"levelo_inurba_marseille","lat":43.282754,"lon":5.350519,"is_reserved":false,"is_disabled":false,"rental_uris":{"android":"levelo://app?vid=db0ed9a9-6a60-4581-a8d4-06a35ad67137","ios":"levelo://app?vid=db0ed9a9-6a60-4581-a8d4-06a35ad67137"},"vehicle_type_id":"4","last_reported":1700953582,"current_range_meters":20000,"station_id":"ce4bhbp2rcd13ifvqerg","pricing_plan_id":"free"},{"bike_id":"6ac7559d-766f-424e-98d9-2ad5998281b0","system_id":"levelo_inurba_marseille","lat":43.28039,"lon":5.369297,"is_reserved":false,"is_disabled":false,"rental_uris":{"android":"levelo://app?vid=6ac7559d-766f-424e-98d9-2ad5998281b0","ios":"levelo://app?vid=6ac7559d-766f-424e-98d9-2ad5998281b0"},"vehicle_type_id":"4","last_reported":1700953582,"current_range_meters":16400,"station_id":"ce4bha12rcd13ifvqef0","pricing_plan_id":"free"},{"bike_id":"ec3b3fd1-5bfc-4d6f-bc0e-3062bce32f53","system_id":"levelo_inurba_marseille","lat":43.28039,"lon":5.369297,"is_reserved":false,"is_disabled":false,"rental_uris":{"android":"levelo://app?vid=ec3b3fd1-5bfc-4d6f-bc0e-3062bce32f53","ios":"levelo://app?vid=ec3b3fd1-5bfc-4d6f-bc0e-3062bce32f53"},"vehicle_type_id":"4","last_reported":1700953582,"current_range_meters":31200,"station_id":"ce4bha12rcd13ifvqef0","pricing_plan_id":"free"},{"bike_id":"57ae1c4e-3134-4051-8a20-577d938684d7","system_id":"levelo_inurba_marseille","lat":43.28039,"lon":5.369297,"is_reserved":false,"is_disabled":false,"rental_uris":{"android":"levelo://app?vid=57ae1c4e-3134-4051-8a20-577d938684d7","ios":"levelo://app?vid=57ae1c4e-3134-4051-8a20-577d938684d7"},"vehicle_type_id":"4","last_reported":1700953582,"current_range_meters":9200,"station_id":"ce4bha12rcd13ifvqef0","pricing_plan_id":"free"},{"bike_id":"99737d22-a82e-4eb5-8d7c-14631e31b9f7","system_id":"levelo_inurba_marseille","lat":43.28039,"lon":5.369297,"is_reserved":false,"is_disabled":false,"rental_uris":{"android":"levelo://app?vid=99737d22-a82e-4eb5-8d7c-14631e31b9f7","ios":"levelo://app?vid=99737d22-a82e-4eb5-8d7c-14631e31b9f7"},"vehicle_type_id":"4","last_reported":1700953582,"current_range_meters":400,"station_id":"ce4bha12rcd13ifvqef0","pricing_plan_id":"free"},{"bike_id":"db9334a0-0093-411c-aac9-d2c04233863c","system_id":"levelo_inurba_marseille","lat":43.28039,"lon":5.369297,"is_reserved":false,"is_disabled":false,"rental_uris":{"android":"levelo://app?vid=db9334a0-0093-411c-aac9-d2c04233863c","ios":"levelo://app?vid=db9334a0-0093-411c-aac9-d2c04233863c"},"vehicle_type_id":"4","last_reported":1700953582,"current_range_meters":23600,"station_id":"ce4bha12rcd13ifvqef0","pricing_plan_id":"free"},{"bike_id":"9d3f5624-b3d7-43b2-9f84-615004750da7","system_id":"levelo_inurba_marseille","lat":43.28106,"lon":5.37842,"is_reserved":false,"is_disabled":false,"rental_uris":{"android":"levelo://app?vid=9d3f5624-b3d7-43b2-9f84-615004750da7","ios":"levelo://app?vid=9d3f5624-b3d7-43b2-9f84-615004750da7"},"vehicle_type_id":"4","last_reported":1700953582,"current_range_meters":0,"station_id":"ce4bha12rcd13ifvqee0","pricing_plan_id":"free"},{"bike_id":"d04588e9-bbab-4445-9e8d-2ba961ba7b92","system_id":"levelo_inurba_marseille","lat":43.281044,"lon":5.378308,"is_reserved":false,"is_disabled":false,"rental_uris":{"android":"levelo://app?vid=d04588e9-bbab-4445-9e8d-2ba961ba7b92","ios":"levelo://app?vid=d04588e9-bbab-4445-9e8d-2ba961ba7b92"},"vehicle_type_id":"4","last_reported":1700953582,"current_range_meters":3600,"station_id":"ce4bha12rcd13ifvqee0","pricing_plan_id":"free"},{"bike_id":"8b5fa9aa-33b2-4d3d-8022-678cb5275d9a","system_id":"levelo_inurba_marseille","lat":43.28101,"lon":5.37842,"is_reserved":false,"is_disabled":false,"rental_uris":{"android":"levelo://app?vid=8b5fa9aa-33b2-4d3d-8022-678cb5275d9a","ios":"levelo://app?vid=8b5fa9aa-33b2-4d3d-8022-678cb5275d9a"},"vehicle_type_id":"4","last_reported":1700953582,"current_range_meters":15200,"station_id":"ce4bha12rcd13ifvqee0","pricing_plan_id":"free"},{"bike_id":"b9511e3f-ddb4-47d2-846f-c9cb650f532e","system_id":"levelo_inurba_marseille","lat":43.284462,"lon":5.392121,"is_reserved":false,"is_disabled":false,"rental_uris":{"android":"levelo://app?vid=b9511e3f-ddb4-47d2-846f-c9cb650f532e","ios":"levelo://app?vid=b9511e3f-ddb4-47d2-846f-c9cb650f532e"},"vehicle_type_id":"4","last_reported":1700953582,"current_range_meters":21600,"station_id":"ce4bhoh2rcd13ifvqh5g","pricing_plan_id":"free"},{"bike_id":"ee6354cd-15a1-4c13-8132-fb5f24a30e3d","system_id":"levelo_inurba_marseille","lat":43.28573,"lon":5.394992,"is_reserved":false,"is_disabled":false,"rental_uris":{"android":"levelo://app?vid=ee6354cd-15a1-4c13-8132-fb5f24a30e3d","ios":"levelo://app?vid=ee6354cd-15a1-4c13-8132-fb5f24a30e3d"},"vehicle_type_id":"4","last_reported":1700953582,"current_range_meters":26000,"station_id":"ce4bh292rcd13ifvqdg0","pricing_plan_id":"free"},{"bike_id":"8d90e7d1-d40e-4142-89a4-47bbc1e9b6fb","system_id":"levelo_inurba_marseille","lat":43.326605,"lon":5.409903,"is_reserved":false,"is_disabled":false,"rental_uris":{"android":"levelo://app?vid=8d90e7d1-d40e-4142-89a4-47bbc1e9b6fb","ios":"levelo://app?vid=8d90e7d1-d40e-4142-89a4-47bbc1e9b6fb"},"vehicle_type_id":"4","last_reported":1700953582,"current_range_meters":13600,"station_id":"ce4bhpp2rcd13ifvqhgg","pricing_plan_id":"free"},{"bike_id":"9922c4a8-66a9-487c-9e2c-bdfef8b1fec0","system_id":"levelo_inurba_marseille","lat":43.326605,"lon":5.409903,"is_reserved":false,"is_disabled":false,"rental_uris":{"android":"levelo://app?vid=9922c4a8-66a9-487c-9e2c-bdfef8b1fec0","ios":"levelo://app?vid=9922c4a8-66a9-487c-9e2c-bdfef8b1fec0"},"vehicle_type_id":"4","last_reported":1700953582,"current_range_meters":15200,"station_id":"ce4bhpp2rcd13ifvqhgg","pricing_plan_id":"free"},{"bike_id":"7129b2a3-49ad-4263-b43e-28064b79bd22","system_id":"levelo_inurba_marseille","lat":43.326605,"lon":5.409903,"is_reserved":false,"is_disabled":false,"rental_uris":{"android":"levelo://app?vid=7129b2a3-49ad-4263-b43e-28064b79bd22","ios":"levelo://app?vid=7129b2a3-49ad-4263-b43e-28064b79bd22"},"vehicle_type_id":"4","last_reported":1700953582,"current_range_meters":29200,"station_id":"ce4bhpp2rcd13ifvqhgg","pricing_plan_id":"free"},{"bike_id":"d01a439e-2174-49ad-9721-02ceee1ca588","system_id":"levelo_inurba_marseille","lat":43.304188,"lon":5.412904,"is_reserved":false,"is_disabled":false,"rental_uris":{"android":"levelo://app?vid=d01a439e-2174-49ad-9721-02ceee1ca588","ios":"levelo://app?vid=d01a439e-2174-49ad-9721-02ceee1ca588"},"vehicle_type_id":"4","last_reported":1700953582,"current_range_meters":9200,"station_id":"ce4bhop2rcd13ifvqh8g","pricing_plan_id":"free"},{"bike_id":"7e88a9e3-7275-4197-a6a9-bca1215fd697","system_id":"levelo_inurba_marseille","lat":43.304188,"lon":5.412904,"is_reserved":false,"is_disabled":false,"rental_uris":{"android":"levelo://app?vid=7e88a9e3-7275-4197-a6a9-bca1215fd697","ios":"levelo://app?vid=7e88a9e3-7275-4197-a6a9-bca1215fd697"},"vehicle_type_id":"4","last_reported":1700953582,"current_range_meters":20400,"station_id":"ce4bhop2rcd13ifvqh8g","pricing_plan_id":"free"},{"bike_id":"f3060812-53a9-4199-88b7-00a47aeb6328","system_id":"levelo_inurba_marseille","lat":43.287154,"lon":5.399979,"is_reserved":false,"is_disabled":false,"rental_uris":{"android":"levelo://app?vid=f3060812-53a9-4199-88b7-00a47aeb6328","ios":"levelo://app?vid=f3060812-53a9-4199-88b7-00a47aeb6328"},"vehicle_type_id":"4","last_reported":1700953582,"current_range_meters":27600,"station_id":"ce4bho92rcd13ifvqh3g","pricing_plan_id":"free"},{"bike_id":"e252eef0-96ec-4dfb-a377-df5357c53570","system_id":"levelo_inurba_marseille","lat":43.287056,"lon":5.399918,"is_reserved":false,"is_disabled":false,"rental_uris":{"android":"levelo://app?vid=e252eef0-96ec-4dfb-a377-df5357c53570","ios":"levelo://app?vid=e252eef0-96ec-4dfb-a377-df5357c53570"},"vehicle_type_id":"4","last_reported":1700953582,"current_range_meters":4000,"station_id":"ce4bho92rcd13ifvqh3g","pricing_plan_id":"free"},{"bike_id":"f16b2a30-fdf8-4498-b123-427478e0d68a","system_id":"levelo_inurba_marseille","lat":43.287154,"lon":5.399979,"is_reserved":false,"is_disabled":false,"rental_uris":{"android":"levelo://app?vid=f16b2a30-fdf8-4498-b123-427478e0d68a","ios":"levelo://app?vid=f16b2a30-fdf8-4498-b123-427478e0d68a"},"vehicle_type_id":"4","last_reported":1700953582,"current_range_meters":11600,"station_id":"ce4bho92rcd13ifvqh3g","pricing_plan_id":"free"},{"bike_id":"ff40a7ef-d3cd-4a85-a701-ce8539e77d7e","system_id":"levelo_inurba_marseille","lat":43.27626,"lon":5.36105,"is_reserved":false,"is_disabled":false,"rental_uris":{"android":"levelo://app?vid=ff40a7ef-d3cd-4a85-a701-ce8539e77d7e","ios":"levelo://app?vid=ff40a7ef-d3cd-4a85-a701-ce8539e77d7e"},"vehicle_type_id":"4","last_reported":1700953582,"current_range_meters":28400,"station_id":"ce4bgj92rcd13ifvqbe0","pricing_plan_id":"free"},{"bike_id":"5cce28fb-2557-48ba-b681-2728480037d9","system_id":"levelo_inurba_marseille","lat":43.29266,"lon":5.40923,"is_reserved":false,"is_disabled":false,"rental_uris":{"android":"levelo://app?vid=5cce28fb-2557-48ba-b681-2728480037d9","ios":"levelo://app?vid=5cce28fb-2557-48ba-b681-2728480037d9"},"vehicle_type_id":"4","last_reported":1700953582,"current_range_meters":7600,"station_id":"ce4bh192rcd13ifvqdc0","pricing_plan_id":"free"},{"bike_id":"a3c6def1-5296-4c7a-9eea-c8d4b330c208","system_id":"levelo_inurba_marseille","lat":43.276179,"lon":5.361009,"is_reserved":false,"is_disabled":false,"rental_uris":{"android":"levelo://app?vid=a3c6def1-5296-4c7a-9eea-c8d4b330c208","ios":"levelo://app?vid=a3c6def1-5296-4c7a-9eea-c8d4b330c208"},"vehicle_type_id":"4","last_reported":1700953582,"current_range_meters":30400,"station_id":"ce4bgj92rcd13ifvqbe0","pricing_plan_id":"free"},{"bike_id":"e9333e17-ea63-4942-a642-cb0a1ba22a55","system_id":"levelo_inurba_marseille","lat":43.325243,"lon":5.414326,"is_reserved":false,"is_disabled":false,"rental_uris":{"android":"levelo://app?vid=e9333e17-ea63-4942-a642-cb0a1ba22a55","ios":"levelo://app?vid=e9333e17-ea63-4942-a642-cb0a1ba22a55"},"vehicle_type_id":"4","last_reported":1700953582,"current_range_meters":28400,"station_id":"ce4bhq12rcd13ifvqhhg","pricing_plan_id":"free"},{"bike_id":"c25ea147-e804-4786-9d25-91f61a8ed59a","system_id":"levelo_inurba_marseille","lat":43.293651,"lon":5.41268,"is_reserved":false,"is_disabled":false,"rental_uris":{"android":"levelo://app?vid=c25ea147-e804-4786-9d25-91f61a8ed59a","ios":"levelo://app?vid=c25ea147-e804-4786-9d25-91f61a8ed59a"},"vehicle_type_id":"4","last_reported":1700953582,"current_range_meters":0,"station_id":"","pricing_plan_id":"free"},{"bike_id":"1a41ba2d-126a-45a0-9786-3a69c6425282","system_id":"levelo_inurba_marseille","lat":43.273613,"lon":5.362705,"is_reserved":false,"is_disabled":false,"rental_uris":{"android":"levelo://app?vid=1a41ba2d-126a-45a0-9786-3a69c6425282","ios":"levelo://app?vid=1a41ba2d-126a-45a0-9786-3a69c6425282"},"vehicle_type_id":"4","last_reported":1700953582,"current_range_meters":4800,"station_id":"ce4bhbh2rcd13ifvqeo0","pricing_plan_id":"free"},{"bike_id":"1283cee1-794d-43ad-b494-016d481a09d2","system_id":"levelo_inurba_marseille","lat":43.33612,"lon":5.410321,"is_reserved":false,"is_disabled":false,"rental_uris":{"android":"levelo://app?vid=1283cee1-794d-43ad-b494-016d481a09d2","ios":"levelo://app?vid=1283cee1-794d-43ad-b494-016d481a09d2"},"vehicle_type_id":"4","last_reported":1700953582,"current_range_meters":26000,"station_id":"ce4bhqh2rcd13ifvqhmg","pricing_plan_id":"free"},{"bike_id":"b04c8eff-5b73-47e6-a742-567787af1e7b","system_id":"levelo_inurba_marseille","lat":43.275625,"lon":5.384392,"is_reserved":false,"is_disabled":false,"rental_uris":{"android":"levelo://app?vid=b04c8eff-5b73-47e6-a742-567787af1e7b","ios":"levelo://app?vid=b04c8eff-5b73-47e6-a742-567787af1e7b"},"vehicle_type_id":"4","last_reported":1700953582,"current_range_meters":26800,"station_id":"ce4bhh92rcd13ifvqfi0","pricing_plan_id":"free"},{"bike_id":"94284315-d2e9-4352-95e0-000aace26a61","system_id":"levelo_inurba_marseille","lat":43.27995,"lon":5.40016,"is_reserved":false,"is_disabled":false,"rental_uris":{"android":"levelo://app?vid=94284315-d2e9-4352-95e0-000aace26a61","ios":"levelo://app?vid=94284315-d2e9-4352-95e0-000aace26a61"},"vehicle_type_id":"4","last_reported":1700953582,"current_range_meters":0,"station_id":"ce4bho92rcd13ifvqh4g","pricing_plan_id":"free"},{"bike_id":"0b12a7ea-0967-46fb-a8ef-3b36dce428f0","system_id":"levelo_inurba_marseille","lat":43.310785,"lon":5.424305,"is_reserved":false,"is_disabled":false,"rental_uris":{"android":"levelo://app?vid=0b12a7ea-0967-46fb-a8ef-3b36dce428f0","ios":"levelo://app?vid=0b12a7ea-0967-46fb-a8ef-3b36dce428f0"},"vehicle_type_id":"4","last_reported":1700953582,"current_range_meters":8000,"station_id":"ce4bhp92rcd13ifvqhag","pricing_plan_id":"free"},{"bike_id":"60395232-e532-4f5a-ae3e-52a22da3b50f","system_id":"levelo_inurba_marseille","lat":43.310801,"lon":5.424317,"is_reserved":false,"is_disabled":false,"rental_uris":{"android":"levelo://app?vid=60395232-e532-4f5a-ae3e-52a22da3b50f","ios":"levelo://app?vid=60395232-e532-4f5a-ae3e-52a22da3b50f"},"vehicle_type_id":"4","last_reported":1700953582,"current_range_meters":6000,"station_id":"ce4bhp92rcd13ifvqhag","pricing_plan_id":"free"},{"bike_id":"2de05027-7797-4106-81c1-0fbaf060e0d4","system_id":"levelo_inurba_marseille","lat":43.31715,"lon":5.42407,"is_reserved":false,"is_disabled":false,"rental_uris":{"android":"levelo://app?vid=2de05027-7797-4106-81c1-0fbaf060e0d4","ios":"levelo://app?vid=2de05027-7797-4106-81c1-0fbaf060e0d4"},"vehicle_type_id":"4","last_reported":1700953582,"current_range_meters":15600,"station_id":"ce4bhp92rcd13ifvqhbg","pricing_plan_id":"free"},{"bike_id":"8eb5bdb0-5c9b-4999-93c3-a1a499ccf536","system_id":"levelo_inurba_marseille","lat":43.310785,"lon":5.424305,"is_reserved":false,"is_disabled":false,"rental_uris":{"android":"levelo://app?vid=8eb5bdb0-5c9b-4999-93c3-a1a499ccf536","ios":"levelo://app?vid=8eb5bdb0-5c9b-4999-93c3-a1a499ccf536"},"vehicle_type_id":"4","last_reported":1700953582,"current_range_meters":7600,"station_id":"ce4bhp92rcd13ifvqhag","pricing_plan_id":"free"},{"bike_id":"97e3b868-516a-4717-91d1-15212899daab","system_id":"levelo_inurba_marseille","lat":43.340804,"lon":5.410219,"is_reserved":false,"is_disabled":false,"rental_uris":{"android":"levelo://app?vid=97e3b868-516a-4717-91d1-15212899daab","ios":"levelo://app?vid=97e3b868-516a-4717-91d1-15212899daab"},"vehicle_type_id":"4","last_reported":1700953582,"current_range_meters":14000,"station_id":"ce4bhqh2rcd13ifvqhlg","pricing_plan_id":"free"},{"bike_id":"3f7a559c-008d-463f-b6a5-5b652928b168","system_id":"levelo_inurba_marseille","lat":43.340804,"lon":5.410219,"is_reserved":false,"is_disabled":false,"rental_uris":{"android":"levelo://app?vid=3f7a559c-008d-463f-b6a5-5b652928b168","ios":"levelo://app?vid=3f7a559c-008d-463f-b6a5-5b652928b168"},"vehicle_type_id":"4","last_reported":1700953582,"current_range_meters":5200,"station_id":"ce4bhqh2rcd13ifvqhlg","pricing_plan_id":"free"},{"bike_id":"84df32b8-5209-4713-9a7c-35f1c5e64527","system_id":"levelo_inurba_marseille","lat":43.274099,"lon":5.394019,"is_reserved":false,"is_disabled":false,"rental_uris":{"android":"levelo://app?vid=84df32b8-5209-4713-9a7c-35f1c5e64527","ios":"levelo://app?vid=84df32b8-5209-4713-9a7c-35f1c5e64527"},"vehicle_type_id":"4","last_reported":1700953582,"current_range_meters":28400,"station_id":"ce4bhdp2rcd13ifvqf20","pricing_plan_id":"free"},{"bike_id":"12e9cfc0-5702-4c52-979f-5ac9e5c7c0d3","system_id":"levelo_inurba_marseille","lat":43.304096,"lon":5.425385,"is_reserved":false,"is_disabled":false,"rental_uris":{"android":"levelo://app?vid=12e9cfc0-5702-4c52-979f-5ac9e5c7c0d3","ios":"levelo://app?vid=12e9cfc0-5702-4c52-979f-5ac9e5c7c0d3"},"vehicle_type_id":"4","last_reported":1700953582,"current_range_meters":24400,"station_id":"ce4bhoh2rcd13ifvqh6g","pricing_plan_id":"free"},{"bike_id":"4ee479cd-a160-40d8-9650-68d450f33729","system_id":"levelo_inurba_marseille","lat":43.30412,"lon":5.42546,"is_reserved":false,"is_disabled":false,"rental_uris":{"android":"levelo://app?vid=4ee479cd-a160-40d8-9650-68d450f33729","ios":"levelo://app?vid=4ee479cd-a160-40d8-9650-68d450f33729"},"vehicle_type_id":"4","last_reported":1700953582,"current_range_meters":6400,"station_id":"ce4bhoh2rcd13ifvqh6g","pricing_plan_id":"free"},{"bike_id":"a47ef0e3-338f-4543-8e63-8e0132c5e349","system_id":"levelo_inurba_marseille","lat":43.278128,"lon":5.407195,"is_reserved":false,"is_disabled":false,"rental_uris":{"android":"levelo://app?vid=a47ef0e3-338f-4543-8e63-8e0132c5e349","ios":"levelo://app?vid=a47ef0e3-338f-4543-8e63-8e0132c5e349"},"vehicle_type_id":"4","last_reported":1700953582,"current_range_meters":30400,"station_id":"ce4bhnh2rcd13ifvqgtg","pricing_plan_id":"free"},{"bike_id":"b263c360-06c8-4f3d-8e06-07bbbf3b8544","system_id":"levelo_inurba_marseille","lat":43.278128,"lon":5.407195,"is_reserved":false,"is_disabled":false,"rental_uris":{"android":"levelo://app?vid=b263c360-06c8-4f3d-8e06-07bbbf3b8544","ios":"levelo://app?vid=b263c360-06c8-4f3d-8e06-07bbbf3b8544"},"vehicle_type_id":"4","last_reported":1700953582,"current_range_meters":15600,"station_id":"ce4bhnh2rcd13ifvqgtg","pricing_plan_id":"free"},{"bike_id":"18238bc1-a7d6-4bf1-97ad-06f73ddaa374","system_id":"levelo_inurba_marseille","lat":43.278128,"lon":5.407195,"is_reserved":false,"is_disabled":false,"rental_uris":{"android":"levelo://app?vid=18238bc1-a7d6-4bf1-97ad-06f73ddaa374","ios":"levelo://app?vid=18238bc1-a7d6-4bf1-97ad-06f73ddaa374"},"vehicle_type_id":"4","last_reported":1700953582,"current_range_meters":28800,"station_id":"ce4bhnh2rcd13ifvqgtg","pricing_plan_id":"free"},{"bike_id":"5c6ff074-752b-4e7b-b426-7201d9c547af","system_id":"levelo_inurba_marseille","lat":43.265714,"lon":5.372891,"is_reserved":false,"is_disabled":false,"rental_uris":{"android":"levelo://app?vid=5c6ff074-752b-4e7b-b426-7201d9c547af","ios":"levelo://app?vid=5c6ff074-752b-4e7b-b426-7201d9c547af"},"vehicle_type_id":"4","last_reported":1700953582,"current_range_meters":20000,"station_id":"ce4bhg12rcd13ifvqf70","pricing_plan_id":"free"},{"bike_id":"f23d8119-b478-4639-98c5-6883279f9f84","system_id":"levelo_inurba_marseille","lat":43.32592,"lon":5.43067,"is_reserved":false,"is_disabled":false,"rental_uris":{"android":"levelo://app?vid=f23d8119-b478-4639-98c5-6883279f9f84","ios":"levelo://app?vid=f23d8119-b478-4639-98c5-6883279f9f84"},"vehicle_type_id":"4","last_reported":1700953582,"current_range_meters":25200,"station_id":"","pricing_plan_id":"free"},{"bike_id":"e7b368e8-9edf-4ac8-acef-7e9558d427aa","system_id":"levelo_inurba_marseille","lat":43.32591,"lon":5.430713,"is_reserved":false,"is_disabled":false,"rental_uris":{"android":"levelo://app?vid=e7b368e8-9edf-4ac8-acef-7e9558d427aa","ios":"levelo://app?vid=e7b368e8-9edf-4ac8-acef-7e9558d427aa"},"vehicle_type_id":"4","last_reported":1700953582,"current_range_meters":0,"station_id":"","pricing_plan_id":"free"},{"bike_id":"ed30d6a1-b23a-49e5-9c83-5546be72a734","system_id":"levelo_inurba_marseille","lat":43.3259,"lon":5.43075,"is_reserved":false,"is_disabled":false,"rental_uris":{"android":"levelo://app?vid=ed30d6a1-b23a-49e5-9c83-5546be72a734","ios":"levelo://app?vid=ed30d6a1-b23a-49e5-9c83-5546be72a734"},"vehicle_type_id":"4","last_reported":1700953582,"current_range_meters":20000,"station_id":"","pricing_plan_id":"free"},{"bike_id":"d67469ee-5362-4610-a163-fe05ae3cf4f7","system_id":"levelo_inurba_marseille","lat":43.32604,"lon":5.430817,"is_reserved":false,"is_disabled":false,"rental_uris":{"android":"levelo://app?vid=d67469ee-5362-4610-a163-fe05ae3cf4f7","ios":"levelo://app?vid=d67469ee-5362-4610-a163-fe05ae3cf4f7"},"vehicle_type_id":"4","last_reported":1700953582,"current_range_meters":8400,"station_id":"","pricing_plan_id":"free"},{"bike_id":"97e80021-871f-43cf-ad8e-99b17a254f61","system_id":"levelo_inurba_marseille","lat":43.27996,"lon":5.416624,"is_reserved":false,"is_disabled":false,"rental_uris":{"android":"levelo://app?vid=97e80021-871f-43cf-ad8e-99b17a254f61","ios":"levelo://app?vid=97e80021-871f-43cf-ad8e-99b17a254f61"},"vehicle_type_id":"4","last_reported":1700953582,"current_range_meters":0,"station_id":"ce4bho12rcd13ifvqh1g","pricing_plan_id":"free"},{"bike_id":"4b44ca0c-41de-47dd-b2a2-408e6e15c7ac","system_id":"levelo_inurba_marseille","lat":43.267966,"lon":5.393976,"is_reserved":false,"is_disabled":false,"rental_uris":{"android":"levelo://app?vid=4b44ca0c-41de-47dd-b2a2-408e6e15c7ac","ios":"levelo://app?vid=4b44ca0c-41de-47dd-b2a2-408e6e15c7ac"},"vehicle_type_id":"4","last_reported":1700953582,"current_range_meters":27200,"station_id":"ce4bhh12rcd13ifvqfg0","pricing_plan_id":"free"},{"bike_id":"2b5f0b27-ae58-4e9e-bd76-c585f78e8a73","system_id":"levelo_inurba_marseille","lat":43.26386,"lon":5.37454,"is_reserved":false,"is_disabled":false,"rental_uris":{"android":"levelo://app?vid=2b5f0b27-ae58-4e9e-bd76-c585f78e8a73","ios":"levelo://app?vid=2b5f0b27-ae58-4e9e-bd76-c585f78e8a73"},"vehicle_type_id":"4","last_reported":1700953582,"current_range_meters":9200,"station_id":"","pricing_plan_id":"free"},{"bike_id":"72066edd-d7a5-41ba-bc89-de19f8f76ecf","system_id":"levelo_inurba_marseille","lat":43.265571,"lon":5.390032,"is_reserved":false,"is_disabled":false,"rental_uris":{"android":"levelo://app?vid=72066edd-d7a5-41ba-bc89-de19f8f76ecf","ios":"levelo://app?vid=72066edd-d7a5-41ba-bc89-de19f8f76ecf"},"vehicle_type_id":"4","last_reported":1700953582,"current_range_meters":25200,"station_id":"ce4bhe12rcd13ifvqf30","pricing_plan_id":"free"},{"bike_id":"b2ce843a-b289-43ba-bbdf-aaa877f11fe2","system_id":"levelo_inurba_marseille","lat":43.308051,"lon":5.43527,"is_reserved":false,"is_disabled":false,"rental_uris":{"android":"levelo://app?vid=b2ce843a-b289-43ba-bbdf-aaa877f11fe2","ios":"levelo://app?vid=b2ce843a-b289-43ba-bbdf-aaa877f11fe2"},"vehicle_type_id":"4","last_reported":1700953582,"current_range_meters":19200,"station_id":"ce4bhph2rcd13ifvqheg","pricing_plan_id":"free"},{"bike_id":"a557bc3e-6255-419b-8a70-ddf4b9c79f66","system_id":"levelo_inurba_marseille","lat":43.317091,"lon":5.437012,"is_reserved":false,"is_disabled":false,"rental_uris":{"android":"levelo://app?vid=a557bc3e-6255-419b-8a70-ddf4b9c79f66","ios":"levelo://app?vid=a557bc3e-6255-419b-8a70-ddf4b9c79f66"},"vehicle_type_id":"4","last_reported":1700953582,"current_range_meters":2000,"station_id":"ce4bhp92rcd13ifvqhcg","pricing_plan_id":"free"},{"bike_id":"ec593df7-85d2-4a7c-a892-75fec147bf75","system_id":"levelo_inurba_marseille","lat":43.31712,"lon":5.43705,"is_reserved":false,"is_disabled":false,"rental_uris":{"android":"levelo://app?vid=ec593df7-85d2-4a7c-a892-75fec147bf75","ios":"levelo://app?vid=ec593df7-85d2-4a7c-a892-75fec147bf75"},"vehicle_type_id":"4","last_reported":1700953582,"current_range_meters":0,"station_id":"ce4bhp92rcd13ifvqhcg","pricing_plan_id":"free"},{"bike_id":"9e593d08-8c96-44ca-b16e-7bf16e9cac2f","system_id":"levelo_inurba_marseille","lat":43.271368,"lon":5.40928,"is_reserved":false,"is_disabled":false,"rental_uris":{"android":"levelo://app?vid=9e593d08-8c96-44ca-b16e-7bf16e9cac2f","ios":"levelo://app?vid=9e593d08-8c96-44ca-b16e-7bf16e9cac2f"},"vehicle_type_id":"4","last_reported":1700953582,"current_range_meters":28000,"station_id":"ce4bhl12rcd13ifvqgf0","pricing_plan_id":"free"},{"bike_id":"dbf62bfb-d43b-46dc-b301-0e9e00d707fe","system_id":"levelo_inurba_marseille","lat":43.261757,"lon":5.379004,"is_reserved":false,"is_disabled":false,"rental_uris":{"android":"levelo://app?vid=dbf62bfb-d43b-46dc-b301-0e9e00d707fe","ios":"levelo://app?vid=dbf62bfb-d43b-46dc-b301-0e9e00d707fe"},"vehicle_type_id":"4","last_reported":1700953582,"current_range_meters":26800,"station_id":"ce4bhjp2rcd13ifvqg90","pricing_plan_id":"free"},{"bike_id":"7c5a83ac-336c-4b91-a5ea-82b3c6d6127d","system_id":"levelo_inurba_marseille","lat":43.298768,"lon":5.43643,"is_reserved":false,"is_disabled":false,"rental_uris":{"android":"levelo://app?vid=7c5a83ac-336c-4b91-a5ea-82b3c6d6127d","ios":"levelo://app?vid=7c5a83ac-336c-4b91-a5ea-82b3c6d6127d"},"vehicle_type_id":"4","last_reported":1700953582,"current_range_meters":31600,"station_id":"ce4bhpp2rcd13ifvqhfg","pricing_plan_id":"free"},{"bike_id":"f4f2e1d5-dafa-412d-9b3a-3611814786ce","system_id":"levelo_inurba_marseille","lat":43.298768,"lon":5.43643,"is_reserved":false,"is_disabled":false,"rental_uris":{"android":"levelo://app?vid=f4f2e1d5-dafa-412d-9b3a-3611814786ce","ios":"levelo://app?vid=f4f2e1d5-dafa-412d-9b3a-3611814786ce"},"vehicle_type_id":"4","last_reported":1700953582,"current_range_meters":30400,"station_id":"ce4bhpp2rcd13ifvqhfg","pricing_plan_id":"free"},{"bike_id":"d24921c1-8c61-4b91-941a-2e11a6ed2b73","system_id":"levelo_inurba_marseille","lat":43.29897,"lon":5.43669,"is_reserved":false,"is_disabled":false,"rental_uris":{"android":"levelo://app?vid=d24921c1-8c61-4b91-941a-2e11a6ed2b73","ios":"levelo://app?vid=d24921c1-8c61-4b91-941a-2e11a6ed2b73"},"vehicle_type_id":"4","last_reported":1700953582,"current_range_meters":8800,"station_id":"ce4bhpp2rcd13ifvqhfg","pricing_plan_id":"free"},{"bike_id":"8af0d2ed-93d1-485d-9803-40c71e52d0d9","system_id":"levelo_inurba_marseille","lat":43.29901,"lon":5.43677,"is_reserved":false,"is_disabled":false,"rental_uris":{"android":"levelo://app?vid=8af0d2ed-93d1-485d-9803-40c71e52d0d9","ios":"levelo://app?vid=8af0d2ed-93d1-485d-9803-40c71e52d0d9"},"vehicle_type_id":"4","last_reported":1700953582,"current_range_meters":11600,"station_id":"ce4bhpp2rcd13ifvqhfg","pricing_plan_id":"free"},{"bike_id":"6d1b7bb8-85b5-4c13-9c73-507efb629d45","system_id":"levelo_inurba_marseille","lat":43.28156,"lon":5.42643,"is_reserved":false,"is_disabled":false,"rental_uris":{"android":"levelo://app?vid=6d1b7bb8-85b5-4c13-9c73-507efb629d45","ios":"levelo://app?vid=6d1b7bb8-85b5-4c13-9c73-507efb629d45"},"vehicle_type_id":"4","last_reported":1700953582,"current_range_meters":27200,"station_id":"ce4bhnh2rcd13ifvqgug","pricing_plan_id":"free"},{"bike_id":"1c8d74f7-5570-450a-a3f0-692cd9a40004","system_id":"levelo_inurba_marseille","lat":43.281547,"lon":5.426463,"is_reserved":false,"is_disabled":false,"rental_uris":{"android":"levelo://app?vid=1c8d74f7-5570-450a-a3f0-692cd9a40004","ios":"levelo://app?vid=1c8d74f7-5570-450a-a3f0-692cd9a40004"},"vehicle_type_id":"4","last_reported":1700953582,"current_range_meters":27200,"station_id":"ce4bhnh2rcd13ifvqgug","pricing_plan_id":"free"},{"bike_id":"e2482bab-1eb4-4a6f-b7fd-75767a4a3271","system_id":"levelo_inurba_marseille","lat":43.275028,"lon":5.424534,"is_reserved":false,"is_disabled":false,"rental_uris":{"android":"levelo://app?vid=e2482bab-1eb4-4a6f-b7fd-75767a4a3271","ios":"levelo://app?vid=e2482bab-1eb4-4a6f-b7fd-75767a4a3271"},"vehicle_type_id":"4","last_reported":1700953582,"current_range_meters":27200,"station_id":"ce4bhn92rcd13ifvqgrg","pricing_plan_id":"free"},{"bike_id":"c8ad149b-0758-4b26-8594-7047a12fc6b0","system_id":"levelo_inurba_marseille","lat":43.26082,"lon":5.39766,"is_reserved":false,"is_disabled":false,"rental_uris":{"android":"levelo://app?vid=c8ad149b-0758-4b26-8594-7047a12fc6b0","ios":"levelo://app?vid=c8ad149b-0758-4b26-8594-7047a12fc6b0"},"vehicle_type_id":"4","last_reported":1700953582,"current_range_meters":3600,"station_id":"ce4bhi12rcd13ifvqfq0","pricing_plan_id":"free"},{"bike_id":"783e5a08-5c76-48d6-b5a2-4da09393953f","system_id":"levelo_inurba_marseille","lat":43.26082,"lon":5.39768,"is_reserved":false,"is_disabled":false,"rental_uris":{"android":"levelo://app?vid=783e5a08-5c76-48d6-b5a2-4da09393953f","ios":"levelo://app?vid=783e5a08-5c76-48d6-b5a2-4da09393953f"},"vehicle_type_id":"4","last_reported":1700953582,"current_range_meters":11600,"station_id":"ce4bhi12rcd13ifvqfq0","pricing_plan_id":"free"},{"bike_id":"c85f7616-3a9e-47a4-ae16-28a03e51ab4f","system_id":"levelo_inurba_marseille","lat":43.289273,"lon":5.438764,"is_reserved":false,"is_disabled":false,"rental_uris":{"android":"levelo://app?vid=c85f7616-3a9e-47a4-ae16-28a03e51ab4f","ios":"levelo://app?vid=c85f7616-3a9e-47a4-ae16-28a03e51ab4f"},"vehicle_type_id":"4","last_reported":1700953582,"current_range_meters":6000,"station_id":"","pricing_plan_id":"free"},{"bike_id":"53ae05c5-1664-4ddb-ae58-547f63e25710","system_id":"levelo_inurba_marseille","lat":43.25829,"lon":5.39427,"is_reserved":false,"is_disabled":false,"rental_uris":{"android":"levelo://app?vid=53ae05c5-1664-4ddb-ae58-547f63e25710","ios":"levelo://app?vid=53ae05c5-1664-4ddb-ae58-547f63e25710"},"vehicle_type_id":"4","last_reported":1700953582,"current_range_meters":29200,"station_id":"ce4bhip2rcd13ifvqft0","pricing_plan_id":"free"},{"bike_id":"117768a1-b0ac-46a9-b40f-e30b20e5f56f","system_id":"levelo_inurba_marseille","lat":43.258224,"lon":5.394369,"is_reserved":false,"is_disabled":false,"rental_uris":{"android":"levelo://app?vid=117768a1-b0ac-46a9-b40f-e30b20e5f56f","ios":"levelo://app?vid=117768a1-b0ac-46a9-b40f-e30b20e5f56f"},"vehicle_type_id":"4","last_reported":1700953582,"current_range_meters":16400,"station_id":"ce4bhip2rcd13ifvqft0","pricing_plan_id":"free"},{"bike_id":"4b1a6838-7bca-4929-8376-58411a6bee6c","system_id":"levelo_inurba_marseille","lat":43.258224,"lon":5.394369,"is_reserved":false,"is_disabled":false,"rental_uris":{"android":"levelo://app?vid=4b1a6838-7bca-4929-8376-58411a6bee6c","ios":"levelo://app?vid=4b1a6838-7bca-4929-8376-58411a6bee6c"},"vehicle_type_id":"4","last_reported":1700953582,"current_range_meters":23600,"station_id":"ce4bhip2rcd13ifvqft0","pricing_plan_id":"free"},{"bike_id":"3533a6b9-c640-434b-b433-4e41e36be1b7","system_id":"levelo_inurba_marseille","lat":43.270721,"lon":5.422764,"is_reserved":false,"is_disabled":false,"rental_uris":{"android":"levelo://app?vid=3533a6b9-c640-434b-b433-4e41e36be1b7","ios":"levelo://app?vid=3533a6b9-c640-434b-b433-4e41e36be1b7"},"vehicle_type_id":"4","last_reported":1700953582,"current_range_meters":26800,"station_id":"ce4bhk92rcd13ifvqgb0","pricing_plan_id":"free"},{"bike_id":"e06a8c78-4d48-491c-8072-84514714cbe8","system_id":"levelo_inurba_marseille","lat":43.270721,"lon":5.422764,"is_reserved":false,"is_disabled":false,"rental_uris":{"android":"levelo://app?vid=e06a8c78-4d48-491c-8072-84514714cbe8","ios":"levelo://app?vid=e06a8c78-4d48-491c-8072-84514714cbe8"},"vehicle_type_id":"4","last_reported":1700953582,"current_range_meters":31200,"station_id":"ce4bhk92rcd13ifvqgb0","pricing_plan_id":"free"},{"bike_id":"e4dd06e1-5fa3-4934-863e-c1cfc237ab84","system_id":"levelo_inurba_marseille","lat":43.258658,"lon":5.398935,"is_reserved":false,"is_disabled":false,"rental_uris":{"android":"levelo://app?vid=e4dd06e1-5fa3-4934-863e-c1cfc237ab84","ios":"levelo://app?vid=e4dd06e1-5fa3-4934-863e-c1cfc237ab84"},"vehicle_type_id":"4","last_reported":1700953582,"current_range_meters":30000,"station_id":"ce4bhl92rcd13ifvqghg","pricing_plan_id":"free"},{"bike_id":"0b8e004f-c033-4d03-aaed-ee97b6faae0d","system_id":"levelo_inurba_marseille","lat":43.259326,"lon":5.409129,"is_reserved":false,"is_disabled":false,"rental_uris":{"android":"levelo://app?vid=0b8e004f-c033-4d03-aaed-ee97b6faae0d","ios":"levelo://app?vid=0b8e004f-c033-4d03-aaed-ee97b6faae0d"},"vehicle_type_id":"4","last_reported":1700953582,"current_range_meters":22800,"station_id":"","pricing_plan_id":"free"},{"bike_id":"22a366ac-5382-4e2c-9fc6-96ed97199718","system_id":"levelo_inurba_marseille","lat":43.259302,"lon":5.409079,"is_reserved":false,"is_disabled":false,"rental_uris":{"android":"levelo://app?vid=22a366ac-5382-4e2c-9fc6-96ed97199718","ios":"levelo://app?vid=22a366ac-5382-4e2c-9fc6-96ed97199718"},"vehicle_type_id":"4","last_reported":1700953582,"current_range_meters":25600,"station_id":"ce4bhm92rcd13ifvqglg","pricing_plan_id":"free"},{"bike_id":"02c627a8-ed8a-4643-aca5-8acd3afbca7a","system_id":"levelo_inurba_marseille","lat":43.257079,"lon":5.411051,"is_reserved":false,"is_disabled":false,"rental_uris":{"android":"levelo://app?vid=02c627a8-ed8a-4643-aca5-8acd3afbca7a","ios":"levelo://app?vid=02c627a8-ed8a-4643-aca5-8acd3afbca7a"},"vehicle_type_id":"4","last_reported":1700953582,"current_range_meters":15200,"station_id":"ce4bhkp2rcd13ifvqgd0","pricing_plan_id":"free"},{"bike_id":"8b6e2a1b-c4f1-43f8-ad2c-fdfaa77fc447","system_id":"levelo_inurba_marseille","lat":43.25721,"lon":5.41117,"is_reserved":false,"is_disabled":false,"rental_uris":{"android":"levelo://app?vid=8b6e2a1b-c4f1-43f8-ad2c-fdfaa77fc447","ios":"levelo://app?vid=8b6e2a1b-c4f1-43f8-ad2c-fdfaa77fc447"},"vehicle_type_id":"4","last_reported":1700953582,"current_range_meters":28800,"station_id":"ce4bhkp2rcd13ifvqgd0","pricing_plan_id":"free"},{"bike_id":"76f36148-5dd9-400b-baa8-9aa3b229b966","system_id":"levelo_inurba_marseille","lat":43.250009,"lon":5.389195,"is_reserved":false,"is_disabled":false,"rental_uris":{"android":"levelo://app?vid=76f36148-5dd9-400b-baa8-9aa3b229b966","ios":"levelo://app?vid=76f36148-5dd9-400b-baa8-9aa3b229b966"},"vehicle_type_id":"4","last_reported":1700953582,"current_range_meters":30400,"station_id":"ce4bhgp2rcd13ifvqfd0","pricing_plan_id":"free"},{"bike_id":"e5696457-8c7d-4f66-b05c-99ab0c4098c7","system_id":"levelo_inurba_marseille","lat":43.2479,"lon":5.374457,"is_reserved":false,"is_disabled":false,"rental_uris":{"android":"levelo://app?vid=e5696457-8c7d-4f66-b05c-99ab0c4098c7","ios":"levelo://app?vid=e5696457-8c7d-4f66-b05c-99ab0c4098c7"},"vehicle_type_id":"4","last_reported":1700953582,"current_range_meters":26800,"station_id":"ce4bhgh2rcd13ifvqfb0","pricing_plan_id":"free"},{"bike_id":"4718b3d7-4847-4237-a22f-3d52e449c36d","system_id":"levelo_inurba_marseille","lat":43.250897,"lon":5.395161,"is_reserved":false,"is_disabled":false,"rental_uris":{"android":"levelo://app?vid=4718b3d7-4847-4237-a22f-3d52e449c36d","ios":"levelo://app?vid=4718b3d7-4847-4237-a22f-3d52e449c36d"},"vehicle_type_id":"4","last_reported":1700953582,"current_range_meters":26400,"station_id":"ce4bhm12rcd13ifvqgkg","pricing_plan_id":"free"},{"bike_id":"157378d0-32e2-49d8-a366-e9df7cdd3bac","system_id":"levelo_inurba_marseille","lat":43.250966,"lon":5.395186,"is_reserved":false,"is_disabled":false,"rental_uris":{"android":"levelo://app?vid=157378d0-32e2-49d8-a366-e9df7cdd3bac","ios":"levelo://app?vid=157378d0-32e2-49d8-a366-e9df7cdd3bac"},"vehicle_type_id":"4","last_reported":1700953582,"current_range_meters":30000,"station_id":"ce4bhm12rcd13ifvqgkg","pricing_plan_id":"free"},{"bike_id":"4e22f755-9fb8-454a-aed8-0ce31691dc80","system_id":"levelo_inurba_marseille","lat":43.2473,"lon":5.37395,"is_reserved":false,"is_disabled":false,"rental_uris":{"android":"levelo://app?vid=4e22f755-9fb8-454a-aed8-0ce31691dc80","ios":"levelo://app?vid=4e22f755-9fb8-454a-aed8-0ce31691dc80"},"vehicle_type_id":"4","last_reported":1700953582,"current_range_meters":17600,"station_id":"","pricing_plan_id":"free"},{"bike_id":"2645cd39-512e-4061-b025-45f27893a23b","system_id":"levelo_inurba_marseille","lat":43.246648,"lon":5.381535,"is_reserved":false,"is_disabled":false,"rental_uris":{"android":"levelo://app?vid=2645cd39-512e-4061-b025-45f27893a23b","ios":"levelo://app?vid=2645cd39-512e-4061-b025-45f27893a23b"},"vehicle_type_id":"4","last_reported":1700953582,"current_range_meters":30000,"station_id":"ce4bhih2rcd13ifvqfr0","pricing_plan_id":"free"},{"bike_id":"890f1931-e5ec-4066-b5a7-0222afec386c","system_id":"levelo_inurba_marseille","lat":43.25102,"lon":5.403214,"is_reserved":false,"is_disabled":false,"rental_uris":{"android":"levelo://app?vid=890f1931-e5ec-4066-b5a7-0222afec386c","ios":"levelo://app?vid=890f1931-e5ec-4066-b5a7-0222afec386c"},"vehicle_type_id":"4","last_reported":1700953582,"current_range_meters":31600,"station_id":"ce4bhlh2rcd13ifvqgig","pricing_plan_id":"free"},{"bike_id":"13885f57-1ce6-4567-9a20-79c68258517a","system_id":"levelo_inurba_marseille","lat":43.24657,"lon":5.38159,"is_reserved":false,"is_disabled":false,"rental_uris":{"android":"levelo://app?vid=13885f57-1ce6-4567-9a20-79c68258517a","ios":"levelo://app?vid=13885f57-1ce6-4567-9a20-79c68258517a"},"vehicle_type_id":"4","last_reported":1700953582,"current_range_meters":8800,"station_id":"ce4bhih2rcd13ifvqfr0","pricing_plan_id":"free"},{"bike_id":"297670fc-15cf-49ca-b4ad-d4387e65c566","system_id":"levelo_inurba_marseille","lat":43.25102,"lon":5.403214,"is_reserved":false,"is_disabled":false,"rental_uris":{"android":"levelo://app?vid=297670fc-15cf-49ca-b4ad-d4387e65c566","ios":"levelo://app?vid=297670fc-15cf-49ca-b4ad-d4387e65c566"},"vehicle_type_id":"4","last_reported":1700953582,"current_range_meters":30800,"station_id":"ce4bhlh2rcd13ifvqgig","pricing_plan_id":"free"},{"bike_id":"c5abd94b-53ad-4088-a14a-139d39627fc9","system_id":"levelo_inurba_marseille","lat":43.25102,"lon":5.403214,"is_reserved":false,"is_disabled":false,"rental_uris":{"android":"levelo://app?vid=c5abd94b-53ad-4088-a14a-139d39627fc9","ios":"levelo://app?vid=c5abd94b-53ad-4088-a14a-139d39627fc9"},"vehicle_type_id":"4","last_reported":1700953582,"current_range_meters":18800,"station_id":"ce4bhlh2rcd13ifvqgig","pricing_plan_id":"free"},{"bike_id":"4754d520-6d94-4ceb-b936-c49fc9af26ed","system_id":"levelo_inurba_marseille","lat":43.2511,"lon":5.40326,"is_reserved":false,"is_disabled":false,"rental_uris":{"android":"levelo://app?vid=4754d520-6d94-4ceb-b936-c49fc9af26ed","ios":"levelo://app?vid=4754d520-6d94-4ceb-b936-c49fc9af26ed"},"vehicle_type_id":"4","last_reported":1700953582,"current_range_meters":0,"station_id":"ce4bhlh2rcd13ifvqgig","pricing_plan_id":"free"},{"bike_id":"c1ced6aa-0310-4bab-8214-1f856ce02a86","system_id":"levelo_inurba_marseille","lat":43.246461,"lon":5.389014,"is_reserved":false,"is_disabled":false,"rental_uris":{"android":"levelo://app?vid=c1ced6aa-0310-4bab-8214-1f856ce02a86","ios":"levelo://app?vid=c1ced6aa-0310-4bab-8214-1f856ce02a86"},"vehicle_type_id":"4","last_reported":1700953582,"current_range_meters":22400,"station_id":"ce4bhg12rcd13ifvqf60","pricing_plan_id":"free"},{"bike_id":"903ed4a8-c1d1-413a-9081-9eff9c4d7773","system_id":"levelo_inurba_marseille","lat":43.246467,"lon":5.388984,"is_reserved":false,"is_disabled":false,"rental_uris":{"android":"levelo://app?vid=903ed4a8-c1d1-413a-9081-9eff9c4d7773","ios":"levelo://app?vid=903ed4a8-c1d1-413a-9081-9eff9c4d7773"},"vehicle_type_id":"4","last_reported":1700953582,"current_range_meters":19200,"station_id":"ce4bhg12rcd13ifvqf60","pricing_plan_id":"free"},{"bike_id":"16cbc471-e842-49b7-be91-1309994883e2","system_id":"levelo_inurba_marseille","lat":43.246439,"lon":5.388962,"is_reserved":false,"is_disabled":false,"rental_uris":{"android":"levelo://app?vid=16cbc471-e842-49b7-be91-1309994883e2","ios":"levelo://app?vid=16cbc471-e842-49b7-be91-1309994883e2"},"vehicle_type_id":"4","last_reported":1700953582,"current_range_meters":23600,"station_id":"ce4bhg12rcd13ifvqf60","pricing_plan_id":"free"},{"bike_id":"e33e68a4-6943-4536-9417-dabe38fe3c20","system_id":"levelo_inurba_marseille","lat":43.243884,"lon":5.370737,"is_reserved":false,"is_disabled":false,"rental_uris":{"android":"levelo://app?vid=e33e68a4-6943-4536-9417-dabe38fe3c20","ios":"levelo://app?vid=e33e68a4-6943-4536-9417-dabe38fe3c20"},"vehicle_type_id":"4","last_reported":1700953582,"current_range_meters":18400,"station_id":"ce4bhhh2rcd13ifvqfk0","pricing_plan_id":"free"},{"bike_id":"7639a052-d686-4e15-99fe-f110b2f19460","system_id":"levelo_inurba_marseille","lat":43.243884,"lon":5.370736,"is_reserved":false,"is_disabled":false,"rental_uris":{"android":"levelo://app?vid=7639a052-d686-4e15-99fe-f110b2f19460","ios":"levelo://app?vid=7639a052-d686-4e15-99fe-f110b2f19460"},"vehicle_type_id":"4","last_reported":1700953582,"current_range_meters":27200,"station_id":"ce4bhhh2rcd13ifvqfk0","pricing_plan_id":"free"},{"bike_id":"85dbef60-0cf4-48b9-af3c-b3d1da2efaf5","system_id":"levelo_inurba_marseille","lat":43.243884,"lon":5.370736,"is_reserved":false,"is_disabled":false,"rental_uris":{"android":"levelo://app?vid=85dbef60-0cf4-48b9-af3c-b3d1da2efaf5","ios":"levelo://app?vid=85dbef60-0cf4-48b9-af3c-b3d1da2efaf5"},"vehicle_type_id":"4","last_reported":1700953582,"current_range_meters":25200,"station_id":"ce4bhhh2rcd13ifvqfk0","pricing_plan_id":"free"},{"bike_id":"853e46e5-f95f-40e2-8766-1c0baa0b7899","system_id":"levelo_inurba_marseille","lat":43.245581,"lon":5.395069,"is_reserved":false,"is_disabled":false,"rental_uris":{"android":"levelo://app?vid=853e46e5-f95f-40e2-8766-1c0baa0b7899","ios":"levelo://app?vid=853e46e5-f95f-40e2-8766-1c0baa0b7899"},"vehicle_type_id":"4","last_reported":1700953582,"current_range_meters":0,"station_id":"ce4bhlp2rcd13ifvqgjg","pricing_plan_id":"free"},{"bike_id":"0265b60e-d829-4d27-8cee-8f8a0b69f409","system_id":"levelo_inurba_marseille","lat":43.24074,"lon":5.37745,"is_reserved":false,"is_disabled":false,"rental_uris":{"android":"levelo://app?vid=0265b60e-d829-4d27-8cee-8f8a0b69f409","ios":"levelo://app?vid=0265b60e-d829-4d27-8cee-8f8a0b69f409"},"vehicle_type_id":"4","last_reported":1700953582,"current_range_meters":0,"station_id":"ce4bhnp2rcd13ifvqgvg","pricing_plan_id":"free"},{"bike_id":"1e128d17-e64b-4270-9579-8a427e522e51","system_id":"levelo_inurba_marseille","lat":43.240623,"lon":5.377642,"is_reserved":false,"is_disabled":false,"rental_uris":{"android":"levelo://app?vid=1e128d17-e64b-4270-9579-8a427e522e51","ios":"levelo://app?vid=1e128d17-e64b-4270-9579-8a427e522e51"},"vehicle_type_id":"4","last_reported":1700953582,"current_range_meters":16800,"station_id":"ce4bhnp2rcd13ifvqgvg","pricing_plan_id":"free"},{"bike_id":"b1065339-1ece-4fd7-a651-bb5f8f2e4643","system_id":"levelo_inurba_marseille","lat":43.240623,"lon":5.377642,"is_reserved":false,"is_disabled":false,"rental_uris":{"android":"levelo://app?vid=b1065339-1ece-4fd7-a651-bb5f8f2e4643","ios":"levelo://app?vid=b1065339-1ece-4fd7-a651-bb5f8f2e4643"},"vehicle_type_id":"4","last_reported":1700953582,"current_range_meters":29200,"station_id":"ce4bhnp2rcd13ifvqgvg","pricing_plan_id":"free"},{"bike_id":"ff01dbe1-223f-43a9-b0c6-51a5a8d2ed05","system_id":"levelo_inurba_marseille","lat":43.239588,"lon":5.366238,"is_reserved":false,"is_disabled":false,"rental_uris":{"android":"levelo://app?vid=ff01dbe1-223f-43a9-b0c6-51a5a8d2ed05","ios":"levelo://app?vid=ff01dbe1-223f-43a9-b0c6-51a5a8d2ed05"},"vehicle_type_id":"4","last_reported":1700953582,"current_range_meters":31200,"station_id":"ce4bhi12rcd13ifvqfp0","pricing_plan_id":"free"},{"bike_id":"8ddc8e40-82e4-4cc6-90af-c119357648f0","system_id":"levelo_inurba_marseille","lat":43.239588,"lon":5.366238,"is_reserved":false,"is_disabled":false,"rental_uris":{"android":"levelo://app?vid=8ddc8e40-82e4-4cc6-90af-c119357648f0","ios":"levelo://app?vid=8ddc8e40-82e4-4cc6-90af-c119357648f0"},"vehicle_type_id":"4","last_reported":1700953582,"current_range_meters":24000,"station_id":"ce4bhi12rcd13ifvqfp0","pricing_plan_id":"free"},{"bike_id":"608034b1-7344-47da-8318-151765187169","system_id":"levelo_inurba_marseille","lat":43.239588,"lon":5.366238,"is_reserved":false,"is_disabled":false,"rental_uris":{"android":"levelo://app?vid=608034b1-7344-47da-8318-151765187169","ios":"levelo://app?vid=608034b1-7344-47da-8318-151765187169"},"vehicle_type_id":"4","last_reported":1700953582,"current_range_meters":7600,"station_id":"ce4bhi12rcd13ifvqfp0","pricing_plan_id":"free"},{"bike_id":"3c551cb7-0b99-44ed-8b4c-bab8e2e15823","system_id":"levelo_inurba_marseille","lat":43.239588,"lon":5.366238,"is_reserved":false,"is_disabled":false,"rental_uris":{"android":"levelo://app?vid=3c551cb7-0b99-44ed-8b4c-bab8e2e15823","ios":"levelo://app?vid=3c551cb7-0b99-44ed-8b4c-bab8e2e15823"},"vehicle_type_id":"4","last_reported":1700953582,"current_range_meters":24400,"station_id":"ce4bhi12rcd13ifvqfp0","pricing_plan_id":"free"},{"bike_id":"a0e1f1d6-3f92-4eff-927c-9ca415b7ca93","system_id":"levelo_inurba_marseille","lat":43.239644,"lon":5.366337,"is_reserved":false,"is_disabled":false,"rental_uris":{"android":"levelo://app?vid=a0e1f1d6-3f92-4eff-927c-9ca415b7ca93","ios":"levelo://app?vid=a0e1f1d6-3f92-4eff-927c-9ca415b7ca93"},"vehicle_type_id":"4","last_reported":1700953582,"current_range_meters":4400,"station_id":"ce4bhi12rcd13ifvqfp0","pricing_plan_id":"free"},{"bike_id":"05291694-2672-4b1e-9b26-7f92e1594559","system_id":"levelo_inurba_marseille","lat":43.239588,"lon":5.366238,"is_reserved":false,"is_disabled":false,"rental_uris":{"android":"levelo://app?vid=05291694-2672-4b1e-9b26-7f92e1594559","ios":"levelo://app?vid=05291694-2672-4b1e-9b26-7f92e1594559"},"vehicle_type_id":"4","last_reported":1700953582,"current_range_meters":24800,"station_id":"ce4bhi12rcd13ifvqfp0","pricing_plan_id":"free"},{"bike_id":"a59a9f52-9d06-4b12-9392-cdd5f569c2ca","system_id":"levelo_inurba_marseille","lat":43.23962,"lon":5.36629,"is_reserved":false,"is_disabled":false,"rental_uris":{"android":"levelo://app?vid=a59a9f52-9d06-4b12-9392-cdd5f569c2ca","ios":"levelo://app?vid=a59a9f52-9d06-4b12-9392-cdd5f569c2ca"},"vehicle_type_id":"4","last_reported":1700953582,"current_range_meters":29200,"station_id":"ce4bhi12rcd13ifvqfp0","pricing_plan_id":"free"},{"bike_id":"340ba89e-beb6-4edd-9f37-a6ad2b2c6a9c","system_id":"levelo_inurba_marseille","lat":43.239588,"lon":5.366238,"is_reserved":false,"is_disabled":false,"rental_uris":{"android":"levelo://app?vid=340ba89e-beb6-4edd-9f37-a6ad2b2c6a9c","ios":"levelo://app?vid=340ba89e-beb6-4edd-9f37-a6ad2b2c6a9c"},"vehicle_type_id":"4","last_reported":1700953582,"current_range_meters":12800,"station_id":"ce4bhi12rcd13ifvqfp0","pricing_plan_id":"free"},{"bike_id":"47e43998-06a7-44f6-a336-05874a757f9d","system_id":"levelo_inurba_marseille","lat":43.239588,"lon":5.366238,"is_reserved":false,"is_disabled":false,"rental_uris":{"android":"levelo://app?vid=47e43998-06a7-44f6-a336-05874a757f9d","ios":"levelo://app?vid=47e43998-06a7-44f6-a336-05874a757f9d"},"vehicle_type_id":"4","last_reported":1700953582,"current_range_meters":14800,"station_id":"ce4bhi12rcd13ifvqfp0","pricing_plan_id":"free"},{"bike_id":"2928aec4-a092-4b20-8697-2fcf599c9821","system_id":"levelo_inurba_marseille","lat":43.239588,"lon":5.366238,"is_reserved":false,"is_disabled":false,"rental_uris":{"android":"levelo://app?vid=2928aec4-a092-4b20-8697-2fcf599c9821","ios":"levelo://app?vid=2928aec4-a092-4b20-8697-2fcf599c9821"},"vehicle_type_id":"4","last_reported":1700953582,"current_range_meters":24400,"station_id":"ce4bhi12rcd13ifvqfp0","pricing_plan_id":"free"},{"bike_id":"c8b0fc92-e06b-450c-b7d7-d6ab9ca59443","system_id":"levelo_inurba_marseille","lat":43.239607,"lon":5.366304,"is_reserved":false,"is_disabled":false,"rental_uris":{"android":"levelo://app?vid=c8b0fc92-e06b-450c-b7d7-d6ab9ca59443","ios":"levelo://app?vid=c8b0fc92-e06b-450c-b7d7-d6ab9ca59443"},"vehicle_type_id":"4","last_reported":1700953582,"current_range_meters":31200,"station_id":"ce4bhi12rcd13ifvqfp0","pricing_plan_id":"free"},{"bike_id":"b3ffab4a-cf52-4b4f-9f0f-fcb873d0f038","system_id":"levelo_inurba_marseille","lat":43.239605,"lon":5.366304,"is_reserved":false,"is_disabled":false,"rental_uris":{"android":"levelo://app?vid=b3ffab4a-cf52-4b4f-9f0f-fcb873d0f038","ios":"levelo://app?vid=b3ffab4a-cf52-4b4f-9f0f-fcb873d0f038"},"vehicle_type_id":"4","last_reported":1700953582,"current_range_meters":29200,"station_id":"ce4bhi12rcd13ifvqfp0","pricing_plan_id":"free"},{"bike_id":"fc6ccc5a-bc4d-4544-a669-27960c9fde66","system_id":"levelo_inurba_marseille","lat":43.239588,"lon":5.366238,"is_reserved":false,"is_disabled":false,"rental_uris":{"android":"levelo://app?vid=fc6ccc5a-bc4d-4544-a669-27960c9fde66","ios":"levelo://app?vid=fc6ccc5a-bc4d-4544-a669-27960c9fde66"},"vehicle_type_id":"4","last_reported":1700953582,"current_range_meters":18000,"station_id":"ce4bhi12rcd13ifvqfp0","pricing_plan_id":"free"},{"bike_id":"fb7be5a0-e980-436b-ac60-879a3e279215","system_id":"levelo_inurba_marseille","lat":43.239558,"lon":5.366351,"is_reserved":false,"is_disabled":false,"rental_uris":{"android":"levelo://app?vid=fb7be5a0-e980-436b-ac60-879a3e279215","ios":"levelo://app?vid=fb7be5a0-e980-436b-ac60-879a3e279215"},"vehicle_type_id":"4","last_reported":1700953582,"current_range_meters":22400,"station_id":"ce4bhi12rcd13ifvqfp0","pricing_plan_id":"free"},{"bike_id":"dcc8f0d2-659c-44cb-9a1d-9d57ae623781","system_id":"levelo_inurba_marseille","lat":43.23194,"lon":5.35561,"is_reserved":false,"is_disabled":false,"rental_uris":{"android":"levelo://app?vid=dcc8f0d2-659c-44cb-9a1d-9d57ae623781","ios":"levelo://app?vid=dcc8f0d2-659c-44cb-9a1d-9d57ae623781"},