{"last_updated":1731604113,"ttl":60,"version":"2.2","data":{"bikes":[{"bike_id":"5e1986fa-6d8f-4f43-a9cb-f2e7d1ee812e","system_id":"levelo_inurba_marseille","lat":43.29942,"lon":5.36567,"is_reserved":false,"is_disabled":false,"rental_uris":{"android":"levelo://app?vid=5e1986fa-6d8f-4f43-a9cb-f2e7d1ee812e","ios":"levelo://app?vid=5e1986fa-6d8f-4f43-a9cb-f2e7d1ee812e"},"vehicle_type_id":"4","last_reported":1731604113,"current_range_meters":18800,"station_id":"ce4bgm92rcd13ifvqbr0","pricing_plan_id":"cebpf4jnsgd1na2vs0mg"},{"bike_id":"4647bf50-c437-4b79-8ade-8cae2e7ba49a","system_id":"levelo_inurba_marseille","lat":43.27419,"lon":5.39413,"is_reserved":false,"is_disabled":false,"rental_uris":{"android":"levelo://app?vid=4647bf50-c437-4b79-8ade-8cae2e7ba49a","ios":"levelo://app?vid=4647bf50-c437-4b79-8ade-8cae2e7ba49a"},"vehicle_type_id":"4","last_reported":1731604113,"current_range_meters":36000,"station_id":"ce4bhdp2rcd13ifvqf20","pricing_plan_id":"cebpf4jnsgd1na2vs0mg"},{"bike_id":"1d936b62-1bb8-40f6-afdf-7dac3ed8caa9","system_id":"levelo_inurba_marseille","lat":43.28453,"lon":5.35902,"is_reserved":false,"is_disabled":false,"rental_uris":{"android":"levelo://app?vid=1d936b62-1bb8-40f6-afdf-7dac3ed8caa9","ios":"levelo://app?vid=1d936b62-1bb8-40f6-afdf-7dac3ed8caa9"},"vehicle_type_id":"4","last_reported":1731604113,"current_range_meters":18800,"station_id":"ce4bhah2rcd13ifvqei0","pricing_plan_id":"cebpf4jnsgd1na2vs0mg"},{"bike_id":"37cd448e-375e-46c8-a390-d3adef97c823","system_id":"levelo_inurba_marseille","lat":43.28447,"lon":5.39208,"is_reserved":false,"is_disabled":false,"rental_uris":{"android":"levelo://app?vid=37cd448e-375e-46c8-a390-d3adef97c823","ios":"levelo://app?vid=37cd448e-375e-46c8-a390-d3adef97c823"},"vehicle_type_id":"4","last_reported":1731604113,"current_range_meters":36000,"station_id":"ce4bhoh2rcd13ifvqh5g","pricing_plan_id":"cebpf4jnsgd1na2vs0mg"},{"bike_id":"92ebe2d3-435c-4789-93a5-14daa9fa8b08","system_id":"levelo_inurba_marseille","lat":43.29264,"lon":5.40912,"is_reserved":false,"is_disabled":false,"rental_uris":{"android":"levelo://app?vid=92ebe2d3-435c-4789-93a5-14daa9fa8b08","ios":"levelo://app?vid=92ebe2d3-435c-4789-93a5-14daa9fa8b08"},"vehicle_type_id":"4","last_reported":1731604113,"current_range_meters":34800,"station_id":"ce4bh192rcd13ifvqdc0","pricing_plan_id":"cebpf4jnsgd1na2vs0mg"},{"bike_id":"95a4ff00-2bfb-4549-9861-78243e44e1fe","system_id":"levelo_inurba_marseille","lat":43.29786,"lon":5.38113,"is_reserved":false,"is_disabled":false,"rental_uris":{"android":"levelo://app?vid=95a4ff00-2bfb-4549-9861-78243e44e1fe","ios":"levelo://app?vid=95a4ff00-2bfb-4549-9861-78243e44e1fe"},"vehicle_type_id":"4","last_reported":1731604113,"current_range_meters":38800,"station_id":"ce4bgip2rcd13ifvqbb0","pricing_plan_id":"cebpf4jnsgd1na2vs0mg"},{"bike_id":"98ad1573-5e82-47a0-bdcc-426d9b00f58c","system_id":"levelo_inurba_marseille","lat":43.2866,"lon":5.36367,"is_reserved":false,"is_disabled":false,"rental_uris":{"android":"levelo://app?vid=98ad1573-5e82-47a0-bdcc-426d9b00f58c","ios":"levelo://app?vid=98ad1573-5e82-47a0-bdcc-426d9b00f58c"},"vehicle_type_id":"4","last_reported":1731604113,"current_range_meters":11200,"station_id":"ce4bhah2rcd13ifvqej0","pricing_plan_id":"cebpf4jnsgd1na2vs0mg"},{"bike_id":"6fca15b5-6541-42ee-9401-f793ce2f44a5","system_id":"levelo_inurba_marseille","lat":43.33024,"lon":5.39046,"is_reserved":false,"is_disabled":false,"rental_uris":{"android":"levelo://app?vid=6fca15b5-6541-42ee-9401-f793ce2f44a5","ios":"levelo://app?vid=6fca15b5-6541-42ee-9401-f793ce2f44a5"},"vehicle_type_id":"4","last_reported":1731604113,"current_range_meters":30400,"station_id":"ce4bhr92rcd13ifvqhrg","pricing_plan_id":"cebpf4jnsgd1na2vs0mg"},{"bike_id":"87c53cb9-72b3-4c11-8146-fab6f7f7afed","system_id":"levelo_inurba_marseille","lat":43.28282,"lon":5.35073,"is_reserved":false,"is_disabled":false,"rental_uris":{"android":"levelo://app?vid=87c53cb9-72b3-4c11-8146-fab6f7f7afed","ios":"levelo://app?vid=87c53cb9-72b3-4c11-8146-fab6f7f7afed"},"vehicle_type_id":"4","last_reported":1731604113,"current_range_meters":14000,"station_id":"ce4bhbp2rcd13ifvqerg","pricing_plan_id":"cebpf4jnsgd1na2vs0mg"},{"bike_id":"9ef76943-592f-4d3b-a0f1-da70d440e9b4","system_id":"levelo_inurba_marseille","lat":43.299,"lon":5.43681,"is_reserved":false,"is_disabled":false,"rental_uris":{"android":"levelo://app?vid=9ef76943-592f-4d3b-a0f1-da70d440e9b4","ios":"levelo://app?vid=9ef76943-592f-4d3b-a0f1-da70d440e9b4"},"vehicle_type_id":"4","last_reported":1731604113,"current_range_meters":25600,"station_id":"ce4bhpp2rcd13ifvqhfg","pricing_plan_id":"cebpf4jnsgd1na2vs0mg"},{"bike_id":"a98b48b1-7bed-445e-a5c4-5d99ffb34182","system_id":"levelo_inurba_marseille","lat":43.26927,"lon":5.38916,"is_reserved":false,"is_disabled":false,"rental_uris":{"android":"levelo://app?vid=a98b48b1-7bed-445e-a5c4-5d99ffb34182","ios":"levelo://app?vid=a98b48b1-7bed-445e-a5c4-5d99ffb34182"},"vehicle_type_id":"4","last_reported":1731604113,"current_range_meters":3200,"station_id":"ce4bhhh2rcd13ifvqfl0","pricing_plan_id":"cebpf4jnsgd1na2vs0mg"},{"bike_id":"7f9f52e2-a593-476f-9e8a-1376282e524a","system_id":"levelo_inurba_marseille","lat":43.31885,"lon":5.4076,"is_reserved":false,"is_disabled":false,"rental_uris":{"android":"levelo://app?vid=7f9f52e2-a593-476f-9e8a-1376282e524a","ios":"levelo://app?vid=7f9f52e2-a593-476f-9e8a-1376282e524a"},"vehicle_type_id":"4","last_reported":1731604113,"current_range_meters":32400,"station_id":"ce4bhq12rcd13ifvqhig","pricing_plan_id":"cebpf4jnsgd1na2vs0mg"},{"bike_id":"5dbbd3b5-aa89-4ed7-aa5e-3e191244bd79","system_id":"levelo_inurba_marseille","lat":43.32051,"lon":5.41548,"is_reserved":false,"is_disabled":false,"rental_uris":{"android":"levelo://app?vid=5dbbd3b5-aa89-4ed7-aa5e-3e191244bd79","ios":"levelo://app?vid=5dbbd3b5-aa89-4ed7-aa5e-3e191244bd79"},"vehicle_type_id":"4","last_reported":1731604113,"current_range_meters":3600,"station_id":"ce4bhq92rcd13ifvqhkg","pricing_plan_id":"cebpf4jnsgd1na2vs0mg"},{"bike_id":"948fa6c3-ebd6-4e10-9d7e-0bd5f3c36308","system_id":"levelo_inurba_marseille","lat":43.29259,"lon":5.40918,"is_reserved":false,"is_disabled":false,"rental_uris":{"android":"levelo://app?vid=948fa6c3-ebd6-4e10-9d7e-0bd5f3c36308","ios":"levelo://app?vid=948fa6c3-ebd6-4e10-9d7e-0bd5f3c36308"},"vehicle_type_id":"4","last_reported":1731604113,"current_range_meters":16000,"station_id":"ce4bh192rcd13ifvqdc0","pricing_plan_id":"cebpf4jnsgd1na2vs0mg"},{"bike_id":"354f040a-9ab6-488a-9d26-4c39ec3baaa7","system_id":"levelo_inurba_marseille","lat":43.23196,"lon":5.35556,"is_reserved":false,"is_disabled":false,"rental_uris":{"android":"levelo://app?vid=354f040a-9ab6-488a-9d26-4c39ec3baaa7","ios":"levelo://app?vid=354f040a-9ab6-488a-9d26-4c39ec3baaa7"},"vehicle_type_id":"4","last_reported":1731604113,"current_range_meters":38000,"station_id":"ce4bhu92rcd13ifvqi70","pricing_plan_id":"cebpf4jnsgd1na2vs0mg"},{"bike_id":"77272bf5-9024-44da-9b9c-11d93850e492","system_id":"levelo_inurba_marseille","lat":43.27176,"lon":5.40997,"is_reserved":false,"is_disabled":false,"rental_uris":{"android":"levelo://app?vid=77272bf5-9024-44da-9b9c-11d93850e492","ios":"levelo://app?vid=77272bf5-9024-44da-9b9c-11d93850e492"},"vehicle_type_id":"4","last_reported":1731604113,"current_range_meters":20400,"station_id":"ce4bhl12rcd13ifvqgf0","pricing_plan_id":"cebpf4jnsgd1na2vs0mg"},{"bike_id":"bbea2c35-ac2e-4275-8fc1-24a10892bc02","system_id":"levelo_inurba_marseille","lat":43.28083,"lon":5.39661,"is_reserved":false,"is_disabled":false,"rental_uris":{"android":"levelo://app?vid=bbea2c35-ac2e-4275-8fc1-24a10892bc02","ios":"levelo://app?vid=bbea2c35-ac2e-4275-8fc1-24a10892bc02"},"vehicle_type_id":"4","last_reported":1731604113,"current_range_meters":37600,"station_id":"ce4bho12rcd13ifvqh2g","pricing_plan_id":"cebpf4jnsgd1na2vs0mg"},{"bike_id":"da28c4a9-a606-4c4c-8141-7bace7d63e59","system_id":"levelo_inurba_marseille","lat":43.29518,"lon":5.39045,"is_reserved":false,"is_disabled":false,"rental_uris":{"android":"levelo://app?vid=da28c4a9-a606-4c4c-8141-7bace7d63e59","ios":"levelo://app?vid=da28c4a9-a606-4c4c-8141-7bace7d63e59"},"vehicle_type_id":"4","last_reported":1731604113,"current_range_meters":24800,"station_id":"ce4bh3p2rcd13ifvqdp0","pricing_plan_id":"cebpf4jnsgd1na2vs0mg"},{"bike_id":"4a74f469-1d99-48ee-a8ca-9199898c00a4","system_id":"levelo_inurba_marseille","lat":43.23199,"lon":5.35547,"is_reserved":false,"is_disabled":false,"rental_uris":{"android":"levelo://app?vid=4a74f469-1d99-48ee-a8ca-9199898c00a4","ios":"levelo://app?vid=4a74f469-1d99-48ee-a8ca-9199898c00a4"},"vehicle_type_id":"4","last_reported":1731604113,"current_range_meters":20000,"station_id":"ce4bhu92rcd13ifvqi70","pricing_plan_id":"cebpf4jnsgd1na2vs0mg"},{"bike_id":"97a876f0-1929-4677-8f8b-49710185c52c","system_id":"levelo_inurba_marseille","lat":43.29448,"lon":5.39736,"is_reserved":false,"is_disabled":false,"rental_uris":{"android":"levelo://app?vid=97a876f0-1929-4677-8f8b-49710185c52c","ios":"levelo://app?vid=97a876f0-1929-4677-8f8b-49710185c52c"},"vehicle_type_id":"4","last_reported":1731604113,"current_range_meters":7200,"station_id":"ce4bh3h2rcd13ifvqdo0","pricing_plan_id":"cebpf4jnsgd1na2vs0mg"},{"bike_id":"8bc00878-2923-4e30-b51b-96e28d048e5f","system_id":"levelo_inurba_marseille","lat":43.2583,"lon":5.39438,"is_reserved":false,"is_disabled":false,"rental_uris":{"android":"levelo://app?vid=8bc00878-2923-4e30-b51b-96e28d048e5f","ios":"levelo://app?vid=8bc00878-2923-4e30-b51b-96e28d048e5f"},"vehicle_type_id":"4","last_reported":1731604113,"current_range_meters":21600,"station_id":"ce4bhip2rcd13ifvqft0","pricing_plan_id":"cebpf4jnsgd1na2vs0mg"},{"bike_id":"5a9487f5-1f4a-4526-91df-278697abb58b","system_id":"levelo_inurba_marseille","lat":43.28155,"lon":5.4264,"is_reserved":false,"is_disabled":false,"rental_uris":{"android":"levelo://app?vid=5a9487f5-1f4a-4526-91df-278697abb58b","ios":"levelo://app?vid=5a9487f5-1f4a-4526-91df-278697abb58b"},"vehicle_type_id":"4","last_reported":1731604113,"current_range_meters":24800,"station_id":"ce4bhnh2rcd13ifvqgug","pricing_plan_id":"cebpf4jnsgd1na2vs0mg"},{"bike_id":"da00dc76-26b6-4f00-81cf-923c91c64caf","system_id":"levelo_inurba_marseille","lat":43.2979,"lon":5.39339,"is_reserved":false,"is_disabled":false,"rental_uris":{"android":"levelo://app?vid=da00dc76-26b6-4f00-81cf-923c91c64caf","ios":"levelo://app?vid=da00dc76-26b6-4f00-81cf-923c91c64caf"},"vehicle_type_id":"4","last_reported":1731604113,"current_range_meters":8000,"station_id":"chh1huq6cuj3fo74tm60","pricing_plan_id":"cebpf4jnsgd1na2vs0mg"},{"bike_id":"47c967a5-3c8a-4d73-a522-90111361a0a0","system_id":"levelo_inurba_marseille","lat":43.32485,"lon":5.36582,"is_reserved":false,"is_disabled":false,"rental_uris":{"android":"levelo://app?vid=47c967a5-3c8a-4d73-a522-90111361a0a0","ios":"levelo://app?vid=47c967a5-3c8a-4d73-a522-90111361a0a0"},"vehicle_type_id":"4","last_reported":1731604113,"current_range_meters":38800,"station_id":"ce4bhs12rcd13ifvqhvg","pricing_plan_id":"cebpf4jnsgd1na2vs0mg"},{"bike_id":"b401526e-9797-412b-a024-2aeff2654ce6","system_id":"levelo_inurba_marseille","lat":43.27938,"lon":5.3551,"is_reserved":false,"is_disabled":false,"rental_uris":{"android":"levelo://app?vid=b401526e-9797-412b-a024-2aeff2654ce6","ios":"levelo://app?vid=b401526e-9797-412b-a024-2aeff2654ce6"},"vehicle_type_id":"4","last_reported":1731604113,"current_range_meters":4000,"station_id":"","pricing_plan_id":"cebpf4jnsgd1na2vs0mg"},{"bike_id":"3823ffeb-3e27-422f-8f69-0b19a423b83d","system_id":"levelo_inurba_marseille","lat":43.2886,"lon":5.35854,"is_reserved":false,"is_disabled":false,"rental_uris":{"android":"levelo://app?vid=3823ffeb-3e27-422f-8f69-0b19a423b83d","ios":"levelo://app?vid=3823ffeb-3e27-422f-8f69-0b19a423b83d"},"vehicle_type_id":"4","last_reported":1731604113,"current_range_meters":18800,"station_id":"ce4bhb12rcd13ifvqem0","pricing_plan_id":"cebpf4jnsgd1na2vs0mg"},{"bike_id":"d7a0fb7f-dfd3-405c-a676-05a4d30cde52","system_id":"levelo_inurba_marseille","lat":43.28118,"lon":5.39591,"is_reserved":false,"is_disabled":false,"rental_uris":{"android":"levelo://app?vid=d7a0fb7f-dfd3-405c-a676-05a4d30cde52","ios":"levelo://app?vid=d7a0fb7f-dfd3-405c-a676-05a4d30cde52"},"vehicle_type_id":"4","last_reported":1731604113,"current_range_meters":38800,"station_id":"ce4bhoh2rcd13ifvqh5g","pricing_plan_id":"cebpf4jnsgd1na2vs0mg"},{"bike_id":"81117fe0-1e47-4966-a7e0-0145c8ef9c98","system_id":"levelo_inurba_marseille","lat":43.25864,"lon":5.39903,"is_reserved":false,"is_disabled":false,"rental_uris":{"android":"levelo://app?vid=81117fe0-1e47-4966-a7e0-0145c8ef9c98","ios":"levelo://app?vid=81117fe0-1e47-4966-a7e0-0145c8ef9c98"},"vehicle_type_id":"4","last_reported":1731604113,"current_range_meters":4800,"station_id":"ce4bhl92rcd13ifvqghg","pricing_plan_id":"cebpf4jnsgd1na2vs0mg"},{"bike_id":"1cd6853f-ffdd-4358-bc58-45b6b9d8d7be","system_id":"levelo_inurba_marseille","lat":43.28851,"lon":5.35853,"is_reserved":false,"is_disabled":false,"rental_uris":{"android":"levelo://app?vid=1cd6853f-ffdd-4358-bc58-45b6b9d8d7be","ios":"levelo://app?vid=1cd6853f-ffdd-4358-bc58-45b6b9d8d7be"},"vehicle_type_id":"4","last_reported":1731604113,"current_range_meters":38800,"station_id":"ce4bhb12rcd13ifvqem0","pricing_plan_id":"cebpf4jnsgd1na2vs0mg"},{"bike_id":"c3def2ab-6a76-419f-ae87-53879b91ceb1","system_id":"levelo_inurba_marseille","lat":43.293091,"lon":5.37013,"is_reserved":false,"is_disabled":false,"rental_uris":{"android":"levelo://app?vid=c3def2ab-6a76-419f-ae87-53879b91ceb1","ios":"levelo://app?vid=c3def2ab-6a76-419f-ae87-53879b91ceb1"},"vehicle_type_id":"4","last_reported":1731604113,"current_range_meters":4800,"station_id":"ce4bh412rcd13ifvqdr0","pricing_plan_id":"cebpf4jnsgd1na2vs0mg"},{"bike_id":"785a4434-c998-4c07-9e49-6240ac8eab46","system_id":"levelo_inurba_marseille","lat":43.33023,"lon":5.39053,"is_reserved":false,"is_disabled":false,"rental_uris":{"android":"levelo://app?vid=785a4434-c998-4c07-9e49-6240ac8eab46","ios":"levelo://app?vid=785a4434-c998-4c07-9e49-6240ac8eab46"},"vehicle_type_id":"4","last_reported":1731604113,"current_range_meters":39200,"station_id":"ce4bhr92rcd13ifvqhrg","pricing_plan_id":"cebpf4jnsgd1na2vs0mg"},{"bike_id":"c5b82926-f28c-4840-9736-fb89301158ab","system_id":"levelo_inurba_marseille","lat":43.28003,"lon":5.40022,"is_reserved":false,"is_disabled":false,"rental_uris":{"android":"levelo://app?vid=c5b82926-f28c-4840-9736-fb89301158ab","ios":"levelo://app?vid=c5b82926-f28c-4840-9736-fb89301158ab"},"vehicle_type_id":"4","last_reported":1731604113,"current_range_meters":8000,"station_id":"ce4bho92rcd13ifvqh4g","pricing_plan_id":"cebpf4jnsgd1na2vs0mg"},{"bike_id":"8f03fa04-f314-45d0-be25-de3ff4327d9c","system_id":"levelo_inurba_marseille","lat":43.29007,"lon":5.35615,"is_reserved":false,"is_disabled":false,"rental_uris":{"android":"levelo://app?vid=8f03fa04-f314-45d0-be25-de3ff4327d9c","ios":"levelo://app?vid=8f03fa04-f314-45d0-be25-de3ff4327d9c"},"vehicle_type_id":"4","last_reported":1731604113,"current_range_meters":34800,"station_id":"ce4bhb92rcd13ifvqen0","pricing_plan_id":"cebpf4jnsgd1na2vs0mg"},{"bike_id":"4c805f40-1c7b-41b3-9a69-02e80b51fa55","system_id":"levelo_inurba_marseille","lat":43.28663,"lon":5.38666,"is_reserved":false,"is_disabled":false,"rental_uris":{"android":"levelo://app?vid=4c805f40-1c7b-41b3-9a69-02e80b51fa55","ios":"levelo://app?vid=4c805f40-1c7b-41b3-9a69-02e80b51fa55"},"vehicle_type_id":"4","last_reported":1731604113,"current_range_meters":33200,"station_id":"ce4bh492rcd13ifvqdug","pricing_plan_id":"cebpf4jnsgd1na2vs0mg"},{"bike_id":"9d97c975-33c5-4724-80ae-b1876cbaac7f","system_id":"levelo_inurba_marseille","lat":43.27944,"lon":5.41048,"is_reserved":false,"is_disabled":false,"rental_uris":{"android":"levelo://app?vid=9d97c975-33c5-4724-80ae-b1876cbaac7f","ios":"levelo://app?vid=9d97c975-33c5-4724-80ae-b1876cbaac7f"},"vehicle_type_id":"4","last_reported":1731604113,"current_range_meters":14800,"station_id":"ce4bhnp2rcd13ifvqh0g","pricing_plan_id":"cebpf4jnsgd1na2vs0mg"},{"bike_id":"ca384f1e-64e3-41d5-a327-8ee311060d76","system_id":"levelo_inurba_marseille","lat":43.30132,"lon":5.39873,"is_reserved":false,"is_disabled":false,"rental_uris":{"android":"levelo://app?vid=ca384f1e-64e3-41d5-a327-8ee311060d76","ios":"levelo://app?vid=ca384f1e-64e3-41d5-a327-8ee311060d76"},"vehicle_type_id":"4","last_reported":1731604113,"current_range_meters":16800,"station_id":"ce4bh0h2rcd13ifvqd40","pricing_plan_id":"cebpf4jnsgd1na2vs0mg"},{"bike_id":"11337481-27f1-433f-a28c-1a0fe300f2fd","system_id":"levelo_inurba_marseille","lat":43.289321,"lon":5.396276,"is_reserved":false,"is_disabled":false,"rental_uris":{"android":"levelo://app?vid=11337481-27f1-433f-a28c-1a0fe300f2fd","ios":"levelo://app?vid=11337481-27f1-433f-a28c-1a0fe300f2fd"},"vehicle_type_id":"4","last_reported":1731604113,"current_range_meters":5600,"station_id":"ce4bgup2rcd13ifvqco0","pricing_plan_id":"cebpf4jnsgd1na2vs0mg"},{"bike_id":"fdd63992-5632-49b0-b647-12875b4f7d9d","system_id":"levelo_inurba_marseille","lat":43.29191,"lon":5.35812,"is_reserved":false,"is_disabled":false,"rental_uris":{"android":"levelo://app?vid=fdd63992-5632-49b0-b647-12875b4f7d9d","ios":"levelo://app?vid=fdd63992-5632-49b0-b647-12875b4f7d9d"},"vehicle_type_id":"4","last_reported":1731604113,"current_range_meters":12400,"station_id":"ce4bhb12rcd13ifvqel0","pricing_plan_id":"cebpf4jnsgd1na2vs0mg"},{"bike_id":"0ff8d45a-6a2b-4814-b64f-699eb70a26d8","system_id":"levelo_inurba_marseille","lat":43.271738,"lon":5.409954,"is_reserved":false,"is_disabled":false,"rental_uris":{"android":"levelo://app?vid=0ff8d45a-6a2b-4814-b64f-699eb70a26d8","ios":"levelo://app?vid=0ff8d45a-6a2b-4814-b64f-699eb70a26d8"},"vehicle_type_id":"4","last_reported":1731604113,"current_range_meters":39200,"station_id":"ce4bhl12rcd13ifvqgf0","pricing_plan_id":"cebpf4jnsgd1na2vs0mg"},{"bike_id":"7006e856-2ce9-4055-a812-5cb80a2d0764","system_id":"levelo_inurba_marseille","lat":43.28617,"lon":5.35113,"is_reserved":false,"is_disabled":false,"rental_uris":{"android":"levelo://app?vid=7006e856-2ce9-4055-a812-5cb80a2d0764","ios":"levelo://app?vid=7006e856-2ce9-4055-a812-5cb80a2d0764"},"vehicle_type_id":"4","last_reported":1731604113,"current_range_meters":20400,"station_id":"ce4bhch2rcd13ifvqeug","pricing_plan_id":"cebpf4jnsgd1na2vs0mg"},{"bike_id":"5ed54757-0926-4af4-9aeb-ed7d287fd47f","system_id":"levelo_inurba_marseille","lat":43.31715,"lon":5.43708,"is_reserved":false,"is_disabled":false,"rental_uris":{"android":"levelo://app?vid=5ed54757-0926-4af4-9aeb-ed7d287fd47f","ios":"levelo://app?vid=5ed54757-0926-4af4-9aeb-ed7d287fd47f"},"vehicle_type_id":"4","last_reported":1731604113,"current_range_meters":4400,"station_id":"ce4bhp92rcd13ifvqhcg","pricing_plan_id":"cebpf4jnsgd1na2vs0mg"},{"bike_id":"a13c09a1-88e1-428c-9ee4-29189b138d57","system_id":"levelo_inurba_marseille","lat":43.30534,"lon":5.36543,"is_reserved":false,"is_disabled":false,"rental_uris":{"android":"levelo://app?vid=a13c09a1-88e1-428c-9ee4-29189b138d57","ios":"levelo://app?vid=a13c09a1-88e1-428c-9ee4-29189b138d57"},"vehicle_type_id":"4","last_reported":1731604113,"current_range_meters":28400,"station_id":"ce4bgs12rcd13ifvqcag","pricing_plan_id":"cebpf4jnsgd1na2vs0mg"},{"bike_id":"19403e5b-9388-47f8-803d-8d1235a538c6","system_id":"levelo_inurba_marseille","lat":43.23193,"lon":5.35559,"is_reserved":false,"is_disabled":false,"rental_uris":{"android":"levelo://app?vid=19403e5b-9388-47f8-803d-8d1235a538c6","ios":"levelo://app?vid=19403e5b-9388-47f8-803d-8d1235a538c6"},"vehicle_type_id":"4","last_reported":1731604113,"current_range_meters":38000,"station_id":"ce4bhu92rcd13ifvqi70","pricing_plan_id":"cebpf4jnsgd1na2vs0mg"},{"bike_id":"500a0e4c-8d40-4c5e-a1c8-e240402b47a3","system_id":"levelo_inurba_marseille","lat":43.30887,"lon":5.39666,"is_reserved":false,"is_disabled":false,"rental_uris":{"android":"levelo://app?vid=500a0e4c-8d40-4c5e-a1c8-e240402b47a3","ios":"levelo://app?vid=500a0e4c-8d40-4c5e-a1c8-e240402b47a3"},"vehicle_type_id":"4","last_reported":1731604113,"current_range_meters":5600,"station_id":"ce4bh012rcd13ifvqcv0","pricing_plan_id":"cebpf4jnsgd1na2vs0mg"},{"bike_id":"bc5c3147-9c8a-4f83-93b0-3c6e89c527a3","system_id":"levelo_inurba_marseille","lat":43.27935,"lon":5.41046,"is_reserved":false,"is_disabled":false,"rental_uris":{"android":"levelo://app?vid=bc5c3147-9c8a-4f83-93b0-3c6e89c527a3","ios":"levelo://app?vid=bc5c3147-9c8a-4f83-93b0-3c6e89c527a3"},"vehicle_type_id":"4","last_reported":1731604113,"current_range_meters":28000,"station_id":"ce4bhnp2rcd13ifvqh0g","pricing_plan_id":"cebpf4jnsgd1na2vs0mg"},{"bike_id":"7239dbcc-6293-4c57-bae5-87ab079691ce","system_id":"levelo_inurba_marseille","lat":43.26921,"lon":5.38932,"is_reserved":false,"is_disabled":false,"rental_uris":{"android":"levelo://app?vid=7239dbcc-6293-4c57-bae5-87ab079691ce","ios":"levelo://app?vid=7239dbcc-6293-4c57-bae5-87ab079691ce"},"vehicle_type_id":"4","last_reported":1731604113,"current_range_meters":4400,"station_id":"ce4bhhh2rcd13ifvqfl0","pricing_plan_id":"cebpf4jnsgd1na2vs0mg"},{"bike_id":"2c17f9a3-1f05-429b-9d98-c7068c0d6ca7","system_id":"levelo_inurba_marseille","lat":43.27935,"lon":5.41049,"is_reserved":false,"is_disabled":false,"rental_uris":{"android":"levelo://app?vid=2c17f9a3-1f05-429b-9d98-c7068c0d6ca7","ios":"levelo://app?vid=2c17f9a3-1f05-429b-9d98-c7068c0d6ca7"},"vehicle_type_id":"4","last_reported":1731604113,"current_range_meters":10000,"station_id":"ce4bhnp2rcd13ifvqh0g","pricing_plan_id":"cebpf4jnsgd1na2vs0mg"},{"bike_id":"d99bff46-e3e0-4c25-9719-3fa3dd9a1a6e","system_id":"levelo_inurba_marseille","lat":43.31819,"lon":5.37438,"is_reserved":false,"is_disabled":false,"rental_uris":{"android":"levelo://app?vid=d99bff46-e3e0-4c25-9719-3fa3dd9a1a6e","ios":"levelo://app?vid=d99bff46-e3e0-4c25-9719-3fa3dd9a1a6e"},"vehicle_type_id":"4","last_reported":1731604113,"current_range_meters":19600,"station_id":"","pricing_plan_id":"cebpf4jnsgd1na2vs0mg"},{"bike_id":"05d9c569-c83d-4338-b613-93d5a6ff20f8","system_id":"levelo_inurba_marseille","lat":43.28612,"lon":5.35105,"is_reserved":false,"is_disabled":false,"rental_uris":{"android":"levelo://app?vid=05d9c569-c83d-4338-b613-93d5a6ff20f8","ios":"levelo://app?vid=05d9c569-c83d-4338-b613-93d5a6ff20f8"},"vehicle_type_id":"4","last_reported":1731604113,"current_range_meters":29600,"station_id":"ce4bhch2rcd13ifvqeug","pricing_plan_id":"cebpf4jnsgd1na2vs0mg"},{"bike_id":"c6447c43-d0cc-468e-995f-86d29098b762","system_id":"levelo_inurba_marseille","lat":43.3172,"lon":5.42402,"is_reserved":false,"is_disabled":false,"rental_uris":{"android":"levelo://app?vid=c6447c43-d0cc-468e-995f-86d29098b762","ios":"levelo://app?vid=c6447c43-d0cc-468e-995f-86d29098b762"},"vehicle_type_id":"4","last_reported":1731604113,"current_range_meters":38800,"station_id":"ce4bhp92rcd13ifvqhbg","pricing_plan_id":"cebpf4jnsgd1na2vs0mg"},{"bike_id":"345c401d-a3ae-40a2-b66d-5c2134059601","system_id":"levelo_inurba_marseille","lat":43.27926,"lon":5.3958,"is_reserved":false,"is_disabled":false,"rental_uris":{"android":"levelo://app?vid=345c401d-a3ae-40a2-b66d-5c2134059601","ios":"levelo://app?vid=345c401d-a3ae-40a2-b66d-5c2134059601"},"vehicle_type_id":"4","last_reported":1731604113,"current_range_meters":8800,"station_id":"ce4bhf92rcd13ifvqf40","pricing_plan_id":"cebpf4jnsgd1na2vs0mg"},{"bike_id":"63bd93d5-63dd-4683-a5d8-4a155823bc4a","system_id":"levelo_inurba_marseille","lat":43.25083,"lon":5.39519,"is_reserved":false,"is_disabled":false,"rental_uris":{"android":"levelo://app?vid=63bd93d5-63dd-4683-a5d8-4a155823bc4a","ios":"levelo://app?vid=63bd93d5-63dd-4683-a5d8-4a155823bc4a"},"vehicle_type_id":"4","last_reported":1731604113,"current_range_meters":40000,"station_id":"ce4bhm12rcd13ifvqgkg","pricing_plan_id":"cebpf4jnsgd1na2vs0mg"},{"bike_id":"cbf41156-d75b-4fde-9714-304ae2b24474","system_id":"levelo_inurba_marseille","lat":43.32481,"lon":5.36578,"is_reserved":false,"is_disabled":false,"rental_uris":{"android":"levelo://app?vid=cbf41156-d75b-4fde-9714-304ae2b24474","ios":"levelo://app?vid=cbf41156-d75b-4fde-9714-304ae2b24474"},"vehicle_type_id":"4","last_reported":1731604113,"current_range_meters":5600,"station_id":"ce4bhs12rcd13ifvqhvg","pricing_plan_id":"cebpf4jnsgd1na2vs0mg"},{"bike_id":"503caeb9-b055-4b0b-bb4b-f6cedade3be6","system_id":"levelo_inurba_marseille","lat":43.30643,"lon":5.40076,"is_reserved":false,"is_disabled":false,"rental_uris":{"android":"levelo://app?vid=503caeb9-b055-4b0b-bb4b-f6cedade3be6","ios":"levelo://app?vid=503caeb9-b055-4b0b-bb4b-f6cedade3be6"},"vehicle_type_id":"4","last_reported":1731604113,"current_range_meters":19600,"station_id":"ce4bh112rcd13ifvqda0","pricing_plan_id":"cebpf4jnsgd1na2vs0mg"},{"bike_id":"f14d6e89-1718-409a-84f2-5687a386de0e","system_id":"levelo_inurba_marseille","lat":43.27616,"lon":5.36115,"is_reserved":false,"is_disabled":false,"rental_uris":{"android":"levelo://app?vid=f14d6e89-1718-409a-84f2-5687a386de0e","ios":"levelo://app?vid=f14d6e89-1718-409a-84f2-5687a386de0e"},"vehicle_type_id":"4","last_reported":1731604113,"current_range_meters":21600,"station_id":"ce4bgj92rcd13ifvqbe0","pricing_plan_id":"cebpf4jnsgd1na2vs0mg"},{"bike_id":"f0bb4405-bbbf-4616-bc8b-08a36af6964b","system_id":"levelo_inurba_marseille","lat":43.28278,"lon":5.35072,"is_reserved":false,"is_disabled":false,"rental_uris":{"android":"levelo://app?vid=f0bb4405-bbbf-4616-bc8b-08a36af6964b","ios":"levelo://app?vid=f0bb4405-bbbf-4616-bc8b-08a36af6964b"},"vehicle_type_id":"4","last_reported":1731604113,"current_range_meters":22800,"station_id":"ce4bhbp2rcd13ifvqerg","pricing_plan_id":"cebpf4jnsgd1na2vs0mg"},{"bike_id":"7f4d88ed-aeab-4958-8da3-defef7d041a9","system_id":"levelo_inurba_marseille","lat":43.27429,"lon":5.39415,"is_reserved":false,"is_disabled":false,"rental_uris":{"android":"levelo://app?vid=7f4d88ed-aeab-4958-8da3-defef7d041a9","ios":"levelo://app?vid=7f4d88ed-aeab-4958-8da3-defef7d041a9"},"vehicle_type_id":"4","last_reported":1731604113,"current_range_meters":6400,"station_id":"ce4bhdp2rcd13ifvqf20","pricing_plan_id":"cebpf4jnsgd1na2vs0mg"},{"bike_id":"8a15e2e2-7291-4202-9dae-5ca1a984465e","system_id":"levelo_inurba_marseille","lat":43.28103,"lon":5.37836,"is_reserved":false,"is_disabled":false,"rental_uris":{"android":"levelo://app?vid=8a15e2e2-7291-4202-9dae-5ca1a984465e","ios":"levelo://app?vid=8a15e2e2-7291-4202-9dae-5ca1a984465e"},"vehicle_type_id":"4","last_reported":1731604113,"current_range_meters":19600,"station_id":"ce4bha12rcd13ifvqee0","pricing_plan_id":"cebpf4jnsgd1na2vs0mg"},{"bike_id":"62a5e223-29b5-482a-9414-cbfe8c68bfc4","system_id":"levelo_inurba_marseille","lat":43.26576,"lon":5.39024,"is_reserved":false,"is_disabled":false,"rental_uris":{"android":"levelo://app?vid=62a5e223-29b5-482a-9414-cbfe8c68bfc4","ios":"levelo://app?vid=62a5e223-29b5-482a-9414-cbfe8c68bfc4"},"vehicle_type_id":"4","last_reported":1731604113,"current_range_meters":38000,"station_id":"ce4bhe12rcd13ifvqf30","pricing_plan_id":"cebpf4jnsgd1na2vs0mg"},{"bike_id":"8b792f55-e526-42f6-bc6b-ac511f14f5dd","system_id":"levelo_inurba_marseille","lat":43.29075,"lon":5.37156,"is_reserved":false,"is_disabled":false,"rental_uris":{"android":"levelo://app?vid=8b792f55-e526-42f6-bc6b-ac511f14f5dd","ios":"levelo://app?vid=8b792f55-e526-42f6-bc6b-ac511f14f5dd"},"vehicle_type_id":"4","last_reported":1731604113,"current_range_meters":12000,"station_id":"ce4bh5p2rcd13ifvqe4g","pricing_plan_id":"cebpf4jnsgd1na2vs0mg"},{"bike_id":"25b44290-01b7-4bb3-b76a-9ef019309124","system_id":"levelo_inurba_marseille","lat":43.30544,"lon":5.38439,"is_reserved":false,"is_disabled":false,"rental_uris":{"android":"levelo://app?vid=25b44290-01b7-4bb3-b76a-9ef019309124","ios":"levelo://app?vid=25b44290-01b7-4bb3-b76a-9ef019309124"},"vehicle_type_id":"4","last_reported":1731604113,"current_range_meters":38400,"station_id":"ce4bgg92rcd13ifvqb30","pricing_plan_id":"cebpf4jnsgd1na2vs0mg"},{"bike_id":"902b8d5e-f04f-4aae-91f8-48c91da4125d","system_id":"levelo_inurba_marseille","lat":43.25089,"lon":5.39528,"is_reserved":false,"is_disabled":false,"rental_uris":{"android":"levelo://app?vid=902b8d5e-f04f-4aae-91f8-48c91da4125d","ios":"levelo://app?vid=902b8d5e-f04f-4aae-91f8-48c91da4125d"},"vehicle_type_id":"4","last_reported":1731604113,"current_range_meters":5600,"station_id":"ce4bhm12rcd13ifvqgkg","pricing_plan_id":"cebpf4jnsgd1na2vs0mg"},{"bike_id":"854cc930-7ca7-4bc0-82ed-8e8581287e3f","system_id":"levelo_inurba_marseille","lat":43.27814,"lon":5.40708,"is_reserved":false,"is_disabled":false,"rental_uris":{"android":"levelo://app?vid=854cc930-7ca7-4bc0-82ed-8e8581287e3f","ios":"levelo://app?vid=854cc930-7ca7-4bc0-82ed-8e8581287e3f"},"vehicle_type_id":"4","last_reported":1731604113,"current_range_meters":6800,"station_id":"ce4bhnh2rcd13ifvqgtg","pricing_plan_id":"cebpf4jnsgd1na2vs0mg"},{"bike_id":"398b47b3-a042-4cec-b1dd-254773a78263","system_id":"levelo_inurba_marseille","lat":43.27408,"lon":5.38958,"is_reserved":false,"is_disabled":false,"rental_uris":{"android":"levelo://app?vid=398b47b3-a042-4cec-b1dd-254773a78263","ios":"levelo://app?vid=398b47b3-a042-4cec-b1dd-254773a78263"},"vehicle_type_id":"4","last_reported":1731604113,"current_range_meters":3600,"station_id":"","pricing_plan_id":"cebpf4jnsgd1na2vs0mg"},{"bike_id":"09f5ab16-c329-4d12-b67d-6c2005338f28","system_id":"levelo_inurba_marseille","lat":43.24078,"lon":5.3776,"is_reserved":false,"is_disabled":false,"rental_uris":{"android":"levelo://app?vid=09f5ab16-c329-4d12-b67d-6c2005338f28","ios":"levelo://app?vid=09f5ab16-c329-4d12-b67d-6c2005338f28"},"vehicle_type_id":"4","last_reported":1731604113,"current_range_meters":400,"station_id":"ce4bhnp2rcd13ifvqgvg","pricing_plan_id":"cebpf4jnsgd1na2vs0mg"},{"bike_id":"8917990b-e521-4dd2-be3a-39fb95bd43be","system_id":"levelo_inurba_marseille","lat":43.30417,"lon":5.41289,"is_reserved":false,"is_disabled":false,"rental_uris":{"android":"levelo://app?vid=8917990b-e521-4dd2-be3a-39fb95bd43be","ios":"levelo://app?vid=8917990b-e521-4dd2-be3a-39fb95bd43be"},"vehicle_type_id":"4","last_reported":1731604113,"current_range_meters":26800,"station_id":"ce4bhop2rcd13ifvqh8g","pricing_plan_id":"cebpf4jnsgd1na2vs0mg"},{"bike_id":"92e3ad17-17c9-4714-a148-ef9436ad6113","system_id":"levelo_inurba_marseille","lat":43.22935,"lon":5.3538,"is_reserved":false,"is_disabled":false,"rental_uris":{"android":"levelo://app?vid=92e3ad17-17c9-4714-a148-ef9436ad6113","ios":"levelo://app?vid=92e3ad17-17c9-4714-a148-ef9436ad6113"},"vehicle_type_id":"4","last_reported":1731604113,"current_range_meters":40000,"station_id":"cpo3532slgdg3j2ikp40","pricing_plan_id":"cebpf4jnsgd1na2vs0mg"},{"bike_id":"3959eab5-15c5-4ed6-a889-9acfe67f1614","system_id":"levelo_inurba_marseille","lat":43.31328,"lon":5.39699,"is_reserved":false,"is_disabled":false,"rental_uris":{"android":"levelo://app?vid=3959eab5-15c5-4ed6-a889-9acfe67f1614","ios":"levelo://app?vid=3959eab5-15c5-4ed6-a889-9acfe67f1614"},"vehicle_type_id":"4","last_reported":1731604113,"current_range_meters":36800,"station_id":"ce4bgvp2rcd13ifvqcu0","pricing_plan_id":"cebpf4jnsgd1na2vs0mg"},{"bike_id":"5326c5f8-bba7-40e6-bfc7-8e986a3bddf3","system_id":"levelo_inurba_marseille","lat":43.323,"lon":5.38279,"is_reserved":false,"is_disabled":false,"rental_uris":{"android":"levelo://app?vid=5326c5f8-bba7-40e6-bfc7-8e986a3bddf3","ios":"levelo://app?vid=5326c5f8-bba7-40e6-bfc7-8e986a3bddf3"},"vehicle_type_id":"4","last_reported":1731604113,"current_range_meters":22800,"station_id":"ce4bhr12rcd13ifvqhqg","pricing_plan_id":"cebpf4jnsgd1na2vs0mg"},{"bike_id":"ea0a420b-3d51-49a4-8dd0-19015af898df","system_id":"levelo_inurba_marseille","lat":43.25858,"lon":5.399,"is_reserved":false,"is_disabled":false,"rental_uris":{"android":"levelo://app?vid=ea0a420b-3d51-49a4-8dd0-19015af898df","ios":"levelo://app?vid=ea0a420b-3d51-49a4-8dd0-19015af898df"},"vehicle_type_id":"4","last_reported":1731604113,"current_range_meters":28000,"station_id":"ce4bhl92rcd13ifvqghg","pricing_plan_id":"cebpf4jnsgd1na2vs0mg"},{"bike_id":"82f309e6-c4ae-421f-89cb-1d64a8e0ef10","system_id":"levelo_inurba_marseille","lat":43.337444,"lon":5.374475,"is_reserved":false,"is_disabled":false,"rental_uris":{"android":"levelo://app?vid=82f309e6-c4ae-421f-89cb-1d64a8e0ef10","ios":"levelo://app?vid=82f309e6-c4ae-421f-89cb-1d64a8e0ef10"},"vehicle_type_id":"4","last_reported":1731604113,"current_range_meters":32000,"station_id":"","pricing_plan_id":"cebpf4jnsgd1na2vs0mg"},{"bike_id":"69632d20-396a-4358-aa61-c0111efda0b6","system_id":"levelo_inurba_marseille","lat":43.27943,"lon":5.41048,"is_reserved":false,"is_disabled":false,"rental_uris":{"android":"levelo://app?vid=69632d20-396a-4358-aa61-c0111efda0b6","ios":"levelo://app?vid=69632d20-396a-4358-aa61-c0111efda0b6"},"vehicle_type_id":"4","last_reported":1731604113,"current_range_meters":18800,"station_id":"ce4bhnp2rcd13ifvqh0g","pricing_plan_id":"cebpf4jnsgd1na2vs0mg"},{"bike_id":"44b5d0c2-8325-4053-9721-f443d1b727a3","system_id":"levelo_inurba_marseille","lat":43.28955,"lon":5.39631,"is_reserved":false,"is_disabled":false,"rental_uris":{"android":"levelo://app?vid=44b5d0c2-8325-4053-9721-f443d1b727a3","ios":"levelo://app?vid=44b5d0c2-8325-4053-9721-f443d1b727a3"},"vehicle_type_id":"4","last_reported":1731604113,"current_range_meters":5600,"station_id":"ce4bh3h2rcd13ifvqdn0","pricing_plan_id":"cebpf4jnsgd1na2vs0mg"},{"bike_id":"ee397f7c-9f4e-4f1f-9b8a-f770b3796fd7","system_id":"levelo_inurba_marseille","lat":43.31172,"lon":5.38732,"is_reserved":false,"is_disabled":false,"rental_uris":{"android":"levelo://app?vid=ee397f7c-9f4e-4f1f-9b8a-f770b3796fd7","ios":"levelo://app?vid=ee397f7c-9f4e-4f1f-9b8a-f770b3796fd7"},"vehicle_type_id":"4","last_reported":1731604113,"current_range_meters":38800,"station_id":"ce4bgv12rcd13ifvqcp0","pricing_plan_id":"cebpf4jnsgd1na2vs0mg"},{"bike_id":"1c8be33f-8e55-43da-b1db-775546e35154","system_id":"levelo_inurba_marseille","lat":43.323309,"lon":5.39374,"is_reserved":false,"is_disabled":false,"rental_uris":{"android":"levelo://app?vid=1c8be33f-8e55-43da-b1db-775546e35154","ios":"levelo://app?vid=1c8be33f-8e55-43da-b1db-775546e35154"},"vehicle_type_id":"4","last_reported":1731604113,"current_range_meters":18800,"station_id":"ce4bh4p2rcd13ifvqe1g","pricing_plan_id":"cebpf4jnsgd1na2vs0mg"},{"bike_id":"630dc839-de13-4f4b-b6d2-9eb004ba7503","system_id":"levelo_inurba_marseille","lat":43.28466,"lon":5.35889,"is_reserved":false,"is_disabled":false,"rental_uris":{"android":"levelo://app?vid=630dc839-de13-4f4b-b6d2-9eb004ba7503","ios":"levelo://app?vid=630dc839-de13-4f4b-b6d2-9eb004ba7503"},"vehicle_type_id":"4","last_reported":1731604113,"current_range_meters":8400,"station_id":"ce4bhah2rcd13ifvqei0","pricing_plan_id":"cebpf4jnsgd1na2vs0mg"},{"bike_id":"1ac8672f-a987-4057-9483-d020474fd373","system_id":"levelo_inurba_marseille","lat":43.2899,"lon":5.37832,"is_reserved":false,"is_disabled":false,"rental_uris":{"android":"levelo://app?vid=1ac8672f-a987-4057-9483-d020474fd373","ios":"levelo://app?vid=1ac8672f-a987-4057-9483-d020474fd373"},"vehicle_type_id":"4","last_reported":1731604113,"current_range_meters":35200,"station_id":"ce4bh9p2rcd13ifvqed0","pricing_plan_id":"cebpf4jnsgd1na2vs0mg"},{"bike_id":"e9831758-7fbb-4bb8-92fd-5b32e1ae3ab6","system_id":"levelo_inurba_marseille","lat":43.33026,"lon":5.39051,"is_reserved":false,"is_disabled":false,"rental_uris":{"android":"levelo://app?vid=e9831758-7fbb-4bb8-92fd-5b32e1ae3ab6","ios":"levelo://app?vid=e9831758-7fbb-4bb8-92fd-5b32e1ae3ab6"},"vehicle_type_id":"4","last_reported":1731604113,"current_range_meters":27600,"station_id":"ce4bhr92rcd13ifvqhrg","pricing_plan_id":"cebpf4jnsgd1na2vs0mg"},{"bike_id":"7be47c27-5026-494e-b3e3-02e6592c6480","system_id":"levelo_inurba_marseille","lat":43.32486,"lon":5.36565,"is_reserved":false,"is_disabled":false,"rental_uris":{"android":"levelo://app?vid=7be47c27-5026-494e-b3e3-02e6592c6480","ios":"levelo://app?vid=7be47c27-5026-494e-b3e3-02e6592c6480"},"vehicle_type_id":"4","last_reported":1731604113,"current_range_meters":21600,"station_id":"ce4bhs12rcd13ifvqhvg","pricing_plan_id":"cebpf4jnsgd1na2vs0mg"},{"bike_id":"8a1ed2d4-be6e-437d-b9d3-8a1a18a0154a","system_id":"levelo_inurba_marseille","lat":43.24387,"lon":5.3706,"is_reserved":false,"is_disabled":false,"rental_uris":{"android":"levelo://app?vid=8a1ed2d4-be6e-437d-b9d3-8a1a18a0154a","ios":"levelo://app?vid=8a1ed2d4-be6e-437d-b9d3-8a1a18a0154a"},"vehicle_type_id":"4","last_reported":1731604113,"current_range_meters":25200,"station_id":"ce4bhhh2rcd13ifvqfk0","pricing_plan_id":"cebpf4jnsgd1na2vs0mg"},{"bike_id":"f1fcbcf2-1659-40b2-93df-ab4f670b6a76","system_id":"levelo_inurba_marseille","lat":43.31223,"lon":5.36859,"is_reserved":false,"is_disabled":false,"rental_uris":{"android":"levelo://app?vid=f1fcbcf2-1659-40b2-93df-ab4f670b6a76","ios":"levelo://app?vid=f1fcbcf2-1659-40b2-93df-ab4f670b6a76"},"vehicle_type_id":"4","last_reported":1731604113,"current_range_meters":38800,"station_id":"ce4bgl92rcd13ifvqbq0","pricing_plan_id":"cebpf4jnsgd1na2vs0mg"},{"bike_id":"92eef5a4-7413-4712-aa62-eb761eb3479d","system_id":"levelo_inurba_marseille","lat":43.28122,"lon":5.3785,"is_reserved":false,"is_disabled":false,"rental_uris":{"android":"levelo://app?vid=92eef5a4-7413-4712-aa62-eb761eb3479d","ios":"levelo://app?vid=92eef5a4-7413-4712-aa62-eb761eb3479d"},"vehicle_type_id":"4","last_reported":1731604113,"current_range_meters":36400,"station_id":"ce4bha12rcd13ifvqee0","pricing_plan_id":"cebpf4jnsgd1na2vs0mg"},{"bike_id":"d1badb2f-ae8e-4081-9eb6-03a47653d796","system_id":"levelo_inurba_marseille","lat":43.29268,"lon":5.38446,"is_reserved":false,"is_disabled":false,"rental_uris":{"android":"levelo://app?vid=d1badb2f-ae8e-4081-9eb6-03a47653d796","ios":"levelo://app?vid=d1badb2f-ae8e-4081-9eb6-03a47653d796"},"vehicle_type_id":"4","last_reported":1731604113,"current_range_meters":38800,"station_id":"ce4bh692rcd13ifvqea0","pricing_plan_id":"cebpf4jnsgd1na2vs0mg"},{"bike_id":"add6469e-6694-4a2e-bfcd-ec1f32bc46a7","system_id":"levelo_inurba_marseille","lat":43.24653,"lon":5.38895,"is_reserved":false,"is_disabled":false,"rental_uris":{"android":"levelo://app?vid=add6469e-6694-4a2e-bfcd-ec1f32bc46a7","ios":"levelo://app?vid=add6469e-6694-4a2e-bfcd-ec1f32bc46a7"},"vehicle_type_id":"4","last_reported":1731604113,"current_range_meters":34000,"station_id":"ce4bhg12rcd13ifvqf60","pricing_plan_id":"cebpf4jnsgd1na2vs0mg"},{"bike_id":"6396a53d-ad08-49b3-8e6c-3de55b613879","system_id":"levelo_inurba_marseille","lat":43.27498,"lon":5.42453,"is_reserved":false,"is_disabled":false,"rental_uris":{"android":"levelo://app?vid=6396a53d-ad08-49b3-8e6c-3de55b613879","ios":"levelo://app?vid=6396a53d-ad08-49b3-8e6c-3de55b613879"},"vehicle_type_id":"4","last_reported":1731604113,"current_range_meters":39200,"station_id":"","pricing_plan_id":"cebpf4jnsgd1na2vs0mg"},{"bike_id":"b3ce9329-5a40-4129-ba29-fc0063d62856","system_id":"levelo_inurba_marseille","lat":43.28458,"lon":5.35896,"is_reserved":false,"is_disabled":false,"rental_uris":{"android":"levelo://app?vid=b3ce9329-5a40-4129-ba29-fc0063d62856","ios":"levelo://app?vid=b3ce9329-5a40-4129-ba29-fc0063d62856"},"vehicle_type_id":"4","last_reported":1731604113,"current_range_meters":8800,"station_id":"ce4bhah2rcd13ifvqei0","pricing_plan_id":"cebpf4jnsgd1na2vs0mg"},{"bike_id":"4f403e37-a8c3-4d70-a9e9-789f448b0b15","system_id":"levelo_inurba_marseille","lat":43.31994,"lon":5.38153,"is_reserved":false,"is_disabled":false,"rental_uris":{"android":"levelo://app?vid=4f403e37-a8c3-4d70-a9e9-789f448b0b15","ios":"levelo://app?vid=4f403e37-a8c3-4d70-a9e9-789f448b0b15"},"vehicle_type_id":"4","last_reported":1731604113,"current_range_meters":24000,"station_id":"ce4bhr12rcd13ifvqhpg","pricing_plan_id":"cebpf4jnsgd1na2vs0mg"},{"bike_id":"a1df99f0-d509-4bc0-bf21-bfa3ffaea986","system_id":"levelo_inurba_marseille","lat":43.29419,"lon":5.38629,"is_reserved":false,"is_disabled":false,"rental_uris":{"android":"levelo://app?vid=a1df99f0-d509-4bc0-bf21-bfa3ffaea986","ios":"levelo://app?vid=a1df99f0-d509-4bc0-bf21-bfa3ffaea986"},"vehicle_type_id":"4","last_reported":1731604113,"current_range_meters":25200,"station_id":"ce4bh2h2rcd13ifvqdh0","pricing_plan_id":"cebpf4jnsgd1na2vs0mg"},{"bike_id":"03675294-e2ec-4f13-a687-a47ee241f2ec","system_id":"levelo_inurba_marseille","lat":43.28935,"lon":5.36641,"is_reserved":false,"is_disabled":false,"rental_uris":{"android":"levelo://app?vid=03675294-e2ec-4f13-a687-a47ee241f2ec","ios":"levelo://app?vid=03675294-e2ec-4f13-a687-a47ee241f2ec"},"vehicle_type_id":"4","last_reported":1731604113,"current_range_meters":26800,"station_id":"ce4bhap2rcd13ifvqek0","pricing_plan_id":"cebpf4jnsgd1na2vs0mg"},{"bike_id":"96982182-a7c7-450e-8433-0ac9d985aed2","system_id":"levelo_inurba_marseille","lat":43.33725,"lon":5.39188,"is_reserved":false,"is_disabled":false,"rental_uris":{"android":"levelo://app?vid=96982182-a7c7-450e-8433-0ac9d985aed2","ios":"levelo://app?vid=96982182-a7c7-450e-8433-0ac9d985aed2"},"vehicle_type_id":"4","last_reported":1731604113,"current_range_meters":39200,"station_id":"ce4bhr92rcd13ifvqhsg","pricing_plan_id":"cebpf4jnsgd1na2vs0mg"},{"bike_id":"37212eb8-cfa6-47ba-9ed7-bfed51287466","system_id":"levelo_inurba_marseille","lat":43.31461,"lon":5.37389,"is_reserved":false,"is_disabled":false,"rental_uris":{"android":"levelo://app?vid=37212eb8-cfa6-47ba-9ed7-bfed51287466","ios":"levelo://app?vid=37212eb8-cfa6-47ba-9ed7-bfed51287466"},"vehicle_type_id":"4","last_reported":1731604113,"current_range_meters":37600,"station_id":"","pricing_plan_id":"cebpf4jnsgd1na2vs0mg"},{"bike_id":"0a7a7ac5-f54c-44af-a6b9-bff324764339","system_id":"levelo_inurba_marseille","lat":43.23056,"lon":5.35494,"is_reserved":false,"is_disabled":false,"rental_uris":{"android":"levelo://app?vid=0a7a7ac5-f54c-44af-a6b9-bff324764339","ios":"levelo://app?vid=0a7a7ac5-f54c-44af-a6b9-bff324764339"},"vehicle_type_id":"4","last_reported":1731604113,"current_range_meters":19600,"station_id":"cpo3342slgdg3j2ifvpg","pricing_plan_id":"cebpf4jnsgd1na2vs0mg"},{"bike_id":"a13c7708-d87b-4218-8927-329742d4f8b9","system_id":"levelo_inurba_marseille","lat":43.31996,"lon":5.38154,"is_reserved":false,"is_disabled":false,"rental_uris":{"android":"levelo://app?vid=a13c7708-d87b-4218-8927-329742d4f8b9","ios":"levelo://app?vid=a13c7708-d87b-4218-8927-329742d4f8b9"},"vehicle_type_id":"4","last_reported":1731604113,"current_range_meters":40000,"station_id":"ce4bhr12rcd13ifvqhpg","pricing_plan_id":"cebpf4jnsgd1na2vs0mg"},{"bike_id":"bef7ca68-0ccd-456c-a245-4471193ed987","system_id":"levelo_inurba_marseille","lat":43.26056,"lon":5.39406,"is_reserved":false,"is_disabled":false,"rental_uris":{"android":"levelo://app?vid=bef7ca68-0ccd-456c-a245-4471193ed987","ios":"levelo://app?vid=bef7ca68-0ccd-456c-a245-4471193ed987"},"vehicle_type_id":"4","last_reported":1731604113,"current_range_meters":31200,"station_id":"ce4bhh92rcd13ifvqfj0","pricing_plan_id":"cebpf4jnsgd1na2vs0mg"},{"bike_id":"b6a4c0fe-c074-4ac2-92f6-ffe8421ffbf2","system_id":"levelo_inurba_marseille","lat":43.305987,"lon":5.372373,"is_reserved":false,"is_disabled":false,"rental_uris":{"android":"levelo://app?vid=b6a4c0fe-c074-4ac2-92f6-ffe8421ffbf2","ios":"levelo://app?vid=b6a4c0fe-c074-4ac2-92f6-ffe8421ffbf2"},"vehicle_type_id":"4","last_reported":1731604113,"current_range_meters":9200,"station_id":"ce4bgqh2rcd13ifvqc4g","pricing_plan_id":"cebpf4jnsgd1na2vs0mg"},{"bike_id":"7fd0953d-1bf7-448f-8450-677880c3fed8","system_id":"levelo_inurba_marseille","lat":43.29709,"lon":5.36614,"is_reserved":false,"is_disabled":false,"rental_uris":{"android":"levelo://app?vid=7fd0953d-1bf7-448f-8450-677880c3fed8","ios":"levelo://app?vid=7fd0953d-1bf7-448f-8450-677880c3fed8"},"vehicle_type_id":"4","last_reported":1731604113,"current_range_meters":39200,"station_id":"ce4bgn12rcd13ifvqbt0","pricing_plan_id":"cebpf4jnsgd1na2vs0mg"},{"bike_id":"6d757fef-4f26-43f9-ac2c-ffab39bf7dae","system_id":"levelo_inurba_marseille","lat":43.32249,"lon":5.36901,"is_reserved":false,"is_disabled":false,"rental_uris":{"android":"levelo://app?vid=6d757fef-4f26-43f9-ac2c-ffab39bf7dae","ios":"levelo://app?vid=6d757fef-4f26-43f9-ac2c-ffab39bf7dae"},"vehicle_type_id":"4","last_reported":1731604113,"current_range_meters":28000,"station_id":"","pricing_plan_id":"cebpf4jnsgd1na2vs0mg"},{"bike_id":"5472ae20-beb3-4230-a71f-39ee5e6f6d72","system_id":"levelo_inurba_marseille","lat":43.29537,"lon":5.38547,"is_reserved":false,"is_disabled":false,"rental_uris":{"android":"levelo://app?vid=5472ae20-beb3-4230-a71f-39ee5e6f6d72","ios":"levelo://app?vid=5472ae20-beb3-4230-a71f-39ee5e6f6d72"},"vehicle_type_id":"4","last_reported":1731604113,"current_range_meters":36000,"station_id":"ce4bgih2rcd13ifvqba0","pricing_plan_id":"cebpf4jnsgd1na2vs0mg"},{"bike_id":"abdf9dfd-3001-4895-90bc-659170acf599","system_id":"levelo_inurba_marseille","lat":43.25578,"lon":5.38229,"is_reserved":false,"is_disabled":false,"rental_uris":{"android":"levelo://app?vid=abdf9dfd-3001-4895-90bc-659170acf599","ios":"levelo://app?vid=abdf9dfd-3001-4895-90bc-659170acf599"},"vehicle_type_id":"4","last_reported":1731604113,"current_range_meters":28800,"station_id":"ce4bh692rcd13ifvqe90","pricing_plan_id":"cebpf4jnsgd1na2vs0mg"},{"bike_id":"e2390cb0-61a8-4da0-a657-34cf44631fb5","system_id":"levelo_inurba_marseille","lat":43.28081,"lon":5.39662,"is_reserved":false,"is_disabled":false,"rental_uris":{"android":"levelo://app?vid=e2390cb0-61a8-4da0-a657-34cf44631fb5","ios":"levelo://app?vid=e2390cb0-61a8-4da0-a657-34cf44631fb5"},"vehicle_type_id":"4","last_reported":1731604113,"current_range_meters":25200,"station_id":"ce4bho12rcd13ifvqh2g","pricing_plan_id":"cebpf4jnsgd1na2vs0mg"},{"bike_id":"551bca4e-ae8f-40eb-9ad5-d4ae9baf5d2a","system_id":"levelo_inurba_marseille","lat":43.32363,"lon":5.38891,"is_reserved":false,"is_disabled":false,"rental_uris":{"android":"levelo://app?vid=551bca4e-ae8f-40eb-9ad5-d4ae9baf5d2a","ios":"levelo://app?vid=551bca4e-ae8f-40eb-9ad5-d4ae9baf5d2a"},"vehicle_type_id":"4","last_reported":1731604113,"current_range_meters":12800,"station_id":"ce4bhqp2rcd13ifvqhog","pricing_plan_id":"cebpf4jnsgd1na2vs0mg"},{"bike_id":"070aae14-a984-4613-8ade-edb7cfd29691","system_id":"levelo_inurba_marseille","lat":43.30419,"lon":5.41291,"is_reserved":false,"is_disabled":false,"rental_uris":{"android":"levelo://app?vid=070aae14-a984-4613-8ade-edb7cfd29691","ios":"levelo://app?vid=070aae14-a984-4613-8ade-edb7cfd29691"},"vehicle_type_id":"4","last_reported":1731604113,"current_range_meters":39200,"station_id":"ce4bhop2rcd13ifvqh8g","pricing_plan_id":"cebpf4jnsgd1na2vs0mg"},{"bike_id":"fc992a78-96c0-4575-bb3d-4b9fd49c9617","system_id":"levelo_inurba_marseille","lat":43.29708,"lon":5.36609,"is_reserved":false,"is_disabled":false,"rental_uris":{"android":"levelo://app?vid=fc992a78-96c0-4575-bb3d-4b9fd49c9617","ios":"levelo://app?vid=fc992a78-96c0-4575-bb3d-4b9fd49c9617"},"vehicle_type_id":"4","last_reported":1731604113,"current_range_meters":39200,"station_id":"ce4bgn12rcd13ifvqbt0","pricing_plan_id":"cebpf4jnsgd1na2vs0mg"},{"bike_id":"845e027f-639d-4d82-82da-a782e6176b58","system_id":"levelo_inurba_marseille","lat":43.30421,"lon":5.39744,"is_reserved":false,"is_disabled":false,"rental_uris":{"android":"levelo://app?vid=845e027f-639d-4d82-82da-a782e6176b58","ios":"levelo://app?vid=845e027f-639d-4d82-82da-a782e6176b58"},"vehicle_type_id":"4","last_reported":1731604113,"current_range_meters":28400,"station_id":"ce4bh092rcd13ifvqd20","pricing_plan_id":"cebpf4jnsgd1na2vs0mg"},{"bike_id":"32507c9e-2282-41ac-a95b-6a462366e2cb","system_id":"levelo_inurba_marseille","lat":43.27423,"lon":5.39416,"is_reserved":false,"is_disabled":false,"rental_uris":{"android":"levelo://app?vid=32507c9e-2282-41ac-a95b-6a462366e2cb","ios":"levelo://app?vid=32507c9e-2282-41ac-a95b-6a462366e2cb"},"vehicle_type_id":"4","last_reported":1731604113,"current_range_meters":38800,"station_id":"ce4bhdp2rcd13ifvqf20","pricing_plan_id":"cebpf4jnsgd1na2vs0mg"},{"bike_id":"2ba01715-3170-4a7e-ae00-4a8868ac1042","system_id":"levelo_inurba_marseille","lat":43.25088,"lon":5.39512,"is_reserved":false,"is_disabled":false,"rental_uris":{"android":"levelo://app?vid=2ba01715-3170-4a7e-ae00-4a8868ac1042","ios":"levelo://app?vid=2ba01715-3170-4a7e-ae00-4a8868ac1042"},"vehicle_type_id":"4","last_reported":1731604113,"current_range_meters":28000,"station_id":"ce4bhm12rcd13ifvqgkg","pricing_plan_id":"cebpf4jnsgd1na2vs0mg"},{"bike_id":"a484f2db-8af7-4aa7-ae79-b587f724e391","system_id":"levelo_inurba_marseille","lat":43.302204,"lon":5.369068,"is_reserved":false,"is_disabled":false,"rental_uris":{"android":"levelo://app?vid=a484f2db-8af7-4aa7-ae79-b587f724e391","ios":"levelo://app?vid=a484f2db-8af7-4aa7-ae79-b587f724e391"},"vehicle_type_id":"4","last_reported":1731604113,"current_range_meters":15200,"station_id":"ce4bh0p2rcd13ifvqd70","pricing_plan_id":"cebpf4jnsgd1na2vs0mg"},{"bike_id":"dee4f28c-1ddf-4b57-b514-3647dfe5817b","system_id":"levelo_inurba_marseille","lat":43.29771,"lon":5.37102,"is_reserved":false,"is_disabled":false,"rental_uris":{"android":"levelo://app?vid=dee4f28c-1ddf-4b57-b514-3647dfe5817b","ios":"levelo://app?vid=dee4f28c-1ddf-4b57-b514-3647dfe5817b"},"vehicle_type_id":"4","last_reported":1731604113,"current_range_meters":39200,"station_id":"ce4bgop2rcd13ifvqc1g","pricing_plan_id":"cebpf4jnsgd1na2vs0mg"},{"bike_id":"2a0b9b52-8333-4535-9400-3c103c72cf5b","system_id":"levelo_inurba_marseille","lat":43.30463,"lon":5.37912,"is_reserved":false,"is_disabled":false,"rental_uris":{"android":"levelo://app?vid=2a0b9b52-8333-4535-9400-3c103c72cf5b","ios":"levelo://app?vid=2a0b9b52-8333-4535-9400-3c103c72cf5b"},"vehicle_type_id":"4","last_reported":1731604113,"current_range_meters":8000,"station_id":"ce4bgup2rcd13ifvqcn0","pricing_plan_id":"cebpf4jnsgd1na2vs0mg"},{"bike_id":"ad4adb41-9857-427d-8450-c734cc85b634","system_id":"levelo_inurba_marseille","lat":43.31714,"lon":5.43709,"is_reserved":false,"is_disabled":false,"rental_uris":{"android":"levelo://app?vid=ad4adb41-9857-427d-8450-c734cc85b634","ios":"levelo://app?vid=ad4adb41-9857-427d-8450-c734cc85b634"},"vehicle_type_id":"4","last_reported":1731604113,"current_range_meters":20400,"station_id":"ce4bhp92rcd13ifvqhcg","pricing_plan_id":"cebpf4jnsgd1na2vs0mg"},{"bike_id":"38a3f15f-4d5c-4d70-9a7a-d0737c2f75f7","system_id":"levelo_inurba_marseille","lat":43.32339,"lon":5.40624,"is_reserved":false,"is_disabled":false,"rental_uris":{"android":"levelo://app?vid=38a3f15f-4d5c-4d70-9a7a-d0737c2f75f7","ios":"levelo://app?vid=38a3f15f-4d5c-4d70-9a7a-d0737c2f75f7"},"vehicle_type_id":"4","last_reported":1731604113,"current_range_meters":30000,"station_id":"ce4bhq92rcd13ifvqhjg","pricing_plan_id":"cebpf4jnsgd1na2vs0mg"},{"bike_id":"6b6441c8-178c-473d-a1dd-29b186a952c7","system_id":"levelo_inurba_marseille","lat":43.25833,"lon":5.3944,"is_reserved":false,"is_disabled":false,"rental_uris":{"android":"levelo://app?vid=6b6441c8-178c-473d-a1dd-29b186a952c7","ios":"levelo://app?vid=6b6441c8-178c-473d-a1dd-29b186a952c7"},"vehicle_type_id":"4","last_reported":1731604113,"current_range_meters":14400,"station_id":"ce4bhip2rcd13ifvqft0","pricing_plan_id":"cebpf4jnsgd1na2vs0mg"},{"bike_id":"7771c688-64c0-4850-804f-fba1542bd6cf","system_id":"levelo_inurba_marseille","lat":43.2987,"lon":5.38794,"is_reserved":false,"is_disabled":false,"rental_uris":{"android":"levelo://app?vid=7771c688-64c0-4850-804f-fba1542bd6cf","ios":"levelo://app?vid=7771c688-64c0-4850-804f-fba1542bd6cf"},"vehicle_type_id":"4","last_reported":1731604113,"current_range_meters":25600,"station_id":"ce4bh192rcd13ifvqdb0","pricing_plan_id":"cebpf4jnsgd1na2vs0mg"},{"bike_id":"5853604a-a8c4-4f86-a647-7c9f9c81122e","system_id":"levelo_inurba_marseille","lat":43.29782,"lon":5.3934,"is_reserved":false,"is_disabled":false,"rental_uris":{"android":"levelo://app?vid=5853604a-a8c4-4f86-a647-7c9f9c81122e","ios":"levelo://app?vid=5853604a-a8c4-4f86-a647-7c9f9c81122e"},"vehicle_type_id":"4","last_reported":1731604113,"current_range_meters":12800,"station_id":"chh1huq6cuj3fo74tm60","pricing_plan_id":"cebpf4jnsgd1na2vs0mg"},{"bike_id":"09276515-c5f7-4b7f-9c6d-8aed36883d73","system_id":"levelo_inurba_marseille","lat":43.30536,"lon":5.38429,"is_reserved":false,"is_disabled":false,"rental_uris":{"android":"levelo://app?vid=09276515-c5f7-4b7f-9c6d-8aed36883d73","ios":"levelo://app?vid=09276515-c5f7-4b7f-9c6d-8aed36883d73"},"vehicle_type_id":"4","last_reported":1731604113,"current_range_meters":24000,"station_id":"ce4bgg92rcd13ifvqb30","pricing_plan_id":"cebpf4jnsgd1na2vs0mg"},{"bike_id":"37f52798-cde3-4570-a5d2-b0908bfd3884","system_id":"levelo_inurba_marseille","lat":43.25091,"lon":5.39527,"is_reserved":false,"is_disabled":false,"rental_uris":{"android":"levelo://app?vid=37f52798-cde3-4570-a5d2-b0908bfd3884","ios":"levelo://app?vid=37f52798-cde3-4570-a5d2-b0908bfd3884"},"vehicle_type_id":"4","last_reported":1731604113,"current_range_meters":24400,"station_id":"ce4bhm12rcd13ifvqgkg","pricing_plan_id":"cebpf4jnsgd1na2vs0mg"},{"bike_id":"e805d5f4-46b3-4d4e-beaa-7688b5492b6e","system_id":"levelo_inurba_marseille","lat":43.32661,"lon":5.40999,"is_reserved":false,"is_disabled":false,"rental_uris":{"android":"levelo://app?vid=e805d5f4-46b3-4d4e-beaa-7688b5492b6e","ios":"levelo://app?vid=e805d5f4-46b3-4d4e-beaa-7688b5492b6e"},"vehicle_type_id":"4","last_reported":1731604113,"current_range_meters":13600,"station_id":"ce4bhpp2rcd13ifvqhgg","pricing_plan_id":"cebpf4jnsgd1na2vs0mg"},{"bike_id":"8e3ba159-d126-4911-9e0c-3e131185f6b4","system_id":"levelo_inurba_marseille","lat":43.2559,"lon":5.3823,"is_reserved":false,"is_disabled":false,"rental_uris":{"android":"levelo://app?vid=8e3ba159-d126-4911-9e0c-3e131185f6b4","ios":"levelo://app?vid=8e3ba159-d126-4911-9e0c-3e131185f6b4"},"vehicle_type_id":"4","last_reported":1731604113,"current_range_meters":30800,"station_id":"ce4bhih2rcd13ifvqfs0","pricing_plan_id":"cebpf4jnsgd1na2vs0mg"},{"bike_id":"70dbac14-4ff1-4ee8-9da1-31cf9c0d2e62","system_id":"levelo_inurba_marseille","lat":43.27189,"lon":5.41,"is_reserved":false,"is_disabled":false,"rental_uris":{"android":"levelo://app?vid=70dbac14-4ff1-4ee8-9da1-31cf9c0d2e62","ios":"levelo://app?vid=70dbac14-4ff1-4ee8-9da1-31cf9c0d2e62"},"vehicle_type_id":"4","last_reported":1731604113,"current_range_meters":24000,"station_id":"ce4bhl12rcd13ifvqgf0","pricing_plan_id":"cebpf4jnsgd1na2vs0mg"},{"bike_id":"1311c692-6e9d-4afb-b7b0-20686564fe7a","system_id":"levelo_inurba_marseille","lat":43.337444,"lon":5.374475,"is_reserved":false,"is_disabled":false,"rental_uris":{"android":"levelo://app?vid=1311c692-6e9d-4afb-b7b0-20686564fe7a","ios":"levelo://app?vid=1311c692-6e9d-4afb-b7b0-20686564fe7a"},"vehicle_type_id":"4","last_reported":1731604113,"current_range_meters":32400,"station_id":"","pricing_plan_id":"cebpf4jnsgd1na2vs0mg"},{"bike_id":"585a5f80-665c-4417-b99d-3f71a06efc8a","system_id":"levelo_inurba_marseille","lat":43.27422,"lon":5.39415,"is_reserved":false,"is_disabled":false,"rental_uris":{"android":"levelo://app?vid=585a5f80-665c-4417-b99d-3f71a06efc8a","ios":"levelo://app?vid=585a5f80-665c-4417-b99d-3f71a06efc8a"},"vehicle_type_id":"4","last_reported":1731604113,"current_range_meters":38000,"station_id":"ce4bhdp2rcd13ifvqf20","pricing_plan_id":"cebpf4jnsgd1na2vs0mg"},{"bike_id":"203e5a09-9bf2-4bd7-b6b7-5663ebb3065d","system_id":"levelo_inurba_marseille","lat":43.29968,"lon":5.3851,"is_reserved":false,"is_disabled":false,"rental_uris":{"android":"levelo://app?vid=203e5a09-9bf2-4bd7-b6b7-5663ebb3065d","ios":"levelo://app?vid=203e5a09-9bf2-4bd7-b6b7-5663ebb3065d"},"vehicle_type_id":"4","last_reported":1731604113,"current_range_meters":16800,"station_id":"ce4bgl12rcd13ifvqbo0","pricing_plan_id":"cebpf4jnsgd1na2vs0mg"},{"bike_id":"f5d1f9a8-dee4-4b92-8a8e-3b784768392f","system_id":"levelo_inurba_marseille","lat":43.31709,"lon":5.4371,"is_reserved":false,"is_disabled":false,"rental_uris":{"android":"levelo://app?vid=f5d1f9a8-dee4-4b92-8a8e-3b784768392f","ios":"levelo://app?vid=f5d1f9a8-dee4-4b92-8a8e-3b784768392f"},"vehicle_type_id":"4","last_reported":1731604113,"current_range_meters":18800,"station_id":"ce4bhp92rcd13ifvqhcg","pricing_plan_id":"cebpf4jnsgd1na2vs0mg"},{"bike_id":"364a3e51-c429-496f-b185-3a9a6cbb2f33","system_id":"levelo_inurba_marseille","lat":43.30932,"lon":5.40146,"is_reserved":false,"is_disabled":false,"rental_uris":{"android":"levelo://app?vid=364a3e51-c429-496f-b185-3a9a6cbb2f33","ios":"levelo://app?vid=364a3e51-c429-496f-b185-3a9a6cbb2f33"},"vehicle_type_id":"4","last_reported":1731604113,"current_range_meters":35200,"station_id":"ce4bgvp2rcd13ifvqct0","pricing_plan_id":"cebpf4jnsgd1na2vs0mg"},{"bike_id":"964ff54a-4cb6-44fc-99e8-fcc7b72104d2","system_id":"levelo_inurba_marseille","lat":43.29148,"lon":5.38683,"is_reserved":false,"is_disabled":false,"rental_uris":{"android":"levelo://app?vid=964ff54a-4cb6-44fc-99e8-fcc7b72104d2","ios":"levelo://app?vid=964ff54a-4cb6-44fc-99e8-fcc7b72104d2"},"vehicle_type_id":"4","last_reported":1731604113,"current_range_meters":31200,"station_id":"","pricing_plan_id":"cebpf4jnsgd1na2vs0mg"},{"bike_id":"b740832b-beb0-4067-8017-b78cae9f1b59","system_id":"levelo_inurba_marseille","lat":43.30338,"lon":5.40439,"is_reserved":false,"is_disabled":false,"rental_uris":{"android":"levelo://app?vid=b740832b-beb0-4067-8017-b78cae9f1b59","ios":"levelo://app?vid=b740832b-beb0-4067-8017-b78cae9f1b59"},"vehicle_type_id":"4","last_reported":1731604113,"current_range_meters":25600,"station_id":"ce4bh012rcd13ifvqd10","pricing_plan_id":"cebpf4jnsgd1na2vs0mg"},{"bike_id":"6dbe0fac-2c3a-4399-adf2-59bb53c4fbcb","system_id":"levelo_inurba_marseille","lat":43.22931,"lon":5.35379,"is_reserved":false,"is_disabled":false,"rental_uris":{"android":"levelo://app?vid=6dbe0fac-2c3a-4399-adf2-59bb53c4fbcb","ios":"levelo://app?vid=6dbe0fac-2c3a-4399-adf2-59bb53c4fbcb"},"vehicle_type_id":"4","last_reported":1731604113,"current_range_meters":8000,"station_id":"cpo3532slgdg3j2ikp40","pricing_plan_id":"cebpf4jnsgd1na2vs0mg"},{"bike_id":"a6b8c285-acc9-4039-9531-1aae39136a33","system_id":"levelo_inurba_marseille","lat":43.312042,"lon":5.367348,"is_reserved":false,"is_disabled":false,"rental_uris":{"android":"levelo://app?vid=a6b8c285-acc9-4039-9531-1aae39136a33","ios":"levelo://app?vid=a6b8c285-acc9-4039-9531-1aae39136a33"},"vehicle_type_id":"4","last_reported":1731604113,"current_range_meters":23200,"station_id":"","pricing_plan_id":"cebpf4jnsgd1na2vs0mg"},{"bike_id":"7ec04dc1-d274-4913-b79f-86740fd7fa94","system_id":"levelo_inurba_marseille","lat":43.25089,"lon":5.39528,"is_reserved":false,"is_disabled":false,"rental_uris":{"android":"levelo://app?vid=7ec04dc1-d274-4913-b79f-86740fd7fa94","ios":"levelo://app?vid=7ec04dc1-d274-4913-b79f-86740fd7fa94"},"vehicle_type_id":"4","last_reported":1731604113,"current_range_meters":6400,"station_id":"ce4bhm12rcd13ifvqgkg","pricing_plan_id":"cebpf4jnsgd1na2vs0mg"},{"bike_id":"3c4efd2f-3952-4f43-bc5f-5c06153b1ebb","system_id":"levelo_inurba_marseille","lat":43.3034,"lon":5.40451,"is_reserved":false,"is_disabled":false,"rental_uris":{"android":"levelo://app?vid=3c4efd2f-3952-4f43-bc5f-5c06153b1ebb","ios":"levelo://app?vid=3c4efd2f-3952-4f43-bc5f-5c06153b1ebb"},"vehicle_type_id":"4","last_reported":1731604113,"current_range_meters":20400,"station_id":"ce4bh012rcd13ifvqd10","pricing_plan_id":"cebpf4jnsgd1na2vs0mg"},{"bike_id":"4c12cf75-7fd0-47d7-9f2f-e7988ab93f7e","system_id":"levelo_inurba_marseille","lat":43.24164,"lon":5.36402,"is_reserved":false,"is_disabled":false,"rental_uris":{"android":"levelo://app?vid=4c12cf75-7fd0-47d7-9f2f-e7988ab93f7e","ios":"levelo://app?vid=4c12cf75-7fd0-47d7-9f2f-e7988ab93f7e"},"vehicle_type_id":"4","last_reported":1731604113,"current_range_meters":17200,"station_id":"cpo36qri1sfpv3e86is0","pricing_plan_id":"cebpf4jnsgd1na2vs0mg"},{"bike_id":"92ac4858-87d6-4ceb-8f6e-004635a816a8","system_id":"levelo_inurba_marseille","lat":43.27789,"lon":5.40737,"is_reserved":false,"is_disabled":false,"rental_uris":{"android":"levelo://app?vid=92ac4858-87d6-4ceb-8f6e-004635a816a8","ios":"levelo://app?vid=92ac4858-87d6-4ceb-8f6e-004635a816a8"},"vehicle_type_id":"4","last_reported":1731604113,"current_range_meters":38800,"station_id":"ce4bhnh2rcd13ifvqgtg","pricing_plan_id":"cebpf4jnsgd1na2vs0mg"},{"bike_id":"99353895-a486-4d8e-b4c6-e4a55df30a7b","system_id":"levelo_inurba_marseille","lat":43.30949,"lon":5.39026,"is_reserved":false,"is_disabled":false,"rental_uris":{"android":"levelo://app?vid=99353895-a486-4d8e-b4c6-e4a55df30a7b","ios":"levelo://app?vid=99353895-a486-4d8e-b4c6-e4a55df30a7b"},"vehicle_type_id":"4","last_reported":1731604113,"current_range_meters":32000,"station_id":"ce4bgup2rcd13ifvqco0","pricing_plan_id":"cebpf4jnsgd1na2vs0mg"},{"bike_id":"d72eb27f-2e8e-4049-8f91-a091f5c007f5","system_id":"levelo_inurba_marseille","lat":43.27946,"lon":5.41049,"is_reserved":false,"is_disabled":false,"rental_uris":{"android":"levelo://app?vid=d72eb27f-2e8e-4049-8f91-a091f5c007f5","ios":"levelo://app?vid=d72eb27f-2e8e-4049-8f91-a091f5c007f5"},"vehicle_type_id":"4","last_reported":1731604113,"current_range_meters":26800,"station_id":"ce4bhnp2rcd13ifvqh0g","pricing_plan_id":"cebpf4jnsgd1na2vs0mg"},{"bike_id":"35525e60-8448-4bd5-b6ae-b21a0105ea69","system_id":"levelo_inurba_marseille","lat":43.26551,"lon":5.3729,"is_reserved":false,"is_disabled":false,"rental_uris":{"android":"levelo://app?vid=35525e60-8448-4bd5-b6ae-b21a0105ea69","ios":"levelo://app?vid=35525e60-8448-4bd5-b6ae-b21a0105ea69"},"vehicle_type_id":"4","last_reported":1731604113,"current_range_meters":30800,"station_id":"ce4bhg12rcd13ifvqf70","pricing_plan_id":"cebpf4jnsgd1na2vs0mg"},{"bike_id":"6ed12a03-f18e-4c7e-9652-63b8a6bdb5dd","system_id":"levelo_inurba_marseille","lat":43.287079,"lon":5.37383,"is_reserved":false,"is_disabled":false,"rental_uris":{"android":"levelo://app?vid=6ed12a03-f18e-4c7e-9652-63b8a6bdb5dd","ios":"levelo://app?vid=6ed12a03-f18e-4c7e-9652-63b8a6bdb5dd"},"vehicle_type_id":"4","last_reported":1731604113,"current_range_meters":17200,"station_id":"ce4bh3p2rcd13ifvqdq0","pricing_plan_id":"cebpf4jnsgd1na2vs0mg"},{"bike_id":"8835e575-b2e3-4621-b695-81f9c9a8d2a1","system_id":"levelo_inurba_marseille","lat":43.254792,"lon":5.374763,"is_reserved":false,"is_disabled":false,"rental_uris":{"android":"levelo://app?vid=8835e575-b2e3-4621-b695-81f9c9a8d2a1","ios":"levelo://app?vid=8835e575-b2e3-4621-b695-81f9c9a8d2a1"},"vehicle_type_id":"4","last_reported":1731604113,"current_range_meters":39200,"station_id":"ce4bhgh2rcd13ifvqfa0","pricing_plan_id":"cebpf4jnsgd1na2vs0mg"},{"bike_id":"0f433459-e074-4293-bfa5-3b5b113abeb1","system_id":"levelo_inurba_marseille","lat":43.33727,"lon":5.39188,"is_reserved":false,"is_disabled":false,"rental_uris":{"android":"levelo://app?vid=0f433459-e074-4293-bfa5-3b5b113abeb1","ios":"levelo://app?vid=0f433459-e074-4293-bfa5-3b5b113abeb1"},"vehicle_type_id":"4","last_reported":1731604113,"current_range_meters":40000,"station_id":"ce4bhr92rcd13ifvqhsg","pricing_plan_id":"cebpf4jnsgd1na2vs0mg"},{"bike_id":"e7b3f9b2-8627-4344-80f1-d1085a4c850d","system_id":"levelo_inurba_marseille","lat":43.29537,"lon":5.37507,"is_reserved":false,"is_disabled":false,"rental_uris":{"android":"levelo://app?vid=e7b3f9b2-8627-4344-80f1-d1085a4c850d","ios":"levelo://app?vid=e7b3f9b2-8627-4344-80f1-d1085a4c850d"},"vehicle_type_id":"4","last_reported":1731604113,"current_range_meters":400,"station_id":"ce4bgkp2rcd13ifvqbmg","pricing_plan_id":"cebpf4jnsgd1na2vs0mg"},{"bike_id":"2886128d-fbbb-438c-87be-d5561cf18777","system_id":"levelo_inurba_marseille","lat":43.31323,"lon":5.397,"is_reserved":false,"is_disabled":false,"rental_uris":{"android":"levelo://app?vid=2886128d-fbbb-438c-87be-d5561cf18777","ios":"levelo://app?vid=2886128d-fbbb-438c-87be-d5561cf18777"},"vehicle_type_id":"4","last_reported":1731604113,"current_range_meters":4400,"station_id":"ce4bgvp2rcd13ifvqcu0","pricing_plan_id":"cebpf4jnsgd1na2vs0mg"},{"bike_id":"b4e89eb6-30d1-4f6d-af30-72583841c21a","system_id":"levelo_inurba_marseille","lat":43.3014,"lon":5.37427,"is_reserved":false,"is_disabled":false,"rental_uris":{"android":"levelo://app?vid=b4e89eb6-30d1-4f6d-af30-72583841c21a","ios":"levelo://app?vid=b4e89eb6-30d1-4f6d-af30-72583841c21a"},"vehicle_type_id":"4","last_reported":1731604113,"current_range_meters":35200,"station_id":"ce4bgs92rcd13ifvqcc0","pricing_plan_id":"cebpf4jnsgd1na2vs0mg"},{"bike_id":"2260b08b-e51a-4f71-aab9-a20c91cd8504","system_id":"levelo_inurba_marseille","lat":43.2738,"lon":5.36261,"is_reserved":false,"is_disabled":false,"rental_uris":{"android":"levelo://app?vid=2260b08b-e51a-4f71-aab9-a20c91cd8504","ios":"levelo://app?vid=2260b08b-e51a-4f71-aab9-a20c91cd8504"},"vehicle_type_id":"4","last_reported":1731604113,"current_range_meters":40000,"station_id":"ce4bhbh2rcd13ifvqeo0","pricing_plan_id":"cebpf4jnsgd1na2vs0mg"},{"bike_id":"b448c76e-6a85-4e4e-8af8-7d9249501502","system_id":"levelo_inurba_marseille","lat":43.337444,"lon":5.374475,"is_reserved":false,"is_disabled":false,"rental_uris":{"android":"levelo://app?vid=b448c76e-6a85-4e4e-8af8-7d9249501502","ios":"levelo://app?vid=b448c76e-6a85-4e4e-8af8-7d9249501502"},"vehicle_type_id":"4","last_reported":1731604113,"current_range_meters":32400,"station_id":"","pricing_plan_id":"cebpf4jnsgd1na2vs0mg"},{"bike_id":"27180a1a-1e8e-44cf-be67-76727484dd68","system_id":"levelo_inurba_marseille","lat":43.32363,"lon":5.38887,"is_reserved":false,"is_disabled":false,"rental_uris":{"android":"levelo://app?vid=27180a1a-1e8e-44cf-be67-76727484dd68","ios":"levelo://app?vid=27180a1a-1e8e-44cf-be67-76727484dd68"},"vehicle_type_id":"4","last_reported":1731604113,"current_range_meters":38800,"station_id":"ce4bhqp2rcd13ifvqhog","pricing_plan_id":"cebpf4jnsgd1na2vs0mg"},{"bike_id":"711c4ef8-973c-4e53-ba75-ecac46f2ce47","system_id":"levelo_inurba_marseille","lat":43.25726,"lon":5.41111,"is_reserved":false,"is_disabled":false,"rental_uris":{"android":"levelo://app?vid=711c4ef8-973c-4e53-ba75-ecac46f2ce47","ios":"levelo://app?vid=711c4ef8-973c-4e53-ba75-ecac46f2ce47"},"vehicle_type_id":"4","last_reported":1731604113,"current_range_meters":6400,"station_id":"ce4bhkp2rcd13ifvqgd0","pricing_plan_id":"cebpf4jnsgd1na2vs0mg"},{"bike_id":"94cabd10-ff82-416e-a941-cac85d1872d2","system_id":"levelo_inurba_marseille","lat":43.29421,"lon":5.38634,"is_reserved":false,"is_disabled":false,"rental_uris":{"android":"levelo://app?vid=94cabd10-ff82-416e-a941-cac85d1872d2","ios":"levelo://app?vid=94cabd10-ff82-416e-a941-cac85d1872d2"},"vehicle_type_id":"4","last_reported":1731604113,"current_range_meters":36400,"station_id":"ce4bh2h2rcd13ifvqdh0","pricing_plan_id":"cebpf4jnsgd1na2vs0mg"},{"bike_id":"71675479-65a3-432e-900f-c13f815182ff","system_id":"levelo_inurba_marseille","lat":43.29657,"lon":5.40621,"is_reserved":false,"is_disabled":false,"rental_uris":{"android":"levelo://app?vid=71675479-65a3-432e-900f-c13f815182ff","ios":"levelo://app?vid=71675479-65a3-432e-900f-c13f815182ff"},"vehicle_type_id":"4","last_reported":1731604113,"current_range_meters":16400,"station_id":"ce4bh0h2rcd13ifvqd60","pricing_plan_id":"cebpf4jnsgd1na2vs0mg"},{"bike_id":"c0ac7973-0dac-4370-8288-712e1ffb43f9","system_id":"levelo_inurba_marseille","lat":43.23966,"lon":5.36636,"is_reserved":false,"is_disabled":false,"rental_uris":{"android":"levelo://app?vid=c0ac7973-0dac-4370-8288-712e1ffb43f9","ios":"levelo://app?vid=c0ac7973-0dac-4370-8288-712e1ffb43f9"},"vehicle_type_id":"4","last_reported":1731604113,"current_range_meters":34000,"station_id":"ce4bhi12rcd13ifvqfp0","pricing_plan_id":"cebpf4jnsgd1na2vs0mg"},{"bike_id":"66d54d21-a883-48f6-a5d7-7fc4b4534cee","system_id":"levelo_inurba_marseille","lat":43.29967,"lon":5.38503,"is_reserved":false,"is_disabled":false,"rental_uris":{"android":"levelo://app?vid=66d54d21-a883-48f6-a5d7-7fc4b4534cee","ios":"levelo://app?vid=66d54d21-a883-48f6-a5d7-7fc4b4534cee"},"vehicle_type_id":"4","last_reported":1731604113,"current_range_meters":36400,"station_id":"ce4bgj92rcd13ifvqbd0","pricing_plan_id":"cebpf4jnsgd1na2vs0mg"},{"bike_id":"13771506-2b97-40a6-b585-70ca9b6872bb","system_id":"levelo_inurba_marseille","lat":43.2942,"lon":5.38622,"is_reserved":false,"is_disabled":false,"rental_uris":{"android":"levelo://app?vid=13771506-2b97-40a6-b585-70ca9b6872bb","ios":"levelo://app?vid=13771506-2b97-40a6-b585-70ca9b6872bb"},"vehicle_type_id":"4","last_reported":1731604113,"current_range_meters":10800,"station_id":"ce4bh2h2rcd13ifvqdh0","pricing_plan_id":"cebpf4jnsgd1na2vs0mg"},{"bike_id":"51dfc62a-c40c-4a49-aacb-cdbfb4131a6b","system_id":"levelo_inurba_marseille","lat":43.29649,"lon":5.37648,"is_reserved":false,"is_disabled":false,"rental_uris":{"android":"levelo://app?vid=51dfc62a-c40c-4a49-aacb-cdbfb4131a6b","ios":"levelo://app?vid=51dfc62a-c40c-4a49-aacb-cdbfb4131a6b"},"vehicle_type_id":"4","last_reported":1731604113,"current_range_meters":20400,"station_id":"","pricing_plan_id":"cebpf4jnsgd1na2vs0mg"},{"bike_id":"bf88a884-7a26-4f8a-9b2a-0c7226852270","system_id":"levelo_inurba_marseille","lat":43.30805,"lon":5.43522,"is_reserved":false,"is_disabled":false,"rental_uris":{"android":"levelo://app?vid=bf88a884-7a26-4f8a-9b2a-0c7226852270","ios":"levelo://app?vid=bf88a884-7a26-4f8a-9b2a-0c7226852270"},"vehicle_type_id":"4","last_reported":1731604113,"current_range_meters":4000,"station_id":"ce4bhph2rcd13ifvqheg","pricing_plan_id":"cebpf4jnsgd1na2vs0mg"},{"bike_id":"9d594b81-6d70-4738-a736-9fd38e9ad548","system_id":"levelo_inurba_marseille","lat":43.29555,"lon":5.42295,"is_reserved":false,"is_disabled":false,"rental_uris":{"android":"levelo://app?vid=9d594b81-6d70-4738-a736-9fd38e9ad548","ios":"levelo://app?vid=9d594b81-6d70-4738-a736-9fd38e9ad548"},"vehicle_type_id":"4","last_reported":1731604113,"current_range_meters":27600,"station_id":"ce4bhph2rcd13ifvqhdg","pricing_plan_id":"cebpf4jnsgd1na2vs0mg"},{"bike_id":"f98b4a1a-12af-40dc-bb53-2e710513cc5a","system_id":"levelo_inurba_marseille","lat":43.25831,"lon":5.3944,"is_reserved":false,"is_disabled":false,"rental_uris":{"android":"levelo://app?vid=f98b4a1a-12af-40dc-bb53-2e710513cc5a","ios":"levelo://app?vid=f98b4a1a-12af-40dc-bb53-2e710513cc5a"},"vehicle_type_id":"4","last_reported":1731604113,"current_range_meters":28400,"station_id":"ce4bhip2rcd13ifvqft0","pricing_plan_id":"cebpf4jnsgd1na2vs0mg"},{"bike_id":"0e74c824-c081-43cc-ac2c-550aea206df5","system_id":"levelo_inurba_marseille","lat":43.29262,"lon":5.40906,"is_reserved":false,"is_disabled":false,"rental_uris":{"android":"levelo://app?vid=0e74c824-c081-43cc-ac2c-550aea206df5","ios":"levelo://app?vid=0e74c824-c081-43cc-ac2c-550aea206df5"},"vehicle_type_id":"4","last_reported":1731604113,"current_range_meters":19200,"station_id":"ce4bh192rcd13ifvqdc0","pricing_plan_id":"cebpf4jnsgd1na2vs0mg"},{"bike_id":"6ce0c528-fc1c-4f5e-9e04-d64ebd9b4957","system_id":"levelo_inurba_marseille","lat":43.31747,"lon":5.37244,"is_reserved":false,"is_disabled":false,"rental_uris":{"android":"levelo://app?vid=6ce0c528-fc1c-4f5e-9e04-d64ebd9b4957","ios":"levelo://app?vid=6ce0c528-fc1c-4f5e-9e04-d64ebd9b4957"},"vehicle_type_id":"4","last_reported":1731604113,"current_range_meters":8400,"station_id":"ce4bhrh2rcd13ifvqhug","pricing_plan_id":"cebpf4jnsgd1na2vs0mg"},{"bike_id":"21ce1c77-838b-4190-a766-99af14898544","system_id":"levelo_inurba_marseille","lat":43.26551,"lon":5.37287,"is_reserved":false,"is_disabled":false,"rental_uris":{"android":"levelo://app?vid=21ce1c77-838b-4190-a766-99af14898544","ios":"levelo://app?vid=21ce1c77-838b-4190-a766-99af14898544"},"vehicle_type_id":"4","last_reported":1731604113,"current_range_meters":34000,"station_id":"ce4bhg12rcd13ifvqf70","pricing_plan_id":"cebpf4jnsgd1na2vs0mg"},{"bike_id":"711c5d8a-4b5b-411c-9636-440ba333bcfd","system_id":"levelo_inurba_marseille","lat":43.31168,"lon":5.38721,"is_reserved":false,"is_disabled":false,"rental_uris":{"android":"levelo://app?vid=711c5d8a-4b5b-411c-9636-440ba333bcfd","ios":"levelo://app?vid=711c5d8a-4b5b-411c-9636-440ba333bcfd"},"vehicle_type_id":"4","last_reported":1731604113,"current_range_meters":31200,"station_id":"ce4bgv12rcd13ifvqcp0","pricing_plan_id":"cebpf4jnsgd1na2vs0mg"},{"bike_id":"0423a617-13eb-4e2b-9861-fbd4c1e692e7","system_id":"levelo_inurba_marseille","lat":43.29423,"lon":5.38623,"is_reserved":false,"is_disabled":false,"rental_uris":{"android":"levelo://app?vid=0423a617-13eb-4e2b-9861-fbd4c1e692e7","ios":"levelo://app?vid=0423a617-13eb-4e2b-9861-fbd4c1e692e7"},"vehicle_type_id":"4","last_reported":1731604113,"current_range_meters":28400,"station_id":"ce4bh2h2rcd13ifvqdh0","pricing_plan_id":"cebpf4jnsgd1na2vs0mg"},{"bike_id":"e43f30db-eac4-444e-97a3-d723978f1748","system_id":"levelo_inurba_marseille","lat":43.2981,"lon":5.42663,"is_reserved":false,"is_disabled":false,"rental_uris":{"android":"levelo://app?vid=e43f30db-eac4-444e-97a3-d723978f1748","ios":"levelo://app?vid=e43f30db-eac4-444e-97a3-d723978f1748"},"vehicle_type_id":"4","last_reported":1731604113,"current_range_meters":27200,"station_id":"","pricing_plan_id":"cebpf4jnsgd1na2vs0mg"},{"bike_id":"0087d9a4-f485-474a-b304-6e7f31225ef9","system_id":"levelo_inurba_marseille","lat":43.31485,"lon":5.37314,"is_reserved":false,"is_disabled":false,"rental_uris":{"android":"levelo://app?vid=0087d9a4-f485-474a-b304-6e7f31225ef9","ios":"levelo://app?vid=0087d9a4-f485-474a-b304-6e7f31225ef9"},"vehicle_type_id":"4","last_reported":1731604113,"current_range_meters":28800,"station_id":"ce4bgt12rcd13ifvqcd0","pricing_plan_id":"cebpf4jnsgd1na2vs0mg"},{"bike_id":"fe7d3ec4-e40f-4e62-9b1b-a6351890300e","system_id":"levelo_inurba_marseille","lat":43.311664,"lon":5.387214,"is_reserved":false,"is_disabled":false,"rental_uris":{"android":"levelo://app?vid=fe7d3ec4-e40f-4e62-9b1b-a6351890300e","ios":"levelo://app?vid=fe7d3ec4-e40f-4e62-9b1b-a6351890300e"},"vehicle_type_id":"4","last_reported":1731604113,"current_range_meters":38800,"station_id":"ce4bgv12rcd13ifvqcp0","pricing_plan_id":"cebpf4jnsgd1na2vs0mg"},{"bike_id":"48aad295-87ad-4973-a3ff-a074ad691fcc","system_id":"levelo_inurba_marseille","lat":43.25935,"lon":5.40914,"is_reserved":false,"is_disabled":false,"rental_uris":{"android":"levelo://app?vid=48aad295-87ad-4973-a3ff-a074ad691fcc","ios":"levelo://app?vid=48aad295-87ad-4973-a3ff-a074ad691fcc"},"vehicle_type_id":"4","last_reported":1731604113,"current_range_meters":38000,"station_id":"ce4bhm92rcd13ifvqglg","pricing_plan_id":"cebpf4jnsgd1na2vs0mg"},{"bike_id":"653ad339-5ed5-4b74-a326-3b5f1bd97bf6","system_id":"levelo_inurba_marseille","lat":43.32341,"lon":5.40627,"is_reserved":false,"is_disabled":false,"rental_uris":{"android":"levelo://app?vid=653ad339-5ed5-4b74-a326-3b5f1bd97bf6","ios":"levelo://app?vid=653ad339-5ed5-4b74-a326-3b5f1bd97bf6"},"vehicle_type_id":"4","last_reported":1731604113,"current_range_meters":38800,"station_id":"ce4bhq92rcd13ifvqhjg","pricing_plan_id":"cebpf4jnsgd1na2vs0mg"},{"bike_id":"bb522734-48ce-4de6-8330-a5f77169e2f2","system_id":"levelo_inurba_marseille","lat":43.29901,"lon":5.43675,"is_reserved":false,"is_disabled":false,"rental_uris":{"android":"levelo://app?vid=bb522734-48ce-4de6-8330-a5f77169e2f2","ios":"levelo://app?vid=bb522734-48ce-4de6-8330-a5f77169e2f2"},"vehicle_type_id":"4","last_reported":1731604113,"current_range_meters":15200,"station_id":"ce4bhpp2rcd13ifvqhfg","pricing_plan_id":"cebpf4jnsgd1na2vs0mg"},{"bike_id":"dc5e5b9b-d3c4-4af4-b5f6-fb9261a8da85","system_id":"levelo_inurba_marseille","lat":43.31728,"lon":5.42408,"is_reserved":false,"is_disabled":false,"rental_uris":{"android":"levelo://app?vid=dc5e5b9b-d3c4-4af4-b5f6-fb9261a8da85","ios":"levelo://app?vid=dc5e5b9b-d3c4-4af4-b5f6-fb9261a8da85"},"vehicle_type_id":"4","last_reported":1731604113,"current_range_meters":37600,"station_id":"ce4bhp92rcd13ifvqhbg","pricing_plan_id":"cebpf4jnsgd1na2vs0mg"},{"bike_id":"0cad5a7d-5aed-4ec1-b410-637b567df6b8","system_id":"levelo_inurba_marseille","lat":43.33726,"lon":5.39192,"is_reserved":false,"is_disabled":false,"rental_uris":{"android":"levelo://app?vid=0cad5a7d-5aed-4ec1-b410-637b567df6b8","ios":"levelo://app?vid=0cad5a7d-5aed-4ec1-b410-637b567df6b8"},"vehicle_type_id":"4","last_reported":1731604113,"current_range_meters":18800,"station_id":"ce4bhr92rcd13ifvqhsg","pricing_plan_id":"cebpf4jnsgd1na2vs0mg"},{"bike_id":"f6ccec43-3e72-4225-a1e7-d05faee26b91","system_id":"levelo_inurba_marseille","lat":43.2417,"lon":5.36402,"is_reserved":false,"is_disabled":false,"rental_uris":{"android":"levelo://app?vid=f6ccec43-3e72-4225-a1e7-d05faee26b91","ios":"levelo://app?vid=f6ccec43-3e72-4225-a1e7-d05faee26b91"},"vehicle_type_id":"4","last_reported":1731604113,"current_range_meters":27600,"station_id":"cpo36qri1sfpv3e86is0","pricing_plan_id":"cebpf4jnsgd1na2vs0mg"},{"bike_id":"9a2a8f3e-abc5-425f-a3a6-279cf2747c5e","system_id":"levelo_inurba_marseille","lat":43.2962,"lon":5.37158,"is_reserved":false,"is_disabled":false,"rental_uris":{"android":"levelo://app?vid=9a2a8f3e-abc5-425f-a3a6-279cf2747c5e","ios":"levelo://app?vid=9a2a8f3e-abc5-425f-a3a6-279cf2747c5e"},"vehicle_type_id":"4","last_reported":1731604113,"current_range_meters":26000,"station_id":"ce4bgnh2rcd13ifvqc0g","pricing_plan_id":"cebpf4jnsgd1na2vs0mg"},{"bike_id":"e2d9cbb7-0828-4fda-bafe-78bd418d9f67","system_id":"levelo_inurba_marseille","lat":43.284513,"lon":5.391986,"is_reserved":false,"is_disabled":false,"rental_uris":{"android":"levelo://app?vid=e2d9cbb7-0828-4fda-bafe-78bd418d9f67","ios":"levelo://app?vid=e2d9cbb7-0828-4fda-bafe-78bd418d9f67"},"vehicle_type_id":"4","last_reported":1731604113,"current_range_meters":28800,"station_id":"ce4bhoh2rcd13ifvqh5g","pricing_plan_id":"cebpf4jnsgd1na2vs0mg"},{"bike_id":"d7098fe7-f5b3-4015-afaf-edcb26d669dc","system_id":"levelo_inurba_marseille","lat":43.32102,"lon":5.36776,"is_reserved":false,"is_disabled":false,"rental_uris":{"android":"levelo://app?vid=d7098fe7-f5b3-4015-afaf-edcb26d669dc","ios":"levelo://app?vid=d7098fe7-f5b3-4015-afaf-edcb26d669dc"},"vehicle_type_id":"4","last_reported":1731604113,"current_range_meters":36800,"station_id":"ce4bhrh2rcd13ifvqhug","pricing_plan_id":"cebpf4jnsgd1na2vs0mg"},{"bike_id":"724db392-7a2e-4cbf-8688-9b79179af0d8","system_id":"levelo_inurba_marseille","lat":43.30607,"lon":5.3725,"is_reserved":false,"is_disabled":false,"rental_uris":{"android":"levelo://app?vid=724db392-7a2e-4cbf-8688-9b79179af0d8","ios":"levelo://app?vid=724db392-7a2e-4cbf-8688-9b79179af0d8"},"vehicle_type_id":"4","last_reported":1731604113,"current_range_meters":38800,"station_id":"ce4bgqh2rcd13ifvqc4g","pricing_plan_id":"cebpf4jnsgd1na2vs0mg"},{"bike_id":"52519200-9ffb-4289-a44d-986fbbe19179","system_id":"levelo_inurba_marseille","lat":43.28736,"lon":5.361,"is_reserved":false,"is_disabled":false,"rental_uris":{"android":"levelo://app?vid=52519200-9ffb-4289-a44d-986fbbe19179","ios":"levelo://app?vid=52519200-9ffb-4289-a44d-986fbbe19179"},"vehicle_type_id":"4","last_reported":1731604113,"current_range_meters":34000,"station_id":"cki0cbj6b192h4jlfktg","pricing_plan_id":"cebpf4jnsgd1na2vs0mg"},{"bike_id":"433c5a1f-116a-48e5-bd4f-ba3034e2b38b","system_id":"levelo_inurba_marseille","lat":43.28617,"lon":5.35105,"is_reserved":false,"is_disabled":false,"rental_uris":{"android":"levelo://app?vid=433c5a1f-116a-48e5-bd4f-ba3034e2b38b","ios":"levelo://app?vid=433c5a1f-116a-48e5-bd4f-ba3034e2b38b"},"vehicle_type_id":"4","last_reported":1731604113,"current_range_meters":33200,"station_id":"ce4bhch2rcd13ifvqeug","pricing_plan_id":"cebpf4jnsgd1na2vs0mg"},{"bike_id":"fe34e79d-89a4-4c9d-9e26-e258e0391b41","system_id":"levelo_inurba_marseille","lat":43.23168,"lon":5.39993,"is_reserved":false,"is_disabled":false,"rental_uris":{"android":"levelo://app?vid=fe34e79d-89a4-4c9d-9e26-e258e0391b41","ios":"levelo://app?vid=fe34e79d-89a4-4c9d-9e26-e258e0391b41"},"vehicle_type_id":"4","last_reported":1731604113,"current_range_meters":8800,"station_id":"ce4bhn12rcd13ifvqgqg","pricing_plan_id":"cebpf4jnsgd1na2vs0mg"},{"bike_id":"5fe9408b-88cd-4167-8a70-401fcc52dc53","system_id":"levelo_inurba_marseille","lat":43.27951,"lon":5.41043,"is_reserved":false,"is_disabled":false,"rental_uris":{"android":"levelo://app?vid=5fe9408b-88cd-4167-8a70-401fcc52dc53","ios":"levelo://app?vid=5fe9408b-88cd-4167-8a70-401fcc52dc53"},"vehicle_type_id":"4","last_reported":1731604113,"current_range_meters":19600,"station_id":"ce4bhnp2rcd13ifvqh0g","pricing_plan_id":"cebpf4jnsgd1na2vs0mg"},{"bike_id":"7a852c01-7e21-4f49-a45d-60382e4601b8","system_id":"levelo_inurba_marseille","lat":43.33722,"lon":5.39185,"is_reserved":false,"is_disabled":false,"rental_uris":{"android":"levelo://app?vid=7a852c01-7e21-4f49-a45d-60382e4601b8","ios":"levelo://app?vid=7a852c01-7e21-4f49-a45d-60382e4601b8"},"vehicle_type_id":"4","last_reported":1731604113,"current_range_meters":39200,"station_id":"ce4bhr92rcd13ifvqhsg","pricing_plan_id":"cebpf4jnsgd1na2vs0mg"},{"bike_id":"93103263-cd1f-4c3f-baaa-5f2edf3215e7","system_id":"levelo_inurba_marseille","lat":43.30417,"lon":5.41286,"is_reserved":false,"is_disabled":false,"rental_uris":{"android":"levelo://app?vid=93103263-cd1f-4c3f-baaa-5f2edf3215e7","ios":"levelo://app?vid=93103263-cd1f-4c3f-baaa-5f2edf3215e7"},"vehicle_type_id":"4","last_reported":1731604113,"current_range_meters":27600,"station_id":"ce4bhop2rcd13ifvqh8g","pricing_plan_id":"cebpf4jnsgd1na2vs0mg"},{"bike_id":"1f3b31e6-01db-471e-a3b7-57747f21813f","system_id":"levelo_inurba_marseille","lat":43.31118,"lon":5.3777,"is_reserved":false,"is_disabled":false,"rental_uris":{"android":"levelo://app?vid=1f3b31e6-01db-471e-a3b7-57747f21813f","ios":"levelo://app?vid=1f3b31e6-01db-471e-a3b7-57747f21813f"},"vehicle_type_id":"4","last_reported":1731604113,"current_range_meters":33600,"station_id":"ce4bgt92rcd13ifvqcg0","pricing_plan_id":"cebpf4jnsgd1na2vs0mg"},{"bike_id":"6c985a24-ba94-4113-a891-e9835602ca34","system_id":"levelo_inurba_marseille","lat":43.30324,"lon":5.40444,"is_reserved":false,"is_disabled":false,"rental_uris":{"android":"levelo://app?vid=6c985a24-ba94-4113-a891-e9835602ca34","ios":"levelo://app?vid=6c985a24-ba94-4113-a891-e9835602ca34"},"vehicle_type_id":"4","last_reported":1731604113,"current_range_meters":38800,"station_id":"ce4bh012rcd13ifvqd10","pricing_plan_id":"cebpf4jnsgd1na2vs0mg"},{"bike_id":"af3913db-c21e-437d-8c6c-3739f8574cfa","system_id":"levelo_inurba_marseille","lat":43.292799,"lon":5.401146,"is_reserved":false,"is_disabled":false,"rental_uris":{"android":"levelo://app?vid=af3913db-c21e-437d-8c6c-3739f8574cfa","ios":"levelo://app?vid=af3913db-c21e-437d-8c6c-3739f8574cfa"},"vehicle_type_id":"4","last_reported":1731604113,"current_range_meters":24800,"station_id":"","pricing_plan_id":"cebpf4jnsgd1na2vs0mg"},{"bike_id":"bbe1f28f-9dae-4d09-bdd9-e06b66de1ae2","system_id":"levelo_inurba_marseille","lat":43.29898,"lon":5.389,"is_reserved":false,"is_disabled":false,"rental_uris":{"android":"levelo://app?vid=bbe1f28f-9dae-4d09-bdd9-e06b66de1ae2","ios":"levelo://app?vid=bbe1f28f-9dae-4d09-bdd9-e06b66de1ae2"},"vehicle_type_id":"4","last_reported":1731604113,"current_range_meters":28000,"station_id":"ce4bh392rcd13ifvqdl0","pricing_plan_id":"cebpf4jnsgd1na2vs0mg"},{"bike_id":"51e3cf83-8ac8-4af1-935c-3bd83ab91396","system_id":"levelo_inurba_marseille","lat":43.3042,"lon":5.4129,"is_reserved":false,"is_disabled":false,"rental_uris":{"android":"levelo://app?vid=51e3cf83-8ac8-4af1-935c-3bd83ab91396","ios":"levelo://app?vid=51e3cf83-8ac8-4af1-935c-3bd83ab91396"},"vehicle_type_id":"4","last_reported":1731604113,"current_range_meters":16800,"station_id":"ce4bhop2rcd13ifvqh8g","pricing_plan_id":"cebpf4jnsgd1na2vs0mg"},{"bike_id":"d4cde2ca-7e67-44e0-9540-4275241f41e0","system_id":"levelo_inurba_marseille","lat":43.32363,"lon":5.3889,"is_reserved":false,"is_disabled":false,"rental_uris":{"android":"levelo://app?vid=d4cde2ca-7e67-44e0-9540-4275241f41e0","ios":"levelo://app?vid=d4cde2ca-7e67-44e0-9540-4275241f41e0"},"vehicle_type_id":"4","last_reported":1731604113,"current_range_meters":35600,"station_id":"ce4bhqp2rcd13ifvqhog","pricing_plan_id":"cebpf4jnsgd1na2vs0mg"},{"bike_id":"f5336fe6-5401-42b9-8784-37b651ec72a7","system_id":"levelo_inurba_marseille","lat":43.3042,"lon":5.41287,"is_reserved":false,"is_disabled":false,"rental_uris":{"android":"levelo://app?vid=f5336fe6-5401-42b9-8784-37b651ec72a7","ios":"levelo://app?vid=f5336fe6-5401-42b9-8784-37b651ec72a7"},"vehicle_type_id":"4","last_reported":1731604113,"current_range_meters":28800,"station_id":"ce4bhop2rcd13ifvqh8g","pricing_plan_id":"cebpf4jnsgd1na2vs0mg"},{"bike_id":"8d32c387-800c-4e8c-bbd5-b4fe89204c18","system_id":"levelo_inurba_marseille","lat":43.28457,"lon":5.35892,"is_reserved":false,"is_disabled":false,"rental_uris":{"android":"levelo://app?vid=8d32c387-800c-4e8c-bbd5-b4fe89204c18","ios":"levelo://app?vid=8d32c387-800c-4e8c-bbd5-b4fe89204c18"},"vehicle_type_id":"4","last_reported":1731604113,"current_range_meters":18800,"station_id":"ce4bhah2rcd13ifvqei0","pricing_plan_id":"cebpf4jnsgd1na2vs0mg"},{"bike_id":"4fff6634-0435-43e3-8bc4-78e627e5bbf9","system_id":"levelo_inurba_marseille","lat":43.30811,"lon":5.3815,"is_reserved":false,"is_disabled":false,"rental_uris":{"android":"levelo://app?vid=4fff6634-0435-43e3-8bc4-78e627e5bbf9","ios":"levelo://app?vid=4fff6634-0435-43e3-8bc4-78e627e5bbf9"},"vehicle_type_id":"4","last_reported":1731604113,"current_range_meters":30800,"station_id":"ce4bgt12rcd13ifvqce0","pricing_plan_id":"cebpf4jnsgd1na2vs0mg"},{"bike_id":"1a5ca2e4-8084-4123-8eba-3b0bf2142989","system_id":"levelo_inurba_marseille","lat":43.32341,"lon":5.40625,"is_reserved":false,"is_disabled":false,"rental_uris":{"android":"levelo://app?vid=1a5ca2e4-8084-4123-8eba-3b0bf2142989","ios":"levelo://app?vid=1a5ca2e4-8084-4123-8eba-3b0bf2142989"},"vehicle_type_id":"4","last_reported":1731604113,"current_range_meters":24000,"station_id":"ce4bhq92rcd13ifvqhjg","pricing_plan_id":"cebpf4jnsgd1na2vs0mg"},{"bike_id":"229b4553-6cc2-47c1-b81e-45bf480c8162","system_id":"levelo_inurba_marseille","lat":43.300425,"lon":5.396682,"is_reserved":false,"is_disabled":false,"rental_uris":{"android":"levelo://app?vid=229b4553-6cc2-47c1-b81e-45bf480c8162","ios":"levelo://app?vid=229b4553-6cc2-47c1-b81e-45bf480c8162"},"vehicle_type_id":"4","last_reported":1731604113,"current_range_meters":36400,"station_id":"","pricing_plan_id":"cebpf4jnsgd1na2vs0mg"},{"bike_id":"83bc17b0-5d73-4079-9983-4352646a88ae","system_id":"levelo_inurba_marseille","lat":43.29979,"lon":5.37178,"is_reserved":false,"is_disabled":false,"rental_uris":{"android":"levelo://app?vid=83bc17b0-5d73-4079-9983-4352646a88ae","ios":"levelo://app?vid=83bc17b0-5d73-4079-9983-4352646a88ae"},"vehicle_type_id":"4","last_reported":1731604113,"current_range_meters":38400,"station_id":"ce4bgr92rcd13ifvqc7g","pricing_plan_id":"cebpf4jnsgd1na2vs0mg"},{"bike_id":"ce163244-1295-4de7-b7a7-9e87e359900b","system_id":"levelo_inurba_marseille","lat":43.29198,"lon":5.39323,"is_reserved":false,"is_disabled":false,"rental_uris":{"android":"levelo://app?vid=ce163244-1295-4de7-b7a7-9e87e359900b","ios":"levelo://app?vid=ce163244-1295-4de7-b7a7-9e87e359900b"},"vehicle_type_id":"4","last_reported":1731604113,"current_range_meters":28000,"station_id":"ce4bh192rcd13ifvqdd0","pricing_plan_id":"cebpf4jnsgd1na2vs0mg"},{"bike_id":"42aeccb5-34f7-4888-8d0c-0adc9db39bb0","system_id":"levelo_inurba_marseille","lat":43.31754,"lon":5.39012,"is_reserved":false,"is_disabled":false,"rental_uris":{"android":"levelo://app?vid=42aeccb5-34f7-4888-8d0c-0adc9db39bb0","ios":"levelo://app?vid=42aeccb5-34f7-4888-8d0c-0adc9db39bb0"},"vehicle_type_id":"4","last_reported":1731604113,"current_range_meters":12400,"station_id":"ce4bhqp2rcd13ifvqhng","pricing_plan_id":"cebpf4jnsgd1na2vs0mg"},{"bike_id":"c4b24110-a9aa-4730-adf5-6f6c3a62ddd8","system_id":"levelo_inurba_marseille","lat":43.30328,"lon":5.39194,"is_reserved":false,"is_disabled":false,"rental_uris":{"android":"levelo://app?vid=c4b24110-a9aa-4730-adf5-6f6c3a62ddd8","ios":"levelo://app?vid=c4b24110-a9aa-4730-adf5-6f6c3a62ddd8"},"vehicle_type_id":"4","last_reported":1731604113,"current_range_meters":32800,"station_id":"ce4bh0p2rcd13ifvqd80","pricing_plan_id":"cebpf4jnsgd1na2vs0mg"},{"bike_id":"a50ae7be-1a9f-477e-9137-a5af5b7becd7","system_id":"levelo_inurba_marseille","lat":43.337444,"lon":5.374475,"is_reserved":false,"is_disabled":false,"rental_uris":{"android":"levelo://app?vid=a50ae7be-1a9f-477e-9137-a5af5b7becd7","ios":"levelo://app?vid=a50ae7be-1a9f-477e-9137-a5af5b7becd7"},"vehicle_type_id":"4","last_reported":1731604113,"current_range_meters":27200,"station_id":"","pricing_plan_id":"cebpf4jnsgd1na2vs0mg"},{"bike_id":"76cacc5d-dbfd-4788-ad44-34c11fecbb7e","system_id":"levelo_inurba_marseille","lat":43.2951,"lon":5.3941,"is_reserved":false,"is_disabled":false,"rental_uris":{"android":"levelo://app?vid=76cacc5d-dbfd-4788-ad44-34c11fecbb7e","ios":"levelo://app?vid=76cacc5d-dbfd-4788-ad44-34c11fecbb7e"},"vehicle_type_id":"4","last_reported":1731604113,"current_range_meters":16400,"station_id":"ce4bh292rcd13ifvqdf0","pricing_plan_id":"cebpf4jnsgd1na2vs0mg"},{"bike_id":"f81dd60b-8f8a-4133-bf53-b4849a5aa335","system_id":"levelo_inurba_marseille","lat":43.2942,"lon":5.38627,"is_reserved":false,"is_disabled":false,"rental_uris":{"android":"levelo://app?vid=f81dd60b-8f8a-4133-bf53-b4849a5aa335","ios":"levelo://app?vid=f81dd60b-8f8a-4133-bf53-b4849a5aa335"},"vehicle_type_id":"4","last_reported":1731604113,"current_range_meters":8000,"station_id":"ce4bh2h2rcd13ifvqdh0","pricing_plan_id":"cebpf4jnsgd1na2vs0mg"},{"bike_id":"ce711a03-4eb5-4379-8eb0-f06a998f49d0","system_id":"levelo_inurba_marseille","lat":43.2942,"lon":5.3863,"is_reserved":false,"is_disabled":false,"rental_uris":{"android":"levelo://app?vid=ce711a03-4eb5-4379-8eb0-f06a998f49d0","ios":"levelo://app?vid=ce711a03-4eb5-4379-8eb0-f06a998f49d0"},"vehicle_type_id":"4","last_reported":1731604113,"current_range_meters":9200,"station_id":"ce4bh2h2rcd13ifvqdh0","pricing_plan_id":"cebpf4jnsgd1na2vs0mg"},{"bike_id":"7315a67f-7243-49b0-bec0-64b299268cb0","system_id":"levelo_inurba_marseille","lat":43.28462,"lon":5.35894,"is_reserved":false,"is_disabled":false,"rental_uris":{"android":"levelo://app?vid=7315a67f-7243-49b0-bec0-64b299268cb0","ios":"levelo://app?vid=7315a67f-7243-49b0-bec0-64b299268cb0"},"vehicle_type_id":"4","last_reported":1731604113,"current_range_meters":19200,"station_id":"ce4bhah2rcd13ifvqei0","pricing_plan_id":"cebpf4jnsgd1na2vs0mg"},{"bike_id":"63f9a620-a534-4e6d-8f1e-83b8808bc881","system_id":"levelo_inurba_marseille","lat":43.3014,"lon":5.38072,"is_reserved":false,"is_disabled":false,"rental_uris":{"android":"levelo://app?vid=63f9a620-a534-4e6d-8f1e-83b8808bc881","ios":"levelo://app?vid=63f9a620-a534-4e6d-8f1e-83b8808bc881"},"vehicle_type_id":"4","last_reported":1731604113,"current_range_meters":22800,"station_id":"ce4bgjp2rcd13ifvqbh0","pricing_plan_id":"cebpf4jnsgd1na2vs0mg"},{"bike_id":"86cda970-a4ab-44ef-81e1-49487adc323a","system_id":"levelo_inurba_marseille","lat":43.29173,"lon":5.37136,"is_reserved":false,"is_disabled":false,"rental_uris":{"android":"levelo://app?vid=86cda970-a4ab-44ef-81e1-49487adc323a","ios":"levelo://app?vid=86cda970-a4ab-44ef-81e1-49487adc323a"},"vehicle_type_id":"4","last_reported":1731604113,"current_range_meters":38400,"station_id":"ce4bha92rcd13ifvqeh0","pricing_plan_id":"cebpf4jnsgd1na2vs0mg"},{"bike_id":"f3c9bb9b-ee81-4a67-9821-cc769330474f","system_id":"levelo_inurba_marseille","lat":43.30459,"lon":5.37908,"is_reserved":false,"is_disabled":false,"rental_uris":{"android":"levelo://app?vid=f3c9bb9b-ee81-4a67-9821-cc769330474f","ios":"levelo://app?vid=f3c9bb9b-ee81-4a67-9821-cc769330474f"},"vehicle_type_id":"4","last_reported":1731604113,"current_range_meters":4800,"station_id":"ce4bgup2rcd13ifvqcn0","pricing_plan_id":"cebpf4jnsgd1na2vs0mg"},{"bike_id":"f093fe34-ea0a-4dfa-8795-fe02dd6bd578","system_id":"levelo_inurba_marseille","lat":43.30095,"lon":5.39071,"is_reserved":false,"is_disabled":false,"rental_uris":{"android":"levelo://app?vid=f093fe34-ea0a-4dfa-8795-fe02dd6bd578","ios":"levelo://app?vid=f093fe34-ea0a-4dfa-8795-fe02dd6bd578"},"vehicle_type_id":"4","last_reported":1731604113,"current_range_meters":34800,"station_id":"ce4bh192rcd13ifvqdb0","pricing_plan_id":"cebpf4jnsgd1na2vs0mg"},{"bike_id":"d27ea026-f31e-4557-8b00-a9ebbba39491","system_id":"levelo_inurba_marseille","lat":43.29007,"lon":5.35616,"is_reserved":false,"is_disabled":false,"rental_uris":{"android":"levelo://app?vid=d27ea026-f31e-4557-8b00-a9ebbba39491","ios":"levelo://app?vid=d27ea026-f31e-4557-8b00-a9ebbba39491"},"vehicle_type_id":"4","last_reported":1731604113,"current_range_meters":18800,"station_id":"ce4bhb92rcd13ifvqen0","pricing_plan_id":"cebpf4jnsgd1na2vs0mg"},{"bike_id":"7dde6f48-4647-4ebe-9cfb-eed8fc77e5a0","system_id":"levelo_inurba_marseille","lat":43.29258,"lon":5.40923,"is_reserved":false,"is_disabled":false,"rental_uris":{"android":"levelo://app?vid=7dde6f48-4647-4ebe-9cfb-eed8fc77e5a0","ios":"levelo://app?vid=7dde6f48-4647-4ebe-9cfb-eed8fc77e5a0"},"vehicle_type_id":"4","last_reported":1731604113,"current_range_meters":40000,"station_id":"ce4bh192rcd13ifvqdc0","pricing_plan_id":"cebpf4jnsgd1na2vs0mg"},{"bike_id":"fa21a997-6457-4cf0-968e-c399b480a743","system_id":"levelo_inurba_marseille","lat":43.28616,"lon":5.35107,"is_reserved":false,"is_disabled":false,"rental_uris":{"android":"levelo://app?vid=fa21a997-6457-4cf0-968e-c399b480a743","ios":"levelo://app?vid=fa21a997-6457-4cf0-968e-c399b480a743"},"vehicle_type_id":"4","last_reported":1731604113,"current_range_meters":22800,"station_id":"ce4bhch2rcd13ifvqeug","pricing_plan_id":"cebpf4jnsgd1na2vs0mg"},{"bike_id":"f33f51f8-c60e-47eb-b65b-03f1e86fb80a","system_id":"levelo_inurba_marseille","lat":43.30888,"lon":5.39642,"is_reserved":false,"is_disabled":false,"rental_uris":{"android":"levelo://app?vid=f33f51f8-c60e-47eb-b65b-03f1e86fb80a","ios":"levelo://app?vid=f33f51f8-c60e-47eb-b65b-03f1e86fb80a"},"vehicle_type_id":"4","last_reported":1731604113,"current_range_meters":28000,"station_id":"ce4bh012rcd13ifvqcv0","pricing_plan_id":"cebpf4jnsgd1na2vs0mg"},{"bike_id":"f53e3acc-99c5-48b7-a156-8c4c62eb4c7e","system_id":"levelo_inurba_marseille","lat":43.26027,"lon":5.37549,"is_reserved":false,"is_disabled":false,"rental_uris":{"android":"levelo://app?vid=f53e3acc-99c5-48b7-a156-8c4c62eb4c7e","ios":"levelo://app?vid=f53e3acc-99c5-48b7-a156-8c4c62eb4c7e"},"vehicle_type_id":"4","last_reported":1731604113,"current_range_meters":25600,"station_id":"ce4bhgh2rcd13ifvqfa0","pricing_plan_id":"cebpf4jnsgd1na2vs0mg"},{"bike_id":"56b0ecfb-a58a-4772-8863-ac12212f495e","system_id":"levelo_inurba_marseille","lat":43.27998,"lon":5.41664,"is_reserved":false,"is_disabled":false,"rental_uris":{"android":"levelo://app?vid=56b0ecfb-a58a-4772-8863-ac12212f495e","ios":"levelo://app?vid=56b0ecfb-a58a-4772-8863-ac12212f495e"},"vehicle_type_id":"4","last_reported":1731604113,"current_range_meters":26800,"station_id":"ce4bho12rcd13ifvqh1g","pricing_plan_id":"cebpf4jnsgd1na2vs0mg"},{"bike_id":"20582b36-70a3-4b68-a193-39a74d103088","system_id":"levelo_inurba_marseille","lat":43.30254,"lon":5.40063,"is_reserved":false,"is_disabled":false,"rental_uris":{"android":"levelo://app?vid=20582b36-70a3-4b68-a193-39a74d103088","ios":"levelo://app?vid=20582b36-70a3-4b68-a193-39a74d103088"},"vehicle_type_id":"4","last_reported":1731604113,"current_range_meters":37600,"station_id":"ce4bgvh2rcd13ifvqcs0","pricing_plan_id":"cebpf4jnsgd1na2vs0mg"},{"bike_id":"0381c110-d696-4d6d-bf91-7b7516652478","system_id":"levelo_inurba_marseille","lat":43.29029,"lon":5.3865,"is_reserved":false,"is_disabled":false,"rental_uris":{"android":"levelo://app?vid=0381c110-d696-4d6d-bf91-7b7516652478","ios":"levelo://app?vid=0381c110-d696-4d6d-bf91-7b7516652478"},"vehicle_type_id":"4","last_reported":1731604113,"current_range_meters":25600,"station_id":"ce4bh4p2rcd13ifvqe0g","pricing_plan_id":"cebpf4jnsgd1na2vs0mg"},{"bike_id":"211e51e8-dbf7-4d22-b6f1-8020f0c8fa6e","system_id":"levelo_inurba_marseille","lat":43.24171,"lon":5.36396,"is_reserved":false,"is_disabled":false,"rental_uris":{"android":"levelo://app?vid=211e51e8-dbf7-4d22-b6f1-8020f0c8fa6e","ios":"levelo://app?vid=211e51e8-dbf7-4d22-b6f1-8020f0c8fa6e"},"vehicle_type_id":"4","last_reported":1731604113,"current_range_meters":36000,"station_id":"cpo36qri1sfpv3e86is0","pricing_plan_id":"cebpf4jnsgd1na2vs0mg"},{"bike_id":"0da63357-135e-4d64-93ad-5fdf3dde5652","system_id":"levelo_inurba_marseille","lat":43.292147,"lon":5.359445,"is_reserved":false,"is_disabled":false,"rental_uris":{"android":"levelo://app?vid=0da63357-135e-4d64-93ad-5fdf3dde5652","ios":"levelo://app?vid=0da63357-135e-4d64-93ad-5fdf3dde5652"},"vehicle_type_id":"4","last_reported":1731604113,"current_range_meters":38800,"station_id":"ce4bgh92rcd13ifvqb40","pricing_plan_id":"cebpf4jnsgd1na2vs0mg"},{"bike_id":"34e41393-6374-42e3-a142-1d5d8d14c3ac","system_id":"levelo_inurba_marseille","lat":43.25584,"lon":5.38236,"is_reserved":false,"is_disabled":false,"rental_uris":{"android":"levelo://app?vid=34e41393-6374-42e3-a142-1d5d8d14c3ac","ios":"levelo://app?vid=34e41393-6374-42e3-a142-1d5d8d14c3ac"},"vehicle_type_id":"4","last_reported":1731604113,"current_range_meters":6400,"station_id":"ce4bhih2rcd13ifvqfs0","pricing_plan_id":"cebpf4jnsgd1na2vs0mg"},{"bike_id":"1fe61937-b910-47a6-b239-27852967fc66","system_id":"levelo_inurba_marseille","lat":43.24167,"lon":5.36398,"is_reserved":false,"is_disabled":false,"rental_uris":{"android":"levelo://app?vid=1fe61937-b910-47a6-b239-27852967fc66","ios":"levelo://app?vid=1fe61937-b910-47a6-b239-27852967fc66"},"vehicle_type_id":"4","last_reported":1731604113,"current_range_meters":26000,"station_id":"cpo36qri1sfpv3e86is0","pricing_plan_id":"cebpf4jnsgd1na2vs0mg"},{"bike_id":"4566a20f-f4ef-4f3c-b8c4-63254a1e3251","system_id":"levelo_inurba_marseille","lat":43.27173,"lon":5.40993,"is_reserved":false,"is_disabled":false,"rental_uris":{"android":"levelo://app?vid=4566a20f-f4ef-4f3c-b8c4-63254a1e3251","ios":"levelo://app?vid=4566a20f-f4ef-4f3c-b8c4-63254a1e3251"},"vehicle_type_id":"4","last_reported":1731604113,"current_range_meters":40000,"station_id":"ce4bhl12rcd13ifvqgf0","pricing_plan_id":"cebpf4jnsgd1na2vs0mg"},{"bike_id":"5a4aa760-a950-4b90-bb6d-12636640fa71","system_id":"levelo_inurba_marseille","lat":43.29509,"lon":5.39407,"is_reserved":false,"is_disabled":false,"rental_uris":{"android":"levelo://app?vid=5a4aa760-a950-4b90-bb6d-12636640fa71","ios":"levelo://app?vid=5a4aa760-a950-4b90-bb6d-12636640fa71"},"vehicle_type_id":"4","last_reported":1731604113,"current_range_meters":17200,"station_id":"ce4bh292rcd13ifvqdf0","pricing_plan_id":"cebpf4jnsgd1na2vs0mg"},{"bike_id":"38d96eec-6b9e-4c31-8f4a-25b19329f59f","system_id":"levelo_inurba_marseille","lat":43.29892,"lon":5.38914,"is_reserved":false,"is_disabled":false,"rental_uris":{"android":"levelo://app?vid=38d96eec-6b9e-4c31-8f4a-25b19329f59f","ios":"levelo://app?vid=38d96eec-6b9e-4c31-8f4a-25b19329f59f"},"vehicle_type_id":"4","last_reported":1731604113,"current_range_meters":34800,"station_id":"ce4bh392rcd13ifvqdl0","pricing_plan_id":"cebpf4jnsgd1na2vs0mg"},{"bike_id":"214b6995-5b62-4fc4-b696-c2eb6f923d8f","system_id":"levelo_inurba_marseille","lat":43.22926,"lon":5.35375,"is_reserved":false,"is_disabled":false,"rental_uris":{"android":"levelo://app?vid=214b6995-5b62-4fc4-b696-c2eb6f923d8f","ios":"levelo://app?vid=214b6995-5b62-4fc4-b696-c2eb6f923d8f"},"vehicle_type_id":"4","last_reported":1731604113,"current_range_meters":16800,"station_id":"cpo3532slgdg3j2ikp40","pricing_plan_id":"cebpf4jnsgd1na2vs0mg"},{"bike_id":"11617014-b283-4c28-aa09-9c9e423215a4","system_id":"levelo_inurba_marseille","lat":43.29415,"lon":5.38632,"is_reserved":false,"is_disabled":false,"rental_uris":{"android":"levelo://app?vid=11617014-b283-4c28-aa09-9c9e423215a4","ios":"levelo://app?vid=11617014-b283-4c28-aa09-9c9e423215a4"},"vehicle_type_id":"4","last_reported":1731604113,"current_range_meters":9600,"station_id":"ce4bh2h2rcd13ifvqdh0","pricing_plan_id":"cebpf4jnsgd1na2vs0mg"},