{"last_updated":1702073208,"ttl":30,"version":"2.2","data":{"bikes":[{"bike_id":"6e606b5a-9785-4a32-987f-9271e6bd673b","system_id":"levelo_inurba_marseille","lat":43.31232,"lon":5.3686,"is_reserved":false,"is_disabled":false,"rental_uris":{"android":"levelo://app?vid=6e606b5a-9785-4a32-987f-9271e6bd673b","ios":"levelo://app?vid=6e606b5a-9785-4a32-987f-9271e6bd673b"},"vehicle_type_id":"4","last_reported":1702073208,"current_range_meters":15600,"station_id":"ce4bgl92rcd13ifvqbq0","pricing_plan_id":"free"},{"bike_id":"5eab0ac9-08cc-423e-a6f4-34c37835e45f","system_id":"levelo_inurba_marseille","lat":43.309039,"lon":5.371797,"is_reserved":false,"is_disabled":false,"rental_uris":{"android":"levelo://app?vid=5eab0ac9-08cc-423e-a6f4-34c37835e45f","ios":"levelo://app?vid=5eab0ac9-08cc-423e-a6f4-34c37835e45f"},"vehicle_type_id":"4","last_reported":1702073208,"current_range_meters":11600,"station_id":"ce4bguh2rcd13ifvqckg","pricing_plan_id":"free"},{"bike_id":"cdea5df7-f48f-4cc2-9cb5-80b0a70e8972","system_id":"levelo_inurba_marseille","lat":43.309039,"lon":5.371797,"is_reserved":false,"is_disabled":false,"rental_uris":{"android":"levelo://app?vid=cdea5df7-f48f-4cc2-9cb5-80b0a70e8972","ios":"levelo://app?vid=cdea5df7-f48f-4cc2-9cb5-80b0a70e8972"},"vehicle_type_id":"4","last_reported":1702073208,"current_range_meters":2400,"station_id":"ce4bguh2rcd13ifvqckg","pricing_plan_id":"free"},{"bike_id":"2bd28858-a6f5-401d-9fe8-6c5471cd6abd","system_id":"levelo_inurba_marseille","lat":43.309039,"lon":5.371797,"is_reserved":false,"is_disabled":false,"rental_uris":{"android":"levelo://app?vid=2bd28858-a6f5-401d-9fe8-6c5471cd6abd","ios":"levelo://app?vid=2bd28858-a6f5-401d-9fe8-6c5471cd6abd"},"vehicle_type_id":"4","last_reported":1702073208,"current_range_meters":27200,"station_id":"ce4bguh2rcd13ifvqckg","pricing_plan_id":"free"},{"bike_id":"9d35e7c5-c91e-4f3e-9fe6-80e6ce262e5f","system_id":"levelo_inurba_marseille","lat":43.30525,"lon":5.36712,"is_reserved":false,"is_disabled":false,"rental_uris":{"android":"levelo://app?vid=9d35e7c5-c91e-4f3e-9fe6-80e6ce262e5f","ios":"levelo://app?vid=9d35e7c5-c91e-4f3e-9fe6-80e6ce262e5f"},"vehicle_type_id":"4","last_reported":1702073208,"current_range_meters":19600,"station_id":"ce4bgrp2rcd13ifvqc9g","pricing_plan_id":"free"},{"bike_id":"7b3173fd-532e-4fa7-8b3a-868ad37da620","system_id":"levelo_inurba_marseille","lat":43.311218,"lon":5.377588,"is_reserved":false,"is_disabled":false,"rental_uris":{"android":"levelo://app?vid=7b3173fd-532e-4fa7-8b3a-868ad37da620","ios":"levelo://app?vid=7b3173fd-532e-4fa7-8b3a-868ad37da620"},"vehicle_type_id":"4","last_reported":1702073208,"current_range_meters":0,"station_id":"ce4bgt92rcd13ifvqcg0","pricing_plan_id":"free"},{"bike_id":"884158e6-8ed4-4fe3-9553-eb4fe8c63194","system_id":"levelo_inurba_marseille","lat":43.3153,"lon":5.38032,"is_reserved":false,"is_disabled":false,"rental_uris":{"android":"levelo://app?vid=884158e6-8ed4-4fe3-9553-eb4fe8c63194","ios":"levelo://app?vid=884158e6-8ed4-4fe3-9553-eb4fe8c63194"},"vehicle_type_id":"4","last_reported":1702073208,"current_range_meters":22800,"station_id":"ce4bhsp2rcd13ifvqi50","pricing_plan_id":"free"},{"bike_id":"39400180-e71d-4ed0-b5e3-91c57dd90a79","system_id":"levelo_inurba_marseille","lat":43.311131,"lon":5.377651,"is_reserved":false,"is_disabled":false,"rental_uris":{"android":"levelo://app?vid=39400180-e71d-4ed0-b5e3-91c57dd90a79","ios":"levelo://app?vid=39400180-e71d-4ed0-b5e3-91c57dd90a79"},"vehicle_type_id":"4","last_reported":1702073208,"current_range_meters":22000,"station_id":"ce4bgt92rcd13ifvqcg0","pricing_plan_id":"free"},{"bike_id":"1ea60f58-75f7-4484-b705-1156df4b02ad","system_id":"levelo_inurba_marseille","lat":43.30279,"lon":5.3735,"is_reserved":false,"is_disabled":false,"rental_uris":{"android":"levelo://app?vid=1ea60f58-75f7-4484-b705-1156df4b02ad","ios":"levelo://app?vid=1ea60f58-75f7-4484-b705-1156df4b02ad"},"vehicle_type_id":"4","last_reported":1702073208,"current_range_meters":0,"station_id":"","pricing_plan_id":"free"},{"bike_id":"1ea04df6-d729-4b9f-8e29-6486fa59cb07","system_id":"levelo_inurba_marseille","lat":43.301429,"lon":5.37413,"is_reserved":false,"is_disabled":false,"rental_uris":{"android":"levelo://app?vid=1ea04df6-d729-4b9f-8e29-6486fa59cb07","ios":"levelo://app?vid=1ea04df6-d729-4b9f-8e29-6486fa59cb07"},"vehicle_type_id":"4","last_reported":1702073208,"current_range_meters":20800,"station_id":"ce4bgs92rcd13ifvqcc0","pricing_plan_id":"free"},{"bike_id":"e5f7cffa-3d5c-441e-adcb-f934b33ceb94","system_id":"levelo_inurba_marseille","lat":43.31977,"lon":5.38126,"is_reserved":false,"is_disabled":false,"rental_uris":{"android":"levelo://app?vid=e5f7cffa-3d5c-441e-adcb-f934b33ceb94","ios":"levelo://app?vid=e5f7cffa-3d5c-441e-adcb-f934b33ceb94"},"vehicle_type_id":"4","last_reported":1702073208,"current_range_meters":0,"station_id":"ce4bhr12rcd13ifvqhpg","pricing_plan_id":"free"},{"bike_id":"a7b1a588-ef04-40a4-a8bd-d5a5fb6bddbb","system_id":"levelo_inurba_marseille","lat":43.313571,"lon":5.384829,"is_reserved":false,"is_disabled":false,"rental_uris":{"android":"levelo://app?vid=a7b1a588-ef04-40a4-a8bd-d5a5fb6bddbb","ios":"levelo://app?vid=a7b1a588-ef04-40a4-a8bd-d5a5fb6bddbb"},"vehicle_type_id":"4","last_reported":1702073208,"current_range_meters":21200,"station_id":"ce4bgt92rcd13ifvqcf0","pricing_plan_id":"free"},{"bike_id":"bc3847b0-7434-4742-83c7-a3d636a2f4a4","system_id":"levelo_inurba_marseille","lat":43.297794,"lon":5.370888,"is_reserved":false,"is_disabled":false,"rental_uris":{"android":"levelo://app?vid=bc3847b0-7434-4742-83c7-a3d636a2f4a4","ios":"levelo://app?vid=bc3847b0-7434-4742-83c7-a3d636a2f4a4"},"vehicle_type_id":"4","last_reported":1702073208,"current_range_meters":20400,"station_id":"ce4bgop2rcd13ifvqc1g","pricing_plan_id":"free"},{"bike_id":"38f1223e-a214-4eb0-9b54-a70de861d11b","system_id":"levelo_inurba_marseille","lat":43.32291,"lon":5.38268,"is_reserved":false,"is_disabled":false,"rental_uris":{"android":"levelo://app?vid=38f1223e-a214-4eb0-9b54-a70de861d11b","ios":"levelo://app?vid=38f1223e-a214-4eb0-9b54-a70de861d11b"},"vehicle_type_id":"4","last_reported":1702073208,"current_range_meters":25600,"station_id":"ce4bhr12rcd13ifvqhqg","pricing_plan_id":"free"},{"bike_id":"991448e4-6851-4d1a-aba1-4b6e7cd051db","system_id":"levelo_inurba_marseille","lat":43.322994,"lon":5.382598,"is_reserved":false,"is_disabled":false,"rental_uris":{"android":"levelo://app?vid=991448e4-6851-4d1a-aba1-4b6e7cd051db","ios":"levelo://app?vid=991448e4-6851-4d1a-aba1-4b6e7cd051db"},"vehicle_type_id":"4","last_reported":1702073208,"current_range_meters":21600,"station_id":"ce4bhr12rcd13ifvqhqg","pricing_plan_id":"free"},{"bike_id":"7b04c468-d67d-486d-aa31-b467eddee7c0","system_id":"levelo_inurba_marseille","lat":43.322999,"lon":5.382597,"is_reserved":false,"is_disabled":false,"rental_uris":{"android":"levelo://app?vid=7b04c468-d67d-486d-aa31-b467eddee7c0","ios":"levelo://app?vid=7b04c468-d67d-486d-aa31-b467eddee7c0"},"vehicle_type_id":"4","last_reported":1702073208,"current_range_meters":800,"station_id":"ce4bhr12rcd13ifvqhqg","pricing_plan_id":"free"},{"bike_id":"a80312d7-2035-41c9-b519-92db02a72c60","system_id":"levelo_inurba_marseille","lat":43.32288,"lon":5.38282,"is_reserved":false,"is_disabled":false,"rental_uris":{"android":"levelo://app?vid=a80312d7-2035-41c9-b519-92db02a72c60","ios":"levelo://app?vid=a80312d7-2035-41c9-b519-92db02a72c60"},"vehicle_type_id":"4","last_reported":1702073208,"current_range_meters":26800,"station_id":"ce4bhr12rcd13ifvqhqg","pricing_plan_id":"free"},{"bike_id":"6ac675f1-e0be-498c-ad2f-b742a949d4b0","system_id":"levelo_inurba_marseille","lat":43.298218,"lon":5.374416,"is_reserved":false,"is_disabled":false,"rental_uris":{"android":"levelo://app?vid=6ac675f1-e0be-498c-ad2f-b742a949d4b0","ios":"levelo://app?vid=6ac675f1-e0be-498c-ad2f-b742a949d4b0"},"vehicle_type_id":"4","last_reported":1702073208,"current_range_meters":4400,"station_id":"","pricing_plan_id":"free"},{"bike_id":"90a5106b-97e9-466b-8c22-cd263e3e59cb","system_id":"levelo_inurba_marseille","lat":43.30819,"lon":5.3877,"is_reserved":false,"is_disabled":false,"rental_uris":{"android":"levelo://app?vid=90a5106b-97e9-466b-8c22-cd263e3e59cb","ios":"levelo://app?vid=90a5106b-97e9-466b-8c22-cd263e3e59cb"},"vehicle_type_id":"4","last_reported":1702073208,"current_range_meters":0,"station_id":"","pricing_plan_id":"free"},{"bike_id":"0c36b66f-c435-491f-9e1c-abd1cf7e6d7b","system_id":"levelo_inurba_marseille","lat":43.296,"lon":5.36814,"is_reserved":false,"is_disabled":false,"rental_uris":{"android":"levelo://app?vid=0c36b66f-c435-491f-9e1c-abd1cf7e6d7b","ios":"levelo://app?vid=0c36b66f-c435-491f-9e1c-abd1cf7e6d7b"},"vehicle_type_id":"4","last_reported":1702073208,"current_range_meters":26000,"station_id":"","pricing_plan_id":"free"},{"bike_id":"92dc65d6-6823-4de3-93d4-056f738f090c","system_id":"levelo_inurba_marseille","lat":43.316538,"lon":5.38954,"is_reserved":false,"is_disabled":false,"rental_uris":{"android":"levelo://app?vid=92dc65d6-6823-4de3-93d4-056f738f090c","ios":"levelo://app?vid=92dc65d6-6823-4de3-93d4-056f738f090c"},"vehicle_type_id":"4","last_reported":1702073208,"current_range_meters":400,"station_id":"","pricing_plan_id":"free"},{"bike_id":"1ce1276b-d3b2-498c-9c59-4b3473d85611","system_id":"levelo_inurba_marseille","lat":43.29621,"lon":5.3718,"is_reserved":false,"is_disabled":false,"rental_uris":{"android":"levelo://app?vid=1ce1276b-d3b2-498c-9c59-4b3473d85611","ios":"levelo://app?vid=1ce1276b-d3b2-498c-9c59-4b3473d85611"},"vehicle_type_id":"4","last_reported":1702073208,"current_range_meters":1600,"station_id":"ce4bgnh2rcd13ifvqc0g","pricing_plan_id":"free"},{"bike_id":"61a931bd-2df0-45cb-bf04-45152cce4ad1","system_id":"levelo_inurba_marseille","lat":43.299028,"lon":5.381509,"is_reserved":false,"is_disabled":false,"rental_uris":{"android":"levelo://app?vid=61a931bd-2df0-45cb-bf04-45152cce4ad1","ios":"levelo://app?vid=61a931bd-2df0-45cb-bf04-45152cce4ad1"},"vehicle_type_id":"4","last_reported":1702073208,"current_range_meters":19600,"station_id":"ce4bgj12rcd13ifvqbc0","pricing_plan_id":"free"},{"bike_id":"95c0dfbd-8a1c-4f65-bb36-98fcb2e2fa7e","system_id":"levelo_inurba_marseille","lat":43.299028,"lon":5.381509,"is_reserved":false,"is_disabled":false,"rental_uris":{"android":"levelo://app?vid=95c0dfbd-8a1c-4f65-bb36-98fcb2e2fa7e","ios":"levelo://app?vid=95c0dfbd-8a1c-4f65-bb36-98fcb2e2fa7e"},"vehicle_type_id":"4","last_reported":1702073208,"current_range_meters":21600,"station_id":"ce4bgj12rcd13ifvqbc0","pricing_plan_id":"free"},{"bike_id":"5732f701-60a1-4e9f-a8bb-bb3f5de52da8","system_id":"levelo_inurba_marseille","lat":43.299028,"lon":5.381509,"is_reserved":false,"is_disabled":false,"rental_uris":{"android":"levelo://app?vid=5732f701-60a1-4e9f-a8bb-bb3f5de52da8","ios":"levelo://app?vid=5732f701-60a1-4e9f-a8bb-bb3f5de52da8"},"vehicle_type_id":"4","last_reported":1702073208,"current_range_meters":0,"station_id":"ce4bgj12rcd13ifvqbc0","pricing_plan_id":"free"},{"bike_id":"2ba3d187-866c-4a09-817b-c1c02eaa1f0f","system_id":"levelo_inurba_marseille","lat":43.317557,"lon":5.390173,"is_reserved":false,"is_disabled":false,"rental_uris":{"android":"levelo://app?vid=2ba3d187-866c-4a09-817b-c1c02eaa1f0f","ios":"levelo://app?vid=2ba3d187-866c-4a09-817b-c1c02eaa1f0f"},"vehicle_type_id":"4","last_reported":1702073208,"current_range_meters":26400,"station_id":"ce4bhqp2rcd13ifvqhng","pricing_plan_id":"free"},{"bike_id":"cbbe78d7-030f-4048-8c87-a4a7cf0fbbed","system_id":"levelo_inurba_marseille","lat":43.304274,"lon":5.388873,"is_reserved":false,"is_disabled":false,"rental_uris":{"android":"levelo://app?vid=cbbe78d7-030f-4048-8c87-a4a7cf0fbbed","ios":"levelo://app?vid=cbbe78d7-030f-4048-8c87-a4a7cf0fbbed"},"vehicle_type_id":"4","last_reported":1702073208,"current_range_meters":800,"station_id":"ce4bgk12rcd13ifvqbi0","pricing_plan_id":"free"},{"bike_id":"9f82b9e5-4f95-4875-8d38-6021c5781cac","system_id":"levelo_inurba_marseille","lat":43.304278,"lon":5.388868,"is_reserved":false,"is_disabled":false,"rental_uris":{"android":"levelo://app?vid=9f82b9e5-4f95-4875-8d38-6021c5781cac","ios":"levelo://app?vid=9f82b9e5-4f95-4875-8d38-6021c5781cac"},"vehicle_type_id":"4","last_reported":1702073208,"current_range_meters":0,"station_id":"ce4bgk12rcd13ifvqbi0","pricing_plan_id":"free"},{"bike_id":"92ce42fd-b750-477f-8f55-c7b5371a087f","system_id":"levelo_inurba_marseille","lat":43.299695,"lon":5.38507,"is_reserved":false,"is_disabled":false,"rental_uris":{"android":"levelo://app?vid=92ce42fd-b750-477f-8f55-c7b5371a087f","ios":"levelo://app?vid=92ce42fd-b750-477f-8f55-c7b5371a087f"},"vehicle_type_id":"4","last_reported":1702073208,"current_range_meters":9600,"station_id":"ce4bgj92rcd13ifvqbd0","pricing_plan_id":"free"},{"bike_id":"16375ad3-319c-44d6-bf54-ab1a22843d63","system_id":"levelo_inurba_marseille","lat":43.299717,"lon":5.384845,"is_reserved":false,"is_disabled":false,"rental_uris":{"android":"levelo://app?vid=16375ad3-319c-44d6-bf54-ab1a22843d63","ios":"levelo://app?vid=16375ad3-319c-44d6-bf54-ab1a22843d63"},"vehicle_type_id":"4","last_reported":1702073208,"current_range_meters":24400,"station_id":"ce4bgj92rcd13ifvqbd0","pricing_plan_id":"free"},{"bike_id":"c988b46d-8a29-477d-b448-cae64455c145","system_id":"levelo_inurba_marseille","lat":43.32367,"lon":5.3888,"is_reserved":false,"is_disabled":false,"rental_uris":{"android":"levelo://app?vid=c988b46d-8a29-477d-b448-cae64455c145","ios":"levelo://app?vid=c988b46d-8a29-477d-b448-cae64455c145"},"vehicle_type_id":"4","last_reported":1702073208,"current_range_meters":15200,"station_id":"ce4bhqp2rcd13ifvqhog","pricing_plan_id":"free"},{"bike_id":"5a1f6bc8-e270-4ee1-b3a7-8b734b52a9ea","system_id":"levelo_inurba_marseille","lat":43.32368,"lon":5.38885,"is_reserved":false,"is_disabled":false,"rental_uris":{"android":"levelo://app?vid=5a1f6bc8-e270-4ee1-b3a7-8b734b52a9ea","ios":"levelo://app?vid=5a1f6bc8-e270-4ee1-b3a7-8b734b52a9ea"},"vehicle_type_id":"4","last_reported":1702073208,"current_range_meters":17200,"station_id":"ce4bhqp2rcd13ifvqhog","pricing_plan_id":"free"},{"bike_id":"40492ded-5d69-479c-8183-a612fbcc3174","system_id":"levelo_inurba_marseille","lat":43.293249,"lon":5.371578,"is_reserved":false,"is_disabled":false,"rental_uris":{"android":"levelo://app?vid=40492ded-5d69-479c-8183-a612fbcc3174","ios":"levelo://app?vid=40492ded-5d69-479c-8183-a612fbcc3174"},"vehicle_type_id":"4","last_reported":1702073208,"current_range_meters":20800,"station_id":"ce4bgh92rcd13ifvqb40","pricing_plan_id":"free"},{"bike_id":"1d90d543-bed0-4fc1-abaa-bcff9754de3c","system_id":"levelo_inurba_marseille","lat":43.29308,"lon":5.37467,"is_reserved":false,"is_disabled":false,"rental_uris":{"android":"levelo://app?vid=1d90d543-bed0-4fc1-abaa-bcff9754de3c","ios":"levelo://app?vid=1d90d543-bed0-4fc1-abaa-bcff9754de3c"},"vehicle_type_id":"4","last_reported":1702073208,"current_range_meters":14400,"station_id":"ce4bgi12rcd13ifvqb70","pricing_plan_id":"free"},{"bike_id":"ffe8e861-9583-46be-9da3-462d5c1037ee","system_id":"levelo_inurba_marseille","lat":43.29303,"lon":5.37451,"is_reserved":false,"is_disabled":false,"rental_uris":{"android":"levelo://app?vid=ffe8e861-9583-46be-9da3-462d5c1037ee","ios":"levelo://app?vid=ffe8e861-9583-46be-9da3-462d5c1037ee"},"vehicle_type_id":"4","last_reported":1702073208,"current_range_meters":14400,"station_id":"ce4bgi12rcd13ifvqb70","pricing_plan_id":"free"},{"bike_id":"052834f1-56d4-42b8-afc3-7d3d2b363a2d","system_id":"levelo_inurba_marseille","lat":43.305994,"lon":5.393687,"is_reserved":false,"is_disabled":false,"rental_uris":{"android":"levelo://app?vid=052834f1-56d4-42b8-afc3-7d3d2b363a2d","ios":"levelo://app?vid=052834f1-56d4-42b8-afc3-7d3d2b363a2d"},"vehicle_type_id":"4","last_reported":1702073208,"current_range_meters":0,"station_id":"ce4bh0p2rcd13ifvqd80","pricing_plan_id":"free"},{"bike_id":"d16bee20-e90a-4cc2-8833-1bced758ce6a","system_id":"levelo_inurba_marseille","lat":43.302992,"lon":5.392136,"is_reserved":false,"is_disabled":false,"rental_uris":{"android":"levelo://app?vid=d16bee20-e90a-4cc2-8833-1bced758ce6a","ios":"levelo://app?vid=d16bee20-e90a-4cc2-8833-1bced758ce6a"},"vehicle_type_id":"4","last_reported":1702073208,"current_range_meters":15600,"station_id":"ce4bgkh2rcd13ifvqbk0","pricing_plan_id":"free"},{"bike_id":"466c91c6-d038-42cf-818c-bf05597c451e","system_id":"levelo_inurba_marseille","lat":43.29264,"lon":5.37618,"is_reserved":false,"is_disabled":false,"rental_uris":{"android":"levelo://app?vid=466c91c6-d038-42cf-818c-bf05597c451e","ios":"levelo://app?vid=466c91c6-d038-42cf-818c-bf05597c451e"},"vehicle_type_id":"4","last_reported":1702073208,"current_range_meters":400,"station_id":"ce4bgi12rcd13ifvqb80","pricing_plan_id":"free"},{"bike_id":"8a00eb35-1cdc-4762-9b6e-730bc782b1b4","system_id":"levelo_inurba_marseille","lat":43.291675,"lon":5.371583,"is_reserved":false,"is_disabled":false,"rental_uris":{"android":"levelo://app?vid=8a00eb35-1cdc-4762-9b6e-730bc782b1b4","ios":"levelo://app?vid=8a00eb35-1cdc-4762-9b6e-730bc782b1b4"},"vehicle_type_id":"4","last_reported":1702073208,"current_range_meters":30000,"station_id":"ce4bha92rcd13ifvqeh0","pricing_plan_id":"free"},{"bike_id":"c16a6322-42b4-4f19-b9f4-b5b329c4e19a","system_id":"levelo_inurba_marseille","lat":43.292663,"lon":5.376394,"is_reserved":false,"is_disabled":false,"rental_uris":{"android":"levelo://app?vid=c16a6322-42b4-4f19-b9f4-b5b329c4e19a","ios":"levelo://app?vid=c16a6322-42b4-4f19-b9f4-b5b329c4e19a"},"vehicle_type_id":"4","last_reported":1702073208,"current_range_meters":400,"station_id":"ce4bgi12rcd13ifvqb80","pricing_plan_id":"free"},{"bike_id":"f54cce81-24e4-44b7-978b-713350a2404c","system_id":"levelo_inurba_marseille","lat":43.298787,"lon":5.389167,"is_reserved":false,"is_disabled":false,"rental_uris":{"android":"levelo://app?vid=f54cce81-24e4-44b7-978b-713350a2404c","ios":"levelo://app?vid=f54cce81-24e4-44b7-978b-713350a2404c"},"vehicle_type_id":"4","last_reported":1702073208,"current_range_meters":0,"station_id":"","pricing_plan_id":"free"},{"bike_id":"8c6908a7-8427-40b8-b5ae-e72a89640003","system_id":"levelo_inurba_marseille","lat":43.292,"lon":5.3581,"is_reserved":false,"is_disabled":false,"rental_uris":{"android":"levelo://app?vid=8c6908a7-8427-40b8-b5ae-e72a89640003","ios":"levelo://app?vid=8c6908a7-8427-40b8-b5ae-e72a89640003"},"vehicle_type_id":"4","last_reported":1702073208,"current_range_meters":8000,"station_id":"ce4bhb12rcd13ifvqel0","pricing_plan_id":"free"},{"bike_id":"9003a963-c534-42ee-9575-67c4073546b3","system_id":"levelo_inurba_marseille","lat":43.29187,"lon":5.35797,"is_reserved":false,"is_disabled":false,"rental_uris":{"android":"levelo://app?vid=9003a963-c534-42ee-9575-67c4073546b3","ios":"levelo://app?vid=9003a963-c534-42ee-9575-67c4073546b3"},"vehicle_type_id":"4","last_reported":1702073208,"current_range_meters":19200,"station_id":"ce4bhb12rcd13ifvqel0","pricing_plan_id":"free"},{"bike_id":"03af98f1-fdec-4d09-b30c-c9494f1594aa","system_id":"levelo_inurba_marseille","lat":43.291994,"lon":5.357886,"is_reserved":false,"is_disabled":false,"rental_uris":{"android":"levelo://app?vid=03af98f1-fdec-4d09-b30c-c9494f1594aa","ios":"levelo://app?vid=03af98f1-fdec-4d09-b30c-c9494f1594aa"},"vehicle_type_id":"4","last_reported":1702073208,"current_range_meters":29200,"station_id":"ce4bhb12rcd13ifvqel0","pricing_plan_id":"free"},{"bike_id":"14fe21b6-310b-45f4-b0ac-6b2a7d363e8a","system_id":"levelo_inurba_marseille","lat":43.3132,"lon":5.39699,"is_reserved":false,"is_disabled":false,"rental_uris":{"android":"levelo://app?vid=14fe21b6-310b-45f4-b0ac-6b2a7d363e8a","ios":"levelo://app?vid=14fe21b6-310b-45f4-b0ac-6b2a7d363e8a"},"vehicle_type_id":"4","last_reported":1702073208,"current_range_meters":0,"station_id":"ce4bgvp2rcd13ifvqcu0","pricing_plan_id":"free"},{"bike_id":"54b9269a-a4fc-4c67-8b7d-f7faa397f746","system_id":"levelo_inurba_marseille","lat":43.31328,"lon":5.39704,"is_reserved":false,"is_disabled":false,"rental_uris":{"android":"levelo://app?vid=54b9269a-a4fc-4c67-8b7d-f7faa397f746","ios":"levelo://app?vid=54b9269a-a4fc-4c67-8b7d-f7faa397f746"},"vehicle_type_id":"4","last_reported":1702073208,"current_range_meters":0,"station_id":"ce4bgvp2rcd13ifvqcu0","pricing_plan_id":"free"},{"bike_id":"b52bbea7-cd7c-4948-9c3b-f7ebb0332be0","system_id":"levelo_inurba_marseille","lat":43.290779,"lon":5.371482,"is_reserved":false,"is_disabled":false,"rental_uris":{"android":"levelo://app?vid=b52bbea7-cd7c-4948-9c3b-f7ebb0332be0","ios":"levelo://app?vid=b52bbea7-cd7c-4948-9c3b-f7ebb0332be0"},"vehicle_type_id":"4","last_reported":1702073208,"current_range_meters":7600,"station_id":"ce4bh5p2rcd13ifvqe4g","pricing_plan_id":"free"},{"bike_id":"22cf65c1-43c7-4d39-9589-3e4abca212a1","system_id":"levelo_inurba_marseille","lat":43.290624,"lon":5.359245,"is_reserved":false,"is_disabled":false,"rental_uris":{"android":"levelo://app?vid=22cf65c1-43c7-4d39-9589-3e4abca212a1","ios":"levelo://app?vid=22cf65c1-43c7-4d39-9589-3e4abca212a1"},"vehicle_type_id":"4","last_reported":1702073208,"current_range_meters":9600,"station_id":"ce4bha92rcd13ifvqeg0","pricing_plan_id":"free"},{"bike_id":"156b02e8-0bc6-4b3b-ac4b-a85bc914224a","system_id":"levelo_inurba_marseille","lat":43.290631,"lon":5.359244,"is_reserved":false,"is_disabled":false,"rental_uris":{"android":"levelo://app?vid=156b02e8-0bc6-4b3b-ac4b-a85bc914224a","ios":"levelo://app?vid=156b02e8-0bc6-4b3b-ac4b-a85bc914224a"},"vehicle_type_id":"4","last_reported":1702073208,"current_range_meters":27600,"station_id":"ce4bha92rcd13ifvqeg0","pricing_plan_id":"free"},{"bike_id":"9e8bd551-12e2-42ba-a44c-83641ab1e2db","system_id":"levelo_inurba_marseille","lat":43.290779,"lon":5.371482,"is_reserved":false,"is_disabled":false,"rental_uris":{"android":"levelo://app?vid=9e8bd551-12e2-42ba-a44c-83641ab1e2db","ios":"levelo://app?vid=9e8bd551-12e2-42ba-a44c-83641ab1e2db"},"vehicle_type_id":"4","last_reported":1702073208,"current_range_meters":10800,"station_id":"ce4bh5p2rcd13ifvqe4g","pricing_plan_id":"free"},{"bike_id":"325c5f45-06be-4eff-a4eb-1353d565b654","system_id":"levelo_inurba_marseille","lat":43.290327,"lon":5.375711,"is_reserved":false,"is_disabled":false,"rental_uris":{"android":"levelo://app?vid=325c5f45-06be-4eff-a4eb-1353d565b654","ios":"levelo://app?vid=325c5f45-06be-4eff-a4eb-1353d565b654"},"vehicle_type_id":"4","last_reported":1702073208,"current_range_meters":9600,"station_id":"ce4bh692rcd13ifvqe90","pricing_plan_id":"free"},{"bike_id":"a1520945-b2f7-47b2-b919-b8fd2aa4db77","system_id":"levelo_inurba_marseille","lat":43.294162,"lon":5.386292,"is_reserved":false,"is_disabled":false,"rental_uris":{"android":"levelo://app?vid=a1520945-b2f7-47b2-b919-b8fd2aa4db77","ios":"levelo://app?vid=a1520945-b2f7-47b2-b919-b8fd2aa4db77"},"vehicle_type_id":"4","last_reported":1702073208,"current_range_meters":0,"station_id":"ce4bh2h2rcd13ifvqdh0","pricing_plan_id":"free"},{"bike_id":"ea9052b0-e609-4786-b019-14b38d0067ce","system_id":"levelo_inurba_marseille","lat":43.28939,"lon":5.36645,"is_reserved":false,"is_disabled":false,"rental_uris":{"android":"levelo://app?vid=ea9052b0-e609-4786-b019-14b38d0067ce","ios":"levelo://app?vid=ea9052b0-e609-4786-b019-14b38d0067ce"},"vehicle_type_id":"4","last_reported":1702073208,"current_range_meters":0,"station_id":"ce4bhap2rcd13ifvqek0","pricing_plan_id":"free"},{"bike_id":"7e1838c2-7e89-49d9-87db-aea5ef0ed0dd","system_id":"levelo_inurba_marseille","lat":43.289184,"lon":5.366408,"is_reserved":false,"is_disabled":false,"rental_uris":{"android":"levelo://app?vid=7e1838c2-7e89-49d9-87db-aea5ef0ed0dd","ios":"levelo://app?vid=7e1838c2-7e89-49d9-87db-aea5ef0ed0dd"},"vehicle_type_id":"4","last_reported":1702073208,"current_range_meters":18800,"station_id":"ce4bhap2rcd13ifvqek0","pricing_plan_id":"free"},{"bike_id":"a02a1b20-1fb1-4951-988a-77389649024d","system_id":"levelo_inurba_marseille","lat":43.289259,"lon":5.366364,"is_reserved":false,"is_disabled":false,"rental_uris":{"android":"levelo://app?vid=a02a1b20-1fb1-4951-988a-77389649024d","ios":"levelo://app?vid=a02a1b20-1fb1-4951-988a-77389649024d"},"vehicle_type_id":"4","last_reported":1702073208,"current_range_meters":14400,"station_id":"","pricing_plan_id":"free"},{"bike_id":"86944a32-fca7-44b8-be77-f5932673cce0","system_id":"levelo_inurba_marseille","lat":43.292644,"lon":5.384257,"is_reserved":false,"is_disabled":false,"rental_uris":{"android":"levelo://app?vid=86944a32-fca7-44b8-be77-f5932673cce0","ios":"levelo://app?vid=86944a32-fca7-44b8-be77-f5932673cce0"},"vehicle_type_id":"4","last_reported":1702073208,"current_range_meters":18000,"station_id":"ce4bh692rcd13ifvqea0","pricing_plan_id":"free"},{"bike_id":"d25e6f1b-bf28-4697-8663-54f49dfb54f7","system_id":"levelo_inurba_marseille","lat":43.292644,"lon":5.384257,"is_reserved":false,"is_disabled":false,"rental_uris":{"android":"levelo://app?vid=d25e6f1b-bf28-4697-8663-54f49dfb54f7","ios":"levelo://app?vid=d25e6f1b-bf28-4697-8663-54f49dfb54f7"},"vehicle_type_id":"4","last_reported":1702073208,"current_range_meters":0,"station_id":"ce4bh692rcd13ifvqea0","pricing_plan_id":"free"},{"bike_id":"ab7a69eb-e112-4b2e-9d6b-76fc86ce66d7","system_id":"levelo_inurba_marseille","lat":43.290104,"lon":5.356111,"is_reserved":false,"is_disabled":false,"rental_uris":{"android":"levelo://app?vid=ab7a69eb-e112-4b2e-9d6b-76fc86ce66d7","ios":"levelo://app?vid=ab7a69eb-e112-4b2e-9d6b-76fc86ce66d7"},"vehicle_type_id":"4","last_reported":1702073208,"current_range_meters":4800,"station_id":"ce4bhb92rcd13ifvqen0","pricing_plan_id":"free"},{"bike_id":"e6aa64d7-b2f8-4db9-98ca-c72ba001f222","system_id":"levelo_inurba_marseille","lat":43.290036,"lon":5.356157,"is_reserved":false,"is_disabled":false,"rental_uris":{"android":"levelo://app?vid=e6aa64d7-b2f8-4db9-98ca-c72ba001f222","ios":"levelo://app?vid=e6aa64d7-b2f8-4db9-98ca-c72ba001f222"},"vehicle_type_id":"4","last_reported":1702073208,"current_range_meters":7200,"station_id":"","pricing_plan_id":"free"},{"bike_id":"f4c12303-054a-4794-9ee7-984b76bf6398","system_id":"levelo_inurba_marseille","lat":43.290104,"lon":5.356111,"is_reserved":false,"is_disabled":false,"rental_uris":{"android":"levelo://app?vid=f4c12303-054a-4794-9ee7-984b76bf6398","ios":"levelo://app?vid=f4c12303-054a-4794-9ee7-984b76bf6398"},"vehicle_type_id":"4","last_reported":1702073208,"current_range_meters":400,"station_id":"ce4bhb92rcd13ifvqen0","pricing_plan_id":"free"},{"bike_id":"15f2b43a-5b2d-444e-9029-f062dbec75f6","system_id":"levelo_inurba_marseille","lat":43.30927,"lon":5.40151,"is_reserved":false,"is_disabled":false,"rental_uris":{"android":"levelo://app?vid=15f2b43a-5b2d-444e-9029-f062dbec75f6","ios":"levelo://app?vid=15f2b43a-5b2d-444e-9029-f062dbec75f6"},"vehicle_type_id":"4","last_reported":1702073208,"current_range_meters":16000,"station_id":"ce4bgvp2rcd13ifvqct0","pricing_plan_id":"free"},{"bike_id":"95881b84-d89f-4885-a3c1-bd37514f3d80","system_id":"levelo_inurba_marseille","lat":43.306412,"lon":5.401035,"is_reserved":false,"is_disabled":false,"rental_uris":{"android":"levelo://app?vid=95881b84-d89f-4885-a3c1-bd37514f3d80","ios":"levelo://app?vid=95881b84-d89f-4885-a3c1-bd37514f3d80"},"vehicle_type_id":"4","last_reported":1702073208,"current_range_meters":29200,"station_id":"ce4bh112rcd13ifvqda0","pricing_plan_id":"free"},{"bike_id":"141b234d-8fb0-4fa1-a6ab-8c4467167918","system_id":"levelo_inurba_marseille","lat":43.301117,"lon":5.398795,"is_reserved":false,"is_disabled":false,"rental_uris":{"android":"levelo://app?vid=141b234d-8fb0-4fa1-a6ab-8c4467167918","ios":"levelo://app?vid=141b234d-8fb0-4fa1-a6ab-8c4467167918"},"vehicle_type_id":"4","last_reported":1702073208,"current_range_meters":5600,"station_id":"ce4bh0h2rcd13ifvqd40","pricing_plan_id":"free"},{"bike_id":"066175bb-9259-4227-8cd4-78cd43f21020","system_id":"levelo_inurba_marseille","lat":43.28727,"lon":5.36078,"is_reserved":false,"is_disabled":false,"rental_uris":{"android":"levelo://app?vid=066175bb-9259-4227-8cd4-78cd43f21020","ios":"levelo://app?vid=066175bb-9259-4227-8cd4-78cd43f21020"},"vehicle_type_id":"4","last_reported":1702073208,"current_range_meters":31200,"station_id":"cki0cbj6b192h4jlfktg","pricing_plan_id":"free"},{"bike_id":"4ed05978-a9d3-406d-ad2e-c57b0ff4f0cf","system_id":"levelo_inurba_marseille","lat":43.28727,"lon":5.36078,"is_reserved":false,"is_disabled":false,"rental_uris":{"android":"levelo://app?vid=4ed05978-a9d3-406d-ad2e-c57b0ff4f0cf","ios":"levelo://app?vid=4ed05978-a9d3-406d-ad2e-c57b0ff4f0cf"},"vehicle_type_id":"4","last_reported":1702073208,"current_range_meters":30400,"station_id":"cki0cbj6b192h4jlfktg","pricing_plan_id":"free"},{"bike_id":"00eb7162-a713-4469-9070-da7182e14e95","system_id":"levelo_inurba_marseille","lat":43.28727,"lon":5.36078,"is_reserved":false,"is_disabled":false,"rental_uris":{"android":"levelo://app?vid=00eb7162-a713-4469-9070-da7182e14e95","ios":"levelo://app?vid=00eb7162-a713-4469-9070-da7182e14e95"},"vehicle_type_id":"4","last_reported":1702073208,"current_range_meters":1200,"station_id":"cki0cbj6b192h4jlfktg","pricing_plan_id":"free"},{"bike_id":"72189b41-2d3a-43c6-94e7-8bf5b76788fd","system_id":"levelo_inurba_marseille","lat":43.286591,"lon":5.363346,"is_reserved":false,"is_disabled":false,"rental_uris":{"android":"levelo://app?vid=72189b41-2d3a-43c6-94e7-8bf5b76788fd","ios":"levelo://app?vid=72189b41-2d3a-43c6-94e7-8bf5b76788fd"},"vehicle_type_id":"4","last_reported":1702073208,"current_range_meters":16800,"station_id":"ce4bhah2rcd13ifvqej0","pricing_plan_id":"free"},{"bike_id":"5b9bd563-fa68-4324-a454-e4d7c3118e5c","system_id":"levelo_inurba_marseille","lat":43.29516,"lon":5.39408,"is_reserved":false,"is_disabled":false,"rental_uris":{"android":"levelo://app?vid=5b9bd563-fa68-4324-a454-e4d7c3118e5c","ios":"levelo://app?vid=5b9bd563-fa68-4324-a454-e4d7c3118e5c"},"vehicle_type_id":"4","last_reported":1702073208,"current_range_meters":0,"station_id":"ce4bh292rcd13ifvqdf0","pricing_plan_id":"free"},{"bike_id":"134b311a-8f01-410e-b9f7-64b31e90ab46","system_id":"levelo_inurba_marseille","lat":43.302759,"lon":5.400793,"is_reserved":false,"is_disabled":false,"rental_uris":{"android":"levelo://app?vid=134b311a-8f01-410e-b9f7-64b31e90ab46","ios":"levelo://app?vid=134b311a-8f01-410e-b9f7-64b31e90ab46"},"vehicle_type_id":"4","last_reported":1702073208,"current_range_meters":23200,"station_id":"ce4bgvh2rcd13ifvqcs0","pricing_plan_id":"free"},{"bike_id":"74623b1a-23dc-403e-9a69-9693fa5afc46","system_id":"levelo_inurba_marseille","lat":43.287185,"lon":5.379373,"is_reserved":false,"is_disabled":false,"rental_uris":{"android":"levelo://app?vid=74623b1a-23dc-403e-9a69-9693fa5afc46","ios":"levelo://app?vid=74623b1a-23dc-403e-9a69-9693fa5afc46"},"vehicle_type_id":"4","last_reported":1702073208,"current_range_meters":18800,"station_id":"ce4bh9p2rcd13ifvqec0","pricing_plan_id":"free"},{"bike_id":"73ce1675-b31e-45c3-9d3d-065e73f6dca9","system_id":"levelo_inurba_marseille","lat":43.287184,"lon":5.37937,"is_reserved":false,"is_disabled":false,"rental_uris":{"android":"levelo://app?vid=73ce1675-b31e-45c3-9d3d-065e73f6dca9","ios":"levelo://app?vid=73ce1675-b31e-45c3-9d3d-065e73f6dca9"},"vehicle_type_id":"4","last_reported":1702073208,"current_range_meters":6400,"station_id":"ce4bh9p2rcd13ifvqec0","pricing_plan_id":"free"},{"bike_id":"f8b1d939-2875-4b07-89da-8980b927fa34","system_id":"levelo_inurba_marseille","lat":43.31689,"lon":5.404647,"is_reserved":false,"is_disabled":false,"rental_uris":{"android":"levelo://app?vid=f8b1d939-2875-4b07-89da-8980b927fa34","ios":"levelo://app?vid=f8b1d939-2875-4b07-89da-8980b927fa34"},"vehicle_type_id":"4","last_reported":1702073208,"current_range_meters":19200,"station_id":"ce4bh012rcd13ifvqd00","pricing_plan_id":"free"},{"bike_id":"1a299130-7537-4711-9187-d684d5c5536a","system_id":"levelo_inurba_marseille","lat":43.284538,"lon":5.358657,"is_reserved":false,"is_disabled":false,"rental_uris":{"android":"levelo://app?vid=1a299130-7537-4711-9187-d684d5c5536a","ios":"levelo://app?vid=1a299130-7537-4711-9187-d684d5c5536a"},"vehicle_type_id":"4","last_reported":1702073208,"current_range_meters":12000,"station_id":"ce4bhah2rcd13ifvqei0","pricing_plan_id":"free"},{"bike_id":"44114927-bab0-4551-bf85-fec0dd0269af","system_id":"levelo_inurba_marseille","lat":43.294314,"lon":5.397498,"is_reserved":false,"is_disabled":false,"rental_uris":{"android":"levelo://app?vid=44114927-bab0-4551-bf85-fec0dd0269af","ios":"levelo://app?vid=44114927-bab0-4551-bf85-fec0dd0269af"},"vehicle_type_id":"4","last_reported":1702073208,"current_range_meters":13600,"station_id":"ce4bh3h2rcd13ifvqdo0","pricing_plan_id":"free"},{"bike_id":"2362cd8b-1178-440b-84dc-7ce71165885f","system_id":"levelo_inurba_marseille","lat":43.28613,"lon":5.35109,"is_reserved":false,"is_disabled":false,"rental_uris":{"android":"levelo://app?vid=2362cd8b-1178-440b-84dc-7ce71165885f","ios":"levelo://app?vid=2362cd8b-1178-440b-84dc-7ce71165885f"},"vehicle_type_id":"4","last_reported":1702073208,"current_range_meters":4000,"station_id":"ce4bhch2rcd13ifvqeug","pricing_plan_id":"free"},{"bike_id":"3b44b279-4508-4e90-b4ff-6cbec8acfee3","system_id":"levelo_inurba_marseille","lat":43.284722,"lon":5.380472,"is_reserved":false,"is_disabled":false,"rental_uris":{"android":"levelo://app?vid=3b44b279-4508-4e90-b4ff-6cbec8acfee3","ios":"levelo://app?vid=3b44b279-4508-4e90-b4ff-6cbec8acfee3"},"vehicle_type_id":"4","last_reported":1702073208,"current_range_meters":19200,"station_id":"","pricing_plan_id":"free"},{"bike_id":"700146f0-90bb-4870-8eff-2f15796ca2a6","system_id":"levelo_inurba_marseille","lat":43.286595,"lon":5.386795,"is_reserved":false,"is_disabled":false,"rental_uris":{"android":"levelo://app?vid=700146f0-90bb-4870-8eff-2f15796ca2a6","ios":"levelo://app?vid=700146f0-90bb-4870-8eff-2f15796ca2a6"},"vehicle_type_id":"4","last_reported":1702073208,"current_range_meters":10800,"station_id":"ce4bh492rcd13ifvqdug","pricing_plan_id":"free"},{"bike_id":"c566ef8d-6ee5-4326-85e5-0b3f9e46b387","system_id":"levelo_inurba_marseille","lat":43.319179,"lon":5.407725,"is_reserved":false,"is_disabled":false,"rental_uris":{"android":"levelo://app?vid=c566ef8d-6ee5-4326-85e5-0b3f9e46b387","ios":"levelo://app?vid=c566ef8d-6ee5-4326-85e5-0b3f9e46b387"},"vehicle_type_id":"4","last_reported":1702073208,"current_range_meters":7200,"station_id":"ce4bhq12rcd13ifvqhig","pricing_plan_id":"free"},{"bike_id":"8e643d35-39df-4ed8-8972-ecb59e259871","system_id":"levelo_inurba_marseille","lat":43.323464,"lon":5.406297,"is_reserved":false,"is_disabled":false,"rental_uris":{"android":"levelo://app?vid=8e643d35-39df-4ed8-8972-ecb59e259871","ios":"levelo://app?vid=8e643d35-39df-4ed8-8972-ecb59e259871"},"vehicle_type_id":"4","last_reported":1702073208,"current_range_meters":27600,"station_id":"ce4bhq92rcd13ifvqhjg","pricing_plan_id":"free"},{"bike_id":"394e7ef0-8795-4b05-b68f-3db5b0a2f588","system_id":"levelo_inurba_marseille","lat":43.33717,"lon":5.391857,"is_reserved":false,"is_disabled":false,"rental_uris":{"android":"levelo://app?vid=394e7ef0-8795-4b05-b68f-3db5b0a2f588","ios":"levelo://app?vid=394e7ef0-8795-4b05-b68f-3db5b0a2f588"},"vehicle_type_id":"4","last_reported":1702073208,"current_range_meters":28800,"station_id":"ce4bhr92rcd13ifvqhsg","pricing_plan_id":"free"},{"bike_id":"efe9d2cc-d0eb-4e85-b313-6bf62b4d4d4c","system_id":"levelo_inurba_marseille","lat":43.33726,"lon":5.39191,"is_reserved":false,"is_disabled":false,"rental_uris":{"android":"levelo://app?vid=efe9d2cc-d0eb-4e85-b313-6bf62b4d4d4c","ios":"levelo://app?vid=efe9d2cc-d0eb-4e85-b313-6bf62b4d4d4c"},"vehicle_type_id":"4","last_reported":1702073208,"current_range_meters":2000,"station_id":"ce4bhr92rcd13ifvqhsg","pricing_plan_id":"free"},{"bike_id":"79e0990e-ead5-4f30-bd3d-eaecf498ab12","system_id":"levelo_inurba_marseille","lat":43.283494,"lon":5.380945,"is_reserved":false,"is_disabled":false,"rental_uris":{"android":"levelo://app?vid=79e0990e-ead5-4f30-bd3d-eaecf498ab12","ios":"levelo://app?vid=79e0990e-ead5-4f30-bd3d-eaecf498ab12"},"vehicle_type_id":"4","last_reported":1702073208,"current_range_meters":1600,"station_id":"ce4bh412rcd13ifvqdr0","pricing_plan_id":"free"},{"bike_id":"73aa3852-b07f-4035-abc6-b6b9252195a2","system_id":"levelo_inurba_marseille","lat":43.283494,"lon":5.380945,"is_reserved":false,"is_disabled":false,"rental_uris":{"android":"levelo://app?vid=73aa3852-b07f-4035-abc6-b6b9252195a2","ios":"levelo://app?vid=73aa3852-b07f-4035-abc6-b6b9252195a2"},"vehicle_type_id":"4","last_reported":1702073208,"current_range_meters":20800,"station_id":"ce4bh412rcd13ifvqdr0","pricing_plan_id":"free"},{"bike_id":"02359fe1-5b31-402a-a6c9-5cadf25fa129","system_id":"levelo_inurba_marseille","lat":43.289363,"lon":5.396322,"is_reserved":false,"is_disabled":false,"rental_uris":{"android":"levelo://app?vid=02359fe1-5b31-402a-a6c9-5cadf25fa129","ios":"levelo://app?vid=02359fe1-5b31-402a-a6c9-5cadf25fa129"},"vehicle_type_id":"4","last_reported":1702073208,"current_range_meters":14400,"station_id":"ce4bh3h2rcd13ifvqdn0","pricing_plan_id":"free"},{"bike_id":"af431b7e-d103-4046-ba3e-92fb5e051413","system_id":"levelo_inurba_marseille","lat":43.292724,"lon":5.401131,"is_reserved":false,"is_disabled":false,"rental_uris":{"android":"levelo://app?vid=af431b7e-d103-4046-ba3e-92fb5e051413","ios":"levelo://app?vid=af431b7e-d103-4046-ba3e-92fb5e051413"},"vehicle_type_id":"4","last_reported":1702073208,"current_range_meters":22000,"station_id":"ce4bh312rcd13ifvqdk0","pricing_plan_id":"free"},{"bike_id":"2b8a1b60-7eeb-4df4-8fdf-9e7cecaaec44","system_id":"levelo_inurba_marseille","lat":43.282754,"lon":5.350519,"is_reserved":false,"is_disabled":false,"rental_uris":{"android":"levelo://app?vid=2b8a1b60-7eeb-4df4-8fdf-9e7cecaaec44","ios":"levelo://app?vid=2b8a1b60-7eeb-4df4-8fdf-9e7cecaaec44"},"vehicle_type_id":"4","last_reported":1702073208,"current_range_meters":0,"station_id":"ce4bhbp2rcd13ifvqerg","pricing_plan_id":"free"},{"bike_id":"fa2e5eff-bcdd-4767-b932-3649fccfb49c","system_id":"levelo_inurba_marseille","lat":43.283502,"lon":5.386471,"is_reserved":false,"is_disabled":false,"rental_uris":{"android":"levelo://app?vid=fa2e5eff-bcdd-4767-b932-3649fccfb49c","ios":"levelo://app?vid=fa2e5eff-bcdd-4767-b932-3649fccfb49c"},"vehicle_type_id":"4","last_reported":1702073208,"current_range_meters":12000,"station_id":"ce4bh492rcd13ifvqdvg","pricing_plan_id":"free"},{"bike_id":"99a3108e-eee6-46cd-968a-43c7f671a578","system_id":"levelo_inurba_marseille","lat":43.282754,"lon":5.350519,"is_reserved":false,"is_disabled":false,"rental_uris":{"android":"levelo://app?vid=99a3108e-eee6-46cd-968a-43c7f671a578","ios":"levelo://app?vid=99a3108e-eee6-46cd-968a-43c7f671a578"},"vehicle_type_id":"4","last_reported":1702073208,"current_range_meters":16400,"station_id":"ce4bhbp2rcd13ifvqerg","pricing_plan_id":"free"},{"bike_id":"c62582eb-7969-460d-a9da-5cceaf1481d6","system_id":"levelo_inurba_marseille","lat":43.282744,"lon":5.350533,"is_reserved":false,"is_disabled":false,"rental_uris":{"android":"levelo://app?vid=c62582eb-7969-460d-a9da-5cceaf1481d6","ios":"levelo://app?vid=c62582eb-7969-460d-a9da-5cceaf1481d6"},"vehicle_type_id":"4","last_reported":1702073208,"current_range_meters":4800,"station_id":"ce4bhbp2rcd13ifvqerg","pricing_plan_id":"free"},{"bike_id":"dd95d4a6-815e-4c11-9944-9ddd45ddfa4d","system_id":"levelo_inurba_marseille","lat":43.28033,"lon":5.36934,"is_reserved":false,"is_disabled":false,"rental_uris":{"android":"levelo://app?vid=dd95d4a6-815e-4c11-9944-9ddd45ddfa4d","ios":"levelo://app?vid=dd95d4a6-815e-4c11-9944-9ddd45ddfa4d"},"vehicle_type_id":"4","last_reported":1702073208,"current_range_meters":2000,"station_id":"ce4bha12rcd13ifvqef0","pricing_plan_id":"free"},{"bike_id":"dbaa8d01-05e0-4778-b647-6d4af5354590","system_id":"levelo_inurba_marseille","lat":43.28039,"lon":5.369297,"is_reserved":false,"is_disabled":false,"rental_uris":{"android":"levelo://app?vid=dbaa8d01-05e0-4778-b647-6d4af5354590","ios":"levelo://app?vid=dbaa8d01-05e0-4778-b647-6d4af5354590"},"vehicle_type_id":"4","last_reported":1702073208,"current_range_meters":0,"station_id":"ce4bha12rcd13ifvqef0","pricing_plan_id":"free"},{"bike_id":"7d6afa9a-2929-4189-ab76-6f7a34af73b3","system_id":"levelo_inurba_marseille","lat":43.280382,"lon":5.369291,"is_reserved":false,"is_disabled":false,"rental_uris":{"android":"levelo://app?vid=7d6afa9a-2929-4189-ab76-6f7a34af73b3","ios":"levelo://app?vid=7d6afa9a-2929-4189-ab76-6f7a34af73b3"},"vehicle_type_id":"4","last_reported":1702073208,"current_range_meters":17200,"station_id":"ce4bha12rcd13ifvqef0","pricing_plan_id":"free"},{"bike_id":"993f6636-7178-4467-8ea7-32387afc05b7","system_id":"levelo_inurba_marseille","lat":43.281044,"lon":5.378308,"is_reserved":false,"is_disabled":false,"rental_uris":{"android":"levelo://app?vid=993f6636-7178-4467-8ea7-32387afc05b7","ios":"levelo://app?vid=993f6636-7178-4467-8ea7-32387afc05b7"},"vehicle_type_id":"4","last_reported":1702073208,"current_range_meters":6000,"station_id":"ce4bha12rcd13ifvqee0","pricing_plan_id":"free"},{"bike_id":"32437485-9dd2-4f97-8b2e-d1f6729cd54f","system_id":"levelo_inurba_marseille","lat":43.285742,"lon":5.395004,"is_reserved":false,"is_disabled":false,"rental_uris":{"android":"levelo://app?vid=32437485-9dd2-4f97-8b2e-d1f6729cd54f","ios":"levelo://app?vid=32437485-9dd2-4f97-8b2e-d1f6729cd54f"},"vehicle_type_id":"4","last_reported":1702073208,"current_range_meters":18400,"station_id":"ce4bh292rcd13ifvqdg0","pricing_plan_id":"free"},{"bike_id":"c0763524-47cd-4818-80fc-1b29f8280dc8","system_id":"levelo_inurba_marseille","lat":43.326605,"lon":5.409903,"is_reserved":false,"is_disabled":false,"rental_uris":{"android":"levelo://app?vid=c0763524-47cd-4818-80fc-1b29f8280dc8","ios":"levelo://app?vid=c0763524-47cd-4818-80fc-1b29f8280dc8"},"vehicle_type_id":"4","last_reported":1702073208,"current_range_meters":30000,"station_id":"ce4bhpp2rcd13ifvqhgg","pricing_plan_id":"free"},{"bike_id":"e52ddfd6-0ddd-4c7b-ab34-3c7fe5c2aaef","system_id":"levelo_inurba_marseille","lat":43.326605,"lon":5.409903,"is_reserved":false,"is_disabled":false,"rental_uris":{"android":"levelo://app?vid=e52ddfd6-0ddd-4c7b-ab34-3c7fe5c2aaef","ios":"levelo://app?vid=e52ddfd6-0ddd-4c7b-ab34-3c7fe5c2aaef"},"vehicle_type_id":"4","last_reported":1702073208,"current_range_meters":11600,"station_id":"ce4bhpp2rcd13ifvqhgg","pricing_plan_id":"free"},{"bike_id":"8e72c163-1aa2-4a7b-94b7-81680a6273b6","system_id":"levelo_inurba_marseille","lat":43.326605,"lon":5.409903,"is_reserved":false,"is_disabled":false,"rental_uris":{"android":"levelo://app?vid=8e72c163-1aa2-4a7b-94b7-81680a6273b6","ios":"levelo://app?vid=8e72c163-1aa2-4a7b-94b7-81680a6273b6"},"vehicle_type_id":"4","last_reported":1702073208,"current_range_meters":10400,"station_id":"ce4bhpp2rcd13ifvqhgg","pricing_plan_id":"free"},{"bike_id":"b26c8630-323c-4045-8811-b7bc791c08ad","system_id":"levelo_inurba_marseille","lat":43.277906,"lon":5.362488,"is_reserved":false,"is_disabled":false,"rental_uris":{"android":"levelo://app?vid=b26c8630-323c-4045-8811-b7bc791c08ad","ios":"levelo://app?vid=b26c8630-323c-4045-8811-b7bc791c08ad"},"vehicle_type_id":"4","last_reported":1702073208,"current_range_meters":26400,"station_id":"","pricing_plan_id":"free"},{"bike_id":"9cd65b20-fee3-404f-89fa-9d7875c0b0fb","system_id":"levelo_inurba_marseille","lat":43.287154,"lon":5.399979,"is_reserved":false,"is_disabled":false,"rental_uris":{"android":"levelo://app?vid=9cd65b20-fee3-404f-89fa-9d7875c0b0fb","ios":"levelo://app?vid=9cd65b20-fee3-404f-89fa-9d7875c0b0fb"},"vehicle_type_id":"4","last_reported":1702073208,"current_range_meters":7600,"station_id":"ce4bho92rcd13ifvqh3g","pricing_plan_id":"free"},{"bike_id":"feefb8dd-906f-43c2-bcef-9f34bbb83558","system_id":"levelo_inurba_marseille","lat":43.279087,"lon":5.380114,"is_reserved":false,"is_disabled":false,"rental_uris":{"android":"levelo://app?vid=feefb8dd-906f-43c2-bcef-9f34bbb83558","ios":"levelo://app?vid=feefb8dd-906f-43c2-bcef-9f34bbb83558"},"vehicle_type_id":"4","last_reported":1702073208,"current_range_meters":4000,"station_id":"ce4bhf92rcd13ifvqf50","pricing_plan_id":"free"},{"bike_id":"c161c894-5100-4814-9270-426c4287e603","system_id":"levelo_inurba_marseille","lat":43.27617,"lon":5.36115,"is_reserved":false,"is_disabled":false,"rental_uris":{"android":"levelo://app?vid=c161c894-5100-4814-9270-426c4287e603","ios":"levelo://app?vid=c161c894-5100-4814-9270-426c4287e603"},"vehicle_type_id":"4","last_reported":1702073208,"current_range_meters":0,"station_id":"ce4bgj92rcd13ifvqbe0","pricing_plan_id":"free"},{"bike_id":"e82f2bfb-9d22-4200-94d9-f0975645ba9d","system_id":"levelo_inurba_marseille","lat":43.280784,"lon":5.396622,"is_reserved":false,"is_disabled":false,"rental_uris":{"android":"levelo://app?vid=e82f2bfb-9d22-4200-94d9-f0975645ba9d","ios":"levelo://app?vid=e82f2bfb-9d22-4200-94d9-f0975645ba9d"},"vehicle_type_id":"4","last_reported":1702073208,"current_range_meters":19200,"station_id":"ce4bho12rcd13ifvqh2g","pricing_plan_id":"free"},{"bike_id":"a38aeb50-e61c-4175-8b6c-ea2617d6def1","system_id":"levelo_inurba_marseille","lat":43.33612,"lon":5.410321,"is_reserved":false,"is_disabled":false,"rental_uris":{"android":"levelo://app?vid=a38aeb50-e61c-4175-8b6c-ea2617d6def1","ios":"levelo://app?vid=a38aeb50-e61c-4175-8b6c-ea2617d6def1"},"vehicle_type_id":"4","last_reported":1702073208,"current_range_meters":4800,"station_id":"ce4bhqh2rcd13ifvqhmg","pricing_plan_id":"free"},{"bike_id":"028d0ea3-9482-4e42-a96d-82f122d53e73","system_id":"levelo_inurba_marseille","lat":43.304096,"lon":5.425385,"is_reserved":false,"is_disabled":false,"rental_uris":{"android":"levelo://app?vid=028d0ea3-9482-4e42-a96d-82f122d53e73","ios":"levelo://app?vid=028d0ea3-9482-4e42-a96d-82f122d53e73"},"vehicle_type_id":"4","last_reported":1702073208,"current_range_meters":29200,"station_id":"ce4bhoh2rcd13ifvqh6g","pricing_plan_id":"free"},{"bike_id":"e34501e0-4a80-4af1-b609-c137374da842","system_id":"levelo_inurba_marseille","lat":43.273613,"lon":5.362705,"is_reserved":false,"is_disabled":false,"rental_uris":{"android":"levelo://app?vid=e34501e0-4a80-4af1-b609-c137374da842","ios":"levelo://app?vid=e34501e0-4a80-4af1-b609-c137374da842"},"vehicle_type_id":"4","last_reported":1702073208,"current_range_meters":14000,"station_id":"ce4bhbh2rcd13ifvqeo0","pricing_plan_id":"free"},{"bike_id":"bd309c78-c820-47d6-8ca2-d32903baef91","system_id":"levelo_inurba_marseille","lat":43.276305,"lon":5.391898,"is_reserved":false,"is_disabled":false,"rental_uris":{"android":"levelo://app?vid=bd309c78-c820-47d6-8ca2-d32903baef91","ios":"levelo://app?vid=bd309c78-c820-47d6-8ca2-d32903baef91"},"vehicle_type_id":"4","last_reported":1702073208,"current_range_meters":10000,"station_id":"","pricing_plan_id":"free"},{"bike_id":"02791883-a925-42a0-9dd3-b7193f6a574b","system_id":"levelo_inurba_marseille","lat":43.31715,"lon":5.42392,"is_reserved":false,"is_disabled":false,"rental_uris":{"android":"levelo://app?vid=02791883-a925-42a0-9dd3-b7193f6a574b","ios":"levelo://app?vid=02791883-a925-42a0-9dd3-b7193f6a574b"},"vehicle_type_id":"4","last_reported":1702073208,"current_range_meters":2000,"station_id":"ce4bhp92rcd13ifvqhbg","pricing_plan_id":"free"},{"bike_id":"c58024d2-cabc-4012-868c-d0b5976a6bb0","system_id":"levelo_inurba_marseille","lat":43.317121,"lon":5.423936,"is_reserved":false,"is_disabled":false,"rental_uris":{"android":"levelo://app?vid=c58024d2-cabc-4012-868c-d0b5976a6bb0","ios":"levelo://app?vid=c58024d2-cabc-4012-868c-d0b5976a6bb0"},"vehicle_type_id":"4","last_reported":1702073208,"current_range_meters":29200,"station_id":"ce4bhp92rcd13ifvqhbg","pricing_plan_id":"free"},{"bike_id":"0f7a9644-c470-46e7-ae97-75a010349f8b","system_id":"levelo_inurba_marseille","lat":43.317121,"lon":5.423936,"is_reserved":false,"is_disabled":false,"rental_uris":{"android":"levelo://app?vid=0f7a9644-c470-46e7-ae97-75a010349f8b","ios":"levelo://app?vid=0f7a9644-c470-46e7-ae97-75a010349f8b"},"vehicle_type_id":"4","last_reported":1702073208,"current_range_meters":26400,"station_id":"ce4bhp92rcd13ifvqhbg","pricing_plan_id":"free"},{"bike_id":"fc4bcc5b-5f4e-42a1-8cca-78d5c651475f","system_id":"levelo_inurba_marseille","lat":43.317121,"lon":5.423936,"is_reserved":false,"is_disabled":false,"rental_uris":{"android":"levelo://app?vid=fc4bcc5b-5f4e-42a1-8cca-78d5c651475f","ios":"levelo://app?vid=fc4bcc5b-5f4e-42a1-8cca-78d5c651475f"},"vehicle_type_id":"4","last_reported":1702073208,"current_range_meters":0,"station_id":"ce4bhp92rcd13ifvqhbg","pricing_plan_id":"free"},{"bike_id":"80038031-3601-4c51-b66a-c6c9131d41d1","system_id":"levelo_inurba_marseille","lat":43.310785,"lon":5.424305,"is_reserved":false,"is_disabled":false,"rental_uris":{"android":"levelo://app?vid=80038031-3601-4c51-b66a-c6c9131d41d1","ios":"levelo://app?vid=80038031-3601-4c51-b66a-c6c9131d41d1"},"vehicle_type_id":"4","last_reported":1702073208,"current_range_meters":26000,"station_id":"ce4bhp92rcd13ifvqhag","pricing_plan_id":"free"},{"bike_id":"48e3df08-57dc-434d-a06c-f6f751cd351f","system_id":"levelo_inurba_marseille","lat":43.310785,"lon":5.424305,"is_reserved":false,"is_disabled":false,"rental_uris":{"android":"levelo://app?vid=48e3df08-57dc-434d-a06c-f6f751cd351f","ios":"levelo://app?vid=48e3df08-57dc-434d-a06c-f6f751cd351f"},"vehicle_type_id":"4","last_reported":1702073208,"current_range_meters":22800,"station_id":"ce4bhp92rcd13ifvqhag","pricing_plan_id":"free"},{"bike_id":"fe6596e6-baa8-4e45-9baf-7421815b8310","system_id":"levelo_inurba_marseille","lat":43.31082,"lon":5.42431,"is_reserved":false,"is_disabled":false,"rental_uris":{"android":"levelo://app?vid=fe6596e6-baa8-4e45-9baf-7421815b8310","ios":"levelo://app?vid=fe6596e6-baa8-4e45-9baf-7421815b8310"},"vehicle_type_id":"4","last_reported":1702073208,"current_range_meters":18000,"station_id":"ce4bhp92rcd13ifvqhag","pricing_plan_id":"free"},{"bike_id":"3382fddf-23bf-43e2-9be0-1a0233fdea3a","system_id":"levelo_inurba_marseille","lat":43.31082,"lon":5.42433,"is_reserved":false,"is_disabled":false,"rental_uris":{"android":"levelo://app?vid=3382fddf-23bf-43e2-9be0-1a0233fdea3a","ios":"levelo://app?vid=3382fddf-23bf-43e2-9be0-1a0233fdea3a"},"vehicle_type_id":"4","last_reported":1702073208,"current_range_meters":31200,"station_id":"ce4bhp92rcd13ifvqhag","pricing_plan_id":"free"},{"bike_id":"e6ff414d-6f05-44d2-b7c6-4a89a6fc64e2","system_id":"levelo_inurba_marseille","lat":43.310831,"lon":5.424338,"is_reserved":false,"is_disabled":false,"rental_uris":{"android":"levelo://app?vid=e6ff414d-6f05-44d2-b7c6-4a89a6fc64e2","ios":"levelo://app?vid=e6ff414d-6f05-44d2-b7c6-4a89a6fc64e2"},"vehicle_type_id":"4","last_reported":1702073208,"current_range_meters":7200,"station_id":"ce4bhp92rcd13ifvqhag","pricing_plan_id":"free"},{"bike_id":"63133364-316e-458e-b234-bbd4926c63fc","system_id":"levelo_inurba_marseille","lat":43.27583,"lon":5.39474,"is_reserved":false,"is_disabled":false,"rental_uris":{"android":"levelo://app?vid=63133364-316e-458e-b234-bbd4926c63fc","ios":"levelo://app?vid=63133364-316e-458e-b234-bbd4926c63fc"},"vehicle_type_id":"4","last_reported":1702073208,"current_range_meters":10800,"station_id":"","pricing_plan_id":"free"},{"bike_id":"5ed4ca3b-e38e-4196-acea-f278768787eb","system_id":"levelo_inurba_marseille","lat":43.295511,"lon":5.422926,"is_reserved":false,"is_disabled":false,"rental_uris":{"android":"levelo://app?vid=5ed4ca3b-e38e-4196-acea-f278768787eb","ios":"levelo://app?vid=5ed4ca3b-e38e-4196-acea-f278768787eb"},"vehicle_type_id":"4","last_reported":1702073208,"current_range_meters":18400,"station_id":"ce4bhph2rcd13ifvqhdg","pricing_plan_id":"free"},{"bike_id":"b0ace1ee-48c1-47ff-b8ca-0f59683651a4","system_id":"levelo_inurba_marseille","lat":43.295523,"lon":5.422926,"is_reserved":false,"is_disabled":false,"rental_uris":{"android":"levelo://app?vid=b0ace1ee-48c1-47ff-b8ca-0f59683651a4","ios":"levelo://app?vid=b0ace1ee-48c1-47ff-b8ca-0f59683651a4"},"vehicle_type_id":"4","last_reported":1702073208,"current_range_meters":30000,"station_id":"ce4bhph2rcd13ifvqhdg","pricing_plan_id":"free"},{"bike_id":"4f9e48a0-eacd-4e63-bd3c-330b19e5c041","system_id":"levelo_inurba_marseille","lat":43.295511,"lon":5.422926,"is_reserved":false,"is_disabled":false,"rental_uris":{"android":"levelo://app?vid=4f9e48a0-eacd-4e63-bd3c-330b19e5c041","ios":"levelo://app?vid=4f9e48a0-eacd-4e63-bd3c-330b19e5c041"},"vehicle_type_id":"4","last_reported":1702073208,"current_range_meters":20000,"station_id":"ce4bhph2rcd13ifvqhdg","pricing_plan_id":"free"},{"bike_id":"c37bcc67-d8fe-464c-9c06-6e4b3cfad169","system_id":"levelo_inurba_marseille","lat":43.272116,"lon":5.391747,"is_reserved":false,"is_disabled":false,"rental_uris":{"android":"levelo://app?vid=c37bcc67-d8fe-464c-9c06-6e4b3cfad169","ios":"levelo://app?vid=c37bcc67-d8fe-464c-9c06-6e4b3cfad169"},"vehicle_type_id":"4","last_reported":1702073208,"current_range_meters":26000,"station_id":"ce4bhhp2rcd13ifvqfm0","pricing_plan_id":"free"},{"bike_id":"8f021145-48f8-459b-aef0-f8921e18b0a0","system_id":"levelo_inurba_marseille","lat":43.27214,"lon":5.3925,"is_reserved":false,"is_disabled":false,"rental_uris":{"android":"levelo://app?vid=8f021145-48f8-459b-aef0-f8921e18b0a0","ios":"levelo://app?vid=8f021145-48f8-459b-aef0-f8921e18b0a0"},"vehicle_type_id":"4","last_reported":1702073208,"current_range_meters":4000,"station_id":"","pricing_plan_id":"free"},{"bike_id":"92d1985a-96f4-4ff7-8c31-88cad3a8898b","system_id":"levelo_inurba_marseille","lat":43.278128,"lon":5.407195,"is_reserved":false,"is_disabled":false,"rental_uris":{"android":"levelo://app?vid=92d1985a-96f4-4ff7-8c31-88cad3a8898b","ios":"levelo://app?vid=92d1985a-96f4-4ff7-8c31-88cad3a8898b"},"vehicle_type_id":"4","last_reported":1702073208,"current_range_meters":19600,"station_id":"ce4bhnh2rcd13ifvqgtg","pricing_plan_id":"free"},{"bike_id":"0711f982-f633-4f94-a265-bcc999acbf29","system_id":"levelo_inurba_marseille","lat":43.27954,"lon":5.41053,"is_reserved":false,"is_disabled":false,"rental_uris":{"android":"levelo://app?vid=0711f982-f633-4f94-a265-bcc999acbf29","ios":"levelo://app?vid=0711f982-f633-4f94-a265-bcc999acbf29"},"vehicle_type_id":"4","last_reported":1702073208,"current_range_meters":3200,"station_id":"ce4bhnp2rcd13ifvqh0g","pricing_plan_id":"free"},{"bike_id":"e7af14ac-e900-47bf-9b93-221102189b72","system_id":"levelo_inurba_marseille","lat":43.27948,"lon":5.41048,"is_reserved":false,"is_disabled":false,"rental_uris":{"android":"levelo://app?vid=e7af14ac-e900-47bf-9b93-221102189b72","ios":"levelo://app?vid=e7af14ac-e900-47bf-9b93-221102189b72"},"vehicle_type_id":"4","last_reported":1702073208,"current_range_meters":23600,"station_id":"ce4bhnp2rcd13ifvqh0g","pricing_plan_id":"free"},{"bike_id":"61ea6eb9-e672-4396-be09-5529b239716d","system_id":"levelo_inurba_marseille","lat":43.27939,"lon":5.41043,"is_reserved":false,"is_disabled":false,"rental_uris":{"android":"levelo://app?vid=61ea6eb9-e672-4396-be09-5529b239716d","ios":"levelo://app?vid=61ea6eb9-e672-4396-be09-5529b239716d"},"vehicle_type_id":"4","last_reported":1702073208,"current_range_meters":800,"station_id":"ce4bhnp2rcd13ifvqh0g","pricing_plan_id":"free"},{"bike_id":"5934d825-14b1-42a1-9779-33d238710290","system_id":"levelo_inurba_marseille","lat":43.26681,"lon":5.382694,"is_reserved":false,"is_disabled":false,"rental_uris":{"android":"levelo://app?vid=5934d825-14b1-42a1-9779-33d238710290","ios":"levelo://app?vid=5934d825-14b1-42a1-9779-33d238710290"},"vehicle_type_id":"4","last_reported":1702073208,"current_range_meters":26400,"station_id":"ce4bhg92rcd13ifvqf90","pricing_plan_id":"free"},{"bike_id":"4ae748c3-01b4-4de9-81bb-63b22002ddce","system_id":"levelo_inurba_marseille","lat":43.27996,"lon":5.416624,"is_reserved":false,"is_disabled":false,"rental_uris":{"android":"levelo://app?vid=4ae748c3-01b4-4de9-81bb-63b22002ddce","ios":"levelo://app?vid=4ae748c3-01b4-4de9-81bb-63b22002ddce"},"vehicle_type_id":"4","last_reported":1702073208,"current_range_meters":7600,"station_id":"ce4bho12rcd13ifvqh1g","pricing_plan_id":"free"},{"bike_id":"aafbcd04-eaba-4b75-9505-fd9360084ee5","system_id":"levelo_inurba_marseille","lat":43.27998,"lon":5.41661,"is_reserved":false,"is_disabled":false,"rental_uris":{"android":"levelo://app?vid=aafbcd04-eaba-4b75-9505-fd9360084ee5","ios":"levelo://app?vid=aafbcd04-eaba-4b75-9505-fd9360084ee5"},"vehicle_type_id":"4","last_reported":1702073208,"current_range_meters":4400,"station_id":"ce4bho12rcd13ifvqh1g","pricing_plan_id":"free"},{"bike_id":"6ee944d2-53b0-47e2-b4f4-624cb69640c9","system_id":"levelo_inurba_marseille","lat":43.27997,"lon":5.41662,"is_reserved":false,"is_disabled":false,"rental_uris":{"android":"levelo://app?vid=6ee944d2-53b0-47e2-b4f4-624cb69640c9","ios":"levelo://app?vid=6ee944d2-53b0-47e2-b4f4-624cb69640c9"},"vehicle_type_id":"4","last_reported":1702073208,"current_range_meters":23200,"station_id":"ce4bho12rcd13ifvqh1g","pricing_plan_id":"free"},{"bike_id":"3315ff64-44e6-417a-b2e7-1e8925684364","system_id":"levelo_inurba_marseille","lat":43.279881,"lon":5.416579,"is_reserved":false,"is_disabled":false,"rental_uris":{"android":"levelo://app?vid=3315ff64-44e6-417a-b2e7-1e8925684364","ios":"levelo://app?vid=3315ff64-44e6-417a-b2e7-1e8925684364"},"vehicle_type_id":"4","last_reported":1702073208,"current_range_meters":5600,"station_id":"ce4bho12rcd13ifvqh1g","pricing_plan_id":"free"},{"bike_id":"a2f38f38-5adc-4ba4-8b5a-2c72e7c84917","system_id":"levelo_inurba_marseille","lat":43.26572,"lon":5.39008,"is_reserved":false,"is_disabled":false,"rental_uris":{"android":"levelo://app?vid=a2f38f38-5adc-4ba4-8b5a-2c72e7c84917","ios":"levelo://app?vid=a2f38f38-5adc-4ba4-8b5a-2c72e7c84917"},"vehicle_type_id":"4","last_reported":1702073208,"current_range_meters":22000,"station_id":"ce4bhe12rcd13ifvqf30","pricing_plan_id":"free"},{"bike_id":"7f9045c7-3c11-4580-bb4f-21f8fcfa0985","system_id":"levelo_inurba_marseille","lat":43.265571,"lon":5.390032,"is_reserved":false,"is_disabled":false,"rental_uris":{"android":"levelo://app?vid=7f9045c7-3c11-4580-bb4f-21f8fcfa0985","ios":"levelo://app?vid=7f9045c7-3c11-4580-bb4f-21f8fcfa0985"},"vehicle_type_id":"4","last_reported":1702073208,"current_range_meters":8000,"station_id":"ce4bhe12rcd13ifvqf30","pricing_plan_id":"free"},{"bike_id":"6e7b4200-1948-48d3-accd-666077fbbf44","system_id":"levelo_inurba_marseille","lat":43.26949,"lon":5.40262,"is_reserved":false,"is_disabled":false,"rental_uris":{"android":"levelo://app?vid=6e7b4200-1948-48d3-accd-666077fbbf44","ios":"levelo://app?vid=6e7b4200-1948-48d3-accd-666077fbbf44"},"vehicle_type_id":"4","last_reported":1702073208,"current_range_meters":11200,"station_id":"cjm6bp8fraef2m0cb0m0","pricing_plan_id":"free"},{"bike_id":"17079219-e5bb-4a89-b7d3-3d1056cca7e6","system_id":"levelo_inurba_marseille","lat":43.317104,"lon":5.436818,"is_reserved":false,"is_disabled":false,"rental_uris":{"android":"levelo://app?vid=17079219-e5bb-4a89-b7d3-3d1056cca7e6","ios":"levelo://app?vid=17079219-e5bb-4a89-b7d3-3d1056cca7e6"},"vehicle_type_id":"4","last_reported":1702073208,"current_range_meters":14000,"station_id":"ce4bhp92rcd13ifvqhcg","pricing_plan_id":"free"},{"bike_id":"10bd98e0-d0a2-4a25-a407-cc97034aa68c","system_id":"levelo_inurba_marseille","lat":43.3171,"lon":5.43701,"is_reserved":false,"is_disabled":false,"rental_uris":{"android":"levelo://app?vid=10bd98e0-d0a2-4a25-a407-cc97034aa68c","ios":"levelo://app?vid=10bd98e0-d0a2-4a25-a407-cc97034aa68c"},"vehicle_type_id":"4","last_reported":1702073208,"current_range_meters":10800,"station_id":"ce4bhp92rcd13ifvqhcg","pricing_plan_id":"free"},{"bike_id":"79ee77fe-c70d-432f-b391-9898eb0bb7f4","system_id":"levelo_inurba_marseille","lat":43.261782,"lon":5.374515,"is_reserved":false,"is_disabled":false,"rental_uris":{"android":"levelo://app?vid=79ee77fe-c70d-432f-b391-9898eb0bb7f4","ios":"levelo://app?vid=79ee77fe-c70d-432f-b391-9898eb0bb7f4"},"vehicle_type_id":"4","last_reported":1702073208,"current_range_meters":17600,"station_id":"ce4bhgp2rcd13ifvqfc0","pricing_plan_id":"free"},{"bike_id":"6e703857-9603-4952-8898-0e1d4c0ec7de","system_id":"levelo_inurba_marseille","lat":43.261782,"lon":5.374515,"is_reserved":false,"is_disabled":false,"rental_uris":{"android":"levelo://app?vid=6e703857-9603-4952-8898-0e1d4c0ec7de","ios":"levelo://app?vid=6e703857-9603-4952-8898-0e1d4c0ec7de"},"vehicle_type_id":"4","last_reported":1702073208,"current_range_meters":6400,"station_id":"ce4bhgp2rcd13ifvqfc0","pricing_plan_id":"free"},{"bike_id":"26a316ce-cbd3-4799-8b70-99bfb6f0c11e","system_id":"levelo_inurba_marseille","lat":43.317104,"lon":5.436818,"is_reserved":false,"is_disabled":false,"rental_uris":{"android":"levelo://app?vid=26a316ce-cbd3-4799-8b70-99bfb6f0c11e","ios":"levelo://app?vid=26a316ce-cbd3-4799-8b70-99bfb6f0c11e"},"vehicle_type_id":"4","last_reported":1702073208,"current_range_meters":30800,"station_id":"ce4bhp92rcd13ifvqhcg","pricing_plan_id":"free"},{"bike_id":"2c28e409-64d2-48bf-b235-80e7348c2064","system_id":"levelo_inurba_marseille","lat":43.271368,"lon":5.40928,"is_reserved":false,"is_disabled":false,"rental_uris":{"android":"levelo://app?vid=2c28e409-64d2-48bf-b235-80e7348c2064","ios":"levelo://app?vid=2c28e409-64d2-48bf-b235-80e7348c2064"},"vehicle_type_id":"4","last_reported":1702073208,"current_range_meters":24400,"station_id":"ce4bhl12rcd13ifvqgf0","pricing_plan_id":"free"},{"bike_id":"7324b8b8-c359-4738-acdf-a284cc99732e","system_id":"levelo_inurba_marseille","lat":43.317104,"lon":5.436818,"is_reserved":false,"is_disabled":false,"rental_uris":{"android":"levelo://app?vid=7324b8b8-c359-4738-acdf-a284cc99732e","ios":"levelo://app?vid=7324b8b8-c359-4738-acdf-a284cc99732e"},"vehicle_type_id":"4","last_reported":1702073208,"current_range_meters":6400,"station_id":"ce4bhp92rcd13ifvqhcg","pricing_plan_id":"free"},{"bike_id":"668edf61-6960-468f-942e-6a5cc5a21a93","system_id":"levelo_inurba_marseille","lat":43.271388,"lon":5.409269,"is_reserved":false,"is_disabled":false,"rental_uris":{"android":"levelo://app?vid=668edf61-6960-468f-942e-6a5cc5a21a93","ios":"levelo://app?vid=668edf61-6960-468f-942e-6a5cc5a21a93"},"vehicle_type_id":"4","last_reported":1702073208,"current_range_meters":27200,"station_id":"ce4bhl12rcd13ifvqgf0","pricing_plan_id":"free"},{"bike_id":"27e0bed9-11d2-4515-92f1-768e36978486","system_id":"levelo_inurba_marseille","lat":43.271388,"lon":5.409269,"is_reserved":false,"is_disabled":false,"rental_uris":{"android":"levelo://app?vid=27e0bed9-11d2-4515-92f1-768e36978486","ios":"levelo://app?vid=27e0bed9-11d2-4515-92f1-768e36978486"},"vehicle_type_id":"4","last_reported":1702073208,"current_range_meters":3200,"station_id":"ce4bhl12rcd13ifvqgf0","pricing_plan_id":"free"},{"bike_id":"74a742a0-f46a-4797-9671-4672cbcf3a2a","system_id":"levelo_inurba_marseille","lat":43.271368,"lon":5.40928,"is_reserved":false,"is_disabled":false,"rental_uris":{"android":"levelo://app?vid=74a742a0-f46a-4797-9671-4672cbcf3a2a","ios":"levelo://app?vid=74a742a0-f46a-4797-9671-4672cbcf3a2a"},"vehicle_type_id":"4","last_reported":1702073208,"current_range_meters":13600,"station_id":"ce4bhl12rcd13ifvqgf0","pricing_plan_id":"free"},{"bike_id":"c7243c68-1ec1-41a1-b9f1-d075e1e538d2","system_id":"levelo_inurba_marseille","lat":43.267959,"lon":5.402685,"is_reserved":false,"is_disabled":false,"rental_uris":{"android":"levelo://app?vid=c7243c68-1ec1-41a1-b9f1-d075e1e538d2","ios":"levelo://app?vid=c7243c68-1ec1-41a1-b9f1-d075e1e538d2"},"vehicle_type_id":"4","last_reported":1702073208,"current_range_meters":24000,"station_id":"ce501612rcd8frsf0b60","pricing_plan_id":"free"},{"bike_id":"706de2ca-d32a-42a2-9826-ef7d16f89a5b","system_id":"levelo_inurba_marseille","lat":43.267959,"lon":5.402687,"is_reserved":false,"is_disabled":false,"rental_uris":{"android":"levelo://app?vid=706de2ca-d32a-42a2-9826-ef7d16f89a5b","ios":"levelo://app?vid=706de2ca-d32a-42a2-9826-ef7d16f89a5b"},"vehicle_type_id":"4","last_reported":1702073208,"current_range_meters":27600,"station_id":"ce501612rcd8frsf0b60","pricing_plan_id":"free"},{"bike_id":"4f68f183-a711-4386-a731-e8ea8e2f115e","system_id":"levelo_inurba_marseille","lat":43.298768,"lon":5.43643,"is_reserved":false,"is_disabled":false,"rental_uris":{"android":"levelo://app?vid=4f68f183-a711-4386-a731-e8ea8e2f115e","ios":"levelo://app?vid=4f68f183-a711-4386-a731-e8ea8e2f115e"},"vehicle_type_id":"4","last_reported":1702073208,"current_range_meters":26000,"station_id":"ce4bhpp2rcd13ifvqhfg","pricing_plan_id":"free"},{"bike_id":"5215ad78-0811-4492-88ee-04afc35bf3a5","system_id":"levelo_inurba_marseille","lat":43.298768,"lon":5.43643,"is_reserved":false,"is_disabled":false,"rental_uris":{"android":"levelo://app?vid=5215ad78-0811-4492-88ee-04afc35bf3a5","ios":"levelo://app?vid=5215ad78-0811-4492-88ee-04afc35bf3a5"},"vehicle_type_id":"4","last_reported":1702073208,"current_range_meters":31200,"station_id":"ce4bhpp2rcd13ifvqhfg","pricing_plan_id":"free"},{"bike_id":"6b17b896-99f2-456b-929e-df3811eeb274","system_id":"levelo_inurba_marseille","lat":43.298768,"lon":5.43643,"is_reserved":false,"is_disabled":false,"rental_uris":{"android":"levelo://app?vid=6b17b896-99f2-456b-929e-df3811eeb274","ios":"levelo://app?vid=6b17b896-99f2-456b-929e-df3811eeb274"},"vehicle_type_id":"4","last_reported":1702073208,"current_range_meters":28800,"station_id":"ce4bhpp2rcd13ifvqhfg","pricing_plan_id":"free"},{"bike_id":"83e2018e-7127-4415-8bbf-2e347a9c6750","system_id":"levelo_inurba_marseille","lat":43.298934,"lon":5.436608,"is_reserved":false,"is_disabled":false,"rental_uris":{"android":"levelo://app?vid=83e2018e-7127-4415-8bbf-2e347a9c6750","ios":"levelo://app?vid=83e2018e-7127-4415-8bbf-2e347a9c6750"},"vehicle_type_id":"4","last_reported":1702073208,"current_range_meters":1600,"station_id":"ce4bhpp2rcd13ifvqhfg","pricing_plan_id":"free"},{"bike_id":"ca4db8a8-5b98-4b78-bc3d-514f38028a3d","system_id":"levelo_inurba_marseille","lat":43.298768,"lon":5.43643,"is_reserved":false,"is_disabled":false,"rental_uris":{"android":"levelo://app?vid=ca4db8a8-5b98-4b78-bc3d-514f38028a3d","ios":"levelo://app?vid=ca4db8a8-5b98-4b78-bc3d-514f38028a3d"},"vehicle_type_id":"4","last_reported":1702073208,"current_range_meters":31200,"station_id":"ce4bhpp2rcd13ifvqhfg","pricing_plan_id":"free"},{"bike_id":"70c52fa1-91be-4fbd-9217-7a0c668f9310","system_id":"levelo_inurba_marseille","lat":43.29888,"lon":5.43667,"is_reserved":false,"is_disabled":false,"rental_uris":{"android":"levelo://app?vid=70c52fa1-91be-4fbd-9217-7a0c668f9310","ios":"levelo://app?vid=70c52fa1-91be-4fbd-9217-7a0c668f9310"},"vehicle_type_id":"4","last_reported":1702073208,"current_range_meters":28800,"station_id":"ce4bhpp2rcd13ifvqhfg","pricing_plan_id":"free"},{"bike_id":"35808219-26b6-4380-82a5-b4564699733a","system_id":"levelo_inurba_marseille","lat":43.298992,"lon":5.436767,"is_reserved":false,"is_disabled":false,"rental_uris":{"android":"levelo://app?vid=35808219-26b6-4380-82a5-b4564699733a","ios":"levelo://app?vid=35808219-26b6-4380-82a5-b4564699733a"},"vehicle_type_id":"4","last_reported":1702073208,"current_range_meters":14000,"station_id":"","pricing_plan_id":"free"},{"bike_id":"c16ba598-e268-423a-ba8d-6002d2a98117","system_id":"levelo_inurba_marseille","lat":43.298768,"lon":5.43643,"is_reserved":false,"is_disabled":false,"rental_uris":{"android":"levelo://app?vid=c16ba598-e268-423a-ba8d-6002d2a98117","ios":"levelo://app?vid=c16ba598-e268-423a-ba8d-6002d2a98117"},"vehicle_type_id":"4","last_reported":1702073208,"current_range_meters":28000,"station_id":"ce4bhpp2rcd13ifvqhfg","pricing_plan_id":"free"},{"bike_id":"f56607a5-8c0d-4214-a86e-b954d1fd309d","system_id":"levelo_inurba_marseille","lat":43.28151,"lon":5.42638,"is_reserved":false,"is_disabled":false,"rental_uris":{"android":"levelo://app?vid=f56607a5-8c0d-4214-a86e-b954d1fd309d","ios":"levelo://app?vid=f56607a5-8c0d-4214-a86e-b954d1fd309d"},"vehicle_type_id":"4","last_reported":1702073208,"current_range_meters":2800,"station_id":"ce4bhnh2rcd13ifvqgug","pricing_plan_id":"free"},{"bike_id":"2d70b9fc-8d42-4ce5-98c1-cdfca249cc2c","system_id":"levelo_inurba_marseille","lat":43.281548,"lon":5.42643,"is_reserved":false,"is_disabled":false,"rental_uris":{"android":"levelo://app?vid=2d70b9fc-8d42-4ce5-98c1-cdfca249cc2c","ios":"levelo://app?vid=2d70b9fc-8d42-4ce5-98c1-cdfca249cc2c"},"vehicle_type_id":"4","last_reported":1702073208,"current_range_meters":26000,"station_id":"ce4bhnh2rcd13ifvqgug","pricing_plan_id":"free"},{"bike_id":"bf0f85ca-5630-4c1a-b3f1-d0fc5f67252f","system_id":"levelo_inurba_marseille","lat":43.281548,"lon":5.42643,"is_reserved":false,"is_disabled":false,"rental_uris":{"android":"levelo://app?vid=bf0f85ca-5630-4c1a-b3f1-d0fc5f67252f","ios":"levelo://app?vid=bf0f85ca-5630-4c1a-b3f1-d0fc5f67252f"},"vehicle_type_id":"4","last_reported":1702073208,"current_range_meters":13600,"station_id":"ce4bhnh2rcd13ifvqgug","pricing_plan_id":"free"},{"bike_id":"000acef0-d2f9-45d3-985c-f854071a0283","system_id":"levelo_inurba_marseille","lat":43.275028,"lon":5.424534,"is_reserved":false,"is_disabled":false,"rental_uris":{"android":"levelo://app?vid=000acef0-d2f9-45d3-985c-f854071a0283","ios":"levelo://app?vid=000acef0-d2f9-45d3-985c-f854071a0283"},"vehicle_type_id":"4","last_reported":1702073208,"current_range_meters":26800,"station_id":"ce4bhn92rcd13ifvqgrg","pricing_plan_id":"free"},{"bike_id":"6ba654fd-0962-4a10-910c-7ee49fa88cc1","system_id":"levelo_inurba_marseille","lat":43.270721,"lon":5.422764,"is_reserved":false,"is_disabled":false,"rental_uris":{"android":"levelo://app?vid=6ba654fd-0962-4a10-910c-7ee49fa88cc1","ios":"levelo://app?vid=6ba654fd-0962-4a10-910c-7ee49fa88cc1"},"vehicle_type_id":"4","last_reported":1702073208,"current_range_meters":14400,"station_id":"ce4bhk92rcd13ifvqgb0","pricing_plan_id":"free"},{"bike_id":"adc8557e-d91f-4fd5-848f-ea92ff49ccc1","system_id":"levelo_inurba_marseille","lat":43.270721,"lon":5.422764,"is_reserved":false,"is_disabled":false,"rental_uris":{"android":"levelo://app?vid=adc8557e-d91f-4fd5-848f-ea92ff49ccc1","ios":"levelo://app?vid=adc8557e-d91f-4fd5-848f-ea92ff49ccc1"},"vehicle_type_id":"4","last_reported":1702073208,"current_range_meters":7600,"station_id":"ce4bhk92rcd13ifvqgb0","pricing_plan_id":"free"},{"bike_id":"bca9cc40-1771-4266-9a81-e9666469cf1c","system_id":"levelo_inurba_marseille","lat":43.257079,"lon":5.411051,"is_reserved":false,"is_disabled":false,"rental_uris":{"android":"levelo://app?vid=bca9cc40-1771-4266-9a81-e9666469cf1c","ios":"levelo://app?vid=bca9cc40-1771-4266-9a81-e9666469cf1c"},"vehicle_type_id":"4","last_reported":1702073208,"current_range_meters":9600,"station_id":"ce4bhkp2rcd13ifvqgd0","pricing_plan_id":"free"},{"bike_id":"47e5a1e6-b584-4998-859b-236011d325a2","system_id":"levelo_inurba_marseille","lat":43.2479,"lon":5.374457,"is_reserved":false,"is_disabled":false,"rental_uris":{"android":"levelo://app?vid=47e5a1e6-b584-4998-859b-236011d325a2","ios":"levelo://app?vid=47e5a1e6-b584-4998-859b-236011d325a2"},"vehicle_type_id":"4","last_reported":1702073208,"current_range_meters":16000,"station_id":"ce4bhgh2rcd13ifvqfb0","pricing_plan_id":"free"},{"bike_id":"8508fa21-fb93-4b49-a453-60acc70e61cc","system_id":"levelo_inurba_marseille","lat":43.24804,"lon":5.37455,"is_reserved":false,"is_disabled":false,"rental_uris":{"android":"levelo://app?vid=8508fa21-fb93-4b49-a453-60acc70e61cc","ios":"levelo://app?vid=8508fa21-fb93-4b49-a453-60acc70e61cc"},"vehicle_type_id":"4","last_reported":1702073208,"current_range_meters":19600,"station_id":"ce4bhgh2rcd13ifvqfb0","pricing_plan_id":"free"},{"bike_id":"d195574f-e73f-4bc9-bb4a-9e855812b9d0","system_id":"levelo_inurba_marseille","lat":43.243884,"lon":5.370737,"is_reserved":false,"is_disabled":false,"rental_uris":{"android":"levelo://app?vid=d195574f-e73f-4bc9-bb4a-9e855812b9d0","ios":"levelo://app?vid=d195574f-e73f-4bc9-bb4a-9e855812b9d0"},"vehicle_type_id":"4","last_reported":1702073208,"current_range_meters":4000,"station_id":"ce4bhhh2rcd13ifvqfk0","pricing_plan_id":"free"},{"bike_id":"838cf910-38c0-4679-ac31-6164d3144909","system_id":"levelo_inurba_marseille","lat":43.243884,"lon":5.370737,"is_reserved":false,"is_disabled":false,"rental_uris":{"android":"levelo://app?vid=838cf910-38c0-4679-ac31-6164d3144909","ios":"levelo://app?vid=838cf910-38c0-4679-ac31-6164d3144909"},"vehicle_type_id":"4","last_reported":1702073208,"current_range_meters":28400,"station_id":"ce4bhhh2rcd13ifvqfk0","pricing_plan_id":"free"},{"bike_id":"9bdb7ab8-9ffd-4fd0-a254-22e705c6f751","system_id":"levelo_inurba_marseille","lat":43.243884,"lon":5.370736,"is_reserved":false,"is_disabled":false,"rental_uris":{"android":"levelo://app?vid=9bdb7ab8-9ffd-4fd0-a254-22e705c6f751","ios":"levelo://app?vid=9bdb7ab8-9ffd-4fd0-a254-22e705c6f751"},"vehicle_type_id":"4","last_reported":1702073208,"current_range_meters":27600,"station_id":"ce4bhhh2rcd13ifvqfk0","pricing_plan_id":"free"},{"bike_id":"b3705516-da65-4902-b345-4cc53e261fdf","system_id":"levelo_inurba_marseille","lat":43.2408,"lon":5.37759,"is_reserved":false,"is_disabled":false,"rental_uris":{"android":"levelo://app?vid=b3705516-da65-4902-b345-4cc53e261fdf","ios":"levelo://app?vid=b3705516-da65-4902-b345-4cc53e261fdf"},"vehicle_type_id":"4","last_reported":1702073208,"current_range_meters":20800,"station_id":"","pricing_plan_id":"free"},{"bike_id":"6791efa3-078c-4678-ab27-3976ff2fdcc0","system_id":"levelo_inurba_marseille","lat":43.240623,"lon":5.377642,"is_reserved":false,"is_disabled":false,"rental_uris":{"android":"levelo://app?vid=6791efa3-078c-4678-ab27-3976ff2fdcc0","ios":"levelo://app?vid=6791efa3-078c-4678-ab27-3976ff2fdcc0"},"vehicle_type_id":"4","last_reported":1702073208,"current_range_meters":21200,"station_id":"ce4bhnp2rcd13ifvqgvg","pricing_plan_id":"free"},{"bike_id":"93954539-37ab-42cb-8148-c6cd6174d0ce","system_id":"levelo_inurba_marseille","lat":43.239588,"lon":5.366238,"is_reserved":false,"is_disabled":false,"rental_uris":{"android":"levelo://app?vid=93954539-37ab-42cb-8148-c6cd6174d0ce","ios":"levelo://app?vid=93954539-37ab-42cb-8148-c6cd6174d0ce"},"vehicle_type_id":"4","last_reported":1702073208,"current_range_meters":31600,"station_id":"ce4bhi12rcd13ifvqfp0","pricing_plan_id":"free"},{"bike_id":"fc8a7774-7978-464f-bc39-ef33e8146288","system_id":"levelo_inurba_marseille","lat":43.239588,"lon":5.366238,"is_reserved":false,"is_disabled":false,"rental_uris":{"android":"levelo://app?vid=fc8a7774-7978-464f-bc39-ef33e8146288","ios":"levelo://app?vid=fc8a7774-7978-464f-bc39-ef33e8146288"},"vehicle_type_id":"4","last_reported":1702073208,"current_range_meters":5600,"station_id":"ce4bhi12rcd13ifvqfp0","pricing_plan_id":"free"},{"bike_id":"07f04f98-06c9-4309-b3fe-4415621f48f3","system_id":"levelo_inurba_marseille","lat":43.239588,"lon":5.366238,"is_reserved":false,"is_disabled":false,"rental_uris":{"android":"levelo://app?vid=07f04f98-06c9-4309-b3fe-4415621f48f3","ios":"levelo://app?vid=07f04f98-06c9-4309-b3fe-4415621f48f3"},"vehicle_type_id":"4","last_reported":1702073208,"current_range_meters":26400,"station_id":"ce4bhi12rcd13ifvqfp0","pricing_plan_id":"free"},{"bike_id":"19de1d90-0ef7-4697-bd3a-3e98bd2bf2e7","system_id":"levelo_inurba_marseille","lat":43.239588,"lon":5.366238,"is_reserved":false,"is_disabled":false,"rental_uris":{"android":"levelo://app?vid=19de1d90-0ef7-4697-bd3a-3e98bd2bf2e7","ios":"levelo://app?vid=19de1d90-0ef7-4697-bd3a-3e98bd2bf2e7"},"vehicle_type_id":"4","last_reported":1702073208,"current_range_meters":31200,"station_id":"ce4bhi12rcd13ifvqfp0","pricing_plan_id":"free"},{"bike_id":"c044812f-23c8-40b9-9235-f3a1ed3758bf","system_id":"levelo_inurba_marseille","lat":43.239588,"lon":5.366238,"is_reserved":false,"is_disabled":false,"rental_uris":{"android":"levelo://app?vid=c044812f-23c8-40b9-9235-f3a1ed3758bf","ios":"levelo://app?vid=c044812f-23c8-40b9-9235-f3a1ed3758bf"},"vehicle_type_id":"4","last_reported":1702073208,"current_range_meters":17600,"station_id":"ce4bhi12rcd13ifvqfp0","pricing_plan_id":"free"},{"bike_id":"1d8e9bd7-e6ff-447e-b845-0049da0206d3","system_id":"levelo_inurba_marseille","lat":43.231919,"lon":5.355532,"is_reserved":false,"is_disabled":false,"rental_uris":{"android":"levelo://app?vid=1d8e9bd7-e6ff-447e-b845-0049da0206d3","ios":"levelo://app?vid=1d8e9bd7-e6ff-447e-b845-0049da0206d3"},"vehicle_type_id":"4","last_reported":1702073208,"current_range_meters":6000,"station_id":"ce4bhu92rcd13ifvqi70","pricing_plan_id":"free"},{"bike_id":"c6004eb4-873a-4661-a0e7-ea9140f6bd61","system_id":"levelo_inurba_marseille","lat":43.231919,"lon":5.355532,"is_reserved":false,"is_disabled":false,"rental_uris":{"android":"levelo://app?vid=c6004eb4-873a-4661-a0e7-ea9140f6bd61","ios":"levelo://app?vid=c6004eb4-873a-4661-a0e7-ea9140f6bd61"},"vehicle_type_id":"4","last_reported":1702073208,"current_range_meters":30400,"station_id":"ce4bhu92rcd13ifvqi70","pricing_plan_id":"free"},{"bike_id":"5c4c14b0-15b0-4600-8dc6-cdbde00bef8b","system_id":"levelo_inurba_marseille","lat":43.231794,"lon":5.400052,"is_reserved":false,"is_disabled":false,"rental_uris":{"android":"levelo://app?vid=5c4c14b0-15b0-4600-8dc6-cdbde00bef8b","ios":"levelo://app?vid=5c4c14b0-15b0-4600-8dc6-cdbde00bef8b"},"vehicle_type_id":"4","last_reported":1702073208,"current_range_meters":5200,"station_id":"ce4bhn12rcd13ifvqgqg","pricing_plan_id":"free"},{"bike_id":"d7354235-71f2-4aeb-aa26-9572f0d131ef","system_id":"levelo_inurba_marseille","lat":43.231794,"lon":5.400052,"is_reserved":false,"is_disabled":false,"rental_uris":{"android":"levelo://app?vid=d7354235-71f2-4aeb-aa26-9572f0d131ef","ios":"levelo://app?vid=d7354235-71f2-4aeb-aa26-9572f0d131ef"},"vehicle_type_id":"4","last_reported":1702073208,"current_range_meters":6400,"station_id":"ce4bhn12rcd13ifvqgqg","pricing_plan_id":"free"},{"bike_id":"3aece95a-6827-475f-bdad-0c7db895cf00","system_id":"levelo_inurba_marseille","lat":43.231887,"lon":5.399853,"is_reserved":false,"is_disabled":false,"rental_uris":{"android":"levelo://app?vid=3aece95a-6827-475f-bdad-0c7db895cf00","ios":"levelo://app?vid=3aece95a-6827-475f-bdad-0c7db895cf00"},"vehicle_type_id":"4","last_reported":1702073208,"current_range_meters":10800,"station_id":"ce4bhn12rcd13ifvqgqg","pricing_plan_id":"free"},{"bike_id":"1c690641-a72b-433d-b1af-d36beaec8f2e","system_id":"levelo_inurba_marseille","lat":43.231879,"lon":5.399894,"is_reserved":false,"is_disabled":false,"rental_uris":{"android":"levelo://app?vid=1c690641-a72b-433d-b1af-d36beaec8f2e","ios":"levelo://app?vid=1c690641-a72b-433d-b1af-d36beaec8f2e"},"vehicle_type_id":"4","last_reported":1702073208,"current_range_meters":29600,"station_id":"ce4bhn12rcd13ifvqgqg","pricing_plan_id":"free"},{"bike_id":"6c4620c0-0d4d-493f-9950-4fd3c4457696","system_id":"levelo_inurba_marseille","lat":43.231794,"lon":5.400052,"is_reserved":false,"is_disabled":false,"rental_uris":{"android":"levelo://app?vid=6c4620c0-0d4d-493f-9950-4fd3c4457696","ios":"levelo://app?vid=6c4620c0-0d4d-493f-9950-4fd3c4457696"},"vehicle_type_id":"4","last_reported":1702073208,"current_range_meters":31200,"station_id":"ce4bhn12rcd13ifvqgqg","pricing_plan_id":"free"},{"bike_id":"ff1109c9-6591-43d3-b5cd-adc2963d746c","system_id":"levelo_inurba_marseille","lat":43.23186,"lon":5.39988,"is_reserved":false,"is_disabled":false,"rental_uris":{"android":"levelo://app?vid=ff1109c9-6591-43d3-b5cd-adc2963d746c","ios":"levelo://app?vid=ff1109c9-6591-43d3-b5cd-adc2963d746c"},"vehicle_type_id":"4","last_reported":1702073208,"current_range_meters":10000,"station_id":"ce4bhn12rcd13ifvqgqg","pricing_plan_id":"free"},{"bike_id":"0ecf5d94-fb77-4683-9b33-b3a43c812fa1","system_id":"levelo_inurba_marseille","lat":43.23184,"lon":5.39989,"is_reserved":false,"is_disabled":false,"rental_uris":{"android":"levelo://app?vid=0ecf5d94-fb77-4683-9b33-b3a43c812fa1","ios":"levelo://app?vid=0ecf5d94-fb77-4683-9b33-b3a43c812fa1"},"vehicle_type_id":"4","last_reported":1702073208,"current_range_meters":20000,"station_id":"ce4bhn12rcd13ifvqgqg","pricing_plan_id":"free"},{"bike_id":"34665144-ce30-468a-b218-97ce329e0725","system_id":"levelo_inurba_marseille","lat":43.231794,"lon":5.400052,"is_reserved":false,"is_disabled":false,"rental_uris":{"android":"levelo://app?vid=34665144-ce30-468a-b218-97ce329e0725","ios":"levelo://app?vid=34665144-ce30-468a-b218-97ce329e0725"},"vehicle_type_id":"4","last_reported":1702073208,"current_range_meters":21600,"station_id":"ce4bhn12rcd13ifvqgqg","pricing_plan_id":"free"},{"bike_id":"be845917-f52e-4a9f-83ff-909546a09332","system_id":"levelo_inurba_marseille","lat":43.231794,"lon":5.400052,"is_reserved":false,"is_disabled":false,"rental_uris":{"android":"levelo://app?vid=be845917-f52e-4a9f-83ff-909546a09332","ios":"levelo://app?vid=be845917-f52e-4a9f-83ff-909546a09332"},"vehicle_type_id":"4","last_reported":1702073208,"current_range_meters":31600,"station_id":"ce4bhn12rcd13ifvqgqg","pricing_plan_id":"free"},{"bike_id":"1364bb53-1feb-4c66-bc1b-fe1d777b1c2f","system_id":"levelo_inurba_marseille","lat":43.23181,"lon":5.39992,"is_reserved":false,"is_disabled":false,"rental_uris":{"android":"levelo://app?vid=1364bb53-1feb-4c66-bc1b-fe1d777b1c2f","ios":"levelo://app?vid=1364bb53-1feb-4c66-bc1b-fe1d777b1c2f"},"vehicle_type_id":"4","last_reported":1702073208,"current_range_meters":5200,"station_id":"ce4bhn12rcd13ifvqgqg","pricing_plan_id":"free"},{"bike_id":"dd3a6846-e009-4a2b-9715-3e42670dbb1b","system_id":"levelo_inurba_marseille","lat":43.231562,"lon":5.436933,"is_reserved":false,"is_disabled":false,"rental_uris":{"android":"levelo://app?vid=dd3a6846-e009-4a2b-9715-3e42670dbb1b","ios":"levelo://app?vid=dd3a6846-e009-4a2b-9715-3e42670dbb1b"},"vehicle_type_id":"4","last_reported":1702073208,"current_range_meters":22800,"station_id":"ce4bhmp2rcd13ifvqgog","pricing_plan_id":"free"}]}}