{"last_updated":1779132199,"ttl":60,"version":"2.2","data":{"bikes":[{"bike_id":"7d641315-6110-49cb-a9dd-d637ff032de1","system_id":"levelo_inurba_marseille","lat":43.337444,"lon":5.374475,"is_reserved":false,"is_disabled":false,"rental_uris":{"android":"levelo://app?vid=7d641315-6110-49cb-a9dd-d637ff032de1","ios":"levelo://app?vid=7d641315-6110-49cb-a9dd-d637ff032de1"},"vehicle_type_id":"4","last_reported":1779132200,"current_range_meters":0,"station_id":"","pricing_plan_id":"cebpf4jnsgd1na2vs0mg"},{"bike_id":"e0bb6494-3107-45d5-bf57-d23876a00455","system_id":"levelo_inurba_marseille","lat":43.21198,"lon":5.35065,"is_reserved":false,"is_disabled":false,"rental_uris":{"android":"levelo://app?vid=e0bb6494-3107-45d5-bf57-d23876a00455","ios":"levelo://app?vid=e0bb6494-3107-45d5-bf57-d23876a00455"},"vehicle_type_id":"4","last_reported":1779132200,"current_range_meters":2800,"station_id":"st_cvj6sg6p6f1abm77japg","pricing_plan_id":"cebpf4jnsgd1na2vs0mg"},{"bike_id":"ec979def-2f91-4068-9211-794157de7481","system_id":"levelo_inurba_marseille","lat":43.24657,"lon":5.41789,"is_reserved":false,"is_disabled":false,"rental_uris":{"android":"levelo://app?vid=ec979def-2f91-4068-9211-794157de7481","ios":"levelo://app?vid=ec979def-2f91-4068-9211-794157de7481"},"vehicle_type_id":"4","last_reported":1779132200,"current_range_meters":2800,"station_id":"","pricing_plan_id":"cebpf4jnsgd1na2vs0mg"},{"bike_id":"40c1c031-dac1-4a0a-97fa-4ae1d10831d4","system_id":"levelo_inurba_marseille","lat":43.24814,"lon":5.3746,"is_reserved":false,"is_disabled":false,"rental_uris":{"android":"levelo://app?vid=40c1c031-dac1-4a0a-97fa-4ae1d10831d4","ios":"levelo://app?vid=40c1c031-dac1-4a0a-97fa-4ae1d10831d4"},"vehicle_type_id":"4","last_reported":1779132200,"current_range_meters":2800,"station_id":"ce4bhgh2rcd13ifvqfb0","pricing_plan_id":"cebpf4jnsgd1na2vs0mg"},{"bike_id":"2cd48a35-42f5-4905-a545-77ef65266664","system_id":"levelo_inurba_marseille","lat":43.29664,"lon":5.37769,"is_reserved":false,"is_disabled":true,"rental_uris":{"android":"levelo://app?vid=2cd48a35-42f5-4905-a545-77ef65266664","ios":"levelo://app?vid=2cd48a35-42f5-4905-a545-77ef65266664"},"vehicle_type_id":"4","last_reported":1779132200,"current_range_meters":3200,"station_id":"","pricing_plan_id":"cebpf4jnsgd1na2vs0mg"},{"bike_id":"ab9945f9-f4c3-4aef-a3d9-f712127e0bfa","system_id":"levelo_inurba_marseille","lat":43.29983,"lon":5.38476,"is_reserved":false,"is_disabled":false,"rental_uris":{"android":"levelo://app?vid=ab9945f9-f4c3-4aef-a3d9-f712127e0bfa","ios":"levelo://app?vid=ab9945f9-f4c3-4aef-a3d9-f712127e0bfa"},"vehicle_type_id":"4","last_reported":1779132200,"current_range_meters":3200,"station_id":"ce4bgj92rcd13ifvqbd0","pricing_plan_id":"cebpf4jnsgd1na2vs0mg"},{"bike_id":"b8c42648-54af-41c8-b893-a1ad8f6eeacd","system_id":"levelo_inurba_marseille","lat":43.3298,"lon":5.37484,"is_reserved":false,"is_disabled":false,"rental_uris":{"android":"levelo://app?vid=b8c42648-54af-41c8-b893-a1ad8f6eeacd","ios":"levelo://app?vid=b8c42648-54af-41c8-b893-a1ad8f6eeacd"},"vehicle_type_id":"4","last_reported":1779132200,"current_range_meters":3200,"station_id":"","pricing_plan_id":"cebpf4jnsgd1na2vs0mg"},{"bike_id":"1f92479c-2697-4dfb-895d-f1ad26133df4","system_id":"levelo_inurba_marseille","lat":43.21749,"lon":5.34611,"is_reserved":false,"is_disabled":false,"rental_uris":{"android":"levelo://app?vid=1f92479c-2697-4dfb-895d-f1ad26133df4","ios":"levelo://app?vid=1f92479c-2697-4dfb-895d-f1ad26133df4"},"vehicle_type_id":"4","last_reported":1779132200,"current_range_meters":3200,"station_id":"st_cvj6r9ubvosntc0bgbag","pricing_plan_id":"cebpf4jnsgd1na2vs0mg"},{"bike_id":"ec832b1d-a3e7-4d8b-ac02-7f760fe2dfbf","system_id":"levelo_inurba_marseille","lat":43.25081,"lon":5.39531,"is_reserved":false,"is_disabled":false,"rental_uris":{"android":"levelo://app?vid=ec832b1d-a3e7-4d8b-ac02-7f760fe2dfbf","ios":"levelo://app?vid=ec832b1d-a3e7-4d8b-ac02-7f760fe2dfbf"},"vehicle_type_id":"4","last_reported":1779132200,"current_range_meters":3200,"station_id":"ce4bhm12rcd13ifvqgkg","pricing_plan_id":"cebpf4jnsgd1na2vs0mg"},{"bike_id":"112b4c63-f564-4982-9569-7d17e7d14e8f","system_id":"levelo_inurba_marseille","lat":43.29179,"lon":5.37152,"is_reserved":false,"is_disabled":false,"rental_uris":{"android":"levelo://app?vid=112b4c63-f564-4982-9569-7d17e7d14e8f","ios":"levelo://app?vid=112b4c63-f564-4982-9569-7d17e7d14e8f"},"vehicle_type_id":"4","last_reported":1779132200,"current_range_meters":3200,"station_id":"ce4bha92rcd13ifvqeh0","pricing_plan_id":"cebpf4jnsgd1na2vs0mg"},{"bike_id":"447729b3-a264-4d61-9a91-1bc7e16df053","system_id":"levelo_inurba_marseille","lat":43.25506,"lon":5.37637,"is_reserved":false,"is_disabled":false,"rental_uris":{"android":"levelo://app?vid=447729b3-a264-4d61-9a91-1bc7e16df053","ios":"levelo://app?vid=447729b3-a264-4d61-9a91-1bc7e16df053"},"vehicle_type_id":"4","last_reported":1779132200,"current_range_meters":3200,"station_id":"ce4bhh12rcd13ifvqff0","pricing_plan_id":"cebpf4jnsgd1na2vs0mg"},{"bike_id":"a8c492f0-73b0-40ef-bb92-f7d40c7aa8bf","system_id":"levelo_inurba_marseille","lat":43.28002,"lon":5.40007,"is_reserved":false,"is_disabled":false,"rental_uris":{"android":"levelo://app?vid=a8c492f0-73b0-40ef-bb92-f7d40c7aa8bf","ios":"levelo://app?vid=a8c492f0-73b0-40ef-bb92-f7d40c7aa8bf"},"vehicle_type_id":"4","last_reported":1779132200,"current_range_meters":3200,"station_id":"ce4bho92rcd13ifvqh4g","pricing_plan_id":"cebpf4jnsgd1na2vs0mg"},{"bike_id":"33b8e56f-e92b-46d0-8fae-9db6fda7f6a9","system_id":"levelo_inurba_marseille","lat":43.31228,"lon":5.36849,"is_reserved":false,"is_disabled":false,"rental_uris":{"android":"levelo://app?vid=33b8e56f-e92b-46d0-8fae-9db6fda7f6a9","ios":"levelo://app?vid=33b8e56f-e92b-46d0-8fae-9db6fda7f6a9"},"vehicle_type_id":"4","last_reported":1779132200,"current_range_meters":3200,"station_id":"","pricing_plan_id":"cebpf4jnsgd1na2vs0mg"},{"bike_id":"19497617-20ab-49f1-b41e-a1ee20d78737","system_id":"levelo_inurba_marseille","lat":43.28939,"lon":5.36627,"is_reserved":false,"is_disabled":false,"rental_uris":{"android":"levelo://app?vid=19497617-20ab-49f1-b41e-a1ee20d78737","ios":"levelo://app?vid=19497617-20ab-49f1-b41e-a1ee20d78737"},"vehicle_type_id":"4","last_reported":1779132200,"current_range_meters":3600,"station_id":"ce4bhap2rcd13ifvqek0","pricing_plan_id":"cebpf4jnsgd1na2vs0mg"},{"bike_id":"2acf6cbb-6fde-447b-b2bb-3d0a9fcfa8f6","system_id":"levelo_inurba_marseille","lat":43.29805,"lon":5.39332,"is_reserved":false,"is_disabled":false,"rental_uris":{"android":"levelo://app?vid=2acf6cbb-6fde-447b-b2bb-3d0a9fcfa8f6","ios":"levelo://app?vid=2acf6cbb-6fde-447b-b2bb-3d0a9fcfa8f6"},"vehicle_type_id":"4","last_reported":1779132200,"current_range_meters":3600,"station_id":"chh1huq6cuj3fo74tm60","pricing_plan_id":"cebpf4jnsgd1na2vs0mg"},{"bike_id":"02cf9f83-5f7f-4fb7-96af-0c9ac56404ac","system_id":"levelo_inurba_marseille","lat":43.29201,"lon":5.3933,"is_reserved":false,"is_disabled":false,"rental_uris":{"android":"levelo://app?vid=02cf9f83-5f7f-4fb7-96af-0c9ac56404ac","ios":"levelo://app?vid=02cf9f83-5f7f-4fb7-96af-0c9ac56404ac"},"vehicle_type_id":"4","last_reported":1779132200,"current_range_meters":3600,"station_id":"ce4bh192rcd13ifvqdd0","pricing_plan_id":"cebpf4jnsgd1na2vs0mg"},{"bike_id":"5f4ddabc-9267-4f5c-b393-db6fd6acaf7d","system_id":"levelo_inurba_marseille","lat":43.25165,"lon":5.40322,"is_reserved":false,"is_disabled":true,"rental_uris":{"android":"levelo://app?vid=5f4ddabc-9267-4f5c-b393-db6fd6acaf7d","ios":"levelo://app?vid=5f4ddabc-9267-4f5c-b393-db6fd6acaf7d"},"vehicle_type_id":"4","last_reported":1779132200,"current_range_meters":3600,"station_id":"","pricing_plan_id":"cebpf4jnsgd1na2vs0mg"},{"bike_id":"bb719097-49f9-4ef8-b021-ede068d8c8f6","system_id":"levelo_inurba_marseille","lat":43.2583,"lon":5.3942,"is_reserved":false,"is_disabled":false,"rental_uris":{"android":"levelo://app?vid=bb719097-49f9-4ef8-b021-ede068d8c8f6","ios":"levelo://app?vid=bb719097-49f9-4ef8-b021-ede068d8c8f6"},"vehicle_type_id":"4","last_reported":1779132200,"current_range_meters":3600,"station_id":"ce4bhip2rcd13ifvqft0","pricing_plan_id":"cebpf4jnsgd1na2vs0mg"},{"bike_id":"66fe033e-97a6-4b53-826c-8b4f751f19ba","system_id":"levelo_inurba_marseille","lat":43.25482,"lon":5.37665,"is_reserved":false,"is_disabled":false,"rental_uris":{"android":"levelo://app?vid=66fe033e-97a6-4b53-826c-8b4f751f19ba","ios":"levelo://app?vid=66fe033e-97a6-4b53-826c-8b4f751f19ba"},"vehicle_type_id":"4","last_reported":1779132200,"current_range_meters":3600,"station_id":"ce4bhh12rcd13ifvqff0","pricing_plan_id":"cebpf4jnsgd1na2vs0mg"},{"bike_id":"d4bee9ae-4f05-4601-964f-fd68924532f6","system_id":"levelo_inurba_marseille","lat":43.28466,"lon":5.35889,"is_reserved":false,"is_disabled":false,"rental_uris":{"android":"levelo://app?vid=d4bee9ae-4f05-4601-964f-fd68924532f6","ios":"levelo://app?vid=d4bee9ae-4f05-4601-964f-fd68924532f6"},"vehicle_type_id":"4","last_reported":1779132200,"current_range_meters":3600,"station_id":"ce4bhah2rcd13ifvqei0","pricing_plan_id":"cebpf4jnsgd1na2vs0mg"},{"bike_id":"cdee817c-caa2-4adb-8af4-205c5b59b01a","system_id":"levelo_inurba_marseille","lat":43.24962,"lon":5.40488,"is_reserved":false,"is_disabled":false,"rental_uris":{"android":"levelo://app?vid=cdee817c-caa2-4adb-8af4-205c5b59b01a","ios":"levelo://app?vid=cdee817c-caa2-4adb-8af4-205c5b59b01a"},"vehicle_type_id":"4","last_reported":1779132200,"current_range_meters":3600,"station_id":"st_d2ngiaodas8pm72gd1h0","pricing_plan_id":"cebpf4jnsgd1na2vs0mg"},{"bike_id":"6eaeb3dc-5c83-46f4-994f-6a859c15cb74","system_id":"levelo_inurba_marseille","lat":43.23895,"lon":5.37463,"is_reserved":false,"is_disabled":false,"rental_uris":{"android":"levelo://app?vid=6eaeb3dc-5c83-46f4-994f-6a859c15cb74","ios":"levelo://app?vid=6eaeb3dc-5c83-46f4-994f-6a859c15cb74"},"vehicle_type_id":"4","last_reported":1779132200,"current_range_meters":3600,"station_id":"st_d6sm7csbq4hs73f8fpjg","pricing_plan_id":"cebpf4jnsgd1na2vs0mg"},{"bike_id":"4fc79a0b-a889-4b07-94ad-10d4b0f67722","system_id":"levelo_inurba_marseille","lat":43.29564,"lon":5.42278,"is_reserved":false,"is_disabled":false,"rental_uris":{"android":"levelo://app?vid=4fc79a0b-a889-4b07-94ad-10d4b0f67722","ios":"levelo://app?vid=4fc79a0b-a889-4b07-94ad-10d4b0f67722"},"vehicle_type_id":"4","last_reported":1779132200,"current_range_meters":3600,"station_id":"ce4bhph2rcd13ifvqhdg","pricing_plan_id":"cebpf4jnsgd1na2vs0mg"},{"bike_id":"a00fb7c0-9f3a-4897-b63e-5c5887812c2b","system_id":"levelo_inurba_marseille","lat":43.26217,"lon":5.3743,"is_reserved":false,"is_disabled":false,"rental_uris":{"android":"levelo://app?vid=a00fb7c0-9f3a-4897-b63e-5c5887812c2b","ios":"levelo://app?vid=a00fb7c0-9f3a-4897-b63e-5c5887812c2b"},"vehicle_type_id":"4","last_reported":1779132200,"current_range_meters":3600,"station_id":"ce4bhgp2rcd13ifvqfc0","pricing_plan_id":"cebpf4jnsgd1na2vs0mg"},{"bike_id":"c2a0bf5c-027d-4dea-8805-8b34eb048ed2","system_id":"levelo_inurba_marseille","lat":43.26577,"lon":5.38996,"is_reserved":false,"is_disabled":false,"rental_uris":{"android":"levelo://app?vid=c2a0bf5c-027d-4dea-8805-8b34eb048ed2","ios":"levelo://app?vid=c2a0bf5c-027d-4dea-8805-8b34eb048ed2"},"vehicle_type_id":"4","last_reported":1779132200,"current_range_meters":3600,"station_id":"ce4bhe12rcd13ifvqf30","pricing_plan_id":"cebpf4jnsgd1na2vs0mg"},{"bike_id":"7df43883-c1e0-4da1-a102-d45e33555e9a","system_id":"levelo_inurba_marseille","lat":43.30187,"lon":5.39929,"is_reserved":false,"is_disabled":false,"rental_uris":{"android":"levelo://app?vid=7df43883-c1e0-4da1-a102-d45e33555e9a","ios":"levelo://app?vid=7df43883-c1e0-4da1-a102-d45e33555e9a"},"vehicle_type_id":"4","last_reported":1779132200,"current_range_meters":4000,"station_id":"","pricing_plan_id":"cebpf4jnsgd1na2vs0mg"},{"bike_id":"55fd0741-f693-4c0e-bc61-157606e04439","system_id":"levelo_inurba_marseille","lat":43.32611,"lon":5.39944,"is_reserved":false,"is_disabled":false,"rental_uris":{"android":"levelo://app?vid=55fd0741-f693-4c0e-bc61-157606e04439","ios":"levelo://app?vid=55fd0741-f693-4c0e-bc61-157606e04439"},"vehicle_type_id":"4","last_reported":1779132200,"current_range_meters":4000,"station_id":"","pricing_plan_id":"cebpf4jnsgd1na2vs0mg"},{"bike_id":"4a3d82be-0006-44ab-a43c-dc1d6f1b1e8f","system_id":"levelo_inurba_marseille","lat":43.317587,"lon":5.390104,"is_reserved":false,"is_disabled":false,"rental_uris":{"android":"levelo://app?vid=4a3d82be-0006-44ab-a43c-dc1d6f1b1e8f","ios":"levelo://app?vid=4a3d82be-0006-44ab-a43c-dc1d6f1b1e8f"},"vehicle_type_id":"4","last_reported":1779132200,"current_range_meters":4000,"station_id":"ce4bhqp2rcd13ifvqhng","pricing_plan_id":"cebpf4jnsgd1na2vs0mg"},{"bike_id":"9e83c76b-3aa7-451f-bb4a-f5422bfc3305","system_id":"levelo_inurba_marseille","lat":43.29871,"lon":5.39727,"is_reserved":false,"is_disabled":false,"rental_uris":{"android":"levelo://app?vid=9e83c76b-3aa7-451f-bb4a-f5422bfc3305","ios":"levelo://app?vid=9e83c76b-3aa7-451f-bb4a-f5422bfc3305"},"vehicle_type_id":"4","last_reported":1779132200,"current_range_meters":4000,"station_id":"ce4bh0h2rcd13ifvqd50","pricing_plan_id":"cebpf4jnsgd1na2vs0mg"},{"bike_id":"9d18dc58-248c-49c8-a233-5fa2af77daec","system_id":"levelo_inurba_marseille","lat":43.28645,"lon":5.37794,"is_reserved":false,"is_disabled":false,"rental_uris":{"android":"levelo://app?vid=9d18dc58-248c-49c8-a233-5fa2af77daec","ios":"levelo://app?vid=9d18dc58-248c-49c8-a233-5fa2af77daec"},"vehicle_type_id":"4","last_reported":1779132200,"current_range_meters":4000,"station_id":"","pricing_plan_id":"cebpf4jnsgd1na2vs0mg"},{"bike_id":"f64e9bef-3d14-458a-a89d-c237daf4e944","system_id":"levelo_inurba_marseille","lat":43.21736,"lon":5.34609,"is_reserved":false,"is_disabled":false,"rental_uris":{"android":"levelo://app?vid=f64e9bef-3d14-458a-a89d-c237daf4e944","ios":"levelo://app?vid=f64e9bef-3d14-458a-a89d-c237daf4e944"},"vehicle_type_id":"4","last_reported":1779132200,"current_range_meters":4000,"station_id":"st_cvj6r9ubvosntc0bgbag","pricing_plan_id":"cebpf4jnsgd1na2vs0mg"},{"bike_id":"1627aed8-e822-4b8c-aea3-57228c935263","system_id":"levelo_inurba_marseille","lat":43.31085,"lon":5.37158,"is_reserved":false,"is_disabled":false,"rental_uris":{"android":"levelo://app?vid=1627aed8-e822-4b8c-aea3-57228c935263","ios":"levelo://app?vid=1627aed8-e822-4b8c-aea3-57228c935263"},"vehicle_type_id":"4","last_reported":1779132200,"current_range_meters":4000,"station_id":"st_d4kl2rp97mjs73e7tdfg","pricing_plan_id":"cebpf4jnsgd1na2vs0mg"},{"bike_id":"d5560428-d288-468f-8004-d10aa5eabc00","system_id":"levelo_inurba_marseille","lat":43.2815,"lon":5.42642,"is_reserved":false,"is_disabled":false,"rental_uris":{"android":"levelo://app?vid=d5560428-d288-468f-8004-d10aa5eabc00","ios":"levelo://app?vid=d5560428-d288-468f-8004-d10aa5eabc00"},"vehicle_type_id":"4","last_reported":1779132200,"current_range_meters":4000,"station_id":"ce4bhnh2rcd13ifvqgug","pricing_plan_id":"cebpf4jnsgd1na2vs0mg"},{"bike_id":"1b3cec47-fdb6-491c-8219-01412d92358c","system_id":"levelo_inurba_marseille","lat":43.26052,"lon":5.3941,"is_reserved":false,"is_disabled":false,"rental_uris":{"android":"levelo://app?vid=1b3cec47-fdb6-491c-8219-01412d92358c","ios":"levelo://app?vid=1b3cec47-fdb6-491c-8219-01412d92358c"},"vehicle_type_id":"4","last_reported":1779132200,"current_range_meters":4000,"station_id":"ce4bhh92rcd13ifvqfj0","pricing_plan_id":"cebpf4jnsgd1na2vs0mg"},{"bike_id":"e5b6d2a4-8c70-4585-9b9a-e1be25bdffb2","system_id":"levelo_inurba_marseille","lat":43.3017,"lon":5.36615,"is_reserved":false,"is_disabled":false,"rental_uris":{"android":"levelo://app?vid=e5b6d2a4-8c70-4585-9b9a-e1be25bdffb2","ios":"levelo://app?vid=e5b6d2a4-8c70-4585-9b9a-e1be25bdffb2"},"vehicle_type_id":"4","last_reported":1779132200,"current_range_meters":4000,"station_id":"ce4bgrh2rcd13ifvqc8g","pricing_plan_id":"cebpf4jnsgd1na2vs0mg"},{"bike_id":"46978d4c-80ac-4d2e-99f0-47098870a936","system_id":"levelo_inurba_marseille","lat":43.28507,"lon":5.48464,"is_reserved":false,"is_disabled":false,"rental_uris":{"android":"levelo://app?vid=46978d4c-80ac-4d2e-99f0-47098870a936","ios":"levelo://app?vid=46978d4c-80ac-4d2e-99f0-47098870a936"},"vehicle_type_id":"4","last_reported":1779132200,"current_range_meters":4000,"station_id":"st_d3svhcjqgbts73a3dn0g","pricing_plan_id":"cebpf4jnsgd1na2vs0mg"},{"bike_id":"5ab89b38-d33d-4168-be42-46948d7038be","system_id":"levelo_inurba_marseille","lat":43.29887,"lon":5.38907,"is_reserved":false,"is_disabled":false,"rental_uris":{"android":"levelo://app?vid=5ab89b38-d33d-4168-be42-46948d7038be","ios":"levelo://app?vid=5ab89b38-d33d-4168-be42-46948d7038be"},"vehicle_type_id":"4","last_reported":1779132200,"current_range_meters":4000,"station_id":"ce4bh392rcd13ifvqdl0","pricing_plan_id":"cebpf4jnsgd1na2vs0mg"},{"bike_id":"f0f20c44-3bd7-450f-8b75-dc424bb76014","system_id":"levelo_inurba_marseille","lat":43.26213,"lon":5.3743,"is_reserved":false,"is_disabled":false,"rental_uris":{"android":"levelo://app?vid=f0f20c44-3bd7-450f-8b75-dc424bb76014","ios":"levelo://app?vid=f0f20c44-3bd7-450f-8b75-dc424bb76014"},"vehicle_type_id":"4","last_reported":1779132200,"current_range_meters":4000,"station_id":"ce4bhgp2rcd13ifvqfc0","pricing_plan_id":"cebpf4jnsgd1na2vs0mg"},{"bike_id":"59b2432e-f424-4c75-ba04-57a073a9c3ce","system_id":"levelo_inurba_marseille","lat":43.31384,"lon":5.44134,"is_reserved":false,"is_disabled":false,"rental_uris":{"android":"levelo://app?vid=59b2432e-f424-4c75-ba04-57a073a9c3ce","ios":"levelo://app?vid=59b2432e-f424-4c75-ba04-57a073a9c3ce"},"vehicle_type_id":"4","last_reported":1779132200,"current_range_meters":4000,"station_id":"","pricing_plan_id":"cebpf4jnsgd1na2vs0mg"},{"bike_id":"ca8deebd-3892-4cd3-95b9-93993366f63e","system_id":"levelo_inurba_marseille","lat":43.26224,"lon":5.4044,"is_reserved":false,"is_disabled":true,"rental_uris":{"android":"levelo://app?vid=ca8deebd-3892-4cd3-95b9-93993366f63e","ios":"levelo://app?vid=ca8deebd-3892-4cd3-95b9-93993366f63e"},"vehicle_type_id":"4","last_reported":1779132200,"current_range_meters":4000,"station_id":"ce4bhmh2rcd13ifvqgmg","pricing_plan_id":"cebpf4jnsgd1na2vs0mg"},{"bike_id":"a0135baa-b290-429d-b082-ef254fdd1212","system_id":"levelo_inurba_marseille","lat":43.30193,"lon":5.36602,"is_reserved":false,"is_disabled":false,"rental_uris":{"android":"levelo://app?vid=a0135baa-b290-429d-b082-ef254fdd1212","ios":"levelo://app?vid=a0135baa-b290-429d-b082-ef254fdd1212"},"vehicle_type_id":"4","last_reported":1779132200,"current_range_meters":4400,"station_id":"ce4bgrh2rcd13ifvqc8g","pricing_plan_id":"cebpf4jnsgd1na2vs0mg"},{"bike_id":"97ef0eaa-07a1-41e5-96b2-af004dd36978","system_id":"levelo_inurba_marseille","lat":43.288593,"lon":5.42519,"is_reserved":false,"is_disabled":true,"rental_uris":{"android":"levelo://app?vid=97ef0eaa-07a1-41e5-96b2-af004dd36978","ios":"levelo://app?vid=97ef0eaa-07a1-41e5-96b2-af004dd36978"},"vehicle_type_id":"4","last_reported":1779132200,"current_range_meters":4400,"station_id":"st_d3b462108ojc7389ooeg","pricing_plan_id":"cebpf4jnsgd1na2vs0mg"},{"bike_id":"9e4605bd-fb5f-4dea-85c6-6d392142aaa8","system_id":"levelo_inurba_marseille","lat":43.29721,"lon":5.41647,"is_reserved":false,"is_disabled":false,"rental_uris":{"android":"levelo://app?vid=9e4605bd-fb5f-4dea-85c6-6d392142aaa8","ios":"levelo://app?vid=9e4605bd-fb5f-4dea-85c6-6d392142aaa8"},"vehicle_type_id":"4","last_reported":1779132200,"current_range_meters":4400,"station_id":"","pricing_plan_id":"cebpf4jnsgd1na2vs0mg"},{"bike_id":"76483057-aa19-441c-af55-216e6ef2b5ac","system_id":"levelo_inurba_marseille","lat":43.22566,"lon":5.41624,"is_reserved":false,"is_disabled":false,"rental_uris":{"android":"levelo://app?vid=76483057-aa19-441c-af55-216e6ef2b5ac","ios":"levelo://app?vid=76483057-aa19-441c-af55-216e6ef2b5ac"},"vehicle_type_id":"4","last_reported":1779132200,"current_range_meters":4400,"station_id":"st_d2o4gvlbi1j2169b742g","pricing_plan_id":"cebpf4jnsgd1na2vs0mg"},{"bike_id":"0a557a53-5e2a-4f58-a5bd-c17c32c1c9c4","system_id":"levelo_inurba_marseille","lat":43.29209,"lon":5.36058,"is_reserved":false,"is_disabled":true,"rental_uris":{"android":"levelo://app?vid=0a557a53-5e2a-4f58-a5bd-c17c32c1c9c4","ios":"levelo://app?vid=0a557a53-5e2a-4f58-a5bd-c17c32c1c9c4"},"vehicle_type_id":"4","last_reported":1779132200,"current_range_meters":4400,"station_id":"ce4bhbh2rcd13ifvqeqg","pricing_plan_id":"cebpf4jnsgd1na2vs0mg"},{"bike_id":"40b3a112-5397-4abc-9de1-3dd792605a70","system_id":"levelo_inurba_marseille","lat":43.3236,"lon":5.36724,"is_reserved":false,"is_disabled":false,"rental_uris":{"android":"levelo://app?vid=40b3a112-5397-4abc-9de1-3dd792605a70","ios":"levelo://app?vid=40b3a112-5397-4abc-9de1-3dd792605a70"},"vehicle_type_id":"4","last_reported":1779132200,"current_range_meters":4400,"station_id":"ce4bhsh2rcd13ifvqi2g","pricing_plan_id":"cebpf4jnsgd1na2vs0mg"},{"bike_id":"d3ef7364-0836-4b24-9843-1fcf1783e802","system_id":"levelo_inurba_marseille","lat":43.29898,"lon":5.43662,"is_reserved":false,"is_disabled":false,"rental_uris":{"android":"levelo://app?vid=d3ef7364-0836-4b24-9843-1fcf1783e802","ios":"levelo://app?vid=d3ef7364-0836-4b24-9843-1fcf1783e802"},"vehicle_type_id":"4","last_reported":1779132200,"current_range_meters":4400,"station_id":"ce4bhpp2rcd13ifvqhfg","pricing_plan_id":"cebpf4jnsgd1na2vs0mg"},{"bike_id":"ab411dae-0a4e-4d4f-8bc3-7aa253f6c210","system_id":"levelo_inurba_marseille","lat":43.28221,"lon":5.39047,"is_reserved":false,"is_disabled":false,"rental_uris":{"android":"levelo://app?vid=ab411dae-0a4e-4d4f-8bc3-7aa253f6c210","ios":"levelo://app?vid=ab411dae-0a4e-4d4f-8bc3-7aa253f6c210"},"vehicle_type_id":"4","last_reported":1779132200,"current_range_meters":4400,"station_id":"ce4bhn92rcd13ifvqgsg","pricing_plan_id":"cebpf4jnsgd1na2vs0mg"},{"bike_id":"6d1afe92-e422-4228-b360-d0c28fa5db52","system_id":"levelo_inurba_marseille","lat":43.255,"lon":5.37646,"is_reserved":false,"is_disabled":false,"rental_uris":{"android":"levelo://app?vid=6d1afe92-e422-4228-b360-d0c28fa5db52","ios":"levelo://app?vid=6d1afe92-e422-4228-b360-d0c28fa5db52"},"vehicle_type_id":"4","last_reported":1779132200,"current_range_meters":4400,"station_id":"ce4bhh12rcd13ifvqff0","pricing_plan_id":"cebpf4jnsgd1na2vs0mg"},{"bike_id":"60b0f6a5-adf3-45e5-8fb3-ac94fdc6d475","system_id":"levelo_inurba_marseille","lat":43.29976,"lon":5.38515,"is_reserved":false,"is_disabled":false,"rental_uris":{"android":"levelo://app?vid=60b0f6a5-adf3-45e5-8fb3-ac94fdc6d475","ios":"levelo://app?vid=60b0f6a5-adf3-45e5-8fb3-ac94fdc6d475"},"vehicle_type_id":"4","last_reported":1779132200,"current_range_meters":4800,"station_id":"ce4bgj92rcd13ifvqbd0","pricing_plan_id":"cebpf4jnsgd1na2vs0mg"},{"bike_id":"d54107ca-05f2-45fc-9fae-e2d4c6c24d36","system_id":"levelo_inurba_marseille","lat":43.23186,"lon":5.39982,"is_reserved":false,"is_disabled":false,"rental_uris":{"android":"levelo://app?vid=d54107ca-05f2-45fc-9fae-e2d4c6c24d36","ios":"levelo://app?vid=d54107ca-05f2-45fc-9fae-e2d4c6c24d36"},"vehicle_type_id":"4","last_reported":1779132200,"current_range_meters":4800,"station_id":"ce4bhn12rcd13ifvqgqg","pricing_plan_id":"cebpf4jnsgd1na2vs0mg"},{"bike_id":"cab2d760-afda-4614-bce0-ebe2ce404004","system_id":"levelo_inurba_marseille","lat":43.2952,"lon":5.39401,"is_reserved":false,"is_disabled":false,"rental_uris":{"android":"levelo://app?vid=cab2d760-afda-4614-bce0-ebe2ce404004","ios":"levelo://app?vid=cab2d760-afda-4614-bce0-ebe2ce404004"},"vehicle_type_id":"4","last_reported":1779132200,"current_range_meters":4800,"station_id":"ce4bh292rcd13ifvqdf0","pricing_plan_id":"cebpf4jnsgd1na2vs0mg"},{"bike_id":"65e3ee63-5461-418f-9095-d0999eaaff5d","system_id":"levelo_inurba_marseille","lat":43.31384,"lon":5.36738,"is_reserved":false,"is_disabled":false,"rental_uris":{"android":"levelo://app?vid=65e3ee63-5461-418f-9095-d0999eaaff5d","ios":"levelo://app?vid=65e3ee63-5461-418f-9095-d0999eaaff5d"},"vehicle_type_id":"4","last_reported":1779132200,"current_range_meters":4800,"station_id":"ce4bgr92rcd13ifvqc6g","pricing_plan_id":"cebpf4jnsgd1na2vs0mg"},{"bike_id":"7b6b191c-2196-4eff-a204-e6551d1afb89","system_id":"levelo_inurba_marseille","lat":43.27062,"lon":5.38307,"is_reserved":false,"is_disabled":false,"rental_uris":{"android":"levelo://app?vid=7b6b191c-2196-4eff-a204-e6551d1afb89","ios":"levelo://app?vid=7b6b191c-2196-4eff-a204-e6551d1afb89"},"vehicle_type_id":"4","last_reported":1779132200,"current_range_meters":4800,"station_id":"st_d3n2fo6cfp8s73cte1j0","pricing_plan_id":"cebpf4jnsgd1na2vs0mg"},{"bike_id":"8d9fe9ca-2c8a-4e24-806c-7ff7bc3798b7","system_id":"levelo_inurba_marseille","lat":43.29017,"lon":5.35605,"is_reserved":false,"is_disabled":false,"rental_uris":{"android":"levelo://app?vid=8d9fe9ca-2c8a-4e24-806c-7ff7bc3798b7","ios":"levelo://app?vid=8d9fe9ca-2c8a-4e24-806c-7ff7bc3798b7"},"vehicle_type_id":"4","last_reported":1779132200,"current_range_meters":4800,"station_id":"ce4bhb92rcd13ifvqen0","pricing_plan_id":"cebpf4jnsgd1na2vs0mg"},{"bike_id":"7efb4291-6ea5-4126-91b8-e3165654d1eb","system_id":"levelo_inurba_marseille","lat":43.26229,"lon":5.37873,"is_reserved":false,"is_disabled":false,"rental_uris":{"android":"levelo://app?vid=7efb4291-6ea5-4126-91b8-e3165654d1eb","ios":"levelo://app?vid=7efb4291-6ea5-4126-91b8-e3165654d1eb"},"vehicle_type_id":"4","last_reported":1779132200,"current_range_meters":4800,"station_id":"ce4bhjp2rcd13ifvqg90","pricing_plan_id":"cebpf4jnsgd1na2vs0mg"},{"bike_id":"31ff2bc9-defb-4580-a7b6-ec23763942fe","system_id":"levelo_inurba_marseille","lat":43.23796,"lon":5.36609,"is_reserved":false,"is_disabled":false,"rental_uris":{"android":"levelo://app?vid=31ff2bc9-defb-4580-a7b6-ec23763942fe","ios":"levelo://app?vid=31ff2bc9-defb-4580-a7b6-ec23763942fe"},"vehicle_type_id":"4","last_reported":1779132200,"current_range_meters":4800,"station_id":"st_d3nk18o9ro0c73en2l3g","pricing_plan_id":"cebpf4jnsgd1na2vs0mg"},{"bike_id":"61f28b91-2a02-4913-9b70-22fbd3b412a4","system_id":"levelo_inurba_marseille","lat":43.29536,"lon":5.38525,"is_reserved":false,"is_disabled":false,"rental_uris":{"android":"levelo://app?vid=61f28b91-2a02-4913-9b70-22fbd3b412a4","ios":"levelo://app?vid=61f28b91-2a02-4913-9b70-22fbd3b412a4"},"vehicle_type_id":"4","last_reported":1779132200,"current_range_meters":4800,"station_id":"ce4bgih2rcd13ifvqba0","pricing_plan_id":"cebpf4jnsgd1na2vs0mg"},{"bike_id":"6f02c462-5be8-4fd9-bd86-49563918d3d3","system_id":"levelo_inurba_marseille","lat":43.31882,"lon":5.36795,"is_reserved":false,"is_disabled":false,"rental_uris":{"android":"levelo://app?vid=6f02c462-5be8-4fd9-bd86-49563918d3d3","ios":"levelo://app?vid=6f02c462-5be8-4fd9-bd86-49563918d3d3"},"vehicle_type_id":"4","last_reported":1779132200,"current_range_meters":4800,"station_id":"st_d6o2h0d0559c73evc1b0","pricing_plan_id":"cebpf4jnsgd1na2vs0mg"},{"bike_id":"a9d8acd3-7977-4cee-928c-f1f51f9d119e","system_id":"levelo_inurba_marseille","lat":43.2396,"lon":5.36629,"is_reserved":false,"is_disabled":false,"rental_uris":{"android":"levelo://app?vid=a9d8acd3-7977-4cee-928c-f1f51f9d119e","ios":"levelo://app?vid=a9d8acd3-7977-4cee-928c-f1f51f9d119e"},"vehicle_type_id":"4","last_reported":1779132200,"current_range_meters":4800,"station_id":"ce4bhi12rcd13ifvqfp0","pricing_plan_id":"cebpf4jnsgd1na2vs0mg"},{"bike_id":"19df7ddf-395b-42c1-b07d-1fce32818df1","system_id":"levelo_inurba_marseille","lat":43.28085,"lon":5.39658,"is_reserved":false,"is_disabled":false,"rental_uris":{"android":"levelo://app?vid=19df7ddf-395b-42c1-b07d-1fce32818df1","ios":"levelo://app?vid=19df7ddf-395b-42c1-b07d-1fce32818df1"},"vehicle_type_id":"4","last_reported":1779132200,"current_range_meters":4800,"station_id":"ce4bho12rcd13ifvqh2g","pricing_plan_id":"cebpf4jnsgd1na2vs0mg"},{"bike_id":"9cb9e01c-edb2-41a3-917d-7146f7531c7d","system_id":"levelo_inurba_marseille","lat":43.31752,"lon":5.39033,"is_reserved":false,"is_disabled":false,"rental_uris":{"android":"levelo://app?vid=9cb9e01c-edb2-41a3-917d-7146f7531c7d","ios":"levelo://app?vid=9cb9e01c-edb2-41a3-917d-7146f7531c7d"},"vehicle_type_id":"4","last_reported":1779132200,"current_range_meters":4800,"station_id":"ce4bhqp2rcd13ifvqhng","pricing_plan_id":"cebpf4jnsgd1na2vs0mg"},{"bike_id":"e6cc49d1-e7bb-4c14-9c61-50b5557fed59","system_id":"levelo_inurba_marseille","lat":43.30696,"lon":5.40628,"is_reserved":false,"is_disabled":false,"rental_uris":{"android":"levelo://app?vid=e6cc49d1-e7bb-4c14-9c61-50b5557fed59","ios":"levelo://app?vid=e6cc49d1-e7bb-4c14-9c61-50b5557fed59"},"vehicle_type_id":"4","last_reported":1779132200,"current_range_meters":4800,"station_id":"","pricing_plan_id":"cebpf4jnsgd1na2vs0mg"},{"bike_id":"de8aec29-32c6-409e-b2b2-bd88ab1ef740","system_id":"levelo_inurba_marseille","lat":43.29224,"lon":5.35784,"is_reserved":false,"is_disabled":false,"rental_uris":{"android":"levelo://app?vid=de8aec29-32c6-409e-b2b2-bd88ab1ef740","ios":"levelo://app?vid=de8aec29-32c6-409e-b2b2-bd88ab1ef740"},"vehicle_type_id":"4","last_reported":1779132200,"current_range_meters":5600,"station_id":"ce4bhb12rcd13ifvqel0","pricing_plan_id":"cebpf4jnsgd1na2vs0mg"},{"bike_id":"c3f0931a-b98e-4ec6-aa39-67278fb8aaff","system_id":"levelo_inurba_marseille","lat":43.31895,"lon":5.36793,"is_reserved":false,"is_disabled":false,"rental_uris":{"android":"levelo://app?vid=c3f0931a-b98e-4ec6-aa39-67278fb8aaff","ios":"levelo://app?vid=c3f0931a-b98e-4ec6-aa39-67278fb8aaff"},"vehicle_type_id":"4","last_reported":1779132200,"current_range_meters":5600,"station_id":"st_d6o2h0d0559c73evc1b0","pricing_plan_id":"cebpf4jnsgd1na2vs0mg"},{"bike_id":"f46dc198-f447-4b28-8d13-72a1d78dd32a","system_id":"levelo_inurba_marseille","lat":43.29003,"lon":5.35477,"is_reserved":false,"is_disabled":false,"rental_uris":{"android":"levelo://app?vid=f46dc198-f447-4b28-8d13-72a1d78dd32a","ios":"levelo://app?vid=f46dc198-f447-4b28-8d13-72a1d78dd32a"},"vehicle_type_id":"4","last_reported":1779132200,"current_range_meters":5600,"station_id":"","pricing_plan_id":"cebpf4jnsgd1na2vs0mg"},{"bike_id":"0189a5e9-d1f8-4bda-b5ac-2face611721e","system_id":"levelo_inurba_marseille","lat":43.30132,"lon":5.39852,"is_reserved":false,"is_disabled":false,"rental_uris":{"android":"levelo://app?vid=0189a5e9-d1f8-4bda-b5ac-2face611721e","ios":"levelo://app?vid=0189a5e9-d1f8-4bda-b5ac-2face611721e"},"vehicle_type_id":"4","last_reported":1779132200,"current_range_meters":5600,"station_id":"ce4bh0h2rcd13ifvqd40","pricing_plan_id":"cebpf4jnsgd1na2vs0mg"},{"bike_id":"fcadec64-c46c-478e-9026-382119d4caeb","system_id":"levelo_inurba_marseille","lat":43.29709,"lon":5.36607,"is_reserved":false,"is_disabled":false,"rental_uris":{"android":"levelo://app?vid=fcadec64-c46c-478e-9026-382119d4caeb","ios":"levelo://app?vid=fcadec64-c46c-478e-9026-382119d4caeb"},"vehicle_type_id":"4","last_reported":1779132200,"current_range_meters":5600,"station_id":"ce4bgn12rcd13ifvqbt0","pricing_plan_id":"cebpf4jnsgd1na2vs0mg"},{"bike_id":"73e74dc5-344d-4077-a412-12986da0c403","system_id":"levelo_inurba_marseille","lat":43.2571,"lon":5.41098,"is_reserved":false,"is_disabled":false,"rental_uris":{"android":"levelo://app?vid=73e74dc5-344d-4077-a412-12986da0c403","ios":"levelo://app?vid=73e74dc5-344d-4077-a412-12986da0c403"},"vehicle_type_id":"4","last_reported":1779132200,"current_range_meters":5600,"station_id":"ce4bhkp2rcd13ifvqgd0","pricing_plan_id":"cebpf4jnsgd1na2vs0mg"},{"bike_id":"ca29e35d-502f-4fb7-babc-accd43c51ab5","system_id":"levelo_inurba_marseille","lat":43.28707,"lon":5.4668,"is_reserved":false,"is_disabled":false,"rental_uris":{"android":"levelo://app?vid=ca29e35d-502f-4fb7-babc-accd43c51ab5","ios":"levelo://app?vid=ca29e35d-502f-4fb7-babc-accd43c51ab5"},"vehicle_type_id":"4","last_reported":1779132200,"current_range_meters":5600,"station_id":"st_d6tc3vkotcvc738tfjhg","pricing_plan_id":"cebpf4jnsgd1na2vs0mg"},{"bike_id":"226cf369-7a1c-4c22-8269-a12889a82f3f","system_id":"levelo_inurba_marseille","lat":43.28002,"lon":5.41663,"is_reserved":false,"is_disabled":false,"rental_uris":{"android":"levelo://app?vid=226cf369-7a1c-4c22-8269-a12889a82f3f","ios":"levelo://app?vid=226cf369-7a1c-4c22-8269-a12889a82f3f"},"vehicle_type_id":"4","last_reported":1779132200,"current_range_meters":5600,"station_id":"ce4bho12rcd13ifvqh1g","pricing_plan_id":"cebpf4jnsgd1na2vs0mg"},{"bike_id":"da66c6ce-3d3c-40b4-8a30-8668c058cfe8","system_id":"levelo_inurba_marseille","lat":43.24683,"lon":5.38108,"is_reserved":false,"is_disabled":false,"rental_uris":{"android":"levelo://app?vid=da66c6ce-3d3c-40b4-8a30-8668c058cfe8","ios":"levelo://app?vid=da66c6ce-3d3c-40b4-8a30-8668c058cfe8"},"vehicle_type_id":"4","last_reported":1779132200,"current_range_meters":5600,"station_id":"","pricing_plan_id":"cebpf4jnsgd1na2vs0mg"},{"bike_id":"56611aee-4a97-497f-a541-b301e0a4b4f4","system_id":"levelo_inurba_marseille","lat":43.33227,"lon":5.40618,"is_reserved":false,"is_disabled":false,"rental_uris":{"android":"levelo://app?vid=56611aee-4a97-497f-a541-b301e0a4b4f4","ios":"levelo://app?vid=56611aee-4a97-497f-a541-b301e0a4b4f4"},"vehicle_type_id":"4","last_reported":1779132200,"current_range_meters":5600,"station_id":"","pricing_plan_id":"cebpf4jnsgd1na2vs0mg"},{"bike_id":"95402387-5bb1-4af7-bd0c-8a7dd2adbab6","system_id":"levelo_inurba_marseille","lat":43.30314,"lon":5.39195,"is_reserved":false,"is_disabled":true,"rental_uris":{"android":"levelo://app?vid=95402387-5bb1-4af7-bd0c-8a7dd2adbab6","ios":"levelo://app?vid=95402387-5bb1-4af7-bd0c-8a7dd2adbab6"},"vehicle_type_id":"4","last_reported":1779132200,"current_range_meters":5600,"station_id":"ce4bgkh2rcd13ifvqbk0","pricing_plan_id":"cebpf4jnsgd1na2vs0mg"},{"bike_id":"b848289e-3923-4477-8ecd-a2a10e8b1c18","system_id":"levelo_inurba_marseille","lat":43.29518,"lon":5.37503,"is_reserved":false,"is_disabled":false,"rental_uris":{"android":"levelo://app?vid=b848289e-3923-4477-8ecd-a2a10e8b1c18","ios":"levelo://app?vid=b848289e-3923-4477-8ecd-a2a10e8b1c18"},"vehicle_type_id":"4","last_reported":1779132200,"current_range_meters":5600,"station_id":"ce4bgkp2rcd13ifvqbmg","pricing_plan_id":"cebpf4jnsgd1na2vs0mg"},{"bike_id":"e51cd27c-a83e-4dc8-b67c-9bc0f3d88b36","system_id":"levelo_inurba_marseille","lat":43.307193,"lon":5.423604,"is_reserved":false,"is_disabled":false,"rental_uris":{"android":"levelo://app?vid=e51cd27c-a83e-4dc8-b67c-9bc0f3d88b36","ios":"levelo://app?vid=e51cd27c-a83e-4dc8-b67c-9bc0f3d88b36"},"vehicle_type_id":"4","last_reported":1779132200,"current_range_meters":5600,"station_id":"","pricing_plan_id":"cebpf4jnsgd1na2vs0mg"},{"bike_id":"462b788c-6301-44ac-95e3-03eeaa9ea279","system_id":"levelo_inurba_marseille","lat":43.31048,"lon":5.37156,"is_reserved":false,"is_disabled":false,"rental_uris":{"android":"levelo://app?vid=462b788c-6301-44ac-95e3-03eeaa9ea279","ios":"levelo://app?vid=462b788c-6301-44ac-95e3-03eeaa9ea279"},"vehicle_type_id":"4","last_reported":1779132200,"current_range_meters":5600,"station_id":"st_d4kl2rp97mjs73e7tdfg","pricing_plan_id":"cebpf4jnsgd1na2vs0mg"},{"bike_id":"1bfacf5b-9fdd-45b4-b0bb-487f767fba64","system_id":"levelo_inurba_marseille","lat":43.29227,"lon":5.36061,"is_reserved":false,"is_disabled":false,"rental_uris":{"android":"levelo://app?vid=1bfacf5b-9fdd-45b4-b0bb-487f767fba64","ios":"levelo://app?vid=1bfacf5b-9fdd-45b4-b0bb-487f767fba64"},"vehicle_type_id":"4","last_reported":1779132200,"current_range_meters":5600,"station_id":"ce4bhbh2rcd13ifvqeqg","pricing_plan_id":"cebpf4jnsgd1na2vs0mg"},{"bike_id":"5064e4d1-a4b8-4d4d-9cf4-b90eda56c5de","system_id":"levelo_inurba_marseille","lat":43.33545,"lon":5.37458,"is_reserved":false,"is_disabled":false,"rental_uris":{"android":"levelo://app?vid=5064e4d1-a4b8-4d4d-9cf4-b90eda56c5de","ios":"levelo://app?vid=5064e4d1-a4b8-4d4d-9cf4-b90eda56c5de"},"vehicle_type_id":"4","last_reported":1779132200,"current_range_meters":5600,"station_id":"st_d46tts09ee8s73dlu43g","pricing_plan_id":"cebpf4jnsgd1na2vs0mg"},{"bike_id":"71cc849b-6867-4b3f-9dc7-18039e41f45b","system_id":"levelo_inurba_marseille","lat":43.29048,"lon":5.35931,"is_reserved":false,"is_disabled":false,"rental_uris":{"android":"levelo://app?vid=71cc849b-6867-4b3f-9dc7-18039e41f45b","ios":"levelo://app?vid=71cc849b-6867-4b3f-9dc7-18039e41f45b"},"vehicle_type_id":"4","last_reported":1779132200,"current_range_meters":5600,"station_id":"ce4bha92rcd13ifvqeg0","pricing_plan_id":"cebpf4jnsgd1na2vs0mg"},{"bike_id":"a6bbb159-c95c-4701-8e61-2d32adb6be37","system_id":"levelo_inurba_marseille","lat":43.29828,"lon":5.419,"is_reserved":false,"is_disabled":false,"rental_uris":{"android":"levelo://app?vid=a6bbb159-c95c-4701-8e61-2d32adb6be37","ios":"levelo://app?vid=a6bbb159-c95c-4701-8e61-2d32adb6be37"},"vehicle_type_id":"4","last_reported":1779132200,"current_range_meters":6000,"station_id":"","pricing_plan_id":"cebpf4jnsgd1na2vs0mg"},{"bike_id":"81354639-3c87-4862-aea5-04c092ebd0aa","system_id":"levelo_inurba_marseille","lat":43.2954,"lon":5.38548,"is_reserved":false,"is_disabled":false,"rental_uris":{"android":"levelo://app?vid=81354639-3c87-4862-aea5-04c092ebd0aa","ios":"levelo://app?vid=81354639-3c87-4862-aea5-04c092ebd0aa"},"vehicle_type_id":"4","last_reported":1779132200,"current_range_meters":6000,"station_id":"ce4bgih2rcd13ifvqba0","pricing_plan_id":"cebpf4jnsgd1na2vs0mg"},{"bike_id":"c4c56dca-3c1e-48c7-b5bd-d8adea2c4f5c","system_id":"levelo_inurba_marseille","lat":43.27079,"lon":5.4227,"is_reserved":false,"is_disabled":false,"rental_uris":{"android":"levelo://app?vid=c4c56dca-3c1e-48c7-b5bd-d8adea2c4f5c","ios":"levelo://app?vid=c4c56dca-3c1e-48c7-b5bd-d8adea2c4f5c"},"vehicle_type_id":"4","last_reported":1779132200,"current_range_meters":6000,"station_id":"ce4bhk92rcd13ifvqgb0","pricing_plan_id":"cebpf4jnsgd1na2vs0mg"},{"bike_id":"ab3e477c-861a-436a-9f70-5c6894fa4863","system_id":"levelo_inurba_marseille","lat":43.29196,"lon":5.35803,"is_reserved":false,"is_disabled":false,"rental_uris":{"android":"levelo://app?vid=ab3e477c-861a-436a-9f70-5c6894fa4863","ios":"levelo://app?vid=ab3e477c-861a-436a-9f70-5c6894fa4863"},"vehicle_type_id":"4","last_reported":1779132200,"current_range_meters":6000,"station_id":"ce4bhb12rcd13ifvqel0","pricing_plan_id":"cebpf4jnsgd1na2vs0mg"},{"bike_id":"4512290d-ea88-4327-a74b-cfd2dd247e16","system_id":"levelo_inurba_marseille","lat":43.29273,"lon":5.38448,"is_reserved":false,"is_disabled":false,"rental_uris":{"android":"levelo://app?vid=4512290d-ea88-4327-a74b-cfd2dd247e16","ios":"levelo://app?vid=4512290d-ea88-4327-a74b-cfd2dd247e16"},"vehicle_type_id":"4","last_reported":1779132200,"current_range_meters":6000,"station_id":"ce4bh692rcd13ifvqea0","pricing_plan_id":"cebpf4jnsgd1na2vs0mg"},{"bike_id":"f0155b3f-a757-41e6-a885-d929684d0a3c","system_id":"levelo_inurba_marseille","lat":43.30606,"lon":5.36593,"is_reserved":false,"is_disabled":false,"rental_uris":{"android":"levelo://app?vid=f0155b3f-a757-41e6-a885-d929684d0a3c","ios":"levelo://app?vid=f0155b3f-a757-41e6-a885-d929684d0a3c"},"vehicle_type_id":"4","last_reported":1779132200,"current_range_meters":6000,"station_id":"","pricing_plan_id":"cebpf4jnsgd1na2vs0mg"},{"bike_id":"e5d3f8e5-7fc2-4063-b550-2d1f9611ba34","system_id":"levelo_inurba_marseille","lat":43.21198,"lon":5.35073,"is_reserved":false,"is_disabled":true,"rental_uris":{"android":"levelo://app?vid=e5d3f8e5-7fc2-4063-b550-2d1f9611ba34","ios":"levelo://app?vid=e5d3f8e5-7fc2-4063-b550-2d1f9611ba34"},"vehicle_type_id":"4","last_reported":1779132200,"current_range_meters":6000,"station_id":"st_cvj6sg6p6f1abm77japg","pricing_plan_id":"cebpf4jnsgd1na2vs0mg"},{"bike_id":"2ef6036c-57ba-40d4-be62-1269b720caa6","system_id":"levelo_inurba_marseille","lat":43.28617,"lon":5.37061,"is_reserved":false,"is_disabled":false,"rental_uris":{"android":"levelo://app?vid=2ef6036c-57ba-40d4-be62-1269b720caa6","ios":"levelo://app?vid=2ef6036c-57ba-40d4-be62-1269b720caa6"},"vehicle_type_id":"4","last_reported":1779132200,"current_range_meters":6000,"station_id":"ce4bht12rcd13ifvqi60","pricing_plan_id":"cebpf4jnsgd1na2vs0mg"},{"bike_id":"dbf0138b-cfc1-48d4-ae4a-9c45a76e73b1","system_id":"levelo_inurba_marseille","lat":43.31482,"lon":5.37311,"is_reserved":false,"is_disabled":false,"rental_uris":{"android":"levelo://app?vid=dbf0138b-cfc1-48d4-ae4a-9c45a76e73b1","ios":"levelo://app?vid=dbf0138b-cfc1-48d4-ae4a-9c45a76e73b1"},"vehicle_type_id":"4","last_reported":1779132200,"current_range_meters":6000,"station_id":"ce4bgt12rcd13ifvqcd0","pricing_plan_id":"cebpf4jnsgd1na2vs0mg"},{"bike_id":"627051ca-ceab-4958-842c-b7590911776e","system_id":"levelo_inurba_marseille","lat":43.32354,"lon":5.36733,"is_reserved":false,"is_disabled":false,"rental_uris":{"android":"levelo://app?vid=627051ca-ceab-4958-842c-b7590911776e","ios":"levelo://app?vid=627051ca-ceab-4958-842c-b7590911776e"},"vehicle_type_id":"4","last_reported":1779132200,"current_range_meters":6000,"station_id":"ce4bhsh2rcd13ifvqi2g","pricing_plan_id":"cebpf4jnsgd1na2vs0mg"},{"bike_id":"9fdcbe47-e271-4e8a-a5f4-2b31fe40ea31","system_id":"levelo_inurba_marseille","lat":43.28614,"lon":5.35109,"is_reserved":false,"is_disabled":false,"rental_uris":{"android":"levelo://app?vid=9fdcbe47-e271-4e8a-a5f4-2b31fe40ea31","ios":"levelo://app?vid=9fdcbe47-e271-4e8a-a5f4-2b31fe40ea31"},"vehicle_type_id":"4","last_reported":1779132200,"current_range_meters":6000,"station_id":"ce4bhch2rcd13ifvqeug","pricing_plan_id":"cebpf4jnsgd1na2vs0mg"},{"bike_id":"7095ab4b-b8bc-4233-9eeb-4384b80e85f4","system_id":"levelo_inurba_marseille","lat":43.29532,"lon":5.38544,"is_reserved":false,"is_disabled":false,"rental_uris":{"android":"levelo://app?vid=7095ab4b-b8bc-4233-9eeb-4384b80e85f4","ios":"levelo://app?vid=7095ab4b-b8bc-4233-9eeb-4384b80e85f4"},"vehicle_type_id":"4","last_reported":1779132200,"current_range_meters":6000,"station_id":"ce4bgih2rcd13ifvqba0","pricing_plan_id":"cebpf4jnsgd1na2vs0mg"},{"bike_id":"133fe733-22cb-4599-8814-5a010d5f579a","system_id":"levelo_inurba_marseille","lat":43.31331,"lon":5.39698,"is_reserved":false,"is_disabled":false,"rental_uris":{"android":"levelo://app?vid=133fe733-22cb-4599-8814-5a010d5f579a","ios":"levelo://app?vid=133fe733-22cb-4599-8814-5a010d5f579a"},"vehicle_type_id":"4","last_reported":1779132200,"current_range_meters":6000,"station_id":"ce4bgvp2rcd13ifvqcu0","pricing_plan_id":"cebpf4jnsgd1na2vs0mg"},{"bike_id":"de0075fb-deb1-4c13-b239-1af36e9430dd","system_id":"levelo_inurba_marseille","lat":43.31323,"lon":5.39686,"is_reserved":false,"is_disabled":false,"rental_uris":{"android":"levelo://app?vid=de0075fb-deb1-4c13-b239-1af36e9430dd","ios":"levelo://app?vid=de0075fb-deb1-4c13-b239-1af36e9430dd"},"vehicle_type_id":"4","last_reported":1779132200,"current_range_meters":6400,"station_id":"ce4bgvp2rcd13ifvqcu0","pricing_plan_id":"cebpf4jnsgd1na2vs0mg"},{"bike_id":"185113fd-b3bd-49f2-9b2e-dfb619e0d36f","system_id":"levelo_inurba_marseille","lat":43.24179,"lon":5.39744,"is_reserved":false,"is_disabled":false,"rental_uris":{"android":"levelo://app?vid=185113fd-b3bd-49f2-9b2e-dfb619e0d36f","ios":"levelo://app?vid=185113fd-b3bd-49f2-9b2e-dfb619e0d36f"},"vehicle_type_id":"4","last_reported":1779132200,"current_range_meters":6400,"station_id":"ce4bhn12rcd13ifvqgpg","pricing_plan_id":"cebpf4jnsgd1na2vs0mg"},{"bike_id":"1c2eb4d1-e613-4047-a77c-317fbe0accea","system_id":"levelo_inurba_marseille","lat":43.29264,"lon":5.38437,"is_reserved":false,"is_disabled":true,"rental_uris":{"android":"levelo://app?vid=1c2eb4d1-e613-4047-a77c-317fbe0accea","ios":"levelo://app?vid=1c2eb4d1-e613-4047-a77c-317fbe0accea"},"vehicle_type_id":"4","last_reported":1779132200,"current_range_meters":6400,"station_id":"ce4bh692rcd13ifvqea0","pricing_plan_id":"cebpf4jnsgd1na2vs0mg"},{"bike_id":"42707d6f-4581-4bd7-a210-c1a06576b84d","system_id":"levelo_inurba_marseille","lat":43.26557,"lon":5.4032,"is_reserved":false,"is_disabled":false,"rental_uris":{"android":"levelo://app?vid=42707d6f-4581-4bd7-a210-c1a06576b84d","ios":"levelo://app?vid=42707d6f-4581-4bd7-a210-c1a06576b84d"},"vehicle_type_id":"4","last_reported":1779132200,"current_range_meters":6400,"station_id":"ce4bhmp2rcd13ifvqgng","pricing_plan_id":"cebpf4jnsgd1na2vs0mg"},{"bike_id":"6af654b7-7a8b-457b-ad58-fba21b09801a","system_id":"levelo_inurba_marseille","lat":43.32091,"lon":5.36775,"is_reserved":false,"is_disabled":false,"rental_uris":{"android":"levelo://app?vid=6af654b7-7a8b-457b-ad58-fba21b09801a","ios":"levelo://app?vid=6af654b7-7a8b-457b-ad58-fba21b09801a"},"vehicle_type_id":"4","last_reported":1779132200,"current_range_meters":6400,"station_id":"ce4bhrh2rcd13ifvqhug","pricing_plan_id":"cebpf4jnsgd1na2vs0mg"},{"bike_id":"46e5ee1b-6e75-4db8-88e1-e8ff6d5292d7","system_id":"levelo_inurba_marseille","lat":43.23083,"lon":5.39497,"is_reserved":false,"is_disabled":false,"rental_uris":{"android":"levelo://app?vid=46e5ee1b-6e75-4db8-88e1-e8ff6d5292d7","ios":"levelo://app?vid=46e5ee1b-6e75-4db8-88e1-e8ff6d5292d7"},"vehicle_type_id":"4","last_reported":1779132200,"current_range_meters":6400,"station_id":"","pricing_plan_id":"cebpf4jnsgd1na2vs0mg"},{"bike_id":"80cc7be8-e95e-4d57-afd7-767e38f6fffc","system_id":"levelo_inurba_marseille","lat":43.29749,"lon":5.42803,"is_reserved":false,"is_disabled":false,"rental_uris":{"android":"levelo://app?vid=80cc7be8-e95e-4d57-afd7-767e38f6fffc","ios":"levelo://app?vid=80cc7be8-e95e-4d57-afd7-767e38f6fffc"},"vehicle_type_id":"4","last_reported":1779132200,"current_range_meters":6400,"station_id":"st_d3md5207bmas73dh9klg","pricing_plan_id":"cebpf4jnsgd1na2vs0mg"},{"bike_id":"527c40e5-badc-4281-b4c8-e1f5629d912c","system_id":"levelo_inurba_marseille","lat":43.25109,"lon":5.3953,"is_reserved":false,"is_disabled":false,"rental_uris":{"android":"levelo://app?vid=527c40e5-badc-4281-b4c8-e1f5629d912c","ios":"levelo://app?vid=527c40e5-badc-4281-b4c8-e1f5629d912c"},"vehicle_type_id":"4","last_reported":1779132200,"current_range_meters":6400,"station_id":"ce4bhm12rcd13ifvqgkg","pricing_plan_id":"cebpf4jnsgd1na2vs0mg"},{"bike_id":"35e100a0-0c90-4af9-9383-c4f41c603d29","system_id":"levelo_inurba_marseille","lat":43.2751,"lon":5.41579,"is_reserved":false,"is_disabled":false,"rental_uris":{"android":"levelo://app?vid=35e100a0-0c90-4af9-9383-c4f41c603d29","ios":"levelo://app?vid=35e100a0-0c90-4af9-9383-c4f41c603d29"},"vehicle_type_id":"4","last_reported":1779132200,"current_range_meters":6400,"station_id":"st_d6im8g6chgec73a5pndg","pricing_plan_id":"cebpf4jnsgd1na2vs0mg"},{"bike_id":"ab1a7a5a-57d9-44f1-9411-c1f278ef1ae0","system_id":"levelo_inurba_marseille","lat":43.29205,"lon":5.35794,"is_reserved":false,"is_disabled":false,"rental_uris":{"android":"levelo://app?vid=ab1a7a5a-57d9-44f1-9411-c1f278ef1ae0","ios":"levelo://app?vid=ab1a7a5a-57d9-44f1-9411-c1f278ef1ae0"},"vehicle_type_id":"4","last_reported":1779132200,"current_range_meters":6400,"station_id":"ce4bhb12rcd13ifvqel0","pricing_plan_id":"cebpf4jnsgd1na2vs0mg"},{"bike_id":"9a35566c-4f98-4fa7-bbdc-f249b7477c18","system_id":"levelo_inurba_marseille","lat":43.29798,"lon":5.37111,"is_reserved":false,"is_disabled":false,"rental_uris":{"android":"levelo://app?vid=9a35566c-4f98-4fa7-bbdc-f249b7477c18","ios":"levelo://app?vid=9a35566c-4f98-4fa7-bbdc-f249b7477c18"},"vehicle_type_id":"4","last_reported":1779132200,"current_range_meters":6400,"station_id":"ce4bgop2rcd13ifvqc1g","pricing_plan_id":"cebpf4jnsgd1na2vs0mg"},{"bike_id":"461d5e9b-3596-4d6e-a192-ffe757923bcc","system_id":"levelo_inurba_marseille","lat":43.26034,"lon":5.41749,"is_reserved":false,"is_disabled":false,"rental_uris":{"android":"levelo://app?vid=461d5e9b-3596-4d6e-a192-ffe757923bcc","ios":"levelo://app?vid=461d5e9b-3596-4d6e-a192-ffe757923bcc"},"vehicle_type_id":"4","last_reported":1779132200,"current_range_meters":6400,"station_id":"","pricing_plan_id":"cebpf4jnsgd1na2vs0mg"},{"bike_id":"5a1c8a28-d79f-4b07-a4d8-bce75ba2c426","system_id":"levelo_inurba_marseille","lat":43.25855,"lon":5.3991,"is_reserved":false,"is_disabled":true,"rental_uris":{"android":"levelo://app?vid=5a1c8a28-d79f-4b07-a4d8-bce75ba2c426","ios":"levelo://app?vid=5a1c8a28-d79f-4b07-a4d8-bce75ba2c426"},"vehicle_type_id":"4","last_reported":1779132200,"current_range_meters":6800,"station_id":"ce4bhl92rcd13ifvqghg","pricing_plan_id":"cebpf4jnsgd1na2vs0mg"},{"bike_id":"78cc0894-fa11-4572-a241-369c99228cc8","system_id":"levelo_inurba_marseille","lat":43.29022,"lon":5.38115,"is_reserved":false,"is_disabled":false,"rental_uris":{"android":"levelo://app?vid=78cc0894-fa11-4572-a241-369c99228cc8","ios":"levelo://app?vid=78cc0894-fa11-4572-a241-369c99228cc8"},"vehicle_type_id":"4","last_reported":1779132200,"current_range_meters":6800,"station_id":"ce4bh4p2rcd13ifvqe1g","pricing_plan_id":"cebpf4jnsgd1na2vs0mg"},{"bike_id":"81953542-9173-4123-87e9-c66001a3f47d","system_id":"levelo_inurba_marseille","lat":43.24666,"lon":5.3815,"is_reserved":false,"is_disabled":false,"rental_uris":{"android":"levelo://app?vid=81953542-9173-4123-87e9-c66001a3f47d","ios":"levelo://app?vid=81953542-9173-4123-87e9-c66001a3f47d"},"vehicle_type_id":"4","last_reported":1779132200,"current_range_meters":6800,"station_id":"ce4bhih2rcd13ifvqfr0","pricing_plan_id":"cebpf4jnsgd1na2vs0mg"},{"bike_id":"b3eeb2a6-a588-4cb4-a718-e5d9e9764140","system_id":"levelo_inurba_marseille","lat":43.29545,"lon":5.38536,"is_reserved":false,"is_disabled":false,"rental_uris":{"android":"levelo://app?vid=b3eeb2a6-a588-4cb4-a718-e5d9e9764140","ios":"levelo://app?vid=b3eeb2a6-a588-4cb4-a718-e5d9e9764140"},"vehicle_type_id":"4","last_reported":1779132200,"current_range_meters":6800,"station_id":"ce4bgih2rcd13ifvqba0","pricing_plan_id":"cebpf4jnsgd1na2vs0mg"},{"bike_id":"139da8c0-4a36-4fe0-a828-69f137ae30da","system_id":"levelo_inurba_marseille","lat":43.2551,"lon":5.37692,"is_reserved":false,"is_disabled":true,"rental_uris":{"android":"levelo://app?vid=139da8c0-4a36-4fe0-a828-69f137ae30da","ios":"levelo://app?vid=139da8c0-4a36-4fe0-a828-69f137ae30da"},"vehicle_type_id":"4","last_reported":1779132200,"current_range_meters":6800,"station_id":"ce4bhh12rcd13ifvqff0","pricing_plan_id":"cebpf4jnsgd1na2vs0mg"},{"bike_id":"9e12d7d6-3ed8-4126-90bf-5e1f278f160e","system_id":"levelo_inurba_marseille","lat":43.21776,"lon":5.34593,"is_reserved":false,"is_disabled":false,"rental_uris":{"android":"levelo://app?vid=9e12d7d6-3ed8-4126-90bf-5e1f278f160e","ios":"levelo://app?vid=9e12d7d6-3ed8-4126-90bf-5e1f278f160e"},"vehicle_type_id":"4","last_reported":1779132200,"current_range_meters":6800,"station_id":"st_cvj6r9ubvosntc0bgbag","pricing_plan_id":"cebpf4jnsgd1na2vs0mg"},{"bike_id":"b9ca77f1-80fa-475b-9a37-ec72feacc5df","system_id":"levelo_inurba_marseille","lat":43.29799,"lon":5.44054,"is_reserved":false,"is_disabled":false,"rental_uris":{"android":"levelo://app?vid=b9ca77f1-80fa-475b-9a37-ec72feacc5df","ios":"levelo://app?vid=b9ca77f1-80fa-475b-9a37-ec72feacc5df"},"vehicle_type_id":"4","last_reported":1779132200,"current_range_meters":6800,"station_id":"st_d3jp68qikq2c7381ktn0","pricing_plan_id":"cebpf4jnsgd1na2vs0mg"},{"bike_id":"88ebb790-6b2b-4fcd-9b52-484e5a30bff5","system_id":"levelo_inurba_marseille","lat":43.28405,"lon":5.37499,"is_reserved":false,"is_disabled":false,"rental_uris":{"android":"levelo://app?vid=88ebb790-6b2b-4fcd-9b52-484e5a30bff5","ios":"levelo://app?vid=88ebb790-6b2b-4fcd-9b52-484e5a30bff5"},"vehicle_type_id":"4","last_reported":1779132200,"current_range_meters":6800,"station_id":"ce4bh412rcd13ifvqds0","pricing_plan_id":"cebpf4jnsgd1na2vs0mg"},{"bike_id":"10c40cfe-a85e-4b41-8bf4-cac807013e28","system_id":"levelo_inurba_marseille","lat":43.29577,"lon":5.37496,"is_reserved":false,"is_disabled":false,"rental_uris":{"android":"levelo://app?vid=10c40cfe-a85e-4b41-8bf4-cac807013e28","ios":"levelo://app?vid=10c40cfe-a85e-4b41-8bf4-cac807013e28"},"vehicle_type_id":"4","last_reported":1779132200,"current_range_meters":6800,"station_id":"ce4bgh92rcd13ifvqb50","pricing_plan_id":"cebpf4jnsgd1na2vs0mg"},{"bike_id":"8b40f371-b5b3-4fc4-8d18-2cb1fc4066c3","system_id":"levelo_inurba_marseille","lat":43.28931,"lon":5.38394,"is_reserved":false,"is_disabled":true,"rental_uris":{"android":"levelo://app?vid=8b40f371-b5b3-4fc4-8d18-2cb1fc4066c3","ios":"levelo://app?vid=8b40f371-b5b3-4fc4-8d18-2cb1fc4066c3"},"vehicle_type_id":"4","last_reported":1779132200,"current_range_meters":6800,"station_id":"ce4bh612rcd13ifvqe6g","pricing_plan_id":"cebpf4jnsgd1na2vs0mg"},{"bike_id":"922e6ff3-f35b-4155-bb16-2dbf0ee3292b","system_id":"levelo_inurba_marseille","lat":43.290481,"lon":5.355927,"is_reserved":false,"is_disabled":false,"rental_uris":{"android":"levelo://app?vid=922e6ff3-f35b-4155-bb16-2dbf0ee3292b","ios":"levelo://app?vid=922e6ff3-f35b-4155-bb16-2dbf0ee3292b"},"vehicle_type_id":"4","last_reported":1779132200,"current_range_meters":6800,"station_id":"ce4bhb92rcd13ifvqen0","pricing_plan_id":"cebpf4jnsgd1na2vs0mg"},{"bike_id":"4054e159-b7a5-4806-ad89-54373668bd8f","system_id":"levelo_inurba_marseille","lat":43.29538,"lon":5.38548,"is_reserved":false,"is_disabled":false,"rental_uris":{"android":"levelo://app?vid=4054e159-b7a5-4806-ad89-54373668bd8f","ios":"levelo://app?vid=4054e159-b7a5-4806-ad89-54373668bd8f"},"vehicle_type_id":"4","last_reported":1779132200,"current_range_meters":6800,"station_id":"ce4bgih2rcd13ifvqba0","pricing_plan_id":"cebpf4jnsgd1na2vs0mg"},{"bike_id":"9e2fe2f7-d6df-4ab9-966a-e0a262530a00","system_id":"levelo_inurba_marseille","lat":43.248025,"lon":5.374533,"is_reserved":false,"is_disabled":false,"rental_uris":{"android":"levelo://app?vid=9e2fe2f7-d6df-4ab9-966a-e0a262530a00","ios":"levelo://app?vid=9e2fe2f7-d6df-4ab9-966a-e0a262530a00"},"vehicle_type_id":"4","last_reported":1779132200,"current_range_meters":6800,"station_id":"ce4bhgh2rcd13ifvqfb0","pricing_plan_id":"cebpf4jnsgd1na2vs0mg"},{"bike_id":"3f7e1ed9-1b6d-4bbe-8e61-40251501c157","system_id":"levelo_inurba_marseille","lat":43.30411,"lon":5.41282,"is_reserved":false,"is_disabled":false,"rental_uris":{"android":"levelo://app?vid=3f7e1ed9-1b6d-4bbe-8e61-40251501c157","ios":"levelo://app?vid=3f7e1ed9-1b6d-4bbe-8e61-40251501c157"},"vehicle_type_id":"4","last_reported":1779132200,"current_range_meters":6800,"station_id":"ce4bhop2rcd13ifvqh8g","pricing_plan_id":"cebpf4jnsgd1na2vs0mg"},{"bike_id":"f17cfa73-3b8a-487d-8d55-dfce3de4593a","system_id":"levelo_inurba_marseille","lat":43.28854,"lon":5.39318,"is_reserved":false,"is_disabled":false,"rental_uris":{"android":"levelo://app?vid=f17cfa73-3b8a-487d-8d55-dfce3de4593a","ios":"levelo://app?vid=f17cfa73-3b8a-487d-8d55-dfce3de4593a"},"vehicle_type_id":"4","last_reported":1779132200,"current_range_meters":6800,"station_id":"ce4bh2p2rcd13ifvqdi0","pricing_plan_id":"cebpf4jnsgd1na2vs0mg"},{"bike_id":"33bdf4d0-ad76-41d3-bac6-a414ae0a1238","system_id":"levelo_inurba_marseille","lat":43.31314,"lon":5.39702,"is_reserved":false,"is_disabled":false,"rental_uris":{"android":"levelo://app?vid=33bdf4d0-ad76-41d3-bac6-a414ae0a1238","ios":"levelo://app?vid=33bdf4d0-ad76-41d3-bac6-a414ae0a1238"},"vehicle_type_id":"4","last_reported":1779132200,"current_range_meters":6800,"station_id":"ce4bgvp2rcd13ifvqcu0","pricing_plan_id":"cebpf4jnsgd1na2vs0mg"},{"bike_id":"d8e797c1-0d77-4f25-9a8d-e36ea383af78","system_id":"levelo_inurba_marseille","lat":43.29193,"lon":5.39297,"is_reserved":false,"is_disabled":false,"rental_uris":{"android":"levelo://app?vid=d8e797c1-0d77-4f25-9a8d-e36ea383af78","ios":"levelo://app?vid=d8e797c1-0d77-4f25-9a8d-e36ea383af78"},"vehicle_type_id":"4","last_reported":1779132200,"current_range_meters":6800,"station_id":"ce4bh192rcd13ifvqdd0","pricing_plan_id":"cebpf4jnsgd1na2vs0mg"},{"bike_id":"1b9a4f9e-101a-4bd7-a664-7c121f897c2e","system_id":"levelo_inurba_marseille","lat":43.23087,"lon":5.40492,"is_reserved":false,"is_disabled":false,"rental_uris":{"android":"levelo://app?vid=1b9a4f9e-101a-4bd7-a664-7c121f897c2e","ios":"levelo://app?vid=1b9a4f9e-101a-4bd7-a664-7c121f897c2e"},"vehicle_type_id":"4","last_reported":1779132200,"current_range_meters":6800,"station_id":"","pricing_plan_id":"cebpf4jnsgd1na2vs0mg"},{"bike_id":"1e83bb69-67d4-4436-a694-2a70fa6c12ea","system_id":"levelo_inurba_marseille","lat":43.24657,"lon":5.38174,"is_reserved":false,"is_disabled":false,"rental_uris":{"android":"levelo://app?vid=1e83bb69-67d4-4436-a694-2a70fa6c12ea","ios":"levelo://app?vid=1e83bb69-67d4-4436-a694-2a70fa6c12ea"},"vehicle_type_id":"4","last_reported":1779132200,"current_range_meters":6800,"station_id":"ce4bhih2rcd13ifvqfr0","pricing_plan_id":"cebpf4jnsgd1na2vs0mg"},{"bike_id":"92d1f52a-2b5f-46f0-a31e-967db06a4663","system_id":"levelo_inurba_marseille","lat":43.23401,"lon":5.41255,"is_reserved":false,"is_disabled":true,"rental_uris":{"android":"levelo://app?vid=92d1f52a-2b5f-46f0-a31e-967db06a4663","ios":"levelo://app?vid=92d1f52a-2b5f-46f0-a31e-967db06a4663"},"vehicle_type_id":"4","last_reported":1779132200,"current_range_meters":6800,"station_id":"st_d75pvndhf9lc73cqq3eg","pricing_plan_id":"cebpf4jnsgd1na2vs0mg"},{"bike_id":"1db990e0-6d73-4b38-8927-ccb9e907847a","system_id":"levelo_inurba_marseille","lat":43.25092,"lon":5.3952,"is_reserved":false,"is_disabled":false,"rental_uris":{"android":"levelo://app?vid=1db990e0-6d73-4b38-8927-ccb9e907847a","ios":"levelo://app?vid=1db990e0-6d73-4b38-8927-ccb9e907847a"},"vehicle_type_id":"4","last_reported":1779132200,"current_range_meters":6800,"station_id":"ce4bhm12rcd13ifvqgkg","pricing_plan_id":"cebpf4jnsgd1na2vs0mg"},{"bike_id":"3467f6e8-d4b1-4c81-83eb-9bfd2f1ebb8f","system_id":"levelo_inurba_marseille","lat":43.28003,"lon":5.4002,"is_reserved":false,"is_disabled":false,"rental_uris":{"android":"levelo://app?vid=3467f6e8-d4b1-4c81-83eb-9bfd2f1ebb8f","ios":"levelo://app?vid=3467f6e8-d4b1-4c81-83eb-9bfd2f1ebb8f"},"vehicle_type_id":"4","last_reported":1779132200,"current_range_meters":6800,"station_id":"ce4bho92rcd13ifvqh4g","pricing_plan_id":"cebpf4jnsgd1na2vs0mg"},{"bike_id":"abccb2a4-3321-4a26-bf16-c8c3658549ae","system_id":"levelo_inurba_marseille","lat":43.29985,"lon":5.37174,"is_reserved":false,"is_disabled":false,"rental_uris":{"android":"levelo://app?vid=abccb2a4-3321-4a26-bf16-c8c3658549ae","ios":"levelo://app?vid=abccb2a4-3321-4a26-bf16-c8c3658549ae"},"vehicle_type_id":"4","last_reported":1779132200,"current_range_meters":6800,"station_id":"ce4bgr92rcd13ifvqc7g","pricing_plan_id":"cebpf4jnsgd1na2vs0mg"},{"bike_id":"26591e34-5557-4c47-85c1-c0340780f77e","system_id":"levelo_inurba_marseille","lat":43.24563,"lon":5.39539,"is_reserved":false,"is_disabled":false,"rental_uris":{"android":"levelo://app?vid=26591e34-5557-4c47-85c1-c0340780f77e","ios":"levelo://app?vid=26591e34-5557-4c47-85c1-c0340780f77e"},"vehicle_type_id":"4","last_reported":1779132200,"current_range_meters":6800,"station_id":"ce4bhlp2rcd13ifvqgjg","pricing_plan_id":"cebpf4jnsgd1na2vs0mg"},{"bike_id":"423e487b-ed22-4026-bd15-52979e64ac68","system_id":"levelo_inurba_marseille","lat":43.24395,"lon":5.37047,"is_reserved":false,"is_disabled":false,"rental_uris":{"android":"levelo://app?vid=423e487b-ed22-4026-bd15-52979e64ac68","ios":"levelo://app?vid=423e487b-ed22-4026-bd15-52979e64ac68"},"vehicle_type_id":"4","last_reported":1779132200,"current_range_meters":7200,"station_id":"ce4bhhh2rcd13ifvqfk0","pricing_plan_id":"cebpf4jnsgd1na2vs0mg"},{"bike_id":"f953e7df-9a8f-4f8e-8e56-6a5db7d34d82","system_id":"levelo_inurba_marseille","lat":43.269189,"lon":5.380411,"is_reserved":false,"is_disabled":false,"rental_uris":{"android":"levelo://app?vid=f953e7df-9a8f-4f8e-8e56-6a5db7d34d82","ios":"levelo://app?vid=f953e7df-9a8f-4f8e-8e56-6a5db7d34d82"},"vehicle_type_id":"4","last_reported":1779132200,"current_range_meters":7200,"station_id":"","pricing_plan_id":"cebpf4jnsgd1na2vs0mg"},{"bike_id":"addcdd95-92f1-4085-b077-e57d382466cb","system_id":"levelo_inurba_marseille","lat":43.29004,"lon":5.35606,"is_reserved":false,"is_disabled":true,"rental_uris":{"android":"levelo://app?vid=addcdd95-92f1-4085-b077-e57d382466cb","ios":"levelo://app?vid=addcdd95-92f1-4085-b077-e57d382466cb"},"vehicle_type_id":"4","last_reported":1779132200,"current_range_meters":7200,"station_id":"ce4bhb92rcd13ifvqen0","pricing_plan_id":"cebpf4jnsgd1na2vs0mg"},{"bike_id":"d330ebaf-89a2-4938-8fb2-a03c97594a54","system_id":"levelo_inurba_marseille","lat":43.2901,"lon":5.37602,"is_reserved":false,"is_disabled":false,"rental_uris":{"android":"levelo://app?vid=d330ebaf-89a2-4938-8fb2-a03c97594a54","ios":"levelo://app?vid=d330ebaf-89a2-4938-8fb2-a03c97594a54"},"vehicle_type_id":"4","last_reported":1779132200,"current_range_meters":7200,"station_id":"ce4bh692rcd13ifvqe90","pricing_plan_id":"cebpf4jnsgd1na2vs0mg"},{"bike_id":"2eee5c56-15d0-42b7-a294-a32ebf5dafc7","system_id":"levelo_inurba_marseille","lat":43.29731,"lon":5.36629,"is_reserved":false,"is_disabled":false,"rental_uris":{"android":"levelo://app?vid=2eee5c56-15d0-42b7-a294-a32ebf5dafc7","ios":"levelo://app?vid=2eee5c56-15d0-42b7-a294-a32ebf5dafc7"},"vehicle_type_id":"4","last_reported":1779132200,"current_range_meters":7200,"station_id":"ce4bgn12rcd13ifvqbt0","pricing_plan_id":"cebpf4jnsgd1na2vs0mg"},{"bike_id":"ec069315-e74a-4a57-972c-0dbc7ce3cd06","system_id":"levelo_inurba_marseille","lat":43.28265,"lon":5.35064,"is_reserved":false,"is_disabled":false,"rental_uris":{"android":"levelo://app?vid=ec069315-e74a-4a57-972c-0dbc7ce3cd06","ios":"levelo://app?vid=ec069315-e74a-4a57-972c-0dbc7ce3cd06"},"vehicle_type_id":"4","last_reported":1779132200,"current_range_meters":7200,"station_id":"ce4bhbp2rcd13ifvqerg","pricing_plan_id":"cebpf4jnsgd1na2vs0mg"},{"bike_id":"1f8259a9-7e55-4812-b53f-6d999496a759","system_id":"levelo_inurba_marseille","lat":43.28707,"lon":5.46682,"is_reserved":false,"is_disabled":false,"rental_uris":{"android":"levelo://app?vid=1f8259a9-7e55-4812-b53f-6d999496a759","ios":"levelo://app?vid=1f8259a9-7e55-4812-b53f-6d999496a759"},"vehicle_type_id":"4","last_reported":1779132200,"current_range_meters":7200,"station_id":"st_d6tc3vkotcvc738tfjhg","pricing_plan_id":"cebpf4jnsgd1na2vs0mg"},{"bike_id":"6ea6c320-3fde-4b3f-983f-c4ea28652a4e","system_id":"levelo_inurba_marseille","lat":43.22573,"lon":5.41626,"is_reserved":false,"is_disabled":false,"rental_uris":{"android":"levelo://app?vid=6ea6c320-3fde-4b3f-983f-c4ea28652a4e","ios":"levelo://app?vid=6ea6c320-3fde-4b3f-983f-c4ea28652a4e"},"vehicle_type_id":"4","last_reported":1779132200,"current_range_meters":7200,"station_id":"st_d2o4gvlbi1j2169b742g","pricing_plan_id":"cebpf4jnsgd1na2vs0mg"},{"bike_id":"8f6fb70f-9962-4c14-afae-9cd42b60f2ca","system_id":"levelo_inurba_marseille","lat":43.26785,"lon":5.39412,"is_reserved":false,"is_disabled":true,"rental_uris":{"android":"levelo://app?vid=8f6fb70f-9962-4c14-afae-9cd42b60f2ca","ios":"levelo://app?vid=8f6fb70f-9962-4c14-afae-9cd42b60f2ca"},"vehicle_type_id":"4","last_reported":1779132200,"current_range_meters":7200,"station_id":"ce4bhh12rcd13ifvqfg0","pricing_plan_id":"cebpf4jnsgd1na2vs0mg"},{"bike_id":"e6f19690-add7-4afb-aabb-6b8519815447","system_id":"levelo_inurba_marseille","lat":43.30544,"lon":5.38427,"is_reserved":false,"is_disabled":false,"rental_uris":{"android":"levelo://app?vid=e6f19690-add7-4afb-aabb-6b8519815447","ios":"levelo://app?vid=e6f19690-add7-4afb-aabb-6b8519815447"},"vehicle_type_id":"4","last_reported":1779132200,"current_range_meters":7200,"station_id":"ce4bgg92rcd13ifvqb30","pricing_plan_id":"cebpf4jnsgd1na2vs0mg"},{"bike_id":"17ba3c19-387f-4e2e-b73c-a02294ccdd28","system_id":"levelo_inurba_marseille","lat":43.22567,"lon":5.41628,"is_reserved":false,"is_disabled":false,"rental_uris":{"android":"levelo://app?vid=17ba3c19-387f-4e2e-b73c-a02294ccdd28","ios":"levelo://app?vid=17ba3c19-387f-4e2e-b73c-a02294ccdd28"},"vehicle_type_id":"4","last_reported":1779132200,"current_range_meters":7200,"station_id":"st_d2o4gvlbi1j2169b742g","pricing_plan_id":"cebpf4jnsgd1na2vs0mg"},{"bike_id":"f730d25a-84e3-42c5-a939-51609cebefcd","system_id":"levelo_inurba_marseille","lat":43.28708,"lon":5.46673,"is_reserved":false,"is_disabled":false,"rental_uris":{"android":"levelo://app?vid=f730d25a-84e3-42c5-a939-51609cebefcd","ios":"levelo://app?vid=f730d25a-84e3-42c5-a939-51609cebefcd"},"vehicle_type_id":"4","last_reported":1779132200,"current_range_meters":7200,"station_id":"st_d6tc3vkotcvc738tfjhg","pricing_plan_id":"cebpf4jnsgd1na2vs0mg"},{"bike_id":"ff5da1ef-1d7a-4200-a870-536a1cdc6c82","system_id":"levelo_inurba_marseille","lat":43.26369,"lon":5.41068,"is_reserved":false,"is_disabled":false,"rental_uris":{"android":"levelo://app?vid=ff5da1ef-1d7a-4200-a870-536a1cdc6c82","ios":"levelo://app?vid=ff5da1ef-1d7a-4200-a870-536a1cdc6c82"},"vehicle_type_id":"4","last_reported":1779132200,"current_range_meters":7200,"station_id":"st_d4e5ca6na9uc73bfl5fg","pricing_plan_id":"cebpf4jnsgd1na2vs0mg"},{"bike_id":"fabdb786-210c-4662-bafc-d1bfb33945b5","system_id":"levelo_inurba_marseille","lat":43.30144,"lon":5.38779,"is_reserved":false,"is_disabled":false,"rental_uris":{"android":"levelo://app?vid=fabdb786-210c-4662-bafc-d1bfb33945b5","ios":"levelo://app?vid=fabdb786-210c-4662-bafc-d1bfb33945b5"},"vehicle_type_id":"4","last_reported":1779132200,"current_range_meters":7200,"station_id":"ce4bghh2rcd13ifvqb60","pricing_plan_id":"cebpf4jnsgd1na2vs0mg"},{"bike_id":"8f3af7fc-2bf8-4325-97eb-54f330bbc6f4","system_id":"levelo_inurba_marseille","lat":43.24166,"lon":5.36464,"is_reserved":false,"is_disabled":false,"rental_uris":{"android":"levelo://app?vid=8f3af7fc-2bf8-4325-97eb-54f330bbc6f4","ios":"levelo://app?vid=8f3af7fc-2bf8-4325-97eb-54f330bbc6f4"},"vehicle_type_id":"4","last_reported":1779132200,"current_range_meters":7200,"station_id":"","pricing_plan_id":"cebpf4jnsgd1na2vs0mg"},{"bike_id":"4ac8ff19-3b11-40d5-9853-fe542b6b1dff","system_id":"levelo_inurba_marseille","lat":43.29453,"lon":5.39757,"is_reserved":false,"is_disabled":false,"rental_uris":{"android":"levelo://app?vid=4ac8ff19-3b11-40d5-9853-fe542b6b1dff","ios":"levelo://app?vid=4ac8ff19-3b11-40d5-9853-fe542b6b1dff"},"vehicle_type_id":"4","last_reported":1779132200,"current_range_meters":7200,"station_id":"ce4bh3h2rcd13ifvqdo0","pricing_plan_id":"cebpf4jnsgd1na2vs0mg"},{"bike_id":"32002178-684c-43e8-9be6-799731394bbf","system_id":"levelo_inurba_marseille","lat":43.28613,"lon":5.37064,"is_reserved":false,"is_disabled":false,"rental_uris":{"android":"levelo://app?vid=32002178-684c-43e8-9be6-799731394bbf","ios":"levelo://app?vid=32002178-684c-43e8-9be6-799731394bbf"},"vehicle_type_id":"4","last_reported":1779132200,"current_range_meters":7200,"station_id":"ce4bht12rcd13ifvqi60","pricing_plan_id":"cebpf4jnsgd1na2vs0mg"},{"bike_id":"3c4320fd-6783-42ed-88ab-daa0a582df2c","system_id":"levelo_inurba_marseille","lat":43.31128,"lon":5.37755,"is_reserved":false,"is_disabled":false,"rental_uris":{"android":"levelo://app?vid=3c4320fd-6783-42ed-88ab-daa0a582df2c","ios":"levelo://app?vid=3c4320fd-6783-42ed-88ab-daa0a582df2c"},"vehicle_type_id":"4","last_reported":1779132200,"current_range_meters":7200,"station_id":"ce4bgt92rcd13ifvqcg0","pricing_plan_id":"cebpf4jnsgd1na2vs0mg"},{"bike_id":"87734c19-e7b5-4722-9118-7ad40bbc200d","system_id":"levelo_inurba_marseille","lat":43.31064,"lon":5.37214,"is_reserved":false,"is_disabled":false,"rental_uris":{"android":"levelo://app?vid=87734c19-e7b5-4722-9118-7ad40bbc200d","ios":"levelo://app?vid=87734c19-e7b5-4722-9118-7ad40bbc200d"},"vehicle_type_id":"4","last_reported":1779132200,"current_range_meters":7200,"station_id":"st_d4kl2rp97mjs73e7tdfg","pricing_plan_id":"cebpf4jnsgd1na2vs0mg"},{"bike_id":"fecbad9b-de34-45b5-aec9-0d12e826acd8","system_id":"levelo_inurba_marseille","lat":43.21197,"lon":5.35058,"is_reserved":false,"is_disabled":true,"rental_uris":{"android":"levelo://app?vid=fecbad9b-de34-45b5-aec9-0d12e826acd8","ios":"levelo://app?vid=fecbad9b-de34-45b5-aec9-0d12e826acd8"},"vehicle_type_id":"4","last_reported":1779132200,"current_range_meters":7200,"station_id":"st_cvj6sg6p6f1abm77japg","pricing_plan_id":"cebpf4jnsgd1na2vs0mg"},{"bike_id":"34e806b7-8c9a-4605-aa08-eed49516f788","system_id":"levelo_inurba_marseille","lat":43.28945,"lon":5.36394,"is_reserved":false,"is_disabled":false,"rental_uris":{"android":"levelo://app?vid=34e806b7-8c9a-4605-aa08-eed49516f788","ios":"levelo://app?vid=34e806b7-8c9a-4605-aa08-eed49516f788"},"vehicle_type_id":"4","last_reported":1779132200,"current_range_meters":7200,"station_id":"ce4bhc92rcd13ifvqetg","pricing_plan_id":"cebpf4jnsgd1na2vs0mg"},{"bike_id":"bfda2ad5-657c-48ec-8580-b8dbf66596f9","system_id":"levelo_inurba_marseille","lat":43.26954,"lon":5.40253,"is_reserved":false,"is_disabled":false,"rental_uris":{"android":"levelo://app?vid=bfda2ad5-657c-48ec-8580-b8dbf66596f9","ios":"levelo://app?vid=bfda2ad5-657c-48ec-8580-b8dbf66596f9"},"vehicle_type_id":"4","last_reported":1779132200,"current_range_meters":7200,"station_id":"cjm6bp8fraef2m0cb0m0","pricing_plan_id":"cebpf4jnsgd1na2vs0mg"},{"bike_id":"9ee4a0b6-e6f1-41ea-8fc0-37c15c0a51c3","system_id":"levelo_inurba_marseille","lat":43.28935,"lon":5.36641,"is_reserved":false,"is_disabled":false,"rental_uris":{"android":"levelo://app?vid=9ee4a0b6-e6f1-41ea-8fc0-37c15c0a51c3","ios":"levelo://app?vid=9ee4a0b6-e6f1-41ea-8fc0-37c15c0a51c3"},"vehicle_type_id":"4","last_reported":1779132200,"current_range_meters":7200,"station_id":"ce4bhap2rcd13ifvqek0","pricing_plan_id":"cebpf4jnsgd1na2vs0mg"},{"bike_id":"ba703724-8d38-44ed-940f-aae513aac85d","system_id":"levelo_inurba_marseille","lat":43.28463,"lon":5.35874,"is_reserved":false,"is_disabled":false,"rental_uris":{"android":"levelo://app?vid=ba703724-8d38-44ed-940f-aae513aac85d","ios":"levelo://app?vid=ba703724-8d38-44ed-940f-aae513aac85d"},"vehicle_type_id":"4","last_reported":1779132200,"current_range_meters":7200,"station_id":"ce4bhah2rcd13ifvqei0","pricing_plan_id":"cebpf4jnsgd1na2vs0mg"},{"bike_id":"b3e47a10-789b-4113-b169-face25d448d0","system_id":"levelo_inurba_marseille","lat":43.287,"lon":5.46678,"is_reserved":false,"is_disabled":false,"rental_uris":{"android":"levelo://app?vid=b3e47a10-789b-4113-b169-face25d448d0","ios":"levelo://app?vid=b3e47a10-789b-4113-b169-face25d448d0"},"vehicle_type_id":"4","last_reported":1779132200,"current_range_meters":7200,"station_id":"st_d6tc3vkotcvc738tfjhg","pricing_plan_id":"cebpf4jnsgd1na2vs0mg"},{"bike_id":"8655fdd0-b9ff-4c4b-a8e4-7080f35b0493","system_id":"levelo_inurba_marseille","lat":43.31343,"lon":5.39652,"is_reserved":false,"is_disabled":false,"rental_uris":{"android":"levelo://app?vid=8655fdd0-b9ff-4c4b-a8e4-7080f35b0493","ios":"levelo://app?vid=8655fdd0-b9ff-4c4b-a8e4-7080f35b0493"},"vehicle_type_id":"4","last_reported":1779132200,"current_range_meters":7200,"station_id":"ce4bgvp2rcd13ifvqcu0","pricing_plan_id":"cebpf4jnsgd1na2vs0mg"},{"bike_id":"118f25d8-0255-44ef-8a35-47bb481bb8b6","system_id":"levelo_inurba_marseille","lat":43.24396,"lon":5.37076,"is_reserved":false,"is_disabled":true,"rental_uris":{"android":"levelo://app?vid=118f25d8-0255-44ef-8a35-47bb481bb8b6","ios":"levelo://app?vid=118f25d8-0255-44ef-8a35-47bb481bb8b6"},"vehicle_type_id":"4","last_reported":1779132200,"current_range_meters":8000,"station_id":"ce4bhhh2rcd13ifvqfk0","pricing_plan_id":"cebpf4jnsgd1na2vs0mg"},{"bike_id":"2d03e62f-ba8b-4d0b-92f6-555161cc53ff","system_id":"levelo_inurba_marseille","lat":43.29726,"lon":5.41343,"is_reserved":false,"is_disabled":false,"rental_uris":{"android":"levelo://app?vid=2d03e62f-ba8b-4d0b-92f6-555161cc53ff","ios":"levelo://app?vid=2d03e62f-ba8b-4d0b-92f6-555161cc53ff"},"vehicle_type_id":"4","last_reported":1779132200,"current_range_meters":8000,"station_id":"","pricing_plan_id":"cebpf4jnsgd1na2vs0mg"},{"bike_id":"58c98de5-8c45-44bc-b9d2-d73286c3efe5","system_id":"levelo_inurba_marseille","lat":43.2816,"lon":5.42624,"is_reserved":false,"is_disabled":false,"rental_uris":{"android":"levelo://app?vid=58c98de5-8c45-44bc-b9d2-d73286c3efe5","ios":"levelo://app?vid=58c98de5-8c45-44bc-b9d2-d73286c3efe5"},"vehicle_type_id":"4","last_reported":1779132200,"current_range_meters":8000,"station_id":"ce4bhnh2rcd13ifvqgug","pricing_plan_id":"cebpf4jnsgd1na2vs0mg"},{"bike_id":"5eb11d83-2461-40c2-9484-0a35868d2011","system_id":"levelo_inurba_marseille","lat":43.29732,"lon":5.42757,"is_reserved":false,"is_disabled":true,"rental_uris":{"android":"levelo://app?vid=5eb11d83-2461-40c2-9484-0a35868d2011","ios":"levelo://app?vid=5eb11d83-2461-40c2-9484-0a35868d2011"},"vehicle_type_id":"4","last_reported":1779132200,"current_range_meters":8000,"station_id":"st_d3md5207bmas73dh9klg","pricing_plan_id":"cebpf4jnsgd1na2vs0mg"},{"bike_id":"ee4c4f1c-528d-4985-bf57-398fb25d0967","system_id":"levelo_inurba_marseille","lat":43.31996,"lon":5.38133,"is_reserved":false,"is_disabled":false,"rental_uris":{"android":"levelo://app?vid=ee4c4f1c-528d-4985-bf57-398fb25d0967","ios":"levelo://app?vid=ee4c4f1c-528d-4985-bf57-398fb25d0967"},"vehicle_type_id":"4","last_reported":1779132200,"current_range_meters":8000,"station_id":"ce4bhr12rcd13ifvqhpg","pricing_plan_id":"cebpf4jnsgd1na2vs0mg"},{"bike_id":"5e265005-9551-4579-b283-b599febcb750","system_id":"levelo_inurba_marseille","lat":43.232,"lon":5.39972,"is_reserved":false,"is_disabled":false,"rental_uris":{"android":"levelo://app?vid=5e265005-9551-4579-b283-b599febcb750","ios":"levelo://app?vid=5e265005-9551-4579-b283-b599febcb750"},"vehicle_type_id":"4","last_reported":1779132200,"current_range_meters":8000,"station_id":"ce4bhn12rcd13ifvqgqg","pricing_plan_id":"cebpf4jnsgd1na2vs0mg"},{"bike_id":"b7e03cf9-14b3-44b6-b3fd-cc9307e4a63b","system_id":"levelo_inurba_marseille","lat":43.29304,"lon":5.3718,"is_reserved":false,"is_disabled":false,"rental_uris":{"android":"levelo://app?vid=b7e03cf9-14b3-44b6-b3fd-cc9307e4a63b","ios":"levelo://app?vid=b7e03cf9-14b3-44b6-b3fd-cc9307e4a63b"},"vehicle_type_id":"4","last_reported":1779132200,"current_range_meters":8000,"station_id":"ce4bgh92rcd13ifvqb40","pricing_plan_id":"cebpf4jnsgd1na2vs0mg"},{"bike_id":"428a210f-87f7-428f-9ac4-76d179596d35","system_id":"levelo_inurba_marseille","lat":43.28583,"lon":5.39498,"is_reserved":false,"is_disabled":true,"rental_uris":{"android":"levelo://app?vid=428a210f-87f7-428f-9ac4-76d179596d35","ios":"levelo://app?vid=428a210f-87f7-428f-9ac4-76d179596d35"},"vehicle_type_id":"4","last_reported":1779132200,"current_range_meters":8000,"station_id":"ce4bh292rcd13ifvqdg0","pricing_plan_id":"cebpf4jnsgd1na2vs0mg"},{"bike_id":"6108be67-7030-421d-b70a-c6ee1e88960f","system_id":"levelo_inurba_marseille","lat":43.26559,"lon":5.37279,"is_reserved":false,"is_disabled":false,"rental_uris":{"android":"levelo://app?vid=6108be67-7030-421d-b70a-c6ee1e88960f","ios":"levelo://app?vid=6108be67-7030-421d-b70a-c6ee1e88960f"},"vehicle_type_id":"4","last_reported":1779132200,"current_range_meters":8000,"station_id":"ce4bhg12rcd13ifvqf70","pricing_plan_id":"cebpf4jnsgd1na2vs0mg"},{"bike_id":"982e5984-c300-4b19-a333-883f3fb146ed","system_id":"levelo_inurba_marseille","lat":43.29176,"lon":5.37166,"is_reserved":false,"is_disabled":false,"rental_uris":{"android":"levelo://app?vid=982e5984-c300-4b19-a333-883f3fb146ed","ios":"levelo://app?vid=982e5984-c300-4b19-a333-883f3fb146ed"},"vehicle_type_id":"4","last_reported":1779132200,"current_range_meters":8000,"station_id":"ce4bha92rcd13ifvqeh0","pricing_plan_id":"cebpf4jnsgd1na2vs0mg"},{"bike_id":"2152c572-4c75-47ca-aa81-03560ad912d7","system_id":"levelo_inurba_marseille","lat":43.3093,"lon":5.40149,"is_reserved":false,"is_disabled":false,"rental_uris":{"android":"levelo://app?vid=2152c572-4c75-47ca-aa81-03560ad912d7","ios":"levelo://app?vid=2152c572-4c75-47ca-aa81-03560ad912d7"},"vehicle_type_id":"4","last_reported":1779132200,"current_range_meters":8000,"station_id":"ce4bgvp2rcd13ifvqct0","pricing_plan_id":"cebpf4jnsgd1na2vs0mg"},{"bike_id":"0c2b3871-9f7c-47e4-b56c-51981e5f12b4","system_id":"levelo_inurba_marseille","lat":43.27616,"lon":5.36106,"is_reserved":false,"is_disabled":false,"rental_uris":{"android":"levelo://app?vid=0c2b3871-9f7c-47e4-b56c-51981e5f12b4","ios":"levelo://app?vid=0c2b3871-9f7c-47e4-b56c-51981e5f12b4"},"vehicle_type_id":"4","last_reported":1779132200,"current_range_meters":8000,"station_id":"ce4bgj92rcd13ifvqbe0","pricing_plan_id":"cebpf4jnsgd1na2vs0mg"},{"bike_id":"6bd314e1-ab15-4455-b889-55d1f77e4075","system_id":"levelo_inurba_marseille","lat":43.28617,"lon":5.35105,"is_reserved":false,"is_disabled":false,"rental_uris":{"android":"levelo://app?vid=6bd314e1-ab15-4455-b889-55d1f77e4075","ios":"levelo://app?vid=6bd314e1-ab15-4455-b889-55d1f77e4075"},"vehicle_type_id":"4","last_reported":1779132200,"current_range_meters":8000,"station_id":"ce4bhch2rcd13ifvqeug","pricing_plan_id":"cebpf4jnsgd1na2vs0mg"},{"bike_id":"497e6644-8987-41b1-81ab-505bc931c380","system_id":"levelo_inurba_marseille","lat":43.24974,"lon":5.40471,"is_reserved":false,"is_disabled":false,"rental_uris":{"android":"levelo://app?vid=497e6644-8987-41b1-81ab-505bc931c380","ios":"levelo://app?vid=497e6644-8987-41b1-81ab-505bc931c380"},"vehicle_type_id":"4","last_reported":1779132200,"current_range_meters":8000,"station_id":"st_d2ngiaodas8pm72gd1h0","pricing_plan_id":"cebpf4jnsgd1na2vs0mg"},{"bike_id":"a739f6f6-8343-4c4c-be8c-5f6e7deabd5f","system_id":"levelo_inurba_marseille","lat":43.2621,"lon":5.37438,"is_reserved":false,"is_disabled":false,"rental_uris":{"android":"levelo://app?vid=a739f6f6-8343-4c4c-be8c-5f6e7deabd5f","ios":"levelo://app?vid=a739f6f6-8343-4c4c-be8c-5f6e7deabd5f"},"vehicle_type_id":"4","last_reported":1779132200,"current_range_meters":8000,"station_id":"ce4bhgp2rcd13ifvqfc0","pricing_plan_id":"cebpf4jnsgd1na2vs0mg"},{"bike_id":"6a4190a9-60c1-474d-b36b-bd9f7c409216","system_id":"levelo_inurba_marseille","lat":43.30376,"lon":5.42488,"is_reserved":false,"is_disabled":false,"rental_uris":{"android":"levelo://app?vid=6a4190a9-60c1-474d-b36b-bd9f7c409216","ios":"levelo://app?vid=6a4190a9-60c1-474d-b36b-bd9f7c409216"},"vehicle_type_id":"4","last_reported":1779132200,"current_range_meters":8000,"station_id":"ce4bhoh2rcd13ifvqh6g","pricing_plan_id":"cebpf4jnsgd1na2vs0mg"},{"bike_id":"76822842-6de5-44db-bee3-28d0eed2902b","system_id":"levelo_inurba_marseille","lat":43.22928,"lon":5.35369,"is_reserved":false,"is_disabled":false,"rental_uris":{"android":"levelo://app?vid=76822842-6de5-44db-bee3-28d0eed2902b","ios":"levelo://app?vid=76822842-6de5-44db-bee3-28d0eed2902b"},"vehicle_type_id":"4","last_reported":1779132200,"current_range_meters":8000,"station_id":"cpo3532slgdg3j2ikp40","pricing_plan_id":"cebpf4jnsgd1na2vs0mg"},{"bike_id":"f38c7cc6-eed4-496c-ac10-c91d3e62912b","system_id":"levelo_inurba_marseille","lat":43.30884,"lon":5.39644,"is_reserved":false,"is_disabled":false,"rental_uris":{"android":"levelo://app?vid=f38c7cc6-eed4-496c-ac10-c91d3e62912b","ios":"levelo://app?vid=f38c7cc6-eed4-496c-ac10-c91d3e62912b"},"vehicle_type_id":"4","last_reported":1779132200,"current_range_meters":8000,"station_id":"ce4bh012rcd13ifvqcv0","pricing_plan_id":"cebpf4jnsgd1na2vs0mg"},{"bike_id":"4a170901-2cdd-442d-aa21-d97612b5b3ec","system_id":"levelo_inurba_marseille","lat":43.28634,"lon":5.35118,"is_reserved":false,"is_disabled":false,"rental_uris":{"android":"levelo://app?vid=4a170901-2cdd-442d-aa21-d97612b5b3ec","ios":"levelo://app?vid=4a170901-2cdd-442d-aa21-d97612b5b3ec"},"vehicle_type_id":"4","last_reported":1779132200,"current_range_meters":8000,"station_id":"ce4bhch2rcd13ifvqeug","pricing_plan_id":"cebpf4jnsgd1na2vs0mg"},{"bike_id":"ed5e05b5-1838-48a1-92fb-55b129955633","system_id":"levelo_inurba_marseille","lat":43.26219,"lon":5.37445,"is_reserved":false,"is_disabled":false,"rental_uris":{"android":"levelo://app?vid=ed5e05b5-1838-48a1-92fb-55b129955633","ios":"levelo://app?vid=ed5e05b5-1838-48a1-92fb-55b129955633"},"vehicle_type_id":"4","last_reported":1779132200,"current_range_meters":8000,"station_id":"ce4bhgp2rcd13ifvqfc0","pricing_plan_id":"cebpf4jnsgd1na2vs0mg"},{"bike_id":"67298b0d-96b3-4d14-87eb-fc9a2dd8b027","system_id":"levelo_inurba_marseille","lat":43.25123,"lon":5.40309,"is_reserved":false,"is_disabled":false,"rental_uris":{"android":"levelo://app?vid=67298b0d-96b3-4d14-87eb-fc9a2dd8b027","ios":"levelo://app?vid=67298b0d-96b3-4d14-87eb-fc9a2dd8b027"},"vehicle_type_id":"4","last_reported":1779132200,"current_range_meters":8000,"station_id":"ce4bhkp2rcd13ifvqgd0","pricing_plan_id":"cebpf4jnsgd1na2vs0mg"},{"bike_id":"8bd2b4dc-f458-4c7d-9cb0-4fe0a8375090","system_id":"levelo_inurba_marseille","lat":43.29544,"lon":5.38549,"is_reserved":false,"is_disabled":false,"rental_uris":{"android":"levelo://app?vid=8bd2b4dc-f458-4c7d-9cb0-4fe0a8375090","ios":"levelo://app?vid=8bd2b4dc-f458-4c7d-9cb0-4fe0a8375090"},"vehicle_type_id":"4","last_reported":1779132200,"current_range_meters":8000,"station_id":"ce4bgih2rcd13ifvqba0","pricing_plan_id":"cebpf4jnsgd1na2vs0mg"},{"bike_id":"bc056627-1c3f-4ad6-af07-b39b6b219bea","system_id":"levelo_inurba_marseille","lat":43.28667,"lon":5.36359,"is_reserved":false,"is_disabled":false,"rental_uris":{"android":"levelo://app?vid=bc056627-1c3f-4ad6-af07-b39b6b219bea","ios":"levelo://app?vid=bc056627-1c3f-4ad6-af07-b39b6b219bea"},"vehicle_type_id":"4","last_reported":1779132200,"current_range_meters":8000,"station_id":"ce4bhah2rcd13ifvqej0","pricing_plan_id":"cebpf4jnsgd1na2vs0mg"},{"bike_id":"6391f10f-930d-42ca-bac1-4edfbea611a1","system_id":"levelo_inurba_marseille","lat":43.30139,"lon":5.39837,"is_reserved":false,"is_disabled":false,"rental_uris":{"android":"levelo://app?vid=6391f10f-930d-42ca-bac1-4edfbea611a1","ios":"levelo://app?vid=6391f10f-930d-42ca-bac1-4edfbea611a1"},"vehicle_type_id":"4","last_reported":1779132200,"current_range_meters":8400,"station_id":"ce4bh0h2rcd13ifvqd40","pricing_plan_id":"cebpf4jnsgd1na2vs0mg"},{"bike_id":"b27287c5-907b-4d58-ab2f-fd6bb99bea76","system_id":"levelo_inurba_marseille","lat":43.25126,"lon":5.40316,"is_reserved":false,"is_disabled":false,"rental_uris":{"android":"levelo://app?vid=b27287c5-907b-4d58-ab2f-fd6bb99bea76","ios":"levelo://app?vid=b27287c5-907b-4d58-ab2f-fd6bb99bea76"},"vehicle_type_id":"4","last_reported":1779132200,"current_range_meters":8400,"station_id":"ce4bhlh2rcd13ifvqgig","pricing_plan_id":"cebpf4jnsgd1na2vs0mg"},{"bike_id":"5e2bb823-bb0c-4064-91b9-897d1c3be540","system_id":"levelo_inurba_marseille","lat":43.23898,"lon":5.37458,"is_reserved":false,"is_disabled":false,"rental_uris":{"android":"levelo://app?vid=5e2bb823-bb0c-4064-91b9-897d1c3be540","ios":"levelo://app?vid=5e2bb823-bb0c-4064-91b9-897d1c3be540"},"vehicle_type_id":"4","last_reported":1779132200,"current_range_meters":8400,"station_id":"st_d6sm7csbq4hs73f8fpjg","pricing_plan_id":"cebpf4jnsgd1na2vs0mg"},{"bike_id":"e5a7af7e-f551-4c07-8499-73dad239fcfa","system_id":"levelo_inurba_marseille","lat":43.30682,"lon":5.40047,"is_reserved":false,"is_disabled":false,"rental_uris":{"android":"levelo://app?vid=e5a7af7e-f551-4c07-8499-73dad239fcfa","ios":"levelo://app?vid=e5a7af7e-f551-4c07-8499-73dad239fcfa"},"vehicle_type_id":"4","last_reported":1779132200,"current_range_meters":8400,"station_id":"","pricing_plan_id":"cebpf4jnsgd1na2vs0mg"},{"bike_id":"bce3ada6-5ec4-4641-8655-6282a24713f1","system_id":"levelo_inurba_marseille","lat":43.31199,"lon":5.36882,"is_reserved":false,"is_disabled":false,"rental_uris":{"android":"levelo://app?vid=bce3ada6-5ec4-4641-8655-6282a24713f1","ios":"levelo://app?vid=bce3ada6-5ec4-4641-8655-6282a24713f1"},"vehicle_type_id":"4","last_reported":1779132200,"current_range_meters":8400,"station_id":"ce4bgl92rcd13ifvqbq0","pricing_plan_id":"cebpf4jnsgd1na2vs0mg"},{"bike_id":"ca4f6bf2-59b9-4fb8-9cc3-7ba12b36fa60","system_id":"levelo_inurba_marseille","lat":43.29606,"lon":5.40575,"is_reserved":false,"is_disabled":false,"rental_uris":{"android":"levelo://app?vid=ca4f6bf2-59b9-4fb8-9cc3-7ba12b36fa60","ios":"levelo://app?vid=ca4f6bf2-59b9-4fb8-9cc3-7ba12b36fa60"},"vehicle_type_id":"4","last_reported":1779132200,"current_range_meters":8400,"station_id":"ce4bh0h2rcd13ifvqd60","pricing_plan_id":"cebpf4jnsgd1na2vs0mg"},{"bike_id":"6e790415-aecf-44aa-a8ca-f8ab84aae953","system_id":"levelo_inurba_marseille","lat":43.28071,"lon":5.3964,"is_reserved":false,"is_disabled":false,"rental_uris":{"android":"levelo://app?vid=6e790415-aecf-44aa-a8ca-f8ab84aae953","ios":"levelo://app?vid=6e790415-aecf-44aa-a8ca-f8ab84aae953"},"vehicle_type_id":"4","last_reported":1779132200,"current_range_meters":8400,"station_id":"ce4bho12rcd13ifvqh2g","pricing_plan_id":"cebpf4jnsgd1na2vs0mg"},{"bike_id":"5d4dc8e3-e1c8-4f4d-afda-06dc4c7d444e","system_id":"levelo_inurba_marseille","lat":43.26075,"lon":5.3937,"is_reserved":false,"is_disabled":false,"rental_uris":{"android":"levelo://app?vid=5d4dc8e3-e1c8-4f4d-afda-06dc4c7d444e","ios":"levelo://app?vid=5d4dc8e3-e1c8-4f4d-afda-06dc4c7d444e"},"vehicle_type_id":"4","last_reported":1779132200,"current_range_meters":8400,"station_id":"ce4bhh92rcd13ifvqfj0","pricing_plan_id":"cebpf4jnsgd1na2vs0mg"},{"bike_id":"15363b54-e214-4b72-9d88-6d6f824039df","system_id":"levelo_inurba_marseille","lat":43.25698,"lon":5.41925,"is_reserved":false,"is_disabled":false,"rental_uris":{"android":"levelo://app?vid=15363b54-e214-4b72-9d88-6d6f824039df","ios":"levelo://app?vid=15363b54-e214-4b72-9d88-6d6f824039df"},"vehicle_type_id":"4","last_reported":1779132200,"current_range_meters":8400,"station_id":"","pricing_plan_id":"cebpf4jnsgd1na2vs0mg"},{"bike_id":"f1c35895-74f7-4094-b69b-e3679aca64de","system_id":"levelo_inurba_marseille","lat":43.22536,"lon":5.34831,"is_reserved":false,"is_disabled":false,"rental_uris":{"android":"levelo://app?vid=f1c35895-74f7-4094-b69b-e3679aca64de","ios":"levelo://app?vid=f1c35895-74f7-4094-b69b-e3679aca64de"},"vehicle_type_id":"4","last_reported":1779132200,"current_range_meters":8400,"station_id":"st_cvj5dfep6f1abm77gieg","pricing_plan_id":"cebpf4jnsgd1na2vs0mg"},{"bike_id":"1e7eeb6e-f6c4-4208-9356-8e94a37f45b8","system_id":"levelo_inurba_marseille","lat":43.29449,"lon":5.39756,"is_reserved":false,"is_disabled":true,"rental_uris":{"android":"levelo://app?vid=1e7eeb6e-f6c4-4208-9356-8e94a37f45b8","ios":"levelo://app?vid=1e7eeb6e-f6c4-4208-9356-8e94a37f45b8"},"vehicle_type_id":"4","last_reported":1779132200,"current_range_meters":8400,"station_id":"ce4bh3h2rcd13ifvqdo0","pricing_plan_id":"cebpf4jnsgd1na2vs0mg"},{"bike_id":"c0d467e6-6fef-4d21-8af4-af3c30cfe717","system_id":"levelo_inurba_marseille","lat":43.29796,"lon":5.36518,"is_reserved":false,"is_disabled":false,"rental_uris":{"android":"levelo://app?vid=c0d467e6-6fef-4d21-8af4-af3c30cfe717","ios":"levelo://app?vid=c0d467e6-6fef-4d21-8af4-af3c30cfe717"},"vehicle_type_id":"4","last_reported":1779132200,"current_range_meters":8400,"station_id":"","pricing_plan_id":"cebpf4jnsgd1na2vs0mg"},{"bike_id":"fa592942-41bc-4de8-816e-0cc8cfc267c2","system_id":"levelo_inurba_marseille","lat":43.23973,"lon":5.36608,"is_reserved":false,"is_disabled":false,"rental_uris":{"android":"levelo://app?vid=fa592942-41bc-4de8-816e-0cc8cfc267c2","ios":"levelo://app?vid=fa592942-41bc-4de8-816e-0cc8cfc267c2"},"vehicle_type_id":"4","last_reported":1779132200,"current_range_meters":8400,"station_id":"ce4bhi12rcd13ifvqfp0","pricing_plan_id":"cebpf4jnsgd1na2vs0mg"},{"bike_id":"ac4e8799-8ff6-4ce5-9431-c9eefa641e01","system_id":"levelo_inurba_marseille","lat":43.29566,"lon":5.39976,"is_reserved":false,"is_disabled":false,"rental_uris":{"android":"levelo://app?vid=ac4e8799-8ff6-4ce5-9431-c9eefa641e01","ios":"levelo://app?vid=ac4e8799-8ff6-4ce5-9431-c9eefa641e01"},"vehicle_type_id":"4","last_reported":1779132200,"current_range_meters":8400,"station_id":"ce4bh312rcd13ifvqdj0","pricing_plan_id":"cebpf4jnsgd1na2vs0mg"},{"bike_id":"9a147a82-1909-4624-8e35-bd6b119bb2af","system_id":"levelo_inurba_marseille","lat":43.30662,"lon":5.40038,"is_reserved":false,"is_disabled":true,"rental_uris":{"android":"levelo://app?vid=9a147a82-1909-4624-8e35-bd6b119bb2af","ios":"levelo://app?vid=9a147a82-1909-4624-8e35-bd6b119bb2af"},"vehicle_type_id":"4","last_reported":1779132200,"current_range_meters":8400,"station_id":"ce4bh112rcd13ifvqda0","pricing_plan_id":"cebpf4jnsgd1na2vs0mg"},{"bike_id":"0d681fd7-f8c3-44b1-81df-1f41abf2c1c5","system_id":"levelo_inurba_marseille","lat":43.27926,"lon":5.41037,"is_reserved":false,"is_disabled":false,"rental_uris":{"android":"levelo://app?vid=0d681fd7-f8c3-44b1-81df-1f41abf2c1c5","ios":"levelo://app?vid=0d681fd7-f8c3-44b1-81df-1f41abf2c1c5"},"vehicle_type_id":"4","last_reported":1779132200,"current_range_meters":8400,"station_id":"ce4bhnp2rcd13ifvqh0g","pricing_plan_id":"cebpf4jnsgd1na2vs0mg"},{"bike_id":"1cfea1fe-4dbd-4626-b852-88bcbad730c4","system_id":"levelo_inurba_marseille","lat":43.30254,"lon":5.40087,"is_reserved":false,"is_disabled":false,"rental_uris":{"android":"levelo://app?vid=1cfea1fe-4dbd-4626-b852-88bcbad730c4","ios":"levelo://app?vid=1cfea1fe-4dbd-4626-b852-88bcbad730c4"},"vehicle_type_id":"4","last_reported":1779132200,"current_range_meters":8400,"station_id":"ce4bgvh2rcd13ifvqcs0","pricing_plan_id":"cebpf4jnsgd1na2vs0mg"},{"bike_id":"e40439b8-70d1-4a31-b2ca-aacd85765f54","system_id":"levelo_inurba_marseille","lat":43.32087,"lon":5.36767,"is_reserved":false,"is_disabled":false,"rental_uris":{"android":"levelo://app?vid=e40439b8-70d1-4a31-b2ca-aacd85765f54","ios":"levelo://app?vid=e40439b8-70d1-4a31-b2ca-aacd85765f54"},"vehicle_type_id":"4","last_reported":1779132200,"current_range_meters":8400,"station_id":"ce4bhrh2rcd13ifvqhug","pricing_plan_id":"cebpf4jnsgd1na2vs0mg"},{"bike_id":"9cd4c8d7-8eb2-4e65-b43c-daea2611c9ae","system_id":"levelo_inurba_marseille","lat":43.27371,"lon":5.3626,"is_reserved":false,"is_disabled":false,"rental_uris":{"android":"levelo://app?vid=9cd4c8d7-8eb2-4e65-b43c-daea2611c9ae","ios":"levelo://app?vid=9cd4c8d7-8eb2-4e65-b43c-daea2611c9ae"},"vehicle_type_id":"4","last_reported":1779132200,"current_range_meters":8400,"station_id":"ce4bhbh2rcd13ifvqeo0","pricing_plan_id":"cebpf4jnsgd1na2vs0mg"},{"bike_id":"ff3b4694-4c2d-4e0e-882d-168610d86b23","system_id":"levelo_inurba_marseille","lat":43.21746,"lon":5.34598,"is_reserved":false,"is_disabled":false,"rental_uris":{"android":"levelo://app?vid=ff3b4694-4c2d-4e0e-882d-168610d86b23","ios":"levelo://app?vid=ff3b4694-4c2d-4e0e-882d-168610d86b23"},"vehicle_type_id":"4","last_reported":1779132200,"current_range_meters":8400,"station_id":"st_cvj6r9ubvosntc0bgbag","pricing_plan_id":"cebpf4jnsgd1na2vs0mg"},{"bike_id":"a8cc5db3-56fd-4a37-9585-f8d009cfb309","system_id":"levelo_inurba_marseille","lat":43.27422,"lon":5.40667,"is_reserved":false,"is_disabled":false,"rental_uris":{"android":"levelo://app?vid=a8cc5db3-56fd-4a37-9585-f8d009cfb309","ios":"levelo://app?vid=a8cc5db3-56fd-4a37-9585-f8d009cfb309"},"vehicle_type_id":"4","last_reported":1779132200,"current_range_meters":8400,"station_id":"","pricing_plan_id":"cebpf4jnsgd1na2vs0mg"},{"bike_id":"8cc509bd-11f7-400a-a28c-22d5f67c6ee1","system_id":"levelo_inurba_marseille","lat":43.281954,"lon":5.390701,"is_reserved":false,"is_disabled":false,"rental_uris":{"android":"levelo://app?vid=8cc509bd-11f7-400a-a28c-22d5f67c6ee1","ios":"levelo://app?vid=8cc509bd-11f7-400a-a28c-22d5f67c6ee1"},"vehicle_type_id":"4","last_reported":1779132200,"current_range_meters":8400,"station_id":"ce4bhn92rcd13ifvqgsg","pricing_plan_id":"cebpf4jnsgd1na2vs0mg"},{"bike_id":"4dc8177c-8240-4872-97f6-1b9344e31364","system_id":"levelo_inurba_marseille","lat":43.31728,"lon":5.42395,"is_reserved":false,"is_disabled":false,"rental_uris":{"android":"levelo://app?vid=4dc8177c-8240-4872-97f6-1b9344e31364","ios":"levelo://app?vid=4dc8177c-8240-4872-97f6-1b9344e31364"},"vehicle_type_id":"4","last_reported":1779132200,"current_range_meters":8400,"station_id":"ce4bhp92rcd13ifvqhbg","pricing_plan_id":"cebpf4jnsgd1na2vs0mg"},{"bike_id":"de3b1317-4623-49c4-aaa5-aa900fb27b7c","system_id":"levelo_inurba_marseille","lat":43.30127,"lon":5.43121,"is_reserved":false,"is_disabled":false,"rental_uris":{"android":"levelo://app?vid=de3b1317-4623-49c4-aaa5-aa900fb27b7c","ios":"levelo://app?vid=de3b1317-4623-49c4-aaa5-aa900fb27b7c"},"vehicle_type_id":"4","last_reported":1779132200,"current_range_meters":8400,"station_id":"st_d3js3co5814s73ftftug","pricing_plan_id":"cebpf4jnsgd1na2vs0mg"},{"bike_id":"8c67fa9a-ec2e-447d-a30c-908aaae87be6","system_id":"levelo_inurba_marseille","lat":43.29098,"lon":5.3718,"is_reserved":false,"is_disabled":false,"rental_uris":{"android":"levelo://app?vid=8c67fa9a-ec2e-447d-a30c-908aaae87be6","ios":"levelo://app?vid=8c67fa9a-ec2e-447d-a30c-908aaae87be6"},"vehicle_type_id":"4","last_reported":1779132200,"current_range_meters":8400,"station_id":"ce4bh5p2rcd13ifvqe4g","pricing_plan_id":"cebpf4jnsgd1na2vs0mg"},{"bike_id":"da6efc14-7199-48c2-b34d-c8237e999b83","system_id":"levelo_inurba_marseille","lat":43.30663,"lon":5.401,"is_reserved":false,"is_disabled":false,"rental_uris":{"android":"levelo://app?vid=da6efc14-7199-48c2-b34d-c8237e999b83","ios":"levelo://app?vid=da6efc14-7199-48c2-b34d-c8237e999b83"},"vehicle_type_id":"4","last_reported":1779132200,"current_range_meters":8400,"station_id":"ce4bh112rcd13ifvqda0","pricing_plan_id":"cebpf4jnsgd1na2vs0mg"},{"bike_id":"13385d31-9d70-40eb-8cc5-7110dec04d8b","system_id":"levelo_inurba_marseille","lat":43.28847,"lon":5.35843,"is_reserved":false,"is_disabled":false,"rental_uris":{"android":"levelo://app?vid=13385d31-9d70-40eb-8cc5-7110dec04d8b","ios":"levelo://app?vid=13385d31-9d70-40eb-8cc5-7110dec04d8b"},"vehicle_type_id":"4","last_reported":1779132200,"current_range_meters":8400,"station_id":"ce4bhb12rcd13ifvqem0","pricing_plan_id":"cebpf4jnsgd1na2vs0mg"},{"bike_id":"716ad749-9eb2-4471-b89a-a78f0c625c78","system_id":"levelo_inurba_marseille","lat":43.23184,"lon":5.39982,"is_reserved":false,"is_disabled":false,"rental_uris":{"android":"levelo://app?vid=716ad749-9eb2-4471-b89a-a78f0c625c78","ios":"levelo://app?vid=716ad749-9eb2-4471-b89a-a78f0c625c78"},"vehicle_type_id":"4","last_reported":1779132200,"current_range_meters":8800,"station_id":"ce4bhn12rcd13ifvqgqg","pricing_plan_id":"cebpf4jnsgd1na2vs0mg"},{"bike_id":"aa8c0e15-ccda-428a-91ca-f1f0bc2527ff","system_id":"levelo_inurba_marseille","lat":43.3009,"lon":5.39069,"is_reserved":false,"is_disabled":false,"rental_uris":{"android":"levelo://app?vid=aa8c0e15-ccda-428a-91ca-f1f0bc2527ff","ios":"levelo://app?vid=aa8c0e15-ccda-428a-91ca-f1f0bc2527ff"},"vehicle_type_id":"4","last_reported":1779132200,"current_range_meters":8800,"station_id":"ce4bh192rcd13ifvqdb0","pricing_plan_id":"cebpf4jnsgd1na2vs0mg"},{"bike_id":"626f8d4e-2654-41bb-adc8-7cdd5f5a4c8e","system_id":"levelo_inurba_marseille","lat":43.28301,"lon":5.35092,"is_reserved":false,"is_disabled":true,"rental_uris":{"android":"levelo://app?vid=626f8d4e-2654-41bb-adc8-7cdd5f5a4c8e","ios":"levelo://app?vid=626f8d4e-2654-41bb-adc8-7cdd5f5a4c8e"},"vehicle_type_id":"4","last_reported":1779132200,"current_range_meters":8800,"station_id":"ce4bhbp2rcd13ifvqerg","pricing_plan_id":"cebpf4jnsgd1na2vs0mg"},{"bike_id":"5aece79d-d75d-484c-ba6f-1c47fee85e05","system_id":"levelo_inurba_marseille","lat":43.27992,"lon":5.41657,"is_reserved":false,"is_disabled":false,"rental_uris":{"android":"levelo://app?vid=5aece79d-d75d-484c-ba6f-1c47fee85e05","ios":"levelo://app?vid=5aece79d-d75d-484c-ba6f-1c47fee85e05"},"vehicle_type_id":"4","last_reported":1779132200,"current_range_meters":8800,"station_id":"ce4bho12rcd13ifvqh1g","pricing_plan_id":"cebpf4jnsgd1na2vs0mg"},{"bike_id":"0e0d5418-4a56-4251-8866-025e6b539885","system_id":"levelo_inurba_marseille","lat":43.2887,"lon":5.42517,"is_reserved":false,"is_disabled":false,"rental_uris":{"android":"levelo://app?vid=0e0d5418-4a56-4251-8866-025e6b539885","ios":"levelo://app?vid=0e0d5418-4a56-4251-8866-025e6b539885"},"vehicle_type_id":"4","last_reported":1779132200,"current_range_meters":8800,"station_id":"st_d3b462108ojc7389ooeg","pricing_plan_id":"cebpf4jnsgd1na2vs0mg"},{"bike_id":"2fbad4ff-3321-4ed4-955d-868f812d0490","system_id":"levelo_inurba_marseille","lat":43.24482,"lon":5.42521,"is_reserved":false,"is_disabled":false,"rental_uris":{"android":"levelo://app?vid=2fbad4ff-3321-4ed4-955d-868f812d0490","ios":"levelo://app?vid=2fbad4ff-3321-4ed4-955d-868f812d0490"},"vehicle_type_id":"4","last_reported":1779132200,"current_range_meters":8800,"station_id":"st_d4a3vfp97mjs738cd8kg","pricing_plan_id":"cebpf4jnsgd1na2vs0mg"},{"bike_id":"c9513b4e-0f0e-49bc-bbff-f4414a2b16f9","system_id":"levelo_inurba_marseille","lat":43.27489,"lon":5.41616,"is_reserved":false,"is_disabled":false,"rental_uris":{"android":"levelo://app?vid=c9513b4e-0f0e-49bc-bbff-f4414a2b16f9","ios":"levelo://app?vid=c9513b4e-0f0e-49bc-bbff-f4414a2b16f9"},"vehicle_type_id":"4","last_reported":1779132200,"current_range_meters":8800,"station_id":"st_d6im8g6chgec73a5pndg","pricing_plan_id":"cebpf4jnsgd1na2vs0mg"},{"bike_id":"718384bb-a723-4329-a88b-ae3acd0d9ab2","system_id":"levelo_inurba_marseille","lat":43.28571,"lon":5.39495,"is_reserved":false,"is_disabled":false,"rental_uris":{"android":"levelo://app?vid=718384bb-a723-4329-a88b-ae3acd0d9ab2","ios":"levelo://app?vid=718384bb-a723-4329-a88b-ae3acd0d9ab2"},"vehicle_type_id":"4","last_reported":1779132200,"current_range_meters":8800,"station_id":"ce4bh292rcd13ifvqdg0","pricing_plan_id":"cebpf4jnsgd1na2vs0mg"},{"bike_id":"8a76241c-8342-4514-880a-2c04db58ae41","system_id":"levelo_inurba_marseille","lat":43.28667,"lon":5.36338,"is_reserved":false,"is_disabled":false,"rental_uris":{"android":"levelo://app?vid=8a76241c-8342-4514-880a-2c04db58ae41","ios":"levelo://app?vid=8a76241c-8342-4514-880a-2c04db58ae41"},"vehicle_type_id":"4","last_reported":1779132200,"current_range_meters":8800,"station_id":"ce4bhah2rcd13ifvqej0","pricing_plan_id":"cebpf4jnsgd1na2vs0mg"},{"bike_id":"71dadbbf-2988-4d63-8dfa-fc0cb188b342","system_id":"levelo_inurba_marseille","lat":43.27053,"lon":5.40271,"is_reserved":false,"is_disabled":true,"rental_uris":{"android":"levelo://app?vid=71dadbbf-2988-4d63-8dfa-fc0cb188b342","ios":"levelo://app?vid=71dadbbf-2988-4d63-8dfa-fc0cb188b342"},"vehicle_type_id":"4","last_reported":1779132200,"current_range_meters":8800,"station_id":"ce4bhk92rcd13ifvqgc0","pricing_plan_id":"cebpf4jnsgd1na2vs0mg"},{"bike_id":"6b4a17da-6f65-4878-8770-e57be1f60b38","system_id":"levelo_inurba_marseille","lat":43.29633,"lon":5.40599,"is_reserved":false,"is_disabled":false,"rental_uris":{"android":"levelo://app?vid=6b4a17da-6f65-4878-8770-e57be1f60b38","ios":"levelo://app?vid=6b4a17da-6f65-4878-8770-e57be1f60b38"},"vehicle_type_id":"4","last_reported":1779132200,"current_range_meters":8800,"station_id":"ce4bh0h2rcd13ifvqd60","pricing_plan_id":"cebpf4jnsgd1na2vs0mg"},{"bike_id":"bd86c7b2-b04d-4135-8db7-202b7a94c7fe","system_id":"levelo_inurba_marseille","lat":43.2795,"lon":5.41041,"is_reserved":false,"is_disabled":false,"rental_uris":{"android":"levelo://app?vid=bd86c7b2-b04d-4135-8db7-202b7a94c7fe","ios":"levelo://app?vid=bd86c7b2-b04d-4135-8db7-202b7a94c7fe"},"vehicle_type_id":"4","last_reported":1779132200,"current_range_meters":8800,"station_id":"ce4bhnp2rcd13ifvqh0g","pricing_plan_id":"cebpf4jnsgd1na2vs0mg"},{"bike_id":"78b273b7-2cab-4cdb-9e05-11a7dd813b13","system_id":"levelo_inurba_marseille","lat":43.26519,"lon":5.39523,"is_reserved":false,"is_disabled":false,"rental_uris":{"android":"levelo://app?vid=78b273b7-2cab-4cdb-9e05-11a7dd813b13","ios":"levelo://app?vid=78b273b7-2cab-4cdb-9e05-11a7dd813b13"},"vehicle_type_id":"4","last_reported":1779132200,"current_range_meters":8800,"station_id":"ce4bhi12rcd13ifvqfq0","pricing_plan_id":"cebpf4jnsgd1na2vs0mg"},{"bike_id":"41aeab6c-6978-4475-9abb-adbd218ad412","system_id":"levelo_inurba_marseille","lat":43.29617,"lon":5.37703,"is_reserved":false,"is_disabled":true,"rental_uris":{"android":"levelo://app?vid=41aeab6c-6978-4475-9abb-adbd218ad412","ios":"levelo://app?vid=41aeab6c-6978-4475-9abb-adbd218ad412"},"vehicle_type_id":"4","last_reported":1779132200,"current_range_meters":8800,"station_id":"ce4bgi92rcd13ifvqb90","pricing_plan_id":"cebpf4jnsgd1na2vs0mg"},{"bike_id":"8bd36308-f19b-4c81-baf2-f80d63464915","system_id":"levelo_inurba_marseille","lat":43.27207,"lon":5.40987,"is_reserved":false,"is_disabled":false,"rental_uris":{"android":"levelo://app?vid=8bd36308-f19b-4c81-baf2-f80d63464915","ios":"levelo://app?vid=8bd36308-f19b-4c81-baf2-f80d63464915"},"vehicle_type_id":"4","last_reported":1779132200,"current_range_meters":8800,"station_id":"ce4bhl12rcd13ifvqgf0","pricing_plan_id":"cebpf4jnsgd1na2vs0mg"},