{"last_updated":1701615981,"ttl":30,"version":"2.2","data":{"bikes":[{"bike_id":"7fb94bfd-fdc2-4bd5-afce-1480b0f892a3","system_id":"levelo_inurba_marseille","lat":43.312235,"lon":5.36854,"is_reserved":false,"is_disabled":false,"rental_uris":{"android":"levelo://app?vid=7fb94bfd-fdc2-4bd5-afce-1480b0f892a3","ios":"levelo://app?vid=7fb94bfd-fdc2-4bd5-afce-1480b0f892a3"},"vehicle_type_id":"4","last_reported":1701615981,"current_range_meters":15600,"station_id":"ce4bgl92rcd13ifvqbq0","pricing_plan_id":"free"},{"bike_id":"c6bfc7a4-f035-4d93-a484-33fa96e9127d","system_id":"levelo_inurba_marseille","lat":43.312239,"lon":5.368562,"is_reserved":false,"is_disabled":false,"rental_uris":{"android":"levelo://app?vid=c6bfc7a4-f035-4d93-a484-33fa96e9127d","ios":"levelo://app?vid=c6bfc7a4-f035-4d93-a484-33fa96e9127d"},"vehicle_type_id":"4","last_reported":1701615981,"current_range_meters":22000,"station_id":"ce4bgl92rcd13ifvqbq0","pricing_plan_id":"free"},{"bike_id":"7b4f861a-086e-4d0a-bf0a-36ef1815cb48","system_id":"levelo_inurba_marseille","lat":43.305706,"lon":5.365654,"is_reserved":false,"is_disabled":false,"rental_uris":{"android":"levelo://app?vid=7b4f861a-086e-4d0a-bf0a-36ef1815cb48","ios":"levelo://app?vid=7b4f861a-086e-4d0a-bf0a-36ef1815cb48"},"vehicle_type_id":"4","last_reported":1701615981,"current_range_meters":12000,"station_id":"ce4bgs12rcd13ifvqcag","pricing_plan_id":"free"},{"bike_id":"b20ca54e-c674-4f09-8dee-36a6fd52fe73","system_id":"levelo_inurba_marseille","lat":43.305989,"lon":5.37225,"is_reserved":false,"is_disabled":false,"rental_uris":{"android":"levelo://app?vid=b20ca54e-c674-4f09-8dee-36a6fd52fe73","ios":"levelo://app?vid=b20ca54e-c674-4f09-8dee-36a6fd52fe73"},"vehicle_type_id":"4","last_reported":1701615981,"current_range_meters":21600,"station_id":"ce4bgqh2rcd13ifvqc4g","pricing_plan_id":"free"},{"bike_id":"7d2ac0d2-b10d-4005-84b9-f9a92723cac7","system_id":"levelo_inurba_marseille","lat":43.311131,"lon":5.377651,"is_reserved":false,"is_disabled":false,"rental_uris":{"android":"levelo://app?vid=7d2ac0d2-b10d-4005-84b9-f9a92723cac7","ios":"levelo://app?vid=7d2ac0d2-b10d-4005-84b9-f9a92723cac7"},"vehicle_type_id":"4","last_reported":1701615981,"current_range_meters":18400,"station_id":"ce4bgt92rcd13ifvqcg0","pricing_plan_id":"free"},{"bike_id":"48b83b15-ba31-4d02-bb0e-0e980b680bd9","system_id":"levelo_inurba_marseille","lat":43.311131,"lon":5.377651,"is_reserved":false,"is_disabled":false,"rental_uris":{"android":"levelo://app?vid=48b83b15-ba31-4d02-bb0e-0e980b680bd9","ios":"levelo://app?vid=48b83b15-ba31-4d02-bb0e-0e980b680bd9"},"vehicle_type_id":"4","last_reported":1701615981,"current_range_meters":10000,"station_id":"ce4bgt92rcd13ifvqcg0","pricing_plan_id":"free"},{"bike_id":"f427a2c3-6e4a-446b-ae2f-9be8aa7f4122","system_id":"levelo_inurba_marseille","lat":43.31719,"lon":5.376813,"is_reserved":false,"is_disabled":false,"rental_uris":{"android":"levelo://app?vid=f427a2c3-6e4a-446b-ae2f-9be8aa7f4122","ios":"levelo://app?vid=f427a2c3-6e4a-446b-ae2f-9be8aa7f4122"},"vehicle_type_id":"4","last_reported":1701615981,"current_range_meters":0,"station_id":"","pricing_plan_id":"free"},{"bike_id":"e913f328-1e31-4c22-bd87-f809ea246de4","system_id":"levelo_inurba_marseille","lat":43.317168,"lon":5.376883,"is_reserved":false,"is_disabled":false,"rental_uris":{"android":"levelo://app?vid=e913f328-1e31-4c22-bd87-f809ea246de4","ios":"levelo://app?vid=e913f328-1e31-4c22-bd87-f809ea246de4"},"vehicle_type_id":"4","last_reported":1701615981,"current_range_meters":0,"station_id":"","pricing_plan_id":"free"},{"bike_id":"1c5be127-a170-451f-a718-647108f14db1","system_id":"levelo_inurba_marseille","lat":43.31703,"lon":5.3776,"is_reserved":false,"is_disabled":false,"rental_uris":{"android":"levelo://app?vid=1c5be127-a170-451f-a718-647108f14db1","ios":"levelo://app?vid=1c5be127-a170-451f-a718-647108f14db1"},"vehicle_type_id":"4","last_reported":1701615981,"current_range_meters":28000,"station_id":"ce4bgth2rcd13ifvqch0","pricing_plan_id":"free"},{"bike_id":"fb6fd937-527b-4585-9058-0dfdc6436ac8","system_id":"levelo_inurba_marseille","lat":43.31351,"lon":5.37909,"is_reserved":false,"is_disabled":false,"rental_uris":{"android":"levelo://app?vid=fb6fd937-527b-4585-9058-0dfdc6436ac8","ios":"levelo://app?vid=fb6fd937-527b-4585-9058-0dfdc6436ac8"},"vehicle_type_id":"4","last_reported":1701615981,"current_range_meters":17600,"station_id":"","pricing_plan_id":"free"},{"bike_id":"c66550d8-1920-4306-b7f8-6b925aed9573","system_id":"levelo_inurba_marseille","lat":43.301939,"lon":5.366286,"is_reserved":false,"is_disabled":false,"rental_uris":{"android":"levelo://app?vid=c66550d8-1920-4306-b7f8-6b925aed9573","ios":"levelo://app?vid=c66550d8-1920-4306-b7f8-6b925aed9573"},"vehicle_type_id":"4","last_reported":1701615981,"current_range_meters":13200,"station_id":"ce4bgrh2rcd13ifvqc8g","pricing_plan_id":"free"},{"bike_id":"a064da26-d75c-40b2-ac37-a07e2e148cd7","system_id":"levelo_inurba_marseille","lat":43.308012,"lon":5.381511,"is_reserved":false,"is_disabled":false,"rental_uris":{"android":"levelo://app?vid=a064da26-d75c-40b2-ac37-a07e2e148cd7","ios":"levelo://app?vid=a064da26-d75c-40b2-ac37-a07e2e148cd7"},"vehicle_type_id":"4","last_reported":1701615981,"current_range_meters":22400,"station_id":"ce4bgt12rcd13ifvqce0","pricing_plan_id":"free"},{"bike_id":"2275aca5-3158-4c2c-8022-ca5d2714bc86","system_id":"levelo_inurba_marseille","lat":43.319997,"lon":5.381594,"is_reserved":false,"is_disabled":false,"rental_uris":{"android":"levelo://app?vid=2275aca5-3158-4c2c-8022-ca5d2714bc86","ios":"levelo://app?vid=2275aca5-3158-4c2c-8022-ca5d2714bc86"},"vehicle_type_id":"4","last_reported":1701615981,"current_range_meters":11200,"station_id":"ce4bhr12rcd13ifvqhpg","pricing_plan_id":"free"},{"bike_id":"3b887d8f-9f76-471d-ba44-34cd6396cd6a","system_id":"levelo_inurba_marseille","lat":43.313571,"lon":5.384829,"is_reserved":false,"is_disabled":false,"rental_uris":{"android":"levelo://app?vid=3b887d8f-9f76-471d-ba44-34cd6396cd6a","ios":"levelo://app?vid=3b887d8f-9f76-471d-ba44-34cd6396cd6a"},"vehicle_type_id":"4","last_reported":1701615981,"current_range_meters":28000,"station_id":"ce4bgt92rcd13ifvqcf0","pricing_plan_id":"free"},{"bike_id":"8b0ed9d5-4b87-41e4-8795-e88218b7b132","system_id":"levelo_inurba_marseille","lat":43.313571,"lon":5.384829,"is_reserved":false,"is_disabled":false,"rental_uris":{"android":"levelo://app?vid=8b0ed9d5-4b87-41e4-8795-e88218b7b132","ios":"levelo://app?vid=8b0ed9d5-4b87-41e4-8795-e88218b7b132"},"vehicle_type_id":"4","last_reported":1701615981,"current_range_meters":25600,"station_id":"ce4bgt92rcd13ifvqcf0","pricing_plan_id":"free"},{"bike_id":"9fdb7f97-586d-42d2-befd-15216ba2e422","system_id":"levelo_inurba_marseille","lat":43.31183,"lon":5.38523,"is_reserved":false,"is_disabled":false,"rental_uris":{"android":"levelo://app?vid=9fdb7f97-586d-42d2-befd-15216ba2e422","ios":"levelo://app?vid=9fdb7f97-586d-42d2-befd-15216ba2e422"},"vehicle_type_id":"4","last_reported":1701615981,"current_range_meters":0,"station_id":"","pricing_plan_id":"free"},{"bike_id":"1f972d07-dc1a-4170-9d57-388dcba044f9","system_id":"levelo_inurba_marseille","lat":43.299222,"lon":5.365554,"is_reserved":false,"is_disabled":false,"rental_uris":{"android":"levelo://app?vid=1f972d07-dc1a-4170-9d57-388dcba044f9","ios":"levelo://app?vid=1f972d07-dc1a-4170-9d57-388dcba044f9"},"vehicle_type_id":"4","last_reported":1701615981,"current_range_meters":28400,"station_id":"ce4bgm92rcd13ifvqbr0","pricing_plan_id":"free"},{"bike_id":"748d12ab-8e09-4ecd-b2d2-cbe0ea9624f6","system_id":"levelo_inurba_marseille","lat":43.298921,"lon":5.367379,"is_reserved":false,"is_disabled":false,"rental_uris":{"android":"levelo://app?vid=748d12ab-8e09-4ecd-b2d2-cbe0ea9624f6","ios":"levelo://app?vid=748d12ab-8e09-4ecd-b2d2-cbe0ea9624f6"},"vehicle_type_id":"4","last_reported":1701615981,"current_range_meters":1600,"station_id":"","pricing_plan_id":"free"},{"bike_id":"07fe72bd-37c9-4c9b-90a5-3e6dd1159dcb","system_id":"levelo_inurba_marseille","lat":43.298433,"lon":5.362774,"is_reserved":false,"is_disabled":false,"rental_uris":{"android":"levelo://app?vid=07fe72bd-37c9-4c9b-90a5-3e6dd1159dcb","ios":"levelo://app?vid=07fe72bd-37c9-4c9b-90a5-3e6dd1159dcb"},"vehicle_type_id":"4","last_reported":1701615981,"current_range_meters":2800,"station_id":"ce4bgpp2rcd13ifvqc3g","pricing_plan_id":"free"},{"bike_id":"15543939-45ac-4da5-8d03-59af171cbfd1","system_id":"levelo_inurba_marseille","lat":43.311722,"lon":5.387247,"is_reserved":false,"is_disabled":false,"rental_uris":{"android":"levelo://app?vid=15543939-45ac-4da5-8d03-59af171cbfd1","ios":"levelo://app?vid=15543939-45ac-4da5-8d03-59af171cbfd1"},"vehicle_type_id":"4","last_reported":1701615981,"current_range_meters":15600,"station_id":"ce4bgv12rcd13ifvqcp0","pricing_plan_id":"free"},{"bike_id":"83d5ac59-7093-4adb-a3a1-7789680b5332","system_id":"levelo_inurba_marseille","lat":43.299243,"lon":5.37481,"is_reserved":false,"is_disabled":false,"rental_uris":{"android":"levelo://app?vid=83d5ac59-7093-4adb-a3a1-7789680b5332","ios":"levelo://app?vid=83d5ac59-7093-4adb-a3a1-7789680b5332"},"vehicle_type_id":"4","last_reported":1701615981,"current_range_meters":6400,"station_id":"ce4bgjh2rcd13ifvqbg0","pricing_plan_id":"free"},{"bike_id":"17478851-68d3-46aa-a8ae-de35493afc4f","system_id":"levelo_inurba_marseille","lat":43.297794,"lon":5.370888,"is_reserved":false,"is_disabled":false,"rental_uris":{"android":"levelo://app?vid=17478851-68d3-46aa-a8ae-de35493afc4f","ios":"levelo://app?vid=17478851-68d3-46aa-a8ae-de35493afc4f"},"vehicle_type_id":"4","last_reported":1701615981,"current_range_meters":22800,"station_id":"ce4bgop2rcd13ifvqc1g","pricing_plan_id":"free"},{"bike_id":"0a39dd03-261e-42e4-8565-1ecf12f7bfae","system_id":"levelo_inurba_marseille","lat":43.322872,"lon":5.382756,"is_reserved":false,"is_disabled":false,"rental_uris":{"android":"levelo://app?vid=0a39dd03-261e-42e4-8565-1ecf12f7bfae","ios":"levelo://app?vid=0a39dd03-261e-42e4-8565-1ecf12f7bfae"},"vehicle_type_id":"4","last_reported":1701615981,"current_range_meters":19600,"station_id":"ce4bhr12rcd13ifvqhqg","pricing_plan_id":"free"},{"bike_id":"08a721db-bf5d-46b3-9ba3-2a9c6c13bcf6","system_id":"levelo_inurba_marseille","lat":43.328256,"lon":5.366905,"is_reserved":false,"is_disabled":false,"rental_uris":{"android":"levelo://app?vid=08a721db-bf5d-46b3-9ba3-2a9c6c13bcf6","ios":"levelo://app?vid=08a721db-bf5d-46b3-9ba3-2a9c6c13bcf6"},"vehicle_type_id":"4","last_reported":1701615981,"current_range_meters":24800,"station_id":"","pricing_plan_id":"free"},{"bike_id":"56c27ac6-d3be-4b1b-a869-2d0f1759ad4a","system_id":"levelo_inurba_marseille","lat":43.29815,"lon":5.37652,"is_reserved":false,"is_disabled":false,"rental_uris":{"android":"levelo://app?vid=56c27ac6-d3be-4b1b-a869-2d0f1759ad4a","ios":"levelo://app?vid=56c27ac6-d3be-4b1b-a869-2d0f1759ad4a"},"vehicle_type_id":"4","last_reported":1701615981,"current_range_meters":0,"station_id":"","pricing_plan_id":"free"},{"bike_id":"19337c19-12ca-4f3b-a568-40a561779510","system_id":"levelo_inurba_marseille","lat":43.29649,"lon":5.36867,"is_reserved":false,"is_disabled":false,"rental_uris":{"android":"levelo://app?vid=19337c19-12ca-4f3b-a568-40a561779510","ios":"levelo://app?vid=19337c19-12ca-4f3b-a568-40a561779510"},"vehicle_type_id":"4","last_reported":1701615981,"current_range_meters":24000,"station_id":"","pricing_plan_id":"free"},{"bike_id":"50451858-4fd4-406d-badc-776a2e8a63c3","system_id":"levelo_inurba_marseille","lat":43.329297,"lon":5.36623,"is_reserved":false,"is_disabled":false,"rental_uris":{"android":"levelo://app?vid=50451858-4fd4-406d-badc-776a2e8a63c3","ios":"levelo://app?vid=50451858-4fd4-406d-badc-776a2e8a63c3"},"vehicle_type_id":"4","last_reported":1701615981,"current_range_meters":16800,"station_id":"ce4bhs92rcd13ifvqi0g","pricing_plan_id":"free"},{"bike_id":"5c26bdfb-7b7c-43fb-8a01-250128a1a6f8","system_id":"levelo_inurba_marseille","lat":43.329409,"lon":5.366267,"is_reserved":false,"is_disabled":false,"rental_uris":{"android":"levelo://app?vid=5c26bdfb-7b7c-43fb-8a01-250128a1a6f8","ios":"levelo://app?vid=5c26bdfb-7b7c-43fb-8a01-250128a1a6f8"},"vehicle_type_id":"4","last_reported":1701615981,"current_range_meters":18800,"station_id":"ce4bhs92rcd13ifvqi0g","pricing_plan_id":"free"},{"bike_id":"eaa0e7e7-2390-47fa-909b-7b240952cbef","system_id":"levelo_inurba_marseille","lat":43.316511,"lon":5.3896,"is_reserved":false,"is_disabled":false,"rental_uris":{"android":"levelo://app?vid=eaa0e7e7-2390-47fa-909b-7b240952cbef","ios":"levelo://app?vid=eaa0e7e7-2390-47fa-909b-7b240952cbef"},"vehicle_type_id":"4","last_reported":1701615981,"current_range_meters":18400,"station_id":"","pricing_plan_id":"free"},{"bike_id":"596e950b-4a96-45c8-8bc2-548dbaa9a3c6","system_id":"levelo_inurba_marseille","lat":43.29896,"lon":5.38297,"is_reserved":false,"is_disabled":false,"rental_uris":{"android":"levelo://app?vid=596e950b-4a96-45c8-8bc2-548dbaa9a3c6","ios":"levelo://app?vid=596e950b-4a96-45c8-8bc2-548dbaa9a3c6"},"vehicle_type_id":"4","last_reported":1701615981,"current_range_meters":13600,"station_id":"","pricing_plan_id":"free"},{"bike_id":"532fbc5d-c1de-4ab1-baf7-f7312f9130b6","system_id":"levelo_inurba_marseille","lat":43.299707,"lon":5.384859,"is_reserved":false,"is_disabled":false,"rental_uris":{"android":"levelo://app?vid=532fbc5d-c1de-4ab1-baf7-f7312f9130b6","ios":"levelo://app?vid=532fbc5d-c1de-4ab1-baf7-f7312f9130b6"},"vehicle_type_id":"4","last_reported":1701615981,"current_range_meters":5600,"station_id":"ce4bgj92rcd13ifvqbd0","pricing_plan_id":"free"},{"bike_id":"050df41f-ed47-4f67-9f58-9879409c85f5","system_id":"levelo_inurba_marseille","lat":43.29219,"lon":5.36056,"is_reserved":false,"is_disabled":false,"rental_uris":{"android":"levelo://app?vid=050df41f-ed47-4f67-9f58-9879409c85f5","ios":"levelo://app?vid=050df41f-ed47-4f67-9f58-9879409c85f5"},"vehicle_type_id":"4","last_reported":1701615981,"current_range_meters":14400,"station_id":"ce4bhbh2rcd13ifvqeqg","pricing_plan_id":"free"},{"bike_id":"b07721af-5636-4119-b218-d6c58e9f784b","system_id":"levelo_inurba_marseille","lat":43.291675,"lon":5.371583,"is_reserved":false,"is_disabled":false,"rental_uris":{"android":"levelo://app?vid=b07721af-5636-4119-b218-d6c58e9f784b","ios":"levelo://app?vid=b07721af-5636-4119-b218-d6c58e9f784b"},"vehicle_type_id":"4","last_reported":1701615981,"current_range_meters":5200,"station_id":"ce4bha92rcd13ifvqeh0","pricing_plan_id":"free"},{"bike_id":"894f5119-cb4a-46ba-a41b-11f7f3aa9421","system_id":"levelo_inurba_marseille","lat":43.313189,"lon":5.39675,"is_reserved":false,"is_disabled":false,"rental_uris":{"android":"levelo://app?vid=894f5119-cb4a-46ba-a41b-11f7f3aa9421","ios":"levelo://app?vid=894f5119-cb4a-46ba-a41b-11f7f3aa9421"},"vehicle_type_id":"4","last_reported":1701615981,"current_range_meters":8400,"station_id":"ce4bgvp2rcd13ifvqcu0","pricing_plan_id":"free"},{"bike_id":"66e38535-65b5-46b1-a619-a21a9d45841e","system_id":"levelo_inurba_marseille","lat":43.29529,"lon":5.385581,"is_reserved":false,"is_disabled":false,"rental_uris":{"android":"levelo://app?vid=66e38535-65b5-46b1-a619-a21a9d45841e","ios":"levelo://app?vid=66e38535-65b5-46b1-a619-a21a9d45841e"},"vehicle_type_id":"4","last_reported":1701615981,"current_range_meters":400,"station_id":"ce4bgih2rcd13ifvqba0","pricing_plan_id":"free"},{"bike_id":"2f8064ae-8651-4be6-87dc-36143d42b5fd","system_id":"levelo_inurba_marseille","lat":43.289184,"lon":5.366408,"is_reserved":false,"is_disabled":false,"rental_uris":{"android":"levelo://app?vid=2f8064ae-8651-4be6-87dc-36143d42b5fd","ios":"levelo://app?vid=2f8064ae-8651-4be6-87dc-36143d42b5fd"},"vehicle_type_id":"4","last_reported":1701615981,"current_range_meters":26400,"station_id":"ce4bhap2rcd13ifvqek0","pricing_plan_id":"free"},{"bike_id":"09246de1-309a-45cd-82d1-33200b81f082","system_id":"levelo_inurba_marseille","lat":43.290327,"lon":5.375711,"is_reserved":false,"is_disabled":false,"rental_uris":{"android":"levelo://app?vid=09246de1-309a-45cd-82d1-33200b81f082","ios":"levelo://app?vid=09246de1-309a-45cd-82d1-33200b81f082"},"vehicle_type_id":"4","last_reported":1701615981,"current_range_meters":18800,"station_id":"ce4bh692rcd13ifvqe90","pricing_plan_id":"free"},{"bike_id":"176067b0-e4eb-4a7c-8d6e-2297fab4c662","system_id":"levelo_inurba_marseille","lat":43.290327,"lon":5.375711,"is_reserved":false,"is_disabled":false,"rental_uris":{"android":"levelo://app?vid=176067b0-e4eb-4a7c-8d6e-2297fab4c662","ios":"levelo://app?vid=176067b0-e4eb-4a7c-8d6e-2297fab4c662"},"vehicle_type_id":"4","last_reported":1701615981,"current_range_meters":26800,"station_id":"ce4bh692rcd13ifvqe90","pricing_plan_id":"free"},{"bike_id":"5180a19e-6fe3-4342-9461-4f990a44c1db","system_id":"levelo_inurba_marseille","lat":43.290327,"lon":5.375711,"is_reserved":false,"is_disabled":false,"rental_uris":{"android":"levelo://app?vid=5180a19e-6fe3-4342-9461-4f990a44c1db","ios":"levelo://app?vid=5180a19e-6fe3-4342-9461-4f990a44c1db"},"vehicle_type_id":"4","last_reported":1701615981,"current_range_meters":17600,"station_id":"ce4bh692rcd13ifvqe90","pricing_plan_id":"free"},{"bike_id":"7befd907-8594-471c-8c60-831280ca49ef","system_id":"levelo_inurba_marseille","lat":43.289184,"lon":5.366408,"is_reserved":false,"is_disabled":false,"rental_uris":{"android":"levelo://app?vid=7befd907-8594-471c-8c60-831280ca49ef","ios":"levelo://app?vid=7befd907-8594-471c-8c60-831280ca49ef"},"vehicle_type_id":"4","last_reported":1701615981,"current_range_meters":0,"station_id":"ce4bhap2rcd13ifvqek0","pricing_plan_id":"free"},{"bike_id":"fbd04ec2-2cf9-4672-acc3-97e6a9f0398b","system_id":"levelo_inurba_marseille","lat":43.289184,"lon":5.366408,"is_reserved":false,"is_disabled":false,"rental_uris":{"android":"levelo://app?vid=fbd04ec2-2cf9-4672-acc3-97e6a9f0398b","ios":"levelo://app?vid=fbd04ec2-2cf9-4672-acc3-97e6a9f0398b"},"vehicle_type_id":"4","last_reported":1701615981,"current_range_meters":23600,"station_id":"ce4bhap2rcd13ifvqek0","pricing_plan_id":"free"},{"bike_id":"48515b03-c41d-4923-a48d-ecbac8315d0a","system_id":"levelo_inurba_marseille","lat":43.29106,"lon":5.38025,"is_reserved":false,"is_disabled":false,"rental_uris":{"android":"levelo://app?vid=48515b03-c41d-4923-a48d-ecbac8315d0a","ios":"levelo://app?vid=48515b03-c41d-4923-a48d-ecbac8315d0a"},"vehicle_type_id":"4","last_reported":1701615981,"current_range_meters":16000,"station_id":"","pricing_plan_id":"free"},{"bike_id":"a3522279-9664-4b18-b652-303a35808cb7","system_id":"levelo_inurba_marseille","lat":43.29257,"lon":5.38447,"is_reserved":false,"is_disabled":false,"rental_uris":{"android":"levelo://app?vid=a3522279-9664-4b18-b652-303a35808cb7","ios":"levelo://app?vid=a3522279-9664-4b18-b652-303a35808cb7"},"vehicle_type_id":"4","last_reported":1701615981,"current_range_meters":7200,"station_id":"ce4bh692rcd13ifvqea0","pricing_plan_id":"free"},{"bike_id":"ed1e4acd-1427-4ce9-a461-99fab0e5f945","system_id":"levelo_inurba_marseille","lat":43.292642,"lon":5.384254,"is_reserved":false,"is_disabled":false,"rental_uris":{"android":"levelo://app?vid=ed1e4acd-1427-4ce9-a461-99fab0e5f945","ios":"levelo://app?vid=ed1e4acd-1427-4ce9-a461-99fab0e5f945"},"vehicle_type_id":"4","last_reported":1701615981,"current_range_meters":10400,"station_id":"ce4bh692rcd13ifvqea0","pricing_plan_id":"free"},{"bike_id":"8f27e816-7bc5-4c50-9787-688054485d61","system_id":"levelo_inurba_marseille","lat":43.33042,"lon":5.38928,"is_reserved":false,"is_disabled":false,"rental_uris":{"android":"levelo://app?vid=8f27e816-7bc5-4c50-9787-688054485d61","ios":"levelo://app?vid=8f27e816-7bc5-4c50-9787-688054485d61"},"vehicle_type_id":"4","last_reported":1701615981,"current_range_meters":28000,"station_id":"ce4bhr92rcd13ifvqhrg","pricing_plan_id":"free"},{"bike_id":"007a288d-5816-4809-a995-2801278ffe19","system_id":"levelo_inurba_marseille","lat":43.31228,"lon":5.40115,"is_reserved":false,"is_disabled":false,"rental_uris":{"android":"levelo://app?vid=007a288d-5816-4809-a995-2801278ffe19","ios":"levelo://app?vid=007a288d-5816-4809-a995-2801278ffe19"},"vehicle_type_id":"4","last_reported":1701615981,"current_range_meters":18000,"station_id":"","pricing_plan_id":"free"},{"bike_id":"5e45d71c-0357-4229-800f-ff9d6812d408","system_id":"levelo_inurba_marseille","lat":43.28856,"lon":5.358371,"is_reserved":false,"is_disabled":false,"rental_uris":{"android":"levelo://app?vid=5e45d71c-0357-4229-800f-ff9d6812d408","ios":"levelo://app?vid=5e45d71c-0357-4229-800f-ff9d6812d408"},"vehicle_type_id":"4","last_reported":1701615981,"current_range_meters":0,"station_id":"ce4bhb12rcd13ifvqem0","pricing_plan_id":"free"},{"bike_id":"e56eb93b-2994-4e83-9444-d2a0c08573fa","system_id":"levelo_inurba_marseille","lat":43.33776,"lon":5.37426,"is_reserved":false,"is_disabled":false,"rental_uris":{"android":"levelo://app?vid=e56eb93b-2994-4e83-9444-d2a0c08573fa","ios":"levelo://app?vid=e56eb93b-2994-4e83-9444-d2a0c08573fa"},"vehicle_type_id":"4","last_reported":1701615981,"current_range_meters":30000,"station_id":"","pricing_plan_id":"free"},{"bike_id":"19b8564d-1b73-407c-b18a-380cfde4a05e","system_id":"levelo_inurba_marseille","lat":43.286961,"lon":5.373785,"is_reserved":false,"is_disabled":false,"rental_uris":{"android":"levelo://app?vid=19b8564d-1b73-407c-b18a-380cfde4a05e","ios":"levelo://app?vid=19b8564d-1b73-407c-b18a-380cfde4a05e"},"vehicle_type_id":"4","last_reported":1701615981,"current_range_meters":8800,"station_id":"ce4bh3p2rcd13ifvqdq0","pricing_plan_id":"free"},{"bike_id":"47b172d5-8ac0-4016-89a3-608c846f5371","system_id":"levelo_inurba_marseille","lat":43.289307,"lon":5.38406,"is_reserved":false,"is_disabled":false,"rental_uris":{"android":"levelo://app?vid=47b172d5-8ac0-4016-89a3-608c846f5371","ios":"levelo://app?vid=47b172d5-8ac0-4016-89a3-608c846f5371"},"vehicle_type_id":"4","last_reported":1701615981,"current_range_meters":30800,"station_id":"ce4bh612rcd13ifvqe6g","pricing_plan_id":"free"},{"bike_id":"d248beae-f009-4877-8a51-e816a9515cd0","system_id":"levelo_inurba_marseille","lat":43.290336,"lon":5.386425,"is_reserved":false,"is_disabled":false,"rental_uris":{"android":"levelo://app?vid=d248beae-f009-4877-8a51-e816a9515cd0","ios":"levelo://app?vid=d248beae-f009-4877-8a51-e816a9515cd0"},"vehicle_type_id":"4","last_reported":1701615981,"current_range_meters":25200,"station_id":"ce4bh4p2rcd13ifvqe0g","pricing_plan_id":"free"},{"bike_id":"3eeb8442-0982-4330-a3c4-e03a5d2b81e6","system_id":"levelo_inurba_marseille","lat":43.30242,"lon":5.40067,"is_reserved":false,"is_disabled":false,"rental_uris":{"android":"levelo://app?vid=3eeb8442-0982-4330-a3c4-e03a5d2b81e6","ios":"levelo://app?vid=3eeb8442-0982-4330-a3c4-e03a5d2b81e6"},"vehicle_type_id":"4","last_reported":1701615981,"current_range_meters":0,"station_id":"ce4bgvh2rcd13ifvqcs0","pricing_plan_id":"free"},{"bike_id":"59ad4283-3fb4-4446-a88a-0aadc0ab7833","system_id":"levelo_inurba_marseille","lat":43.286039,"lon":5.370679,"is_reserved":false,"is_disabled":false,"rental_uris":{"android":"levelo://app?vid=59ad4283-3fb4-4446-a88a-0aadc0ab7833","ios":"levelo://app?vid=59ad4283-3fb4-4446-a88a-0aadc0ab7833"},"vehicle_type_id":"4","last_reported":1701615981,"current_range_meters":25200,"station_id":"ce4bht12rcd13ifvqi60","pricing_plan_id":"free"},{"bike_id":"2be91397-ef40-47ef-ab1b-6e8978fd5e28","system_id":"levelo_inurba_marseille","lat":43.286039,"lon":5.370681,"is_reserved":false,"is_disabled":false,"rental_uris":{"android":"levelo://app?vid=2be91397-ef40-47ef-ab1b-6e8978fd5e28","ios":"levelo://app?vid=2be91397-ef40-47ef-ab1b-6e8978fd5e28"},"vehicle_type_id":"4","last_reported":1701615981,"current_range_meters":20400,"station_id":"ce4bht12rcd13ifvqi60","pricing_plan_id":"free"},{"bike_id":"7f9ace0d-09e5-476f-9d31-3087c341c9fd","system_id":"levelo_inurba_marseille","lat":43.291994,"lon":5.392907,"is_reserved":false,"is_disabled":false,"rental_uris":{"android":"levelo://app?vid=7f9ace0d-09e5-476f-9d31-3087c341c9fd","ios":"levelo://app?vid=7f9ace0d-09e5-476f-9d31-3087c341c9fd"},"vehicle_type_id":"4","last_reported":1701615981,"current_range_meters":6400,"station_id":"ce4bh192rcd13ifvqdd0","pricing_plan_id":"free"},{"bike_id":"01d821c3-16bd-4bad-8048-ceb843886575","system_id":"levelo_inurba_marseille","lat":43.291994,"lon":5.392907,"is_reserved":false,"is_disabled":false,"rental_uris":{"android":"levelo://app?vid=01d821c3-16bd-4bad-8048-ceb843886575","ios":"levelo://app?vid=01d821c3-16bd-4bad-8048-ceb843886575"},"vehicle_type_id":"4","last_reported":1701615981,"current_range_meters":1600,"station_id":"ce4bh192rcd13ifvqdd0","pricing_plan_id":"free"},{"bike_id":"ac39c069-d994-4ed3-9173-40eb7c90a140","system_id":"levelo_inurba_marseille","lat":43.284534,"lon":5.358662,"is_reserved":false,"is_disabled":false,"rental_uris":{"android":"levelo://app?vid=ac39c069-d994-4ed3-9173-40eb7c90a140","ios":"levelo://app?vid=ac39c069-d994-4ed3-9173-40eb7c90a140"},"vehicle_type_id":"4","last_reported":1701615981,"current_range_meters":28800,"station_id":"ce4bhah2rcd13ifvqei0","pricing_plan_id":"free"},{"bike_id":"da3fc414-7429-4f0a-a41d-7648307fea85","system_id":"levelo_inurba_marseille","lat":43.284538,"lon":5.358657,"is_reserved":false,"is_disabled":false,"rental_uris":{"android":"levelo://app?vid=da3fc414-7429-4f0a-a41d-7648307fea85","ios":"levelo://app?vid=da3fc414-7429-4f0a-a41d-7648307fea85"},"vehicle_type_id":"4","last_reported":1701615981,"current_range_meters":11600,"station_id":"ce4bhah2rcd13ifvqei0","pricing_plan_id":"free"},{"bike_id":"43320080-1a7e-4761-8372-1564934a9ad5","system_id":"levelo_inurba_marseille","lat":43.294314,"lon":5.397498,"is_reserved":false,"is_disabled":false,"rental_uris":{"android":"levelo://app?vid=43320080-1a7e-4761-8372-1564934a9ad5","ios":"levelo://app?vid=43320080-1a7e-4761-8372-1564934a9ad5"},"vehicle_type_id":"4","last_reported":1701615981,"current_range_meters":27600,"station_id":"ce4bh3h2rcd13ifvqdo0","pricing_plan_id":"free"},{"bike_id":"c63d6b39-e0a7-41ef-9b2c-4ec89efee77b","system_id":"levelo_inurba_marseille","lat":43.283998,"lon":5.375062,"is_reserved":false,"is_disabled":false,"rental_uris":{"android":"levelo://app?vid=c63d6b39-e0a7-41ef-9b2c-4ec89efee77b","ios":"levelo://app?vid=c63d6b39-e0a7-41ef-9b2c-4ec89efee77b"},"vehicle_type_id":"4","last_reported":1701615981,"current_range_meters":23600,"station_id":"ce4bh412rcd13ifvqds0","pricing_plan_id":"free"},{"bike_id":"23a6e18e-5ad6-40cf-b6fb-7a4b1a6034c9","system_id":"levelo_inurba_marseille","lat":43.33745,"lon":5.39116,"is_reserved":false,"is_disabled":false,"rental_uris":{"android":"levelo://app?vid=23a6e18e-5ad6-40cf-b6fb-7a4b1a6034c9","ios":"levelo://app?vid=23a6e18e-5ad6-40cf-b6fb-7a4b1a6034c9"},"vehicle_type_id":"4","last_reported":1701615981,"current_range_meters":28000,"station_id":"","pricing_plan_id":"free"},{"bike_id":"bf789c1b-268a-44e2-86f2-65db233d9aab","system_id":"levelo_inurba_marseille","lat":43.323464,"lon":5.406297,"is_reserved":false,"is_disabled":false,"rental_uris":{"android":"levelo://app?vid=bf789c1b-268a-44e2-86f2-65db233d9aab","ios":"levelo://app?vid=bf789c1b-268a-44e2-86f2-65db233d9aab"},"vehicle_type_id":"4","last_reported":1701615981,"current_range_meters":30400,"station_id":"ce4bhq92rcd13ifvqhjg","pricing_plan_id":"free"},{"bike_id":"75ee5a35-25e5-4210-a426-2d92cbb1b782","system_id":"levelo_inurba_marseille","lat":43.33235,"lon":5.39902,"is_reserved":false,"is_disabled":false,"rental_uris":{"android":"levelo://app?vid=75ee5a35-25e5-4210-a426-2d92cbb1b782","ios":"levelo://app?vid=75ee5a35-25e5-4210-a426-2d92cbb1b782"},"vehicle_type_id":"4","last_reported":1701615981,"current_range_meters":0,"station_id":"","pricing_plan_id":"free"},{"bike_id":"7d9414e8-e924-4a52-85ea-e2e0d389af6a","system_id":"levelo_inurba_marseille","lat":43.28475,"lon":5.38408,"is_reserved":false,"is_disabled":false,"rental_uris":{"android":"levelo://app?vid=7d9414e8-e924-4a52-85ea-e2e0d389af6a","ios":"levelo://app?vid=7d9414e8-e924-4a52-85ea-e2e0d389af6a"},"vehicle_type_id":"4","last_reported":1701615981,"current_range_meters":0,"station_id":"ce4bh512rcd13ifvqe3g","pricing_plan_id":"free"},{"bike_id":"8675c7c8-bec2-4c8e-9420-7b4458cf8859","system_id":"levelo_inurba_marseille","lat":43.284787,"lon":5.384116,"is_reserved":false,"is_disabled":false,"rental_uris":{"android":"levelo://app?vid=8675c7c8-bec2-4c8e-9420-7b4458cf8859","ios":"levelo://app?vid=8675c7c8-bec2-4c8e-9420-7b4458cf8859"},"vehicle_type_id":"4","last_reported":1701615981,"current_range_meters":24800,"station_id":"ce4bh512rcd13ifvqe3g","pricing_plan_id":"free"},{"bike_id":"e2d69f47-5fef-4578-a24f-cbb2844c53e7","system_id":"levelo_inurba_marseille","lat":43.2885,"lon":5.39317,"is_reserved":false,"is_disabled":false,"rental_uris":{"android":"levelo://app?vid=e2d69f47-5fef-4578-a24f-cbb2844c53e7","ios":"levelo://app?vid=e2d69f47-5fef-4578-a24f-cbb2844c53e7"},"vehicle_type_id":"4","last_reported":1701615981,"current_range_meters":19200,"station_id":"ce4bh2p2rcd13ifvqdi0","pricing_plan_id":"free"},{"bike_id":"99e1c5f2-72de-42f3-b6d4-cf2ebe79aab0","system_id":"levelo_inurba_marseille","lat":43.283498,"lon":5.380948,"is_reserved":false,"is_disabled":false,"rental_uris":{"android":"levelo://app?vid=99e1c5f2-72de-42f3-b6d4-cf2ebe79aab0","ios":"levelo://app?vid=99e1c5f2-72de-42f3-b6d4-cf2ebe79aab0"},"vehicle_type_id":"4","last_reported":1701615981,"current_range_meters":26800,"station_id":"ce4bh412rcd13ifvqdr0","pricing_plan_id":"free"},{"bike_id":"e068042d-9513-4315-9fcb-81930a64bc73","system_id":"levelo_inurba_marseille","lat":43.283494,"lon":5.380945,"is_reserved":false,"is_disabled":false,"rental_uris":{"android":"levelo://app?vid=e068042d-9513-4315-9fcb-81930a64bc73","ios":"levelo://app?vid=e068042d-9513-4315-9fcb-81930a64bc73"},"vehicle_type_id":"4","last_reported":1701615981,"current_range_meters":2400,"station_id":"ce4bh412rcd13ifvqdr0","pricing_plan_id":"free"},{"bike_id":"7cadb0ea-3087-415c-b446-ef0924cc239a","system_id":"levelo_inurba_marseille","lat":43.281044,"lon":5.378308,"is_reserved":false,"is_disabled":false,"rental_uris":{"android":"levelo://app?vid=7cadb0ea-3087-415c-b446-ef0924cc239a","ios":"levelo://app?vid=7cadb0ea-3087-415c-b446-ef0924cc239a"},"vehicle_type_id":"4","last_reported":1701615981,"current_range_meters":14000,"station_id":"ce4bha12rcd13ifvqee0","pricing_plan_id":"free"},{"bike_id":"d5b78146-4326-4261-9cf2-b1b196464a4c","system_id":"levelo_inurba_marseille","lat":43.28274,"lon":5.35065,"is_reserved":false,"is_disabled":false,"rental_uris":{"android":"levelo://app?vid=d5b78146-4326-4261-9cf2-b1b196464a4c","ios":"levelo://app?vid=d5b78146-4326-4261-9cf2-b1b196464a4c"},"vehicle_type_id":"4","last_reported":1701615981,"current_range_meters":400,"station_id":"ce4bhbp2rcd13ifvqerg","pricing_plan_id":"free"},{"bike_id":"bc9d9a99-19d7-4b0d-984a-30835eb9d337","system_id":"levelo_inurba_marseille","lat":43.282744,"lon":5.350533,"is_reserved":false,"is_disabled":false,"rental_uris":{"android":"levelo://app?vid=bc9d9a99-19d7-4b0d-984a-30835eb9d337","ios":"levelo://app?vid=bc9d9a99-19d7-4b0d-984a-30835eb9d337"},"vehicle_type_id":"4","last_reported":1701615981,"current_range_meters":30400,"station_id":"ce4bhbp2rcd13ifvqerg","pricing_plan_id":"free"},{"bike_id":"7b265c65-3047-4bf1-84fe-a0ec0db62cd9","system_id":"levelo_inurba_marseille","lat":43.29041,"lon":5.399634,"is_reserved":false,"is_disabled":false,"rental_uris":{"android":"levelo://app?vid=7b265c65-3047-4bf1-84fe-a0ec0db62cd9","ios":"levelo://app?vid=7b265c65-3047-4bf1-84fe-a0ec0db62cd9"},"vehicle_type_id":"4","last_reported":1701615981,"current_range_meters":18400,"station_id":"ce4bh392rcd13ifvqdm0","pricing_plan_id":"free"},{"bike_id":"f7a0341e-2d10-4fe9-92d1-745a7323d3e4","system_id":"levelo_inurba_marseille","lat":43.320045,"lon":5.415046,"is_reserved":false,"is_disabled":false,"rental_uris":{"android":"levelo://app?vid=f7a0341e-2d10-4fe9-92d1-745a7323d3e4","ios":"levelo://app?vid=f7a0341e-2d10-4fe9-92d1-745a7323d3e4"},"vehicle_type_id":"4","last_reported":1701615981,"current_range_meters":18000,"station_id":"ce4bhq92rcd13ifvqhkg","pricing_plan_id":"free"},{"bike_id":"b4a732ec-2b40-486b-8457-52f4fb12e3ec","system_id":"levelo_inurba_marseille","lat":43.299577,"lon":5.413277,"is_reserved":false,"is_disabled":false,"rental_uris":{"android":"levelo://app?vid=b4a732ec-2b40-486b-8457-52f4fb12e3ec","ios":"levelo://app?vid=b4a732ec-2b40-486b-8457-52f4fb12e3ec"},"vehicle_type_id":"4","last_reported":1701615981,"current_range_meters":24000,"station_id":"ce4bhp12rcd13ifvqh9g","pricing_plan_id":"free"},{"bike_id":"ae3b7381-16bb-42f0-9639-1e094078b76c","system_id":"levelo_inurba_marseille","lat":43.299577,"lon":5.413277,"is_reserved":false,"is_disabled":false,"rental_uris":{"android":"levelo://app?vid=ae3b7381-16bb-42f0-9639-1e094078b76c","ios":"levelo://app?vid=ae3b7381-16bb-42f0-9639-1e094078b76c"},"vehicle_type_id":"4","last_reported":1701615981,"current_range_meters":0,"station_id":"ce4bhp12rcd13ifvqh9g","pricing_plan_id":"free"},{"bike_id":"06da99b1-4e10-4e6f-9245-73208ba7429a","system_id":"levelo_inurba_marseille","lat":43.292569,"lon":5.409107,"is_reserved":false,"is_disabled":false,"rental_uris":{"android":"levelo://app?vid=06da99b1-4e10-4e6f-9245-73208ba7429a","ios":"levelo://app?vid=06da99b1-4e10-4e6f-9245-73208ba7429a"},"vehicle_type_id":"4","last_reported":1701615981,"current_range_meters":20800,"station_id":"ce4bh192rcd13ifvqdc0","pricing_plan_id":"free"},{"bike_id":"534f137e-34fe-466f-9232-6f1393a0b373","system_id":"levelo_inurba_marseille","lat":43.292647,"lon":5.409162,"is_reserved":false,"is_disabled":false,"rental_uris":{"android":"levelo://app?vid=534f137e-34fe-466f-9232-6f1393a0b373","ios":"levelo://app?vid=534f137e-34fe-466f-9232-6f1393a0b373"},"vehicle_type_id":"4","last_reported":1701615981,"current_range_meters":16000,"station_id":"","pricing_plan_id":"free"},{"bike_id":"2ed76bd7-5d2e-4837-811d-65417a6f33c7","system_id":"levelo_inurba_marseille","lat":43.280784,"lon":5.396622,"is_reserved":false,"is_disabled":false,"rental_uris":{"android":"levelo://app?vid=2ed76bd7-5d2e-4837-811d-65417a6f33c7","ios":"levelo://app?vid=2ed76bd7-5d2e-4837-811d-65417a6f33c7"},"vehicle_type_id":"4","last_reported":1701615981,"current_range_meters":18400,"station_id":"ce4bho12rcd13ifvqh2g","pricing_plan_id":"free"},{"bike_id":"88d77f5f-e020-48c2-8719-9412f0c1b46d","system_id":"levelo_inurba_marseille","lat":43.278399,"lon":5.392139,"is_reserved":false,"is_disabled":false,"rental_uris":{"android":"levelo://app?vid=88d77f5f-e020-48c2-8719-9412f0c1b46d","ios":"levelo://app?vid=88d77f5f-e020-48c2-8719-9412f0c1b46d"},"vehicle_type_id":"4","last_reported":1701615981,"current_range_meters":800,"station_id":"ce4bhjp2rcd13ifvqga0","pricing_plan_id":"free"},{"bike_id":"20b14239-b93f-4877-9cd2-1eccbc293b3d","system_id":"levelo_inurba_marseille","lat":43.278401,"lon":5.392152,"is_reserved":false,"is_disabled":false,"rental_uris":{"android":"levelo://app?vid=20b14239-b93f-4877-9cd2-1eccbc293b3d","ios":"levelo://app?vid=20b14239-b93f-4877-9cd2-1eccbc293b3d"},"vehicle_type_id":"4","last_reported":1701615981,"current_range_meters":800,"station_id":"ce4bhjp2rcd13ifvqga0","pricing_plan_id":"free"},{"bike_id":"06c6bb4e-bca6-4e23-8c8e-34c8a76ae4bc","system_id":"levelo_inurba_marseille","lat":43.27834,"lon":5.392055,"is_reserved":false,"is_disabled":false,"rental_uris":{"android":"levelo://app?vid=06c6bb4e-bca6-4e23-8c8e-34c8a76ae4bc","ios":"levelo://app?vid=06c6bb4e-bca6-4e23-8c8e-34c8a76ae4bc"},"vehicle_type_id":"4","last_reported":1701615981,"current_range_meters":26400,"station_id":"ce4bhjp2rcd13ifvqga0","pricing_plan_id":"free"},{"bike_id":"a8e1215b-8ed0-40e0-84d3-f2951619d8e8","system_id":"levelo_inurba_marseille","lat":43.278401,"lon":5.392152,"is_reserved":false,"is_disabled":false,"rental_uris":{"android":"levelo://app?vid=a8e1215b-8ed0-40e0-84d3-f2951619d8e8","ios":"levelo://app?vid=a8e1215b-8ed0-40e0-84d3-f2951619d8e8"},"vehicle_type_id":"4","last_reported":1701615981,"current_range_meters":28800,"station_id":"ce4bhjp2rcd13ifvqga0","pricing_plan_id":"free"},{"bike_id":"213ca08c-b807-4337-891b-7707c2d06f52","system_id":"levelo_inurba_marseille","lat":43.278399,"lon":5.392139,"is_reserved":false,"is_disabled":false,"rental_uris":{"android":"levelo://app?vid=213ca08c-b807-4337-891b-7707c2d06f52","ios":"levelo://app?vid=213ca08c-b807-4337-891b-7707c2d06f52"},"vehicle_type_id":"4","last_reported":1701615981,"current_range_meters":15200,"station_id":"ce4bhjp2rcd13ifvqga0","pricing_plan_id":"free"},{"bike_id":"d74a5ee3-8b7b-486d-82ee-4f6bebc3ff66","system_id":"levelo_inurba_marseille","lat":43.27377,"lon":5.36256,"is_reserved":false,"is_disabled":false,"rental_uris":{"android":"levelo://app?vid=d74a5ee3-8b7b-486d-82ee-4f6bebc3ff66","ios":"levelo://app?vid=d74a5ee3-8b7b-486d-82ee-4f6bebc3ff66"},"vehicle_type_id":"4","last_reported":1701615981,"current_range_meters":31200,"station_id":"ce4bhbh2rcd13ifvqeo0","pricing_plan_id":"free"},{"bike_id":"6aaaaa22-b6b5-4c44-b41e-fcacaeedb6b4","system_id":"levelo_inurba_marseille","lat":43.273613,"lon":5.362705,"is_reserved":false,"is_disabled":false,"rental_uris":{"android":"levelo://app?vid=6aaaaa22-b6b5-4c44-b41e-fcacaeedb6b4","ios":"levelo://app?vid=6aaaaa22-b6b5-4c44-b41e-fcacaeedb6b4"},"vehicle_type_id":"4","last_reported":1701615981,"current_range_meters":22000,"station_id":"ce4bhbh2rcd13ifvqeo0","pricing_plan_id":"free"},{"bike_id":"1f0ee813-ae55-48ab-a7f0-d7af4690f9c6","system_id":"levelo_inurba_marseille","lat":43.273609,"lon":5.362708,"is_reserved":false,"is_disabled":false,"rental_uris":{"android":"levelo://app?vid=1f0ee813-ae55-48ab-a7f0-d7af4690f9c6","ios":"levelo://app?vid=1f0ee813-ae55-48ab-a7f0-d7af4690f9c6"},"vehicle_type_id":"4","last_reported":1701615981,"current_range_meters":24800,"station_id":"ce4bhbh2rcd13ifvqeo0","pricing_plan_id":"free"},{"bike_id":"db12139b-23b9-4e5d-8849-bc895f7bba81","system_id":"levelo_inurba_marseille","lat":43.273613,"lon":5.362705,"is_reserved":false,"is_disabled":false,"rental_uris":{"android":"levelo://app?vid=db12139b-23b9-4e5d-8849-bc895f7bba81","ios":"levelo://app?vid=db12139b-23b9-4e5d-8849-bc895f7bba81"},"vehicle_type_id":"4","last_reported":1701615981,"current_range_meters":19200,"station_id":"ce4bhbh2rcd13ifvqeo0","pricing_plan_id":"free"},{"bike_id":"b5dab64d-93c0-4224-ac72-e93cd46fa15b","system_id":"levelo_inurba_marseille","lat":43.275625,"lon":5.384392,"is_reserved":false,"is_disabled":false,"rental_uris":{"android":"levelo://app?vid=b5dab64d-93c0-4224-ac72-e93cd46fa15b","ios":"levelo://app?vid=b5dab64d-93c0-4224-ac72-e93cd46fa15b"},"vehicle_type_id":"4","last_reported":1701615981,"current_range_meters":15200,"station_id":"ce4bhh92rcd13ifvqfi0","pricing_plan_id":"free"},{"bike_id":"0c80b8b0-72b9-43d2-810d-415f33a8d9f5","system_id":"levelo_inurba_marseille","lat":43.279952,"lon":5.400085,"is_reserved":false,"is_disabled":false,"rental_uris":{"android":"levelo://app?vid=0c80b8b0-72b9-43d2-810d-415f33a8d9f5","ios":"levelo://app?vid=0c80b8b0-72b9-43d2-810d-415f33a8d9f5"},"vehicle_type_id":"4","last_reported":1701615981,"current_range_meters":14400,"station_id":"ce4bho92rcd13ifvqh4g","pricing_plan_id":"free"},{"bike_id":"910fd3aa-d2e0-4553-894a-6161d41c7fcd","system_id":"levelo_inurba_marseille","lat":43.27609,"lon":5.39475,"is_reserved":false,"is_disabled":false,"rental_uris":{"android":"levelo://app?vid=910fd3aa-d2e0-4553-894a-6161d41c7fcd","ios":"levelo://app?vid=910fd3aa-d2e0-4553-894a-6161d41c7fcd"},"vehicle_type_id":"4","last_reported":1701615981,"current_range_meters":15200,"station_id":"","pricing_plan_id":"free"},{"bike_id":"e83ebcb9-2f31-46bb-8c22-29a341b162d7","system_id":"levelo_inurba_marseille","lat":43.304088,"lon":5.425388,"is_reserved":false,"is_disabled":false,"rental_uris":{"android":"levelo://app?vid=e83ebcb9-2f31-46bb-8c22-29a341b162d7","ios":"levelo://app?vid=e83ebcb9-2f31-46bb-8c22-29a341b162d7"},"vehicle_type_id":"4","last_reported":1701615981,"current_range_meters":26400,"station_id":"ce4bhoh2rcd13ifvqh6g","pricing_plan_id":"free"},{"bike_id":"ad1c376b-782e-4f75-9c24-5490a4e16c37","system_id":"levelo_inurba_marseille","lat":43.269319,"lon":5.389397,"is_reserved":false,"is_disabled":false,"rental_uris":{"android":"levelo://app?vid=ad1c376b-782e-4f75-9c24-5490a4e16c37","ios":"levelo://app?vid=ad1c376b-782e-4f75-9c24-5490a4e16c37"},"vehicle_type_id":"4","last_reported":1701615981,"current_range_meters":20000,"station_id":"ce4bhhh2rcd13ifvqfl0","pricing_plan_id":"free"},{"bike_id":"c52d6031-bade-41d4-9bdc-ac2359439ebe","system_id":"levelo_inurba_marseille","lat":43.26681,"lon":5.382694,"is_reserved":false,"is_disabled":false,"rental_uris":{"android":"levelo://app?vid=c52d6031-bade-41d4-9bdc-ac2359439ebe","ios":"levelo://app?vid=c52d6031-bade-41d4-9bdc-ac2359439ebe"},"vehicle_type_id":"4","last_reported":1701615981,"current_range_meters":23200,"station_id":"ce4bhg92rcd13ifvqf90","pricing_plan_id":"free"},{"bike_id":"b40bf6ea-6ef7-4e90-a779-664023c25c15","system_id":"levelo_inurba_marseille","lat":43.261782,"lon":5.374515,"is_reserved":false,"is_disabled":false,"rental_uris":{"android":"levelo://app?vid=b40bf6ea-6ef7-4e90-a779-664023c25c15","ios":"levelo://app?vid=b40bf6ea-6ef7-4e90-a779-664023c25c15"},"vehicle_type_id":"4","last_reported":1701615981,"current_range_meters":7200,"station_id":"ce4bhgp2rcd13ifvqfc0","pricing_plan_id":"free"},{"bike_id":"f9505c4b-c2ce-4bca-bead-e0efb1f24e15","system_id":"levelo_inurba_marseille","lat":43.271368,"lon":5.40928,"is_reserved":false,"is_disabled":false,"rental_uris":{"android":"levelo://app?vid=f9505c4b-c2ce-4bca-bead-e0efb1f24e15","ios":"levelo://app?vid=f9505c4b-c2ce-4bca-bead-e0efb1f24e15"},"vehicle_type_id":"4","last_reported":1701615981,"current_range_meters":29200,"station_id":"ce4bhl12rcd13ifvqgf0","pricing_plan_id":"free"},{"bike_id":"10a006dc-ad72-4f3c-b707-f6ed1c39bb5c","system_id":"levelo_inurba_marseille","lat":43.267959,"lon":5.402685,"is_reserved":false,"is_disabled":false,"rental_uris":{"android":"levelo://app?vid=10a006dc-ad72-4f3c-b707-f6ed1c39bb5c","ios":"levelo://app?vid=10a006dc-ad72-4f3c-b707-f6ed1c39bb5c"},"vehicle_type_id":"4","last_reported":1701615981,"current_range_meters":7200,"station_id":"ce501612rcd8frsf0b60","pricing_plan_id":"free"},{"bike_id":"29a520d0-38f3-4808-95aa-92cc0f49450e","system_id":"levelo_inurba_marseille","lat":43.281548,"lon":5.42643,"is_reserved":false,"is_disabled":false,"rental_uris":{"android":"levelo://app?vid=29a520d0-38f3-4808-95aa-92cc0f49450e","ios":"levelo://app?vid=29a520d0-38f3-4808-95aa-92cc0f49450e"},"vehicle_type_id":"4","last_reported":1701615981,"current_range_meters":10800,"station_id":"ce4bhnh2rcd13ifvqgug","pricing_plan_id":"free"},{"bike_id":"75af4fc9-77ed-4f9a-8845-21292a5c0929","system_id":"levelo_inurba_marseille","lat":43.281548,"lon":5.42643,"is_reserved":false,"is_disabled":false,"rental_uris":{"android":"levelo://app?vid=75af4fc9-77ed-4f9a-8845-21292a5c0929","ios":"levelo://app?vid=75af4fc9-77ed-4f9a-8845-21292a5c0929"},"vehicle_type_id":"4","last_reported":1701615981,"current_range_meters":21200,"station_id":"ce4bhnh2rcd13ifvqgug","pricing_plan_id":"free"},{"bike_id":"97ff2232-0bbb-4cf6-9a9f-81bc9e55c519","system_id":"levelo_inurba_marseille","lat":43.281548,"lon":5.42643,"is_reserved":false,"is_disabled":false,"rental_uris":{"android":"levelo://app?vid=97ff2232-0bbb-4cf6-9a9f-81bc9e55c519","ios":"levelo://app?vid=97ff2232-0bbb-4cf6-9a9f-81bc9e55c519"},"vehicle_type_id":"4","last_reported":1701615981,"current_range_meters":19200,"station_id":"ce4bhnh2rcd13ifvqgug","pricing_plan_id":"free"},{"bike_id":"f62ca50a-9f5f-4c70-b64c-a9d8b9a2d9d8","system_id":"levelo_inurba_marseille","lat":43.2607,"lon":5.393983,"is_reserved":false,"is_disabled":false,"rental_uris":{"android":"levelo://app?vid=f62ca50a-9f5f-4c70-b64c-a9d8b9a2d9d8","ios":"levelo://app?vid=f62ca50a-9f5f-4c70-b64c-a9d8b9a2d9d8"},"vehicle_type_id":"4","last_reported":1701615981,"current_range_meters":12800,"station_id":"ce4bhh92rcd13ifvqfj0","pricing_plan_id":"free"},{"bike_id":"0bded56d-9db5-447e-b79c-b8c86d8723c6","system_id":"levelo_inurba_marseille","lat":43.255769,"lon":5.382267,"is_reserved":false,"is_disabled":false,"rental_uris":{"android":"levelo://app?vid=0bded56d-9db5-447e-b79c-b8c86d8723c6","ios":"levelo://app?vid=0bded56d-9db5-447e-b79c-b8c86d8723c6"},"vehicle_type_id":"4","last_reported":1701615981,"current_range_meters":18000,"station_id":"ce4bhih2rcd13ifvqfs0","pricing_plan_id":"free"},{"bike_id":"2177d93a-ac6b-4060-b102-ec227680ef7d","system_id":"levelo_inurba_marseille","lat":43.258224,"lon":5.394369,"is_reserved":false,"is_disabled":false,"rental_uris":{"android":"levelo://app?vid=2177d93a-ac6b-4060-b102-ec227680ef7d","ios":"levelo://app?vid=2177d93a-ac6b-4060-b102-ec227680ef7d"},"vehicle_type_id":"4","last_reported":1701615981,"current_range_meters":21600,"station_id":"ce4bhip2rcd13ifvqft0","pricing_plan_id":"free"},{"bike_id":"beee792d-c111-4e09-8ccb-9ad495de738f","system_id":"levelo_inurba_marseille","lat":43.25574,"lon":5.38231,"is_reserved":false,"is_disabled":false,"rental_uris":{"android":"levelo://app?vid=beee792d-c111-4e09-8ccb-9ad495de738f","ios":"levelo://app?vid=beee792d-c111-4e09-8ccb-9ad495de738f"},"vehicle_type_id":"4","last_reported":1701615981,"current_range_meters":13200,"station_id":"ce4bhih2rcd13ifvqfs0","pricing_plan_id":"free"},{"bike_id":"755461d1-be74-4777-b81d-ab0b3264273a","system_id":"levelo_inurba_marseille","lat":43.25573,"lon":5.3824,"is_reserved":false,"is_disabled":false,"rental_uris":{"android":"levelo://app?vid=755461d1-be74-4777-b81d-ab0b3264273a","ios":"levelo://app?vid=755461d1-be74-4777-b81d-ab0b3264273a"},"vehicle_type_id":"4","last_reported":1701615981,"current_range_meters":6000,"station_id":"ce4bhih2rcd13ifvqfs0","pricing_plan_id":"free"},{"bike_id":"c6d509a4-0052-46c4-a36a-f95be4f7be99","system_id":"levelo_inurba_marseille","lat":43.25572,"lon":5.38245,"is_reserved":false,"is_disabled":false,"rental_uris":{"android":"levelo://app?vid=c6d509a4-0052-46c4-a36a-f95be4f7be99","ios":"levelo://app?vid=c6d509a4-0052-46c4-a36a-f95be4f7be99"},"vehicle_type_id":"4","last_reported":1701615981,"current_range_meters":13600,"station_id":"ce4bhih2rcd13ifvqfs0","pricing_plan_id":"free"},{"bike_id":"c0be783f-f4c1-4d3b-bad5-30e8cf91ecf4","system_id":"levelo_inurba_marseille","lat":43.254947,"lon":5.376454,"is_reserved":false,"is_disabled":false,"rental_uris":{"android":"levelo://app?vid=c0be783f-f4c1-4d3b-bad5-30e8cf91ecf4","ios":"levelo://app?vid=c0be783f-f4c1-4d3b-bad5-30e8cf91ecf4"},"vehicle_type_id":"4","last_reported":1701615981,"current_range_meters":27600,"station_id":"ce4bhh12rcd13ifvqff0","pricing_plan_id":"free"},{"bike_id":"b8b300d3-fdcd-4f2f-a48a-f2434df84ec7","system_id":"levelo_inurba_marseille","lat":43.254947,"lon":5.376454,"is_reserved":false,"is_disabled":false,"rental_uris":{"android":"levelo://app?vid=b8b300d3-fdcd-4f2f-a48a-f2434df84ec7","ios":"levelo://app?vid=b8b300d3-fdcd-4f2f-a48a-f2434df84ec7"},"vehicle_type_id":"4","last_reported":1701615981,"current_range_meters":18800,"station_id":"ce4bhh12rcd13ifvqff0","pricing_plan_id":"free"},{"bike_id":"d3f8cc61-81a0-4f43-abcf-394b1d403c63","system_id":"levelo_inurba_marseille","lat":43.258658,"lon":5.398935,"is_reserved":false,"is_disabled":false,"rental_uris":{"android":"levelo://app?vid=d3f8cc61-81a0-4f43-abcf-394b1d403c63","ios":"levelo://app?vid=d3f8cc61-81a0-4f43-abcf-394b1d403c63"},"vehicle_type_id":"4","last_reported":1701615981,"current_range_meters":14800,"station_id":"ce4bhl92rcd13ifvqghg","pricing_plan_id":"free"},{"bike_id":"24931531-3573-4ab1-aecf-0e5311631f55","system_id":"levelo_inurba_marseille","lat":43.258658,"lon":5.398935,"is_reserved":false,"is_disabled":false,"rental_uris":{"android":"levelo://app?vid=24931531-3573-4ab1-aecf-0e5311631f55","ios":"levelo://app?vid=24931531-3573-4ab1-aecf-0e5311631f55"},"vehicle_type_id":"4","last_reported":1701615981,"current_range_meters":27600,"station_id":"ce4bhl92rcd13ifvqghg","pricing_plan_id":"free"},{"bike_id":"35a2aa09-80da-4f45-b074-346ca1fbdebb","system_id":"levelo_inurba_marseille","lat":43.258658,"lon":5.398935,"is_reserved":false,"is_disabled":false,"rental_uris":{"android":"levelo://app?vid=35a2aa09-80da-4f45-b074-346ca1fbdebb","ios":"levelo://app?vid=35a2aa09-80da-4f45-b074-346ca1fbdebb"},"vehicle_type_id":"4","last_reported":1701615981,"current_range_meters":4000,"station_id":"ce4bhl92rcd13ifvqghg","pricing_plan_id":"free"},{"bike_id":"bdc72d7c-9d46-4016-8a92-851cd50823f9","system_id":"levelo_inurba_marseille","lat":43.25929,"lon":5.40906,"is_reserved":false,"is_disabled":false,"rental_uris":{"android":"levelo://app?vid=bdc72d7c-9d46-4016-8a92-851cd50823f9","ios":"levelo://app?vid=bdc72d7c-9d46-4016-8a92-851cd50823f9"},"vehicle_type_id":"4","last_reported":1701615981,"current_range_meters":23600,"station_id":"ce4bhm92rcd13ifvqglg","pricing_plan_id":"free"},{"bike_id":"d99249bd-5a72-429c-b2b0-8b17009dd8d3","system_id":"levelo_inurba_marseille","lat":43.257079,"lon":5.411051,"is_reserved":false,"is_disabled":false,"rental_uris":{"android":"levelo://app?vid=d99249bd-5a72-429c-b2b0-8b17009dd8d3","ios":"levelo://app?vid=d99249bd-5a72-429c-b2b0-8b17009dd8d3"},"vehicle_type_id":"4","last_reported":1701615981,"current_range_meters":12400,"station_id":"ce4bhkp2rcd13ifvqgd0","pricing_plan_id":"free"},{"bike_id":"05ffcfcb-20c3-4466-b79e-af248191fe78","system_id":"levelo_inurba_marseille","lat":43.257079,"lon":5.411051,"is_reserved":false,"is_disabled":false,"rental_uris":{"android":"levelo://app?vid=05ffcfcb-20c3-4466-b79e-af248191fe78","ios":"levelo://app?vid=05ffcfcb-20c3-4466-b79e-af248191fe78"},"vehicle_type_id":"4","last_reported":1701615981,"current_range_meters":31200,"station_id":"ce4bhkp2rcd13ifvqgd0","pricing_plan_id":"free"},{"bike_id":"ccea01bd-df00-432c-bcdc-da27d4f06168","system_id":"levelo_inurba_marseille","lat":43.2479,"lon":5.374457,"is_reserved":false,"is_disabled":false,"rental_uris":{"android":"levelo://app?vid=ccea01bd-df00-432c-bcdc-da27d4f06168","ios":"levelo://app?vid=ccea01bd-df00-432c-bcdc-da27d4f06168"},"vehicle_type_id":"4","last_reported":1701615981,"current_range_meters":16000,"station_id":"ce4bhgh2rcd13ifvqfb0","pricing_plan_id":"free"},{"bike_id":"6fa4d5cd-dc77-4707-832a-620257d10493","system_id":"levelo_inurba_marseille","lat":43.25102,"lon":5.403214,"is_reserved":false,"is_disabled":false,"rental_uris":{"android":"levelo://app?vid=6fa4d5cd-dc77-4707-832a-620257d10493","ios":"levelo://app?vid=6fa4d5cd-dc77-4707-832a-620257d10493"},"vehicle_type_id":"4","last_reported":1701615981,"current_range_meters":26800,"station_id":"ce4bhlh2rcd13ifvqgig","pricing_plan_id":"free"},{"bike_id":"ecf13557-161d-4e27-b0e7-48e2d8f8fde0","system_id":"levelo_inurba_marseille","lat":43.24645,"lon":5.38889,"is_reserved":false,"is_disabled":false,"rental_uris":{"android":"levelo://app?vid=ecf13557-161d-4e27-b0e7-48e2d8f8fde0","ios":"levelo://app?vid=ecf13557-161d-4e27-b0e7-48e2d8f8fde0"},"vehicle_type_id":"4","last_reported":1701615981,"current_range_meters":14800,"station_id":"ce4bhg12rcd13ifvqf60","pricing_plan_id":"free"},{"bike_id":"344d2e4e-b54d-4897-ad5f-02f90554f1ce","system_id":"levelo_inurba_marseille","lat":43.24643,"lon":5.38898,"is_reserved":false,"is_disabled":false,"rental_uris":{"android":"levelo://app?vid=344d2e4e-b54d-4897-ad5f-02f90554f1ce","ios":"levelo://app?vid=344d2e4e-b54d-4897-ad5f-02f90554f1ce"},"vehicle_type_id":"4","last_reported":1701615981,"current_range_meters":3600,"station_id":"ce4bhg12rcd13ifvqf60","pricing_plan_id":"free"},{"bike_id":"61a9e6b0-f435-4470-83bd-a67a85c1a979","system_id":"levelo_inurba_marseille","lat":43.243884,"lon":5.370736,"is_reserved":false,"is_disabled":false,"rental_uris":{"android":"levelo://app?vid=61a9e6b0-f435-4470-83bd-a67a85c1a979","ios":"levelo://app?vid=61a9e6b0-f435-4470-83bd-a67a85c1a979"},"vehicle_type_id":"4","last_reported":1701615981,"current_range_meters":31600,"station_id":"ce4bhhh2rcd13ifvqfk0","pricing_plan_id":"free"},{"bike_id":"c84deb8a-191d-4ac7-80cd-ec47a2f5549d","system_id":"levelo_inurba_marseille","lat":43.243884,"lon":5.370736,"is_reserved":false,"is_disabled":false,"rental_uris":{"android":"levelo://app?vid=c84deb8a-191d-4ac7-80cd-ec47a2f5549d","ios":"levelo://app?vid=c84deb8a-191d-4ac7-80cd-ec47a2f5549d"},"vehicle_type_id":"4","last_reported":1701615981,"current_range_meters":14400,"station_id":"ce4bhhh2rcd13ifvqfk0","pricing_plan_id":"free"},{"bike_id":"581b3e3c-f49b-4afa-b904-b2b4fac016e9","system_id":"levelo_inurba_marseille","lat":43.243884,"lon":5.370736,"is_reserved":false,"is_disabled":false,"rental_uris":{"android":"levelo://app?vid=581b3e3c-f49b-4afa-b904-b2b4fac016e9","ios":"levelo://app?vid=581b3e3c-f49b-4afa-b904-b2b4fac016e9"},"vehicle_type_id":"4","last_reported":1701615981,"current_range_meters":24400,"station_id":"ce4bhhh2rcd13ifvqfk0","pricing_plan_id":"free"},{"bike_id":"065e50a3-1d2c-4056-9cdd-d4a5255bddfd","system_id":"levelo_inurba_marseille","lat":43.243884,"lon":5.370737,"is_reserved":false,"is_disabled":false,"rental_uris":{"android":"levelo://app?vid=065e50a3-1d2c-4056-9cdd-d4a5255bddfd","ios":"levelo://app?vid=065e50a3-1d2c-4056-9cdd-d4a5255bddfd"},"vehicle_type_id":"4","last_reported":1701615981,"current_range_meters":10000,"station_id":"ce4bhhh2rcd13ifvqfk0","pricing_plan_id":"free"},{"bike_id":"4b35308b-19df-4554-8665-28423cf60098","system_id":"levelo_inurba_marseille","lat":43.243884,"lon":5.370737,"is_reserved":false,"is_disabled":false,"rental_uris":{"android":"levelo://app?vid=4b35308b-19df-4554-8665-28423cf60098","ios":"levelo://app?vid=4b35308b-19df-4554-8665-28423cf60098"},"vehicle_type_id":"4","last_reported":1701615981,"current_range_meters":3600,"station_id":"ce4bhhh2rcd13ifvqfk0","pricing_plan_id":"free"},{"bike_id":"463b63cc-9855-4065-9a8f-e0321e2b04d1","system_id":"levelo_inurba_marseille","lat":43.245581,"lon":5.395069,"is_reserved":false,"is_disabled":false,"rental_uris":{"android":"levelo://app?vid=463b63cc-9855-4065-9a8f-e0321e2b04d1","ios":"levelo://app?vid=463b63cc-9855-4065-9a8f-e0321e2b04d1"},"vehicle_type_id":"4","last_reported":1701615981,"current_range_meters":27200,"station_id":"ce4bhlp2rcd13ifvqgjg","pricing_plan_id":"free"},{"bike_id":"66d07158-1c05-469e-a266-b66692f04cb5","system_id":"levelo_inurba_marseille","lat":43.239588,"lon":5.366238,"is_reserved":false,"is_disabled":false,"rental_uris":{"android":"levelo://app?vid=66d07158-1c05-469e-a266-b66692f04cb5","ios":"levelo://app?vid=66d07158-1c05-469e-a266-b66692f04cb5"},"vehicle_type_id":"4","last_reported":1701615981,"current_range_meters":31200,"station_id":"ce4bhi12rcd13ifvqfp0","pricing_plan_id":"free"},{"bike_id":"b35e7f80-a6b5-4c37-aa6a-7c53399b0c14","system_id":"levelo_inurba_marseille","lat":43.23965,"lon":5.36627,"is_reserved":false,"is_disabled":false,"rental_uris":{"android":"levelo://app?vid=b35e7f80-a6b5-4c37-aa6a-7c53399b0c14","ios":"levelo://app?vid=b35e7f80-a6b5-4c37-aa6a-7c53399b0c14"},"vehicle_type_id":"4","last_reported":1701615981,"current_range_meters":24400,"station_id":"ce4bhi12rcd13ifvqfp0","pricing_plan_id":"free"},{"bike_id":"9616335e-129b-4f75-ae72-69ae36567887","system_id":"levelo_inurba_marseille","lat":43.239588,"lon":5.366238,"is_reserved":false,"is_disabled":false,"rental_uris":{"android":"levelo://app?vid=9616335e-129b-4f75-ae72-69ae36567887","ios":"levelo://app?vid=9616335e-129b-4f75-ae72-69ae36567887"},"vehicle_type_id":"4","last_reported":1701615981,"current_range_meters":28800,"station_id":"ce4bhi12rcd13ifvqfp0","pricing_plan_id":"free"},{"bike_id":"b090f973-2c95-4f28-bad8-f0fb3cef1d29","system_id":"levelo_inurba_marseille","lat":43.23955,"lon":5.36638,"is_reserved":false,"is_disabled":false,"rental_uris":{"android":"levelo://app?vid=b090f973-2c95-4f28-bad8-f0fb3cef1d29","ios":"levelo://app?vid=b090f973-2c95-4f28-bad8-f0fb3cef1d29"},"vehicle_type_id":"4","last_reported":1701615981,"current_range_meters":18800,"station_id":"ce4bhi12rcd13ifvqfp0","pricing_plan_id":"free"},{"bike_id":"b101f295-ac85-402a-8afe-c635c176f114","system_id":"levelo_inurba_marseille","lat":43.28531,"lon":5.46056,"is_reserved":false,"is_disabled":false,"rental_uris":{"android":"levelo://app?vid=b101f295-ac85-402a-8afe-c635c176f114","ios":"levelo://app?vid=b101f295-ac85-402a-8afe-c635c176f114"},"vehicle_type_id":"4","last_reported":1701615981,"current_range_meters":18800,"station_id":"","pricing_plan_id":"free"},{"bike_id":"efab28f3-6bbe-4dfe-9e31-ccdc6083347d","system_id":"levelo_inurba_marseille","lat":43.24176,"lon":5.39727,"is_reserved":false,"is_disabled":false,"rental_uris":{"android":"levelo://app?vid=efab28f3-6bbe-4dfe-9e31-ccdc6083347d","ios":"levelo://app?vid=efab28f3-6bbe-4dfe-9e31-ccdc6083347d"},"vehicle_type_id":"4","last_reported":1701615981,"current_range_meters":0,"station_id":"ce4bhn12rcd13ifvqgpg","pricing_plan_id":"free"},{"bike_id":"58d4edcd-4441-486c-8457-28ebda4ac431","system_id":"levelo_inurba_marseille","lat":43.23198,"lon":5.35551,"is_reserved":false,"is_disabled":false,"rental_uris":{"android":"levelo://app?vid=58d4edcd-4441-486c-8457-28ebda4ac431","ios":"levelo://app?vid=58d4edcd-4441-486c-8457-28ebda4ac431"},"vehicle_type_id":"4","last_reported":1701615981,"current_range_meters":20000,"station_id":"ce4bhu92rcd13ifvqi70","pricing_plan_id":"free"},{"bike_id":"df76bb33-a4ef-4a36-a72d-84c57504fc7a","system_id":"levelo_inurba_marseille","lat":43.231977,"lon":5.355465,"is_reserved":false,"is_disabled":false,"rental_uris":{"android":"levelo://app?vid=df76bb33-a4ef-4a36-a72d-84c57504fc7a","ios":"levelo://app?vid=df76bb33-a4ef-4a36-a72d-84c57504fc7a"},"vehicle_type_id":"4","last_reported":1701615981,"current_range_meters":29600,"station_id":"ce4bhu92rcd13ifvqi70","pricing_plan_id":"free"},{"bike_id":"6041d620-664b-4836-b597-a0e62593a032","system_id":"levelo_inurba_marseille","lat":43.231923,"lon":5.355545,"is_reserved":false,"is_disabled":false,"rental_uris":{"android":"levelo://app?vid=6041d620-664b-4836-b597-a0e62593a032","ios":"levelo://app?vid=6041d620-664b-4836-b597-a0e62593a032"},"vehicle_type_id":"4","last_reported":1701615981,"current_range_meters":28800,"station_id":"ce4bhu92rcd13ifvqi70","pricing_plan_id":"free"},{"bike_id":"87815193-0a9e-4a5a-8f22-63817bf9d429","system_id":"levelo_inurba_marseille","lat":43.23197,"lon":5.35551,"is_reserved":false,"is_disabled":false,"rental_uris":{"android":"levelo://app?vid=87815193-0a9e-4a5a-8f22-63817bf9d429","ios":"levelo://app?vid=87815193-0a9e-4a5a-8f22-63817bf9d429"},"vehicle_type_id":"4","last_reported":1701615981,"current_range_meters":8800,"station_id":"ce4bhu92rcd13ifvqi70","pricing_plan_id":"free"},{"bike_id":"90a66033-92d6-4ce5-9800-5d20674c66dd","system_id":"levelo_inurba_marseille","lat":43.231972,"lon":5.355459,"is_reserved":false,"is_disabled":false,"rental_uris":{"android":"levelo://app?vid=90a66033-92d6-4ce5-9800-5d20674c66dd","ios":"levelo://app?vid=90a66033-92d6-4ce5-9800-5d20674c66dd"},"vehicle_type_id":"4","last_reported":1701615981,"current_range_meters":28800,"station_id":"ce4bhu92rcd13ifvqi70","pricing_plan_id":"free"},{"bike_id":"6573cb36-3c40-4042-8b0f-1356381ee019","system_id":"levelo_inurba_marseille","lat":43.231923,"lon":5.355545,"is_reserved":false,"is_disabled":false,"rental_uris":{"android":"levelo://app?vid=6573cb36-3c40-4042-8b0f-1356381ee019","ios":"levelo://app?vid=6573cb36-3c40-4042-8b0f-1356381ee019"},"vehicle_type_id":"4","last_reported":1701615981,"current_range_meters":28400,"station_id":"ce4bhu92rcd13ifvqi70","pricing_plan_id":"free"},{"bike_id":"6462fbc5-ceb8-47e3-b56d-fc1e69bef19f","system_id":"levelo_inurba_marseille","lat":43.231919,"lon":5.355532,"is_reserved":false,"is_disabled":false,"rental_uris":{"android":"levelo://app?vid=6462fbc5-ceb8-47e3-b56d-fc1e69bef19f","ios":"levelo://app?vid=6462fbc5-ceb8-47e3-b56d-fc1e69bef19f"},"vehicle_type_id":"4","last_reported":1701615981,"current_range_meters":25200,"station_id":"ce4bhu92rcd13ifvqi70","pricing_plan_id":"free"},{"bike_id":"a2778a75-2f32-457d-810c-ad5c32010803","system_id":"levelo_inurba_marseille","lat":43.23195,"lon":5.3556,"is_reserved":false,"is_disabled":false,"rental_uris":{"android":"levelo://app?vid=a2778a75-2f32-457d-810c-ad5c32010803","ios":"levelo://app?vid=a2778a75-2f32-457d-810c-ad5c32010803"},"vehicle_type_id":"4","last_reported":1701615981,"current_range_meters":20000,"station_id":"ce4bhu92rcd13ifvqi70","pricing_plan_id":"free"},{"bike_id":"2b04708e-eed8-4471-916a-9fdeea01eec7","system_id":"levelo_inurba_marseille","lat":43.231923,"lon":5.355545,"is_reserved":false,"is_disabled":false,"rental_uris":{"android":"levelo://app?vid=2b04708e-eed8-4471-916a-9fdeea01eec7","ios":"levelo://app?vid=2b04708e-eed8-4471-916a-9fdeea01eec7"},"vehicle_type_id":"4","last_reported":1701615981,"current_range_meters":14000,"station_id":"ce4bhu92rcd13ifvqi70","pricing_plan_id":"free"},{"bike_id":"6382809b-45d0-4ad2-8be7-697249f82077","system_id":"levelo_inurba_marseille","lat":43.231919,"lon":5.355532,"is_reserved":false,"is_disabled":false,"rental_uris":{"android":"levelo://app?vid=6382809b-45d0-4ad2-8be7-697249f82077","ios":"levelo://app?vid=6382809b-45d0-4ad2-8be7-697249f82077"},"vehicle_type_id":"4","last_reported":1701615981,"current_range_meters":31600,"station_id":"ce4bhu92rcd13ifvqi70","pricing_plan_id":"free"},{"bike_id":"cf3102c4-88e0-4a41-86b7-69a76932d3e6","system_id":"levelo_inurba_marseille","lat":43.231923,"lon":5.355545,"is_reserved":false,"is_disabled":false,"rental_uris":{"android":"levelo://app?vid=cf3102c4-88e0-4a41-86b7-69a76932d3e6","ios":"levelo://app?vid=cf3102c4-88e0-4a41-86b7-69a76932d3e6"},"vehicle_type_id":"4","last_reported":1701615981,"current_range_meters":31600,"station_id":"ce4bhu92rcd13ifvqi70","pricing_plan_id":"free"},{"bike_id":"b8f295a9-10f8-4746-b4a0-4491480d1fc4","system_id":"levelo_inurba_marseille","lat":43.231919,"lon":5.355532,"is_reserved":false,"is_disabled":false,"rental_uris":{"android":"levelo://app?vid=b8f295a9-10f8-4746-b4a0-4491480d1fc4","ios":"levelo://app?vid=b8f295a9-10f8-4746-b4a0-4491480d1fc4"},"vehicle_type_id":"4","last_reported":1701615981,"current_range_meters":20400,"station_id":"ce4bhu92rcd13ifvqi70","pricing_plan_id":"free"},{"bike_id":"177a82e2-68da-4975-a68b-b32649f3d1f2","system_id":"levelo_inurba_marseille","lat":43.231923,"lon":5.355545,"is_reserved":false,"is_disabled":false,"rental_uris":{"android":"levelo://app?vid=177a82e2-68da-4975-a68b-b32649f3d1f2","ios":"levelo://app?vid=177a82e2-68da-4975-a68b-b32649f3d1f2"},"vehicle_type_id":"4","last_reported":1701615981,"current_range_meters":8400,"station_id":"ce4bhu92rcd13ifvqi70","pricing_plan_id":"free"},{"bike_id":"9ffe877b-c290-40c4-b556-ee0733afb38c","system_id":"levelo_inurba_marseille","lat":43.231919,"lon":5.355532,"is_reserved":false,"is_disabled":false,"rental_uris":{"android":"levelo://app?vid=9ffe877b-c290-40c4-b556-ee0733afb38c","ios":"levelo://app?vid=9ffe877b-c290-40c4-b556-ee0733afb38c"},"vehicle_type_id":"4","last_reported":1701615981,"current_range_meters":8800,"station_id":"ce4bhu92rcd13ifvqi70","pricing_plan_id":"free"},{"bike_id":"4af7b0be-db53-4fba-a21b-0be3d2f36906","system_id":"levelo_inurba_marseille","lat":43.231919,"lon":5.355532,"is_reserved":false,"is_disabled":false,"rental_uris":{"android":"levelo://app?vid=4af7b0be-db53-4fba-a21b-0be3d2f36906","ios":"levelo://app?vid=4af7b0be-db53-4fba-a21b-0be3d2f36906"},"vehicle_type_id":"4","last_reported":1701615981,"current_range_meters":11200,"station_id":"ce4bhu92rcd13ifvqi70","pricing_plan_id":"free"},{"bike_id":"384a17af-27e8-4164-b8c0-d8b51c5b0eac","system_id":"levelo_inurba_marseille","lat":43.231923,"lon":5.355545,"is_reserved":false,"is_disabled":false,"rental_uris":{"android":"levelo://app?vid=384a17af-27e8-4164-b8c0-d8b51c5b0eac","ios":"levelo://app?vid=384a17af-27e8-4164-b8c0-d8b51c5b0eac"},"vehicle_type_id":"4","last_reported":1701615981,"current_range_meters":7200,"station_id":"ce4bhu92rcd13ifvqi70","pricing_plan_id":"free"},{"bike_id":"9e01ee59-41e6-425c-ae1f-3e33312fefcd","system_id":"levelo_inurba_marseille","lat":43.231923,"lon":5.355545,"is_reserved":false,"is_disabled":false,"rental_uris":{"android":"levelo://app?vid=9e01ee59-41e6-425c-ae1f-3e33312fefcd","ios":"levelo://app?vid=9e01ee59-41e6-425c-ae1f-3e33312fefcd"},"vehicle_type_id":"4","last_reported":1701615981,"current_range_meters":16400,"station_id":"ce4bhu92rcd13ifvqi70","pricing_plan_id":"free"},{"bike_id":"c384cc79-d05c-49b7-9293-603bcf5d3796","system_id":"levelo_inurba_marseille","lat":43.231919,"lon":5.355532,"is_reserved":false,"is_disabled":false,"rental_uris":{"android":"levelo://app?vid=c384cc79-d05c-49b7-9293-603bcf5d3796","ios":"levelo://app?vid=c384cc79-d05c-49b7-9293-603bcf5d3796"},"vehicle_type_id":"4","last_reported":1701615981,"current_range_meters":6400,"station_id":"ce4bhu92rcd13ifvqi70","pricing_plan_id":"free"},{"bike_id":"d0b35396-6769-42d4-8160-8b44cb829902","system_id":"levelo_inurba_marseille","lat":43.231882,"lon":5.399824,"is_reserved":false,"is_disabled":false,"rental_uris":{"android":"levelo://app?vid=d0b35396-6769-42d4-8160-8b44cb829902","ios":"levelo://app?vid=d0b35396-6769-42d4-8160-8b44cb829902"},"vehicle_type_id":"4","last_reported":1701615981,"current_range_meters":29200,"station_id":"ce4bhn12rcd13ifvqgqg","pricing_plan_id":"free"},{"bike_id":"22bd98e3-c33f-4c44-ae2b-f96729d36f4f","system_id":"levelo_inurba_marseille","lat":43.231793,"lon":5.400044,"is_reserved":false,"is_disabled":false,"rental_uris":{"android":"levelo://app?vid=22bd98e3-c33f-4c44-ae2b-f96729d36f4f","ios":"levelo://app?vid=22bd98e3-c33f-4c44-ae2b-f96729d36f4f"},"vehicle_type_id":"4","last_reported":1701615981,"current_range_meters":30800,"station_id":"ce4bhn12rcd13ifvqgqg","pricing_plan_id":"free"},{"bike_id":"d7955d6f-88ae-4e83-97c1-4a0668d076f6","system_id":"levelo_inurba_marseille","lat":43.23188,"lon":5.39986,"is_reserved":false,"is_disabled":false,"rental_uris":{"android":"levelo://app?vid=d7955d6f-88ae-4e83-97c1-4a0668d076f6","ios":"levelo://app?vid=d7955d6f-88ae-4e83-97c1-4a0668d076f6"},"vehicle_type_id":"4","last_reported":1701615981,"current_range_meters":18400,"station_id":"ce4bhn12rcd13ifvqgqg","pricing_plan_id":"free"},{"bike_id":"a926f4bb-1e59-4822-80ea-1d5ff6f2a5c5","system_id":"levelo_inurba_marseille","lat":43.231869,"lon":5.39984,"is_reserved":false,"is_disabled":false,"rental_uris":{"android":"levelo://app?vid=a926f4bb-1e59-4822-80ea-1d5ff6f2a5c5","ios":"levelo://app?vid=a926f4bb-1e59-4822-80ea-1d5ff6f2a5c5"},"vehicle_type_id":"4","last_reported":1701615981,"current_range_meters":14400,"station_id":"ce4bhn12rcd13ifvqgqg","pricing_plan_id":"free"},{"bike_id":"e47e98e0-4256-4c41-ae86-e531a41b9213","system_id":"levelo_inurba_marseille","lat":43.231794,"lon":5.400052,"is_reserved":false,"is_disabled":false,"rental_uris":{"android":"levelo://app?vid=e47e98e0-4256-4c41-ae86-e531a41b9213","ios":"levelo://app?vid=e47e98e0-4256-4c41-ae86-e531a41b9213"},"vehicle_type_id":"4","last_reported":1701615981,"current_range_meters":31600,"station_id":"ce4bhn12rcd13ifvqgqg","pricing_plan_id":"free"},{"bike_id":"77b1a551-da7f-429a-980e-bfc6767a5958","system_id":"levelo_inurba_marseille","lat":43.231794,"lon":5.400052,"is_reserved":false,"is_disabled":false,"rental_uris":{"android":"levelo://app?vid=77b1a551-da7f-429a-980e-bfc6767a5958","ios":"levelo://app?vid=77b1a551-da7f-429a-980e-bfc6767a5958"},"vehicle_type_id":"4","last_reported":1701615981,"current_range_meters":31600,"station_id":"ce4bhn12rcd13ifvqgqg","pricing_plan_id":"free"},{"bike_id":"88cf855f-bb31-40e0-8afc-686df3c193ab","system_id":"levelo_inurba_marseille","lat":43.231794,"lon":5.400052,"is_reserved":false,"is_disabled":false,"rental_uris":{"android":"levelo://app?vid=88cf855f-bb31-40e0-8afc-686df3c193ab","ios":"levelo://app?vid=88cf855f-bb31-40e0-8afc-686df3c193ab"},"vehicle_type_id":"4","last_reported":1701615981,"current_range_meters":28400,"station_id":"ce4bhn12rcd13ifvqgqg","pricing_plan_id":"free"},{"bike_id":"3fdd6789-d52a-4c7f-96f4-f754cbf436d6","system_id":"levelo_inurba_marseille","lat":43.23183,"lon":5.39977,"is_reserved":false,"is_disabled":false,"rental_uris":{"android":"levelo://app?vid=3fdd6789-d52a-4c7f-96f4-f754cbf436d6","ios":"levelo://app?vid=3fdd6789-d52a-4c7f-96f4-f754cbf436d6"},"vehicle_type_id":"4","last_reported":1701615981,"current_range_meters":11600,"station_id":"ce4bhn12rcd13ifvqgqg","pricing_plan_id":"free"},{"bike_id":"6bd9f065-50d9-4657-9ca0-a006f413d305","system_id":"levelo_inurba_marseille","lat":43.231794,"lon":5.400052,"is_reserved":false,"is_disabled":false,"rental_uris":{"android":"levelo://app?vid=6bd9f065-50d9-4657-9ca0-a006f413d305","ios":"levelo://app?vid=6bd9f065-50d9-4657-9ca0-a006f413d305"},"vehicle_type_id":"4","last_reported":1701615981,"current_range_meters":31600,"station_id":"ce4bhn12rcd13ifvqgqg","pricing_plan_id":"free"},{"bike_id":"ddecb7a7-8295-4a56-96b7-ae63ab6d05c4","system_id":"levelo_inurba_marseille","lat":43.231794,"lon":5.400052,"is_reserved":false,"is_disabled":false,"rental_uris":{"android":"levelo://app?vid=ddecb7a7-8295-4a56-96b7-ae63ab6d05c4","ios":"levelo://app?vid=ddecb7a7-8295-4a56-96b7-ae63ab6d05c4"},"vehicle_type_id":"4","last_reported":1701615981,"current_range_meters":20400,"station_id":"ce4bhn12rcd13ifvqgqg","pricing_plan_id":"free"},{"bike_id":"d8ad9864-eb6b-4faa-b8e1-e2e245ce7f97","system_id":"levelo_inurba_marseille","lat":43.231838,"lon":5.399915,"is_reserved":false,"is_disabled":false,"rental_uris":{"android":"levelo://app?vid=d8ad9864-eb6b-4faa-b8e1-e2e245ce7f97","ios":"levelo://app?vid=d8ad9864-eb6b-4faa-b8e1-e2e245ce7f97"},"vehicle_type_id":"4","last_reported":1701615981,"current_range_meters":15600,"station_id":"ce4bhn12rcd13ifvqgqg","pricing_plan_id":"free"},{"bike_id":"2092464b-8954-4543-ac05-5b3b32c340ef","system_id":"levelo_inurba_marseille","lat":43.23182,"lon":5.39985,"is_reserved":false,"is_disabled":false,"rental_uris":{"android":"levelo://app?vid=2092464b-8954-4543-ac05-5b3b32c340ef","ios":"levelo://app?vid=2092464b-8954-4543-ac05-5b3b32c340ef"},"vehicle_type_id":"4","last_reported":1701615981,"current_range_meters":23200,"station_id":"ce4bhn12rcd13ifvqgqg","pricing_plan_id":"free"},{"bike_id":"3ca2546c-f9ed-464d-b941-53a82f5e8048","system_id":"levelo_inurba_marseille","lat":43.231794,"lon":5.400052,"is_reserved":false,"is_disabled":false,"rental_uris":{"android":"levelo://app?vid=3ca2546c-f9ed-464d-b941-53a82f5e8048","ios":"levelo://app?vid=3ca2546c-f9ed-464d-b941-53a82f5e8048"},"vehicle_type_id":"4","last_reported":1701615981,"current_range_meters":10000,"station_id":"ce4bhn12rcd13ifvqgqg","pricing_plan_id":"free"},{"bike_id":"c254a53a-e90d-4047-8753-6835b99d333e","system_id":"levelo_inurba_marseille","lat":43.23184,"lon":5.40001,"is_reserved":false,"is_disabled":false,"rental_uris":{"android":"levelo://app?vid=c254a53a-e90d-4047-8753-6835b99d333e","ios":"levelo://app?vid=c254a53a-e90d-4047-8753-6835b99d333e"},"vehicle_type_id":"4","last_reported":1701615981,"current_range_meters":14400,"station_id":"ce4bhn12rcd13ifvqgqg","pricing_plan_id":"free"},{"bike_id":"457c552c-8af5-4b7b-9f6b-8c901265a623","system_id":"levelo_inurba_marseille","lat":43.231809,"lon":5.399905,"is_reserved":false,"is_disabled":false,"rental_uris":{"android":"levelo://app?vid=457c552c-8af5-4b7b-9f6b-8c901265a623","ios":"levelo://app?vid=457c552c-8af5-4b7b-9f6b-8c901265a623"},"vehicle_type_id":"4","last_reported":1701615981,"current_range_meters":28000,"station_id":"ce4bhn12rcd13ifvqgqg","pricing_plan_id":"free"},{"bike_id":"118d4a35-86b4-49cc-8abc-987caa7ffe62","system_id":"levelo_inurba_marseille","lat":43.23182,"lon":5.4,"is_reserved":false,"is_disabled":false,"rental_uris":{"android":"levelo://app?vid=118d4a35-86b4-49cc-8abc-987caa7ffe62","ios":"levelo://app?vid=118d4a35-86b4-49cc-8abc-987caa7ffe62"},"vehicle_type_id":"4","last_reported":1701615981,"current_range_meters":3600,"station_id":"ce4bhn12rcd13ifvqgqg","pricing_plan_id":"free"},{"bike_id":"4ee99995-f63f-4ddb-ac4b-88a5ee23324c","system_id":"levelo_inurba_marseille","lat":43.23175,"lon":5.39989,"is_reserved":false,"is_disabled":false,"rental_uris":{"android":"levelo://app?vid=4ee99995-f63f-4ddb-ac4b-88a5ee23324c","ios":"levelo://app?vid=4ee99995-f63f-4ddb-ac4b-88a5ee23324c"},"vehicle_type_id":"4","last_reported":1701615981,"current_range_meters":13200,"station_id":"ce4bhn12rcd13ifvqgqg","pricing_plan_id":"free"}]}}