{"last_updated":1715195168,"ttl":30,"version":"2.2","data":{"bikes":[{"bike_id":"7a00331a-79bf-4c56-9b72-117cb398a934","system_id":"levelo_inurba_marseille","lat":43.31341,"lon":5.367098,"is_reserved":false,"is_disabled":false,"rental_uris":{"android":"levelo://app?vid=7a00331a-79bf-4c56-9b72-117cb398a934","ios":"levelo://app?vid=7a00331a-79bf-4c56-9b72-117cb398a934"},"vehicle_type_id":"4","last_reported":1715195168,"current_range_meters":0,"station_id":"ce4bgr92rcd13ifvqc6g","pricing_plan_id":"cebpf4jnsgd1na2vs0mg"},{"bike_id":"7d1c3a7e-42b1-4e6a-93f4-8fa0ad9492c0","system_id":"levelo_inurba_marseille","lat":43.312376,"lon":5.368563,"is_reserved":false,"is_disabled":false,"rental_uris":{"android":"levelo://app?vid=7d1c3a7e-42b1-4e6a-93f4-8fa0ad9492c0","ios":"levelo://app?vid=7d1c3a7e-42b1-4e6a-93f4-8fa0ad9492c0"},"vehicle_type_id":"4","last_reported":1715195168,"current_range_meters":0,"station_id":"ce4bgl92rcd13ifvqbq0","pricing_plan_id":"cebpf4jnsgd1na2vs0mg"},{"bike_id":"f04de91d-144d-4d14-bb5e-80fb4ad89f46","system_id":"levelo_inurba_marseille","lat":43.312239,"lon":5.368562,"is_reserved":false,"is_disabled":false,"rental_uris":{"android":"levelo://app?vid=f04de91d-144d-4d14-bb5e-80fb4ad89f46","ios":"levelo://app?vid=f04de91d-144d-4d14-bb5e-80fb4ad89f46"},"vehicle_type_id":"4","last_reported":1715195168,"current_range_meters":20800,"station_id":"ce4bgl92rcd13ifvqbq0","pricing_plan_id":"cebpf4jnsgd1na2vs0mg"},{"bike_id":"40243396-5bfb-48ab-b99d-d854b49ed75f","system_id":"levelo_inurba_marseille","lat":43.31545,"lon":5.36866,"is_reserved":false,"is_disabled":false,"rental_uris":{"android":"levelo://app?vid=40243396-5bfb-48ab-b99d-d854b49ed75f","ios":"levelo://app?vid=40243396-5bfb-48ab-b99d-d854b49ed75f"},"vehicle_type_id":"4","last_reported":1715195168,"current_range_meters":15600,"station_id":"","pricing_plan_id":"cebpf4jnsgd1na2vs0mg"},{"bike_id":"7ecc3aef-2c6e-4608-af44-e24691f8a768","system_id":"levelo_inurba_marseille","lat":43.314811,"lon":5.373103,"is_reserved":false,"is_disabled":false,"rental_uris":{"android":"levelo://app?vid=7ecc3aef-2c6e-4608-af44-e24691f8a768","ios":"levelo://app?vid=7ecc3aef-2c6e-4608-af44-e24691f8a768"},"vehicle_type_id":"4","last_reported":1715195168,"current_range_meters":22800,"station_id":"ce4bgt12rcd13ifvqcd0","pricing_plan_id":"cebpf4jnsgd1na2vs0mg"},{"bike_id":"07367147-bbb2-4fbe-9517-54c06908b396","system_id":"levelo_inurba_marseille","lat":43.314811,"lon":5.373103,"is_reserved":false,"is_disabled":false,"rental_uris":{"android":"levelo://app?vid=07367147-bbb2-4fbe-9517-54c06908b396","ios":"levelo://app?vid=07367147-bbb2-4fbe-9517-54c06908b396"},"vehicle_type_id":"4","last_reported":1715195168,"current_range_meters":2400,"station_id":"ce4bgt12rcd13ifvqcd0","pricing_plan_id":"cebpf4jnsgd1na2vs0mg"},{"bike_id":"c90e369d-660e-40e7-83c7-49a31e149596","system_id":"levelo_inurba_marseille","lat":43.314811,"lon":5.373103,"is_reserved":false,"is_disabled":false,"rental_uris":{"android":"levelo://app?vid=c90e369d-660e-40e7-83c7-49a31e149596","ios":"levelo://app?vid=c90e369d-660e-40e7-83c7-49a31e149596"},"vehicle_type_id":"4","last_reported":1715195168,"current_range_meters":3600,"station_id":"ce4bgt12rcd13ifvqcd0","pricing_plan_id":"cebpf4jnsgd1na2vs0mg"},{"bike_id":"cdc2e6ca-69ec-4cec-9697-2c0dd9fceab0","system_id":"levelo_inurba_marseille","lat":43.314811,"lon":5.373104,"is_reserved":false,"is_disabled":false,"rental_uris":{"android":"levelo://app?vid=cdc2e6ca-69ec-4cec-9697-2c0dd9fceab0","ios":"levelo://app?vid=cdc2e6ca-69ec-4cec-9697-2c0dd9fceab0"},"vehicle_type_id":"4","last_reported":1715195168,"current_range_meters":6800,"station_id":"ce4bgt12rcd13ifvqcd0","pricing_plan_id":"cebpf4jnsgd1na2vs0mg"},{"bike_id":"ad546a67-a92c-4416-a2e7-4ef5ec5c4985","system_id":"levelo_inurba_marseille","lat":43.30537,"lon":5.367345,"is_reserved":false,"is_disabled":false,"rental_uris":{"android":"levelo://app?vid=ad546a67-a92c-4416-a2e7-4ef5ec5c4985","ios":"levelo://app?vid=ad546a67-a92c-4416-a2e7-4ef5ec5c4985"},"vehicle_type_id":"4","last_reported":1715195168,"current_range_meters":0,"station_id":"ce4bgrp2rcd13ifvqc9g","pricing_plan_id":"cebpf4jnsgd1na2vs0mg"},{"bike_id":"8b255a91-54f7-493f-a52e-1f7ed6241ef5","system_id":"levelo_inurba_marseille","lat":43.30537,"lon":5.367345,"is_reserved":false,"is_disabled":false,"rental_uris":{"android":"levelo://app?vid=8b255a91-54f7-493f-a52e-1f7ed6241ef5","ios":"levelo://app?vid=8b255a91-54f7-493f-a52e-1f7ed6241ef5"},"vehicle_type_id":"4","last_reported":1715195168,"current_range_meters":7200,"station_id":"ce4bgrp2rcd13ifvqc9g","pricing_plan_id":"cebpf4jnsgd1na2vs0mg"},{"bike_id":"10371d36-1b17-4431-9ea6-277dab61fa98","system_id":"levelo_inurba_marseille","lat":43.305706,"lon":5.365654,"is_reserved":false,"is_disabled":false,"rental_uris":{"android":"levelo://app?vid=10371d36-1b17-4431-9ea6-277dab61fa98","ios":"levelo://app?vid=10371d36-1b17-4431-9ea6-277dab61fa98"},"vehicle_type_id":"4","last_reported":1715195168,"current_range_meters":0,"station_id":"ce4bgs12rcd13ifvqcag","pricing_plan_id":"cebpf4jnsgd1na2vs0mg"},{"bike_id":"7d09f408-a272-4e3b-9935-470cb34b6fb5","system_id":"levelo_inurba_marseille","lat":43.314811,"lon":5.373103,"is_reserved":false,"is_disabled":false,"rental_uris":{"android":"levelo://app?vid=7d09f408-a272-4e3b-9935-470cb34b6fb5","ios":"levelo://app?vid=7d09f408-a272-4e3b-9935-470cb34b6fb5"},"vehicle_type_id":"4","last_reported":1715195168,"current_range_meters":6400,"station_id":"ce4bgt12rcd13ifvqcd0","pricing_plan_id":"cebpf4jnsgd1na2vs0mg"},{"bike_id":"98b6a721-1c33-4445-bb88-b78c4457ed9d","system_id":"levelo_inurba_marseille","lat":43.305989,"lon":5.37225,"is_reserved":false,"is_disabled":false,"rental_uris":{"android":"levelo://app?vid=98b6a721-1c33-4445-bb88-b78c4457ed9d","ios":"levelo://app?vid=98b6a721-1c33-4445-bb88-b78c4457ed9d"},"vehicle_type_id":"4","last_reported":1715195168,"current_range_meters":13200,"station_id":"ce4bgqh2rcd13ifvqc4g","pricing_plan_id":"cebpf4jnsgd1na2vs0mg"},{"bike_id":"e7b7ec64-6716-4d9b-ae03-f88d77a4225b","system_id":"levelo_inurba_marseille","lat":43.30595,"lon":5.37216,"is_reserved":false,"is_disabled":false,"rental_uris":{"android":"levelo://app?vid=e7b7ec64-6716-4d9b-ae03-f88d77a4225b","ios":"levelo://app?vid=e7b7ec64-6716-4d9b-ae03-f88d77a4225b"},"vehicle_type_id":"4","last_reported":1715195168,"current_range_meters":8800,"station_id":"ce4bgqh2rcd13ifvqc4g","pricing_plan_id":"cebpf4jnsgd1na2vs0mg"},{"bike_id":"63cb72e7-ddc9-43bb-9704-4b1ebed2dceb","system_id":"levelo_inurba_marseille","lat":43.305989,"lon":5.37225,"is_reserved":false,"is_disabled":false,"rental_uris":{"android":"levelo://app?vid=63cb72e7-ddc9-43bb-9704-4b1ebed2dceb","ios":"levelo://app?vid=63cb72e7-ddc9-43bb-9704-4b1ebed2dceb"},"vehicle_type_id":"4","last_reported":1715195168,"current_range_meters":2800,"station_id":"ce4bgqh2rcd13ifvqc4g","pricing_plan_id":"cebpf4jnsgd1na2vs0mg"},{"bike_id":"bf7d3ca0-7d23-49c9-bbc9-b4166a46cd64","system_id":"levelo_inurba_marseille","lat":43.305989,"lon":5.37225,"is_reserved":false,"is_disabled":false,"rental_uris":{"android":"levelo://app?vid=bf7d3ca0-7d23-49c9-bbc9-b4166a46cd64","ios":"levelo://app?vid=bf7d3ca0-7d23-49c9-bbc9-b4166a46cd64"},"vehicle_type_id":"4","last_reported":1715195168,"current_range_meters":12800,"station_id":"ce4bgqh2rcd13ifvqc4g","pricing_plan_id":"cebpf4jnsgd1na2vs0mg"},{"bike_id":"7a16b413-476e-4a35-811f-632bdbbf720c","system_id":"levelo_inurba_marseille","lat":43.305989,"lon":5.37225,"is_reserved":false,"is_disabled":false,"rental_uris":{"android":"levelo://app?vid=7a16b413-476e-4a35-811f-632bdbbf720c","ios":"levelo://app?vid=7a16b413-476e-4a35-811f-632bdbbf720c"},"vehicle_type_id":"4","last_reported":1715195168,"current_range_meters":6800,"station_id":"ce4bgqh2rcd13ifvqc4g","pricing_plan_id":"cebpf4jnsgd1na2vs0mg"},{"bike_id":"3b41361d-acd1-426f-920b-1a33675967c1","system_id":"levelo_inurba_marseille","lat":43.311276,"lon":5.377626,"is_reserved":false,"is_disabled":false,"rental_uris":{"android":"levelo://app?vid=3b41361d-acd1-426f-920b-1a33675967c1","ios":"levelo://app?vid=3b41361d-acd1-426f-920b-1a33675967c1"},"vehicle_type_id":"4","last_reported":1715195168,"current_range_meters":0,"station_id":"ce4bgt92rcd13ifvqcg0","pricing_plan_id":"cebpf4jnsgd1na2vs0mg"},{"bike_id":"ab955db0-50c2-4514-a5fc-a5551c4908a7","system_id":"levelo_inurba_marseille","lat":43.3112,"lon":5.37768,"is_reserved":false,"is_disabled":false,"rental_uris":{"android":"levelo://app?vid=ab955db0-50c2-4514-a5fc-a5551c4908a7","ios":"levelo://app?vid=ab955db0-50c2-4514-a5fc-a5551c4908a7"},"vehicle_type_id":"4","last_reported":1715195168,"current_range_meters":0,"station_id":"ce4bgt92rcd13ifvqcg0","pricing_plan_id":"cebpf4jnsgd1na2vs0mg"},{"bike_id":"ca790ff2-c0d2-455d-8e58-e31651792eef","system_id":"levelo_inurba_marseille","lat":43.311125,"lon":5.377624,"is_reserved":false,"is_disabled":false,"rental_uris":{"android":"levelo://app?vid=ca790ff2-c0d2-455d-8e58-e31651792eef","ios":"levelo://app?vid=ca790ff2-c0d2-455d-8e58-e31651792eef"},"vehicle_type_id":"4","last_reported":1715195168,"current_range_meters":10400,"station_id":"ce4bgt92rcd13ifvqcg0","pricing_plan_id":"cebpf4jnsgd1na2vs0mg"},{"bike_id":"ac3e5fe4-80dc-41a7-9bdf-fa5674aa59e8","system_id":"levelo_inurba_marseille","lat":43.307945,"lon":5.376487,"is_reserved":false,"is_disabled":false,"rental_uris":{"android":"levelo://app?vid=ac3e5fe4-80dc-41a7-9bdf-fa5674aa59e8","ios":"levelo://app?vid=ac3e5fe4-80dc-41a7-9bdf-fa5674aa59e8"},"vehicle_type_id":"4","last_reported":1715195168,"current_range_meters":400,"station_id":"ce4bgv92rcd13ifvqcq0","pricing_plan_id":"cebpf4jnsgd1na2vs0mg"},{"bike_id":"8be7ad7b-9e73-4170-9811-7f09ca9edd67","system_id":"levelo_inurba_marseille","lat":43.305124,"lon":5.371852,"is_reserved":false,"is_disabled":false,"rental_uris":{"android":"levelo://app?vid=8be7ad7b-9e73-4170-9811-7f09ca9edd67","ios":"levelo://app?vid=8be7ad7b-9e73-4170-9811-7f09ca9edd67"},"vehicle_type_id":"4","last_reported":1715195168,"current_range_meters":7200,"station_id":"","pricing_plan_id":"cebpf4jnsgd1na2vs0mg"},{"bike_id":"44b8e7c8-acbb-49af-9267-c69e1b9e1403","system_id":"levelo_inurba_marseille","lat":43.307945,"lon":5.376487,"is_reserved":false,"is_disabled":false,"rental_uris":{"android":"levelo://app?vid=44b8e7c8-acbb-49af-9267-c69e1b9e1403","ios":"levelo://app?vid=44b8e7c8-acbb-49af-9267-c69e1b9e1403"},"vehicle_type_id":"4","last_reported":1715195168,"current_range_meters":29600,"station_id":"ce4bgv92rcd13ifvqcq0","pricing_plan_id":"cebpf4jnsgd1na2vs0mg"},{"bike_id":"a8420d12-5ea1-4553-ba77-74153419b9a1","system_id":"levelo_inurba_marseille","lat":43.307945,"lon":5.376487,"is_reserved":false,"is_disabled":false,"rental_uris":{"android":"levelo://app?vid=a8420d12-5ea1-4553-ba77-74153419b9a1","ios":"levelo://app?vid=a8420d12-5ea1-4553-ba77-74153419b9a1"},"vehicle_type_id":"4","last_reported":1715195168,"current_range_meters":31200,"station_id":"ce4bgv92rcd13ifvqcq0","pricing_plan_id":"cebpf4jnsgd1na2vs0mg"},{"bike_id":"9345ee18-755a-4a63-938f-fab987b0bed8","system_id":"levelo_inurba_marseille","lat":43.317075,"lon":5.377367,"is_reserved":false,"is_disabled":false,"rental_uris":{"android":"levelo://app?vid=9345ee18-755a-4a63-938f-fab987b0bed8","ios":"levelo://app?vid=9345ee18-755a-4a63-938f-fab987b0bed8"},"vehicle_type_id":"4","last_reported":1715195168,"current_range_meters":10000,"station_id":"ce4bgth2rcd13ifvqch0","pricing_plan_id":"cebpf4jnsgd1na2vs0mg"},{"bike_id":"dd29451b-61cc-4ba0-b55e-448aa5dd8cd5","system_id":"levelo_inurba_marseille","lat":43.317075,"lon":5.377367,"is_reserved":false,"is_disabled":false,"rental_uris":{"android":"levelo://app?vid=dd29451b-61cc-4ba0-b55e-448aa5dd8cd5","ios":"levelo://app?vid=dd29451b-61cc-4ba0-b55e-448aa5dd8cd5"},"vehicle_type_id":"4","last_reported":1715195168,"current_range_meters":24000,"station_id":"ce4bgth2rcd13ifvqch0","pricing_plan_id":"cebpf4jnsgd1na2vs0mg"},{"bike_id":"41a31254-f32b-4cf4-b4ba-b8e9006317a0","system_id":"levelo_inurba_marseille","lat":43.31531,"lon":5.38029,"is_reserved":false,"is_disabled":false,"rental_uris":{"android":"levelo://app?vid=41a31254-f32b-4cf4-b4ba-b8e9006317a0","ios":"levelo://app?vid=41a31254-f32b-4cf4-b4ba-b8e9006317a0"},"vehicle_type_id":"4","last_reported":1715195168,"current_range_meters":0,"station_id":"ce4bhsp2rcd13ifvqi50","pricing_plan_id":"cebpf4jnsgd1na2vs0mg"},{"bike_id":"66f2f05d-667e-458b-964f-da0bf7b787c3","system_id":"levelo_inurba_marseille","lat":43.315289,"lon":5.380349,"is_reserved":false,"is_disabled":false,"rental_uris":{"android":"levelo://app?vid=66f2f05d-667e-458b-964f-da0bf7b787c3","ios":"levelo://app?vid=66f2f05d-667e-458b-964f-da0bf7b787c3"},"vehicle_type_id":"4","last_reported":1715195168,"current_range_meters":13200,"station_id":"ce4bhsp2rcd13ifvqi50","pricing_plan_id":"cebpf4jnsgd1na2vs0mg"},{"bike_id":"c9145a23-3201-41bc-9201-cc1c2a0f8a15","system_id":"levelo_inurba_marseille","lat":43.315293,"lon":5.380349,"is_reserved":false,"is_disabled":false,"rental_uris":{"android":"levelo://app?vid=c9145a23-3201-41bc-9201-cc1c2a0f8a15","ios":"levelo://app?vid=c9145a23-3201-41bc-9201-cc1c2a0f8a15"},"vehicle_type_id":"4","last_reported":1715195168,"current_range_meters":6000,"station_id":"ce4bhsp2rcd13ifvqi50","pricing_plan_id":"cebpf4jnsgd1na2vs0mg"},{"bike_id":"497183ce-044a-47f4-8c06-a69faa27f719","system_id":"levelo_inurba_marseille","lat":43.30178,"lon":5.36618,"is_reserved":false,"is_disabled":false,"rental_uris":{"android":"levelo://app?vid=497183ce-044a-47f4-8c06-a69faa27f719","ios":"levelo://app?vid=497183ce-044a-47f4-8c06-a69faa27f719"},"vehicle_type_id":"4","last_reported":1715195168,"current_range_meters":0,"station_id":"ce4bgrh2rcd13ifvqc8g","pricing_plan_id":"cebpf4jnsgd1na2vs0mg"},{"bike_id":"2c66f628-f628-46a6-88a5-968d84b5d14f","system_id":"levelo_inurba_marseille","lat":43.308012,"lon":5.381511,"is_reserved":false,"is_disabled":false,"rental_uris":{"android":"levelo://app?vid=2c66f628-f628-46a6-88a5-968d84b5d14f","ios":"levelo://app?vid=2c66f628-f628-46a6-88a5-968d84b5d14f"},"vehicle_type_id":"4","last_reported":1715195168,"current_range_meters":16800,"station_id":"ce4bgt12rcd13ifvqce0","pricing_plan_id":"cebpf4jnsgd1na2vs0mg"},{"bike_id":"5d630c2f-883a-4aec-86e0-859907c1e775","system_id":"levelo_inurba_marseille","lat":43.308012,"lon":5.381511,"is_reserved":false,"is_disabled":false,"rental_uris":{"android":"levelo://app?vid=5d630c2f-883a-4aec-86e0-859907c1e775","ios":"levelo://app?vid=5d630c2f-883a-4aec-86e0-859907c1e775"},"vehicle_type_id":"4","last_reported":1715195168,"current_range_meters":0,"station_id":"ce4bgt12rcd13ifvqce0","pricing_plan_id":"cebpf4jnsgd1na2vs0mg"},{"bike_id":"5e47772f-5b75-48e2-9905-9378ab502943","system_id":"levelo_inurba_marseille","lat":43.308012,"lon":5.381511,"is_reserved":false,"is_disabled":false,"rental_uris":{"android":"levelo://app?vid=5e47772f-5b75-48e2-9905-9378ab502943","ios":"levelo://app?vid=5e47772f-5b75-48e2-9905-9378ab502943"},"vehicle_type_id":"4","last_reported":1715195168,"current_range_meters":6800,"station_id":"ce4bgt12rcd13ifvqce0","pricing_plan_id":"cebpf4jnsgd1na2vs0mg"},{"bike_id":"9ee5dac7-3637-481a-b893-883d00617c46","system_id":"levelo_inurba_marseille","lat":43.308012,"lon":5.381511,"is_reserved":false,"is_disabled":false,"rental_uris":{"android":"levelo://app?vid=9ee5dac7-3637-481a-b893-883d00617c46","ios":"levelo://app?vid=9ee5dac7-3637-481a-b893-883d00617c46"},"vehicle_type_id":"4","last_reported":1715195168,"current_range_meters":0,"station_id":"ce4bgt12rcd13ifvqce0","pricing_plan_id":"cebpf4jnsgd1na2vs0mg"},{"bike_id":"c5d44341-e511-4f26-a5f4-31d59799e3ca","system_id":"levelo_inurba_marseille","lat":43.308012,"lon":5.381511,"is_reserved":false,"is_disabled":false,"rental_uris":{"android":"levelo://app?vid=c5d44341-e511-4f26-a5f4-31d59799e3ca","ios":"levelo://app?vid=c5d44341-e511-4f26-a5f4-31d59799e3ca"},"vehicle_type_id":"4","last_reported":1715195168,"current_range_meters":800,"station_id":"ce4bgt12rcd13ifvqce0","pricing_plan_id":"cebpf4jnsgd1na2vs0mg"},{"bike_id":"86d64a5a-7921-408b-b126-12046637d244","system_id":"levelo_inurba_marseille","lat":43.308012,"lon":5.381511,"is_reserved":false,"is_disabled":false,"rental_uris":{"android":"levelo://app?vid=86d64a5a-7921-408b-b126-12046637d244","ios":"levelo://app?vid=86d64a5a-7921-408b-b126-12046637d244"},"vehicle_type_id":"4","last_reported":1715195168,"current_range_meters":2800,"station_id":"ce4bgt12rcd13ifvqce0","pricing_plan_id":"cebpf4jnsgd1na2vs0mg"},{"bike_id":"4ed8c3e1-4d01-47e2-b5d9-c033e6a5f7ec","system_id":"levelo_inurba_marseille","lat":43.304606,"lon":5.379026,"is_reserved":false,"is_disabled":false,"rental_uris":{"android":"levelo://app?vid=4ed8c3e1-4d01-47e2-b5d9-c033e6a5f7ec","ios":"levelo://app?vid=4ed8c3e1-4d01-47e2-b5d9-c033e6a5f7ec"},"vehicle_type_id":"4","last_reported":1715195168,"current_range_meters":2800,"station_id":"ce4bgup2rcd13ifvqcn0","pricing_plan_id":"cebpf4jnsgd1na2vs0mg"},{"bike_id":"cb344626-9ea8-4b2e-845c-744a370903db","system_id":"levelo_inurba_marseille","lat":43.304606,"lon":5.379026,"is_reserved":false,"is_disabled":false,"rental_uris":{"android":"levelo://app?vid=cb344626-9ea8-4b2e-845c-744a370903db","ios":"levelo://app?vid=cb344626-9ea8-4b2e-845c-744a370903db"},"vehicle_type_id":"4","last_reported":1715195168,"current_range_meters":23200,"station_id":"ce4bgup2rcd13ifvqcn0","pricing_plan_id":"cebpf4jnsgd1na2vs0mg"},{"bike_id":"34169569-9d9c-4b29-9684-7af62943db30","system_id":"levelo_inurba_marseille","lat":43.304606,"lon":5.379026,"is_reserved":false,"is_disabled":false,"rental_uris":{"android":"levelo://app?vid=34169569-9d9c-4b29-9684-7af62943db30","ios":"levelo://app?vid=34169569-9d9c-4b29-9684-7af62943db30"},"vehicle_type_id":"4","last_reported":1715195168,"current_range_meters":20000,"station_id":"ce4bgup2rcd13ifvqcn0","pricing_plan_id":"cebpf4jnsgd1na2vs0mg"},{"bike_id":"7644a376-20e5-4986-8c87-20f74f570291","system_id":"levelo_inurba_marseille","lat":43.304606,"lon":5.379026,"is_reserved":false,"is_disabled":false,"rental_uris":{"android":"levelo://app?vid=7644a376-20e5-4986-8c87-20f74f570291","ios":"levelo://app?vid=7644a376-20e5-4986-8c87-20f74f570291"},"vehicle_type_id":"4","last_reported":1715195168,"current_range_meters":3600,"station_id":"ce4bgup2rcd13ifvqcn0","pricing_plan_id":"cebpf4jnsgd1na2vs0mg"},{"bike_id":"5d8f84e1-a9cc-45ac-bfa9-0af8364bece7","system_id":"levelo_inurba_marseille","lat":43.324788,"lon":5.365747,"is_reserved":false,"is_disabled":false,"rental_uris":{"android":"levelo://app?vid=5d8f84e1-a9cc-45ac-bfa9-0af8364bece7","ios":"levelo://app?vid=5d8f84e1-a9cc-45ac-bfa9-0af8364bece7"},"vehicle_type_id":"4","last_reported":1715195168,"current_range_meters":800,"station_id":"ce4bhs12rcd13ifvqhvg","pricing_plan_id":"cebpf4jnsgd1na2vs0mg"},{"bike_id":"ecbae52d-c76d-4d3a-a7e8-3be4b14cb268","system_id":"levelo_inurba_marseille","lat":43.324771,"lon":5.36557,"is_reserved":false,"is_disabled":false,"rental_uris":{"android":"levelo://app?vid=ecbae52d-c76d-4d3a-a7e8-3be4b14cb268","ios":"levelo://app?vid=ecbae52d-c76d-4d3a-a7e8-3be4b14cb268"},"vehicle_type_id":"4","last_reported":1715195168,"current_range_meters":15600,"station_id":"ce4bhs12rcd13ifvqhvg","pricing_plan_id":"cebpf4jnsgd1na2vs0mg"},{"bike_id":"148629b0-6bce-4112-8d0e-dace9efa6087","system_id":"levelo_inurba_marseille","lat":43.324794,"lon":5.365746,"is_reserved":false,"is_disabled":false,"rental_uris":{"android":"levelo://app?vid=148629b0-6bce-4112-8d0e-dace9efa6087","ios":"levelo://app?vid=148629b0-6bce-4112-8d0e-dace9efa6087"},"vehicle_type_id":"4","last_reported":1715195168,"current_range_meters":0,"station_id":"ce4bhs12rcd13ifvqhvg","pricing_plan_id":"cebpf4jnsgd1na2vs0mg"},{"bike_id":"d33d610d-1042-4c8c-94c1-9d4260cb3151","system_id":"levelo_inurba_marseille","lat":43.324771,"lon":5.36557,"is_reserved":false,"is_disabled":false,"rental_uris":{"android":"levelo://app?vid=d33d610d-1042-4c8c-94c1-9d4260cb3151","ios":"levelo://app?vid=d33d610d-1042-4c8c-94c1-9d4260cb3151"},"vehicle_type_id":"4","last_reported":1715195168,"current_range_meters":10400,"station_id":"ce4bhs12rcd13ifvqhvg","pricing_plan_id":"cebpf4jnsgd1na2vs0mg"},{"bike_id":"00f0da6a-8339-499e-b70c-f4da61db8bab","system_id":"levelo_inurba_marseille","lat":43.32483,"lon":5.36556,"is_reserved":false,"is_disabled":false,"rental_uris":{"android":"levelo://app?vid=00f0da6a-8339-499e-b70c-f4da61db8bab","ios":"levelo://app?vid=00f0da6a-8339-499e-b70c-f4da61db8bab"},"vehicle_type_id":"4","last_reported":1715195168,"current_range_meters":4800,"station_id":"ce4bhs12rcd13ifvqhvg","pricing_plan_id":"cebpf4jnsgd1na2vs0mg"},{"bike_id":"8501de6a-3d56-45d4-a3cb-50933627b598","system_id":"levelo_inurba_marseille","lat":43.324771,"lon":5.36557,"is_reserved":false,"is_disabled":false,"rental_uris":{"android":"levelo://app?vid=8501de6a-3d56-45d4-a3cb-50933627b598","ios":"levelo://app?vid=8501de6a-3d56-45d4-a3cb-50933627b598"},"vehicle_type_id":"4","last_reported":1715195168,"current_range_meters":17600,"station_id":"ce4bhs12rcd13ifvqhvg","pricing_plan_id":"cebpf4jnsgd1na2vs0mg"},{"bike_id":"ddb4fac1-dd66-44e0-937e-3bf7b62822da","system_id":"levelo_inurba_marseille","lat":43.3249,"lon":5.36554,"is_reserved":false,"is_disabled":false,"rental_uris":{"android":"levelo://app?vid=ddb4fac1-dd66-44e0-937e-3bf7b62822da","ios":"levelo://app?vid=ddb4fac1-dd66-44e0-937e-3bf7b62822da"},"vehicle_type_id":"4","last_reported":1715195168,"current_range_meters":15200,"station_id":"ce4bhs12rcd13ifvqhvg","pricing_plan_id":"cebpf4jnsgd1na2vs0mg"},{"bike_id":"20b694db-c43b-4444-82d1-595705e32c7e","system_id":"levelo_inurba_marseille","lat":43.31076,"lon":5.38355,"is_reserved":false,"is_disabled":false,"rental_uris":{"android":"levelo://app?vid=20b694db-c43b-4444-82d1-595705e32c7e","ios":"levelo://app?vid=20b694db-c43b-4444-82d1-595705e32c7e"},"vehicle_type_id":"4","last_reported":1715195168,"current_range_meters":8800,"station_id":"ce4bgv92rcd13ifvqcr0","pricing_plan_id":"cebpf4jnsgd1na2vs0mg"},{"bike_id":"cfd64fea-c863-4f36-944f-7a9b9aa6ea05","system_id":"levelo_inurba_marseille","lat":43.310712,"lon":5.383569,"is_reserved":false,"is_disabled":false,"rental_uris":{"android":"levelo://app?vid=cfd64fea-c863-4f36-944f-7a9b9aa6ea05","ios":"levelo://app?vid=cfd64fea-c863-4f36-944f-7a9b9aa6ea05"},"vehicle_type_id":"4","last_reported":1715195168,"current_range_meters":0,"station_id":"ce4bgv92rcd13ifvqcr0","pricing_plan_id":"cebpf4jnsgd1na2vs0mg"},{"bike_id":"8bdfed42-5584-49db-9141-7f6715fb780e","system_id":"levelo_inurba_marseille","lat":43.31359,"lon":5.38491,"is_reserved":false,"is_disabled":false,"rental_uris":{"android":"levelo://app?vid=8bdfed42-5584-49db-9141-7f6715fb780e","ios":"levelo://app?vid=8bdfed42-5584-49db-9141-7f6715fb780e"},"vehicle_type_id":"4","last_reported":1715195168,"current_range_meters":2800,"station_id":"ce4bgt92rcd13ifvqcf0","pricing_plan_id":"cebpf4jnsgd1na2vs0mg"},{"bike_id":"734abee8-1876-4037-8498-b3a6ba1467ab","system_id":"levelo_inurba_marseille","lat":43.313571,"lon":5.384829,"is_reserved":false,"is_disabled":false,"rental_uris":{"android":"levelo://app?vid=734abee8-1876-4037-8498-b3a6ba1467ab","ios":"levelo://app?vid=734abee8-1876-4037-8498-b3a6ba1467ab"},"vehicle_type_id":"4","last_reported":1715195168,"current_range_meters":26800,"station_id":"ce4bgt92rcd13ifvqcf0","pricing_plan_id":"cebpf4jnsgd1na2vs0mg"},{"bike_id":"c9617f18-b0d6-41a9-9fdd-2f396b2cd843","system_id":"levelo_inurba_marseille","lat":43.29935,"lon":5.36535,"is_reserved":false,"is_disabled":false,"rental_uris":{"android":"levelo://app?vid=c9617f18-b0d6-41a9-9fdd-2f396b2cd843","ios":"levelo://app?vid=c9617f18-b0d6-41a9-9fdd-2f396b2cd843"},"vehicle_type_id":"4","last_reported":1715195168,"current_range_meters":0,"station_id":"ce4bgm92rcd13ifvqbr0","pricing_plan_id":"cebpf4jnsgd1na2vs0mg"},{"bike_id":"2775a3b6-38f2-4465-b6a2-f367ff2b3961","system_id":"levelo_inurba_marseille","lat":43.31346,"lon":5.385415,"is_reserved":false,"is_disabled":false,"rental_uris":{"android":"levelo://app?vid=2775a3b6-38f2-4465-b6a2-f367ff2b3961","ios":"levelo://app?vid=2775a3b6-38f2-4465-b6a2-f367ff2b3961"},"vehicle_type_id":"4","last_reported":1715195168,"current_range_meters":8400,"station_id":"ce4bgt92rcd13ifvqcf0","pricing_plan_id":"cebpf4jnsgd1na2vs0mg"},{"bike_id":"6c698a57-06cb-4701-bb85-c6ce18b97918","system_id":"levelo_inurba_marseille","lat":43.299222,"lon":5.365554,"is_reserved":false,"is_disabled":false,"rental_uris":{"android":"levelo://app?vid=6c698a57-06cb-4701-bb85-c6ce18b97918","ios":"levelo://app?vid=6c698a57-06cb-4701-bb85-c6ce18b97918"},"vehicle_type_id":"4","last_reported":1715195168,"current_range_meters":0,"station_id":"ce4bgm92rcd13ifvqbr0","pricing_plan_id":"cebpf4jnsgd1na2vs0mg"},{"bike_id":"66313a42-5939-4bee-a6be-aa2bcebf46fd","system_id":"levelo_inurba_marseille","lat":43.313424,"lon":5.385554,"is_reserved":false,"is_disabled":false,"rental_uris":{"android":"levelo://app?vid=66313a42-5939-4bee-a6be-aa2bcebf46fd","ios":"levelo://app?vid=66313a42-5939-4bee-a6be-aa2bcebf46fd"},"vehicle_type_id":"4","last_reported":1715195168,"current_range_meters":4800,"station_id":"ce4bgt92rcd13ifvqcf0","pricing_plan_id":"cebpf4jnsgd1na2vs0mg"},{"bike_id":"828d9873-baf9-4451-8e55-6af34275a891","system_id":"levelo_inurba_marseille","lat":43.305364,"lon":5.384119,"is_reserved":false,"is_disabled":false,"rental_uris":{"android":"levelo://app?vid=828d9873-baf9-4451-8e55-6af34275a891","ios":"levelo://app?vid=828d9873-baf9-4451-8e55-6af34275a891"},"vehicle_type_id":"4","last_reported":1715195168,"current_range_meters":22800,"station_id":"ce4bgg92rcd13ifvqb30","pricing_plan_id":"cebpf4jnsgd1na2vs0mg"},{"bike_id":"e0df471c-baeb-4edf-bb07-39cd77e86761","system_id":"levelo_inurba_marseille","lat":43.305364,"lon":5.384119,"is_reserved":false,"is_disabled":false,"rental_uris":{"android":"levelo://app?vid=e0df471c-baeb-4edf-bb07-39cd77e86761","ios":"levelo://app?vid=e0df471c-baeb-4edf-bb07-39cd77e86761"},"vehicle_type_id":"4","last_reported":1715195168,"current_range_meters":10000,"station_id":"ce4bgg92rcd13ifvqb30","pricing_plan_id":"cebpf4jnsgd1na2vs0mg"},{"bike_id":"ac00a081-8454-4c3c-9983-dadecacd9224","system_id":"levelo_inurba_marseille","lat":43.305364,"lon":5.384119,"is_reserved":false,"is_disabled":false,"rental_uris":{"android":"levelo://app?vid=ac00a081-8454-4c3c-9983-dadecacd9224","ios":"levelo://app?vid=ac00a081-8454-4c3c-9983-dadecacd9224"},"vehicle_type_id":"4","last_reported":1715195168,"current_range_meters":7200,"station_id":"ce4bgg92rcd13ifvqb30","pricing_plan_id":"cebpf4jnsgd1na2vs0mg"},{"bike_id":"8e15535a-438f-4ae5-91e2-b0101903589c","system_id":"levelo_inurba_marseille","lat":43.29917,"lon":5.37461,"is_reserved":false,"is_disabled":false,"rental_uris":{"android":"levelo://app?vid=8e15535a-438f-4ae5-91e2-b0101903589c","ios":"levelo://app?vid=8e15535a-438f-4ae5-91e2-b0101903589c"},"vehicle_type_id":"4","last_reported":1715195168,"current_range_meters":0,"station_id":"ce4bgjh2rcd13ifvqbg0","pricing_plan_id":"cebpf4jnsgd1na2vs0mg"},{"bike_id":"578d6db3-53d7-4642-ace4-a1746dc6c037","system_id":"levelo_inurba_marseille","lat":43.29917,"lon":5.37463,"is_reserved":false,"is_disabled":false,"rental_uris":{"android":"levelo://app?vid=578d6db3-53d7-4642-ace4-a1746dc6c037","ios":"levelo://app?vid=578d6db3-53d7-4642-ace4-a1746dc6c037"},"vehicle_type_id":"4","last_reported":1715195168,"current_range_meters":0,"station_id":"ce4bgjh2rcd13ifvqbg0","pricing_plan_id":"cebpf4jnsgd1na2vs0mg"},{"bike_id":"affcaeb4-b1ca-41b0-aa5a-ad8e97a27253","system_id":"levelo_inurba_marseille","lat":43.299243,"lon":5.374807,"is_reserved":false,"is_disabled":false,"rental_uris":{"android":"levelo://app?vid=affcaeb4-b1ca-41b0-aa5a-ad8e97a27253","ios":"levelo://app?vid=affcaeb4-b1ca-41b0-aa5a-ad8e97a27253"},"vehicle_type_id":"4","last_reported":1715195168,"current_range_meters":27600,"station_id":"ce4bgjh2rcd13ifvqbg0","pricing_plan_id":"cebpf4jnsgd1na2vs0mg"},{"bike_id":"74f2c857-e661-49d3-acb5-3dbd50b7958b","system_id":"levelo_inurba_marseille","lat":43.303837,"lon":5.418724,"is_reserved":false,"is_disabled":false,"rental_uris":{"android":"levelo://app?vid=74f2c857-e661-49d3-acb5-3dbd50b7958b","ios":"levelo://app?vid=74f2c857-e661-49d3-acb5-3dbd50b7958b"},"vehicle_type_id":"4","last_reported":1715195168,"current_range_meters":20800,"station_id":"ce4bhop2rcd13ifvqh7g","pricing_plan_id":"cebpf4jnsgd1na2vs0mg"},{"bike_id":"4ac653c3-9d35-400d-8e8b-63c4ec08fd6f","system_id":"levelo_inurba_marseille","lat":43.309371,"lon":5.401449,"is_reserved":false,"is_disabled":false,"rental_uris":{"android":"levelo://app?vid=4ac653c3-9d35-400d-8e8b-63c4ec08fd6f","ios":"levelo://app?vid=4ac653c3-9d35-400d-8e8b-63c4ec08fd6f"},"vehicle_type_id":"4","last_reported":1715195168,"current_range_meters":7200,"station_id":"ce4bgvp2rcd13ifvqct0","pricing_plan_id":"cebpf4jnsgd1na2vs0mg"},{"bike_id":"155e4b7c-f36e-4bdd-bdfb-21c522dd85b2","system_id":"levelo_inurba_marseille","lat":43.297676,"lon":5.36569,"is_reserved":false,"is_disabled":false,"rental_uris":{"android":"levelo://app?vid=155e4b7c-f36e-4bdd-bdfb-21c522dd85b2","ios":"levelo://app?vid=155e4b7c-f36e-4bdd-bdfb-21c522dd85b2"},"vehicle_type_id":"4","last_reported":1715195168,"current_range_meters":2000,"station_id":"","pricing_plan_id":"cebpf4jnsgd1na2vs0mg"},{"bike_id":"ca394a43-fd8e-4701-b181-a714fa830606","system_id":"levelo_inurba_marseille","lat":43.29913,"lon":5.37628,"is_reserved":false,"is_disabled":false,"rental_uris":{"android":"levelo://app?vid=ca394a43-fd8e-4701-b181-a714fa830606","ios":"levelo://app?vid=ca394a43-fd8e-4701-b181-a714fa830606"},"vehicle_type_id":"4","last_reported":1715195168,"current_range_meters":0,"station_id":"","pricing_plan_id":"cebpf4jnsgd1na2vs0mg"},{"bike_id":"51515124-8061-49f7-bb3e-6bc3e956ea9e","system_id":"levelo_inurba_marseille","lat":43.32287,"lon":5.38267,"is_reserved":false,"is_disabled":false,"rental_uris":{"android":"levelo://app?vid=51515124-8061-49f7-bb3e-6bc3e956ea9e","ios":"levelo://app?vid=51515124-8061-49f7-bb3e-6bc3e956ea9e"},"vehicle_type_id":"4","last_reported":1715195168,"current_range_meters":5600,"station_id":"ce4bhr12rcd13ifvqhqg","pricing_plan_id":"cebpf4jnsgd1na2vs0mg"},{"bike_id":"6ad7ef97-2f71-448d-b062-a28ce4d6c290","system_id":"levelo_inurba_marseille","lat":43.29748,"lon":5.36909,"is_reserved":false,"is_disabled":false,"rental_uris":{"android":"levelo://app?vid=6ad7ef97-2f71-448d-b062-a28ce4d6c290","ios":"levelo://app?vid=6ad7ef97-2f71-448d-b062-a28ce4d6c290"},"vehicle_type_id":"4","last_reported":1715195168,"current_range_meters":0,"station_id":"","pricing_plan_id":"cebpf4jnsgd1na2vs0mg"},{"bike_id":"077cd0c7-c335-4e27-9761-d490805dc92e","system_id":"levelo_inurba_marseille","lat":43.29712,"lon":5.36609,"is_reserved":false,"is_disabled":false,"rental_uris":{"android":"levelo://app?vid=077cd0c7-c335-4e27-9761-d490805dc92e","ios":"levelo://app?vid=077cd0c7-c335-4e27-9761-d490805dc92e"},"vehicle_type_id":"4","last_reported":1715195168,"current_range_meters":15200,"station_id":"","pricing_plan_id":"cebpf4jnsgd1na2vs0mg"},{"bike_id":"5fc23241-2ab9-42ca-91ba-d689d02e3bbc","system_id":"levelo_inurba_marseille","lat":43.29694,"lon":5.36597,"is_reserved":false,"is_disabled":false,"rental_uris":{"android":"levelo://app?vid=5fc23241-2ab9-42ca-91ba-d689d02e3bbc","ios":"levelo://app?vid=5fc23241-2ab9-42ca-91ba-d689d02e3bbc"},"vehicle_type_id":"4","last_reported":1715195168,"current_range_meters":0,"station_id":"","pricing_plan_id":"cebpf4jnsgd1na2vs0mg"},{"bike_id":"d8ee9fd3-73ea-4deb-92d1-449de13f5f87","system_id":"levelo_inurba_marseille","lat":43.29727,"lon":5.37351,"is_reserved":false,"is_disabled":false,"rental_uris":{"android":"levelo://app?vid=d8ee9fd3-73ea-4deb-92d1-449de13f5f87","ios":"levelo://app?vid=d8ee9fd3-73ea-4deb-92d1-449de13f5f87"},"vehicle_type_id":"4","last_reported":1715195168,"current_range_meters":10800,"station_id":"","pricing_plan_id":"cebpf4jnsgd1na2vs0mg"},{"bike_id":"c50e1ec5-c94f-42dd-9b68-b0831e0bee36","system_id":"levelo_inurba_marseille","lat":43.296941,"lon":5.373125,"is_reserved":false,"is_disabled":false,"rental_uris":{"android":"levelo://app?vid=c50e1ec5-c94f-42dd-9b68-b0831e0bee36","ios":"levelo://app?vid=c50e1ec5-c94f-42dd-9b68-b0831e0bee36"},"vehicle_type_id":"4","last_reported":1715195168,"current_range_meters":0,"station_id":"","pricing_plan_id":"cebpf4jnsgd1na2vs0mg"},{"bike_id":"cc0c18a4-63e6-4e30-95db-c9db818bb319","system_id":"levelo_inurba_marseille","lat":43.29767,"lon":5.37679,"is_reserved":false,"is_disabled":false,"rental_uris":{"android":"levelo://app?vid=cc0c18a4-63e6-4e30-95db-c9db818bb319","ios":"levelo://app?vid=cc0c18a4-63e6-4e30-95db-c9db818bb319"},"vehicle_type_id":"4","last_reported":1715195168,"current_range_meters":26800,"station_id":"ce4bgkh2rcd13ifvqbl0","pricing_plan_id":"cebpf4jnsgd1na2vs0mg"},{"bike_id":"3020959b-10dc-4d0d-a333-4fbcbe89eb3d","system_id":"levelo_inurba_marseille","lat":43.29753,"lon":5.37709,"is_reserved":false,"is_disabled":false,"rental_uris":{"android":"levelo://app?vid=3020959b-10dc-4d0d-a333-4fbcbe89eb3d","ios":"levelo://app?vid=3020959b-10dc-4d0d-a333-4fbcbe89eb3d"},"vehicle_type_id":"4","last_reported":1715195168,"current_range_meters":28000,"station_id":"ce4bgkh2rcd13ifvqbl0","pricing_plan_id":"cebpf4jnsgd1na2vs0mg"},{"bike_id":"a6ca81c8-da1c-4634-bcab-417bd73a98ea","system_id":"levelo_inurba_marseille","lat":43.29731,"lon":5.37677,"is_reserved":false,"is_disabled":false,"rental_uris":{"android":"levelo://app?vid=a6ca81c8-da1c-4634-bcab-417bd73a98ea","ios":"levelo://app?vid=a6ca81c8-da1c-4634-bcab-417bd73a98ea"},"vehicle_type_id":"4","last_reported":1715195168,"current_range_meters":8400,"station_id":"ce4bgkh2rcd13ifvqbl0","pricing_plan_id":"cebpf4jnsgd1na2vs0mg"},{"bike_id":"b0a07091-4597-4af4-af4c-9ac3054721e7","system_id":"levelo_inurba_marseille","lat":43.29729,"lon":5.37673,"is_reserved":false,"is_disabled":false,"rental_uris":{"android":"levelo://app?vid=b0a07091-4597-4af4-af4c-9ac3054721e7","ios":"levelo://app?vid=b0a07091-4597-4af4-af4c-9ac3054721e7"},"vehicle_type_id":"4","last_reported":1715195168,"current_range_meters":2800,"station_id":"ce4bgkh2rcd13ifvqbl0","pricing_plan_id":"cebpf4jnsgd1na2vs0mg"},{"bike_id":"01ded26a-aeed-41b0-b322-e9c6ee3a9250","system_id":"levelo_inurba_marseille","lat":43.296921,"lon":5.376579,"is_reserved":false,"is_disabled":false,"rental_uris":{"android":"levelo://app?vid=01ded26a-aeed-41b0-b322-e9c6ee3a9250","ios":"levelo://app?vid=01ded26a-aeed-41b0-b322-e9c6ee3a9250"},"vehicle_type_id":"4","last_reported":1715195168,"current_range_meters":27600,"station_id":"ce4bgkh2rcd13ifvqbl0","pricing_plan_id":"cebpf4jnsgd1na2vs0mg"},{"bike_id":"fcd5c14d-67f8-4f68-9194-73cb517c3fce","system_id":"levelo_inurba_marseille","lat":43.297318,"lon":5.376828,"is_reserved":false,"is_disabled":false,"rental_uris":{"android":"levelo://app?vid=fcd5c14d-67f8-4f68-9194-73cb517c3fce","ios":"levelo://app?vid=fcd5c14d-67f8-4f68-9194-73cb517c3fce"},"vehicle_type_id":"4","last_reported":1715195168,"current_range_meters":24800,"station_id":"ce4bgkh2rcd13ifvqbl0","pricing_plan_id":"cebpf4jnsgd1na2vs0mg"},{"bike_id":"f9f54dd1-303d-4995-9a29-8484b72554f7","system_id":"levelo_inurba_marseille","lat":43.297319,"lon":5.37686,"is_reserved":false,"is_disabled":false,"rental_uris":{"android":"levelo://app?vid=f9f54dd1-303d-4995-9a29-8484b72554f7","ios":"levelo://app?vid=f9f54dd1-303d-4995-9a29-8484b72554f7"},"vehicle_type_id":"4","last_reported":1715195168,"current_range_meters":18800,"station_id":"ce4bgkh2rcd13ifvqbl0","pricing_plan_id":"cebpf4jnsgd1na2vs0mg"},{"bike_id":"a2c4f024-bc72-42f8-841f-8356c052368d","system_id":"levelo_inurba_marseille","lat":43.29726,"lon":5.37669,"is_reserved":false,"is_disabled":false,"rental_uris":{"android":"levelo://app?vid=a2c4f024-bc72-42f8-841f-8356c052368d","ios":"levelo://app?vid=a2c4f024-bc72-42f8-841f-8356c052368d"},"vehicle_type_id":"4","last_reported":1715195168,"current_range_meters":18400,"station_id":"ce4bgkh2rcd13ifvqbl0","pricing_plan_id":"cebpf4jnsgd1na2vs0mg"},{"bike_id":"a5a79a00-56d2-4fb0-9239-05655f210346","system_id":"levelo_inurba_marseille","lat":43.29727,"lon":5.37672,"is_reserved":false,"is_disabled":false,"rental_uris":{"android":"levelo://app?vid=a5a79a00-56d2-4fb0-9239-05655f210346","ios":"levelo://app?vid=a5a79a00-56d2-4fb0-9239-05655f210346"},"vehicle_type_id":"4","last_reported":1715195168,"current_range_meters":25200,"station_id":"ce4bgkh2rcd13ifvqbl0","pricing_plan_id":"cebpf4jnsgd1na2vs0mg"},{"bike_id":"80d67b22-f5ab-4a92-8913-f5f0b35205ca","system_id":"levelo_inurba_marseille","lat":43.29729,"lon":5.37678,"is_reserved":false,"is_disabled":false,"rental_uris":{"android":"levelo://app?vid=80d67b22-f5ab-4a92-8913-f5f0b35205ca","ios":"levelo://app?vid=80d67b22-f5ab-4a92-8913-f5f0b35205ca"},"vehicle_type_id":"4","last_reported":1715195168,"current_range_meters":18800,"station_id":"ce4bgkh2rcd13ifvqbl0","pricing_plan_id":"cebpf4jnsgd1na2vs0mg"},{"bike_id":"bbeaa846-b1d1-45c1-a49f-10f8b5883cd7","system_id":"levelo_inurba_marseille","lat":43.29732,"lon":5.37688,"is_reserved":false,"is_disabled":false,"rental_uris":{"android":"levelo://app?vid=bbeaa846-b1d1-45c1-a49f-10f8b5883cd7","ios":"levelo://app?vid=bbeaa846-b1d1-45c1-a49f-10f8b5883cd7"},"vehicle_type_id":"4","last_reported":1715195168,"current_range_meters":19600,"station_id":"ce4bgkh2rcd13ifvqbl0","pricing_plan_id":"cebpf4jnsgd1na2vs0mg"},{"bike_id":"07e52653-4880-4d0d-8c07-89f7449f0e12","system_id":"levelo_inurba_marseille","lat":43.29729,"lon":5.37681,"is_reserved":false,"is_disabled":false,"rental_uris":{"android":"levelo://app?vid=07e52653-4880-4d0d-8c07-89f7449f0e12","ios":"levelo://app?vid=07e52653-4880-4d0d-8c07-89f7449f0e12"},"vehicle_type_id":"4","last_reported":1715195168,"current_range_meters":25200,"station_id":"ce4bgkh2rcd13ifvqbl0","pricing_plan_id":"cebpf4jnsgd1na2vs0mg"},{"bike_id":"176b799b-fcbd-41b8-9169-226bef7b798b","system_id":"levelo_inurba_marseille","lat":43.29726,"lon":5.376731,"is_reserved":false,"is_disabled":false,"rental_uris":{"android":"levelo://app?vid=176b799b-fcbd-41b8-9169-226bef7b798b","ios":"levelo://app?vid=176b799b-fcbd-41b8-9169-226bef7b798b"},"vehicle_type_id":"4","last_reported":1715195168,"current_range_meters":10800,"station_id":"","pricing_plan_id":"cebpf4jnsgd1na2vs0mg"},{"bike_id":"7d2879aa-ad2a-4865-bc06-31003e6f9d30","system_id":"levelo_inurba_marseille","lat":43.29735,"lon":5.377,"is_reserved":false,"is_disabled":false,"rental_uris":{"android":"levelo://app?vid=7d2879aa-ad2a-4865-bc06-31003e6f9d30","ios":"levelo://app?vid=7d2879aa-ad2a-4865-bc06-31003e6f9d30"},"vehicle_type_id":"4","last_reported":1715195168,"current_range_meters":18400,"station_id":"ce4bgkh2rcd13ifvqbl0","pricing_plan_id":"cebpf4jnsgd1na2vs0mg"},{"bike_id":"59477bae-e4f1-40fc-a96e-fa6150dab90f","system_id":"levelo_inurba_marseille","lat":43.296935,"lon":5.376544,"is_reserved":false,"is_disabled":false,"rental_uris":{"android":"levelo://app?vid=59477bae-e4f1-40fc-a96e-fa6150dab90f","ios":"levelo://app?vid=59477bae-e4f1-40fc-a96e-fa6150dab90f"},"vehicle_type_id":"4","last_reported":1715195168,"current_range_meters":13200,"station_id":"ce4bgkh2rcd13ifvqbl0","pricing_plan_id":"cebpf4jnsgd1na2vs0mg"},{"bike_id":"64741560-c138-4d13-bbfa-ea2b52e39996","system_id":"levelo_inurba_marseille","lat":43.2973,"lon":5.37688,"is_reserved":false,"is_disabled":false,"rental_uris":{"android":"levelo://app?vid=64741560-c138-4d13-bbfa-ea2b52e39996","ios":"levelo://app?vid=64741560-c138-4d13-bbfa-ea2b52e39996"},"vehicle_type_id":"4","last_reported":1715195168,"current_range_meters":4800,"station_id":"ce4bgkh2rcd13ifvqbl0","pricing_plan_id":"cebpf4jnsgd1na2vs0mg"},{"bike_id":"4318f82c-c401-4313-962b-6a185c91f224","system_id":"levelo_inurba_marseille","lat":43.29728,"lon":5.37684,"is_reserved":false,"is_disabled":false,"rental_uris":{"android":"levelo://app?vid=4318f82c-c401-4313-962b-6a185c91f224","ios":"levelo://app?vid=4318f82c-c401-4313-962b-6a185c91f224"},"vehicle_type_id":"4","last_reported":1715195168,"current_range_meters":11200,"station_id":"ce4bgkh2rcd13ifvqbl0","pricing_plan_id":"cebpf4jnsgd1na2vs0mg"},{"bike_id":"7dccf070-7a16-4652-a6a8-b31948033278","system_id":"levelo_inurba_marseille","lat":43.29729,"lon":5.37688,"is_reserved":false,"is_disabled":false,"rental_uris":{"android":"levelo://app?vid=7dccf070-7a16-4652-a6a8-b31948033278","ios":"levelo://app?vid=7dccf070-7a16-4652-a6a8-b31948033278"},"vehicle_type_id":"4","last_reported":1715195168,"current_range_meters":24000,"station_id":"ce4bgkh2rcd13ifvqbl0","pricing_plan_id":"cebpf4jnsgd1na2vs0mg"},{"bike_id":"ad82a6c6-1665-418d-8737-97a03666d75f","system_id":"levelo_inurba_marseille","lat":43.29733,"lon":5.377,"is_reserved":false,"is_disabled":false,"rental_uris":{"android":"levelo://app?vid=ad82a6c6-1665-418d-8737-97a03666d75f","ios":"levelo://app?vid=ad82a6c6-1665-418d-8737-97a03666d75f"},"vehicle_type_id":"4","last_reported":1715195168,"current_range_meters":8800,"station_id":"ce4bgkh2rcd13ifvqbl0","pricing_plan_id":"cebpf4jnsgd1na2vs0mg"},{"bike_id":"ea4e108e-64cf-4c4c-be83-7646c7a897f3","system_id":"levelo_inurba_marseille","lat":43.29724,"lon":5.37676,"is_reserved":false,"is_disabled":false,"rental_uris":{"android":"levelo://app?vid=ea4e108e-64cf-4c4c-be83-7646c7a897f3","ios":"levelo://app?vid=ea4e108e-64cf-4c4c-be83-7646c7a897f3"},"vehicle_type_id":"4","last_reported":1715195168,"current_range_meters":22400,"station_id":"ce4bgkh2rcd13ifvqbl0","pricing_plan_id":"cebpf4jnsgd1na2vs0mg"},{"bike_id":"6821201f-f6d9-4e2d-b401-036e38509b3a","system_id":"levelo_inurba_marseille","lat":43.29733,"lon":5.37703,"is_reserved":false,"is_disabled":false,"rental_uris":{"android":"levelo://app?vid=6821201f-f6d9-4e2d-b401-036e38509b3a","ios":"levelo://app?vid=6821201f-f6d9-4e2d-b401-036e38509b3a"},"vehicle_type_id":"4","last_reported":1715195168,"current_range_meters":14400,"station_id":"ce4bgkh2rcd13ifvqbl0","pricing_plan_id":"cebpf4jnsgd1na2vs0mg"},{"bike_id":"338399fb-3eda-4e2c-aa10-1a6f5c1c5f62","system_id":"levelo_inurba_marseille","lat":43.29723,"lon":5.37675,"is_reserved":false,"is_disabled":false,"rental_uris":{"android":"levelo://app?vid=338399fb-3eda-4e2c-aa10-1a6f5c1c5f62","ios":"levelo://app?vid=338399fb-3eda-4e2c-aa10-1a6f5c1c5f62"},"vehicle_type_id":"4","last_reported":1715195168,"current_range_meters":29200,"station_id":"ce4bgkh2rcd13ifvqbl0","pricing_plan_id":"cebpf4jnsgd1na2vs0mg"},{"bike_id":"4c6f2774-3e25-4f2f-9283-b15b76181d9a","system_id":"levelo_inurba_marseille","lat":43.29727,"lon":5.37687,"is_reserved":false,"is_disabled":false,"rental_uris":{"android":"levelo://app?vid=4c6f2774-3e25-4f2f-9283-b15b76181d9a","ios":"levelo://app?vid=4c6f2774-3e25-4f2f-9283-b15b76181d9a"},"vehicle_type_id":"4","last_reported":1715195168,"current_range_meters":8800,"station_id":"ce4bgkh2rcd13ifvqbl0","pricing_plan_id":"cebpf4jnsgd1na2vs0mg"},{"bike_id":"a8c0e7c4-c394-401d-acb5-a2741ee5c9e1","system_id":"levelo_inurba_marseille","lat":43.296935,"lon":5.376544,"is_reserved":false,"is_disabled":false,"rental_uris":{"android":"levelo://app?vid=a8c0e7c4-c394-401d-acb5-a2741ee5c9e1","ios":"levelo://app?vid=a8c0e7c4-c394-401d-acb5-a2741ee5c9e1"},"vehicle_type_id":"4","last_reported":1715195168,"current_range_meters":28000,"station_id":"ce4bgkh2rcd13ifvqbl0","pricing_plan_id":"cebpf4jnsgd1na2vs0mg"},{"bike_id":"e6a28509-659f-4717-b19c-8fe1870b90cf","system_id":"levelo_inurba_marseille","lat":43.29729,"lon":5.37693,"is_reserved":false,"is_disabled":false,"rental_uris":{"android":"levelo://app?vid=e6a28509-659f-4717-b19c-8fe1870b90cf","ios":"levelo://app?vid=e6a28509-659f-4717-b19c-8fe1870b90cf"},"vehicle_type_id":"4","last_reported":1715195168,"current_range_meters":11600,"station_id":"ce4bgkh2rcd13ifvqbl0","pricing_plan_id":"cebpf4jnsgd1na2vs0mg"},{"bike_id":"46d7f4cb-7b55-4e0a-b28b-66c815d6124e","system_id":"levelo_inurba_marseille","lat":43.29724,"lon":5.37679,"is_reserved":false,"is_disabled":false,"rental_uris":{"android":"levelo://app?vid=46d7f4cb-7b55-4e0a-b28b-66c815d6124e","ios":"levelo://app?vid=46d7f4cb-7b55-4e0a-b28b-66c815d6124e"},"vehicle_type_id":"4","last_reported":1715195168,"current_range_meters":22400,"station_id":"ce4bgkh2rcd13ifvqbl0","pricing_plan_id":"cebpf4jnsgd1na2vs0mg"},{"bike_id":"f324ba25-0a76-4a6f-9f2d-968aafec96f4","system_id":"levelo_inurba_marseille","lat":43.296935,"lon":5.376544,"is_reserved":false,"is_disabled":false,"rental_uris":{"android":"levelo://app?vid=f324ba25-0a76-4a6f-9f2d-968aafec96f4","ios":"levelo://app?vid=f324ba25-0a76-4a6f-9f2d-968aafec96f4"},"vehicle_type_id":"4","last_reported":1715195168,"current_range_meters":24000,"station_id":"ce4bgkh2rcd13ifvqbl0","pricing_plan_id":"cebpf4jnsgd1na2vs0mg"},{"bike_id":"360e7db4-86a9-47c5-9677-f33ace37496b","system_id":"levelo_inurba_marseille","lat":43.297272,"lon":5.376895,"is_reserved":false,"is_disabled":false,"rental_uris":{"android":"levelo://app?vid=360e7db4-86a9-47c5-9677-f33ace37496b","ios":"levelo://app?vid=360e7db4-86a9-47c5-9677-f33ace37496b"},"vehicle_type_id":"4","last_reported":1715195168,"current_range_meters":21200,"station_id":"ce4bgkh2rcd13ifvqbl0","pricing_plan_id":"cebpf4jnsgd1na2vs0mg"},{"bike_id":"a77b2763-f349-46d6-88be-a49b78817437","system_id":"levelo_inurba_marseille","lat":43.29725,"lon":5.37687,"is_reserved":false,"is_disabled":false,"rental_uris":{"android":"levelo://app?vid=a77b2763-f349-46d6-88be-a49b78817437","ios":"levelo://app?vid=a77b2763-f349-46d6-88be-a49b78817437"},"vehicle_type_id":"4","last_reported":1715195168,"current_range_meters":12800,"station_id":"ce4bgkh2rcd13ifvqbl0","pricing_plan_id":"cebpf4jnsgd1na2vs0mg"},{"bike_id":"b143a15d-bd01-4164-b67d-4260b47c20c1","system_id":"levelo_inurba_marseille","lat":43.29724,"lon":5.37685,"is_reserved":false,"is_disabled":false,"rental_uris":{"android":"levelo://app?vid=b143a15d-bd01-4164-b67d-4260b47c20c1","ios":"levelo://app?vid=b143a15d-bd01-4164-b67d-4260b47c20c1"},"vehicle_type_id":"4","last_reported":1715195168,"current_range_meters":18400,"station_id":"ce4bgkh2rcd13ifvqbl0","pricing_plan_id":"cebpf4jnsgd1na2vs0mg"},{"bike_id":"825b60d9-ed15-4e1d-a5f8-02947ac8e0d5","system_id":"levelo_inurba_marseille","lat":43.29731,"lon":5.37706,"is_reserved":false,"is_disabled":false,"rental_uris":{"android":"levelo://app?vid=825b60d9-ed15-4e1d-a5f8-02947ac8e0d5","ios":"levelo://app?vid=825b60d9-ed15-4e1d-a5f8-02947ac8e0d5"},"vehicle_type_id":"4","last_reported":1715195168,"current_range_meters":20800,"station_id":"ce4bgkh2rcd13ifvqbl0","pricing_plan_id":"cebpf4jnsgd1na2vs0mg"},{"bike_id":"6bc4a442-cbd6-49f4-bcc0-eca4720a682e","system_id":"levelo_inurba_marseille","lat":43.29725,"lon":5.37689,"is_reserved":false,"is_disabled":false,"rental_uris":{"android":"levelo://app?vid=6bc4a442-cbd6-49f4-bcc0-eca4720a682e","ios":"levelo://app?vid=6bc4a442-cbd6-49f4-bcc0-eca4720a682e"},"vehicle_type_id":"4","last_reported":1715195168,"current_range_meters":13200,"station_id":"ce4bgkh2rcd13ifvqbl0","pricing_plan_id":"cebpf4jnsgd1na2vs0mg"},{"bike_id":"eb7b1c49-e786-4fa0-94d4-458afbe2a823","system_id":"levelo_inurba_marseille","lat":43.297288,"lon":5.377003,"is_reserved":false,"is_disabled":false,"rental_uris":{"android":"levelo://app?vid=eb7b1c49-e786-4fa0-94d4-458afbe2a823","ios":"levelo://app?vid=eb7b1c49-e786-4fa0-94d4-458afbe2a823"},"vehicle_type_id":"4","last_reported":1715195168,"current_range_meters":25200,"station_id":"ce4bgkh2rcd13ifvqbl0","pricing_plan_id":"cebpf4jnsgd1na2vs0mg"},{"bike_id":"27c23176-ea86-468d-884c-9d8e934c1391","system_id":"levelo_inurba_marseille","lat":43.297303,"lon":5.377048,"is_reserved":false,"is_disabled":false,"rental_uris":{"android":"levelo://app?vid=27c23176-ea86-468d-884c-9d8e934c1391","ios":"levelo://app?vid=27c23176-ea86-468d-884c-9d8e934c1391"},"vehicle_type_id":"4","last_reported":1715195168,"current_range_meters":18400,"station_id":"ce4bgkh2rcd13ifvqbl0","pricing_plan_id":"cebpf4jnsgd1na2vs0mg"},{"bike_id":"806bf6c8-a0c6-4a4b-8129-112db8eec709","system_id":"levelo_inurba_marseille","lat":43.29722,"lon":5.37681,"is_reserved":false,"is_disabled":false,"rental_uris":{"android":"levelo://app?vid=806bf6c8-a0c6-4a4b-8129-112db8eec709","ios":"levelo://app?vid=806bf6c8-a0c6-4a4b-8129-112db8eec709"},"vehicle_type_id":"4","last_reported":1715195168,"current_range_meters":4400,"station_id":"ce4bgkh2rcd13ifvqbl0","pricing_plan_id":"cebpf4jnsgd1na2vs0mg"},{"bike_id":"5e22004d-cd6e-4df4-b0fb-0057b3bf46c0","system_id":"levelo_inurba_marseille","lat":43.29719,"lon":5.37673,"is_reserved":false,"is_disabled":false,"rental_uris":{"android":"levelo://app?vid=5e22004d-cd6e-4df4-b0fb-0057b3bf46c0","ios":"levelo://app?vid=5e22004d-cd6e-4df4-b0fb-0057b3bf46c0"},"vehicle_type_id":"4","last_reported":1715195168,"current_range_meters":8000,"station_id":"ce4bgkh2rcd13ifvqbl0","pricing_plan_id":"cebpf4jnsgd1na2vs0mg"},{"bike_id":"3bf4325a-8029-4288-ae69-7954c278292f","system_id":"levelo_inurba_marseille","lat":43.2973,"lon":5.37706,"is_reserved":false,"is_disabled":false,"rental_uris":{"android":"levelo://app?vid=3bf4325a-8029-4288-ae69-7954c278292f","ios":"levelo://app?vid=3bf4325a-8029-4288-ae69-7954c278292f"},"vehicle_type_id":"4","last_reported":1715195168,"current_range_meters":21200,"station_id":"ce4bgkh2rcd13ifvqbl0","pricing_plan_id":"cebpf4jnsgd1na2vs0mg"},{"bike_id":"00c39543-e877-4158-a384-8da7b67fa226","system_id":"levelo_inurba_marseille","lat":43.296921,"lon":5.376579,"is_reserved":false,"is_disabled":false,"rental_uris":{"android":"levelo://app?vid=00c39543-e877-4158-a384-8da7b67fa226","ios":"levelo://app?vid=00c39543-e877-4158-a384-8da7b67fa226"},"vehicle_type_id":"4","last_reported":1715195168,"current_range_meters":20000,"station_id":"ce4bgkh2rcd13ifvqbl0","pricing_plan_id":"cebpf4jnsgd1na2vs0mg"},{"bike_id":"57c746f2-451a-446e-b96c-aa0c5f1ee70e","system_id":"levelo_inurba_marseille","lat":43.29723,"lon":5.37687,"is_reserved":false,"is_disabled":false,"rental_uris":{"android":"levelo://app?vid=57c746f2-451a-446e-b96c-aa0c5f1ee70e","ios":"levelo://app?vid=57c746f2-451a-446e-b96c-aa0c5f1ee70e"},"vehicle_type_id":"4","last_reported":1715195168,"current_range_meters":22000,"station_id":"ce4bgkh2rcd13ifvqbl0","pricing_plan_id":"cebpf4jnsgd1na2vs0mg"},{"bike_id":"e0d22461-90a0-425b-9fd5-99be78a59fef","system_id":"levelo_inurba_marseille","lat":43.29733,"lon":5.37716,"is_reserved":false,"is_disabled":false,"rental_uris":{"android":"levelo://app?vid=e0d22461-90a0-425b-9fd5-99be78a59fef","ios":"levelo://app?vid=e0d22461-90a0-425b-9fd5-99be78a59fef"},"vehicle_type_id":"4","last_reported":1715195168,"current_range_meters":25600,"station_id":"ce4bgkh2rcd13ifvqbl0","pricing_plan_id":"cebpf4jnsgd1na2vs0mg"},{"bike_id":"9e6838e3-6c38-4e60-87b2-131f1b47d418","system_id":"levelo_inurba_marseille","lat":43.297302,"lon":5.377095,"is_reserved":false,"is_disabled":false,"rental_uris":{"android":"levelo://app?vid=9e6838e3-6c38-4e60-87b2-131f1b47d418","ios":"levelo://app?vid=9e6838e3-6c38-4e60-87b2-131f1b47d418"},"vehicle_type_id":"4","last_reported":1715195168,"current_range_meters":25600,"station_id":"ce4bgkh2rcd13ifvqbl0","pricing_plan_id":"cebpf4jnsgd1na2vs0mg"},{"bike_id":"92f1e498-2e1e-4368-b66c-09b7b968751a","system_id":"levelo_inurba_marseille","lat":43.297309,"lon":5.377116,"is_reserved":false,"is_disabled":false,"rental_uris":{"android":"levelo://app?vid=92f1e498-2e1e-4368-b66c-09b7b968751a","ios":"levelo://app?vid=92f1e498-2e1e-4368-b66c-09b7b968751a"},"vehicle_type_id":"4","last_reported":1715195168,"current_range_meters":3600,"station_id":"ce4bgkh2rcd13ifvqbl0","pricing_plan_id":"cebpf4jnsgd1na2vs0mg"},{"bike_id":"5d58ed2c-85e3-469a-b95c-1c01ed6e0616","system_id":"levelo_inurba_marseille","lat":43.29723,"lon":5.37689,"is_reserved":false,"is_disabled":false,"rental_uris":{"android":"levelo://app?vid=5d58ed2c-85e3-469a-b95c-1c01ed6e0616","ios":"levelo://app?vid=5d58ed2c-85e3-469a-b95c-1c01ed6e0616"},"vehicle_type_id":"4","last_reported":1715195168,"current_range_meters":1600,"station_id":"ce4bgkh2rcd13ifvqbl0","pricing_plan_id":"cebpf4jnsgd1na2vs0mg"},{"bike_id":"de85a8c4-26d6-41e5-8d4f-8f049fe28cd3","system_id":"levelo_inurba_marseille","lat":43.297244,"lon":5.376933,"is_reserved":false,"is_disabled":false,"rental_uris":{"android":"levelo://app?vid=de85a8c4-26d6-41e5-8d4f-8f049fe28cd3","ios":"levelo://app?vid=de85a8c4-26d6-41e5-8d4f-8f049fe28cd3"},"vehicle_type_id":"4","last_reported":1715195168,"current_range_meters":26400,"station_id":"ce4bgkh2rcd13ifvqbl0","pricing_plan_id":"cebpf4jnsgd1na2vs0mg"},{"bike_id":"fa06ca98-3165-4bb0-8f52-6941edad0f73","system_id":"levelo_inurba_marseille","lat":43.29726,"lon":5.37699,"is_reserved":false,"is_disabled":false,"rental_uris":{"android":"levelo://app?vid=fa06ca98-3165-4bb0-8f52-6941edad0f73","ios":"levelo://app?vid=fa06ca98-3165-4bb0-8f52-6941edad0f73"},"vehicle_type_id":"4","last_reported":1715195168,"current_range_meters":28400,"station_id":"ce4bgkh2rcd13ifvqbl0","pricing_plan_id":"cebpf4jnsgd1na2vs0mg"},{"bike_id":"0c0616f8-6201-4e91-9cf9-3fbcdaab5dfd","system_id":"levelo_inurba_marseille","lat":43.297243,"lon":5.376953,"is_reserved":false,"is_disabled":false,"rental_uris":{"android":"levelo://app?vid=0c0616f8-6201-4e91-9cf9-3fbcdaab5dfd","ios":"levelo://app?vid=0c0616f8-6201-4e91-9cf9-3fbcdaab5dfd"},"vehicle_type_id":"4","last_reported":1715195168,"current_range_meters":4800,"station_id":"ce4bgkh2rcd13ifvqbl0","pricing_plan_id":"cebpf4jnsgd1na2vs0mg"},{"bike_id":"30e58cab-d3f0-4a36-aadf-f0fbb04aff1e","system_id":"levelo_inurba_marseille","lat":43.297279,"lon":5.377059,"is_reserved":false,"is_disabled":false,"rental_uris":{"android":"levelo://app?vid=30e58cab-d3f0-4a36-aadf-f0fbb04aff1e","ios":"levelo://app?vid=30e58cab-d3f0-4a36-aadf-f0fbb04aff1e"},"vehicle_type_id":"4","last_reported":1715195168,"current_range_meters":14000,"station_id":"ce4bgkh2rcd13ifvqbl0","pricing_plan_id":"cebpf4jnsgd1na2vs0mg"},{"bike_id":"b9528809-cf71-486a-91a2-ccd7530fa034","system_id":"levelo_inurba_marseille","lat":43.29719,"lon":5.3768,"is_reserved":false,"is_disabled":false,"rental_uris":{"android":"levelo://app?vid=b9528809-cf71-486a-91a2-ccd7530fa034","ios":"levelo://app?vid=b9528809-cf71-486a-91a2-ccd7530fa034"},"vehicle_type_id":"4","last_reported":1715195168,"current_range_meters":20800,"station_id":"ce4bgkh2rcd13ifvqbl0","pricing_plan_id":"cebpf4jnsgd1na2vs0mg"},{"bike_id":"207b949a-5474-401d-86c0-87f3f0d717d9","system_id":"levelo_inurba_marseille","lat":43.29721,"lon":5.37691,"is_reserved":false,"is_disabled":false,"rental_uris":{"android":"levelo://app?vid=207b949a-5474-401d-86c0-87f3f0d717d9","ios":"levelo://app?vid=207b949a-5474-401d-86c0-87f3f0d717d9"},"vehicle_type_id":"4","last_reported":1715195168,"current_range_meters":7600,"station_id":"ce4bgkh2rcd13ifvqbl0","pricing_plan_id":"cebpf4jnsgd1na2vs0mg"},{"bike_id":"d6ba7821-4e9f-44c3-9e82-961142368d5b","system_id":"levelo_inurba_marseille","lat":43.29722,"lon":5.37694,"is_reserved":false,"is_disabled":false,"rental_uris":{"android":"levelo://app?vid=d6ba7821-4e9f-44c3-9e82-961142368d5b","ios":"levelo://app?vid=d6ba7821-4e9f-44c3-9e82-961142368d5b"},"vehicle_type_id":"4","last_reported":1715195168,"current_range_meters":22800,"station_id":"ce4bgkh2rcd13ifvqbl0","pricing_plan_id":"cebpf4jnsgd1na2vs0mg"},{"bike_id":"c163bf5e-e2ca-468f-b631-b1f786e2447e","system_id":"levelo_inurba_marseille","lat":43.29719,"lon":5.37687,"is_reserved":false,"is_disabled":false,"rental_uris":{"android":"levelo://app?vid=c163bf5e-e2ca-468f-b631-b1f786e2447e","ios":"levelo://app?vid=c163bf5e-e2ca-468f-b631-b1f786e2447e"},"vehicle_type_id":"4","last_reported":1715195168,"current_range_meters":2800,"station_id":"ce4bgkh2rcd13ifvqbl0","pricing_plan_id":"cebpf4jnsgd1na2vs0mg"},{"bike_id":"d808b9b7-1d3d-4960-aa95-23701ec1e6aa","system_id":"levelo_inurba_marseille","lat":43.29721,"lon":5.37694,"is_reserved":false,"is_disabled":false,"rental_uris":{"android":"levelo://app?vid=d808b9b7-1d3d-4960-aa95-23701ec1e6aa","ios":"levelo://app?vid=d808b9b7-1d3d-4960-aa95-23701ec1e6aa"},"vehicle_type_id":"4","last_reported":1715195168,"current_range_meters":22400,"station_id":"ce4bgkh2rcd13ifvqbl0","pricing_plan_id":"cebpf4jnsgd1na2vs0mg"},{"bike_id":"b4bd47f7-c73e-42aa-a464-7f50b9237c5f","system_id":"levelo_inurba_marseille","lat":43.29725,"lon":5.37707,"is_reserved":false,"is_disabled":false,"rental_uris":{"android":"levelo://app?vid=b4bd47f7-c73e-42aa-a464-7f50b9237c5f","ios":"levelo://app?vid=b4bd47f7-c73e-42aa-a464-7f50b9237c5f"},"vehicle_type_id":"4","last_reported":1715195168,"current_range_meters":7600,"station_id":"ce4bgkh2rcd13ifvqbl0","pricing_plan_id":"cebpf4jnsgd1na2vs0mg"},{"bike_id":"9a2829c7-0e81-4555-9157-f29fc5d36206","system_id":"levelo_inurba_marseille","lat":43.297174,"lon":5.376849,"is_reserved":false,"is_disabled":false,"rental_uris":{"android":"levelo://app?vid=9a2829c7-0e81-4555-9157-f29fc5d36206","ios":"levelo://app?vid=9a2829c7-0e81-4555-9157-f29fc5d36206"},"vehicle_type_id":"4","last_reported":1715195168,"current_range_meters":24400,"station_id":"ce4bgkh2rcd13ifvqbl0","pricing_plan_id":"cebpf4jnsgd1na2vs0mg"},{"bike_id":"4af89f0a-0b75-464f-8dd6-b2953cbce3af","system_id":"levelo_inurba_marseille","lat":43.296921,"lon":5.376579,"is_reserved":false,"is_disabled":false,"rental_uris":{"android":"levelo://app?vid=4af89f0a-0b75-464f-8dd6-b2953cbce3af","ios":"levelo://app?vid=4af89f0a-0b75-464f-8dd6-b2953cbce3af"},"vehicle_type_id":"4","last_reported":1715195168,"current_range_meters":6800,"station_id":"ce4bgkh2rcd13ifvqbl0","pricing_plan_id":"cebpf4jnsgd1na2vs0mg"},{"bike_id":"d8b7170a-6fe3-4c29-8201-fb122c0c5c3b","system_id":"levelo_inurba_marseille","lat":43.29721,"lon":5.37698,"is_reserved":false,"is_disabled":false,"rental_uris":{"android":"levelo://app?vid=d8b7170a-6fe3-4c29-8201-fb122c0c5c3b","ios":"levelo://app?vid=d8b7170a-6fe3-4c29-8201-fb122c0c5c3b"},"vehicle_type_id":"4","last_reported":1715195168,"current_range_meters":21600,"station_id":"ce4bgkh2rcd13ifvqbl0","pricing_plan_id":"cebpf4jnsgd1na2vs0mg"},{"bike_id":"1856873e-90b7-40d2-ae39-d046a487a8ce","system_id":"levelo_inurba_marseille","lat":43.29721,"lon":5.37698,"is_reserved":false,"is_disabled":false,"rental_uris":{"android":"levelo://app?vid=1856873e-90b7-40d2-ae39-d046a487a8ce","ios":"levelo://app?vid=1856873e-90b7-40d2-ae39-d046a487a8ce"},"vehicle_type_id":"4","last_reported":1715195168,"current_range_meters":26000,"station_id":"ce4bgkh2rcd13ifvqbl0","pricing_plan_id":"cebpf4jnsgd1na2vs0mg"},{"bike_id":"e046acbb-58ed-482b-a5ec-99e71545eab7","system_id":"levelo_inurba_marseille","lat":43.29731,"lon":5.37728,"is_reserved":false,"is_disabled":false,"rental_uris":{"android":"levelo://app?vid=e046acbb-58ed-482b-a5ec-99e71545eab7","ios":"levelo://app?vid=e046acbb-58ed-482b-a5ec-99e71545eab7"},"vehicle_type_id":"4","last_reported":1715195168,"current_range_meters":14800,"station_id":"ce4bgkh2rcd13ifvqbl0","pricing_plan_id":"cebpf4jnsgd1na2vs0mg"},{"bike_id":"504474d4-03d9-414e-9581-b3aeb9627a10","system_id":"levelo_inurba_marseille","lat":43.29726,"lon":5.37714,"is_reserved":false,"is_disabled":false,"rental_uris":{"android":"levelo://app?vid=504474d4-03d9-414e-9581-b3aeb9627a10","ios":"levelo://app?vid=504474d4-03d9-414e-9581-b3aeb9627a10"},"vehicle_type_id":"4","last_reported":1715195168,"current_range_meters":27600,"station_id":"ce4bgkh2rcd13ifvqbl0","pricing_plan_id":"cebpf4jnsgd1na2vs0mg"},{"bike_id":"fdf3d126-0a5a-434d-a9a5-af1efeef8857","system_id":"levelo_inurba_marseille","lat":43.297204,"lon":5.376988,"is_reserved":false,"is_disabled":false,"rental_uris":{"android":"levelo://app?vid=fdf3d126-0a5a-434d-a9a5-af1efeef8857","ios":"levelo://app?vid=fdf3d126-0a5a-434d-a9a5-af1efeef8857"},"vehicle_type_id":"4","last_reported":1715195168,"current_range_meters":17200,"station_id":"ce4bgkh2rcd13ifvqbl0","pricing_plan_id":"cebpf4jnsgd1na2vs0mg"},{"bike_id":"c4bc795a-f3c6-4db2-b3db-4df2a3b0f3e8","system_id":"levelo_inurba_marseille","lat":43.29716,"lon":5.37686,"is_reserved":false,"is_disabled":false,"rental_uris":{"android":"levelo://app?vid=c4bc795a-f3c6-4db2-b3db-4df2a3b0f3e8","ios":"levelo://app?vid=c4bc795a-f3c6-4db2-b3db-4df2a3b0f3e8"},"vehicle_type_id":"4","last_reported":1715195168,"current_range_meters":0,"station_id":"ce4bgkh2rcd13ifvqbl0","pricing_plan_id":"cebpf4jnsgd1na2vs0mg"},{"bike_id":"1b08edbd-b723-4c42-8c67-1bcd041f2ec9","system_id":"levelo_inurba_marseille","lat":43.297264,"lon":5.377165,"is_reserved":false,"is_disabled":false,"rental_uris":{"android":"levelo://app?vid=1b08edbd-b723-4c42-8c67-1bcd041f2ec9","ios":"levelo://app?vid=1b08edbd-b723-4c42-8c67-1bcd041f2ec9"},"vehicle_type_id":"4","last_reported":1715195168,"current_range_meters":7600,"station_id":"ce4bgkh2rcd13ifvqbl0","pricing_plan_id":"cebpf4jnsgd1na2vs0mg"},{"bike_id":"721e1906-f616-46a2-9f3e-f89838a44e38","system_id":"levelo_inurba_marseille","lat":43.297283,"lon":5.377233,"is_reserved":false,"is_disabled":false,"rental_uris":{"android":"levelo://app?vid=721e1906-f616-46a2-9f3e-f89838a44e38","ios":"levelo://app?vid=721e1906-f616-46a2-9f3e-f89838a44e38"},"vehicle_type_id":"4","last_reported":1715195168,"current_range_meters":24800,"station_id":"ce4bgkh2rcd13ifvqbl0","pricing_plan_id":"cebpf4jnsgd1na2vs0mg"},{"bike_id":"126086d8-b581-451e-ab03-1dec81ebaa77","system_id":"levelo_inurba_marseille","lat":43.297235,"lon":5.377097,"is_reserved":false,"is_disabled":false,"rental_uris":{"android":"levelo://app?vid=126086d8-b581-451e-ab03-1dec81ebaa77","ios":"levelo://app?vid=126086d8-b581-451e-ab03-1dec81ebaa77"},"vehicle_type_id":"4","last_reported":1715195168,"current_range_meters":26400,"station_id":"ce4bgkh2rcd13ifvqbl0","pricing_plan_id":"cebpf4jnsgd1na2vs0mg"},{"bike_id":"a6449107-d1da-4453-872f-9a48f7a60aaf","system_id":"levelo_inurba_marseille","lat":43.29726,"lon":5.37717,"is_reserved":false,"is_disabled":false,"rental_uris":{"android":"levelo://app?vid=a6449107-d1da-4453-872f-9a48f7a60aaf","ios":"levelo://app?vid=a6449107-d1da-4453-872f-9a48f7a60aaf"},"vehicle_type_id":"4","last_reported":1715195168,"current_range_meters":26000,"station_id":"ce4bgkh2rcd13ifvqbl0","pricing_plan_id":"cebpf4jnsgd1na2vs0mg"},{"bike_id":"acfb04e6-0ae6-4bbe-9135-6049c38fac33","system_id":"levelo_inurba_marseille","lat":43.29723,"lon":5.3771,"is_reserved":false,"is_disabled":false,"rental_uris":{"android":"levelo://app?vid=acfb04e6-0ae6-4bbe-9135-6049c38fac33","ios":"levelo://app?vid=acfb04e6-0ae6-4bbe-9135-6049c38fac33"},"vehicle_type_id":"4","last_reported":1715195168,"current_range_meters":25600,"station_id":"ce4bgkh2rcd13ifvqbl0","pricing_plan_id":"cebpf4jnsgd1na2vs0mg"},{"bike_id":"9db19e60-0b2c-4178-a901-9f98ab16716f","system_id":"levelo_inurba_marseille","lat":43.29717,"lon":5.37693,"is_reserved":false,"is_disabled":false,"rental_uris":{"android":"levelo://app?vid=9db19e60-0b2c-4178-a901-9f98ab16716f","ios":"levelo://app?vid=9db19e60-0b2c-4178-a901-9f98ab16716f"},"vehicle_type_id":"4","last_reported":1715195168,"current_range_meters":26800,"station_id":"ce4bgkh2rcd13ifvqbl0","pricing_plan_id":"cebpf4jnsgd1na2vs0mg"},{"bike_id":"48986a5d-1c6e-4f1a-b4f5-7abf906c460d","system_id":"levelo_inurba_marseille","lat":43.29714,"lon":5.37685,"is_reserved":false,"is_disabled":false,"rental_uris":{"android":"levelo://app?vid=48986a5d-1c6e-4f1a-b4f5-7abf906c460d","ios":"levelo://app?vid=48986a5d-1c6e-4f1a-b4f5-7abf906c460d"},"vehicle_type_id":"4","last_reported":1715195168,"current_range_meters":9200,"station_id":"ce4bgkh2rcd13ifvqbl0","pricing_plan_id":"cebpf4jnsgd1na2vs0mg"},{"bike_id":"34169df6-a685-4961-b1e4-cad7d27c14da","system_id":"levelo_inurba_marseille","lat":43.29722,"lon":5.37709,"is_reserved":false,"is_disabled":false,"rental_uris":{"android":"levelo://app?vid=34169df6-a685-4961-b1e4-cad7d27c14da","ios":"levelo://app?vid=34169df6-a685-4961-b1e4-cad7d27c14da"},"vehicle_type_id":"4","last_reported":1715195168,"current_range_meters":19200,"station_id":"ce4bgkh2rcd13ifvqbl0","pricing_plan_id":"cebpf4jnsgd1na2vs0mg"},{"bike_id":"68e98df2-6e28-40e1-b14e-08d2ec2ca3d3","system_id":"levelo_inurba_marseille","lat":43.29725,"lon":5.37721,"is_reserved":false,"is_disabled":false,"rental_uris":{"android":"levelo://app?vid=68e98df2-6e28-40e1-b14e-08d2ec2ca3d3","ios":"levelo://app?vid=68e98df2-6e28-40e1-b14e-08d2ec2ca3d3"},"vehicle_type_id":"4","last_reported":1715195168,"current_range_meters":3600,"station_id":"ce4bgkh2rcd13ifvqbl0","pricing_plan_id":"cebpf4jnsgd1na2vs0mg"},{"bike_id":"c8bfca13-02a2-444e-b075-913e8b226be7","system_id":"levelo_inurba_marseille","lat":43.29723,"lon":5.37716,"is_reserved":false,"is_disabled":false,"rental_uris":{"android":"levelo://app?vid=c8bfca13-02a2-444e-b075-913e8b226be7","ios":"levelo://app?vid=c8bfca13-02a2-444e-b075-913e8b226be7"},"vehicle_type_id":"4","last_reported":1715195168,"current_range_meters":24000,"station_id":"ce4bgkh2rcd13ifvqbl0","pricing_plan_id":"cebpf4jnsgd1na2vs0mg"},{"bike_id":"e378d452-19a0-42ab-a09d-3763f1df265b","system_id":"levelo_inurba_marseille","lat":43.297208,"lon":5.377102,"is_reserved":false,"is_disabled":false,"rental_uris":{"android":"levelo://app?vid=e378d452-19a0-42ab-a09d-3763f1df265b","ios":"levelo://app?vid=e378d452-19a0-42ab-a09d-3763f1df265b"},"vehicle_type_id":"4","last_reported":1715195168,"current_range_meters":28400,"station_id":"ce4bgkh2rcd13ifvqbl0","pricing_plan_id":"cebpf4jnsgd1na2vs0mg"},{"bike_id":"a0edcede-7e25-45db-9bc0-1b8f7484a0a7","system_id":"levelo_inurba_marseille","lat":43.29721,"lon":5.37711,"is_reserved":false,"is_disabled":false,"rental_uris":{"android":"levelo://app?vid=a0edcede-7e25-45db-9bc0-1b8f7484a0a7","ios":"levelo://app?vid=a0edcede-7e25-45db-9bc0-1b8f7484a0a7"},"vehicle_type_id":"4","last_reported":1715195168,"current_range_meters":23200,"station_id":"ce4bgkh2rcd13ifvqbl0","pricing_plan_id":"cebpf4jnsgd1na2vs0mg"},{"bike_id":"4c16e26a-a61a-460e-b384-225ae4776f57","system_id":"levelo_inurba_marseille","lat":43.296921,"lon":5.376579,"is_reserved":false,"is_disabled":false,"rental_uris":{"android":"levelo://app?vid=4c16e26a-a61a-460e-b384-225ae4776f57","ios":"levelo://app?vid=4c16e26a-a61a-460e-b384-225ae4776f57"},"vehicle_type_id":"4","last_reported":1715195168,"current_range_meters":10000,"station_id":"ce4bgkh2rcd13ifvqbl0","pricing_plan_id":"cebpf4jnsgd1na2vs0mg"},{"bike_id":"5821ece8-7920-4416-865c-77ea6befb286","system_id":"levelo_inurba_marseille","lat":43.29712,"lon":5.37685,"is_reserved":false,"is_disabled":false,"rental_uris":{"android":"levelo://app?vid=5821ece8-7920-4416-865c-77ea6befb286","ios":"levelo://app?vid=5821ece8-7920-4416-865c-77ea6befb286"},"vehicle_type_id":"4","last_reported":1715195168,"current_range_meters":15200,"station_id":"ce4bgkh2rcd13ifvqbl0","pricing_plan_id":"cebpf4jnsgd1na2vs0mg"},{"bike_id":"ee92f2e1-4a53-4ae7-8f77-415079d96dc9","system_id":"levelo_inurba_marseille","lat":43.29719,"lon":5.37708,"is_reserved":false,"is_disabled":false,"rental_uris":{"android":"levelo://app?vid=ee92f2e1-4a53-4ae7-8f77-415079d96dc9","ios":"levelo://app?vid=ee92f2e1-4a53-4ae7-8f77-415079d96dc9"},"vehicle_type_id":"4","last_reported":1715195168,"current_range_meters":25600,"station_id":"ce4bgkh2rcd13ifvqbl0","pricing_plan_id":"cebpf4jnsgd1na2vs0mg"},{"bike_id":"243a6c6d-0964-4626-b1ab-0a2929aa6a5a","system_id":"levelo_inurba_marseille","lat":43.297211,"lon":5.377151,"is_reserved":false,"is_disabled":false,"rental_uris":{"android":"levelo://app?vid=243a6c6d-0964-4626-b1ab-0a2929aa6a5a","ios":"levelo://app?vid=243a6c6d-0964-4626-b1ab-0a2929aa6a5a"},"vehicle_type_id":"4","last_reported":1715195168,"current_range_meters":24000,"station_id":"ce4bgkh2rcd13ifvqbl0","pricing_plan_id":"cebpf4jnsgd1na2vs0mg"},{"bike_id":"dfafdf2f-c266-43ac-b52e-f67b9cfa9c7c","system_id":"levelo_inurba_marseille","lat":43.29721,"lon":5.37715,"is_reserved":false,"is_disabled":false,"rental_uris":{"android":"levelo://app?vid=dfafdf2f-c266-43ac-b52e-f67b9cfa9c7c","ios":"levelo://app?vid=dfafdf2f-c266-43ac-b52e-f67b9cfa9c7c"},"vehicle_type_id":"4","last_reported":1715195168,"current_range_meters":27200,"station_id":"ce4bgkh2rcd13ifvqbl0","pricing_plan_id":"cebpf4jnsgd1na2vs0mg"},{"bike_id":"7b604cd6-f854-4ded-8fc3-d2643f780de4","system_id":"levelo_inurba_marseille","lat":43.2972,"lon":5.37714,"is_reserved":false,"is_disabled":false,"rental_uris":{"android":"levelo://app?vid=7b604cd6-f854-4ded-8fc3-d2643f780de4","ios":"levelo://app?vid=7b604cd6-f854-4ded-8fc3-d2643f780de4"},"vehicle_type_id":"4","last_reported":1715195168,"current_range_meters":9200,"station_id":"ce4bgkh2rcd13ifvqbl0","pricing_plan_id":"cebpf4jnsgd1na2vs0mg"},{"bike_id":"7c3baf6b-13b8-4cc8-a0a7-72ba385b76b9","system_id":"levelo_inurba_marseille","lat":43.29707,"lon":5.37676,"is_reserved":false,"is_disabled":false,"rental_uris":{"android":"levelo://app?vid=7c3baf6b-13b8-4cc8-a0a7-72ba385b76b9","ios":"levelo://app?vid=7c3baf6b-13b8-4cc8-a0a7-72ba385b76b9"},"vehicle_type_id":"4","last_reported":1715195168,"current_range_meters":5200,"station_id":"ce4bgkh2rcd13ifvqbl0","pricing_plan_id":"cebpf4jnsgd1na2vs0mg"},{"bike_id":"ff6ebce5-9dc5-4436-94f0-ed3c482e68a2","system_id":"levelo_inurba_marseille","lat":43.297096,"lon":5.376845,"is_reserved":false,"is_disabled":false,"rental_uris":{"android":"levelo://app?vid=ff6ebce5-9dc5-4436-94f0-ed3c482e68a2","ios":"levelo://app?vid=ff6ebce5-9dc5-4436-94f0-ed3c482e68a2"},"vehicle_type_id":"4","last_reported":1715195168,"current_range_meters":24400,"station_id":"ce4bgkh2rcd13ifvqbl0","pricing_plan_id":"cebpf4jnsgd1na2vs0mg"},{"bike_id":"af1b77ae-c837-46a1-903b-0202d0b0ca64","system_id":"levelo_inurba_marseille","lat":43.29717,"lon":5.37707,"is_reserved":false,"is_disabled":false,"rental_uris":{"android":"levelo://app?vid=af1b77ae-c837-46a1-903b-0202d0b0ca64","ios":"levelo://app?vid=af1b77ae-c837-46a1-903b-0202d0b0ca64"},"vehicle_type_id":"4","last_reported":1715195168,"current_range_meters":25600,"station_id":"ce4bgkh2rcd13ifvqbl0","pricing_plan_id":"cebpf4jnsgd1na2vs0mg"},{"bike_id":"846cb1fb-7359-4170-aa06-396b3a867e97","system_id":"levelo_inurba_marseille","lat":43.29718,"lon":5.3771,"is_reserved":false,"is_disabled":false,"rental_uris":{"android":"levelo://app?vid=846cb1fb-7359-4170-aa06-396b3a867e97","ios":"levelo://app?vid=846cb1fb-7359-4170-aa06-396b3a867e97"},"vehicle_type_id":"4","last_reported":1715195168,"current_range_meters":18800,"station_id":"ce4bgkh2rcd13ifvqbl0","pricing_plan_id":"cebpf4jnsgd1na2vs0mg"},{"bike_id":"c9f10882-d80d-44b4-a25b-6506049cd00a","system_id":"levelo_inurba_marseille","lat":43.29719,"lon":5.37714,"is_reserved":false,"is_disabled":false,"rental_uris":{"android":"levelo://app?vid=c9f10882-d80d-44b4-a25b-6506049cd00a","ios":"levelo://app?vid=c9f10882-d80d-44b4-a25b-6506049cd00a"},"vehicle_type_id":"4","last_reported":1715195168,"current_range_meters":11200,"station_id":"ce4bgkh2rcd13ifvqbl0","pricing_plan_id":"cebpf4jnsgd1na2vs0mg"},{"bike_id":"1e146810-3937-4be6-a856-ebc57714f15a","system_id":"levelo_inurba_marseille","lat":43.29723,"lon":5.37726,"is_reserved":false,"is_disabled":false,"rental_uris":{"android":"levelo://app?vid=1e146810-3937-4be6-a856-ebc57714f15a","ios":"levelo://app?vid=1e146810-3937-4be6-a856-ebc57714f15a"},"vehicle_type_id":"4","last_reported":1715195168,"current_range_meters":18400,"station_id":"ce4bgkh2rcd13ifvqbl0","pricing_plan_id":"cebpf4jnsgd1na2vs0mg"},{"bike_id":"1921e64c-4712-40b0-a4aa-bf7bff09dfa8","system_id":"levelo_inurba_marseille","lat":43.29717,"lon":5.37709,"is_reserved":false,"is_disabled":false,"rental_uris":{"android":"levelo://app?vid=1921e64c-4712-40b0-a4aa-bf7bff09dfa8","ios":"levelo://app?vid=1921e64c-4712-40b0-a4aa-bf7bff09dfa8"},"vehicle_type_id":"4","last_reported":1715195168,"current_range_meters":17200,"station_id":"ce4bgkh2rcd13ifvqbl0","pricing_plan_id":"cebpf4jnsgd1na2vs0mg"},{"bike_id":"522f2cea-270e-4a83-bd25-70b0d814632f","system_id":"levelo_inurba_marseille","lat":43.29714,"lon":5.37701,"is_reserved":false,"is_disabled":false,"rental_uris":{"android":"levelo://app?vid=522f2cea-270e-4a83-bd25-70b0d814632f","ios":"levelo://app?vid=522f2cea-270e-4a83-bd25-70b0d814632f"},"vehicle_type_id":"4","last_reported":1715195168,"current_range_meters":22000,"station_id":"ce4bgkh2rcd13ifvqbl0","pricing_plan_id":"cebpf4jnsgd1na2vs0mg"},{"bike_id":"6387d791-46d4-4f66-ac9d-451f1138ee2c","system_id":"levelo_inurba_marseille","lat":43.29712,"lon":5.37696,"is_reserved":false,"is_disabled":false,"rental_uris":{"android":"levelo://app?vid=6387d791-46d4-4f66-ac9d-451f1138ee2c","ios":"levelo://app?vid=6387d791-46d4-4f66-ac9d-451f1138ee2c"},"vehicle_type_id":"4","last_reported":1715195168,"current_range_meters":19200,"station_id":"ce4bgkh2rcd13ifvqbl0","pricing_plan_id":"cebpf4jnsgd1na2vs0mg"},{"bike_id":"e5491dc5-fe48-4e80-bb94-29143ca3ba00","system_id":"levelo_inurba_marseille","lat":43.29717,"lon":5.37712,"is_reserved":false,"is_disabled":false,"rental_uris":{"android":"levelo://app?vid=e5491dc5-fe48-4e80-bb94-29143ca3ba00","ios":"levelo://app?vid=e5491dc5-fe48-4e80-bb94-29143ca3ba00"},"vehicle_type_id":"4","last_reported":1715195168,"current_range_meters":15600,"station_id":"ce4bgkh2rcd13ifvqbl0","pricing_plan_id":"cebpf4jnsgd1na2vs0mg"},{"bike_id":"930e4924-1115-4f65-b389-ed4c304a01cf","system_id":"levelo_inurba_marseille","lat":43.29718,"lon":5.37715,"is_reserved":false,"is_disabled":false,"rental_uris":{"android":"levelo://app?vid=930e4924-1115-4f65-b389-ed4c304a01cf","ios":"levelo://app?vid=930e4924-1115-4f65-b389-ed4c304a01cf"},"vehicle_type_id":"4","last_reported":1715195168,"current_range_meters":7600,"station_id":"ce4bgkh2rcd13ifvqbl0","pricing_plan_id":"cebpf4jnsgd1na2vs0mg"},{"bike_id":"4ef03589-b5bd-4eb4-862d-2fbbff1b5382","system_id":"levelo_inurba_marseille","lat":43.296969,"lon":5.376541,"is_reserved":false,"is_disabled":false,"rental_uris":{"android":"levelo://app?vid=4ef03589-b5bd-4eb4-862d-2fbbff1b5382","ios":"levelo://app?vid=4ef03589-b5bd-4eb4-862d-2fbbff1b5382"},"vehicle_type_id":"4","last_reported":1715195168,"current_range_meters":3200,"station_id":"ce4bgkh2rcd13ifvqbl0","pricing_plan_id":"cebpf4jnsgd1na2vs0mg"},{"bike_id":"9c47d86b-2248-498e-ba49-620a22706afb","system_id":"levelo_inurba_marseille","lat":43.29718,"lon":5.37717,"is_reserved":false,"is_disabled":false,"rental_uris":{"android":"levelo://app?vid=9c47d86b-2248-498e-ba49-620a22706afb","ios":"levelo://app?vid=9c47d86b-2248-498e-ba49-620a22706afb"},"vehicle_type_id":"4","last_reported":1715195168,"current_range_meters":8400,"station_id":"ce4bgkh2rcd13ifvqbl0","pricing_plan_id":"cebpf4jnsgd1na2vs0mg"},{"bike_id":"87562147-b0ae-4503-8e36-cb674d63e0b8","system_id":"levelo_inurba_marseille","lat":43.29715,"lon":5.37709,"is_reserved":false,"is_disabled":false,"rental_uris":{"android":"levelo://app?vid=87562147-b0ae-4503-8e36-cb674d63e0b8","ios":"levelo://app?vid=87562147-b0ae-4503-8e36-cb674d63e0b8"},"vehicle_type_id":"4","last_reported":1715195168,"current_range_meters":3200,"station_id":"ce4bgkh2rcd13ifvqbl0","pricing_plan_id":"cebpf4jnsgd1na2vs0mg"},{"bike_id":"fd2dcf3d-dc64-4ca4-8aef-a091cefff460","system_id":"levelo_inurba_marseille","lat":43.29715,"lon":5.37709,"is_reserved":false,"is_disabled":false,"rental_uris":{"android":"levelo://app?vid=fd2dcf3d-dc64-4ca4-8aef-a091cefff460","ios":"levelo://app?vid=fd2dcf3d-dc64-4ca4-8aef-a091cefff460"},"vehicle_type_id":"4","last_reported":1715195168,"current_range_meters":2400,"station_id":"ce4bgkh2rcd13ifvqbl0","pricing_plan_id":"cebpf4jnsgd1na2vs0mg"},{"bike_id":"a39ee759-d09d-4233-afaa-48e0c87e52ad","system_id":"levelo_inurba_marseille","lat":43.29713,"lon":5.37704,"is_reserved":false,"is_disabled":false,"rental_uris":{"android":"levelo://app?vid=a39ee759-d09d-4233-afaa-48e0c87e52ad","ios":"levelo://app?vid=a39ee759-d09d-4233-afaa-48e0c87e52ad"},"vehicle_type_id":"4","last_reported":1715195168,"current_range_meters":18000,"station_id":"ce4bgkh2rcd13ifvqbl0","pricing_plan_id":"cebpf4jnsgd1na2vs0mg"},{"bike_id":"aacfe9cf-fa29-411c-a5e9-7ffbdfc8adbe","system_id":"levelo_inurba_marseille","lat":43.29717,"lon":5.37717,"is_reserved":false,"is_disabled":false,"rental_uris":{"android":"levelo://app?vid=aacfe9cf-fa29-411c-a5e9-7ffbdfc8adbe","ios":"levelo://app?vid=aacfe9cf-fa29-411c-a5e9-7ffbdfc8adbe"},"vehicle_type_id":"4","last_reported":1715195168,"current_range_meters":12000,"station_id":"ce4bgkh2rcd13ifvqbl0","pricing_plan_id":"cebpf4jnsgd1na2vs0mg"},{"bike_id":"ee2f61ae-c977-4841-bd52-2d9f2a48e95a","system_id":"levelo_inurba_marseille","lat":43.297085,"lon":5.376928,"is_reserved":false,"is_disabled":false,"rental_uris":{"android":"levelo://app?vid=ee2f61ae-c977-4841-bd52-2d9f2a48e95a","ios":"levelo://app?vid=ee2f61ae-c977-4841-bd52-2d9f2a48e95a"},"vehicle_type_id":"4","last_reported":1715195168,"current_range_meters":8400,"station_id":"ce4bgkh2rcd13ifvqbl0","pricing_plan_id":"cebpf4jnsgd1na2vs0mg"},{"bike_id":"20018116-4fcb-48f5-8042-ec6bc2d87ae4","system_id":"levelo_inurba_marseille","lat":43.29713,"lon":5.37708,"is_reserved":false,"is_disabled":false,"rental_uris":{"android":"levelo://app?vid=20018116-4fcb-48f5-8042-ec6bc2d87ae4","ios":"levelo://app?vid=20018116-4fcb-48f5-8042-ec6bc2d87ae4"},"vehicle_type_id":"4","last_reported":1715195168,"current_range_meters":14000,"station_id":"ce4bgkh2rcd13ifvqbl0","pricing_plan_id":"cebpf4jnsgd1na2vs0mg"},{"bike_id":"81139b96-5ec9-44cf-a0e0-ad22d9b454d6","system_id":"levelo_inurba_marseille","lat":43.29713,"lon":5.37708,"is_reserved":false,"is_disabled":false,"rental_uris":{"android":"levelo://app?vid=81139b96-5ec9-44cf-a0e0-ad22d9b454d6","ios":"levelo://app?vid=81139b96-5ec9-44cf-a0e0-ad22d9b454d6"},"vehicle_type_id":"4","last_reported":1715195168,"current_range_meters":29200,"station_id":"ce4bgkh2rcd13ifvqbl0","pricing_plan_id":"cebpf4jnsgd1na2vs0mg"},{"bike_id":"3841b6a5-727d-43a9-8305-357e3e5f7634","system_id":"levelo_inurba_marseille","lat":43.29712,"lon":5.37707,"is_reserved":false,"is_disabled":false,"rental_uris":{"android":"levelo://app?vid=3841b6a5-727d-43a9-8305-357e3e5f7634","ios":"levelo://app?vid=3841b6a5-727d-43a9-8305-357e3e5f7634"},"vehicle_type_id":"4","last_reported":1715195168,"current_range_meters":13200,"station_id":"ce4bgkh2rcd13ifvqbl0","pricing_plan_id":"cebpf4jnsgd1na2vs0mg"},{"bike_id":"f7700933-202b-4daf-ade6-7de49b49bb7b","system_id":"levelo_inurba_marseille","lat":43.29716,"lon":5.3772,"is_reserved":false,"is_disabled":false,"rental_uris":{"android":"levelo://app?vid=f7700933-202b-4daf-ade6-7de49b49bb7b","ios":"levelo://app?vid=f7700933-202b-4daf-ade6-7de49b49bb7b"},"vehicle_type_id":"4","last_reported":1715195168,"current_range_meters":11600,"station_id":"ce4bgkh2rcd13ifvqbl0","pricing_plan_id":"cebpf4jnsgd1na2vs0mg"},{"bike_id":"b6d29103-6fa9-4c1e-bf44-a0508d78e3e1","system_id":"levelo_inurba_marseille","lat":43.29716,"lon":5.3772,"is_reserved":false,"is_disabled":false,"rental_uris":{"android":"levelo://app?vid=b6d29103-6fa9-4c1e-bf44-a0508d78e3e1","ios":"levelo://app?vid=b6d29103-6fa9-4c1e-bf44-a0508d78e3e1"},"vehicle_type_id":"4","last_reported":1715195168,"current_range_meters":24800,"station_id":"ce4bgkh2rcd13ifvqbl0","pricing_plan_id":"cebpf4jnsgd1na2vs0mg"},{"bike_id":"33fb775f-b4e2-4828-b1ef-f57264dfb1ab","system_id":"levelo_inurba_marseille","lat":43.29715,"lon":5.37722,"is_reserved":false,"is_disabled":false,"rental_uris":{"android":"levelo://app?vid=33fb775f-b4e2-4828-b1ef-f57264dfb1ab","ios":"levelo://app?vid=33fb775f-b4e2-4828-b1ef-f57264dfb1ab"},"vehicle_type_id":"4","last_reported":1715195168,"current_range_meters":29600,"station_id":"ce4bgkh2rcd13ifvqbl0","pricing_plan_id":"cebpf4jnsgd1na2vs0mg"},{"bike_id":"6146c6ca-554f-4c23-96bc-45912be04159","system_id":"levelo_inurba_marseille","lat":43.29713,"lon":5.37717,"is_reserved":false,"is_disabled":false,"rental_uris":{"android":"levelo://app?vid=6146c6ca-554f-4c23-96bc-45912be04159","ios":"levelo://app?vid=6146c6ca-554f-4c23-96bc-45912be04159"},"vehicle_type_id":"4","last_reported":1715195168,"current_range_meters":30000,"station_id":"ce4bgkh2rcd13ifvqbl0","pricing_plan_id":"cebpf4jnsgd1na2vs0mg"},{"bike_id":"e494cd90-107e-4751-9f93-8475a85365cd","system_id":"levelo_inurba_marseille","lat":43.296985,"lon":5.376768,"is_reserved":false,"is_disabled":false,"rental_uris":{"android":"levelo://app?vid=e494cd90-107e-4751-9f93-8475a85365cd","ios":"levelo://app?vid=e494cd90-107e-4751-9f93-8475a85365cd"},"vehicle_type_id":"4","last_reported":1715195168,"current_range_meters":19600,"station_id":"ce4bgkh2rcd13ifvqbl0","pricing_plan_id":"cebpf4jnsgd1na2vs0mg"},{"bike_id":"3b0f7c9f-903b-477d-82cb-8ad98bc3d217","system_id":"levelo_inurba_marseille","lat":43.29705,"lon":5.37697,"is_reserved":false,"is_disabled":false,"rental_uris":{"android":"levelo://app?vid=3b0f7c9f-903b-477d-82cb-8ad98bc3d217","ios":"levelo://app?vid=3b0f7c9f-903b-477d-82cb-8ad98bc3d217"},"vehicle_type_id":"4","last_reported":1715195168,"current_range_meters":26400,"station_id":"ce4bgkh2rcd13ifvqbl0","pricing_plan_id":"cebpf4jnsgd1na2vs0mg"},{"bike_id":"85435d1f-de0f-46cf-bcc7-3f3793cbc4d7","system_id":"levelo_inurba_marseille","lat":43.29708,"lon":5.37708,"is_reserved":false,"is_disabled":false,"rental_uris":{"android":"levelo://app?vid=85435d1f-de0f-46cf-bcc7-3f3793cbc4d7","ios":"levelo://app?vid=85435d1f-de0f-46cf-bcc7-3f3793cbc4d7"},"vehicle_type_id":"4","last_reported":1715195168,"current_range_meters":9600,"station_id":"ce4bgkh2rcd13ifvqbl0","pricing_plan_id":"cebpf4jnsgd1na2vs0mg"},{"bike_id":"0942c6d4-be77-4e43-8231-056601d52af3","system_id":"levelo_inurba_marseille","lat":43.297054,"lon":5.377026,"is_reserved":false,"is_disabled":false,"rental_uris":{"android":"levelo://app?vid=0942c6d4-be77-4e43-8231-056601d52af3","ios":"levelo://app?vid=0942c6d4-be77-4e43-8231-056601d52af3"},"vehicle_type_id":"4","last_reported":1715195168,"current_range_meters":11200,"station_id":"","pricing_plan_id":"cebpf4jnsgd1na2vs0mg"},{"bike_id":"c8008d91-6d46-4b48-a3a0-d2d5e27bf982","system_id":"levelo_inurba_marseille","lat":43.29713,"lon":5.37726,"is_reserved":false,"is_disabled":false,"rental_uris":{"android":"levelo://app?vid=c8008d91-6d46-4b48-a3a0-d2d5e27bf982","ios":"levelo://app?vid=c8008d91-6d46-4b48-a3a0-d2d5e27bf982"},"vehicle_type_id":"4","last_reported":1715195168,"current_range_meters":8000,"station_id":"ce4bgkh2rcd13ifvqbl0","pricing_plan_id":"cebpf4jnsgd1na2vs0mg"},{"bike_id":"91f0368d-cf7f-4874-817d-d943dfd03e43","system_id":"levelo_inurba_marseille","lat":43.2971,"lon":5.37724,"is_reserved":false,"is_disabled":false,"rental_uris":{"android":"levelo://app?vid=91f0368d-cf7f-4874-817d-d943dfd03e43","ios":"levelo://app?vid=91f0368d-cf7f-4874-817d-d943dfd03e43"},"vehicle_type_id":"4","last_reported":1715195168,"current_range_meters":3200,"station_id":"ce4bgkh2rcd13ifvqbl0","pricing_plan_id":"cebpf4jnsgd1na2vs0mg"},{"bike_id":"4043f418-a70c-4f53-9534-52b82ea78ff7","system_id":"levelo_inurba_marseille","lat":43.2971,"lon":5.37727,"is_reserved":false,"is_disabled":false,"rental_uris":{"android":"levelo://app?vid=4043f418-a70c-4f53-9534-52b82ea78ff7","ios":"levelo://app?vid=4043f418-a70c-4f53-9534-52b82ea78ff7"},"vehicle_type_id":"4","last_reported":1715195168,"current_range_meters":2800,"station_id":"ce4bgkh2rcd13ifvqbl0","pricing_plan_id":"cebpf4jnsgd1na2vs0mg"},{"bike_id":"a6a2f2e9-abe8-4acd-8716-cf9bba63ef75","system_id":"levelo_inurba_marseille","lat":43.2971,"lon":5.37731,"is_reserved":false,"is_disabled":false,"rental_uris":{"android":"levelo://app?vid=a6a2f2e9-abe8-4acd-8716-cf9bba63ef75","ios":"levelo://app?vid=a6a2f2e9-abe8-4acd-8716-cf9bba63ef75"},"vehicle_type_id":"4","last_reported":1715195168,"current_range_meters":27200,"station_id":"ce4bgkh2rcd13ifvqbl0","pricing_plan_id":"cebpf4jnsgd1na2vs0mg"},{"bike_id":"79fd42ca-df6b-4df9-9fab-2aa93f2f5ad7","system_id":"levelo_inurba_marseille","lat":43.29706,"lon":5.3773,"is_reserved":false,"is_disabled":false,"rental_uris":{"android":"levelo://app?vid=79fd42ca-df6b-4df9-9fab-2aa93f2f5ad7","ios":"levelo://app?vid=79fd42ca-df6b-4df9-9fab-2aa93f2f5ad7"},"vehicle_type_id":"4","last_reported":1715195168,"current_range_meters":4400,"station_id":"ce4bgkh2rcd13ifvqbl0","pricing_plan_id":"cebpf4jnsgd1na2vs0mg"},{"bike_id":"51ff2ab7-d8d8-4d9f-8c88-09f64634c111","system_id":"levelo_inurba_marseille","lat":43.29682,"lon":5.37702,"is_reserved":false,"is_disabled":false,"rental_uris":{"android":"levelo://app?vid=51ff2ab7-d8d8-4d9f-8c88-09f64634c111","ios":"levelo://app?vid=51ff2ab7-d8d8-4d9f-8c88-09f64634c111"},"vehicle_type_id":"4","last_reported":1715195168,"current_range_meters":24800,"station_id":"ce4bgkh2rcd13ifvqbl0","pricing_plan_id":"cebpf4jnsgd1na2vs0mg"},{"bike_id":"ba425eed-8b1d-481e-a0b2-76aff32afac4","system_id":"levelo_inurba_marseille","lat":43.31751,"lon":5.39015,"is_reserved":false,"is_disabled":false,"rental_uris":{"android":"levelo://app?vid=ba425eed-8b1d-481e-a0b2-76aff32afac4","ios":"levelo://app?vid=ba425eed-8b1d-481e-a0b2-76aff32afac4"},"vehicle_type_id":"4","last_reported":1715195168,"current_range_meters":10400,"station_id":"ce4bhqp2rcd13ifvqhng","pricing_plan_id":"cebpf4jnsgd1na2vs0mg"},{"bike_id":"8f48ab1b-492c-4d73-80db-59b869cecdf5","system_id":"levelo_inurba_marseille","lat":43.31757,"lon":5.39016,"is_reserved":false,"is_disabled":false,"rental_uris":{"android":"levelo://app?vid=8f48ab1b-492c-4d73-80db-59b869cecdf5","ios":"levelo://app?vid=8f48ab1b-492c-4d73-80db-59b869cecdf5"},"vehicle_type_id":"4","last_reported":1715195168,"current_range_meters":0,"station_id":"ce4bhqp2rcd13ifvqhng","pricing_plan_id":"cebpf4jnsgd1na2vs0mg"},{"bike_id":"2bd2fa3f-61a4-4413-81bb-fb2a2a089370","system_id":"levelo_inurba_marseille","lat":43.298061,"lon":5.380882,"is_reserved":false,"is_disabled":false,"rental_uris":{"android":"levelo://app?vid=2bd2fa3f-61a4-4413-81bb-fb2a2a089370","ios":"levelo://app?vid=2bd2fa3f-61a4-4413-81bb-fb2a2a089370"},"vehicle_type_id":"4","last_reported":1715195168,"current_range_meters":5600,"station_id":"ce4bgip2rcd13ifvqbb0","pricing_plan_id":"cebpf4jnsgd1na2vs0mg"},{"bike_id":"e0c332e1-b2eb-4226-bc18-e8eddc998b13","system_id":"levelo_inurba_marseille","lat":43.298047,"lon":5.380909,"is_reserved":false,"is_disabled":false,"rental_uris":{"android":"levelo://app?vid=e0c332e1-b2eb-4226-bc18-e8eddc998b13","ios":"levelo://app?vid=e0c332e1-b2eb-4226-bc18-e8eddc998b13"},"vehicle_type_id":"4","last_reported":1715195168,"current_range_meters":14800,"station_id":"ce4bgip2rcd13ifvqbb0","pricing_plan_id":"cebpf4jnsgd1na2vs0mg"},{"bike_id":"81b76db3-c9d2-4f94-8c6e-055177a65535","system_id":"levelo_inurba_marseille","lat":43.298037,"lon":5.381066,"is_reserved":false,"is_disabled":false,"rental_uris":{"android":"levelo://app?vid=81b76db3-c9d2-4f94-8c6e-055177a65535","ios":"levelo://app?vid=81b76db3-c9d2-4f94-8c6e-055177a65535"},"vehicle_type_id":"4","last_reported":1715195168,"current_range_meters":18000,"station_id":"ce4bgip2rcd13ifvqbb0","pricing_plan_id":"cebpf4jnsgd1na2vs0mg"},{"bike_id":"ad3d8dcf-9cb9-4a76-aab0-4d21d78d7da5","system_id":"levelo_inurba_marseille","lat":43.298037,"lon":5.381066,"is_reserved":false,"is_disabled":false,"rental_uris":{"android":"levelo://app?vid=ad3d8dcf-9cb9-4a76-aab0-4d21d78d7da5","ios":"levelo://app?vid=ad3d8dcf-9cb9-4a76-aab0-4d21d78d7da5"},"vehicle_type_id":"4","last_reported":1715195168,"current_range_meters":16800,"station_id":"ce4bgip2rcd13ifvqbb0","pricing_plan_id":"cebpf4jnsgd1na2vs0mg"},{"bike_id":"2b1cc970-9201-4222-a326-cdf1fe15c999","system_id":"levelo_inurba_marseille","lat":43.298037,"lon":5.381066,"is_reserved":false,"is_disabled":false,"rental_uris":{"android":"levelo://app?vid=2b1cc970-9201-4222-a326-cdf1fe15c999","ios":"levelo://app?vid=2b1cc970-9201-4222-a326-cdf1fe15c999"},"vehicle_type_id":"4","last_reported":1715195168,"current_range_meters":6800,"station_id":"ce4bgip2rcd13ifvqbb0","pricing_plan_id":"cebpf4jnsgd1na2vs0mg"},{"bike_id":"e7f13b35-7473-41cf-b08b-a9d0c1521de1","system_id":"levelo_inurba_marseille","lat":43.30443,"lon":5.38879,"is_reserved":false,"is_disabled":false,"rental_uris":{"android":"levelo://app?vid=e7f13b35-7473-41cf-b08b-a9d0c1521de1","ios":"levelo://app?vid=e7f13b35-7473-41cf-b08b-a9d0c1521de1"},"vehicle_type_id":"4","last_reported":1715195168,"current_range_meters":3600,"station_id":"ce4bgk12rcd13ifvqbi0","pricing_plan_id":"cebpf4jnsgd1na2vs0mg"},{"bike_id":"dba40a8e-5d45-4aa6-b13a-a120be77048f","system_id":"levelo_inurba_marseille","lat":43.297966,"lon":5.380935,"is_reserved":false,"is_disabled":false,"rental_uris":{"android":"levelo://app?vid=dba40a8e-5d45-4aa6-b13a-a120be77048f","ios":"levelo://app?vid=dba40a8e-5d45-4aa6-b13a-a120be77048f"},"vehicle_type_id":"4","last_reported":1715195168,"current_range_meters":2000,"station_id":"ce4bgip2rcd13ifvqbb0","pricing_plan_id":"cebpf4jnsgd1na2vs0mg"},{"bike_id":"b540046a-e5eb-4f0b-83cb-024b18a81b7c","system_id":"levelo_inurba_marseille","lat":43.297952,"lon":5.38092,"is_reserved":false,"is_disabled":false,"rental_uris":{"android":"levelo://app?vid=b540046a-e5eb-4f0b-83cb-024b18a81b7c","ios":"levelo://app?vid=b540046a-e5eb-4f0b-83cb-024b18a81b7c"},"vehicle_type_id":"4","last_reported":1715195168,"current_range_meters":14800,"station_id":"ce4bgip2rcd13ifvqbb0","pricing_plan_id":"cebpf4jnsgd1na2vs0mg"},{"bike_id":"93366117-b35e-4c83-ba0c-9e0f081e4e55","system_id":"levelo_inurba_marseille","lat":43.297952,"lon":5.380944,"is_reserved":false,"is_disabled":false,"rental_uris":{"android":"levelo://app?vid=93366117-b35e-4c83-ba0c-9e0f081e4e55","ios":"levelo://app?vid=93366117-b35e-4c83-ba0c-9e0f081e4e55"},"vehicle_type_id":"4","last_reported":1715195168,"current_range_meters":13200,"station_id":"ce4bgip2rcd13ifvqbb0","pricing_plan_id":"cebpf4jnsgd1na2vs0mg"},{"bike_id":"87ed5822-17d5-44cf-b9d8-3644ca6c56b8","system_id":"levelo_inurba_marseille","lat":43.29796,"lon":5.38102,"is_reserved":false,"is_disabled":false,"rental_uris":{"android":"levelo://app?vid=87ed5822-17d5-44cf-b9d8-3644ca6c56b8","ios":"levelo://app?vid=87ed5822-17d5-44cf-b9d8-3644ca6c56b8"},"vehicle_type_id":"4","last_reported":1715195168,"current_range_meters":19200,"station_id":"ce4bgip2rcd13ifvqbb0","pricing_plan_id":"cebpf4jnsgd1na2vs0mg"},{"bike_id":"3d1d6b54-5954-40f0-8600-a7d9c71360f1","system_id":"levelo_inurba_marseille","lat":43.297951,"lon":5.381011,"is_reserved":false,"is_disabled":false,"rental_uris":{"android":"levelo://app?vid=3d1d6b54-5954-40f0-8600-a7d9c71360f1","ios":"levelo://app?vid=3d1d6b54-5954-40f0-8600-a7d9c71360f1"},"vehicle_type_id":"4","last_reported":1715195168,"current_range_meters":0,"station_id":"ce4bgip2rcd13ifvqbb0","pricing_plan_id":"cebpf4jnsgd1na2vs0mg"},{"bike_id":"5aac0ec3-13d9-4056-84dc-208d0d2baa17","system_id":"levelo_inurba_marseille","lat":43.29795,"lon":5.38105,"is_reserved":false,"is_disabled":false,"rental_uris":{"android":"levelo://app?vid=5aac0ec3-13d9-4056-84dc-208d0d2baa17","ios":"levelo://app?vid=5aac0ec3-13d9-4056-84dc-208d0d2baa17"},"vehicle_type_id":"4","last_reported":1715195168,"current_range_meters":0,"station_id":"ce4bgip2rcd13ifvqbb0","pricing_plan_id":"cebpf4jnsgd1na2vs0mg"},{"bike_id":"087dc845-5a69-4a07-8ac0-f5445f3a1ad1","system_id":"levelo_inurba_marseille","lat":43.297925,"lon":5.381,"is_reserved":false,"is_disabled":false,"rental_uris":{"android":"levelo://app?vid=087dc845-5a69-4a07-8ac0-f5445f3a1ad1","ios":"levelo://app?vid=087dc845-5a69-4a07-8ac0-f5445f3a1ad1"},"vehicle_type_id":"4","last_reported":1715195168,"current_range_meters":13200,"station_id":"ce4bgip2rcd13ifvqbb0","pricing_plan_id":"cebpf4jnsgd1na2vs0mg"},{"bike_id":"8ccdf974-cd2f-4bbd-ab49-14c2697b5049","system_id":"levelo_inurba_marseille","lat":43.298037,"lon":5.381066,"is_reserved":false,"is_disabled":false,"rental_uris":{"android":"levelo://app?vid=8ccdf974-cd2f-4bbd-ab49-14c2697b5049","ios":"levelo://app?vid=8ccdf974-cd2f-4bbd-ab49-14c2697b5049"},"vehicle_type_id":"4","last_reported":1715195168,"current_range_meters":13600,"station_id":"ce4bgip2rcd13ifvqbb0","pricing_plan_id":"cebpf4jnsgd1na2vs0mg"},{"bike_id":"733a4c27-41fe-4cad-9e8f-6f8409e6106f","system_id":"levelo_inurba_marseille","lat":43.297901,"lon":5.381048,"is_reserved":false,"is_disabled":false,"rental_uris":{"android":"levelo://app?vid=733a4c27-41fe-4cad-9e8f-6f8409e6106f","ios":"levelo://app?vid=733a4c27-41fe-4cad-9e8f-6f8409e6106f"},"vehicle_type_id":"4","last_reported":1715195168,"current_range_meters":0,"station_id":"ce4bgip2rcd13ifvqbb0","pricing_plan_id":"cebpf4jnsgd1na2vs0mg"},{"bike_id":"afaaff55-0d55-4f89-8729-f5cb896d0ffe","system_id":"levelo_inurba_marseille","lat":43.29785,"lon":5.38096,"is_reserved":false,"is_disabled":false,"rental_uris":{"android":"levelo://app?vid=afaaff55-0d55-4f89-8729-f5cb896d0ffe","ios":"levelo://app?vid=afaaff55-0d55-4f89-8729-f5cb896d0ffe"},"vehicle_type_id":"4","last_reported":1715195168,"current_range_meters":800,"station_id":"ce4bgip2rcd13ifvqbb0","pricing_plan_id":"cebpf4jnsgd1na2vs0mg"},{"bike_id":"f01bea13-05c8-49a9-bcea-9063c843a0b1","system_id":"levelo_inurba_marseille","lat":43.297963,"lon":5.381216,"is_reserved":false,"is_disabled":false,"rental_uris":{"android":"levelo://app?vid=f01bea13-05c8-49a9-bcea-9063c843a0b1","ios":"levelo://app?vid=f01bea13-05c8-49a9-bcea-9063c843a0b1"},"vehicle_type_id":"4","last_reported":1715195168,"current_range_meters":25200,"station_id":"ce4bgip2rcd13ifvqbb0","pricing_plan_id":"cebpf4jnsgd1na2vs0mg"},{"bike_id":"ffa7363b-92bf-4963-9389-aeade0548ebb","system_id":"levelo_inurba_marseille","lat":43.30421,"lon":5.38883,"is_reserved":false,"is_disabled":false,"rental_uris":{"android":"levelo://app?vid=ffa7363b-92bf-4963-9389-aeade0548ebb","ios":"levelo://app?vid=ffa7363b-92bf-4963-9389-aeade0548ebb"},"vehicle_type_id":"4","last_reported":1715195168,"current_range_meters":400,"station_id":"ce4bgk12rcd13ifvqbi0","pricing_plan_id":"cebpf4jnsgd1na2vs0mg"},{"bike_id":"0b581ebc-e455-4a17-9817-44b83c7119a6","system_id":"levelo_inurba_marseille","lat":43.297871,"lon":5.381055,"is_reserved":false,"is_disabled":false,"rental_uris":{"android":"levelo://app?vid=0b581ebc-e455-4a17-9817-44b83c7119a6","ios":"levelo://app?vid=0b581ebc-e455-4a17-9817-44b83c7119a6"},"vehicle_type_id":"4","last_reported":1715195168,"current_range_meters":0,"station_id":"ce4bgip2rcd13ifvqbb0","pricing_plan_id":"cebpf4jnsgd1na2vs0mg"},{"bike_id":"5c5dabac-3072-4755-b850-18b9d84e1945","system_id":"levelo_inurba_marseille","lat":43.297895,"lon":5.381124,"is_reserved":false,"is_disabled":false,"rental_uris":{"android":"levelo://app?vid=5c5dabac-3072-4755-b850-18b9d84e1945","ios":"levelo://app?vid=5c5dabac-3072-4755-b850-18b9d84e1945"},"vehicle_type_id":"4","last_reported":1715195168,"current_range_meters":13600,"station_id":"ce4bgip2rcd13ifvqbb0","pricing_plan_id":"cebpf4jnsgd1na2vs0mg"},{"bike_id":"cfe665de-72c2-4182-8335-9fe1440697e1","system_id":"levelo_inurba_marseille","lat":43.30427,"lon":5.38889,"is_reserved":false,"is_disabled":false,"rental_uris":{"android":"levelo://app?vid=cfe665de-72c2-4182-8335-9fe1440697e1","ios":"levelo://app?vid=cfe665de-72c2-4182-8335-9fe1440697e1"},"vehicle_type_id":"4","last_reported":1715195168,"current_range_meters":4000,"station_id":"ce4bgk12rcd13ifvqbi0","pricing_plan_id":"cebpf4jnsgd1na2vs0mg"},{"bike_id":"ea8fa9d7-94cc-4cec-8f75-d099df66fd5b","system_id":"levelo_inurba_marseille","lat":43.29777,"lon":5.38089,"is_reserved":false,"is_disabled":false,"rental_uris":{"android":"levelo://app?vid=ea8fa9d7-94cc-4cec-8f75-d099df66fd5b","ios":"levelo://app?vid=ea8fa9d7-94cc-4cec-8f75-d099df66fd5b"},"vehicle_type_id":"4","last_reported":1715195168,"current_range_meters":12800,"station_id":"ce4bgip2rcd13ifvqbb0","pricing_plan_id":"cebpf4jnsgd1na2vs0mg"},{"bike_id":"d70636f1-844f-48b3-94d5-a8313186e201","system_id":"levelo_inurba_marseille","lat":43.29792,"lon":5.38119,"is_reserved":false,"is_disabled":false,"rental_uris":{"android":"levelo://app?vid=d70636f1-844f-48b3-94d5-a8313186e201","ios":"levelo://app?vid=d70636f1-844f-48b3-94d5-a8313186e201"},"vehicle_type_id":"4","last_reported":1715195168,"current_range_meters":0,"station_id":"ce4bgip2rcd13ifvqbb0","pricing_plan_id":"cebpf4jnsgd1na2vs0mg"},{"bike_id":"ed25c5e8-1eed-4c94-a7b1-39507102c425","system_id":"levelo_inurba_marseille","lat":43.29792,"lon":5.38119,"is_reserved":false,"is_disabled":false,"rental_uris":{"android":"levelo://app?vid=ed25c5e8-1eed-4c94-a7b1-39507102c425","ios":"levelo://app?vid=ed25c5e8-1eed-4c94-a7b1-39507102c425"},"vehicle_type_id":"4","last_reported":1715195168,"current_range_meters":2400,"station_id":"ce4bgip2rcd13ifvqbb0","pricing_plan_id":"cebpf4jnsgd1na2vs0mg"},{"bike_id":"b11910f6-0a2e-4179-9bdd-f3b80df7e725","system_id":"levelo_inurba_marseille","lat":43.298037,"lon":5.381066,"is_reserved":false,"is_disabled":false,"rental_uris":{"android":"levelo://app?vid=b11910f6-0a2e-4179-9bdd-f3b80df7e725","ios":"levelo://app?vid=b11910f6-0a2e-4179-9bdd-f3b80df7e725"},"vehicle_type_id":"4","last_reported":1715195168,"current_range_meters":0,"station_id":"ce4bgip2rcd13ifvqbb0","pricing_plan_id":"cebpf4jnsgd1na2vs0mg"},{"bike_id":"fbdb4db2-89e0-48a3-9ff9-2e7b1e610aa3","system_id":"levelo_inurba_marseille","lat":43.304197,"lon":5.388864,"is_reserved":false,"is_disabled":false,"rental_uris":{"android":"levelo://app?vid=fbdb4db2-89e0-48a3-9ff9-2e7b1e610aa3","ios":"levelo://app?vid=fbdb4db2-89e0-48a3-9ff9-2e7b1e610aa3"},"vehicle_type_id":"4","last_reported":1715195168,"current_range_meters":0,"station_id":"ce4bgk12rcd13ifvqbi0","pricing_plan_id":"cebpf4jnsgd1na2vs0mg"},{"bike_id":"eb43d587-f881-468a-b931-3d4840c9660c","system_id":"levelo_inurba_marseille","lat":43.30422,"lon":5.38889,"is_reserved":false,"is_disabled":false,"rental_uris":{"android":"levelo://app?vid=eb43d587-f881-468a-b931-3d4840c9660c","ios":"levelo://app?vid=eb43d587-f881-468a-b931-3d4840c9660c"},"vehicle_type_id":"4","last_reported":1715195168,"current_range_meters":2800,"station_id":"ce4bgk12rcd13ifvqbi0","pricing_plan_id":"cebpf4jnsgd1na2vs0mg"},{"bike_id":"7df221a2-4474-486b-94b5-f6cb07fdb2ca","system_id":"levelo_inurba_marseille","lat":43.297783,"lon":5.380964,"is_reserved":false,"is_disabled":false,"rental_uris":{"android":"levelo://app?vid=7df221a2-4474-486b-94b5-f6cb07fdb2ca","ios":"levelo://app?vid=7df221a2-4474-486b-94b5-f6cb07fdb2ca"},"vehicle_type_id":"4","last_reported":1715195168,"current_range_meters":28800,"station_id":"ce4bgip2rcd13ifvqbb0","pricing_plan_id":"cebpf4jnsgd1na2vs0mg"},{"bike_id":"2446fa46-0519-4b29-9df5-152f0c33fdd0","system_id":"levelo_inurba_marseille","lat":43.298037,"lon":5.381066,"is_reserved":false,"is_disabled":false,"rental_uris":{"android":"levelo://app?vid=2446fa46-0519-4b29-9df5-152f0c33fdd0","ios":"levelo://app?vid=2446fa46-0519-4b29-9df5-152f0c33fdd0"},"vehicle_type_id":"4","last_reported":1715195168,"current_range_meters":11600,"station_id":"ce4bgip2rcd13ifvqbb0","pricing_plan_id":"cebpf4jnsgd1na2vs0mg"},{"bike_id":"fcf4ca03-fe1c-4300-b19b-fde9c7557ced","system_id":"levelo_inurba_marseille","lat":43.297667,"lon":5.380938,"is_reserved":false,"is_disabled":false,"rental_uris":{"android":"levelo://app?vid=fcf4ca03-fe1c-4300-b19b-fde9c7557ced","ios":"levelo://app?vid=fcf4ca03-fe1c-4300-b19b-fde9c7557ced"},"vehicle_type_id":"4","last_reported":1715195168,"current_range_meters":0,"station_id":"ce4bgip2rcd13ifvqbb0","pricing_plan_id":"cebpf4jnsgd1na2vs0mg"},{"bike_id":"c3db651b-e6d2-45b8-a1e4-2db1a316c8e2","system_id":"levelo_inurba_marseille","lat":43.290779,"lon":5.371482,"is_reserved":false,"is_disabled":false,"rental_uris":{"android":"levelo://app?vid=c3db651b-e6d2-45b8-a1e4-2db1a316c8e2","ios":"levelo://app?vid=c3db651b-e6d2-45b8-a1e4-2db1a316c8e2"},"vehicle_type_id":"4","last_reported":1715195168,"current_range_meters":22400,"station_id":"ce4bh5p2rcd13ifvqe4g","pricing_plan_id":"cebpf4jnsgd1na2vs0mg"},{"bike_id":"619aec94-d9af-48da-9a96-4907b34ce9a8","system_id":"levelo_inurba_marseille","lat":43.29621,"lon":5.377922,"is_reserved":false,"is_disabled":false,"rental_uris":{"android":"levelo://app?vid=619aec94-d9af-48da-9a96-4907b34ce9a8","ios":"levelo://app?vid=619aec94-d9af-48da-9a96-4907b34ce9a8"},"vehicle_type_id":"4","last_reported":1715195168,"current_range_meters":7600,"station_id":"","pricing_plan_id":"cebpf4jnsgd1na2vs0mg"},