{"last_updated":1737598045,"ttl":60,"version":"2.2","data":{"bikes":[{"bike_id":"8250bc23-026b-4c52-91f8-d5fcc3c10a57","system_id":"levelo_inurba_marseille","lat":43.28028,"lon":5.36932,"is_reserved":false,"is_disabled":false,"rental_uris":{"android":"levelo://app?vid=8250bc23-026b-4c52-91f8-d5fcc3c10a57","ios":"levelo://app?vid=8250bc23-026b-4c52-91f8-d5fcc3c10a57"},"vehicle_type_id":"4","last_reported":1737598045,"current_range_meters":19600,"station_id":"ce4bha12rcd13ifvqef0","pricing_plan_id":"cebpf4jnsgd1na2vs0mg"},{"bike_id":"bc87ebb9-79d8-48ae-98f1-73024abdc038","system_id":"levelo_inurba_marseille","lat":43.29196,"lon":5.36011,"is_reserved":false,"is_disabled":true,"rental_uris":{"android":"levelo://app?vid=bc87ebb9-79d8-48ae-98f1-73024abdc038","ios":"levelo://app?vid=bc87ebb9-79d8-48ae-98f1-73024abdc038"},"vehicle_type_id":"4","last_reported":1737598045,"current_range_meters":0,"station_id":"","pricing_plan_id":"cebpf4jnsgd1na2vs0mg"},{"bike_id":"87cb50d3-bab4-4b1e-851f-791c9114dc6d","system_id":"levelo_inurba_marseille","lat":43.31691,"lon":5.40443,"is_reserved":false,"is_disabled":false,"rental_uris":{"android":"levelo://app?vid=87cb50d3-bab4-4b1e-851f-791c9114dc6d","ios":"levelo://app?vid=87cb50d3-bab4-4b1e-851f-791c9114dc6d"},"vehicle_type_id":"4","last_reported":1737598045,"current_range_meters":26800,"station_id":"ce4bh012rcd13ifvqd00","pricing_plan_id":"cebpf4jnsgd1na2vs0mg"},{"bike_id":"5fe5e92b-23bb-4860-a2fe-86743e81fb05","system_id":"levelo_inurba_marseille","lat":43.28462,"lon":5.35891,"is_reserved":false,"is_disabled":false,"rental_uris":{"android":"levelo://app?vid=5fe5e92b-23bb-4860-a2fe-86743e81fb05","ios":"levelo://app?vid=5fe5e92b-23bb-4860-a2fe-86743e81fb05"},"vehicle_type_id":"4","last_reported":1737598045,"current_range_meters":24400,"station_id":"ce4bhah2rcd13ifvqei0","pricing_plan_id":"cebpf4jnsgd1na2vs0mg"},{"bike_id":"b4515517-c8a5-4347-9a75-b80759d8b378","system_id":"levelo_inurba_marseille","lat":43.29719,"lon":5.36613,"is_reserved":false,"is_disabled":false,"rental_uris":{"android":"levelo://app?vid=b4515517-c8a5-4347-9a75-b80759d8b378","ios":"levelo://app?vid=b4515517-c8a5-4347-9a75-b80759d8b378"},"vehicle_type_id":"4","last_reported":1737598045,"current_range_meters":39200,"station_id":"ce4bgn12rcd13ifvqbt0","pricing_plan_id":"cebpf4jnsgd1na2vs0mg"},{"bike_id":"762c363e-b2db-4405-8db4-1b7c46009985","system_id":"levelo_inurba_marseille","lat":43.28263,"lon":5.35077,"is_reserved":false,"is_disabled":false,"rental_uris":{"android":"levelo://app?vid=762c363e-b2db-4405-8db4-1b7c46009985","ios":"levelo://app?vid=762c363e-b2db-4405-8db4-1b7c46009985"},"vehicle_type_id":"4","last_reported":1737598045,"current_range_meters":33200,"station_id":"ce4bhbp2rcd13ifvqerg","pricing_plan_id":"cebpf4jnsgd1na2vs0mg"},{"bike_id":"26328479-63ef-41c0-a448-bee13cb44c95","system_id":"levelo_inurba_marseille","lat":43.28726,"lon":5.36078,"is_reserved":false,"is_disabled":false,"rental_uris":{"android":"levelo://app?vid=26328479-63ef-41c0-a448-bee13cb44c95","ios":"levelo://app?vid=26328479-63ef-41c0-a448-bee13cb44c95"},"vehicle_type_id":"4","last_reported":1737598045,"current_range_meters":24800,"station_id":"cki0cbj6b192h4jlfktg","pricing_plan_id":"cebpf4jnsgd1na2vs0mg"},{"bike_id":"4d9af203-3667-4745-ac7f-03559c37ec70","system_id":"levelo_inurba_marseille","lat":43.31492,"lon":5.37287,"is_reserved":false,"is_disabled":false,"rental_uris":{"android":"levelo://app?vid=4d9af203-3667-4745-ac7f-03559c37ec70","ios":"levelo://app?vid=4d9af203-3667-4745-ac7f-03559c37ec70"},"vehicle_type_id":"4","last_reported":1737598045,"current_range_meters":28800,"station_id":"ce4bgt12rcd13ifvqcd0","pricing_plan_id":"cebpf4jnsgd1na2vs0mg"},{"bike_id":"fd2f941c-3ecb-4add-92f7-a9fba35a53f1","system_id":"levelo_inurba_marseille","lat":43.30797,"lon":5.38149,"is_reserved":false,"is_disabled":false,"rental_uris":{"android":"levelo://app?vid=fd2f941c-3ecb-4add-92f7-a9fba35a53f1","ios":"levelo://app?vid=fd2f941c-3ecb-4add-92f7-a9fba35a53f1"},"vehicle_type_id":"4","last_reported":1737598045,"current_range_meters":17600,"station_id":"ce4bgt12rcd13ifvqce0","pricing_plan_id":"cebpf4jnsgd1na2vs0mg"},{"bike_id":"ff8edbc1-0daf-4572-a25e-8c008644b9e1","system_id":"levelo_inurba_marseille","lat":43.28573,"lon":5.39473,"is_reserved":false,"is_disabled":false,"rental_uris":{"android":"levelo://app?vid=ff8edbc1-0daf-4572-a25e-8c008644b9e1","ios":"levelo://app?vid=ff8edbc1-0daf-4572-a25e-8c008644b9e1"},"vehicle_type_id":"4","last_reported":1737598045,"current_range_meters":22800,"station_id":"ce4bh292rcd13ifvqdg0","pricing_plan_id":"cebpf4jnsgd1na2vs0mg"},{"bike_id":"c1da0dc5-1590-41d5-a315-106d6d095d63","system_id":"levelo_inurba_marseille","lat":43.287012,"lon":5.3999,"is_reserved":false,"is_disabled":false,"rental_uris":{"android":"levelo://app?vid=c1da0dc5-1590-41d5-a315-106d6d095d63","ios":"levelo://app?vid=c1da0dc5-1590-41d5-a315-106d6d095d63"},"vehicle_type_id":"4","last_reported":1737598045,"current_range_meters":38800,"station_id":"ce4bho92rcd13ifvqh3g","pricing_plan_id":"cebpf4jnsgd1na2vs0mg"},{"bike_id":"92198250-d4ce-4a5f-8d24-92833838c802","system_id":"levelo_inurba_marseille","lat":43.31499,"lon":5.37291,"is_reserved":false,"is_disabled":false,"rental_uris":{"android":"levelo://app?vid=92198250-d4ce-4a5f-8d24-92833838c802","ios":"levelo://app?vid=92198250-d4ce-4a5f-8d24-92833838c802"},"vehicle_type_id":"4","last_reported":1737598045,"current_range_meters":21600,"station_id":"ce4bgt12rcd13ifvqcd0","pricing_plan_id":"cebpf4jnsgd1na2vs0mg"},{"bike_id":"f9509cf3-61c9-4e98-a3dc-ab6e052fedb5","system_id":"levelo_inurba_marseille","lat":43.24056,"lon":5.37686,"is_reserved":false,"is_disabled":false,"rental_uris":{"android":"levelo://app?vid=f9509cf3-61c9-4e98-a3dc-ab6e052fedb5","ios":"levelo://app?vid=f9509cf3-61c9-4e98-a3dc-ab6e052fedb5"},"vehicle_type_id":"4","last_reported":1737598045,"current_range_meters":38800,"station_id":"ce4bhnp2rcd13ifvqgvg","pricing_plan_id":"cebpf4jnsgd1na2vs0mg"},{"bike_id":"2e0eca28-e1ad-4ec2-a49c-41a15043e873","system_id":"levelo_inurba_marseille","lat":43.28484,"lon":5.38565,"is_reserved":false,"is_disabled":false,"rental_uris":{"android":"levelo://app?vid=2e0eca28-e1ad-4ec2-a49c-41a15043e873","ios":"levelo://app?vid=2e0eca28-e1ad-4ec2-a49c-41a15043e873"},"vehicle_type_id":"4","last_reported":1737598045,"current_range_meters":10800,"station_id":"ce4bh8p2rcd13ifvqeb0","pricing_plan_id":"cebpf4jnsgd1na2vs0mg"},{"bike_id":"1d112a4c-9e7e-41d8-8ffb-8c02b95439bd","system_id":"levelo_inurba_marseille","lat":43.28397,"lon":5.37523,"is_reserved":false,"is_disabled":false,"rental_uris":{"android":"levelo://app?vid=1d112a4c-9e7e-41d8-8ffb-8c02b95439bd","ios":"levelo://app?vid=1d112a4c-9e7e-41d8-8ffb-8c02b95439bd"},"vehicle_type_id":"4","last_reported":1737598045,"current_range_meters":36000,"station_id":"ce4bh412rcd13ifvqds0","pricing_plan_id":"cebpf4jnsgd1na2vs0mg"},{"bike_id":"c932d077-56f1-44f2-ba49-f733deaa0c2b","system_id":"levelo_inurba_marseille","lat":43.25727,"lon":5.41107,"is_reserved":false,"is_disabled":false,"rental_uris":{"android":"levelo://app?vid=c932d077-56f1-44f2-ba49-f733deaa0c2b","ios":"levelo://app?vid=c932d077-56f1-44f2-ba49-f733deaa0c2b"},"vehicle_type_id":"4","last_reported":1737598045,"current_range_meters":25600,"station_id":"ce4bhkp2rcd13ifvqgd0","pricing_plan_id":"cebpf4jnsgd1na2vs0mg"},{"bike_id":"072f5722-d87d-4ece-bf31-dd6ae05be1e6","system_id":"levelo_inurba_marseille","lat":43.33013,"lon":5.39043,"is_reserved":false,"is_disabled":false,"rental_uris":{"android":"levelo://app?vid=072f5722-d87d-4ece-bf31-dd6ae05be1e6","ios":"levelo://app?vid=072f5722-d87d-4ece-bf31-dd6ae05be1e6"},"vehicle_type_id":"4","last_reported":1737598045,"current_range_meters":38800,"station_id":"ce4bhr92rcd13ifvqhrg","pricing_plan_id":"cebpf4jnsgd1na2vs0mg"},{"bike_id":"c23f8336-5a03-4943-81ac-cb3e6e23d0a0","system_id":"levelo_inurba_marseille","lat":43.27927,"lon":5.39591,"is_reserved":false,"is_disabled":false,"rental_uris":{"android":"levelo://app?vid=c23f8336-5a03-4943-81ac-cb3e6e23d0a0","ios":"levelo://app?vid=c23f8336-5a03-4943-81ac-cb3e6e23d0a0"},"vehicle_type_id":"4","last_reported":1737598045,"current_range_meters":36400,"station_id":"ce4bhf92rcd13ifvqf40","pricing_plan_id":"cebpf4jnsgd1na2vs0mg"},{"bike_id":"fbdc4a56-ecfa-49a3-9f96-c2d9f2b72d7f","system_id":"levelo_inurba_marseille","lat":43.27431,"lon":5.39428,"is_reserved":false,"is_disabled":false,"rental_uris":{"android":"levelo://app?vid=fbdc4a56-ecfa-49a3-9f96-c2d9f2b72d7f","ios":"levelo://app?vid=fbdc4a56-ecfa-49a3-9f96-c2d9f2b72d7f"},"vehicle_type_id":"4","last_reported":1737598045,"current_range_meters":38000,"station_id":"ce4bhdp2rcd13ifvqf20","pricing_plan_id":"cebpf4jnsgd1na2vs0mg"},{"bike_id":"47a5c903-d960-4eec-b908-6451b150f9f7","system_id":"levelo_inurba_marseille","lat":43.24063,"lon":5.37776,"is_reserved":false,"is_disabled":false,"rental_uris":{"android":"levelo://app?vid=47a5c903-d960-4eec-b908-6451b150f9f7","ios":"levelo://app?vid=47a5c903-d960-4eec-b908-6451b150f9f7"},"vehicle_type_id":"4","last_reported":1737598045,"current_range_meters":39200,"station_id":"ce4bhnp2rcd13ifvqgvg","pricing_plan_id":"cebpf4jnsgd1na2vs0mg"},{"bike_id":"92073bf7-0c5a-4193-9c82-a9d932e7871e","system_id":"levelo_inurba_marseille","lat":43.30776,"lon":5.3765,"is_reserved":false,"is_disabled":false,"rental_uris":{"android":"levelo://app?vid=92073bf7-0c5a-4193-9c82-a9d932e7871e","ios":"levelo://app?vid=92073bf7-0c5a-4193-9c82-a9d932e7871e"},"vehicle_type_id":"4","last_reported":1737598045,"current_range_meters":39200,"station_id":"ce4bgv92rcd13ifvqcq0","pricing_plan_id":"cebpf4jnsgd1na2vs0mg"},{"bike_id":"2d89806f-db31-45f9-ab39-70b15ff8deae","system_id":"levelo_inurba_marseille","lat":43.29772,"lon":5.3935,"is_reserved":false,"is_disabled":false,"rental_uris":{"android":"levelo://app?vid=2d89806f-db31-45f9-ab39-70b15ff8deae","ios":"levelo://app?vid=2d89806f-db31-45f9-ab39-70b15ff8deae"},"vehicle_type_id":"4","last_reported":1737598045,"current_range_meters":39200,"station_id":"chh1huq6cuj3fo74tm60","pricing_plan_id":"cebpf4jnsgd1na2vs0mg"},{"bike_id":"f995326b-d5c2-405d-ac8d-466d6a8fcf4b","system_id":"levelo_inurba_marseille","lat":43.30086,"lon":5.39072,"is_reserved":false,"is_disabled":false,"rental_uris":{"android":"levelo://app?vid=f995326b-d5c2-405d-ac8d-466d6a8fcf4b","ios":"levelo://app?vid=f995326b-d5c2-405d-ac8d-466d6a8fcf4b"},"vehicle_type_id":"4","last_reported":1737598045,"current_range_meters":16000,"station_id":"ce4bh192rcd13ifvqdb0","pricing_plan_id":"cebpf4jnsgd1na2vs0mg"},{"bike_id":"c8b7aed7-c47b-4197-99ca-6b34bfddf40f","system_id":"levelo_inurba_marseille","lat":43.24061,"lon":5.37718,"is_reserved":false,"is_disabled":false,"rental_uris":{"android":"levelo://app?vid=c8b7aed7-c47b-4197-99ca-6b34bfddf40f","ios":"levelo://app?vid=c8b7aed7-c47b-4197-99ca-6b34bfddf40f"},"vehicle_type_id":"4","last_reported":1737598045,"current_range_meters":35200,"station_id":"ce4bhnp2rcd13ifvqgvg","pricing_plan_id":"cebpf4jnsgd1na2vs0mg"},{"bike_id":"20216445-5aad-4521-ab5b-10bfd8c7354d","system_id":"levelo_inurba_marseille","lat":43.31271,"lon":5.37767,"is_reserved":false,"is_disabled":false,"rental_uris":{"android":"levelo://app?vid=20216445-5aad-4521-ab5b-10bfd8c7354d","ios":"levelo://app?vid=20216445-5aad-4521-ab5b-10bfd8c7354d"},"vehicle_type_id":"4","last_reported":1737598045,"current_range_meters":8800,"station_id":"","pricing_plan_id":"cebpf4jnsgd1na2vs0mg"},{"bike_id":"03029508-7ed2-4693-b735-f7deaf763344","system_id":"levelo_inurba_marseille","lat":43.25596,"lon":5.38229,"is_reserved":false,"is_disabled":false,"rental_uris":{"android":"levelo://app?vid=03029508-7ed2-4693-b735-f7deaf763344","ios":"levelo://app?vid=03029508-7ed2-4693-b735-f7deaf763344"},"vehicle_type_id":"4","last_reported":1737598045,"current_range_meters":18800,"station_id":"ce4bhih2rcd13ifvqfs0","pricing_plan_id":"cebpf4jnsgd1na2vs0mg"},{"bike_id":"3472a396-f149-40f7-a86d-66f1d7a02d70","system_id":"levelo_inurba_marseille","lat":43.28658,"lon":5.36336,"is_reserved":false,"is_disabled":false,"rental_uris":{"android":"levelo://app?vid=3472a396-f149-40f7-a86d-66f1d7a02d70","ios":"levelo://app?vid=3472a396-f149-40f7-a86d-66f1d7a02d70"},"vehicle_type_id":"4","last_reported":1737598045,"current_range_meters":38800,"station_id":"ce4bhah2rcd13ifvqej0","pricing_plan_id":"cebpf4jnsgd1na2vs0mg"},{"bike_id":"57ede8f2-8002-49a2-9daa-fdc45e207ca8","system_id":"levelo_inurba_marseille","lat":43.31283,"lon":5.40162,"is_reserved":false,"is_disabled":false,"rental_uris":{"android":"levelo://app?vid=57ede8f2-8002-49a2-9daa-fdc45e207ca8","ios":"levelo://app?vid=57ede8f2-8002-49a2-9daa-fdc45e207ca8"},"vehicle_type_id":"4","last_reported":1737598045,"current_range_meters":37600,"station_id":"ce4bh092rcd13ifvqd30","pricing_plan_id":"cebpf4jnsgd1na2vs0mg"},{"bike_id":"3a70f103-8f36-4a64-b77c-10e33d1a6120","system_id":"levelo_inurba_marseille","lat":43.32124,"lon":5.36809,"is_reserved":false,"is_disabled":false,"rental_uris":{"android":"levelo://app?vid=3a70f103-8f36-4a64-b77c-10e33d1a6120","ios":"levelo://app?vid=3a70f103-8f36-4a64-b77c-10e33d1a6120"},"vehicle_type_id":"4","last_reported":1737598045,"current_range_meters":39200,"station_id":"ce4bhrh2rcd13ifvqhug","pricing_plan_id":"cebpf4jnsgd1na2vs0mg"},{"bike_id":"135e5fc6-fc86-4e16-91af-445d1950186a","system_id":"levelo_inurba_marseille","lat":43.31706,"lon":5.42396,"is_reserved":false,"is_disabled":false,"rental_uris":{"android":"levelo://app?vid=135e5fc6-fc86-4e16-91af-445d1950186a","ios":"levelo://app?vid=135e5fc6-fc86-4e16-91af-445d1950186a"},"vehicle_type_id":"4","last_reported":1737598045,"current_range_meters":12000,"station_id":"ce4bhp92rcd13ifvqhbg","pricing_plan_id":"cebpf4jnsgd1na2vs0mg"},{"bike_id":"d558efa3-0468-430b-a0f1-01100ffa09d3","system_id":"levelo_inurba_marseille","lat":43.28937,"lon":5.36403,"is_reserved":false,"is_disabled":false,"rental_uris":{"android":"levelo://app?vid=d558efa3-0468-430b-a0f1-01100ffa09d3","ios":"levelo://app?vid=d558efa3-0468-430b-a0f1-01100ffa09d3"},"vehicle_type_id":"4","last_reported":1737598045,"current_range_meters":26000,"station_id":"ce4bhc92rcd13ifvqetg","pricing_plan_id":"cebpf4jnsgd1na2vs0mg"},{"bike_id":"eeaa9fe2-2176-4336-b1a6-eff014457270","system_id":"levelo_inurba_marseille","lat":43.29259,"lon":5.40909,"is_reserved":false,"is_disabled":false,"rental_uris":{"android":"levelo://app?vid=eeaa9fe2-2176-4336-b1a6-eff014457270","ios":"levelo://app?vid=eeaa9fe2-2176-4336-b1a6-eff014457270"},"vehicle_type_id":"4","last_reported":1737598045,"current_range_meters":38800,"station_id":"ce4bh192rcd13ifvqdc0","pricing_plan_id":"cebpf4jnsgd1na2vs0mg"},{"bike_id":"3d39a886-a602-45ec-b4d3-356e165c2974","system_id":"levelo_inurba_marseille","lat":43.29192,"lon":5.35817,"is_reserved":false,"is_disabled":false,"rental_uris":{"android":"levelo://app?vid=3d39a886-a602-45ec-b4d3-356e165c2974","ios":"levelo://app?vid=3d39a886-a602-45ec-b4d3-356e165c2974"},"vehicle_type_id":"4","last_reported":1737598045,"current_range_meters":38800,"station_id":"ce4bhb12rcd13ifvqel0","pricing_plan_id":"cebpf4jnsgd1na2vs0mg"},{"bike_id":"cac15169-486f-43a5-9e95-33c702c4876b","system_id":"levelo_inurba_marseille","lat":43.30786,"lon":5.43544,"is_reserved":false,"is_disabled":false,"rental_uris":{"android":"levelo://app?vid=cac15169-486f-43a5-9e95-33c702c4876b","ios":"levelo://app?vid=cac15169-486f-43a5-9e95-33c702c4876b"},"vehicle_type_id":"4","last_reported":1737598045,"current_range_meters":38800,"station_id":"ce4bhph2rcd13ifvqheg","pricing_plan_id":"cebpf4jnsgd1na2vs0mg"},{"bike_id":"0fd77b24-9641-4f85-ad37-0e79c1de1769","system_id":"levelo_inurba_marseille","lat":43.2781,"lon":5.40715,"is_reserved":false,"is_disabled":false,"rental_uris":{"android":"levelo://app?vid=0fd77b24-9641-4f85-ad37-0e79c1de1769","ios":"levelo://app?vid=0fd77b24-9641-4f85-ad37-0e79c1de1769"},"vehicle_type_id":"4","last_reported":1737598045,"current_range_meters":16000,"station_id":"ce4bhnh2rcd13ifvqgtg","pricing_plan_id":"cebpf4jnsgd1na2vs0mg"},{"bike_id":"9a4d472e-28ea-4459-9d68-e6f39648a217","system_id":"levelo_inurba_marseille","lat":43.28933,"lon":5.36633,"is_reserved":false,"is_disabled":false,"rental_uris":{"android":"levelo://app?vid=9a4d472e-28ea-4459-9d68-e6f39648a217","ios":"levelo://app?vid=9a4d472e-28ea-4459-9d68-e6f39648a217"},"vehicle_type_id":"4","last_reported":1737598045,"current_range_meters":29600,"station_id":"ce4bhap2rcd13ifvqek0","pricing_plan_id":"cebpf4jnsgd1na2vs0mg"},{"bike_id":"5a874f97-e53a-486b-bf03-022b93e71acd","system_id":"levelo_inurba_marseille","lat":43.25513,"lon":5.37661,"is_reserved":false,"is_disabled":false,"rental_uris":{"android":"levelo://app?vid=5a874f97-e53a-486b-bf03-022b93e71acd","ios":"levelo://app?vid=5a874f97-e53a-486b-bf03-022b93e71acd"},"vehicle_type_id":"4","last_reported":1737598045,"current_range_meters":24800,"station_id":"ce4bhh12rcd13ifvqff0","pricing_plan_id":"cebpf4jnsgd1na2vs0mg"},{"bike_id":"111cba43-0574-438f-ae2a-d648b015eb76","system_id":"levelo_inurba_marseille","lat":43.31169,"lon":5.38718,"is_reserved":false,"is_disabled":false,"rental_uris":{"android":"levelo://app?vid=111cba43-0574-438f-ae2a-d648b015eb76","ios":"levelo://app?vid=111cba43-0574-438f-ae2a-d648b015eb76"},"vehicle_type_id":"4","last_reported":1737598045,"current_range_meters":37600,"station_id":"ce4bgv12rcd13ifvqcp0","pricing_plan_id":"cebpf4jnsgd1na2vs0mg"},{"bike_id":"4ef72184-8e66-4108-82fb-8d452bfc5efc","system_id":"levelo_inurba_marseille","lat":43.31268,"lon":5.4017,"is_reserved":false,"is_disabled":false,"rental_uris":{"android":"levelo://app?vid=4ef72184-8e66-4108-82fb-8d452bfc5efc","ios":"levelo://app?vid=4ef72184-8e66-4108-82fb-8d452bfc5efc"},"vehicle_type_id":"4","last_reported":1737598045,"current_range_meters":28000,"station_id":"ce4bh092rcd13ifvqd30","pricing_plan_id":"cebpf4jnsgd1na2vs0mg"},{"bike_id":"7ab51a43-683e-4bd7-a5aa-dd0cb59be96b","system_id":"levelo_inurba_marseille","lat":43.29767,"lon":5.39361,"is_reserved":false,"is_disabled":false,"rental_uris":{"android":"levelo://app?vid=7ab51a43-683e-4bd7-a5aa-dd0cb59be96b","ios":"levelo://app?vid=7ab51a43-683e-4bd7-a5aa-dd0cb59be96b"},"vehicle_type_id":"4","last_reported":1737598045,"current_range_meters":39200,"station_id":"chh1huq6cuj3fo74tm60","pricing_plan_id":"cebpf4jnsgd1na2vs0mg"},{"bike_id":"1a7ae9b9-108c-498f-8bac-48904d23f7bc","system_id":"levelo_inurba_marseille","lat":43.28475,"lon":5.38442,"is_reserved":false,"is_disabled":true,"rental_uris":{"android":"levelo://app?vid=1a7ae9b9-108c-498f-8bac-48904d23f7bc","ios":"levelo://app?vid=1a7ae9b9-108c-498f-8bac-48904d23f7bc"},"vehicle_type_id":"4","last_reported":1737598045,"current_range_meters":35600,"station_id":"ce4bh512rcd13ifvqe3g","pricing_plan_id":"cebpf4jnsgd1na2vs0mg"},{"bike_id":"700c67e8-3974-497f-96a7-0d29d82c242e","system_id":"levelo_inurba_marseille","lat":43.28404,"lon":5.37517,"is_reserved":false,"is_disabled":false,"rental_uris":{"android":"levelo://app?vid=700c67e8-3974-497f-96a7-0d29d82c242e","ios":"levelo://app?vid=700c67e8-3974-497f-96a7-0d29d82c242e"},"vehicle_type_id":"4","last_reported":1737598045,"current_range_meters":35600,"station_id":"ce4bh412rcd13ifvqds0","pricing_plan_id":"cebpf4jnsgd1na2vs0mg"},{"bike_id":"adb81fe1-ecc1-4e11-b3e5-e359939b9ff4","system_id":"levelo_inurba_marseille","lat":43.30907,"lon":5.40152,"is_reserved":false,"is_disabled":false,"rental_uris":{"android":"levelo://app?vid=adb81fe1-ecc1-4e11-b3e5-e359939b9ff4","ios":"levelo://app?vid=adb81fe1-ecc1-4e11-b3e5-e359939b9ff4"},"vehicle_type_id":"4","last_reported":1737598045,"current_range_meters":33600,"station_id":"ce4bgvp2rcd13ifvqct0","pricing_plan_id":"cebpf4jnsgd1na2vs0mg"},{"bike_id":"fbc6b901-293c-4cc3-8495-b0d71e091198","system_id":"levelo_inurba_marseille","lat":43.27907,"lon":5.38011,"is_reserved":false,"is_disabled":false,"rental_uris":{"android":"levelo://app?vid=fbc6b901-293c-4cc3-8495-b0d71e091198","ios":"levelo://app?vid=fbc6b901-293c-4cc3-8495-b0d71e091198"},"vehicle_type_id":"4","last_reported":1737598045,"current_range_meters":38800,"station_id":"ce4bhf92rcd13ifvqf50","pricing_plan_id":"cebpf4jnsgd1na2vs0mg"},{"bike_id":"4a1877ac-0eba-4d1d-a5b6-5c57a0d326b7","system_id":"levelo_inurba_marseille","lat":43.31079,"lon":5.42449,"is_reserved":false,"is_disabled":false,"rental_uris":{"android":"levelo://app?vid=4a1877ac-0eba-4d1d-a5b6-5c57a0d326b7","ios":"levelo://app?vid=4a1877ac-0eba-4d1d-a5b6-5c57a0d326b7"},"vehicle_type_id":"4","last_reported":1737598045,"current_range_meters":15200,"station_id":"ce4bhp92rcd13ifvqhag","pricing_plan_id":"cebpf4jnsgd1na2vs0mg"},{"bike_id":"1c5350bc-b85e-4a3a-a39b-e473b0f89be6","system_id":"levelo_inurba_marseille","lat":43.31742,"lon":5.39013,"is_reserved":false,"is_disabled":false,"rental_uris":{"android":"levelo://app?vid=1c5350bc-b85e-4a3a-a39b-e473b0f89be6","ios":"levelo://app?vid=1c5350bc-b85e-4a3a-a39b-e473b0f89be6"},"vehicle_type_id":"4","last_reported":1737598045,"current_range_meters":20400,"station_id":"ce4bhqp2rcd13ifvqhng","pricing_plan_id":"cebpf4jnsgd1na2vs0mg"},{"bike_id":"9bc2d0c7-7e87-4bc6-bab5-fd6f72fc9483","system_id":"levelo_inurba_marseille","lat":43.29791,"lon":5.39344,"is_reserved":false,"is_disabled":false,"rental_uris":{"android":"levelo://app?vid=9bc2d0c7-7e87-4bc6-bab5-fd6f72fc9483","ios":"levelo://app?vid=9bc2d0c7-7e87-4bc6-bab5-fd6f72fc9483"},"vehicle_type_id":"4","last_reported":1737598045,"current_range_meters":22400,"station_id":"chh1huq6cuj3fo74tm60","pricing_plan_id":"cebpf4jnsgd1na2vs0mg"},{"bike_id":"cf57abd2-b4fe-4583-854c-2b18778aed8f","system_id":"levelo_inurba_marseille","lat":43.30253,"lon":5.40072,"is_reserved":false,"is_disabled":false,"rental_uris":{"android":"levelo://app?vid=cf57abd2-b4fe-4583-854c-2b18778aed8f","ios":"levelo://app?vid=cf57abd2-b4fe-4583-854c-2b18778aed8f"},"vehicle_type_id":"4","last_reported":1737598045,"current_range_meters":18000,"station_id":"ce4bgvh2rcd13ifvqcs0","pricing_plan_id":"cebpf4jnsgd1na2vs0mg"},{"bike_id":"ef825d6a-fcd4-43c6-9386-9c35d11d16c5","system_id":"levelo_inurba_marseille","lat":43.30928,"lon":5.40186,"is_reserved":false,"is_disabled":false,"rental_uris":{"android":"levelo://app?vid=ef825d6a-fcd4-43c6-9386-9c35d11d16c5","ios":"levelo://app?vid=ef825d6a-fcd4-43c6-9386-9c35d11d16c5"},"vehicle_type_id":"4","last_reported":1737598045,"current_range_meters":37600,"station_id":"ce4bgvp2rcd13ifvqct0","pricing_plan_id":"cebpf4jnsgd1na2vs0mg"},{"bike_id":"495058fd-43ef-48f7-8eff-cdc36adef0a9","system_id":"levelo_inurba_marseille","lat":43.30212,"lon":5.39448,"is_reserved":false,"is_disabled":false,"rental_uris":{"android":"levelo://app?vid=495058fd-43ef-48f7-8eff-cdc36adef0a9","ios":"levelo://app?vid=495058fd-43ef-48f7-8eff-cdc36adef0a9"},"vehicle_type_id":"4","last_reported":1737598045,"current_range_meters":8400,"station_id":"ce4bh0p2rcd13ifvqd70","pricing_plan_id":"cebpf4jnsgd1na2vs0mg"},{"bike_id":"7ace546e-9c67-4124-8420-9ed07a575e5a","system_id":"levelo_inurba_marseille","lat":43.31607,"lon":5.40583,"is_reserved":false,"is_disabled":true,"rental_uris":{"android":"levelo://app?vid=7ace546e-9c67-4124-8420-9ed07a575e5a","ios":"levelo://app?vid=7ace546e-9c67-4124-8420-9ed07a575e5a"},"vehicle_type_id":"4","last_reported":1737598045,"current_range_meters":0,"station_id":"","pricing_plan_id":"cebpf4jnsgd1na2vs0mg"},{"bike_id":"f4064b91-d50f-4faa-b80a-c4b38df2d08b","system_id":"levelo_inurba_marseille","lat":43.2293,"lon":5.35398,"is_reserved":false,"is_disabled":false,"rental_uris":{"android":"levelo://app?vid=f4064b91-d50f-4faa-b80a-c4b38df2d08b","ios":"levelo://app?vid=f4064b91-d50f-4faa-b80a-c4b38df2d08b"},"vehicle_type_id":"4","last_reported":1737598045,"current_range_meters":38800,"station_id":"cpo3532slgdg3j2ikp40","pricing_plan_id":"cebpf4jnsgd1na2vs0mg"},{"bike_id":"1fb0e702-5965-47a7-9efe-0cfc040f54eb","system_id":"levelo_inurba_marseille","lat":43.26565,"lon":5.37265,"is_reserved":false,"is_disabled":false,"rental_uris":{"android":"levelo://app?vid=1fb0e702-5965-47a7-9efe-0cfc040f54eb","ios":"levelo://app?vid=1fb0e702-5965-47a7-9efe-0cfc040f54eb"},"vehicle_type_id":"4","last_reported":1737598045,"current_range_meters":28800,"station_id":"ce4bhg12rcd13ifvqf70","pricing_plan_id":"cebpf4jnsgd1na2vs0mg"},{"bike_id":"a5db97b6-b05a-48ce-b6b1-d37403d00d08","system_id":"levelo_inurba_marseille","lat":43.30462,"lon":5.38208,"is_reserved":false,"is_disabled":false,"rental_uris":{"android":"levelo://app?vid=a5db97b6-b05a-48ce-b6b1-d37403d00d08","ios":"levelo://app?vid=a5db97b6-b05a-48ce-b6b1-d37403d00d08"},"vehicle_type_id":"4","last_reported":1737598045,"current_range_meters":32000,"station_id":"","pricing_plan_id":"cebpf4jnsgd1na2vs0mg"},{"bike_id":"5e75dd30-ab3b-44d3-8dcb-cb5fd4a0eb65","system_id":"levelo_inurba_marseille","lat":43.2463,"lon":5.38899,"is_reserved":false,"is_disabled":false,"rental_uris":{"android":"levelo://app?vid=5e75dd30-ab3b-44d3-8dcb-cb5fd4a0eb65","ios":"levelo://app?vid=5e75dd30-ab3b-44d3-8dcb-cb5fd4a0eb65"},"vehicle_type_id":"4","last_reported":1737598045,"current_range_meters":38800,"station_id":"ce4bhg12rcd13ifvqf60","pricing_plan_id":"cebpf4jnsgd1na2vs0mg"},{"bike_id":"81fb8919-e61f-4a4e-9310-2573005bf866","system_id":"levelo_inurba_marseille","lat":43.31164,"lon":5.38694,"is_reserved":false,"is_disabled":false,"rental_uris":{"android":"levelo://app?vid=81fb8919-e61f-4a4e-9310-2573005bf866","ios":"levelo://app?vid=81fb8919-e61f-4a4e-9310-2573005bf866"},"vehicle_type_id":"4","last_reported":1737598045,"current_range_meters":38800,"station_id":"ce4bgv12rcd13ifvqcp0","pricing_plan_id":"cebpf4jnsgd1na2vs0mg"},{"bike_id":"90c8c19d-949d-460f-bb27-403a94bcdfaa","system_id":"levelo_inurba_marseille","lat":43.28462,"lon":5.35881,"is_reserved":false,"is_disabled":false,"rental_uris":{"android":"levelo://app?vid=90c8c19d-949d-460f-bb27-403a94bcdfaa","ios":"levelo://app?vid=90c8c19d-949d-460f-bb27-403a94bcdfaa"},"vehicle_type_id":"4","last_reported":1737598045,"current_range_meters":12800,"station_id":"ce4bhah2rcd13ifvqei0","pricing_plan_id":"cebpf4jnsgd1na2vs0mg"},{"bike_id":"4e08a359-a7ac-4ac7-8da0-47cf117f974f","system_id":"levelo_inurba_marseille","lat":43.28868,"lon":5.35847,"is_reserved":false,"is_disabled":false,"rental_uris":{"android":"levelo://app?vid=4e08a359-a7ac-4ac7-8da0-47cf117f974f","ios":"levelo://app?vid=4e08a359-a7ac-4ac7-8da0-47cf117f974f"},"vehicle_type_id":"4","last_reported":1737598045,"current_range_meters":38800,"station_id":"ce4bhb12rcd13ifvqem0","pricing_plan_id":"cebpf4jnsgd1na2vs0mg"},{"bike_id":"95686d4b-aec0-40de-b18e-cbe8599dc121","system_id":"levelo_inurba_marseille","lat":43.29703,"lon":5.36529,"is_reserved":false,"is_disabled":false,"rental_uris":{"android":"levelo://app?vid=95686d4b-aec0-40de-b18e-cbe8599dc121","ios":"levelo://app?vid=95686d4b-aec0-40de-b18e-cbe8599dc121"},"vehicle_type_id":"4","last_reported":1737598045,"current_range_meters":18000,"station_id":"ce4bgn12rcd13ifvqbt0","pricing_plan_id":"cebpf4jnsgd1na2vs0mg"},{"bike_id":"8c4ec436-c014-426e-be5e-f5e97109170a","system_id":"levelo_inurba_marseille","lat":43.30861,"lon":5.39625,"is_reserved":false,"is_disabled":false,"rental_uris":{"android":"levelo://app?vid=8c4ec436-c014-426e-be5e-f5e97109170a","ios":"levelo://app?vid=8c4ec436-c014-426e-be5e-f5e97109170a"},"vehicle_type_id":"4","last_reported":1737598045,"current_range_meters":37600,"station_id":"ce4bh012rcd13ifvqcv0","pricing_plan_id":"cebpf4jnsgd1na2vs0mg"},{"bike_id":"65094a7f-b962-43c6-b0af-b51087b9f16f","system_id":"levelo_inurba_marseille","lat":43.289467,"lon":5.366317,"is_reserved":false,"is_disabled":false,"rental_uris":{"android":"levelo://app?vid=65094a7f-b962-43c6-b0af-b51087b9f16f","ios":"levelo://app?vid=65094a7f-b962-43c6-b0af-b51087b9f16f"},"vehicle_type_id":"4","last_reported":1737598045,"current_range_meters":30800,"station_id":"ce4bhap2rcd13ifvqek0","pricing_plan_id":"cebpf4jnsgd1na2vs0mg"},{"bike_id":"9838cc78-2b53-49d3-ae13-82df62c4fd64","system_id":"levelo_inurba_marseille","lat":43.28415,"lon":5.40934,"is_reserved":false,"is_disabled":false,"rental_uris":{"android":"levelo://app?vid=9838cc78-2b53-49d3-ae13-82df62c4fd64","ios":"levelo://app?vid=9838cc78-2b53-49d3-ae13-82df62c4fd64"},"vehicle_type_id":"4","last_reported":1737598045,"current_range_meters":7200,"station_id":"","pricing_plan_id":"cebpf4jnsgd1na2vs0mg"},{"bike_id":"0f8fbb30-1403-4012-8d4b-bed4ddc3f0cc","system_id":"levelo_inurba_marseille","lat":43.31302,"lon":5.39721,"is_reserved":false,"is_disabled":false,"rental_uris":{"android":"levelo://app?vid=0f8fbb30-1403-4012-8d4b-bed4ddc3f0cc","ios":"levelo://app?vid=0f8fbb30-1403-4012-8d4b-bed4ddc3f0cc"},"vehicle_type_id":"4","last_reported":1737598045,"current_range_meters":23200,"station_id":"ce4bgvp2rcd13ifvqcu0","pricing_plan_id":"cebpf4jnsgd1na2vs0mg"},{"bike_id":"845f6bab-2a5f-4ce0-81ee-3d6cd9ba04c2","system_id":"levelo_inurba_marseille","lat":43.28857,"lon":5.3932,"is_reserved":false,"is_disabled":false,"rental_uris":{"android":"levelo://app?vid=845f6bab-2a5f-4ce0-81ee-3d6cd9ba04c2","ios":"levelo://app?vid=845f6bab-2a5f-4ce0-81ee-3d6cd9ba04c2"},"vehicle_type_id":"4","last_reported":1737598045,"current_range_meters":38800,"station_id":"ce4bh2p2rcd13ifvqdi0","pricing_plan_id":"cebpf4jnsgd1na2vs0mg"},{"bike_id":"83d909e7-9c19-438f-91bf-276e09d008cc","system_id":"levelo_inurba_marseille","lat":43.30896,"lon":5.39623,"is_reserved":false,"is_disabled":false,"rental_uris":{"android":"levelo://app?vid=83d909e7-9c19-438f-91bf-276e09d008cc","ios":"levelo://app?vid=83d909e7-9c19-438f-91bf-276e09d008cc"},"vehicle_type_id":"4","last_reported":1737598045,"current_range_meters":4800,"station_id":"ce4bh012rcd13ifvqcv0","pricing_plan_id":"cebpf4jnsgd1na2vs0mg"},{"bike_id":"e140bb4a-5e7a-45e7-9cd7-0031c0e81926","system_id":"levelo_inurba_marseille","lat":43.28096,"lon":5.37822,"is_reserved":false,"is_disabled":false,"rental_uris":{"android":"levelo://app?vid=e140bb4a-5e7a-45e7-9cd7-0031c0e81926","ios":"levelo://app?vid=e140bb4a-5e7a-45e7-9cd7-0031c0e81926"},"vehicle_type_id":"4","last_reported":1737598045,"current_range_meters":32400,"station_id":"ce4bha12rcd13ifvqee0","pricing_plan_id":"cebpf4jnsgd1na2vs0mg"},{"bike_id":"0095f608-c8a3-464a-9e01-fb511f5fe6c3","system_id":"levelo_inurba_marseille","lat":43.31506,"lon":5.37299,"is_reserved":false,"is_disabled":false,"rental_uris":{"android":"levelo://app?vid=0095f608-c8a3-464a-9e01-fb511f5fe6c3","ios":"levelo://app?vid=0095f608-c8a3-464a-9e01-fb511f5fe6c3"},"vehicle_type_id":"4","last_reported":1737598045,"current_range_meters":28000,"station_id":"ce4bgt12rcd13ifvqcd0","pricing_plan_id":"cebpf4jnsgd1na2vs0mg"},{"bike_id":"b15a91c0-7c93-4278-9be2-c5e0789ac33f","system_id":"levelo_inurba_marseille","lat":43.3188,"lon":5.40728,"is_reserved":false,"is_disabled":false,"rental_uris":{"android":"levelo://app?vid=b15a91c0-7c93-4278-9be2-c5e0789ac33f","ios":"levelo://app?vid=b15a91c0-7c93-4278-9be2-c5e0789ac33f"},"vehicle_type_id":"4","last_reported":1737598045,"current_range_meters":38000,"station_id":"ce4bhq12rcd13ifvqhig","pricing_plan_id":"cebpf4jnsgd1na2vs0mg"},{"bike_id":"89d74705-7f42-45f3-bdbc-e8e63c7486d0","system_id":"levelo_inurba_marseille","lat":43.30924,"lon":5.40142,"is_reserved":false,"is_disabled":true,"rental_uris":{"android":"levelo://app?vid=89d74705-7f42-45f3-bdbc-e8e63c7486d0","ios":"levelo://app?vid=89d74705-7f42-45f3-bdbc-e8e63c7486d0"},"vehicle_type_id":"4","last_reported":1737598045,"current_range_meters":20000,"station_id":"ce4bgvp2rcd13ifvqct0","pricing_plan_id":"cebpf4jnsgd1na2vs0mg"},{"bike_id":"9f96de60-ba44-4c93-9707-a282028a4274","system_id":"levelo_inurba_marseille","lat":43.24173,"lon":5.39722,"is_reserved":false,"is_disabled":false,"rental_uris":{"android":"levelo://app?vid=9f96de60-ba44-4c93-9707-a282028a4274","ios":"levelo://app?vid=9f96de60-ba44-4c93-9707-a282028a4274"},"vehicle_type_id":"4","last_reported":1737598045,"current_range_meters":38400,"station_id":"ce4bhn12rcd13ifvqgpg","pricing_plan_id":"cebpf4jnsgd1na2vs0mg"},{"bike_id":"ecdd9928-c6ae-4bb5-b5ed-58cd63191e8b","system_id":"levelo_inurba_marseille","lat":43.2957,"lon":5.39963,"is_reserved":false,"is_disabled":false,"rental_uris":{"android":"levelo://app?vid=ecdd9928-c6ae-4bb5-b5ed-58cd63191e8b","ios":"levelo://app?vid=ecdd9928-c6ae-4bb5-b5ed-58cd63191e8b"},"vehicle_type_id":"4","last_reported":1737598045,"current_range_meters":36400,"station_id":"ce4bh312rcd13ifvqdj0","pricing_plan_id":"cebpf4jnsgd1na2vs0mg"},{"bike_id":"0dc57ce7-6ea5-4139-9dd4-2949da8d3308","system_id":"levelo_inurba_marseille","lat":43.32336,"lon":5.40618,"is_reserved":false,"is_disabled":false,"rental_uris":{"android":"levelo://app?vid=0dc57ce7-6ea5-4139-9dd4-2949da8d3308","ios":"levelo://app?vid=0dc57ce7-6ea5-4139-9dd4-2949da8d3308"},"vehicle_type_id":"4","last_reported":1737598045,"current_range_meters":39200,"station_id":"ce4bhq92rcd13ifvqhjg","pricing_plan_id":"cebpf4jnsgd1na2vs0mg"},{"bike_id":"dc020e30-7be2-4fc6-bf0f-e6dedb64c2ce","system_id":"levelo_inurba_marseille","lat":43.30593,"lon":5.39344,"is_reserved":false,"is_disabled":false,"rental_uris":{"android":"levelo://app?vid=dc020e30-7be2-4fc6-bf0f-e6dedb64c2ce","ios":"levelo://app?vid=dc020e30-7be2-4fc6-bf0f-e6dedb64c2ce"},"vehicle_type_id":"4","last_reported":1737598045,"current_range_meters":28000,"station_id":"ce4bh0p2rcd13ifvqd80","pricing_plan_id":"cebpf4jnsgd1na2vs0mg"},{"bike_id":"466a0d70-c860-48c8-a89b-6eb75d57b3d1","system_id":"levelo_inurba_marseille","lat":43.28952,"lon":5.39638,"is_reserved":false,"is_disabled":false,"rental_uris":{"android":"levelo://app?vid=466a0d70-c860-48c8-a89b-6eb75d57b3d1","ios":"levelo://app?vid=466a0d70-c860-48c8-a89b-6eb75d57b3d1"},"vehicle_type_id":"4","last_reported":1737598045,"current_range_meters":38400,"station_id":"ce4bh3h2rcd13ifvqdn0","pricing_plan_id":"cebpf4jnsgd1na2vs0mg"},{"bike_id":"6a9e6fb3-1965-43ab-a598-cf1f58670842","system_id":"levelo_inurba_marseille","lat":43.23186,"lon":5.39974,"is_reserved":false,"is_disabled":false,"rental_uris":{"android":"levelo://app?vid=6a9e6fb3-1965-43ab-a598-cf1f58670842","ios":"levelo://app?vid=6a9e6fb3-1965-43ab-a598-cf1f58670842"},"vehicle_type_id":"4","last_reported":1737598045,"current_range_meters":28800,"station_id":"ce4bhn12rcd13ifvqgqg","pricing_plan_id":"cebpf4jnsgd1na2vs0mg"},{"bike_id":"e6e8646a-47fe-42a2-b78a-21530b7ebe2d","system_id":"levelo_inurba_marseille","lat":43.31682,"lon":5.40444,"is_reserved":false,"is_disabled":false,"rental_uris":{"android":"levelo://app?vid=e6e8646a-47fe-42a2-b78a-21530b7ebe2d","ios":"levelo://app?vid=e6e8646a-47fe-42a2-b78a-21530b7ebe2d"},"vehicle_type_id":"4","last_reported":1737598045,"current_range_meters":30000,"station_id":"ce4bh012rcd13ifvqd00","pricing_plan_id":"cebpf4jnsgd1na2vs0mg"},{"bike_id":"110f4d36-27c9-49b8-86bf-d85558408b80","system_id":"levelo_inurba_marseille","lat":43.32349,"lon":5.38873,"is_reserved":false,"is_disabled":false,"rental_uris":{"android":"levelo://app?vid=110f4d36-27c9-49b8-86bf-d85558408b80","ios":"levelo://app?vid=110f4d36-27c9-49b8-86bf-d85558408b80"},"vehicle_type_id":"4","last_reported":1737598045,"current_range_meters":22000,"station_id":"ce4bhqp2rcd13ifvqhog","pricing_plan_id":"cebpf4jnsgd1na2vs0mg"},{"bike_id":"e2151eb3-314b-404c-b259-cf12a3a3e0c6","system_id":"levelo_inurba_marseille","lat":43.31588,"lon":5.40259,"is_reserved":false,"is_disabled":false,"rental_uris":{"android":"levelo://app?vid=e2151eb3-314b-404c-b259-cf12a3a3e0c6","ios":"levelo://app?vid=e2151eb3-314b-404c-b259-cf12a3a3e0c6"},"vehicle_type_id":"4","last_reported":1737598045,"current_range_meters":24400,"station_id":"","pricing_plan_id":"cebpf4jnsgd1na2vs0mg"},{"bike_id":"8af34738-1005-41d3-9a03-fb3cbeb3f15f","system_id":"levelo_inurba_marseille","lat":43.31679,"lon":5.37763,"is_reserved":false,"is_disabled":false,"rental_uris":{"android":"levelo://app?vid=8af34738-1005-41d3-9a03-fb3cbeb3f15f","ios":"levelo://app?vid=8af34738-1005-41d3-9a03-fb3cbeb3f15f"},"vehicle_type_id":"4","last_reported":1737598045,"current_range_meters":38800,"station_id":"ce4bgth2rcd13ifvqch0","pricing_plan_id":"cebpf4jnsgd1na2vs0mg"},{"bike_id":"8c19ddad-4fbd-44ed-a1a5-ada08460f33a","system_id":"levelo_inurba_marseille","lat":43.30309,"lon":5.40434,"is_reserved":false,"is_disabled":false,"rental_uris":{"android":"levelo://app?vid=8c19ddad-4fbd-44ed-a1a5-ada08460f33a","ios":"levelo://app?vid=8c19ddad-4fbd-44ed-a1a5-ada08460f33a"},"vehicle_type_id":"4","last_reported":1737598045,"current_range_meters":36000,"station_id":"ce4bh012rcd13ifvqd10","pricing_plan_id":"cebpf4jnsgd1na2vs0mg"},{"bike_id":"3bcd921d-810c-4845-87ab-d96c2ac5451e","system_id":"levelo_inurba_marseille","lat":43.27819,"lon":5.40749,"is_reserved":false,"is_disabled":false,"rental_uris":{"android":"levelo://app?vid=3bcd921d-810c-4845-87ab-d96c2ac5451e","ios":"levelo://app?vid=3bcd921d-810c-4845-87ab-d96c2ac5451e"},"vehicle_type_id":"4","last_reported":1737598045,"current_range_meters":10000,"station_id":"ce4bhnh2rcd13ifvqgtg","pricing_plan_id":"cebpf4jnsgd1na2vs0mg"},{"bike_id":"f6aeb02d-9130-4960-8b48-d4d06c02c1dc","system_id":"levelo_inurba_marseille","lat":43.2956,"lon":5.39995,"is_reserved":false,"is_disabled":false,"rental_uris":{"android":"levelo://app?vid=f6aeb02d-9130-4960-8b48-d4d06c02c1dc","ios":"levelo://app?vid=f6aeb02d-9130-4960-8b48-d4d06c02c1dc"},"vehicle_type_id":"4","last_reported":1737598045,"current_range_meters":39200,"station_id":"ce4bh312rcd13ifvqdj0","pricing_plan_id":"cebpf4jnsgd1na2vs0mg"},{"bike_id":"c01ff322-934e-4fed-b8ab-096213fbdb3c","system_id":"levelo_inurba_marseille","lat":43.31998,"lon":5.38151,"is_reserved":false,"is_disabled":false,"rental_uris":{"android":"levelo://app?vid=c01ff322-934e-4fed-b8ab-096213fbdb3c","ios":"levelo://app?vid=c01ff322-934e-4fed-b8ab-096213fbdb3c"},"vehicle_type_id":"4","last_reported":1737598045,"current_range_meters":39200,"station_id":"ce4bhr12rcd13ifvqhpg","pricing_plan_id":"cebpf4jnsgd1na2vs0mg"},{"bike_id":"08818637-6180-4002-9cc5-6a94925764e2","system_id":"levelo_inurba_marseille","lat":43.278253,"lon":5.392108,"is_reserved":false,"is_disabled":false,"rental_uris":{"android":"levelo://app?vid=08818637-6180-4002-9cc5-6a94925764e2","ios":"levelo://app?vid=08818637-6180-4002-9cc5-6a94925764e2"},"vehicle_type_id":"4","last_reported":1737598045,"current_range_meters":38800,"station_id":"ce4bhjp2rcd13ifvqga0","pricing_plan_id":"cebpf4jnsgd1na2vs0mg"},{"bike_id":"0f27ee95-9967-4c48-b7fb-37c3f9394878","system_id":"levelo_inurba_marseille","lat":43.28863,"lon":5.35857,"is_reserved":false,"is_disabled":false,"rental_uris":{"android":"levelo://app?vid=0f27ee95-9967-4c48-b7fb-37c3f9394878","ios":"levelo://app?vid=0f27ee95-9967-4c48-b7fb-37c3f9394878"},"vehicle_type_id":"4","last_reported":1737598045,"current_range_meters":36000,"station_id":"ce4bhb12rcd13ifvqem0","pricing_plan_id":"cebpf4jnsgd1na2vs0mg"},{"bike_id":"35ba0dfc-6951-499d-b497-45ecff53ae7e","system_id":"levelo_inurba_marseille","lat":43.24396,"lon":5.3706,"is_reserved":false,"is_disabled":false,"rental_uris":{"android":"levelo://app?vid=35ba0dfc-6951-499d-b497-45ecff53ae7e","ios":"levelo://app?vid=35ba0dfc-6951-499d-b497-45ecff53ae7e"},"vehicle_type_id":"4","last_reported":1737598045,"current_range_meters":24800,"station_id":"ce4bhhh2rcd13ifvqfk0","pricing_plan_id":"cebpf4jnsgd1na2vs0mg"},{"bike_id":"373c4bcc-0095-4393-8f96-1dc4190b9df1","system_id":"levelo_inurba_marseille","lat":43.292558,"lon":5.384328,"is_reserved":false,"is_disabled":true,"rental_uris":{"android":"levelo://app?vid=373c4bcc-0095-4393-8f96-1dc4190b9df1","ios":"levelo://app?vid=373c4bcc-0095-4393-8f96-1dc4190b9df1"},"vehicle_type_id":"4","last_reported":1737598045,"current_range_meters":16400,"station_id":"ce4bh692rcd13ifvqea0","pricing_plan_id":"cebpf4jnsgd1na2vs0mg"},{"bike_id":"2266490e-a2b0-4bbd-ba0b-dfbf36e9345b","system_id":"levelo_inurba_marseille","lat":43.287233,"lon":5.37949,"is_reserved":false,"is_disabled":false,"rental_uris":{"android":"levelo://app?vid=2266490e-a2b0-4bbd-ba0b-dfbf36e9345b","ios":"levelo://app?vid=2266490e-a2b0-4bbd-ba0b-dfbf36e9345b"},"vehicle_type_id":"4","last_reported":1737598045,"current_range_meters":36000,"station_id":"ce4bh9p2rcd13ifvqec0","pricing_plan_id":"cebpf4jnsgd1na2vs0mg"},{"bike_id":"6440f376-b0ac-4979-8b74-813c76d7599b","system_id":"levelo_inurba_marseille","lat":43.24153,"lon":5.39711,"is_reserved":false,"is_disabled":false,"rental_uris":{"android":"levelo://app?vid=6440f376-b0ac-4979-8b74-813c76d7599b","ios":"levelo://app?vid=6440f376-b0ac-4979-8b74-813c76d7599b"},"vehicle_type_id":"4","last_reported":1737598045,"current_range_meters":27200,"station_id":"ce4bhn12rcd13ifvqgpg","pricing_plan_id":"cebpf4jnsgd1na2vs0mg"},{"bike_id":"07222054-6bcd-45e4-8545-43979da21269","system_id":"levelo_inurba_marseille","lat":43.30101,"lon":5.39848,"is_reserved":false,"is_disabled":false,"rental_uris":{"android":"levelo://app?vid=07222054-6bcd-45e4-8545-43979da21269","ios":"levelo://app?vid=07222054-6bcd-45e4-8545-43979da21269"},"vehicle_type_id":"4","last_reported":1737598045,"current_range_meters":38000,"station_id":"ce4bh0h2rcd13ifvqd40","pricing_plan_id":"cebpf4jnsgd1na2vs0mg"},{"bike_id":"53608539-8cd0-47e7-9cfb-d1161556d6fb","system_id":"levelo_inurba_marseille","lat":43.25493,"lon":5.3766,"is_reserved":false,"is_disabled":false,"rental_uris":{"android":"levelo://app?vid=53608539-8cd0-47e7-9cfb-d1161556d6fb","ios":"levelo://app?vid=53608539-8cd0-47e7-9cfb-d1161556d6fb"},"vehicle_type_id":"4","last_reported":1737598045,"current_range_meters":24000,"station_id":"ce4bhh12rcd13ifvqff0","pricing_plan_id":"cebpf4jnsgd1na2vs0mg"},{"bike_id":"f98a7ee0-f9fe-4556-933e-ecf6827038e5","system_id":"levelo_inurba_marseille","lat":43.29178,"lon":5.35749,"is_reserved":false,"is_disabled":false,"rental_uris":{"android":"levelo://app?vid=f98a7ee0-f9fe-4556-933e-ecf6827038e5","ios":"levelo://app?vid=f98a7ee0-f9fe-4556-933e-ecf6827038e5"},"vehicle_type_id":"4","last_reported":1737598045,"current_range_meters":16400,"station_id":"ce4bhb12rcd13ifvqel0","pricing_plan_id":"cebpf4jnsgd1na2vs0mg"},{"bike_id":"5bcaa165-3855-4961-b7f5-0a96e04dc71c","system_id":"levelo_inurba_marseille","lat":43.24067,"lon":5.37742,"is_reserved":false,"is_disabled":false,"rental_uris":{"android":"levelo://app?vid=5bcaa165-3855-4961-b7f5-0a96e04dc71c","ios":"levelo://app?vid=5bcaa165-3855-4961-b7f5-0a96e04dc71c"},"vehicle_type_id":"4","last_reported":1737598045,"current_range_meters":26800,"station_id":"ce4bhnp2rcd13ifvqgvg","pricing_plan_id":"cebpf4jnsgd1na2vs0mg"},{"bike_id":"582e8754-15b7-4502-adec-5b8a77d5b5e9","system_id":"levelo_inurba_marseille","lat":43.31683,"lon":5.40462,"is_reserved":false,"is_disabled":false,"rental_uris":{"android":"levelo://app?vid=582e8754-15b7-4502-adec-5b8a77d5b5e9","ios":"levelo://app?vid=582e8754-15b7-4502-adec-5b8a77d5b5e9"},"vehicle_type_id":"4","last_reported":1737598045,"current_range_meters":6400,"station_id":"ce4bh012rcd13ifvqd00","pricing_plan_id":"cebpf4jnsgd1na2vs0mg"},{"bike_id":"0b8213de-42c8-45c5-8bc0-22a0c690a39c","system_id":"levelo_inurba_marseille","lat":43.2872,"lon":5.36082,"is_reserved":false,"is_disabled":false,"rental_uris":{"android":"levelo://app?vid=0b8213de-42c8-45c5-8bc0-22a0c690a39c","ios":"levelo://app?vid=0b8213de-42c8-45c5-8bc0-22a0c690a39c"},"vehicle_type_id":"4","last_reported":1737598045,"current_range_meters":14000,"station_id":"cki0cbj6b192h4jlfktg","pricing_plan_id":"cebpf4jnsgd1na2vs0mg"},{"bike_id":"91f957bd-7ae6-4841-8ac4-1ecdcd0c697e","system_id":"levelo_inurba_marseille","lat":43.31576,"lon":5.40195,"is_reserved":false,"is_disabled":false,"rental_uris":{"android":"levelo://app?vid=91f957bd-7ae6-4841-8ac4-1ecdcd0c697e","ios":"levelo://app?vid=91f957bd-7ae6-4841-8ac4-1ecdcd0c697e"},"vehicle_type_id":"4","last_reported":1737598045,"current_range_meters":27600,"station_id":"","pricing_plan_id":"cebpf4jnsgd1na2vs0mg"},{"bike_id":"ffccc443-e6b0-4ef5-bf1a-7a7bffbf1f18","system_id":"levelo_inurba_marseille","lat":43.27927,"lon":5.41046,"is_reserved":false,"is_disabled":false,"rental_uris":{"android":"levelo://app?vid=ffccc443-e6b0-4ef5-bf1a-7a7bffbf1f18","ios":"levelo://app?vid=ffccc443-e6b0-4ef5-bf1a-7a7bffbf1f18"},"vehicle_type_id":"4","last_reported":1737598045,"current_range_meters":33200,"station_id":"ce4bhnp2rcd13ifvqh0g","pricing_plan_id":"cebpf4jnsgd1na2vs0mg"},{"bike_id":"8eb2fff1-c521-443e-96d7-373c8de3d2ee","system_id":"levelo_inurba_marseille","lat":43.30906,"lon":5.39622,"is_reserved":false,"is_disabled":false,"rental_uris":{"android":"levelo://app?vid=8eb2fff1-c521-443e-96d7-373c8de3d2ee","ios":"levelo://app?vid=8eb2fff1-c521-443e-96d7-373c8de3d2ee"},"vehicle_type_id":"4","last_reported":1737598045,"current_range_meters":24800,"station_id":"ce4bh012rcd13ifvqcv0","pricing_plan_id":"cebpf4jnsgd1na2vs0mg"},{"bike_id":"96663138-92b9-4343-9a11-314ee4531fc0","system_id":"levelo_inurba_marseille","lat":43.30816,"lon":5.37696,"is_reserved":false,"is_disabled":true,"rental_uris":{"android":"levelo://app?vid=96663138-92b9-4343-9a11-314ee4531fc0","ios":"levelo://app?vid=96663138-92b9-4343-9a11-314ee4531fc0"},"vehicle_type_id":"4","last_reported":1737598045,"current_range_meters":16400,"station_id":"ce4bgv92rcd13ifvqcq0","pricing_plan_id":"cebpf4jnsgd1na2vs0mg"},{"bike_id":"3aacaccf-46a5-4395-9f8a-45e220633325","system_id":"levelo_inurba_marseille","lat":43.30806,"lon":5.38172,"is_reserved":false,"is_disabled":false,"rental_uris":{"android":"levelo://app?vid=3aacaccf-46a5-4395-9f8a-45e220633325","ios":"levelo://app?vid=3aacaccf-46a5-4395-9f8a-45e220633325"},"vehicle_type_id":"4","last_reported":1737598045,"current_range_meters":39200,"station_id":"ce4bgt12rcd13ifvqce0","pricing_plan_id":"cebpf4jnsgd1na2vs0mg"},{"bike_id":"a9d08443-71b6-4ab7-93ae-f8d5b6602792","system_id":"levelo_inurba_marseille","lat":43.30798,"lon":5.43522,"is_reserved":false,"is_disabled":false,"rental_uris":{"android":"levelo://app?vid=a9d08443-71b6-4ab7-93ae-f8d5b6602792","ios":"levelo://app?vid=a9d08443-71b6-4ab7-93ae-f8d5b6602792"},"vehicle_type_id":"4","last_reported":1737598045,"current_range_meters":12400,"station_id":"ce4bhph2rcd13ifvqheg","pricing_plan_id":"cebpf4jnsgd1na2vs0mg"},{"bike_id":"1bf6e842-f177-4f99-a02d-c8597377b434","system_id":"levelo_inurba_marseille","lat":43.30099,"lon":5.3907,"is_reserved":false,"is_disabled":false,"rental_uris":{"android":"levelo://app?vid=1bf6e842-f177-4f99-a02d-c8597377b434","ios":"levelo://app?vid=1bf6e842-f177-4f99-a02d-c8597377b434"},"vehicle_type_id":"4","last_reported":1737598045,"current_range_meters":10800,"station_id":"ce4bh192rcd13ifvqdb0","pricing_plan_id":"cebpf4jnsgd1na2vs0mg"},{"bike_id":"7c99757d-a618-4c05-bdf4-03e32374f001","system_id":"levelo_inurba_marseille","lat":43.28461,"lon":5.35875,"is_reserved":false,"is_disabled":false,"rental_uris":{"android":"levelo://app?vid=7c99757d-a618-4c05-bdf4-03e32374f001","ios":"levelo://app?vid=7c99757d-a618-4c05-bdf4-03e32374f001"},"vehicle_type_id":"4","last_reported":1737598045,"current_range_meters":33200,"station_id":"ce4bhah2rcd13ifvqei0","pricing_plan_id":"cebpf4jnsgd1na2vs0mg"},{"bike_id":"1a1f2c2d-2290-4ac1-859f-be04e458f26f","system_id":"levelo_inurba_marseille","lat":43.27638,"lon":5.38883,"is_reserved":false,"is_disabled":false,"rental_uris":{"android":"levelo://app?vid=1a1f2c2d-2290-4ac1-859f-be04e458f26f","ios":"levelo://app?vid=1a1f2c2d-2290-4ac1-859f-be04e458f26f"},"vehicle_type_id":"4","last_reported":1737598045,"current_range_meters":38800,"station_id":"ce4bhi12rcd13ifvqfo0","pricing_plan_id":"cebpf4jnsgd1na2vs0mg"},{"bike_id":"fbca45b4-a3e9-4aaf-818b-1a11abe37dd9","system_id":"levelo_inurba_marseille","lat":43.30811,"lon":5.37644,"is_reserved":false,"is_disabled":false,"rental_uris":{"android":"levelo://app?vid=fbca45b4-a3e9-4aaf-818b-1a11abe37dd9","ios":"levelo://app?vid=fbca45b4-a3e9-4aaf-818b-1a11abe37dd9"},"vehicle_type_id":"4","last_reported":1737598045,"current_range_meters":17200,"station_id":"ce4bgv92rcd13ifvqcq0","pricing_plan_id":"cebpf4jnsgd1na2vs0mg"},{"bike_id":"8ab0346c-8001-4067-8852-009244e2b53d","system_id":"levelo_inurba_marseille","lat":43.310828,"lon":5.424329,"is_reserved":false,"is_disabled":false,"rental_uris":{"android":"levelo://app?vid=8ab0346c-8001-4067-8852-009244e2b53d","ios":"levelo://app?vid=8ab0346c-8001-4067-8852-009244e2b53d"},"vehicle_type_id":"4","last_reported":1737598045,"current_range_meters":38800,"station_id":"ce4bhp92rcd13ifvqhag","pricing_plan_id":"cebpf4jnsgd1na2vs0mg"},{"bike_id":"49b72580-0a1d-4edc-bc96-4de0de30e7b4","system_id":"levelo_inurba_marseille","lat":43.31054,"lon":5.38397,"is_reserved":false,"is_disabled":false,"rental_uris":{"android":"levelo://app?vid=49b72580-0a1d-4edc-bc96-4de0de30e7b4","ios":"levelo://app?vid=49b72580-0a1d-4edc-bc96-4de0de30e7b4"},"vehicle_type_id":"4","last_reported":1737598045,"current_range_meters":38800,"station_id":"ce4bgv92rcd13ifvqcr0","pricing_plan_id":"cebpf4jnsgd1na2vs0mg"},{"bike_id":"ae61e9fb-77e2-453d-8f80-29ea9c2b14f4","system_id":"levelo_inurba_marseille","lat":43.29718,"lon":5.36609,"is_reserved":false,"is_disabled":false,"rental_uris":{"android":"levelo://app?vid=ae61e9fb-77e2-453d-8f80-29ea9c2b14f4","ios":"levelo://app?vid=ae61e9fb-77e2-453d-8f80-29ea9c2b14f4"},"vehicle_type_id":"4","last_reported":1737598045,"current_range_meters":38400,"station_id":"ce4bgn12rcd13ifvqbt0","pricing_plan_id":"cebpf4jnsgd1na2vs0mg"},{"bike_id":"fe9a0b6e-6d5f-461c-816f-df565a992bdf","system_id":"levelo_inurba_marseille","lat":43.28141,"lon":5.42645,"is_reserved":false,"is_disabled":false,"rental_uris":{"android":"levelo://app?vid=fe9a0b6e-6d5f-461c-816f-df565a992bdf","ios":"levelo://app?vid=fe9a0b6e-6d5f-461c-816f-df565a992bdf"},"vehicle_type_id":"4","last_reported":1737598045,"current_range_meters":29600,"station_id":"ce4bhnh2rcd13ifvqgug","pricing_plan_id":"cebpf4jnsgd1na2vs0mg"},{"bike_id":"df41d40d-8820-40f5-8e9c-038839210855","system_id":"levelo_inurba_marseille","lat":43.30135,"lon":5.3879,"is_reserved":false,"is_disabled":false,"rental_uris":{"android":"levelo://app?vid=df41d40d-8820-40f5-8e9c-038839210855","ios":"levelo://app?vid=df41d40d-8820-40f5-8e9c-038839210855"},"vehicle_type_id":"4","last_reported":1737598045,"current_range_meters":10000,"station_id":"ce4bghh2rcd13ifvqb60","pricing_plan_id":"cebpf4jnsgd1na2vs0mg"},{"bike_id":"e14baba4-7381-4ad7-9450-30b4b09a275b","system_id":"levelo_inurba_marseille","lat":43.31089,"lon":5.42432,"is_reserved":false,"is_disabled":false,"rental_uris":{"android":"levelo://app?vid=e14baba4-7381-4ad7-9450-30b4b09a275b","ios":"levelo://app?vid=e14baba4-7381-4ad7-9450-30b4b09a275b"},"vehicle_type_id":"4","last_reported":1737598045,"current_range_meters":38800,"station_id":"ce4bhp92rcd13ifvqhag","pricing_plan_id":"cebpf4jnsgd1na2vs0mg"},{"bike_id":"46df303c-af7b-4bd6-88dd-7d9758a3ac21","system_id":"levelo_inurba_marseille","lat":43.30444,"lon":5.38896,"is_reserved":false,"is_disabled":true,"rental_uris":{"android":"levelo://app?vid=46df303c-af7b-4bd6-88dd-7d9758a3ac21","ios":"levelo://app?vid=46df303c-af7b-4bd6-88dd-7d9758a3ac21"},"vehicle_type_id":"4","last_reported":1737598045,"current_range_meters":22800,"station_id":"ce4bgk12rcd13ifvqbi0","pricing_plan_id":"cebpf4jnsgd1na2vs0mg"},{"bike_id":"5ba5cfe7-a3f0-4559-acb3-f50099266fea","system_id":"levelo_inurba_marseille","lat":43.2753,"lon":5.38439,"is_reserved":false,"is_disabled":false,"rental_uris":{"android":"levelo://app?vid=5ba5cfe7-a3f0-4559-acb3-f50099266fea","ios":"levelo://app?vid=5ba5cfe7-a3f0-4559-acb3-f50099266fea"},"vehicle_type_id":"4","last_reported":1737598045,"current_range_meters":30000,"station_id":"ce4bhh92rcd13ifvqfi0","pricing_plan_id":"cebpf4jnsgd1na2vs0mg"},{"bike_id":"dc25515f-2516-4d8e-8ff7-eaa9f571f705","system_id":"levelo_inurba_marseille","lat":43.30102,"lon":5.39077,"is_reserved":false,"is_disabled":true,"rental_uris":{"android":"levelo://app?vid=dc25515f-2516-4d8e-8ff7-eaa9f571f705","ios":"levelo://app?vid=dc25515f-2516-4d8e-8ff7-eaa9f571f705"},"vehicle_type_id":"4","last_reported":1737598045,"current_range_meters":0,"station_id":"ce4bh192rcd13ifvqdb0","pricing_plan_id":"cebpf4jnsgd1na2vs0mg"},{"bike_id":"0e4d8d1d-321e-47ac-b020-7f9b0583208d","system_id":"levelo_inurba_marseille","lat":43.31307,"lon":5.39709,"is_reserved":false,"is_disabled":false,"rental_uris":{"android":"levelo://app?vid=0e4d8d1d-321e-47ac-b020-7f9b0583208d","ios":"levelo://app?vid=0e4d8d1d-321e-47ac-b020-7f9b0583208d"},"vehicle_type_id":"4","last_reported":1737598045,"current_range_meters":39200,"station_id":"ce4bgvp2rcd13ifvqcu0","pricing_plan_id":"cebpf4jnsgd1na2vs0mg"},{"bike_id":"219132d0-be19-453e-a72d-906c42eab0a6","system_id":"levelo_inurba_marseille","lat":43.28368,"lon":5.38628,"is_reserved":false,"is_disabled":false,"rental_uris":{"android":"levelo://app?vid=219132d0-be19-453e-a72d-906c42eab0a6","ios":"levelo://app?vid=219132d0-be19-453e-a72d-906c42eab0a6"},"vehicle_type_id":"4","last_reported":1737598045,"current_range_meters":25600,"station_id":"ce4bh492rcd13ifvqdvg","pricing_plan_id":"cebpf4jnsgd1na2vs0mg"},{"bike_id":"8f749dea-3a55-4bea-9c5e-8ba0c054d567","system_id":"levelo_inurba_marseille","lat":43.29553,"lon":5.42288,"is_reserved":false,"is_disabled":false,"rental_uris":{"android":"levelo://app?vid=8f749dea-3a55-4bea-9c5e-8ba0c054d567","ios":"levelo://app?vid=8f749dea-3a55-4bea-9c5e-8ba0c054d567"},"vehicle_type_id":"4","last_reported":1737598045,"current_range_meters":28400,"station_id":"ce4bhph2rcd13ifvqhdg","pricing_plan_id":"cebpf4jnsgd1na2vs0mg"},{"bike_id":"173e3aa7-0f78-46bd-a3ba-457b0bd64da9","system_id":"levelo_inurba_marseille","lat":43.28107,"lon":5.37834,"is_reserved":false,"is_disabled":false,"rental_uris":{"android":"levelo://app?vid=173e3aa7-0f78-46bd-a3ba-457b0bd64da9","ios":"levelo://app?vid=173e3aa7-0f78-46bd-a3ba-457b0bd64da9"},"vehicle_type_id":"4","last_reported":1737598045,"current_range_meters":38800,"station_id":"ce4bha12rcd13ifvqee0","pricing_plan_id":"cebpf4jnsgd1na2vs0mg"},{"bike_id":"5fda7550-04d6-4348-b623-706fa03b7fd7","system_id":"levelo_inurba_marseille","lat":43.27921,"lon":5.39582,"is_reserved":false,"is_disabled":false,"rental_uris":{"android":"levelo://app?vid=5fda7550-04d6-4348-b623-706fa03b7fd7","ios":"levelo://app?vid=5fda7550-04d6-4348-b623-706fa03b7fd7"},"vehicle_type_id":"4","last_reported":1737598045,"current_range_meters":27200,"station_id":"ce4bhf92rcd13ifvqf40","pricing_plan_id":"cebpf4jnsgd1na2vs0mg"},{"bike_id":"68402148-60a5-4cb9-9fd1-f8a71c609ca3","system_id":"levelo_inurba_marseille","lat":43.30145,"lon":5.398614,"is_reserved":false,"is_disabled":false,"rental_uris":{"android":"levelo://app?vid=68402148-60a5-4cb9-9fd1-f8a71c609ca3","ios":"levelo://app?vid=68402148-60a5-4cb9-9fd1-f8a71c609ca3"},"vehicle_type_id":"4","last_reported":1737598045,"current_range_meters":24800,"station_id":"ce4bh0h2rcd13ifvqd40","pricing_plan_id":"cebpf4jnsgd1na2vs0mg"},{"bike_id":"e6f5cc07-7521-407d-88c2-2999a4a7ae9e","system_id":"levelo_inurba_marseille","lat":43.279505,"lon":5.410378,"is_reserved":false,"is_disabled":false,"rental_uris":{"android":"levelo://app?vid=e6f5cc07-7521-407d-88c2-2999a4a7ae9e","ios":"levelo://app?vid=e6f5cc07-7521-407d-88c2-2999a4a7ae9e"},"vehicle_type_id":"4","last_reported":1737598045,"current_range_meters":16000,"station_id":"ce4bhnp2rcd13ifvqh0g","pricing_plan_id":"cebpf4jnsgd1na2vs0mg"},{"bike_id":"a74613b0-0632-4e74-90d6-f057fde31b01","system_id":"levelo_inurba_marseille","lat":43.30851,"lon":5.39631,"is_reserved":false,"is_disabled":false,"rental_uris":{"android":"levelo://app?vid=a74613b0-0632-4e74-90d6-f057fde31b01","ios":"levelo://app?vid=a74613b0-0632-4e74-90d6-f057fde31b01"},"vehicle_type_id":"4","last_reported":1737598045,"current_range_meters":37600,"station_id":"","pricing_plan_id":"cebpf4jnsgd1na2vs0mg"},{"bike_id":"a7708f30-9219-4bd1-8375-405a911cd519","system_id":"levelo_inurba_marseille","lat":43.22931,"lon":5.35384,"is_reserved":false,"is_disabled":false,"rental_uris":{"android":"levelo://app?vid=a7708f30-9219-4bd1-8375-405a911cd519","ios":"levelo://app?vid=a7708f30-9219-4bd1-8375-405a911cd519"},"vehicle_type_id":"4","last_reported":1737598045,"current_range_meters":8000,"station_id":"cpo3532slgdg3j2ikp40","pricing_plan_id":"cebpf4jnsgd1na2vs0mg"},{"bike_id":"8d0b1012-c1d6-45ce-b61d-a547d784948c","system_id":"levelo_inurba_marseille","lat":43.3234,"lon":5.40602,"is_reserved":false,"is_disabled":false,"rental_uris":{"android":"levelo://app?vid=8d0b1012-c1d6-45ce-b61d-a547d784948c","ios":"levelo://app?vid=8d0b1012-c1d6-45ce-b61d-a547d784948c"},"vehicle_type_id":"4","last_reported":1737598045,"current_range_meters":39200,"station_id":"ce4bhq92rcd13ifvqhjg","pricing_plan_id":"cebpf4jnsgd1na2vs0mg"},{"bike_id":"ee646c62-a4e2-4b65-a142-5eba84f8a7ad","system_id":"levelo_inurba_marseille","lat":43.27892,"lon":5.38006,"is_reserved":false,"is_disabled":false,"rental_uris":{"android":"levelo://app?vid=ee646c62-a4e2-4b65-a142-5eba84f8a7ad","ios":"levelo://app?vid=ee646c62-a4e2-4b65-a142-5eba84f8a7ad"},"vehicle_type_id":"4","last_reported":1737598045,"current_range_meters":38000,"station_id":"ce4bhf92rcd13ifvqf50","pricing_plan_id":"cebpf4jnsgd1na2vs0mg"},{"bike_id":"16d14ba6-7dee-471b-a066-bf7bfe8fa241","system_id":"levelo_inurba_marseille","lat":43.28722,"lon":5.36091,"is_reserved":false,"is_disabled":false,"rental_uris":{"android":"levelo://app?vid=16d14ba6-7dee-471b-a066-bf7bfe8fa241","ios":"levelo://app?vid=16d14ba6-7dee-471b-a066-bf7bfe8fa241"},"vehicle_type_id":"4","last_reported":1737598045,"current_range_meters":22800,"station_id":"cki0cbj6b192h4jlfktg","pricing_plan_id":"cebpf4jnsgd1na2vs0mg"},{"bike_id":"f8aa956a-8cae-4e6e-bae9-e7d6d45f1b1a","system_id":"levelo_inurba_marseille","lat":43.30768,"lon":5.3765,"is_reserved":false,"is_disabled":false,"rental_uris":{"android":"levelo://app?vid=f8aa956a-8cae-4e6e-bae9-e7d6d45f1b1a","ios":"levelo://app?vid=f8aa956a-8cae-4e6e-bae9-e7d6d45f1b1a"},"vehicle_type_id":"4","last_reported":1737598045,"current_range_meters":17200,"station_id":"ce4bgv92rcd13ifvqcq0","pricing_plan_id":"cebpf4jnsgd1na2vs0mg"},{"bike_id":"19c4ae78-f84d-4ef4-a09f-f36cd68fea03","system_id":"levelo_inurba_marseille","lat":43.25099,"lon":5.40324,"is_reserved":false,"is_disabled":false,"rental_uris":{"android":"levelo://app?vid=19c4ae78-f84d-4ef4-a09f-f36cd68fea03","ios":"levelo://app?vid=19c4ae78-f84d-4ef4-a09f-f36cd68fea03"},"vehicle_type_id":"4","last_reported":1737598045,"current_range_meters":37600,"station_id":"ce4bhlh2rcd13ifvqgig","pricing_plan_id":"cebpf4jnsgd1na2vs0mg"},{"bike_id":"e0ba6aac-d8ba-47b1-aa97-80ae735f1af2","system_id":"levelo_inurba_marseille","lat":43.25709,"lon":5.41113,"is_reserved":false,"is_disabled":false,"rental_uris":{"android":"levelo://app?vid=e0ba6aac-d8ba-47b1-aa97-80ae735f1af2","ios":"levelo://app?vid=e0ba6aac-d8ba-47b1-aa97-80ae735f1af2"},"vehicle_type_id":"4","last_reported":1737598045,"current_range_meters":38800,"station_id":"ce4bhkp2rcd13ifvqgd0","pricing_plan_id":"cebpf4jnsgd1na2vs0mg"},{"bike_id":"829a73aa-a8bc-45e5-b4cd-22689311b6c7","system_id":"levelo_inurba_marseille","lat":43.30439,"lon":5.38901,"is_reserved":false,"is_disabled":true,"rental_uris":{"android":"levelo://app?vid=829a73aa-a8bc-45e5-b4cd-22689311b6c7","ios":"levelo://app?vid=829a73aa-a8bc-45e5-b4cd-22689311b6c7"},"vehicle_type_id":"4","last_reported":1737598045,"current_range_meters":36400,"station_id":"ce4bgk12rcd13ifvqbi0","pricing_plan_id":"cebpf4jnsgd1na2vs0mg"},{"bike_id":"a5e265d6-a783-44d5-9134-8b17d23391d9","system_id":"levelo_inurba_marseille","lat":43.30309,"lon":5.40452,"is_reserved":false,"is_disabled":false,"rental_uris":{"android":"levelo://app?vid=a5e265d6-a783-44d5-9134-8b17d23391d9","ios":"levelo://app?vid=a5e265d6-a783-44d5-9134-8b17d23391d9"},"vehicle_type_id":"4","last_reported":1737598045,"current_range_meters":38800,"station_id":"ce4bh012rcd13ifvqd10","pricing_plan_id":"cebpf4jnsgd1na2vs0mg"},{"bike_id":"fe5283d4-ad50-4326-875d-e657e7e908e3","system_id":"levelo_inurba_marseille","lat":43.31482,"lon":5.37268,"is_reserved":false,"is_disabled":false,"rental_uris":{"android":"levelo://app?vid=fe5283d4-ad50-4326-875d-e657e7e908e3","ios":"levelo://app?vid=fe5283d4-ad50-4326-875d-e657e7e908e3"},"vehicle_type_id":"4","last_reported":1737598045,"current_range_meters":31200,"station_id":"ce4bgt12rcd13ifvqcd0","pricing_plan_id":"cebpf4jnsgd1na2vs0mg"},{"bike_id":"95289c82-6911-43c4-a49c-6e7f2290b672","system_id":"levelo_inurba_marseille","lat":43.30398,"lon":5.4127,"is_reserved":false,"is_disabled":false,"rental_uris":{"android":"levelo://app?vid=95289c82-6911-43c4-a49c-6e7f2290b672","ios":"levelo://app?vid=95289c82-6911-43c4-a49c-6e7f2290b672"},"vehicle_type_id":"4","last_reported":1737598045,"current_range_meters":38800,"station_id":"ce4bhop2rcd13ifvqh8g","pricing_plan_id":"cebpf4jnsgd1na2vs0mg"},{"bike_id":"97ed1502-02e9-40ce-b199-40998301fb85","system_id":"levelo_inurba_marseille","lat":43.29246,"lon":5.40921,"is_reserved":false,"is_disabled":false,"rental_uris":{"android":"levelo://app?vid=97ed1502-02e9-40ce-b199-40998301fb85","ios":"levelo://app?vid=97ed1502-02e9-40ce-b199-40998301fb85"},"vehicle_type_id":"4","last_reported":1737598045,"current_range_meters":27600,"station_id":"ce4bh192rcd13ifvqdc0","pricing_plan_id":"cebpf4jnsgd1na2vs0mg"},{"bike_id":"c570aeb4-f042-4c28-98e7-932abb58d9d8","system_id":"levelo_inurba_marseille","lat":43.28655,"lon":5.36358,"is_reserved":false,"is_disabled":false,"rental_uris":{"android":"levelo://app?vid=c570aeb4-f042-4c28-98e7-932abb58d9d8","ios":"levelo://app?vid=c570aeb4-f042-4c28-98e7-932abb58d9d8"},"vehicle_type_id":"4","last_reported":1737598045,"current_range_meters":12800,"station_id":"ce4bhah2rcd13ifvqej0","pricing_plan_id":"cebpf4jnsgd1na2vs0mg"},{"bike_id":"dcb048dc-cdc9-4384-89c0-8b2fb6c6a910","system_id":"levelo_inurba_marseille","lat":43.2892,"lon":5.36396,"is_reserved":false,"is_disabled":false,"rental_uris":{"android":"levelo://app?vid=dcb048dc-cdc9-4384-89c0-8b2fb6c6a910","ios":"levelo://app?vid=dcb048dc-cdc9-4384-89c0-8b2fb6c6a910"},"vehicle_type_id":"4","last_reported":1737598045,"current_range_meters":16400,"station_id":"ce4bhc92rcd13ifvqetg","pricing_plan_id":"cebpf4jnsgd1na2vs0mg"},{"bike_id":"aa78dc9b-1ad6-4b84-b70b-d65d57de4050","system_id":"levelo_inurba_marseille","lat":43.30667,"lon":5.40073,"is_reserved":false,"is_disabled":false,"rental_uris":{"android":"levelo://app?vid=aa78dc9b-1ad6-4b84-b70b-d65d57de4050","ios":"levelo://app?vid=aa78dc9b-1ad6-4b84-b70b-d65d57de4050"},"vehicle_type_id":"4","last_reported":1737598045,"current_range_meters":9600,"station_id":"ce4bh112rcd13ifvqda0","pricing_plan_id":"cebpf4jnsgd1na2vs0mg"},{"bike_id":"96e0558c-cec8-47c4-89d3-1aa21c4b0119","system_id":"levelo_inurba_marseille","lat":43.25735,"lon":5.41799,"is_reserved":false,"is_disabled":false,"rental_uris":{"android":"levelo://app?vid=96e0558c-cec8-47c4-89d3-1aa21c4b0119","ios":"levelo://app?vid=96e0558c-cec8-47c4-89d3-1aa21c4b0119"},"vehicle_type_id":"4","last_reported":1737598045,"current_range_meters":18000,"station_id":"","pricing_plan_id":"cebpf4jnsgd1na2vs0mg"},{"bike_id":"910fda35-12f8-43e9-b9a0-b272dcb4b894","system_id":"levelo_inurba_marseille","lat":43.29262,"lon":5.40917,"is_reserved":false,"is_disabled":false,"rental_uris":{"android":"levelo://app?vid=910fda35-12f8-43e9-b9a0-b272dcb4b894","ios":"levelo://app?vid=910fda35-12f8-43e9-b9a0-b272dcb4b894"},"vehicle_type_id":"4","last_reported":1737598045,"current_range_meters":39200,"station_id":"ce4bh192rcd13ifvqdc0","pricing_plan_id":"cebpf4jnsgd1na2vs0mg"},{"bike_id":"ffed11c9-eb08-4082-8d11-4dd09bc6ad00","system_id":"levelo_inurba_marseille","lat":43.29236,"lon":5.40911,"is_reserved":false,"is_disabled":false,"rental_uris":{"android":"levelo://app?vid=ffed11c9-eb08-4082-8d11-4dd09bc6ad00","ios":"levelo://app?vid=ffed11c9-eb08-4082-8d11-4dd09bc6ad00"},"vehicle_type_id":"4","last_reported":1737598045,"current_range_meters":30000,"station_id":"ce4bh192rcd13ifvqdc0","pricing_plan_id":"cebpf4jnsgd1na2vs0mg"},{"bike_id":"0daeceb0-3e33-439a-bb67-f4d1603f1523","system_id":"levelo_inurba_marseille","lat":43.31277,"lon":5.40159,"is_reserved":false,"is_disabled":false,"rental_uris":{"android":"levelo://app?vid=0daeceb0-3e33-439a-bb67-f4d1603f1523","ios":"levelo://app?vid=0daeceb0-3e33-439a-bb67-f4d1603f1523"},"vehicle_type_id":"4","last_reported":1737598045,"current_range_meters":39200,"station_id":"ce4bh092rcd13ifvqd30","pricing_plan_id":"cebpf4jnsgd1na2vs0mg"},{"bike_id":"59f93907-2a7e-48c1-b2ef-ddfb94bd2966","system_id":"levelo_inurba_marseille","lat":43.27942,"lon":5.41041,"is_reserved":false,"is_disabled":false,"rental_uris":{"android":"levelo://app?vid=59f93907-2a7e-48c1-b2ef-ddfb94bd2966","ios":"levelo://app?vid=59f93907-2a7e-48c1-b2ef-ddfb94bd2966"},"vehicle_type_id":"4","last_reported":1737598045,"current_range_meters":30000,"station_id":"ce4bhnp2rcd13ifvqh0g","pricing_plan_id":"cebpf4jnsgd1na2vs0mg"},{"bike_id":"5f2676f8-0004-4b83-8adf-66c1f0e7ad65","system_id":"levelo_inurba_marseille","lat":43.31117,"lon":5.37756,"is_reserved":false,"is_disabled":false,"rental_uris":{"android":"levelo://app?vid=5f2676f8-0004-4b83-8adf-66c1f0e7ad65","ios":"levelo://app?vid=5f2676f8-0004-4b83-8adf-66c1f0e7ad65"},"vehicle_type_id":"4","last_reported":1737598045,"current_range_meters":34000,"station_id":"ce4bgt92rcd13ifvqcg0","pricing_plan_id":"cebpf4jnsgd1na2vs0mg"},{"bike_id":"00bbdd8f-e74c-42a6-ad19-9b6fcaedf73b","system_id":"levelo_inurba_marseille","lat":43.30936,"lon":5.39055,"is_reserved":false,"is_disabled":false,"rental_uris":{"android":"levelo://app?vid=00bbdd8f-e74c-42a6-ad19-9b6fcaedf73b","ios":"levelo://app?vid=00bbdd8f-e74c-42a6-ad19-9b6fcaedf73b"},"vehicle_type_id":"4","last_reported":1737598045,"current_range_meters":39200,"station_id":"ce4bgup2rcd13ifvqco0","pricing_plan_id":"cebpf4jnsgd1na2vs0mg"},{"bike_id":"13a64475-e4c7-493c-900a-0bcfe86942ca","system_id":"levelo_inurba_marseille","lat":43.30806,"lon":5.43531,"is_reserved":false,"is_disabled":false,"rental_uris":{"android":"levelo://app?vid=13a64475-e4c7-493c-900a-0bcfe86942ca","ios":"levelo://app?vid=13a64475-e4c7-493c-900a-0bcfe86942ca"},"vehicle_type_id":"4","last_reported":1737598045,"current_range_meters":14000,"station_id":"ce4bhph2rcd13ifvqheg","pricing_plan_id":"cebpf4jnsgd1na2vs0mg"},{"bike_id":"b3bba7c3-7516-4619-ab2e-ec4598666463","system_id":"levelo_inurba_marseille","lat":43.30198,"lon":5.36622,"is_reserved":false,"is_disabled":false,"rental_uris":{"android":"levelo://app?vid=b3bba7c3-7516-4619-ab2e-ec4598666463","ios":"levelo://app?vid=b3bba7c3-7516-4619-ab2e-ec4598666463"},"vehicle_type_id":"4","last_reported":1737598045,"current_range_meters":33600,"station_id":"ce4bgrh2rcd13ifvqc8g","pricing_plan_id":"cebpf4jnsgd1na2vs0mg"},{"bike_id":"ac3fa518-fef3-4a6f-9e1e-03befa6efc87","system_id":"levelo_inurba_marseille","lat":43.27945,"lon":5.41053,"is_reserved":false,"is_disabled":false,"rental_uris":{"android":"levelo://app?vid=ac3fa518-fef3-4a6f-9e1e-03befa6efc87","ios":"levelo://app?vid=ac3fa518-fef3-4a6f-9e1e-03befa6efc87"},"vehicle_type_id":"4","last_reported":1737598045,"current_range_meters":10000,"station_id":"ce4bhnp2rcd13ifvqh0g","pricing_plan_id":"cebpf4jnsgd1na2vs0mg"},{"bike_id":"366618e5-58e4-49a2-b359-c5654fbadc2c","system_id":"levelo_inurba_marseille","lat":43.24076,"lon":5.3775,"is_reserved":false,"is_disabled":false,"rental_uris":{"android":"levelo://app?vid=366618e5-58e4-49a2-b359-c5654fbadc2c","ios":"levelo://app?vid=366618e5-58e4-49a2-b359-c5654fbadc2c"},"vehicle_type_id":"4","last_reported":1737598045,"current_range_meters":20000,"station_id":"ce4bhnp2rcd13ifvqgvg","pricing_plan_id":"cebpf4jnsgd1na2vs0mg"},{"bike_id":"c3b3bebb-09f3-4084-8c35-a5fde3b4b8b8","system_id":"levelo_inurba_marseille","lat":43.29194,"lon":5.35807,"is_reserved":false,"is_disabled":false,"rental_uris":{"android":"levelo://app?vid=c3b3bebb-09f3-4084-8c35-a5fde3b4b8b8","ios":"levelo://app?vid=c3b3bebb-09f3-4084-8c35-a5fde3b4b8b8"},"vehicle_type_id":"4","last_reported":1737598045,"current_range_meters":33600,"station_id":"ce4bhb12rcd13ifvqel0","pricing_plan_id":"cebpf4jnsgd1na2vs0mg"},{"bike_id":"aaa0c41b-3b4f-4f38-bba2-425d19b5f467","system_id":"levelo_inurba_marseille","lat":43.25711,"lon":5.41803,"is_reserved":false,"is_disabled":false,"rental_uris":{"android":"levelo://app?vid=aaa0c41b-3b4f-4f38-bba2-425d19b5f467","ios":"levelo://app?vid=aaa0c41b-3b4f-4f38-bba2-425d19b5f467"},"vehicle_type_id":"4","last_reported":1737598045,"current_range_meters":30400,"station_id":"","pricing_plan_id":"cebpf4jnsgd1na2vs0mg"},{"bike_id":"b0ee3244-b915-4f05-8704-8eb07d0c50b6","system_id":"levelo_inurba_marseille","lat":43.31666,"lon":5.37789,"is_reserved":false,"is_disabled":false,"rental_uris":{"android":"levelo://app?vid=b0ee3244-b915-4f05-8704-8eb07d0c50b6","ios":"levelo://app?vid=b0ee3244-b915-4f05-8704-8eb07d0c50b6"},"vehicle_type_id":"4","last_reported":1737598045,"current_range_meters":38800,"station_id":"ce4bgth2rcd13ifvqch0","pricing_plan_id":"cebpf4jnsgd1na2vs0mg"},{"bike_id":"2c89f2df-1730-4475-ab17-da02f7faf3ef","system_id":"levelo_inurba_marseille","lat":43.29201,"lon":5.39334,"is_reserved":false,"is_disabled":false,"rental_uris":{"android":"levelo://app?vid=2c89f2df-1730-4475-ab17-da02f7faf3ef","ios":"levelo://app?vid=2c89f2df-1730-4475-ab17-da02f7faf3ef"},"vehicle_type_id":"4","last_reported":1737598045,"current_range_meters":38800,"station_id":"ce4bh192rcd13ifvqdd0","pricing_plan_id":"cebpf4jnsgd1na2vs0mg"},{"bike_id":"4b9859b2-6d52-40dc-ab94-7ba11816198c","system_id":"levelo_inurba_marseille","lat":43.28468,"lon":5.35881,"is_reserved":false,"is_disabled":false,"rental_uris":{"android":"levelo://app?vid=4b9859b2-6d52-40dc-ab94-7ba11816198c","ios":"levelo://app?vid=4b9859b2-6d52-40dc-ab94-7ba11816198c"},"vehicle_type_id":"4","last_reported":1737598045,"current_range_meters":24000,"station_id":"ce4bhah2rcd13ifvqei0","pricing_plan_id":"cebpf4jnsgd1na2vs0mg"},{"bike_id":"96260513-3235-425b-b454-db083e6fc601","system_id":"levelo_inurba_marseille","lat":43.25473,"lon":5.3764,"is_reserved":false,"is_disabled":false,"rental_uris":{"android":"levelo://app?vid=96260513-3235-425b-b454-db083e6fc601","ios":"levelo://app?vid=96260513-3235-425b-b454-db083e6fc601"},"vehicle_type_id":"4","last_reported":1737598045,"current_range_meters":38000,"station_id":"ce4bhh12rcd13ifvqff0","pricing_plan_id":"cebpf4jnsgd1na2vs0mg"},{"bike_id":"58bd67b2-eea0-4ad2-8092-8cb589d6733b","system_id":"levelo_inurba_marseille","lat":43.30802,"lon":5.43531,"is_reserved":false,"is_disabled":false,"rental_uris":{"android":"levelo://app?vid=58bd67b2-eea0-4ad2-8092-8cb589d6733b","ios":"levelo://app?vid=58bd67b2-eea0-4ad2-8092-8cb589d6733b"},"vehicle_type_id":"4","last_reported":1737598045,"current_range_meters":7200,"station_id":"ce4bhph2rcd13ifvqheg","pricing_plan_id":"cebpf4jnsgd1na2vs0mg"},{"bike_id":"f8216a2b-e7c5-4eea-8c3d-912daef0d729","system_id":"levelo_inurba_marseille","lat":43.29891,"lon":5.43657,"is_reserved":false,"is_disabled":false,"rental_uris":{"android":"levelo://app?vid=f8216a2b-e7c5-4eea-8c3d-912daef0d729","ios":"levelo://app?vid=f8216a2b-e7c5-4eea-8c3d-912daef0d729"},"vehicle_type_id":"4","last_reported":1737598045,"current_range_meters":22000,"station_id":"ce4bhpp2rcd13ifvqhfg","pricing_plan_id":"cebpf4jnsgd1na2vs0mg"},{"bike_id":"86fce387-d25e-46bb-928c-c6923257e7fb","system_id":"levelo_inurba_marseille","lat":43.28402,"lon":5.37518,"is_reserved":false,"is_disabled":false,"rental_uris":{"android":"levelo://app?vid=86fce387-d25e-46bb-928c-c6923257e7fb","ios":"levelo://app?vid=86fce387-d25e-46bb-928c-c6923257e7fb"},"vehicle_type_id":"4","last_reported":1737598045,"current_range_meters":37600,"station_id":"ce4bh412rcd13ifvqds0","pricing_plan_id":"cebpf4jnsgd1na2vs0mg"},{"bike_id":"f69be3dd-5c08-41a5-a494-c4d2892249c1","system_id":"levelo_inurba_marseille","lat":43.33756,"lon":5.39148,"is_reserved":false,"is_disabled":false,"rental_uris":{"android":"levelo://app?vid=f69be3dd-5c08-41a5-a494-c4d2892249c1","ios":"levelo://app?vid=f69be3dd-5c08-41a5-a494-c4d2892249c1"},"vehicle_type_id":"4","last_reported":1737598045,"current_range_meters":39200,"station_id":"ce4bhr92rcd13ifvqhsg","pricing_plan_id":"cebpf4jnsgd1na2vs0mg"},{"bike_id":"ed212fa6-88f6-4297-9e5a-a078f733eaeb","system_id":"levelo_inurba_marseille","lat":43.30893,"lon":5.39611,"is_reserved":false,"is_disabled":false,"rental_uris":{"android":"levelo://app?vid=ed212fa6-88f6-4297-9e5a-a078f733eaeb","ios":"levelo://app?vid=ed212fa6-88f6-4297-9e5a-a078f733eaeb"},"vehicle_type_id":"4","last_reported":1737598045,"current_range_meters":35200,"station_id":"ce4bh012rcd13ifvqcv0","pricing_plan_id":"cebpf4jnsgd1na2vs0mg"},{"bike_id":"f713f8fc-7dbe-4822-907c-3c94832f607b","system_id":"levelo_inurba_marseille","lat":43.31169,"lon":5.38718,"is_reserved":false,"is_disabled":false,"rental_uris":{"android":"levelo://app?vid=f713f8fc-7dbe-4822-907c-3c94832f607b","ios":"levelo://app?vid=f713f8fc-7dbe-4822-907c-3c94832f607b"},"vehicle_type_id":"4","last_reported":1737598045,"current_range_meters":30400,"station_id":"ce4bgv12rcd13ifvqcp0","pricing_plan_id":"cebpf4jnsgd1na2vs0mg"},{"bike_id":"b30740f3-53de-4190-a431-351e48b71e56","system_id":"levelo_inurba_marseille","lat":43.32667,"lon":5.40999,"is_reserved":false,"is_disabled":false,"rental_uris":{"android":"levelo://app?vid=b30740f3-53de-4190-a431-351e48b71e56","ios":"levelo://app?vid=b30740f3-53de-4190-a431-351e48b71e56"},"vehicle_type_id":"4","last_reported":1737598045,"current_range_meters":30400,"station_id":"ce4bhpp2rcd13ifvqhgg","pricing_plan_id":"cebpf4jnsgd1na2vs0mg"},{"bike_id":"dc95ebd0-8293-424f-a41e-ce8c5550c2a8","system_id":"levelo_inurba_marseille","lat":43.28721,"lon":5.361,"is_reserved":false,"is_disabled":false,"rental_uris":{"android":"levelo://app?vid=dc95ebd0-8293-424f-a41e-ce8c5550c2a8","ios":"levelo://app?vid=dc95ebd0-8293-424f-a41e-ce8c5550c2a8"},"vehicle_type_id":"4","last_reported":1737598045,"current_range_meters":36800,"station_id":"cki0cbj6b192h4jlfktg","pricing_plan_id":"cebpf4jnsgd1na2vs0mg"},{"bike_id":"4ed3bc75-3ebf-4674-b2ac-7df280aed53c","system_id":"levelo_inurba_marseille","lat":43.279122,"lon":5.395935,"is_reserved":false,"is_disabled":false,"rental_uris":{"android":"levelo://app?vid=4ed3bc75-3ebf-4674-b2ac-7df280aed53c","ios":"levelo://app?vid=4ed3bc75-3ebf-4674-b2ac-7df280aed53c"},"vehicle_type_id":"4","last_reported":1737598045,"current_range_meters":32400,"station_id":"ce4bhf92rcd13ifvqf40","pricing_plan_id":"cebpf4jnsgd1na2vs0mg"},{"bike_id":"9863b7f9-4316-4322-9f6c-3cc66b0448e2","system_id":"levelo_inurba_marseille","lat":43.279439,"lon":5.389008,"is_reserved":false,"is_disabled":true,"rental_uris":{"android":"levelo://app?vid=9863b7f9-4316-4322-9f6c-3cc66b0448e2","ios":"levelo://app?vid=9863b7f9-4316-4322-9f6c-3cc66b0448e2"},"vehicle_type_id":"4","last_reported":1737598045,"current_range_meters":26800,"station_id":"","pricing_plan_id":"cebpf4jnsgd1na2vs0mg"},{"bike_id":"53a605d6-15ae-4709-9711-f11ee8e34b14","system_id":"levelo_inurba_marseille","lat":43.30207,"lon":5.39481,"is_reserved":false,"is_disabled":false,"rental_uris":{"android":"levelo://app?vid=53a605d6-15ae-4709-9711-f11ee8e34b14","ios":"levelo://app?vid=53a605d6-15ae-4709-9711-f11ee8e34b14"},"vehicle_type_id":"4","last_reported":1737598045,"current_range_meters":36800,"station_id":"ce4bh0p2rcd13ifvqd70","pricing_plan_id":"cebpf4jnsgd1na2vs0mg"},{"bike_id":"c072e3af-4d17-488d-8fb7-d9317a7547d1","system_id":"levelo_inurba_marseille","lat":43.28291,"lon":5.43179,"is_reserved":false,"is_disabled":false,"rental_uris":{"android":"levelo://app?vid=c072e3af-4d17-488d-8fb7-d9317a7547d1","ios":"levelo://app?vid=c072e3af-4d17-488d-8fb7-d9317a7547d1"},"vehicle_type_id":"4","last_reported":1737598045,"current_range_meters":28400,"station_id":"","pricing_plan_id":"cebpf4jnsgd1na2vs0mg"},{"bike_id":"f1c5932f-7a18-47aa-8c43-ad0f6da4f55b","system_id":"levelo_inurba_marseille","lat":43.30882,"lon":5.37182,"is_reserved":false,"is_disabled":false,"rental_uris":{"android":"levelo://app?vid=f1c5932f-7a18-47aa-8c43-ad0f6da4f55b","ios":"levelo://app?vid=f1c5932f-7a18-47aa-8c43-ad0f6da4f55b"},"vehicle_type_id":"4","last_reported":1737598045,"current_range_meters":38000,"station_id":"ce4bguh2rcd13ifvqckg","pricing_plan_id":"cebpf4jnsgd1na2vs0mg"},{"bike_id":"eddb6b89-082b-479c-b34f-44c352a03897","system_id":"levelo_inurba_marseille","lat":43.25492,"lon":5.37653,"is_reserved":false,"is_disabled":false,"rental_uris":{"android":"levelo://app?vid=eddb6b89-082b-479c-b34f-44c352a03897","ios":"levelo://app?vid=eddb6b89-082b-479c-b34f-44c352a03897"},"vehicle_type_id":"4","last_reported":1737598045,"current_range_meters":38800,"station_id":"ce4bhh12rcd13ifvqff0","pricing_plan_id":"cebpf4jnsgd1na2vs0mg"},{"bike_id":"795016d8-3d99-4697-be28-e44e10ed86a8","system_id":"levelo_inurba_marseille","lat":43.27892,"lon":5.38011,"is_reserved":false,"is_disabled":false,"rental_uris":{"android":"levelo://app?vid=795016d8-3d99-4697-be28-e44e10ed86a8","ios":"levelo://app?vid=795016d8-3d99-4697-be28-e44e10ed86a8"},"vehicle_type_id":"4","last_reported":1737598045,"current_range_meters":38400,"station_id":"ce4bhf92rcd13ifvqf50","pricing_plan_id":"cebpf4jnsgd1na2vs0mg"},{"bike_id":"d482e144-5239-4ce2-b6b9-78a44e7f8317","system_id":"levelo_inurba_marseille","lat":43.31174,"lon":5.3871,"is_reserved":false,"is_disabled":false,"rental_uris":{"android":"levelo://app?vid=d482e144-5239-4ce2-b6b9-78a44e7f8317","ios":"levelo://app?vid=d482e144-5239-4ce2-b6b9-78a44e7f8317"},"vehicle_type_id":"4","last_reported":1737598045,"current_range_meters":24800,"station_id":"ce4bgv12rcd13ifvqcp0","pricing_plan_id":"cebpf4jnsgd1na2vs0mg"},{"bike_id":"895f869d-5830-4c5b-80e3-0bb0d95c3704","system_id":"levelo_inurba_marseille","lat":43.23971,"lon":5.36618,"is_reserved":false,"is_disabled":false,"rental_uris":{"android":"levelo://app?vid=895f869d-5830-4c5b-80e3-0bb0d95c3704","ios":"levelo://app?vid=895f869d-5830-4c5b-80e3-0bb0d95c3704"},"vehicle_type_id":"4","last_reported":1737598045,"current_range_meters":24400,"station_id":"ce4bhi12rcd13ifvqfp0","pricing_plan_id":"cebpf4jnsgd1na2vs0mg"},{"bike_id":"3c3a7ef9-6af7-4b28-917e-e6ba18feb67f","system_id":"levelo_inurba_marseille","lat":43.30255,"lon":5.40054,"is_reserved":false,"is_disabled":false,"rental_uris":{"android":"levelo://app?vid=3c3a7ef9-6af7-4b28-917e-e6ba18feb67f","ios":"levelo://app?vid=3c3a7ef9-6af7-4b28-917e-e6ba18feb67f"},"vehicle_type_id":"4","last_reported":1737598045,"current_range_meters":38800,"station_id":"ce4bgvh2rcd13ifvqcs0","pricing_plan_id":"cebpf4jnsgd1na2vs0mg"},{"bike_id":"59199b9b-8431-485c-9f34-fc6d72e5dad0","system_id":"levelo_inurba_marseille","lat":43.30408,"lon":5.41276,"is_reserved":false,"is_disabled":false,"rental_uris":{"android":"levelo://app?vid=59199b9b-8431-485c-9f34-fc6d72e5dad0","ios":"levelo://app?vid=59199b9b-8431-485c-9f34-fc6d72e5dad0"},"vehicle_type_id":"4","last_reported":1737598045,"current_range_meters":28400,"station_id":"ce4bhop2rcd13ifvqh8g","pricing_plan_id":"cebpf4jnsgd1na2vs0mg"},{"bike_id":"dfbd27e7-12bf-4812-80d1-488dbaf230dc","system_id":"levelo_inurba_marseille","lat":43.32473,"lon":5.36567,"is_reserved":false,"is_disabled":false,"rental_uris":{"android":"levelo://app?vid=dfbd27e7-12bf-4812-80d1-488dbaf230dc","ios":"levelo://app?vid=dfbd27e7-12bf-4812-80d1-488dbaf230dc"},"vehicle_type_id":"4","last_reported":1737598045,"current_range_meters":24400,"station_id":"ce4bhs12rcd13ifvqhvg","pricing_plan_id":"cebpf4jnsgd1na2vs0mg"},{"bike_id":"8e2fe138-ff09-4b92-834b-8fe11a686c0f","system_id":"levelo_inurba_marseille","lat":43.30144,"lon":5.39922,"is_reserved":false,"is_disabled":false,"rental_uris":{"android":"levelo://app?vid=8e2fe138-ff09-4b92-834b-8fe11a686c0f","ios":"levelo://app?vid=8e2fe138-ff09-4b92-834b-8fe11a686c0f"},"vehicle_type_id":"4","last_reported":1737598045,"current_range_meters":14000,"station_id":"ce4bh0h2rcd13ifvqd40","pricing_plan_id":"cebpf4jnsgd1na2vs0mg"},{"bike_id":"fef5662b-15c1-40c3-b151-894288de3a73","system_id":"levelo_inurba_marseille","lat":43.28706,"lon":5.39952,"is_reserved":false,"is_disabled":false,"rental_uris":{"android":"levelo://app?vid=fef5662b-15c1-40c3-b151-894288de3a73","ios":"levelo://app?vid=fef5662b-15c1-40c3-b151-894288de3a73"},"vehicle_type_id":"4","last_reported":1737598045,"current_range_meters":27600,"station_id":"ce4bho92rcd13ifvqh3g","pricing_plan_id":"cebpf4jnsgd1na2vs0mg"},{"bike_id":"0e8bd911-4a96-4488-a82b-e5ddffbe636a","system_id":"levelo_inurba_marseille","lat":43.28731,"lon":5.36093,"is_reserved":false,"is_disabled":false,"rental_uris":{"android":"levelo://app?vid=0e8bd911-4a96-4488-a82b-e5ddffbe636a","ios":"levelo://app?vid=0e8bd911-4a96-4488-a82b-e5ddffbe636a"},"vehicle_type_id":"4","last_reported":1737598045,"current_range_meters":28800,"station_id":"cki0cbj6b192h4jlfktg","pricing_plan_id":"cebpf4jnsgd1na2vs0mg"},{"bike_id":"0d555cab-a3ac-493c-97d1-05fb30170afc","system_id":"levelo_inurba_marseille","lat":43.27795,"lon":5.40727,"is_reserved":false,"is_disabled":false,"rental_uris":{"android":"levelo://app?vid=0d555cab-a3ac-493c-97d1-05fb30170afc","ios":"levelo://app?vid=0d555cab-a3ac-493c-97d1-05fb30170afc"},"vehicle_type_id":"4","last_reported":1737598045,"current_range_meters":8400,"station_id":"ce4bhnh2rcd13ifvqgtg","pricing_plan_id":"cebpf4jnsgd1na2vs0mg"},{"bike_id":"5744006d-db8c-4c82-b596-952b29f11932","system_id":"levelo_inurba_marseille","lat":43.31287,"lon":5.40165,"is_reserved":false,"is_disabled":false,"rental_uris":{"android":"levelo://app?vid=5744006d-db8c-4c82-b596-952b29f11932","ios":"levelo://app?vid=5744006d-db8c-4c82-b596-952b29f11932"},"vehicle_type_id":"4","last_reported":1737598045,"current_range_meters":34800,"station_id":"ce4bh092rcd13ifvqd30","pricing_plan_id":"cebpf4jnsgd1na2vs0mg"},{"bike_id":"49052dc3-4d8a-4007-89e4-6a2b13d47195","system_id":"levelo_inurba_marseille","lat":43.24386,"lon":5.37089,"is_reserved":false,"is_disabled":true,"rental_uris":{"android":"levelo://app?vid=49052dc3-4d8a-4007-89e4-6a2b13d47195","ios":"levelo://app?vid=49052dc3-4d8a-4007-89e4-6a2b13d47195"},"vehicle_type_id":"4","last_reported":1737598045,"current_range_meters":11600,"station_id":"ce4bhhh2rcd13ifvqfk0","pricing_plan_id":"cebpf4jnsgd1na2vs0mg"},{"bike_id":"c5fb49ad-f90e-4caa-a5d1-c3c35c35098e","system_id":"levelo_inurba_marseille","lat":43.28966,"lon":5.36625,"is_reserved":false,"is_disabled":false,"rental_uris":{"android":"levelo://app?vid=c5fb49ad-f90e-4caa-a5d1-c3c35c35098e","ios":"levelo://app?vid=c5fb49ad-f90e-4caa-a5d1-c3c35c35098e"},"vehicle_type_id":"4","last_reported":1737598045,"current_range_meters":39200,"station_id":"ce4bhap2rcd13ifvqek0","pricing_plan_id":"cebpf4jnsgd1na2vs0mg"},{"bike_id":"c7dff3cc-e6b8-4ad0-901d-d6dc0a57d7a5","system_id":"levelo_inurba_marseille","lat":43.29261,"lon":5.38449,"is_reserved":false,"is_disabled":true,"rental_uris":{"android":"levelo://app?vid=c7dff3cc-e6b8-4ad0-901d-d6dc0a57d7a5","ios":"levelo://app?vid=c7dff3cc-e6b8-4ad0-901d-d6dc0a57d7a5"},"vehicle_type_id":"4","last_reported":1737598045,"current_range_meters":7200,"station_id":"ce4bh692rcd13ifvqea0","pricing_plan_id":"cebpf4jnsgd1na2vs0mg"},{"bike_id":"1c0bdd64-b440-4cb1-8eef-940fab5db96c","system_id":"levelo_inurba_marseille","lat":43.30133,"lon":5.39838,"is_reserved":false,"is_disabled":false,"rental_uris":{"android":"levelo://app?vid=1c0bdd64-b440-4cb1-8eef-940fab5db96c","ios":"levelo://app?vid=1c0bdd64-b440-4cb1-8eef-940fab5db96c"},"vehicle_type_id":"4","last_reported":1737598045,"current_range_meters":38800,"station_id":"ce4bh0h2rcd13ifvqd40","pricing_plan_id":"cebpf4jnsgd1na2vs0mg"},{"bike_id":"367b07c4-7680-48bf-b194-661d3a7f4275","system_id":"levelo_inurba_marseille","lat":43.2956,"lon":5.42301,"is_reserved":false,"is_disabled":false,"rental_uris":{"android":"levelo://app?vid=367b07c4-7680-48bf-b194-661d3a7f4275","ios":"levelo://app?vid=367b07c4-7680-48bf-b194-661d3a7f4275"},"vehicle_type_id":"4","last_reported":1737598045,"current_range_meters":38800,"station_id":"ce4bhph2rcd13ifvqhdg","pricing_plan_id":"cebpf4jnsgd1na2vs0mg"},{"bike_id":"1a95f77a-8a20-47bb-a81e-a2ebe6ac26fe","system_id":"levelo_inurba_marseille","lat":43.30804,"lon":5.38147,"is_reserved":false,"is_disabled":false,"rental_uris":{"android":"levelo://app?vid=1a95f77a-8a20-47bb-a81e-a2ebe6ac26fe","ios":"levelo://app?vid=1a95f77a-8a20-47bb-a81e-a2ebe6ac26fe"},"vehicle_type_id":"4","last_reported":1737598045,"current_range_meters":38000,"station_id":"ce4bgt12rcd13ifvqce0","pricing_plan_id":"cebpf4jnsgd1na2vs0mg"},{"bike_id":"fcd4837f-6e09-4786-bcf5-c3a686cbcfef","system_id":"levelo_inurba_marseille","lat":43.29902,"lon":5.43673,"is_reserved":false,"is_disabled":false,"rental_uris":{"android":"levelo://app?vid=fcd4837f-6e09-4786-bcf5-c3a686cbcfef","ios":"levelo://app?vid=fcd4837f-6e09-4786-bcf5-c3a686cbcfef"},"vehicle_type_id":"4","last_reported":1737598045,"current_range_meters":30000,"station_id":"ce4bhpp2rcd13ifvqhfg","pricing_plan_id":"cebpf4jnsgd1na2vs0mg"},{"bike_id":"d561329e-e53f-4714-85a9-2ace5d8e89b2","system_id":"levelo_inurba_marseille","lat":43.28115,"lon":5.37858,"is_reserved":false,"is_disabled":false,"rental_uris":{"android":"levelo://app?vid=d561329e-e53f-4714-85a9-2ace5d8e89b2","ios":"levelo://app?vid=d561329e-e53f-4714-85a9-2ace5d8e89b2"},"vehicle_type_id":"4","last_reported":1737598045,"current_range_meters":31200,"station_id":"ce4bha12rcd13ifvqee0","pricing_plan_id":"cebpf4jnsgd1na2vs0mg"},{"bike_id":"690952aa-4cf6-4ec8-a1ef-02ddc0138251","system_id":"levelo_inurba_marseille","lat":43.26171,"lon":5.42062,"is_reserved":false,"is_disabled":false,"rental_uris":{"android":"levelo://app?vid=690952aa-4cf6-4ec8-a1ef-02ddc0138251","ios":"levelo://app?vid=690952aa-4cf6-4ec8-a1ef-02ddc0138251"},"vehicle_type_id":"4","last_reported":1737598045,"current_range_meters":30400,"station_id":"","pricing_plan_id":"cebpf4jnsgd1na2vs0mg"},{"bike_id":"d46a74b4-d575-4284-b10d-520ab1619e29","system_id":"levelo_inurba_marseille","lat":43.24682,"lon":5.38159,"is_reserved":false,"is_disabled":false,"rental_uris":{"android":"levelo://app?vid=d46a74b4-d575-4284-b10d-520ab1619e29","ios":"levelo://app?vid=d46a74b4-d575-4284-b10d-520ab1619e29"},"vehicle_type_id":"4","last_reported":1737598045,"current_range_meters":10800,"station_id":"ce4bhih2rcd13ifvqfr0","pricing_plan_id":"cebpf4jnsgd1na2vs0mg"},{"bike_id":"4cb8a5c0-7cca-4ede-8e83-cfe56f37f538","system_id":"levelo_inurba_marseille","lat":43.31174,"lon":5.38706,"is_reserved":false,"is_disabled":false,"rental_uris":{"android":"levelo://app?vid=4cb8a5c0-7cca-4ede-8e83-cfe56f37f538","ios":"levelo://app?vid=4cb8a5c0-7cca-4ede-8e83-cfe56f37f538"},"vehicle_type_id":"4","last_reported":1737598045,"current_range_meters":32000,"station_id":"ce4bgv12rcd13ifvqcp0","pricing_plan_id":"cebpf4jnsgd1na2vs0mg"},{"bike_id":"03af5a1d-20f6-4b21-b63e-8bec9df4705a","system_id":"levelo_inurba_marseille","lat":43.27559,"lon":5.38433,"is_reserved":false,"is_disabled":false,"rental_uris":{"android":"levelo://app?vid=03af5a1d-20f6-4b21-b63e-8bec9df4705a","ios":"levelo://app?vid=03af5a1d-20f6-4b21-b63e-8bec9df4705a"},"vehicle_type_id":"4","last_reported":1737598045,"current_range_meters":20400,"station_id":"ce4bhh92rcd13ifvqfi0","pricing_plan_id":"cebpf4jnsgd1na2vs0mg"},{"bike_id":"c1da0c51-ca95-43d5-a029-56735f63b6c8","system_id":"levelo_inurba_marseille","lat":43.28564,"lon":5.39505,"is_reserved":false,"is_disabled":false,"rental_uris":{"android":"levelo://app?vid=c1da0c51-ca95-43d5-a029-56735f63b6c8","ios":"levelo://app?vid=c1da0c51-ca95-43d5-a029-56735f63b6c8"},"vehicle_type_id":"4","last_reported":1737598045,"current_range_meters":38000,"station_id":"ce4bh292rcd13ifvqdg0","pricing_plan_id":"cebpf4jnsgd1na2vs0mg"},{"bike_id":"1544ef29-1cd5-407c-aa67-2a7025e4e85b","system_id":"levelo_inurba_marseille","lat":43.30325,"lon":5.40452,"is_reserved":false,"is_disabled":false,"rental_uris":{"android":"levelo://app?vid=1544ef29-1cd5-407c-aa67-2a7025e4e85b","ios":"levelo://app?vid=1544ef29-1cd5-407c-aa67-2a7025e4e85b"},"vehicle_type_id":"4","last_reported":1737598045,"current_range_meters":36800,"station_id":"ce4bh012rcd13ifvqd10","pricing_plan_id":"cebpf4jnsgd1na2vs0mg"},{"bike_id":"01c8aaec-1706-4926-9e2a-83103c989253","system_id":"levelo_inurba_marseille","lat":43.287286,"lon":5.360854,"is_reserved":false,"is_disabled":false,"rental_uris":{"android":"levelo://app?vid=01c8aaec-1706-4926-9e2a-83103c989253","ios":"levelo://app?vid=01c8aaec-1706-4926-9e2a-83103c989253"},"vehicle_type_id":"4","last_reported":1737598045,"current_range_meters":16400,"station_id":"cki0cbj6b192h4jlfktg","pricing_plan_id":"cebpf4jnsgd1na2vs0mg"},{"bike_id":"eda1391d-595e-4a9f-bee1-6c3298f84c99","system_id":"levelo_inurba_marseille","lat":43.24649,"lon":5.38895,"is_reserved":false,"is_disabled":false,"rental_uris":{"android":"levelo://app?vid=eda1391d-595e-4a9f-bee1-6c3298f84c99","ios":"levelo://app?vid=eda1391d-595e-4a9f-bee1-6c3298f84c99"},"vehicle_type_id":"4","last_reported":1737598045,"current_range_meters":36800,"station_id":"ce4bhg12rcd13ifvqf60","pricing_plan_id":"cebpf4jnsgd1na2vs0mg"},{"bike_id":"ef1d33f4-4f63-4510-84c1-18c4329f71d9","system_id":"levelo_inurba_marseille","lat":43.31372,"lon":5.37016,"is_reserved":false,"is_disabled":false,"rental_uris":{"android":"levelo://app?vid=ef1d33f4-4f63-4510-84c1-18c4329f71d9","ios":"levelo://app?vid=ef1d33f4-4f63-4510-84c1-18c4329f71d9"},"vehicle_type_id":"4","last_reported":1737598045,"current_range_meters":38800,"station_id":"","pricing_plan_id":"cebpf4jnsgd1na2vs0mg"},{"bike_id":"48db6913-128f-4973-97f1-d83337b49674","system_id":"levelo_inurba_marseille","lat":43.28354,"lon":5.38098,"is_reserved":false,"is_disabled":false,"rental_uris":{"android":"levelo://app?vid=48db6913-128f-4973-97f1-d83337b49674","ios":"levelo://app?vid=48db6913-128f-4973-97f1-d83337b49674"},"vehicle_type_id":"4","last_reported":1737598045,"current_range_meters":33200,"station_id":"ce4bh412rcd13ifvqdr0","pricing_plan_id":"cebpf4jnsgd1na2vs0mg"},{"bike_id":"57330205-51d8-4b67-897b-949dd9c90066","system_id":"levelo_inurba_marseille","lat":43.30801,"lon":5.38156,"is_reserved":false,"is_disabled":false,"rental_uris":{"android":"levelo://app?vid=57330205-51d8-4b67-897b-949dd9c90066","ios":"levelo://app?vid=57330205-51d8-4b67-897b-949dd9c90066"},"vehicle_type_id":"4","last_reported":1737598045,"current_range_meters":38800,"station_id":"ce4bgt12rcd13ifvqce0","pricing_plan_id":"cebpf4jnsgd1na2vs0mg"},{"bike_id":"310700a7-7a53-4a1a-acaa-562ce9a4c393","system_id":"levelo_inurba_marseille","lat":43.30247,"lon":5.40014,"is_reserved":false,"is_disabled":false,"rental_uris":{"android":"levelo://app?vid=310700a7-7a53-4a1a-acaa-562ce9a4c393","ios":"levelo://app?vid=310700a7-7a53-4a1a-acaa-562ce9a4c393"},"vehicle_type_id":"4","last_reported":1737598045,"current_range_meters":31200,"station_id":"","pricing_plan_id":"cebpf4jnsgd1na2vs0mg"},{"bike_id":"12d4cf66-0850-4966-9b21-37269dcb5145","system_id":"levelo_inurba_marseille","lat":43.26539,"lon":5.37305,"is_reserved":false,"is_disabled":false,"rental_uris":{"android":"levelo://app?vid=12d4cf66-0850-4966-9b21-37269dcb5145","ios":"levelo://app?vid=12d4cf66-0850-4966-9b21-37269dcb5145"},"vehicle_type_id":"4","last_reported":1737598045,"current_range_meters":15200,"station_id":"ce4bhg12rcd13ifvqf70","pricing_plan_id":"cebpf4jnsgd1na2vs0mg"},{"bike_id":"04b5c5ce-aa6a-4604-bf14-5327862bea7a","system_id":"levelo_inurba_marseille","lat":43.31331,"lon":5.39706,"is_reserved":false,"is_disabled":false,"rental_uris":{"android":"levelo://app?vid=04b5c5ce-aa6a-4604-bf14-5327862bea7a","ios":"levelo://app?vid=04b5c5ce-aa6a-4604-bf14-5327862bea7a"},"vehicle_type_id":"4","last_reported":1737598045,"current_range_meters":4400,"station_id":"ce4bgvp2rcd13ifvqcu0","pricing_plan_id":"cebpf4jnsgd1na2vs0mg"},{"bike_id":"51a36b3c-6a3c-4a10-8421-cf3855c7a215","system_id":"levelo_inurba_marseille","lat":43.25574,"lon":5.38241,"is_reserved":false,"is_disabled":false,"rental_uris":{"android":"levelo://app?vid=51a36b3c-6a3c-4a10-8421-cf3855c7a215","ios":"levelo://app?vid=51a36b3c-6a3c-4a10-8421-cf3855c7a215"},"vehicle_type_id":"4","last_reported":1737598045,"current_range_meters":8800,"station_id":"ce4bhih2rcd13ifvqfs0","pricing_plan_id":"cebpf4jnsgd1na2vs0mg"},{"bike_id":"c1e9efbf-d64f-4e5a-982a-cd3a81de02be","system_id":"levelo_inurba_marseille","lat":43.31322,"lon":5.39696,"is_reserved":false,"is_disabled":false,"rental_uris":{"android":"levelo://app?vid=c1e9efbf-d64f-4e5a-982a-cd3a81de02be","ios":"levelo://app?vid=c1e9efbf-d64f-4e5a-982a-cd3a81de02be"},"vehicle_type_id":"4","last_reported":1737598045,"current_range_meters":13600,"station_id":"ce4bgvp2rcd13ifvqcu0","pricing_plan_id":"cebpf4jnsgd1na2vs0mg"},{"bike_id":"8ec8e0b3-70b1-4209-b9f4-f93ff330704d","system_id":"levelo_inurba_marseille","lat":43.30797,"lon":5.38152,"is_reserved":false,"is_disabled":false,"rental_uris":{"android":"levelo://app?vid=8ec8e0b3-70b1-4209-b9f4-f93ff330704d","ios":"levelo://app?vid=8ec8e0b3-70b1-4209-b9f4-f93ff330704d"},"vehicle_type_id":"4","last_reported":1737598045,"current_range_meters":38800,"station_id":"ce4bgt12rcd13ifvqce0","pricing_plan_id":"cebpf4jnsgd1na2vs0mg"},{"bike_id":"612e82f7-10fc-4a4a-9e67-aa82ed05c11f","system_id":"levelo_inurba_marseille","lat":43.24662,"lon":5.38169,"is_reserved":false,"is_disabled":false,"rental_uris":{"android":"levelo://app?vid=612e82f7-10fc-4a4a-9e67-aa82ed05c11f","ios":"levelo://app?vid=612e82f7-10fc-4a4a-9e67-aa82ed05c11f"},"vehicle_type_id":"4","last_reported":1737598045,"current_range_meters":28000,"station_id":"ce4bhih2rcd13ifvqfr0","pricing_plan_id":"cebpf4jnsgd1na2vs0mg"},{"bike_id":"13ff516e-16cf-4543-8540-9030b8b296b4","system_id":"levelo_inurba_marseille","lat":43.23184,"lon":5.35571,"is_reserved":false,"is_disabled":false,"rental_uris":{"android":"levelo://app?vid=13ff516e-16cf-4543-8540-9030b8b296b4","ios":"levelo://app?vid=13ff516e-16cf-4543-8540-9030b8b296b4"},"vehicle_type_id":"4","last_reported":1737598045,"current_range_meters":30800,"station_id":"ce4bhu92rcd13ifvqi70","pricing_plan_id":"cebpf4jnsgd1na2vs0mg"},{"bike_id":"6a3f11ae-19cd-4d89-806e-94dec7d182bb","system_id":"levelo_inurba_marseille","lat":43.25825,"lon":5.39443,"is_reserved":false,"is_disabled":false,"rental_uris":{"android":"levelo://app?vid=6a3f11ae-19cd-4d89-806e-94dec7d182bb","ios":"levelo://app?vid=6a3f11ae-19cd-4d89-806e-94dec7d182bb"},"vehicle_type_id":"4","last_reported":1737598045,"current_range_meters":38800,"station_id":"ce4bhip2rcd13ifvqft0","pricing_plan_id":"cebpf4jnsgd1na2vs0mg"},{"bike_id":"9984a19d-448e-4ed2-8c95-d1103fd0e167","system_id":"levelo_inurba_marseille","lat":43.31747,"lon":5.39003,"is_reserved":false,"is_disabled":false,"rental_uris":{"android":"levelo://app?vid=9984a19d-448e-4ed2-8c95-d1103fd0e167","ios":"levelo://app?vid=9984a19d-448e-4ed2-8c95-d1103fd0e167"},"vehicle_type_id":"4","last_reported":1737598045,"current_range_meters":38000,"station_id":"ce4bhqp2rcd13ifvqhng","pricing_plan_id":"cebpf4jnsgd1na2vs0mg"},{"bike_id":"dc9afc0d-d533-431b-a32f-6f6423d7880b","system_id":"levelo_inurba_marseille","lat":43.31719,"lon":5.4241,"is_reserved":false,"is_disabled":false,"rental_uris":{"android":"levelo://app?vid=dc9afc0d-d533-431b-a32f-6f6423d7880b","ios":"levelo://app?vid=dc9afc0d-d533-431b-a32f-6f6423d7880b"},"vehicle_type_id":"4","last_reported":1737598045,"current_range_meters":32800,"station_id":"ce4bhp92rcd13ifvqhbg","pricing_plan_id":"cebpf4jnsgd1na2vs0mg"},{"bike_id":"bfc7d970-e019-4665-84d5-e5a81d0af44a","system_id":"levelo_inurba_marseille","lat":43.27949,"lon":5.41032,"is_reserved":false,"is_disabled":false,"rental_uris":{"android":"levelo://app?vid=bfc7d970-e019-4665-84d5-e5a81d0af44a","ios":"levelo://app?vid=bfc7d970-e019-4665-84d5-e5a81d0af44a"},"vehicle_type_id":"4","last_reported":1737598045,"current_range_meters":24000,"station_id":"ce4bhnp2rcd13ifvqh0g","pricing_plan_id":"cebpf4jnsgd1na2vs0mg"},{"bike_id":"888038f9-044f-4ded-824f-b22d803d5b12","system_id":"levelo_inurba_marseille","lat":43.29587,"lon":5.37478,"is_reserved":false,"is_disabled":true,"rental_uris":{"android":"levelo://app?vid=888038f9-044f-4ded-824f-b22d803d5b12","ios":"levelo://app?vid=888038f9-044f-4ded-824f-b22d803d5b12"},"vehicle_type_id":"4","last_reported":1737598045,"current_range_meters":17200,"station_id":"ce4bgh92rcd13ifvqb50","pricing_plan_id":"cebpf4jnsgd1na2vs0mg"},{"bike_id":"2efe9e39-8249-4782-be46-093a8b218e44","system_id":"levelo_inurba_marseille","lat":43.3171,"lon":5.42422,"is_reserved":false,"is_disabled":false,"rental_uris":{"android":"levelo://app?vid=2efe9e39-8249-4782-be46-093a8b218e44","ios":"levelo://app?vid=2efe9e39-8249-4782-be46-093a8b218e44"},"vehicle_type_id":"4","last_reported":1737598045,"current_range_meters":39200,"station_id":"ce4bhp92rcd13ifvqhbg","pricing_plan_id":"cebpf4jnsgd1na2vs0mg"},{"bike_id":"1876537c-c9d8-4160-b31c-e17d644f44c6","system_id":"levelo_inurba_marseille","lat":43.32476,"lon":5.3656,"is_reserved":false,"is_disabled":false,"rental_uris":{"android":"levelo://app?vid=1876537c-c9d8-4160-b31c-e17d644f44c6","ios":"levelo://app?vid=1876537c-c9d8-4160-b31c-e17d644f44c6"},"vehicle_type_id":"4","last_reported":1737598045,"current_range_meters":35600,"station_id":"ce4bhs12rcd13ifvqhvg","pricing_plan_id":"cebpf4jnsgd1na2vs0mg"},{"bike_id":"3ca427d4-897d-4f96-8e6b-de1063edad3d","system_id":"levelo_inurba_marseille","lat":43.28457,"lon":5.35905,"is_reserved":false,"is_disabled":false,"rental_uris":{"android":"levelo://app?vid=3ca427d4-897d-4f96-8e6b-de1063edad3d","ios":"levelo://app?vid=3ca427d4-897d-4f96-8e6b-de1063edad3d"},"vehicle_type_id":"4","last_reported":1737598045,"current_range_meters":38800,"station_id":"ce4bhah2rcd13ifvqei0","pricing_plan_id":"cebpf4jnsgd1na2vs0mg"},{"bike_id":"2ca7abc7-847f-42bd-a01b-e2f89fea4d7b","system_id":"levelo_inurba_marseille","lat":43.31264,"lon":5.40174,"is_reserved":false,"is_disabled":false,"rental_uris":{"android":"levelo://app?vid=2ca7abc7-847f-42bd-a01b-e2f89fea4d7b","ios":"levelo://app?vid=2ca7abc7-847f-42bd-a01b-e2f89fea4d7b"},"vehicle_type_id":"4","last_reported":1737598045,"current_range_meters":7200,"station_id":"ce4bh092rcd13ifvqd30","pricing_plan_id":"cebpf4jnsgd1na2vs0mg"},{"bike_id":"f9fa6336-d0c6-41cd-aea9-792ce7de4de4","system_id":"levelo_inurba_marseille","lat":43.2481,"lon":5.37469,"is_reserved":false,"is_disabled":false,"rental_uris":{"android":"levelo://app?vid=f9fa6336-d0c6-41cd-aea9-792ce7de4de4","ios":"levelo://app?vid=f9fa6336-d0c6-41cd-aea9-792ce7de4de4"},"vehicle_type_id":"4","last_reported":1737598045,"current_range_meters":32800,"station_id":"ce4bhgh2rcd13ifvqfb0","pricing_plan_id":"cebpf4jnsgd1na2vs0mg"},{"bike_id":"8976b3af-d9f0-430e-ac13-ec85f96ff0f1","system_id":"levelo_inurba_marseille","lat":43.28926,"lon":5.36411,"is_reserved":false,"is_disabled":false,"rental_uris":{"android":"levelo://app?vid=8976b3af-d9f0-430e-ac13-ec85f96ff0f1","ios":"levelo://app?vid=8976b3af-d9f0-430e-ac13-ec85f96ff0f1"},"vehicle_type_id":"4","last_reported":1737598045,"current_range_meters":30800,"station_id":"ce4bhc92rcd13ifvqetg","pricing_plan_id":"cebpf4jnsgd1na2vs0mg"},{"bike_id":"8d35e3ee-f903-47e1-b66b-f249ca7eea11","system_id":"levelo_inurba_marseille","lat":43.295733,"lon":5.399807,"is_reserved":false,"is_disabled":false,"rental_uris":{"android":"levelo://app?vid=8d35e3ee-f903-47e1-b66b-f249ca7eea11","ios":"levelo://app?vid=8d35e3ee-f903-47e1-b66b-f249ca7eea11"},"vehicle_type_id":"4","last_reported":1737598045,"current_range_meters":38000,"station_id":"ce4bh312rcd13ifvqdj0","pricing_plan_id":"cebpf4jnsgd1na2vs0mg"},{"bike_id":"427ec049-7bdc-415e-93a1-e025c8b36d89","system_id":"levelo_inurba_marseille","lat":43.27991,"lon":5.4001,"is_reserved":false,"is_disabled":false,"rental_uris":{"android":"levelo://app?vid=427ec049-7bdc-415e-93a1-e025c8b36d89","ios":"levelo://app?vid=427ec049-7bdc-415e-93a1-e025c8b36d89"},"vehicle_type_id":"4","last_reported":1737598045,"current_range_meters":38800,"station_id":"ce4bho92rcd13ifvqh4g","pricing_plan_id":"cebpf4jnsgd1na2vs0mg"},