{"last_updated":1743779412,"ttl":60,"version":"2.2","data":{"bikes":[{"bike_id":"88a43223-3ff5-472f-892d-4f1303697e9e","system_id":"levelo_inurba_marseille","lat":43.290314,"lon":5.386387,"is_reserved":false,"is_disabled":false,"rental_uris":{"android":"levelo://app?vid=88a43223-3ff5-472f-892d-4f1303697e9e","ios":"levelo://app?vid=88a43223-3ff5-472f-892d-4f1303697e9e"},"vehicle_type_id":"4","last_reported":1743779412,"current_range_meters":3200,"station_id":"ce4bh4p2rcd13ifvqe0g","pricing_plan_id":"cebpf4jnsgd1na2vs0mg"},{"bike_id":"ae67b18e-cb93-4eee-abdc-b2799eab0db4","system_id":"levelo_inurba_marseille","lat":43.27314,"lon":5.39114,"is_reserved":false,"is_disabled":false,"rental_uris":{"android":"levelo://app?vid=ae67b18e-cb93-4eee-abdc-b2799eab0db4","ios":"levelo://app?vid=ae67b18e-cb93-4eee-abdc-b2799eab0db4"},"vehicle_type_id":"4","last_reported":1743779412,"current_range_meters":2800,"station_id":"ce4bhgp2rcd13ifvqfe0","pricing_plan_id":"cebpf4jnsgd1na2vs0mg"},{"bike_id":"2a442c41-bd6f-4780-9aee-a27bdfa34a45","system_id":"levelo_inurba_marseille","lat":43.30211,"lon":5.3946,"is_reserved":false,"is_disabled":false,"rental_uris":{"android":"levelo://app?vid=2a442c41-bd6f-4780-9aee-a27bdfa34a45","ios":"levelo://app?vid=2a442c41-bd6f-4780-9aee-a27bdfa34a45"},"vehicle_type_id":"4","last_reported":1743779412,"current_range_meters":2800,"station_id":"ce4bh0p2rcd13ifvqd70","pricing_plan_id":"cebpf4jnsgd1na2vs0mg"},{"bike_id":"32a978e0-d0c2-43d4-9b03-19a5c41c27de","system_id":"levelo_inurba_marseille","lat":43.31077,"lon":5.38345,"is_reserved":false,"is_disabled":true,"rental_uris":{"android":"levelo://app?vid=32a978e0-d0c2-43d4-9b03-19a5c41c27de","ios":"levelo://app?vid=32a978e0-d0c2-43d4-9b03-19a5c41c27de"},"vehicle_type_id":"4","last_reported":1743779412,"current_range_meters":2800,"station_id":"ce4bgv92rcd13ifvqcr0","pricing_plan_id":"cebpf4jnsgd1na2vs0mg"},{"bike_id":"09d2cf6d-2422-4a5e-916c-b097377c73dd","system_id":"levelo_inurba_marseille","lat":43.24677,"lon":5.38143,"is_reserved":false,"is_disabled":false,"rental_uris":{"android":"levelo://app?vid=09d2cf6d-2422-4a5e-916c-b097377c73dd","ios":"levelo://app?vid=09d2cf6d-2422-4a5e-916c-b097377c73dd"},"vehicle_type_id":"4","last_reported":1743779412,"current_range_meters":2800,"station_id":"ce4bhih2rcd13ifvqfr0","pricing_plan_id":"cebpf4jnsgd1na2vs0mg"},{"bike_id":"ce1237df-d185-4d2e-a8a0-2f9c82e5bfea","system_id":"levelo_inurba_marseille","lat":43.31487,"lon":5.37308,"is_reserved":false,"is_disabled":false,"rental_uris":{"android":"levelo://app?vid=ce1237df-d185-4d2e-a8a0-2f9c82e5bfea","ios":"levelo://app?vid=ce1237df-d185-4d2e-a8a0-2f9c82e5bfea"},"vehicle_type_id":"4","last_reported":1743779412,"current_range_meters":3200,"station_id":"ce4bgt12rcd13ifvqcd0","pricing_plan_id":"cebpf4jnsgd1na2vs0mg"},{"bike_id":"4466ce54-2b21-4727-a476-b1a378127f60","system_id":"levelo_inurba_marseille","lat":43.31745,"lon":5.39022,"is_reserved":false,"is_disabled":false,"rental_uris":{"android":"levelo://app?vid=4466ce54-2b21-4727-a476-b1a378127f60","ios":"levelo://app?vid=4466ce54-2b21-4727-a476-b1a378127f60"},"vehicle_type_id":"4","last_reported":1743779412,"current_range_meters":3200,"station_id":"ce4bhqp2rcd13ifvqhng","pricing_plan_id":"cebpf4jnsgd1na2vs0mg"},{"bike_id":"8baf42b2-3ada-408b-be24-ffa64f80f02e","system_id":"levelo_inurba_marseille","lat":43.29573,"lon":5.37532,"is_reserved":false,"is_disabled":false,"rental_uris":{"android":"levelo://app?vid=8baf42b2-3ada-408b-be24-ffa64f80f02e","ios":"levelo://app?vid=8baf42b2-3ada-408b-be24-ffa64f80f02e"},"vehicle_type_id":"4","last_reported":1743779412,"current_range_meters":3200,"station_id":"ce4bgh92rcd13ifvqb50","pricing_plan_id":"cebpf4jnsgd1na2vs0mg"},{"bike_id":"b6d532e5-df44-42f5-a5af-41a0235d1f68","system_id":"levelo_inurba_marseille","lat":43.26566,"lon":5.39007,"is_reserved":false,"is_disabled":false,"rental_uris":{"android":"levelo://app?vid=b6d532e5-df44-42f5-a5af-41a0235d1f68","ios":"levelo://app?vid=b6d532e5-df44-42f5-a5af-41a0235d1f68"},"vehicle_type_id":"4","last_reported":1743779412,"current_range_meters":3200,"station_id":"ce4bhe12rcd13ifvqf30","pricing_plan_id":"cebpf4jnsgd1na2vs0mg"},{"bike_id":"589c3a6f-c653-469b-ab18-36f342baa780","system_id":"levelo_inurba_marseille","lat":43.27055,"lon":5.40262,"is_reserved":false,"is_disabled":false,"rental_uris":{"android":"levelo://app?vid=589c3a6f-c653-469b-ab18-36f342baa780","ios":"levelo://app?vid=589c3a6f-c653-469b-ab18-36f342baa780"},"vehicle_type_id":"4","last_reported":1743779412,"current_range_meters":3200,"station_id":"ce4bhk92rcd13ifvqgc0","pricing_plan_id":"cebpf4jnsgd1na2vs0mg"},{"bike_id":"8b5a92be-802d-4ad0-b149-37ee846631fe","system_id":"levelo_inurba_marseille","lat":43.273901,"lon":5.362239,"is_reserved":false,"is_disabled":false,"rental_uris":{"android":"levelo://app?vid=8b5a92be-802d-4ad0-b149-37ee846631fe","ios":"levelo://app?vid=8b5a92be-802d-4ad0-b149-37ee846631fe"},"vehicle_type_id":"4","last_reported":1743779412,"current_range_meters":0,"station_id":"ce4bhbh2rcd13ifvqeo0","pricing_plan_id":"cebpf4jnsgd1na2vs0mg"},{"bike_id":"12bf2259-52b6-41ce-805c-9fdb2988148a","system_id":"levelo_inurba_marseille","lat":43.25508,"lon":5.37651,"is_reserved":false,"is_disabled":true,"rental_uris":{"android":"levelo://app?vid=12bf2259-52b6-41ce-805c-9fdb2988148a","ios":"levelo://app?vid=12bf2259-52b6-41ce-805c-9fdb2988148a"},"vehicle_type_id":"4","last_reported":1743779412,"current_range_meters":3200,"station_id":"ce4bhh12rcd13ifvqff0","pricing_plan_id":"cebpf4jnsgd1na2vs0mg"},{"bike_id":"40a26ee9-fdb3-4eb3-81aa-40d1bf0cb06a","system_id":"levelo_inurba_marseille","lat":43.29008,"lon":5.35613,"is_reserved":false,"is_disabled":false,"rental_uris":{"android":"levelo://app?vid=40a26ee9-fdb3-4eb3-81aa-40d1bf0cb06a","ios":"levelo://app?vid=40a26ee9-fdb3-4eb3-81aa-40d1bf0cb06a"},"vehicle_type_id":"4","last_reported":1743779412,"current_range_meters":3200,"station_id":"ce4bhb92rcd13ifvqen0","pricing_plan_id":"cebpf4jnsgd1na2vs0mg"},{"bike_id":"22c567f7-c4c1-4615-a141-fbd64558e28c","system_id":"levelo_inurba_marseille","lat":43.28266,"lon":5.35067,"is_reserved":false,"is_disabled":false,"rental_uris":{"android":"levelo://app?vid=22c567f7-c4c1-4615-a141-fbd64558e28c","ios":"levelo://app?vid=22c567f7-c4c1-4615-a141-fbd64558e28c"},"vehicle_type_id":"4","last_reported":1743779412,"current_range_meters":3600,"station_id":"ce4bhbp2rcd13ifvqerg","pricing_plan_id":"cebpf4jnsgd1na2vs0mg"},{"bike_id":"188846d1-be4c-45b9-b680-78935dc8106a","system_id":"levelo_inurba_marseille","lat":43.23054,"lon":5.35497,"is_reserved":false,"is_disabled":false,"rental_uris":{"android":"levelo://app?vid=188846d1-be4c-45b9-b680-78935dc8106a","ios":"levelo://app?vid=188846d1-be4c-45b9-b680-78935dc8106a"},"vehicle_type_id":"4","last_reported":1743779412,"current_range_meters":3600,"station_id":"cpo3342slgdg3j2ifvpg","pricing_plan_id":"cebpf4jnsgd1na2vs0mg"},{"bike_id":"cfa21125-fa09-419a-9ee0-a0a464c8b7ed","system_id":"levelo_inurba_marseille","lat":43.25917,"lon":5.40916,"is_reserved":false,"is_disabled":false,"rental_uris":{"android":"levelo://app?vid=cfa21125-fa09-419a-9ee0-a0a464c8b7ed","ios":"levelo://app?vid=cfa21125-fa09-419a-9ee0-a0a464c8b7ed"},"vehicle_type_id":"4","last_reported":1743779412,"current_range_meters":4000,"station_id":"ce4bhm92rcd13ifvqglg","pricing_plan_id":"cebpf4jnsgd1na2vs0mg"},{"bike_id":"d861f5d1-6461-4886-9245-14ca8066e075","system_id":"levelo_inurba_marseille","lat":43.30866,"lon":5.3963,"is_reserved":false,"is_disabled":false,"rental_uris":{"android":"levelo://app?vid=d861f5d1-6461-4886-9245-14ca8066e075","ios":"levelo://app?vid=d861f5d1-6461-4886-9245-14ca8066e075"},"vehicle_type_id":"4","last_reported":1743779412,"current_range_meters":4000,"station_id":"ce4bh012rcd13ifvqcv0","pricing_plan_id":"cebpf4jnsgd1na2vs0mg"},{"bike_id":"b6e62c1f-f8a5-433e-89f8-7aae44bf973e","system_id":"levelo_inurba_marseille","lat":43.28106,"lon":5.37846,"is_reserved":false,"is_disabled":false,"rental_uris":{"android":"levelo://app?vid=b6e62c1f-f8a5-433e-89f8-7aae44bf973e","ios":"levelo://app?vid=b6e62c1f-f8a5-433e-89f8-7aae44bf973e"},"vehicle_type_id":"4","last_reported":1743779412,"current_range_meters":4000,"station_id":"ce4bha12rcd13ifvqee0","pricing_plan_id":"cebpf4jnsgd1na2vs0mg"},{"bike_id":"bcb1b680-a992-4eaf-9ef8-0b46d0178b54","system_id":"levelo_inurba_marseille","lat":43.27919,"lon":5.39582,"is_reserved":false,"is_disabled":false,"rental_uris":{"android":"levelo://app?vid=bcb1b680-a992-4eaf-9ef8-0b46d0178b54","ios":"levelo://app?vid=bcb1b680-a992-4eaf-9ef8-0b46d0178b54"},"vehicle_type_id":"4","last_reported":1743779412,"current_range_meters":4400,"station_id":"ce4bhf92rcd13ifvqf40","pricing_plan_id":"cebpf4jnsgd1na2vs0mg"},{"bike_id":"cfac7f2f-9679-4b60-a420-122c25601ef1","system_id":"levelo_inurba_marseille","lat":43.25579,"lon":5.38231,"is_reserved":false,"is_disabled":false,"rental_uris":{"android":"levelo://app?vid=cfac7f2f-9679-4b60-a420-122c25601ef1","ios":"levelo://app?vid=cfac7f2f-9679-4b60-a420-122c25601ef1"},"vehicle_type_id":"4","last_reported":1743779412,"current_range_meters":4400,"station_id":"ce4bhih2rcd13ifvqfs0","pricing_plan_id":"cebpf4jnsgd1na2vs0mg"},{"bike_id":"91a95d1b-894f-4926-83dd-3f1b091cce61","system_id":"levelo_inurba_marseille","lat":43.25123,"lon":5.40314,"is_reserved":false,"is_disabled":false,"rental_uris":{"android":"levelo://app?vid=91a95d1b-894f-4926-83dd-3f1b091cce61","ios":"levelo://app?vid=91a95d1b-894f-4926-83dd-3f1b091cce61"},"vehicle_type_id":"4","last_reported":1743779412,"current_range_meters":4400,"station_id":"ce4bhlh2rcd13ifvqgig","pricing_plan_id":"cebpf4jnsgd1na2vs0mg"},{"bike_id":"0539c8ea-913d-4102-b4f6-05e196a54198","system_id":"levelo_inurba_marseille","lat":43.272122,"lon":5.391877,"is_reserved":false,"is_disabled":false,"rental_uris":{"android":"levelo://app?vid=0539c8ea-913d-4102-b4f6-05e196a54198","ios":"levelo://app?vid=0539c8ea-913d-4102-b4f6-05e196a54198"},"vehicle_type_id":"4","last_reported":1743779412,"current_range_meters":4000,"station_id":"ce4bhhp2rcd13ifvqfm0","pricing_plan_id":"cebpf4jnsgd1na2vs0mg"},{"bike_id":"cd83c8ac-ed09-4369-9279-b6f36f2bbd3c","system_id":"levelo_inurba_marseille","lat":43.30802,"lon":5.38188,"is_reserved":false,"is_disabled":false,"rental_uris":{"android":"levelo://app?vid=cd83c8ac-ed09-4369-9279-b6f36f2bbd3c","ios":"levelo://app?vid=cd83c8ac-ed09-4369-9279-b6f36f2bbd3c"},"vehicle_type_id":"4","last_reported":1743779412,"current_range_meters":4800,"station_id":"ce4bgt12rcd13ifvqce0","pricing_plan_id":"cebpf4jnsgd1na2vs0mg"},{"bike_id":"c9bc2f12-348a-464e-84af-c3905265219d","system_id":"levelo_inurba_marseille","lat":43.24071,"lon":5.37766,"is_reserved":false,"is_disabled":false,"rental_uris":{"android":"levelo://app?vid=c9bc2f12-348a-464e-84af-c3905265219d","ios":"levelo://app?vid=c9bc2f12-348a-464e-84af-c3905265219d"},"vehicle_type_id":"4","last_reported":1743779412,"current_range_meters":11200,"station_id":"ce4bhnp2rcd13ifvqgvg","pricing_plan_id":"cebpf4jnsgd1na2vs0mg"},{"bike_id":"5b82286f-b725-4f8c-85ad-33df2c5bd269","system_id":"levelo_inurba_marseille","lat":43.29624,"lon":5.37165,"is_reserved":false,"is_disabled":false,"rental_uris":{"android":"levelo://app?vid=5b82286f-b725-4f8c-85ad-33df2c5bd269","ios":"levelo://app?vid=5b82286f-b725-4f8c-85ad-33df2c5bd269"},"vehicle_type_id":"4","last_reported":1743779412,"current_range_meters":5600,"station_id":"ce4bgnh2rcd13ifvqc0g","pricing_plan_id":"cebpf4jnsgd1na2vs0mg"},{"bike_id":"cf1da2f4-f636-459f-9563-c98a9c044184","system_id":"levelo_inurba_marseille","lat":43.31486,"lon":5.37297,"is_reserved":false,"is_disabled":false,"rental_uris":{"android":"levelo://app?vid=cf1da2f4-f636-459f-9563-c98a9c044184","ios":"levelo://app?vid=cf1da2f4-f636-459f-9563-c98a9c044184"},"vehicle_type_id":"4","last_reported":1743779412,"current_range_meters":5600,"station_id":"ce4bgt12rcd13ifvqcd0","pricing_plan_id":"cebpf4jnsgd1na2vs0mg"},{"bike_id":"218190f0-668e-4b06-983d-c19586c26f57","system_id":"levelo_inurba_marseille","lat":43.30534,"lon":5.36539,"is_reserved":false,"is_disabled":false,"rental_uris":{"android":"levelo://app?vid=218190f0-668e-4b06-983d-c19586c26f57","ios":"levelo://app?vid=218190f0-668e-4b06-983d-c19586c26f57"},"vehicle_type_id":"4","last_reported":1743779412,"current_range_meters":5600,"station_id":"ce4bgs12rcd13ifvqcag","pricing_plan_id":"cebpf4jnsgd1na2vs0mg"},{"bike_id":"7dc91ff1-b35e-4ead-84c4-2f74053c6c0d","system_id":"levelo_inurba_marseille","lat":43.27562,"lon":5.38421,"is_reserved":false,"is_disabled":false,"rental_uris":{"android":"levelo://app?vid=7dc91ff1-b35e-4ead-84c4-2f74053c6c0d","ios":"levelo://app?vid=7dc91ff1-b35e-4ead-84c4-2f74053c6c0d"},"vehicle_type_id":"4","last_reported":1743779412,"current_range_meters":5600,"station_id":"ce4bhh92rcd13ifvqfi0","pricing_plan_id":"cebpf4jnsgd1na2vs0mg"},{"bike_id":"71e55f99-90e5-4133-8167-5af8b2b35d7e","system_id":"levelo_inurba_marseille","lat":43.2307,"lon":5.35496,"is_reserved":false,"is_disabled":false,"rental_uris":{"android":"levelo://app?vid=71e55f99-90e5-4133-8167-5af8b2b35d7e","ios":"levelo://app?vid=71e55f99-90e5-4133-8167-5af8b2b35d7e"},"vehicle_type_id":"4","last_reported":1743779412,"current_range_meters":6000,"station_id":"cpo3342slgdg3j2ifvpg","pricing_plan_id":"cebpf4jnsgd1na2vs0mg"},{"bike_id":"b7e30717-d783-4c69-b179-32be0c0a7467","system_id":"levelo_inurba_marseille","lat":43.25584,"lon":5.38235,"is_reserved":false,"is_disabled":false,"rental_uris":{"android":"levelo://app?vid=b7e30717-d783-4c69-b179-32be0c0a7467","ios":"levelo://app?vid=b7e30717-d783-4c69-b179-32be0c0a7467"},"vehicle_type_id":"4","last_reported":1743779412,"current_range_meters":8000,"station_id":"ce4bhih2rcd13ifvqfs0","pricing_plan_id":"cebpf4jnsgd1na2vs0mg"},{"bike_id":"a23385b3-0f9a-4e76-84dc-c5d229c2f78f","system_id":"levelo_inurba_marseille","lat":43.30147,"lon":5.38072,"is_reserved":false,"is_disabled":false,"rental_uris":{"android":"levelo://app?vid=a23385b3-0f9a-4e76-84dc-c5d229c2f78f","ios":"levelo://app?vid=a23385b3-0f9a-4e76-84dc-c5d229c2f78f"},"vehicle_type_id":"4","last_reported":1743779412,"current_range_meters":6400,"station_id":"ce4bgjp2rcd13ifvqbh0","pricing_plan_id":"cebpf4jnsgd1na2vs0mg"},{"bike_id":"65820718-a700-4a8a-b756-c9d78536d470","system_id":"levelo_inurba_marseille","lat":43.28162,"lon":5.42637,"is_reserved":false,"is_disabled":false,"rental_uris":{"android":"levelo://app?vid=65820718-a700-4a8a-b756-c9d78536d470","ios":"levelo://app?vid=65820718-a700-4a8a-b756-c9d78536d470"},"vehicle_type_id":"4","last_reported":1743779412,"current_range_meters":6400,"station_id":"ce4bhnh2rcd13ifvqgug","pricing_plan_id":"cebpf4jnsgd1na2vs0mg"},{"bike_id":"90cf7432-42c3-45f7-afba-0c936c69a9fe","system_id":"levelo_inurba_marseille","lat":43.24162,"lon":5.36398,"is_reserved":false,"is_disabled":false,"rental_uris":{"android":"levelo://app?vid=90cf7432-42c3-45f7-afba-0c936c69a9fe","ios":"levelo://app?vid=90cf7432-42c3-45f7-afba-0c936c69a9fe"},"vehicle_type_id":"4","last_reported":1743779412,"current_range_meters":6400,"station_id":"cpo36qri1sfpv3e86is0","pricing_plan_id":"cebpf4jnsgd1na2vs0mg"},{"bike_id":"c13336a2-47ce-488c-b5b6-77c01a3ac1d1","system_id":"levelo_inurba_marseille","lat":43.31894,"lon":5.40742,"is_reserved":false,"is_disabled":true,"rental_uris":{"android":"levelo://app?vid=c13336a2-47ce-488c-b5b6-77c01a3ac1d1","ios":"levelo://app?vid=c13336a2-47ce-488c-b5b6-77c01a3ac1d1"},"vehicle_type_id":"4","last_reported":1743779412,"current_range_meters":6400,"station_id":"ce4bhq12rcd13ifvqhig","pricing_plan_id":"cebpf4jnsgd1na2vs0mg"},{"bike_id":"159cd9cc-58c7-4262-add7-b7b29e541865","system_id":"levelo_inurba_marseille","lat":43.306465,"lon":5.40103,"is_reserved":false,"is_disabled":false,"rental_uris":{"android":"levelo://app?vid=159cd9cc-58c7-4262-add7-b7b29e541865","ios":"levelo://app?vid=159cd9cc-58c7-4262-add7-b7b29e541865"},"vehicle_type_id":"4","last_reported":1743779412,"current_range_meters":6400,"station_id":"ce4bh112rcd13ifvqda0","pricing_plan_id":"cebpf4jnsgd1na2vs0mg"},{"bike_id":"8d7eab5b-bc43-48f5-9c97-0948b42ca6cf","system_id":"levelo_inurba_marseille","lat":43.22931,"lon":5.35375,"is_reserved":false,"is_disabled":false,"rental_uris":{"android":"levelo://app?vid=8d7eab5b-bc43-48f5-9c97-0948b42ca6cf","ios":"levelo://app?vid=8d7eab5b-bc43-48f5-9c97-0948b42ca6cf"},"vehicle_type_id":"4","last_reported":1743779412,"current_range_meters":6400,"station_id":"cpo3532slgdg3j2ikp40","pricing_plan_id":"cebpf4jnsgd1na2vs0mg"},{"bike_id":"73d854ad-9eb6-4d68-8878-e9b2295ae65a","system_id":"levelo_inurba_marseille","lat":43.23067,"lon":5.3549,"is_reserved":false,"is_disabled":false,"rental_uris":{"android":"levelo://app?vid=73d854ad-9eb6-4d68-8878-e9b2295ae65a","ios":"levelo://app?vid=73d854ad-9eb6-4d68-8878-e9b2295ae65a"},"vehicle_type_id":"4","last_reported":1743779412,"current_range_meters":6800,"station_id":"cpo3342slgdg3j2ifvpg","pricing_plan_id":"cebpf4jnsgd1na2vs0mg"},{"bike_id":"32696b37-4210-41cb-8c0b-63118c0d0dda","system_id":"levelo_inurba_marseille","lat":43.27181,"lon":5.40987,"is_reserved":false,"is_disabled":false,"rental_uris":{"android":"levelo://app?vid=32696b37-4210-41cb-8c0b-63118c0d0dda","ios":"levelo://app?vid=32696b37-4210-41cb-8c0b-63118c0d0dda"},"vehicle_type_id":"4","last_reported":1743779412,"current_range_meters":6400,"station_id":"ce4bhl12rcd13ifvqgf0","pricing_plan_id":"cebpf4jnsgd1na2vs0mg"},{"bike_id":"e03a87e1-c99f-4da4-9968-c552ada410e7","system_id":"levelo_inurba_marseille","lat":43.27427,"lon":5.39423,"is_reserved":false,"is_disabled":false,"rental_uris":{"android":"levelo://app?vid=e03a87e1-c99f-4da4-9968-c552ada410e7","ios":"levelo://app?vid=e03a87e1-c99f-4da4-9968-c552ada410e7"},"vehicle_type_id":"4","last_reported":1743779412,"current_range_meters":6800,"station_id":"ce4bhdp2rcd13ifvqf20","pricing_plan_id":"cebpf4jnsgd1na2vs0mg"},{"bike_id":"9d0255be-e910-46f3-b884-5a1fc1ecdda9","system_id":"levelo_inurba_marseille","lat":43.27891,"lon":5.38003,"is_reserved":false,"is_disabled":false,"rental_uris":{"android":"levelo://app?vid=9d0255be-e910-46f3-b884-5a1fc1ecdda9","ios":"levelo://app?vid=9d0255be-e910-46f3-b884-5a1fc1ecdda9"},"vehicle_type_id":"4","last_reported":1743779412,"current_range_meters":6800,"station_id":"ce4bhf92rcd13ifvqf50","pricing_plan_id":"cebpf4jnsgd1na2vs0mg"},{"bike_id":"461f17eb-e0c6-429a-8c49-231ff197449c","system_id":"levelo_inurba_marseille","lat":43.28612,"lon":5.37057,"is_reserved":false,"is_disabled":false,"rental_uris":{"android":"levelo://app?vid=461f17eb-e0c6-429a-8c49-231ff197449c","ios":"levelo://app?vid=461f17eb-e0c6-429a-8c49-231ff197449c"},"vehicle_type_id":"4","last_reported":1743779412,"current_range_meters":6800,"station_id":"ce4bht12rcd13ifvqi60","pricing_plan_id":"cebpf4jnsgd1na2vs0mg"},{"bike_id":"bb110446-774d-4e5a-84cd-664d08e5de90","system_id":"levelo_inurba_marseille","lat":43.298505,"lon":5.362831,"is_reserved":false,"is_disabled":false,"rental_uris":{"android":"levelo://app?vid=bb110446-774d-4e5a-84cd-664d08e5de90","ios":"levelo://app?vid=bb110446-774d-4e5a-84cd-664d08e5de90"},"vehicle_type_id":"4","last_reported":1743779412,"current_range_meters":6800,"station_id":"ce4bgpp2rcd13ifvqc3g","pricing_plan_id":"cebpf4jnsgd1na2vs0mg"},{"bike_id":"715eff50-001a-413a-8e2d-3344911b1ca7","system_id":"levelo_inurba_marseille","lat":43.33331,"lon":5.39858,"is_reserved":false,"is_disabled":false,"rental_uris":{"android":"levelo://app?vid=715eff50-001a-413a-8e2d-3344911b1ca7","ios":"levelo://app?vid=715eff50-001a-413a-8e2d-3344911b1ca7"},"vehicle_type_id":"4","last_reported":1743779412,"current_range_meters":6800,"station_id":"","pricing_plan_id":"cebpf4jnsgd1na2vs0mg"},{"bike_id":"e3a29d38-a611-4b12-87ef-2fb8a21c41d5","system_id":"levelo_inurba_marseille","lat":43.22922,"lon":5.35365,"is_reserved":false,"is_disabled":false,"rental_uris":{"android":"levelo://app?vid=e3a29d38-a611-4b12-87ef-2fb8a21c41d5","ios":"levelo://app?vid=e3a29d38-a611-4b12-87ef-2fb8a21c41d5"},"vehicle_type_id":"4","last_reported":1743779412,"current_range_meters":7200,"station_id":"cpo3532slgdg3j2ikp40","pricing_plan_id":"cebpf4jnsgd1na2vs0mg"},{"bike_id":"efddeda7-6eb2-4c14-868d-fa0ce0b35ef3","system_id":"levelo_inurba_marseille","lat":43.313,"lon":5.38267,"is_reserved":false,"is_disabled":false,"rental_uris":{"android":"levelo://app?vid=efddeda7-6eb2-4c14-868d-fa0ce0b35ef3","ios":"levelo://app?vid=efddeda7-6eb2-4c14-868d-fa0ce0b35ef3"},"vehicle_type_id":"4","last_reported":1743779412,"current_range_meters":7200,"station_id":"","pricing_plan_id":"cebpf4jnsgd1na2vs0mg"},{"bike_id":"2ff3068f-074f-4569-bb32-aaa56c528ef2","system_id":"levelo_inurba_marseille","lat":43.2791,"lon":5.3958,"is_reserved":false,"is_disabled":false,"rental_uris":{"android":"levelo://app?vid=2ff3068f-074f-4569-bb32-aaa56c528ef2","ios":"levelo://app?vid=2ff3068f-074f-4569-bb32-aaa56c528ef2"},"vehicle_type_id":"4","last_reported":1743779412,"current_range_meters":7200,"station_id":"ce4bhf92rcd13ifvqf40","pricing_plan_id":"cebpf4jnsgd1na2vs0mg"},{"bike_id":"4a0cb5ec-891f-471c-8860-9d6c3a83a3a9","system_id":"levelo_inurba_marseille","lat":43.30373,"lon":5.42485,"is_reserved":false,"is_disabled":false,"rental_uris":{"android":"levelo://app?vid=4a0cb5ec-891f-471c-8860-9d6c3a83a3a9","ios":"levelo://app?vid=4a0cb5ec-891f-471c-8860-9d6c3a83a3a9"},"vehicle_type_id":"4","last_reported":1743779412,"current_range_meters":7200,"station_id":"ce4bhoh2rcd13ifvqh6g","pricing_plan_id":"cebpf4jnsgd1na2vs0mg"},{"bike_id":"27355c40-c9cf-4067-8034-1c39dc62de24","system_id":"levelo_inurba_marseille","lat":43.25106,"lon":5.40329,"is_reserved":false,"is_disabled":false,"rental_uris":{"android":"levelo://app?vid=27355c40-c9cf-4067-8034-1c39dc62de24","ios":"levelo://app?vid=27355c40-c9cf-4067-8034-1c39dc62de24"},"vehicle_type_id":"4","last_reported":1743779412,"current_range_meters":7200,"station_id":"ce4bhlh2rcd13ifvqgig","pricing_plan_id":"cebpf4jnsgd1na2vs0mg"},{"bike_id":"0d96d796-916b-4c0f-a3e6-ebb087ba245e","system_id":"levelo_inurba_marseille","lat":43.25718,"lon":5.41108,"is_reserved":false,"is_disabled":false,"rental_uris":{"android":"levelo://app?vid=0d96d796-916b-4c0f-a3e6-ebb087ba245e","ios":"levelo://app?vid=0d96d796-916b-4c0f-a3e6-ebb087ba245e"},"vehicle_type_id":"4","last_reported":1743779412,"current_range_meters":8000,"station_id":"ce4bhkp2rcd13ifvqgd0","pricing_plan_id":"cebpf4jnsgd1na2vs0mg"},{"bike_id":"3cf22d29-90b6-4c79-a643-886bc3743ca7","system_id":"levelo_inurba_marseille","lat":43.3339,"lon":5.40055,"is_reserved":false,"is_disabled":false,"rental_uris":{"android":"levelo://app?vid=3cf22d29-90b6-4c79-a643-886bc3743ca7","ios":"levelo://app?vid=3cf22d29-90b6-4c79-a643-886bc3743ca7"},"vehicle_type_id":"4","last_reported":1743779412,"current_range_meters":8000,"station_id":"","pricing_plan_id":"cebpf4jnsgd1na2vs0mg"},{"bike_id":"d64af289-3f7f-46d3-bdf5-b8c3098ffed8","system_id":"levelo_inurba_marseille","lat":43.29996,"lon":5.38531,"is_reserved":false,"is_disabled":false,"rental_uris":{"android":"levelo://app?vid=d64af289-3f7f-46d3-bdf5-b8c3098ffed8","ios":"levelo://app?vid=d64af289-3f7f-46d3-bdf5-b8c3098ffed8"},"vehicle_type_id":"4","last_reported":1743779412,"current_range_meters":8000,"station_id":"ce4bgj92rcd13ifvqbd0","pricing_plan_id":"cebpf4jnsgd1na2vs0mg"},{"bike_id":"c55a0c46-58c0-4499-b21b-ecc280024e5d","system_id":"levelo_inurba_marseille","lat":43.24171,"lon":5.36401,"is_reserved":false,"is_disabled":false,"rental_uris":{"android":"levelo://app?vid=c55a0c46-58c0-4499-b21b-ecc280024e5d","ios":"levelo://app?vid=c55a0c46-58c0-4499-b21b-ecc280024e5d"},"vehicle_type_id":"4","last_reported":1743779412,"current_range_meters":8000,"station_id":"cpo36qri1sfpv3e86is0","pricing_plan_id":"cebpf4jnsgd1na2vs0mg"},{"bike_id":"d76832c4-3604-4de9-b7a5-182f7c6e995c","system_id":"levelo_inurba_marseille","lat":43.31361,"lon":5.38502,"is_reserved":false,"is_disabled":true,"rental_uris":{"android":"levelo://app?vid=d76832c4-3604-4de9-b7a5-182f7c6e995c","ios":"levelo://app?vid=d76832c4-3604-4de9-b7a5-182f7c6e995c"},"vehicle_type_id":"4","last_reported":1743779412,"current_range_meters":8000,"station_id":"ce4bgt92rcd13ifvqcf0","pricing_plan_id":"cebpf4jnsgd1na2vs0mg"},{"bike_id":"f0931953-024f-4972-83c3-3a6a64b3d7df","system_id":"levelo_inurba_marseille","lat":43.28145,"lon":5.42644,"is_reserved":false,"is_disabled":false,"rental_uris":{"android":"levelo://app?vid=f0931953-024f-4972-83c3-3a6a64b3d7df","ios":"levelo://app?vid=f0931953-024f-4972-83c3-3a6a64b3d7df"},"vehicle_type_id":"4","last_reported":1743779412,"current_range_meters":8000,"station_id":"ce4bhnh2rcd13ifvqgug","pricing_plan_id":"cebpf4jnsgd1na2vs0mg"},{"bike_id":"0f65b9ed-1ca7-4446-b5fb-0fd74b2f90bd","system_id":"levelo_inurba_marseille","lat":43.29234,"lon":5.36393,"is_reserved":false,"is_disabled":false,"rental_uris":{"android":"levelo://app?vid=0f65b9ed-1ca7-4446-b5fb-0fd74b2f90bd","ios":"levelo://app?vid=0f65b9ed-1ca7-4446-b5fb-0fd74b2f90bd"},"vehicle_type_id":"4","last_reported":1743779412,"current_range_meters":8000,"station_id":"ce4bgkh2rcd13ifvqbk0","pricing_plan_id":"cebpf4jnsgd1na2vs0mg"},{"bike_id":"5fccc5c0-9cba-45a6-9c9a-bf6b4a505119","system_id":"levelo_inurba_marseille","lat":43.2781,"lon":5.40719,"is_reserved":false,"is_disabled":false,"rental_uris":{"android":"levelo://app?vid=5fccc5c0-9cba-45a6-9c9a-bf6b4a505119","ios":"levelo://app?vid=5fccc5c0-9cba-45a6-9c9a-bf6b4a505119"},"vehicle_type_id":"4","last_reported":1743779412,"current_range_meters":8000,"station_id":"ce4bhnh2rcd13ifvqgtg","pricing_plan_id":"cebpf4jnsgd1na2vs0mg"},{"bike_id":"6e7e8bd0-971a-4bf5-a521-0d1053f36753","system_id":"levelo_inurba_marseille","lat":43.310807,"lon":5.424441,"is_reserved":false,"is_disabled":true,"rental_uris":{"android":"levelo://app?vid=6e7e8bd0-971a-4bf5-a521-0d1053f36753","ios":"levelo://app?vid=6e7e8bd0-971a-4bf5-a521-0d1053f36753"},"vehicle_type_id":"4","last_reported":1743779412,"current_range_meters":8000,"station_id":"ce4bhp92rcd13ifvqhag","pricing_plan_id":"cebpf4jnsgd1na2vs0mg"},{"bike_id":"6d5c861e-7aef-4854-b12e-2bd22ae9c3c6","system_id":"levelo_inurba_marseille","lat":43.25118,"lon":5.40309,"is_reserved":false,"is_disabled":false,"rental_uris":{"android":"levelo://app?vid=6d5c861e-7aef-4854-b12e-2bd22ae9c3c6","ios":"levelo://app?vid=6d5c861e-7aef-4854-b12e-2bd22ae9c3c6"},"vehicle_type_id":"4","last_reported":1743779412,"current_range_meters":8400,"station_id":"ce4bhlh2rcd13ifvqgig","pricing_plan_id":"cebpf4jnsgd1na2vs0mg"},{"bike_id":"28ec452f-997e-4351-9306-4b0af5f82130","system_id":"levelo_inurba_marseille","lat":43.303253,"lon":5.403578,"is_reserved":false,"is_disabled":false,"rental_uris":{"android":"levelo://app?vid=28ec452f-997e-4351-9306-4b0af5f82130","ios":"levelo://app?vid=28ec452f-997e-4351-9306-4b0af5f82130"},"vehicle_type_id":"4","last_reported":1743779412,"current_range_meters":8400,"station_id":"ce4bh412rcd13ifvqdr0","pricing_plan_id":"cebpf4jnsgd1na2vs0mg"},{"bike_id":"296d0720-68a5-4ab0-8e3d-da5e8640ddb5","system_id":"levelo_inurba_marseille","lat":43.27923,"lon":5.3959,"is_reserved":false,"is_disabled":false,"rental_uris":{"android":"levelo://app?vid=296d0720-68a5-4ab0-8e3d-da5e8640ddb5","ios":"levelo://app?vid=296d0720-68a5-4ab0-8e3d-da5e8640ddb5"},"vehicle_type_id":"4","last_reported":1743779412,"current_range_meters":8400,"station_id":"ce4bhf92rcd13ifvqf40","pricing_plan_id":"cebpf4jnsgd1na2vs0mg"},{"bike_id":"368f4bb2-2b21-46e3-a3b6-1375c727d4a2","system_id":"levelo_inurba_marseille","lat":43.25721,"lon":5.41119,"is_reserved":false,"is_disabled":false,"rental_uris":{"android":"levelo://app?vid=368f4bb2-2b21-46e3-a3b6-1375c727d4a2","ios":"levelo://app?vid=368f4bb2-2b21-46e3-a3b6-1375c727d4a2"},"vehicle_type_id":"4","last_reported":1743779412,"current_range_meters":8400,"station_id":"ce4bhkp2rcd13ifvqgd0","pricing_plan_id":"cebpf4jnsgd1na2vs0mg"},{"bike_id":"1049ba71-fb41-4dc5-8c5a-67fbc6fe8421","system_id":"levelo_inurba_marseille","lat":43.2549,"lon":5.37651,"is_reserved":false,"is_disabled":true,"rental_uris":{"android":"levelo://app?vid=1049ba71-fb41-4dc5-8c5a-67fbc6fe8421","ios":"levelo://app?vid=1049ba71-fb41-4dc5-8c5a-67fbc6fe8421"},"vehicle_type_id":"4","last_reported":1743779412,"current_range_meters":8400,"station_id":"ce4bhh12rcd13ifvqff0","pricing_plan_id":"cebpf4jnsgd1na2vs0mg"},{"bike_id":"0ae0a685-f0f0-482e-906c-89c40539590a","system_id":"levelo_inurba_marseille","lat":43.255,"lon":5.37652,"is_reserved":false,"is_disabled":false,"rental_uris":{"android":"levelo://app?vid=0ae0a685-f0f0-482e-906c-89c40539590a","ios":"levelo://app?vid=0ae0a685-f0f0-482e-906c-89c40539590a"},"vehicle_type_id":"4","last_reported":1743779412,"current_range_meters":8400,"station_id":"ce4bhh12rcd13ifvqff0","pricing_plan_id":"cebpf4jnsgd1na2vs0mg"},{"bike_id":"77e1cca1-9afa-4062-8d36-bac30c3b0ae7","system_id":"levelo_inurba_marseille","lat":43.32359,"lon":5.36746,"is_reserved":false,"is_disabled":false,"rental_uris":{"android":"levelo://app?vid=77e1cca1-9afa-4062-8d36-bac30c3b0ae7","ios":"levelo://app?vid=77e1cca1-9afa-4062-8d36-bac30c3b0ae7"},"vehicle_type_id":"4","last_reported":1743779412,"current_range_meters":8400,"station_id":"ce4bhsh2rcd13ifvqi2g","pricing_plan_id":"cebpf4jnsgd1na2vs0mg"},{"bike_id":"98c7e9f6-2956-433d-832f-12a791eeb78d","system_id":"levelo_inurba_marseille","lat":43.2815,"lon":5.42648,"is_reserved":false,"is_disabled":false,"rental_uris":{"android":"levelo://app?vid=98c7e9f6-2956-433d-832f-12a791eeb78d","ios":"levelo://app?vid=98c7e9f6-2956-433d-832f-12a791eeb78d"},"vehicle_type_id":"4","last_reported":1743779412,"current_range_meters":8400,"station_id":"ce4bhnh2rcd13ifvqgug","pricing_plan_id":"cebpf4jnsgd1na2vs0mg"},{"bike_id":"672c52c6-0776-4fa6-9d73-d5b610a76859","system_id":"levelo_inurba_marseille","lat":43.29871,"lon":5.39726,"is_reserved":false,"is_disabled":false,"rental_uris":{"android":"levelo://app?vid=672c52c6-0776-4fa6-9d73-d5b610a76859","ios":"levelo://app?vid=672c52c6-0776-4fa6-9d73-d5b610a76859"},"vehicle_type_id":"4","last_reported":1743779412,"current_range_meters":8400,"station_id":"ce4bh0h2rcd13ifvqd50","pricing_plan_id":"cebpf4jnsgd1na2vs0mg"},{"bike_id":"403db813-71e6-4f55-a939-6f6e156fcb39","system_id":"levelo_inurba_marseille","lat":43.30543,"lon":5.36526,"is_reserved":false,"is_disabled":false,"rental_uris":{"android":"levelo://app?vid=403db813-71e6-4f55-a939-6f6e156fcb39","ios":"levelo://app?vid=403db813-71e6-4f55-a939-6f6e156fcb39"},"vehicle_type_id":"4","last_reported":1743779412,"current_range_meters":8000,"station_id":"ce4bgs12rcd13ifvqcag","pricing_plan_id":"cebpf4jnsgd1na2vs0mg"},{"bike_id":"5f46717b-05d1-4f34-a220-8087932d755b","system_id":"levelo_inurba_marseille","lat":43.30126,"lon":5.3695,"is_reserved":false,"is_disabled":false,"rental_uris":{"android":"levelo://app?vid=5f46717b-05d1-4f34-a220-8087932d755b","ios":"levelo://app?vid=5f46717b-05d1-4f34-a220-8087932d755b"},"vehicle_type_id":"4","last_reported":1743779412,"current_range_meters":8400,"station_id":"","pricing_plan_id":"cebpf4jnsgd1na2vs0mg"},{"bike_id":"13784ac0-f596-4cd4-8a02-8b1b3835b4dd","system_id":"levelo_inurba_marseille","lat":43.26558,"lon":5.3728,"is_reserved":false,"is_disabled":false,"rental_uris":{"android":"levelo://app?vid=13784ac0-f596-4cd4-8a02-8b1b3835b4dd","ios":"levelo://app?vid=13784ac0-f596-4cd4-8a02-8b1b3835b4dd"},"vehicle_type_id":"4","last_reported":1743779412,"current_range_meters":8400,"station_id":"ce4bhg12rcd13ifvqf70","pricing_plan_id":"cebpf4jnsgd1na2vs0mg"},{"bike_id":"589b56d4-d848-4676-bf69-5d45d9251bf2","system_id":"levelo_inurba_marseille","lat":43.29011,"lon":5.35617,"is_reserved":false,"is_disabled":false,"rental_uris":{"android":"levelo://app?vid=589b56d4-d848-4676-bf69-5d45d9251bf2","ios":"levelo://app?vid=589b56d4-d848-4676-bf69-5d45d9251bf2"},"vehicle_type_id":"4","last_reported":1743779412,"current_range_meters":7200,"station_id":"ce4bhb92rcd13ifvqen0","pricing_plan_id":"cebpf4jnsgd1na2vs0mg"},{"bike_id":"be3d2850-b103-4897-94da-0b04a44fd87a","system_id":"levelo_inurba_marseille","lat":43.29568,"lon":5.37516,"is_reserved":false,"is_disabled":false,"rental_uris":{"android":"levelo://app?vid=be3d2850-b103-4897-94da-0b04a44fd87a","ios":"levelo://app?vid=be3d2850-b103-4897-94da-0b04a44fd87a"},"vehicle_type_id":"4","last_reported":1743779412,"current_range_meters":8800,"station_id":"ce4bgh92rcd13ifvqb50","pricing_plan_id":"cebpf4jnsgd1na2vs0mg"},{"bike_id":"a9334187-eb26-4df9-b4f7-ebf93fad64a4","system_id":"levelo_inurba_marseille","lat":43.28698,"lon":5.3999,"is_reserved":false,"is_disabled":false,"rental_uris":{"android":"levelo://app?vid=a9334187-eb26-4df9-b4f7-ebf93fad64a4","ios":"levelo://app?vid=a9334187-eb26-4df9-b4f7-ebf93fad64a4"},"vehicle_type_id":"4","last_reported":1743779412,"current_range_meters":9600,"station_id":"ce4bho92rcd13ifvqh3g","pricing_plan_id":"cebpf4jnsgd1na2vs0mg"},{"bike_id":"a9cb4afa-01c7-429c-a141-3089fb312298","system_id":"levelo_inurba_marseille","lat":43.30562,"lon":5.36544,"is_reserved":false,"is_disabled":false,"rental_uris":{"android":"levelo://app?vid=a9cb4afa-01c7-429c-a141-3089fb312298","ios":"levelo://app?vid=a9cb4afa-01c7-429c-a141-3089fb312298"},"vehicle_type_id":"4","last_reported":1743779412,"current_range_meters":8800,"station_id":"ce4bgs12rcd13ifvqcag","pricing_plan_id":"cebpf4jnsgd1na2vs0mg"},{"bike_id":"f055a8b9-4f10-40e2-a5a3-558ef1685846","system_id":"levelo_inurba_marseille","lat":43.23194,"lon":5.35561,"is_reserved":false,"is_disabled":false,"rental_uris":{"android":"levelo://app?vid=f055a8b9-4f10-40e2-a5a3-558ef1685846","ios":"levelo://app?vid=f055a8b9-4f10-40e2-a5a3-558ef1685846"},"vehicle_type_id":"4","last_reported":1743779412,"current_range_meters":8800,"station_id":"ce4bhu92rcd13ifvqi70","pricing_plan_id":"cebpf4jnsgd1na2vs0mg"},{"bike_id":"69c0db05-6ded-4dc6-9720-2452c83c1020","system_id":"levelo_inurba_marseille","lat":43.22957,"lon":5.35402,"is_reserved":false,"is_disabled":false,"rental_uris":{"android":"levelo://app?vid=69c0db05-6ded-4dc6-9720-2452c83c1020","ios":"levelo://app?vid=69c0db05-6ded-4dc6-9720-2452c83c1020"},"vehicle_type_id":"4","last_reported":1743779412,"current_range_meters":8800,"station_id":"cpo3532slgdg3j2ikp40","pricing_plan_id":"cebpf4jnsgd1na2vs0mg"},{"bike_id":"cb539a88-991f-4df0-9ac0-2ffc27cdd626","system_id":"levelo_inurba_marseille","lat":43.28933,"lon":5.36393,"is_reserved":false,"is_disabled":false,"rental_uris":{"android":"levelo://app?vid=cb539a88-991f-4df0-9ac0-2ffc27cdd626","ios":"levelo://app?vid=cb539a88-991f-4df0-9ac0-2ffc27cdd626"},"vehicle_type_id":"4","last_reported":1743779412,"current_range_meters":13600,"station_id":"ce4bhc92rcd13ifvqetg","pricing_plan_id":"cebpf4jnsgd1na2vs0mg"},{"bike_id":"e59db74f-8a79-4513-97ed-c8573b18b55d","system_id":"levelo_inurba_marseille","lat":43.29709,"lon":5.36613,"is_reserved":false,"is_disabled":false,"rental_uris":{"android":"levelo://app?vid=e59db74f-8a79-4513-97ed-c8573b18b55d","ios":"levelo://app?vid=e59db74f-8a79-4513-97ed-c8573b18b55d"},"vehicle_type_id":"4","last_reported":1743779412,"current_range_meters":8800,"station_id":"ce4bgn12rcd13ifvqbt0","pricing_plan_id":"cebpf4jnsgd1na2vs0mg"},{"bike_id":"ab720284-dadb-46d4-8918-ea0066420970","system_id":"levelo_inurba_marseille","lat":43.30533,"lon":5.3671,"is_reserved":false,"is_disabled":false,"rental_uris":{"android":"levelo://app?vid=ab720284-dadb-46d4-8918-ea0066420970","ios":"levelo://app?vid=ab720284-dadb-46d4-8918-ea0066420970"},"vehicle_type_id":"4","last_reported":1743779412,"current_range_meters":8400,"station_id":"ce4bgrp2rcd13ifvqc9g","pricing_plan_id":"cebpf4jnsgd1na2vs0mg"},{"bike_id":"ddf6e8ae-c312-4ce8-a7e9-42396ca3ff1e","system_id":"levelo_inurba_marseille","lat":43.24676,"lon":5.38151,"is_reserved":false,"is_disabled":false,"rental_uris":{"android":"levelo://app?vid=ddf6e8ae-c312-4ce8-a7e9-42396ca3ff1e","ios":"levelo://app?vid=ddf6e8ae-c312-4ce8-a7e9-42396ca3ff1e"},"vehicle_type_id":"4","last_reported":1743779412,"current_range_meters":9200,"station_id":"ce4bhih2rcd13ifvqfr0","pricing_plan_id":"cebpf4jnsgd1na2vs0mg"},{"bike_id":"36d996d1-147d-4367-84e7-9ff54765b37a","system_id":"levelo_inurba_marseille","lat":43.23189,"lon":5.3557,"is_reserved":false,"is_disabled":false,"rental_uris":{"android":"levelo://app?vid=36d996d1-147d-4367-84e7-9ff54765b37a","ios":"levelo://app?vid=36d996d1-147d-4367-84e7-9ff54765b37a"},"vehicle_type_id":"4","last_reported":1743779412,"current_range_meters":9200,"station_id":"ce4bhu92rcd13ifvqi70","pricing_plan_id":"cebpf4jnsgd1na2vs0mg"},{"bike_id":"7b13b447-7af3-45f1-a1ba-632f9ce5ec88","system_id":"levelo_inurba_marseille","lat":43.32075,"lon":5.41528,"is_reserved":false,"is_disabled":false,"rental_uris":{"android":"levelo://app?vid=7b13b447-7af3-45f1-a1ba-632f9ce5ec88","ios":"levelo://app?vid=7b13b447-7af3-45f1-a1ba-632f9ce5ec88"},"vehicle_type_id":"4","last_reported":1743779412,"current_range_meters":8800,"station_id":"ce4bhq92rcd13ifvqhkg","pricing_plan_id":"cebpf4jnsgd1na2vs0mg"},{"bike_id":"6a18f0d8-4b76-440f-b325-6f83caf65a48","system_id":"levelo_inurba_marseille","lat":43.296898,"lon":5.367689,"is_reserved":false,"is_disabled":false,"rental_uris":{"android":"levelo://app?vid=6a18f0d8-4b76-440f-b325-6f83caf65a48","ios":"levelo://app?vid=6a18f0d8-4b76-440f-b325-6f83caf65a48"},"vehicle_type_id":"4","last_reported":1743779412,"current_range_meters":8800,"station_id":"ce4bgi12rcd13ifvqb70","pricing_plan_id":"cebpf4jnsgd1na2vs0mg"},{"bike_id":"1cc68e96-d798-41a2-8273-1b99147d9095","system_id":"levelo_inurba_marseille","lat":43.31131,"lon":5.37773,"is_reserved":false,"is_disabled":false,"rental_uris":{"android":"levelo://app?vid=1cc68e96-d798-41a2-8273-1b99147d9095","ios":"levelo://app?vid=1cc68e96-d798-41a2-8273-1b99147d9095"},"vehicle_type_id":"4","last_reported":1743779412,"current_range_meters":9200,"station_id":"ce4bgt92rcd13ifvqcg0","pricing_plan_id":"cebpf4jnsgd1na2vs0mg"},{"bike_id":"ed48876c-8936-4468-909b-9c13c90fdd4f","system_id":"levelo_inurba_marseille","lat":43.299058,"lon":5.371906,"is_reserved":false,"is_disabled":false,"rental_uris":{"android":"levelo://app?vid=ed48876c-8936-4468-909b-9c13c90fdd4f","ios":"levelo://app?vid=ed48876c-8936-4468-909b-9c13c90fdd4f"},"vehicle_type_id":"4","last_reported":1743779412,"current_range_meters":9200,"station_id":"ce4bgr92rcd13ifvqc7g","pricing_plan_id":"cebpf4jnsgd1na2vs0mg"},{"bike_id":"12b3ada6-1ffe-48f7-8bfd-a7d49fbce8de","system_id":"levelo_inurba_marseille","lat":43.299897,"lon":5.371913,"is_reserved":false,"is_disabled":false,"rental_uris":{"android":"levelo://app?vid=12b3ada6-1ffe-48f7-8bfd-a7d49fbce8de","ios":"levelo://app?vid=12b3ada6-1ffe-48f7-8bfd-a7d49fbce8de"},"vehicle_type_id":"4","last_reported":1743779412,"current_range_meters":9600,"station_id":"ce4bgr92rcd13ifvqc7g","pricing_plan_id":"cebpf4jnsgd1na2vs0mg"},{"bike_id":"c0ce41d4-dfc2-4187-8bdb-d04103ac0dd2","system_id":"levelo_inurba_marseille","lat":43.3074,"lon":5.42439,"is_reserved":false,"is_disabled":false,"rental_uris":{"android":"levelo://app?vid=c0ce41d4-dfc2-4187-8bdb-d04103ac0dd2","ios":"levelo://app?vid=c0ce41d4-dfc2-4187-8bdb-d04103ac0dd2"},"vehicle_type_id":"4","last_reported":1743779412,"current_range_meters":9600,"station_id":"st_cvj6ca6bvosntc0bfgr0","pricing_plan_id":"cebpf4jnsgd1na2vs0mg"},{"bike_id":"66320bc1-008b-48fe-b35a-1ba41c7b488a","system_id":"levelo_inurba_marseille","lat":43.30534,"lon":5.36535,"is_reserved":false,"is_disabled":false,"rental_uris":{"android":"levelo://app?vid=66320bc1-008b-48fe-b35a-1ba41c7b488a","ios":"levelo://app?vid=66320bc1-008b-48fe-b35a-1ba41c7b488a"},"vehicle_type_id":"4","last_reported":1743779412,"current_range_meters":9600,"station_id":"ce4bgs12rcd13ifvqcag","pricing_plan_id":"cebpf4jnsgd1na2vs0mg"},{"bike_id":"aa55e310-da13-4eff-856b-8b75ec07b854","system_id":"levelo_inurba_marseille","lat":43.25905,"lon":5.40952,"is_reserved":false,"is_disabled":false,"rental_uris":{"android":"levelo://app?vid=aa55e310-da13-4eff-856b-8b75ec07b854","ios":"levelo://app?vid=aa55e310-da13-4eff-856b-8b75ec07b854"},"vehicle_type_id":"4","last_reported":1743779412,"current_range_meters":9600,"station_id":"ce4bhm92rcd13ifvqglg","pricing_plan_id":"cebpf4jnsgd1na2vs0mg"},{"bike_id":"fd64cfe3-a486-4cc9-b7c3-892284e8ae3d","system_id":"levelo_inurba_marseille","lat":43.29789,"lon":5.39337,"is_reserved":false,"is_disabled":false,"rental_uris":{"android":"levelo://app?vid=fd64cfe3-a486-4cc9-b7c3-892284e8ae3d","ios":"levelo://app?vid=fd64cfe3-a486-4cc9-b7c3-892284e8ae3d"},"vehicle_type_id":"4","last_reported":1743779412,"current_range_meters":9600,"station_id":"chh1huq6cuj3fo74tm60","pricing_plan_id":"cebpf4jnsgd1na2vs0mg"},{"bike_id":"758c2355-846a-4f3d-bcd8-eac4b3145cd6","system_id":"levelo_inurba_marseille","lat":43.231942,"lon":5.355537,"is_reserved":false,"is_disabled":false,"rental_uris":{"android":"levelo://app?vid=758c2355-846a-4f3d-bcd8-eac4b3145cd6","ios":"levelo://app?vid=758c2355-846a-4f3d-bcd8-eac4b3145cd6"},"vehicle_type_id":"4","last_reported":1743779412,"current_range_meters":9600,"station_id":"ce4bhu92rcd13ifvqi70","pricing_plan_id":"cebpf4jnsgd1na2vs0mg"},{"bike_id":"ed034283-1492-4da7-9409-35bdead80f30","system_id":"levelo_inurba_marseille","lat":43.30157,"lon":5.38761,"is_reserved":false,"is_disabled":true,"rental_uris":{"android":"levelo://app?vid=ed034283-1492-4da7-9409-35bdead80f30","ios":"levelo://app?vid=ed034283-1492-4da7-9409-35bdead80f30"},"vehicle_type_id":"4","last_reported":1743779412,"current_range_meters":9600,"station_id":"ce4bghh2rcd13ifvqb60","pricing_plan_id":"cebpf4jnsgd1na2vs0mg"},{"bike_id":"50297066-959d-45c5-a71e-b062cc3724ec","system_id":"levelo_inurba_marseille","lat":43.30796,"lon":5.3734,"is_reserved":false,"is_disabled":false,"rental_uris":{"android":"levelo://app?vid=50297066-959d-45c5-a71e-b062cc3724ec","ios":"levelo://app?vid=50297066-959d-45c5-a71e-b062cc3724ec"},"vehicle_type_id":"4","last_reported":1743779412,"current_range_meters":9600,"station_id":"","pricing_plan_id":"cebpf4jnsgd1na2vs0mg"},{"bike_id":"a0f43ecc-50c1-4140-ab1e-82a45bd236c6","system_id":"levelo_inurba_marseille","lat":43.27179,"lon":5.40986,"is_reserved":false,"is_disabled":false,"rental_uris":{"android":"levelo://app?vid=a0f43ecc-50c1-4140-ab1e-82a45bd236c6","ios":"levelo://app?vid=a0f43ecc-50c1-4140-ab1e-82a45bd236c6"},"vehicle_type_id":"4","last_reported":1743779412,"current_range_meters":9200,"station_id":"ce4bhl12rcd13ifvqgf0","pricing_plan_id":"cebpf4jnsgd1na2vs0mg"},{"bike_id":"f1e5f20d-e5bb-4349-9a72-f7ab8a004414","system_id":"levelo_inurba_marseille","lat":43.30326,"lon":5.40447,"is_reserved":false,"is_disabled":true,"rental_uris":{"android":"levelo://app?vid=f1e5f20d-e5bb-4349-9a72-f7ab8a004414","ios":"levelo://app?vid=f1e5f20d-e5bb-4349-9a72-f7ab8a004414"},"vehicle_type_id":"4","last_reported":1743779412,"current_range_meters":9600,"station_id":"ce4bh012rcd13ifvqd10","pricing_plan_id":"cebpf4jnsgd1na2vs0mg"},{"bike_id":"74a13a18-430a-4f50-ba26-e7dfbad23482","system_id":"levelo_inurba_marseille","lat":43.23062,"lon":5.35495,"is_reserved":false,"is_disabled":false,"rental_uris":{"android":"levelo://app?vid=74a13a18-430a-4f50-ba26-e7dfbad23482","ios":"levelo://app?vid=74a13a18-430a-4f50-ba26-e7dfbad23482"},"vehicle_type_id":"4","last_reported":1743779412,"current_range_meters":9600,"station_id":"cpo3342slgdg3j2ifvpg","pricing_plan_id":"cebpf4jnsgd1na2vs0mg"},{"bike_id":"386f038a-a86c-4c6a-bf90-638d2a627842","system_id":"levelo_inurba_marseille","lat":43.32489,"lon":5.36556,"is_reserved":false,"is_disabled":false,"rental_uris":{"android":"levelo://app?vid=386f038a-a86c-4c6a-bf90-638d2a627842","ios":"levelo://app?vid=386f038a-a86c-4c6a-bf90-638d2a627842"},"vehicle_type_id":"4","last_reported":1743779412,"current_range_meters":10000,"station_id":"ce4bhs12rcd13ifvqhvg","pricing_plan_id":"cebpf4jnsgd1na2vs0mg"},{"bike_id":"bc9151ba-104c-407b-bea7-88cfc8535563","system_id":"levelo_inurba_marseille","lat":43.29519,"lon":5.38541,"is_reserved":false,"is_disabled":false,"rental_uris":{"android":"levelo://app?vid=bc9151ba-104c-407b-bea7-88cfc8535563","ios":"levelo://app?vid=bc9151ba-104c-407b-bea7-88cfc8535563"},"vehicle_type_id":"4","last_reported":1743779412,"current_range_meters":10000,"station_id":"ce4bgih2rcd13ifvqba0","pricing_plan_id":"cebpf4jnsgd1na2vs0mg"},{"bike_id":"37893be2-4b54-4228-9313-2a1b74374ee5","system_id":"levelo_inurba_marseille","lat":43.25119,"lon":5.40317,"is_reserved":false,"is_disabled":false,"rental_uris":{"android":"levelo://app?vid=37893be2-4b54-4228-9313-2a1b74374ee5","ios":"levelo://app?vid=37893be2-4b54-4228-9313-2a1b74374ee5"},"vehicle_type_id":"4","last_reported":1743779412,"current_range_meters":10000,"station_id":"ce4bhlh2rcd13ifvqgig","pricing_plan_id":"cebpf4jnsgd1na2vs0mg"},{"bike_id":"e9f62ec0-bc33-43f2-84e8-078e7261db2e","system_id":"levelo_inurba_marseille","lat":43.24166,"lon":5.3639,"is_reserved":false,"is_disabled":false,"rental_uris":{"android":"levelo://app?vid=e9f62ec0-bc33-43f2-84e8-078e7261db2e","ios":"levelo://app?vid=e9f62ec0-bc33-43f2-84e8-078e7261db2e"},"vehicle_type_id":"4","last_reported":1743779412,"current_range_meters":10000,"station_id":"cpo36qri1sfpv3e86is0","pricing_plan_id":"cebpf4jnsgd1na2vs0mg"},{"bike_id":"45ccc6dc-d91f-430a-b1d1-d0a74d81e162","system_id":"levelo_inurba_marseille","lat":43.27059,"lon":5.40261,"is_reserved":false,"is_disabled":false,"rental_uris":{"android":"levelo://app?vid=45ccc6dc-d91f-430a-b1d1-d0a74d81e162","ios":"levelo://app?vid=45ccc6dc-d91f-430a-b1d1-d0a74d81e162"},"vehicle_type_id":"4","last_reported":1743779412,"current_range_meters":10000,"station_id":"ce4bhk92rcd13ifvqgc0","pricing_plan_id":"cebpf4jnsgd1na2vs0mg"},{"bike_id":"f5998d47-b69f-4b68-b5ea-8a500c49d80e","system_id":"levelo_inurba_marseille","lat":43.23195,"lon":5.35546,"is_reserved":false,"is_disabled":false,"rental_uris":{"android":"levelo://app?vid=f5998d47-b69f-4b68-b5ea-8a500c49d80e","ios":"levelo://app?vid=f5998d47-b69f-4b68-b5ea-8a500c49d80e"},"vehicle_type_id":"4","last_reported":1743779412,"current_range_meters":10000,"station_id":"ce4bhu92rcd13ifvqi70","pricing_plan_id":"cebpf4jnsgd1na2vs0mg"},{"bike_id":"fb348b09-6abb-47a4-a266-91f2eeaee291","system_id":"levelo_inurba_marseille","lat":43.321058,"lon":5.367748,"is_reserved":false,"is_disabled":false,"rental_uris":{"android":"levelo://app?vid=fb348b09-6abb-47a4-a266-91f2eeaee291","ios":"levelo://app?vid=fb348b09-6abb-47a4-a266-91f2eeaee291"},"vehicle_type_id":"4","last_reported":1743779412,"current_range_meters":10800,"station_id":"ce4bhrh2rcd13ifvqhug","pricing_plan_id":"cebpf4jnsgd1na2vs0mg"},{"bike_id":"81f0833d-d11f-4e0a-96c4-93ee466bb50f","system_id":"levelo_inurba_marseille","lat":43.29533,"lon":5.38536,"is_reserved":false,"is_disabled":false,"rental_uris":{"android":"levelo://app?vid=81f0833d-d11f-4e0a-96c4-93ee466bb50f","ios":"levelo://app?vid=81f0833d-d11f-4e0a-96c4-93ee466bb50f"},"vehicle_type_id":"4","last_reported":1743779412,"current_range_meters":10800,"station_id":"ce4bgih2rcd13ifvqba0","pricing_plan_id":"cebpf4jnsgd1na2vs0mg"},{"bike_id":"18f539c3-c3d0-4d49-9bbc-446f314bc176","system_id":"levelo_inurba_marseille","lat":43.29904,"lon":5.38135,"is_reserved":false,"is_disabled":false,"rental_uris":{"android":"levelo://app?vid=18f539c3-c3d0-4d49-9bbc-446f314bc176","ios":"levelo://app?vid=18f539c3-c3d0-4d49-9bbc-446f314bc176"},"vehicle_type_id":"4","last_reported":1743779412,"current_range_meters":10800,"station_id":"ce4bgj12rcd13ifvqbc0","pricing_plan_id":"cebpf4jnsgd1na2vs0mg"},{"bike_id":"5ffbc8f2-3573-4204-aaba-ba242b8b1586","system_id":"levelo_inurba_marseille","lat":43.289315,"lon":5.36627,"is_reserved":false,"is_disabled":false,"rental_uris":{"android":"levelo://app?vid=5ffbc8f2-3573-4204-aaba-ba242b8b1586","ios":"levelo://app?vid=5ffbc8f2-3573-4204-aaba-ba242b8b1586"},"vehicle_type_id":"4","last_reported":1743779412,"current_range_meters":10800,"station_id":"ce4bhap2rcd13ifvqek0","pricing_plan_id":"cebpf4jnsgd1na2vs0mg"},{"bike_id":"55ebdf25-0357-4ec1-a3b5-737d5b6b88c2","system_id":"levelo_inurba_marseille","lat":43.30547,"lon":5.36518,"is_reserved":false,"is_disabled":false,"rental_uris":{"android":"levelo://app?vid=55ebdf25-0357-4ec1-a3b5-737d5b6b88c2","ios":"levelo://app?vid=55ebdf25-0357-4ec1-a3b5-737d5b6b88c2"},"vehicle_type_id":"4","last_reported":1743779412,"current_range_meters":10800,"station_id":"ce4bgs12rcd13ifvqcag","pricing_plan_id":"cebpf4jnsgd1na2vs0mg"},{"bike_id":"d03e965e-1dfb-4891-92fc-37be59828007","system_id":"levelo_inurba_marseille","lat":43.28432,"lon":5.3499,"is_reserved":false,"is_disabled":false,"rental_uris":{"android":"levelo://app?vid=d03e965e-1dfb-4891-92fc-37be59828007","ios":"levelo://app?vid=d03e965e-1dfb-4891-92fc-37be59828007"},"vehicle_type_id":"4","last_reported":1743779412,"current_range_meters":10800,"station_id":"ce4bhbh2rcd13ifvqepg","pricing_plan_id":"cebpf4jnsgd1na2vs0mg"},{"bike_id":"1b07f5d0-df62-4495-a42c-4a12cca8ef22","system_id":"levelo_inurba_marseille","lat":43.30254,"lon":5.40083,"is_reserved":false,"is_disabled":true,"rental_uris":{"android":"levelo://app?vid=1b07f5d0-df62-4495-a42c-4a12cca8ef22","ios":"levelo://app?vid=1b07f5d0-df62-4495-a42c-4a12cca8ef22"},"vehicle_type_id":"4","last_reported":1743779412,"current_range_meters":11200,"station_id":"ce4bgvh2rcd13ifvqcs0","pricing_plan_id":"cebpf4jnsgd1na2vs0mg"},{"bike_id":"ee26fd32-dcfc-4a3e-abbd-6c2b704ce965","system_id":"levelo_inurba_marseille","lat":43.29737,"lon":5.37678,"is_reserved":false,"is_disabled":false,"rental_uris":{"android":"levelo://app?vid=ee26fd32-dcfc-4a3e-abbd-6c2b704ce965","ios":"levelo://app?vid=ee26fd32-dcfc-4a3e-abbd-6c2b704ce965"},"vehicle_type_id":"4","last_reported":1743779412,"current_range_meters":11200,"station_id":"ce4bgkh2rcd13ifvqbl0","pricing_plan_id":"cebpf4jnsgd1na2vs0mg"},{"bike_id":"61aee1f2-2d42-4147-b1ed-a536d964fb86","system_id":"levelo_inurba_marseille","lat":43.25579,"lon":5.38257,"is_reserved":false,"is_disabled":false,"rental_uris":{"android":"levelo://app?vid=61aee1f2-2d42-4147-b1ed-a536d964fb86","ios":"levelo://app?vid=61aee1f2-2d42-4147-b1ed-a536d964fb86"},"vehicle_type_id":"4","last_reported":1743779412,"current_range_meters":11200,"station_id":"ce4bhih2rcd13ifvqfs0","pricing_plan_id":"cebpf4jnsgd1na2vs0mg"},{"bike_id":"dd14ea99-9069-4319-a778-2f979a5a645d","system_id":"levelo_inurba_marseille","lat":43.30251,"lon":5.40061,"is_reserved":false,"is_disabled":false,"rental_uris":{"android":"levelo://app?vid=dd14ea99-9069-4319-a778-2f979a5a645d","ios":"levelo://app?vid=dd14ea99-9069-4319-a778-2f979a5a645d"},"vehicle_type_id":"4","last_reported":1743779412,"current_range_meters":11200,"station_id":"ce4bgvh2rcd13ifvqcs0","pricing_plan_id":"cebpf4jnsgd1na2vs0mg"},{"bike_id":"8776eaf5-1460-4d6f-99cc-f2cb69a7168c","system_id":"levelo_inurba_marseille","lat":43.29866,"lon":5.39727,"is_reserved":false,"is_disabled":false,"rental_uris":{"android":"levelo://app?vid=8776eaf5-1460-4d6f-99cc-f2cb69a7168c","ios":"levelo://app?vid=8776eaf5-1460-4d6f-99cc-f2cb69a7168c"},"vehicle_type_id":"4","last_reported":1743779412,"current_range_meters":11600,"station_id":"ce4bh0h2rcd13ifvqd50","pricing_plan_id":"cebpf4jnsgd1na2vs0mg"},{"bike_id":"4aefa3d5-425e-4db4-8a58-e46c148c4fa6","system_id":"levelo_inurba_marseille","lat":43.29259,"lon":5.4089,"is_reserved":false,"is_disabled":false,"rental_uris":{"android":"levelo://app?vid=4aefa3d5-425e-4db4-8a58-e46c148c4fa6","ios":"levelo://app?vid=4aefa3d5-425e-4db4-8a58-e46c148c4fa6"},"vehicle_type_id":"4","last_reported":1743779412,"current_range_meters":11600,"station_id":"ce4bh192rcd13ifvqdc0","pricing_plan_id":"cebpf4jnsgd1na2vs0mg"},{"bike_id":"fa7b3975-f391-4826-a0f5-85da3f2e29df","system_id":"levelo_inurba_marseille","lat":43.28271,"lon":5.35055,"is_reserved":false,"is_disabled":false,"rental_uris":{"android":"levelo://app?vid=fa7b3975-f391-4826-a0f5-85da3f2e29df","ios":"levelo://app?vid=fa7b3975-f391-4826-a0f5-85da3f2e29df"},"vehicle_type_id":"4","last_reported":1743779412,"current_range_meters":13600,"station_id":"ce4bhbp2rcd13ifvqerg","pricing_plan_id":"cebpf4jnsgd1na2vs0mg"},{"bike_id":"df14f6a0-55c8-4151-8ae9-4500501fb082","system_id":"levelo_inurba_marseille","lat":43.241291,"lon":5.363956,"is_reserved":false,"is_disabled":false,"rental_uris":{"android":"levelo://app?vid=df14f6a0-55c8-4151-8ae9-4500501fb082","ios":"levelo://app?vid=df14f6a0-55c8-4151-8ae9-4500501fb082"},"vehicle_type_id":"4","last_reported":1743779412,"current_range_meters":11600,"station_id":"cpo36qri1sfpv3e86is0","pricing_plan_id":"cebpf4jnsgd1na2vs0mg"},{"bike_id":"cda1b47e-9f2f-4399-b00e-59cc8ea6e0de","system_id":"levelo_inurba_marseille","lat":43.28101,"lon":5.37834,"is_reserved":false,"is_disabled":false,"rental_uris":{"android":"levelo://app?vid=cda1b47e-9f2f-4399-b00e-59cc8ea6e0de","ios":"levelo://app?vid=cda1b47e-9f2f-4399-b00e-59cc8ea6e0de"},"vehicle_type_id":"4","last_reported":1743779412,"current_range_meters":14000,"station_id":"ce4bha12rcd13ifvqee0","pricing_plan_id":"cebpf4jnsgd1na2vs0mg"},{"bike_id":"f40fc4e8-cfdd-40aa-8507-3bd8857476a8","system_id":"levelo_inurba_marseille","lat":43.30241,"lon":5.40028,"is_reserved":false,"is_disabled":true,"rental_uris":{"android":"levelo://app?vid=f40fc4e8-cfdd-40aa-8507-3bd8857476a8","ios":"levelo://app?vid=f40fc4e8-cfdd-40aa-8507-3bd8857476a8"},"vehicle_type_id":"4","last_reported":1743779412,"current_range_meters":12000,"station_id":"ce4bgvh2rcd13ifvqcs0","pricing_plan_id":"cebpf4jnsgd1na2vs0mg"},{"bike_id":"c9ab5bfd-fa91-4b45-8fa2-52813c43fa45","system_id":"levelo_inurba_marseille","lat":43.23067,"lon":5.35473,"is_reserved":false,"is_disabled":false,"rental_uris":{"android":"levelo://app?vid=c9ab5bfd-fa91-4b45-8fa2-52813c43fa45","ios":"levelo://app?vid=c9ab5bfd-fa91-4b45-8fa2-52813c43fa45"},"vehicle_type_id":"4","last_reported":1743779412,"current_range_meters":12000,"station_id":"cpo3342slgdg3j2ifvpg","pricing_plan_id":"cebpf4jnsgd1na2vs0mg"},{"bike_id":"829acafc-221e-41d2-b87e-1eaa511b3313","system_id":"levelo_inurba_marseille","lat":43.29042,"lon":5.39986,"is_reserved":false,"is_disabled":true,"rental_uris":{"android":"levelo://app?vid=829acafc-221e-41d2-b87e-1eaa511b3313","ios":"levelo://app?vid=829acafc-221e-41d2-b87e-1eaa511b3313"},"vehicle_type_id":"4","last_reported":1743779412,"current_range_meters":12000,"station_id":"ce4bh392rcd13ifvqdm0","pricing_plan_id":"cebpf4jnsgd1na2vs0mg"},{"bike_id":"538954b0-bc54-45c5-9cef-16a29fd18cc8","system_id":"levelo_inurba_marseille","lat":43.25928,"lon":5.40917,"is_reserved":false,"is_disabled":false,"rental_uris":{"android":"levelo://app?vid=538954b0-bc54-45c5-9cef-16a29fd18cc8","ios":"levelo://app?vid=538954b0-bc54-45c5-9cef-16a29fd18cc8"},"vehicle_type_id":"4","last_reported":1743779412,"current_range_meters":12000,"station_id":"ce4bhm92rcd13ifvqglg","pricing_plan_id":"cebpf4jnsgd1na2vs0mg"},{"bike_id":"ef069ee7-a0cc-47b8-89f0-df82e7dd1c5a","system_id":"levelo_inurba_marseille","lat":43.30803,"lon":5.43529,"is_reserved":false,"is_disabled":false,"rental_uris":{"android":"levelo://app?vid=ef069ee7-a0cc-47b8-89f0-df82e7dd1c5a","ios":"levelo://app?vid=ef069ee7-a0cc-47b8-89f0-df82e7dd1c5a"},"vehicle_type_id":"4","last_reported":1743779412,"current_range_meters":12000,"station_id":"ce4bhph2rcd13ifvqheg","pricing_plan_id":"cebpf4jnsgd1na2vs0mg"},{"bike_id":"25d55576-6348-4b26-babe-62ad02d3e0be","system_id":"levelo_inurba_marseille","lat":43.28081,"lon":5.3964,"is_reserved":false,"is_disabled":false,"rental_uris":{"android":"levelo://app?vid=25d55576-6348-4b26-babe-62ad02d3e0be","ios":"levelo://app?vid=25d55576-6348-4b26-babe-62ad02d3e0be"},"vehicle_type_id":"4","last_reported":1743779412,"current_range_meters":12400,"station_id":"ce4bho12rcd13ifvqh2g","pricing_plan_id":"cebpf4jnsgd1na2vs0mg"},{"bike_id":"ccbaad60-ee1e-4837-a1f8-1af8e79dfa40","system_id":"levelo_inurba_marseille","lat":43.30613,"lon":5.393525,"is_reserved":false,"is_disabled":true,"rental_uris":{"android":"levelo://app?vid=ccbaad60-ee1e-4837-a1f8-1af8e79dfa40","ios":"levelo://app?vid=ccbaad60-ee1e-4837-a1f8-1af8e79dfa40"},"vehicle_type_id":"4","last_reported":1743779412,"current_range_meters":12400,"station_id":"ce4bh0p2rcd13ifvqd80","pricing_plan_id":"cebpf4jnsgd1na2vs0mg"},{"bike_id":"4f52b75d-280c-46b2-856d-c17c1673612e","system_id":"levelo_inurba_marseille","lat":43.28695,"lon":5.37394,"is_reserved":false,"is_disabled":false,"rental_uris":{"android":"levelo://app?vid=4f52b75d-280c-46b2-856d-c17c1673612e","ios":"levelo://app?vid=4f52b75d-280c-46b2-856d-c17c1673612e"},"vehicle_type_id":"4","last_reported":1743779412,"current_range_meters":12400,"station_id":"ce4bh3p2rcd13ifvqdq0","pricing_plan_id":"cebpf4jnsgd1na2vs0mg"},{"bike_id":"706fc506-2aa0-4db5-833c-3cdac573bb9a","system_id":"levelo_inurba_marseille","lat":43.29022,"lon":5.38646,"is_reserved":false,"is_disabled":true,"rental_uris":{"android":"levelo://app?vid=706fc506-2aa0-4db5-833c-3cdac573bb9a","ios":"levelo://app?vid=706fc506-2aa0-4db5-833c-3cdac573bb9a"},"vehicle_type_id":"4","last_reported":1743779412,"current_range_meters":12400,"station_id":"ce4bh4p2rcd13ifvqe0g","pricing_plan_id":"cebpf4jnsgd1na2vs0mg"},{"bike_id":"36ca50b8-55fa-4385-826c-7002bac178d5","system_id":"levelo_inurba_marseille","lat":43.29015,"lon":5.35608,"is_reserved":false,"is_disabled":false,"rental_uris":{"android":"levelo://app?vid=36ca50b8-55fa-4385-826c-7002bac178d5","ios":"levelo://app?vid=36ca50b8-55fa-4385-826c-7002bac178d5"},"vehicle_type_id":"4","last_reported":1743779412,"current_range_meters":12400,"station_id":"ce4bhb92rcd13ifvqen0","pricing_plan_id":"cebpf4jnsgd1na2vs0mg"},{"bike_id":"b65dcbcc-38f4-4a6d-98c0-0c7e9953e5d3","system_id":"levelo_inurba_marseille","lat":43.30148,"lon":5.38068,"is_reserved":false,"is_disabled":false,"rental_uris":{"android":"levelo://app?vid=b65dcbcc-38f4-4a6d-98c0-0c7e9953e5d3","ios":"levelo://app?vid=b65dcbcc-38f4-4a6d-98c0-0c7e9953e5d3"},"vehicle_type_id":"4","last_reported":1743779412,"current_range_meters":12400,"station_id":"ce4bgjp2rcd13ifvqbh0","pricing_plan_id":"cebpf4jnsgd1na2vs0mg"},{"bike_id":"2126c00a-0cdb-4fe6-99ac-4d03ab1edfb8","system_id":"levelo_inurba_marseille","lat":43.29051,"lon":5.35921,"is_reserved":false,"is_disabled":false,"rental_uris":{"android":"levelo://app?vid=2126c00a-0cdb-4fe6-99ac-4d03ab1edfb8","ios":"levelo://app?vid=2126c00a-0cdb-4fe6-99ac-4d03ab1edfb8"},"vehicle_type_id":"4","last_reported":1743779412,"current_range_meters":12800,"station_id":"ce4bha92rcd13ifvqeg0","pricing_plan_id":"cebpf4jnsgd1na2vs0mg"},{"bike_id":"3b4ad8c6-6244-4378-90d7-dac703d1508d","system_id":"levelo_inurba_marseille","lat":43.23187,"lon":5.35562,"is_reserved":false,"is_disabled":false,"rental_uris":{"android":"levelo://app?vid=3b4ad8c6-6244-4378-90d7-dac703d1508d","ios":"levelo://app?vid=3b4ad8c6-6244-4378-90d7-dac703d1508d"},"vehicle_type_id":"4","last_reported":1743779412,"current_range_meters":12800,"station_id":"ce4bhu92rcd13ifvqi70","pricing_plan_id":"cebpf4jnsgd1na2vs0mg"},{"bike_id":"a6303451-5b45-435c-bf0e-748f94cc010d","system_id":"levelo_inurba_marseille","lat":43.23191,"lon":5.35544,"is_reserved":false,"is_disabled":false,"rental_uris":{"android":"levelo://app?vid=a6303451-5b45-435c-bf0e-748f94cc010d","ios":"levelo://app?vid=a6303451-5b45-435c-bf0e-748f94cc010d"},"vehicle_type_id":"4","last_reported":1743779412,"current_range_meters":12800,"station_id":"ce4bhu92rcd13ifvqi70","pricing_plan_id":"cebpf4jnsgd1na2vs0mg"},{"bike_id":"fb0d4993-67fa-4314-9525-ef2ba9197c72","system_id":"levelo_inurba_marseille","lat":43.30262,"lon":5.4063,"is_reserved":false,"is_disabled":false,"rental_uris":{"android":"levelo://app?vid=fb0d4993-67fa-4314-9525-ef2ba9197c72","ios":"levelo://app?vid=fb0d4993-67fa-4314-9525-ef2ba9197c72"},"vehicle_type_id":"4","last_reported":1743779412,"current_range_meters":12800,"station_id":"","pricing_plan_id":"cebpf4jnsgd1na2vs0mg"},{"bike_id":"016f91bd-3775-4bee-b84a-775eefdb62bb","system_id":"levelo_inurba_marseille","lat":43.28259,"lon":5.35062,"is_reserved":false,"is_disabled":false,"rental_uris":{"android":"levelo://app?vid=016f91bd-3775-4bee-b84a-775eefdb62bb","ios":"levelo://app?vid=016f91bd-3775-4bee-b84a-775eefdb62bb"},"vehicle_type_id":"4","last_reported":1743779412,"current_range_meters":14800,"station_id":"ce4bhbp2rcd13ifvqerg","pricing_plan_id":"cebpf4jnsgd1na2vs0mg"},{"bike_id":"00349eb0-50e0-4832-981b-d7414ca3785a","system_id":"levelo_inurba_marseille","lat":43.28444,"lon":5.39196,"is_reserved":false,"is_disabled":false,"rental_uris":{"android":"levelo://app?vid=00349eb0-50e0-4832-981b-d7414ca3785a","ios":"levelo://app?vid=00349eb0-50e0-4832-981b-d7414ca3785a"},"vehicle_type_id":"4","last_reported":1743779412,"current_range_meters":10000,"station_id":"ce4bhoh2rcd13ifvqh5g","pricing_plan_id":"cebpf4jnsgd1na2vs0mg"},{"bike_id":"82094fca-82b5-45b4-81a5-df2e6ffd6728","system_id":"levelo_inurba_marseille","lat":43.3233,"lon":5.40618,"is_reserved":false,"is_disabled":false,"rental_uris":{"android":"levelo://app?vid=82094fca-82b5-45b4-81a5-df2e6ffd6728","ios":"levelo://app?vid=82094fca-82b5-45b4-81a5-df2e6ffd6728"},"vehicle_type_id":"4","last_reported":1743779412,"current_range_meters":12800,"station_id":"ce4bhq92rcd13ifvqhjg","pricing_plan_id":"cebpf4jnsgd1na2vs0mg"},{"bike_id":"0eb30f16-826e-404e-9494-cbd59d704ab7","system_id":"levelo_inurba_marseille","lat":43.29026,"lon":5.38629,"is_reserved":false,"is_disabled":true,"rental_uris":{"android":"levelo://app?vid=0eb30f16-826e-404e-9494-cbd59d704ab7","ios":"levelo://app?vid=0eb30f16-826e-404e-9494-cbd59d704ab7"},"vehicle_type_id":"4","last_reported":1743779412,"current_range_meters":12800,"station_id":"ce4bh4p2rcd13ifvqe0g","pricing_plan_id":"cebpf4jnsgd1na2vs0mg"},{"bike_id":"7392b49a-dde8-4064-9559-b59943fc4cb7","system_id":"levelo_inurba_marseille","lat":43.25809,"lon":5.39414,"is_reserved":false,"is_disabled":false,"rental_uris":{"android":"levelo://app?vid=7392b49a-dde8-4064-9559-b59943fc4cb7","ios":"levelo://app?vid=7392b49a-dde8-4064-9559-b59943fc4cb7"},"vehicle_type_id":"4","last_reported":1743779412,"current_range_meters":12800,"station_id":"ce4bhip2rcd13ifvqft0","pricing_plan_id":"cebpf4jnsgd1na2vs0mg"},{"bike_id":"c2055a2a-1cff-4f19-a52d-9b52baeaa63f","system_id":"levelo_inurba_marseille","lat":43.31999,"lon":5.38134,"is_reserved":false,"is_disabled":true,"rental_uris":{"android":"levelo://app?vid=c2055a2a-1cff-4f19-a52d-9b52baeaa63f","ios":"levelo://app?vid=c2055a2a-1cff-4f19-a52d-9b52baeaa63f"},"vehicle_type_id":"4","last_reported":1743779412,"current_range_meters":12800,"station_id":"ce4bhr12rcd13ifvqhpg","pricing_plan_id":"cebpf4jnsgd1na2vs0mg"},{"bike_id":"a07480da-f5a9-4597-b3e6-cc405effeae7","system_id":"levelo_inurba_marseille","lat":43.28953,"lon":5.39651,"is_reserved":false,"is_disabled":true,"rental_uris":{"android":"levelo://app?vid=a07480da-f5a9-4597-b3e6-cc405effeae7","ios":"levelo://app?vid=a07480da-f5a9-4597-b3e6-cc405effeae7"},"vehicle_type_id":"4","last_reported":1743779412,"current_range_meters":13600,"station_id":"ce4bh3h2rcd13ifvqdn0","pricing_plan_id":"cebpf4jnsgd1na2vs0mg"},{"bike_id":"fc19542e-7863-40e6-8d6e-79804a01573c","system_id":"levelo_inurba_marseille","lat":43.29795,"lon":5.37691,"is_reserved":false,"is_disabled":false,"rental_uris":{"android":"levelo://app?vid=fc19542e-7863-40e6-8d6e-79804a01573c","ios":"levelo://app?vid=fc19542e-7863-40e6-8d6e-79804a01573c"},"vehicle_type_id":"4","last_reported":1743779412,"current_range_meters":13600,"station_id":"","pricing_plan_id":"cebpf4jnsgd1na2vs0mg"},{"bike_id":"9df2e517-b618-4d6d-ae3a-3b20dba81f15","system_id":"levelo_inurba_marseille","lat":43.28914,"lon":5.3664,"is_reserved":false,"is_disabled":false,"rental_uris":{"android":"levelo://app?vid=9df2e517-b618-4d6d-ae3a-3b20dba81f15","ios":"levelo://app?vid=9df2e517-b618-4d6d-ae3a-3b20dba81f15"},"vehicle_type_id":"4","last_reported":1743779412,"current_range_meters":13600,"station_id":"ce4bhap2rcd13ifvqek0","pricing_plan_id":"cebpf4jnsgd1na2vs0mg"},{"bike_id":"90fba08a-43f4-4c41-b84c-274d540d5d5a","system_id":"levelo_inurba_marseille","lat":43.30653,"lon":5.40096,"is_reserved":false,"is_disabled":false,"rental_uris":{"android":"levelo://app?vid=90fba08a-43f4-4c41-b84c-274d540d5d5a","ios":"levelo://app?vid=90fba08a-43f4-4c41-b84c-274d540d5d5a"},"vehicle_type_id":"4","last_reported":1743779412,"current_range_meters":13600,"station_id":"ce4bh112rcd13ifvqda0","pricing_plan_id":"cebpf4jnsgd1na2vs0mg"},{"bike_id":"27ebc7eb-5de4-43f0-933c-44535f627bc9","system_id":"levelo_inurba_marseille","lat":43.25423,"lon":5.41934,"is_reserved":false,"is_disabled":false,"rental_uris":{"android":"levelo://app?vid=27ebc7eb-5de4-43f0-933c-44535f627bc9","ios":"levelo://app?vid=27ebc7eb-5de4-43f0-933c-44535f627bc9"},"vehicle_type_id":"4","last_reported":1743779412,"current_range_meters":13600,"station_id":"","pricing_plan_id":"cebpf4jnsgd1na2vs0mg"},{"bike_id":"358a9dab-e233-4a0b-8728-0139a72dfad5","system_id":"levelo_inurba_marseille","lat":43.29574,"lon":5.37518,"is_reserved":false,"is_disabled":false,"rental_uris":{"android":"levelo://app?vid=358a9dab-e233-4a0b-8728-0139a72dfad5","ios":"levelo://app?vid=358a9dab-e233-4a0b-8728-0139a72dfad5"},"vehicle_type_id":"4","last_reported":1743779412,"current_range_meters":13600,"station_id":"ce4bgh92rcd13ifvqb50","pricing_plan_id":"cebpf4jnsgd1na2vs0mg"},{"bike_id":"ae85a7a4-7c38-4e25-9e50-a9a925b58789","system_id":"levelo_inurba_marseille","lat":43.31083,"lon":5.42436,"is_reserved":false,"is_disabled":false,"rental_uris":{"android":"levelo://app?vid=ae85a7a4-7c38-4e25-9e50-a9a925b58789","ios":"levelo://app?vid=ae85a7a4-7c38-4e25-9e50-a9a925b58789"},"vehicle_type_id":"4","last_reported":1743779412,"current_range_meters":13600,"station_id":"ce4bhp92rcd13ifvqhag","pricing_plan_id":"cebpf4jnsgd1na2vs0mg"},{"bike_id":"cccce150-77a7-4565-8ca1-36858ce9e6b0","system_id":"levelo_inurba_marseille","lat":43.321121,"lon":5.367714,"is_reserved":false,"is_disabled":false,"rental_uris":{"android":"levelo://app?vid=cccce150-77a7-4565-8ca1-36858ce9e6b0","ios":"levelo://app?vid=cccce150-77a7-4565-8ca1-36858ce9e6b0"},"vehicle_type_id":"4","last_reported":1743779412,"current_range_meters":13600,"station_id":"ce4bhrh2rcd13ifvqhug","pricing_plan_id":"cebpf4jnsgd1na2vs0mg"},{"bike_id":"f0c99699-977a-4de5-8bfb-e4ec39e54e1b","system_id":"levelo_inurba_marseille","lat":43.29559,"lon":5.42287,"is_reserved":false,"is_disabled":false,"rental_uris":{"android":"levelo://app?vid=f0c99699-977a-4de5-8bfb-e4ec39e54e1b","ios":"levelo://app?vid=f0c99699-977a-4de5-8bfb-e4ec39e54e1b"},"vehicle_type_id":"4","last_reported":1743779412,"current_range_meters":13600,"station_id":"ce4bhph2rcd13ifvqhdg","pricing_plan_id":"cebpf4jnsgd1na2vs0mg"},{"bike_id":"624c3c25-ef7c-49bf-9412-6b839baacf41","system_id":"levelo_inurba_marseille","lat":43.2917,"lon":5.37156,"is_reserved":false,"is_disabled":false,"rental_uris":{"android":"levelo://app?vid=624c3c25-ef7c-49bf-9412-6b839baacf41","ios":"levelo://app?vid=624c3c25-ef7c-49bf-9412-6b839baacf41"},"vehicle_type_id":"4","last_reported":1743779412,"current_range_meters":13600,"station_id":"ce4bha92rcd13ifvqeh0","pricing_plan_id":"cebpf4jnsgd1na2vs0mg"},{"bike_id":"1d5ef6d0-a413-45b3-8100-7222d11689f2","system_id":"levelo_inurba_marseille","lat":43.289213,"lon":5.384055,"is_reserved":false,"is_disabled":true,"rental_uris":{"android":"levelo://app?vid=1d5ef6d0-a413-45b3-8100-7222d11689f2","ios":"levelo://app?vid=1d5ef6d0-a413-45b3-8100-7222d11689f2"},"vehicle_type_id":"4","last_reported":1743779412,"current_range_meters":13600,"station_id":"ce4bh612rcd13ifvqe6g","pricing_plan_id":"cebpf4jnsgd1na2vs0mg"},{"bike_id":"5f8a2570-32aa-444b-b6f6-4804db20a610","system_id":"levelo_inurba_marseille","lat":43.31127,"lon":5.37752,"is_reserved":false,"is_disabled":false,"rental_uris":{"android":"levelo://app?vid=5f8a2570-32aa-444b-b6f6-4804db20a610","ios":"levelo://app?vid=5f8a2570-32aa-444b-b6f6-4804db20a610"},"vehicle_type_id":"4","last_reported":1743779412,"current_range_meters":14000,"station_id":"ce4bgt92rcd13ifvqcg0","pricing_plan_id":"cebpf4jnsgd1na2vs0mg"},{"bike_id":"48ec1fe3-fdf4-49a5-977a-526829b4e2e3","system_id":"levelo_inurba_marseille","lat":43.23065,"lon":5.35489,"is_reserved":false,"is_disabled":false,"rental_uris":{"android":"levelo://app?vid=48ec1fe3-fdf4-49a5-977a-526829b4e2e3","ios":"levelo://app?vid=48ec1fe3-fdf4-49a5-977a-526829b4e2e3"},"vehicle_type_id":"4","last_reported":1743779412,"current_range_meters":14000,"station_id":"cpo3342slgdg3j2ifvpg","pricing_plan_id":"cebpf4jnsgd1na2vs0mg"},{"bike_id":"188e01b9-65db-4a5b-b580-c3a2d1a3e000","system_id":"levelo_inurba_marseille","lat":43.28726,"lon":5.37134,"is_reserved":false,"is_disabled":false,"rental_uris":{"android":"levelo://app?vid=188e01b9-65db-4a5b-b580-c3a2d1a3e000","ios":"levelo://app?vid=188e01b9-65db-4a5b-b580-c3a2d1a3e000"},"vehicle_type_id":"4","last_reported":1743779412,"current_range_meters":14000,"station_id":"","pricing_plan_id":"cebpf4jnsgd1na2vs0mg"},{"bike_id":"e7339804-7786-4f31-9c1f-ca8134aa0aee","system_id":"levelo_inurba_marseille","lat":43.30281,"lon":5.37714,"is_reserved":false,"is_disabled":false,"rental_uris":{"android":"levelo://app?vid=e7339804-7786-4f31-9c1f-ca8134aa0aee","ios":"levelo://app?vid=e7339804-7786-4f31-9c1f-ca8134aa0aee"},"vehicle_type_id":"4","last_reported":1743779412,"current_range_meters":14400,"station_id":"ce4bguh2rcd13ifvqcj0","pricing_plan_id":"cebpf4jnsgd1na2vs0mg"},{"bike_id":"eb79d1f9-7c91-4ea2-b5f8-796189743e1a","system_id":"levelo_inurba_marseille","lat":43.337301,"lon":5.391765,"is_reserved":false,"is_disabled":false,"rental_uris":{"android":"levelo://app?vid=eb79d1f9-7c91-4ea2-b5f8-796189743e1a","ios":"levelo://app?vid=eb79d1f9-7c91-4ea2-b5f8-796189743e1a"},"vehicle_type_id":"4","last_reported":1743779412,"current_range_meters":14400,"station_id":"ce4bhr92rcd13ifvqhsg","pricing_plan_id":"cebpf4jnsgd1na2vs0mg"},{"bike_id":"b60c4e10-be47-4480-972a-f0b292dbaed2","system_id":"levelo_inurba_marseille","lat":43.27367,"lon":5.36254,"is_reserved":false,"is_disabled":false,"rental_uris":{"android":"levelo://app?vid=b60c4e10-be47-4480-972a-f0b292dbaed2","ios":"levelo://app?vid=b60c4e10-be47-4480-972a-f0b292dbaed2"},"vehicle_type_id":"4","last_reported":1743779412,"current_range_meters":14000,"station_id":"ce4bhbh2rcd13ifvqeo0","pricing_plan_id":"cebpf4jnsgd1na2vs0mg"},{"bike_id":"0c644ba7-5813-442e-8b28-cb5de2c1a8fb","system_id":"levelo_inurba_marseille","lat":43.30447,"lon":5.379,"is_reserved":false,"is_disabled":false,"rental_uris":{"android":"levelo://app?vid=0c644ba7-5813-442e-8b28-cb5de2c1a8fb","ios":"levelo://app?vid=0c644ba7-5813-442e-8b28-cb5de2c1a8fb"},"vehicle_type_id":"4","last_reported":1743779412,"current_range_meters":14400,"station_id":"ce4bgup2rcd13ifvqcn0","pricing_plan_id":"cebpf4jnsgd1na2vs0mg"},{"bike_id":"e998845c-6c85-4dd9-9d5e-ca3995e562b9","system_id":"levelo_inurba_marseille","lat":43.29874,"lon":5.389,"is_reserved":false,"is_disabled":false,"rental_uris":{"android":"levelo://app?vid=e998845c-6c85-4dd9-9d5e-ca3995e562b9","ios":"levelo://app?vid=e998845c-6c85-4dd9-9d5e-ca3995e562b9"},"vehicle_type_id":"4","last_reported":1743779412,"current_range_meters":14400,"station_id":"ce4bh392rcd13ifvqdl0","pricing_plan_id":"cebpf4jnsgd1na2vs0mg"},{"bike_id":"3abe9593-ad19-4772-8101-675be68ae083","system_id":"levelo_inurba_marseille","lat":43.27063,"lon":5.40264,"is_reserved":false,"is_disabled":false,"rental_uris":{"android":"levelo://app?vid=3abe9593-ad19-4772-8101-675be68ae083","ios":"levelo://app?vid=3abe9593-ad19-4772-8101-675be68ae083"},"vehicle_type_id":"4","last_reported":1743779412,"current_range_meters":14400,"station_id":"ce4bhk92rcd13ifvqgc0","pricing_plan_id":"cebpf4jnsgd1na2vs0mg"},{"bike_id":"7802f9b7-cc91-41c4-8d3c-017e8ca07dd5","system_id":"levelo_inurba_marseille","lat":43.31714,"lon":5.37756,"is_reserved":false,"is_disabled":false,"rental_uris":{"android":"levelo://app?vid=7802f9b7-cc91-41c4-8d3c-017e8ca07dd5","ios":"levelo://app?vid=7802f9b7-cc91-41c4-8d3c-017e8ca07dd5"},"vehicle_type_id":"4","last_reported":1743779412,"current_range_meters":14400,"station_id":"ce4bgth2rcd13ifvqch0","pricing_plan_id":"cebpf4jnsgd1na2vs0mg"},{"bike_id":"1e9a3ab2-58dd-458e-8bbd-e66cfb7c8fb7","system_id":"levelo_inurba_marseille","lat":43.30154,"lon":5.38091,"is_reserved":false,"is_disabled":false,"rental_uris":{"android":"levelo://app?vid=1e9a3ab2-58dd-458e-8bbd-e66cfb7c8fb7","ios":"levelo://app?vid=1e9a3ab2-58dd-458e-8bbd-e66cfb7c8fb7"},"vehicle_type_id":"4","last_reported":1743779412,"current_range_meters":14400,"station_id":"ce4bgjp2rcd13ifvqbh0","pricing_plan_id":"cebpf4jnsgd1na2vs0mg"},{"bike_id":"509b4250-b0c0-49e5-82a8-257e0a54b248","system_id":"levelo_inurba_marseille","lat":43.30884,"lon":5.3717,"is_reserved":false,"is_disabled":false,"rental_uris":{"android":"levelo://app?vid=509b4250-b0c0-49e5-82a8-257e0a54b248","ios":"levelo://app?vid=509b4250-b0c0-49e5-82a8-257e0a54b248"},"vehicle_type_id":"4","last_reported":1743779412,"current_range_meters":14400,"station_id":"ce4bguh2rcd13ifvqckg","pricing_plan_id":"cebpf4jnsgd1na2vs0mg"},{"bike_id":"6d9715e6-045f-417b-844a-144b6e5c1132","system_id":"levelo_inurba_marseille","lat":43.29206,"lon":5.35708,"is_reserved":false,"is_disabled":false,"rental_uris":{"android":"levelo://app?vid=6d9715e6-045f-417b-844a-144b6e5c1132","ios":"levelo://app?vid=6d9715e6-045f-417b-844a-144b6e5c1132"},"vehicle_type_id":"4","last_reported":1743779412,"current_range_meters":14400,"station_id":"","pricing_plan_id":"cebpf4jnsgd1na2vs0mg"},{"bike_id":"44ac6bc0-66a4-4501-af28-17e8526c476f","system_id":"levelo_inurba_marseille","lat":43.24166,"lon":5.36393,"is_reserved":false,"is_disabled":false,"rental_uris":{"android":"levelo://app?vid=44ac6bc0-66a4-4501-af28-17e8526c476f","ios":"levelo://app?vid=44ac6bc0-66a4-4501-af28-17e8526c476f"},"vehicle_type_id":"4","last_reported":1743779412,"current_range_meters":14800,"station_id":"cpo36qri1sfpv3e86is0","pricing_plan_id":"cebpf4jnsgd1na2vs0mg"},{"bike_id":"19b80c7f-db25-40c8-945f-67fe43b6cc5f","system_id":"levelo_inurba_marseille","lat":43.30533,"lon":5.36527,"is_reserved":false,"is_disabled":false,"rental_uris":{"android":"levelo://app?vid=19b80c7f-db25-40c8-945f-67fe43b6cc5f","ios":"levelo://app?vid=19b80c7f-db25-40c8-945f-67fe43b6cc5f"},"vehicle_type_id":"4","last_reported":1743779412,"current_range_meters":14800,"station_id":"ce4bgs12rcd13ifvqcag","pricing_plan_id":"cebpf4jnsgd1na2vs0mg"},{"bike_id":"e9d0f08f-e1e2-4ee2-9063-a7119ab00a0a","system_id":"levelo_inurba_marseille","lat":43.29793,"lon":5.38114,"is_reserved":false,"is_disabled":false,"rental_uris":{"android":"levelo://app?vid=e9d0f08f-e1e2-4ee2-9063-a7119ab00a0a","ios":"levelo://app?vid=e9d0f08f-e1e2-4ee2-9063-a7119ab00a0a"},"vehicle_type_id":"4","last_reported":1743779412,"current_range_meters":14400,"station_id":"ce4bh192rcd13ifvqdb0","pricing_plan_id":"cebpf4jnsgd1na2vs0mg"},{"bike_id":"f6eb7311-b1af-46af-b8b9-d6dcf2a85b44","system_id":"levelo_inurba_marseille","lat":43.26558,"lon":5.37282,"is_reserved":false,"is_disabled":false,"rental_uris":{"android":"levelo://app?vid=f6eb7311-b1af-46af-b8b9-d6dcf2a85b44","ios":"levelo://app?vid=f6eb7311-b1af-46af-b8b9-d6dcf2a85b44"},"vehicle_type_id":"4","last_reported":1743779412,"current_range_meters":15200,"station_id":"ce4bhg12rcd13ifvqf70","pricing_plan_id":"cebpf4jnsgd1na2vs0mg"},{"bike_id":"d72ae546-019d-42c4-ab8a-aa9b8ed4f063","system_id":"levelo_inurba_marseille","lat":43.3048,"lon":5.37898,"is_reserved":false,"is_disabled":false,"rental_uris":{"android":"levelo://app?vid=d72ae546-019d-42c4-ab8a-aa9b8ed4f063","ios":"levelo://app?vid=d72ae546-019d-42c4-ab8a-aa9b8ed4f063"},"vehicle_type_id":"4","last_reported":1743779412,"current_range_meters":15200,"station_id":"ce4bgup2rcd13ifvqcn0","pricing_plan_id":"cebpf4jnsgd1na2vs0mg"},{"bike_id":"3719d63c-6535-40a3-9206-8644906174c4","system_id":"levelo_inurba_marseille","lat":43.29903,"lon":5.43665,"is_reserved":false,"is_disabled":false,"rental_uris":{"android":"levelo://app?vid=3719d63c-6535-40a3-9206-8644906174c4","ios":"levelo://app?vid=3719d63c-6535-40a3-9206-8644906174c4"},"vehicle_type_id":"4","last_reported":1743779412,"current_range_meters":15200,"station_id":"ce4bhpp2rcd13ifvqhfg","pricing_plan_id":"cebpf4jnsgd1na2vs0mg"},{"bike_id":"80ef48f0-b272-40cd-8c64-191dc0cfcc42","system_id":"levelo_inurba_marseille","lat":43.26565,"lon":5.39013,"is_reserved":false,"is_disabled":false,"rental_uris":{"android":"levelo://app?vid=80ef48f0-b272-40cd-8c64-191dc0cfcc42","ios":"levelo://app?vid=80ef48f0-b272-40cd-8c64-191dc0cfcc42"},"vehicle_type_id":"4","last_reported":1743779412,"current_range_meters":15200,"station_id":"ce4bhe12rcd13ifvqf30","pricing_plan_id":"cebpf4jnsgd1na2vs0mg"},{"bike_id":"a8f76b63-638f-4e4c-a90c-eade75bb3418","system_id":"levelo_inurba_marseille","lat":43.24082,"lon":5.37754,"is_reserved":false,"is_disabled":false,"rental_uris":{"android":"levelo://app?vid=a8f76b63-638f-4e4c-a90c-eade75bb3418","ios":"levelo://app?vid=a8f76b63-638f-4e4c-a90c-eade75bb3418"},"vehicle_type_id":"4","last_reported":1743779412,"current_range_meters":14800,"station_id":"ce4bhnp2rcd13ifvqgvg","pricing_plan_id":"cebpf4jnsgd1na2vs0mg"},{"bike_id":"2534dfce-a174-40a5-a92d-b91d2af32fd6","system_id":"levelo_inurba_marseille","lat":43.26502,"lon":5.39549,"is_reserved":false,"is_disabled":false,"rental_uris":{"android":"levelo://app?vid=2534dfce-a174-40a5-a92d-b91d2af32fd6","ios":"levelo://app?vid=2534dfce-a174-40a5-a92d-b91d2af32fd6"},"vehicle_type_id":"4","last_reported":1743779412,"current_range_meters":15200,"station_id":"ce4bhi12rcd13ifvqfq0","pricing_plan_id":"cebpf4jnsgd1na2vs0mg"},{"bike_id":"36ee99ba-5b0c-447e-b253-957fd9ae50ba","system_id":"levelo_inurba_marseille","lat":43.27791,"lon":5.40708,"is_reserved":false,"is_disabled":false,"rental_uris":{"android":"levelo://app?vid=36ee99ba-5b0c-447e-b253-957fd9ae50ba","ios":"levelo://app?vid=36ee99ba-5b0c-447e-b253-957fd9ae50ba"},"vehicle_type_id":"4","last_reported":1743779412,"current_range_meters":15200,"station_id":"ce4bhnh2rcd13ifvqgtg","pricing_plan_id":"cebpf4jnsgd1na2vs0mg"},{"bike_id":"1c6a9a4d-5ef6-476b-b921-e44abfffd79e","system_id":"levelo_inurba_marseille","lat":43.25927,"lon":5.40863,"is_reserved":false,"is_disabled":false,"rental_uris":{"android":"levelo://app?vid=1c6a9a4d-5ef6-476b-b921-e44abfffd79e","ios":"levelo://app?vid=1c6a9a4d-5ef6-476b-b921-e44abfffd79e"},"vehicle_type_id":"4","last_reported":1743779412,"current_range_meters":16000,"station_id":"ce4bhm92rcd13ifvqglg","pricing_plan_id":"cebpf4jnsgd1na2vs0mg"},{"bike_id":"eaf859a6-ff3d-4281-be3e-7de787fa533a","system_id":"levelo_inurba_marseille","lat":43.30302,"lon":5.39207,"is_reserved":false,"is_disabled":true,"rental_uris":{"android":"levelo://app?vid=eaf859a6-ff3d-4281-be3e-7de787fa533a","ios":"levelo://app?vid=eaf859a6-ff3d-4281-be3e-7de787fa533a"},"vehicle_type_id":"4","last_reported":1743779412,"current_range_meters":16000,"station_id":"ce4bgkh2rcd13ifvqbk0","pricing_plan_id":"cebpf4jnsgd1na2vs0mg"},{"bike_id":"75eb52da-170c-41a8-bb65-e69d5ed30f96","system_id":"levelo_inurba_marseille","lat":43.31331,"lon":5.39691,"is_reserved":false,"is_disabled":false,"rental_uris":{"android":"levelo://app?vid=75eb52da-170c-41a8-bb65-e69d5ed30f96","ios":"levelo://app?vid=75eb52da-170c-41a8-bb65-e69d5ed30f96"},"vehicle_type_id":"4","last_reported":1743779412,"current_range_meters":16000,"station_id":"ce4bgvp2rcd13ifvqcu0","pricing_plan_id":"cebpf4jnsgd1na2vs0mg"},{"bike_id":"032af31e-51f7-4e8e-a7f1-d4d29826d37b","system_id":"levelo_inurba_marseille","lat":43.31048,"lon":5.38374,"is_reserved":false,"is_disabled":false,"rental_uris":{"android":"levelo://app?vid=032af31e-51f7-4e8e-a7f1-d4d29826d37b","ios":"levelo://app?vid=032af31e-51f7-4e8e-a7f1-d4d29826d37b"},"vehicle_type_id":"4","last_reported":1743779412,"current_range_meters":16000,"station_id":"ce4bgv92rcd13ifvqcr0","pricing_plan_id":"cebpf4jnsgd1na2vs0mg"},{"bike_id":"4f723b5e-5732-483a-bfa4-9dcb9392dd53","system_id":"levelo_inurba_marseille","lat":43.25582,"lon":5.3825,"is_reserved":false,"is_disabled":false,"rental_uris":{"android":"levelo://app?vid=4f723b5e-5732-483a-bfa4-9dcb9392dd53","ios":"levelo://app?vid=4f723b5e-5732-483a-bfa4-9dcb9392dd53"},"vehicle_type_id":"4","last_reported":1743779412,"current_range_meters":12400,"station_id":"ce4bhih2rcd13ifvqfs0","pricing_plan_id":"cebpf4jnsgd1na2vs0mg"},{"bike_id":"543e5510-cdcd-4c9b-b893-b11a7736392d","system_id":"levelo_inurba_marseille","lat":43.302082,"lon":5.394619,"is_reserved":false,"is_disabled":false,"rental_uris":{"android":"levelo://app?vid=543e5510-cdcd-4c9b-b893-b11a7736392d","ios":"levelo://app?vid=543e5510-cdcd-4c9b-b893-b11a7736392d"},"vehicle_type_id":"4","last_reported":1743779412,"current_range_meters":16000,"station_id":"ce4bh0p2rcd13ifvqd70","pricing_plan_id":"cebpf4jnsgd1na2vs0mg"},{"bike_id":"3d5c4483-74c9-41e0-9136-7ff91ce85349","system_id":"levelo_inurba_marseille","lat":43.299129,"lon":5.375471,"is_reserved":false,"is_disabled":false,"rental_uris":{"android":"levelo://app?vid=3d5c4483-74c9-41e0-9136-7ff91ce85349","ios":"levelo://app?vid=3d5c4483-74c9-41e0-9136-7ff91ce85349"},"vehicle_type_id":"4","last_reported":1743779412,"current_range_meters":16000,"station_id":"ce4bgjh2rcd13ifvqbg0","pricing_plan_id":"cebpf4jnsgd1na2vs0mg"},{"bike_id":"e8b0bcbf-76ef-446d-9d02-11f885717c95","system_id":"levelo_inurba_marseille","lat":43.28376,"lon":5.38648,"is_reserved":false,"is_disabled":false,"rental_uris":{"android":"levelo://app?vid=e8b0bcbf-76ef-446d-9d02-11f885717c95","ios":"levelo://app?vid=e8b0bcbf-76ef-446d-9d02-11f885717c95"},"vehicle_type_id":"4","last_reported":1743779412,"current_range_meters":16000,"station_id":"ce4bh492rcd13ifvqdvg","pricing_plan_id":"cebpf4jnsgd1na2vs0mg"},{"bike_id":"ad81a0ea-b42d-4cbb-86d5-632157072762","system_id":"levelo_inurba_marseille","lat":43.24164,"lon":5.36386,"is_reserved":false,"is_disabled":false,"rental_uris":{"android":"levelo://app?vid=ad81a0ea-b42d-4cbb-86d5-632157072762","ios":"levelo://app?vid=ad81a0ea-b42d-4cbb-86d5-632157072762"},"vehicle_type_id":"4","last_reported":1743779412,"current_range_meters":16000,"station_id":"cpo36qri1sfpv3e86is0","pricing_plan_id":"cebpf4jnsgd1na2vs0mg"},{"bike_id":"30b57730-cb66-4122-bd93-7dabcaba84e7","system_id":"levelo_inurba_marseille","lat":43.24917,"lon":5.40681,"is_reserved":false,"is_disabled":false,"rental_uris":{"android":"levelo://app?vid=30b57730-cb66-4122-bd93-7dabcaba84e7","ios":"levelo://app?vid=30b57730-cb66-4122-bd93-7dabcaba84e7"},"vehicle_type_id":"4","last_reported":1743779412,"current_range_meters":16000,"station_id":"","pricing_plan_id":"cebpf4jnsgd1na2vs0mg"},{"bike_id":"507eb123-e9fa-4137-a5c6-adbacd5eb2bf","system_id":"levelo_inurba_marseille","lat":43.25074,"lon":5.39521,"is_reserved":false,"is_disabled":false,"rental_uris":{"android":"levelo://app?vid=507eb123-e9fa-4137-a5c6-adbacd5eb2bf","ios":"levelo://app?vid=507eb123-e9fa-4137-a5c6-adbacd5eb2bf"},"vehicle_type_id":"4","last_reported":1743779412,"current_range_meters":16000,"station_id":"ce4bhm12rcd13ifvqgkg","pricing_plan_id":"cebpf4jnsgd1na2vs0mg"},{"bike_id":"3d0496cc-5653-4de4-94dd-701a80d2d07b","system_id":"levelo_inurba_marseille","lat":43.32666,"lon":5.40992,"is_reserved":false,"is_disabled":false,"rental_uris":{"android":"levelo://app?vid=3d0496cc-5653-4de4-94dd-701a80d2d07b","ios":"levelo://app?vid=3d0496cc-5653-4de4-94dd-701a80d2d07b"},"vehicle_type_id":"4","last_reported":1743779412,"current_range_meters":16000,"station_id":"ce4bhpp2rcd13ifvqhgg","pricing_plan_id":"cebpf4jnsgd1na2vs0mg"},{"bike_id":"e0025ce5-fe29-4293-8000-c88ee2bac657","system_id":"levelo_inurba_marseille","lat":43.31325,"lon":5.39698,"is_reserved":false,"is_disabled":false,"rental_uris":{"android":"levelo://app?vid=e0025ce5-fe29-4293-8000-c88ee2bac657","ios":"levelo://app?vid=e0025ce5-fe29-4293-8000-c88ee2bac657"},"vehicle_type_id":"4","last_reported":1743779412,"current_range_meters":16000,"station_id":"ce4bgvp2rcd13ifvqcu0","pricing_plan_id":"cebpf4jnsgd1na2vs0mg"},{"bike_id":"7dfdb885-f978-44df-8dc3-3a27a2cbfaad","system_id":"levelo_inurba_marseille","lat":43.28355,"lon":5.38631,"is_reserved":false,"is_disabled":false,"rental_uris":{"android":"levelo://app?vid=7dfdb885-f978-44df-8dc3-3a27a2cbfaad","ios":"levelo://app?vid=7dfdb885-f978-44df-8dc3-3a27a2cbfaad"},"vehicle_type_id":"4","last_reported":1743779412,"current_range_meters":16400,"station_id":"ce4bh492rcd13ifvqdvg","pricing_plan_id":"cebpf4jnsgd1na2vs0mg"},{"bike_id":"d0af8e3a-06bf-4cee-bae3-44fd7d6ae859","system_id":"levelo_inurba_marseille","lat":43.23059,"lon":5.35496,"is_reserved":false,"is_disabled":false,"rental_uris":{"android":"levelo://app?vid=d0af8e3a-06bf-4cee-bae3-44fd7d6ae859","ios":"levelo://app?vid=d0af8e3a-06bf-4cee-bae3-44fd7d6ae859"},"vehicle_type_id":"4","last_reported":1743779412,"current_range_meters":16400,"station_id":"cpo3342slgdg3j2ifvpg","pricing_plan_id":"cebpf4jnsgd1na2vs0mg"},{"bike_id":"2c38ec5a-799e-4669-adbf-e8748af5cc41","system_id":"levelo_inurba_marseille","lat":43.30338,"lon":5.40424,"is_reserved":false,"is_disabled":false,"rental_uris":{"android":"levelo://app?vid=2c38ec5a-799e-4669-adbf-e8748af5cc41","ios":"levelo://app?vid=2c38ec5a-799e-4669-adbf-e8748af5cc41"},"vehicle_type_id":"4","last_reported":1743779412,"current_range_meters":16800,"station_id":"ce4bh012rcd13ifvqd10","pricing_plan_id":"cebpf4jnsgd1na2vs0mg"},{"bike_id":"5008f907-2cb9-40bb-909b-47377e083e51","system_id":"levelo_inurba_marseille","lat":43.240942,"lon":5.366103,"is_reserved":false,"is_disabled":false,"rental_uris":{"android":"levelo://app?vid=5008f907-2cb9-40bb-909b-47377e083e51","ios":"levelo://app?vid=5008f907-2cb9-40bb-909b-47377e083e51"},"vehicle_type_id":"4","last_reported":1743779412,"current_range_meters":16400,"station_id":"ce4bhi12rcd13ifvqfp0","pricing_plan_id":"cebpf4jnsgd1na2vs0mg"},{"bike_id":"a61a4c34-2a06-4feb-8e11-021ae27719a3","system_id":"levelo_inurba_marseille","lat":43.28071,"lon":5.3965,"is_reserved":false,"is_disabled":false,"rental_uris":{"android":"levelo://app?vid=a61a4c34-2a06-4feb-8e11-021ae27719a3","ios":"levelo://app?vid=a61a4c34-2a06-4feb-8e11-021ae27719a3"},"vehicle_type_id":"4","last_reported":1743779412,"current_range_meters":16400,"station_id":"ce4bho12rcd13ifvqh2g","pricing_plan_id":"cebpf4jnsgd1na2vs0mg"},{"bike_id":"a1480531-9d6d-4324-9897-2ed9e5e428e5","system_id":"levelo_inurba_marseille","lat":43.28938,"lon":5.36634,"is_reserved":false,"is_disabled":false,"rental_uris":{"android":"levelo://app?vid=a1480531-9d6d-4324-9897-2ed9e5e428e5","ios":"levelo://app?vid=a1480531-9d6d-4324-9897-2ed9e5e428e5"},"vehicle_type_id":"4","last_reported":1743779412,"current_range_meters":16400,"station_id":"ce4bhap2rcd13ifvqek0","pricing_plan_id":"cebpf4jnsgd1na2vs0mg"},{"bike_id":"875f7220-eb0a-4e21-b284-cbcd5cffd6c6","system_id":"levelo_inurba_marseille","lat":43.32107,"lon":5.36782,"is_reserved":false,"is_disabled":false,"rental_uris":{"android":"levelo://app?vid=875f7220-eb0a-4e21-b284-cbcd5cffd6c6","ios":"levelo://app?vid=875f7220-eb0a-4e21-b284-cbcd5cffd6c6"},"vehicle_type_id":"4","last_reported":1743779412,"current_range_meters":16400,"station_id":"ce4bhrh2rcd13ifvqhug","pricing_plan_id":"cebpf4jnsgd1na2vs0mg"},{"bike_id":"8e00254e-a637-44dd-987a-6dd0487fba23","system_id":"levelo_inurba_marseille","lat":43.25105,"lon":5.40326,"is_reserved":false,"is_disabled":false,"rental_uris":{"android":"levelo://app?vid=8e00254e-a637-44dd-987a-6dd0487fba23","ios":"levelo://app?vid=8e00254e-a637-44dd-987a-6dd0487fba23"},"vehicle_type_id":"4","last_reported":1743779412,"current_range_meters":16400,"station_id":"ce4bhlh2rcd13ifvqgig","pricing_plan_id":"cebpf4jnsgd1na2vs0mg"},{"bike_id":"b33db7e7-eda2-4f12-9fc6-1cfdf01ab2ad","system_id":"levelo_inurba_marseille","lat":43.30613,"lon":5.3724,"is_reserved":false,"is_disabled":false,"rental_uris":{"android":"levelo://app?vid=b33db7e7-eda2-4f12-9fc6-1cfdf01ab2ad","ios":"levelo://app?vid=b33db7e7-eda2-4f12-9fc6-1cfdf01ab2ad"},"vehicle_type_id":"4","last_reported":1743779412,"current_range_meters":16400,"station_id":"ce4bgqh2rcd13ifvqc4g","pricing_plan_id":"cebpf4jnsgd1na2vs0mg"},{"bike_id":"d9ba9551-893e-4cab-8633-3f34cc33ee19","system_id":"levelo_inurba_marseille","lat":43.30876,"lon":5.37183,"is_reserved":false,"is_disabled":false,"rental_uris":{"android":"levelo://app?vid=d9ba9551-893e-4cab-8633-3f34cc33ee19","ios":"levelo://app?vid=d9ba9551-893e-4cab-8633-3f34cc33ee19"},"vehicle_type_id":"4","last_reported":1743779412,"current_range_meters":16800,"station_id":"ce4bguh2rcd13ifvqckg","pricing_plan_id":"cebpf4jnsgd1na2vs0mg"},{"bike_id":"e8758f81-1f51-4ee3-ae45-d60f76efec94","system_id":"levelo_inurba_marseille","lat":43.29029,"lon":5.38647,"is_reserved":false,"is_disabled":false,"rental_uris":{"android":"levelo://app?vid=e8758f81-1f51-4ee3-ae45-d60f76efec94","ios":"levelo://app?vid=e8758f81-1f51-4ee3-ae45-d60f76efec94"},"vehicle_type_id":"4","last_reported":1743779412,"current_range_meters":16800,"station_id":"ce4bh4p2rcd13ifvqe0g","pricing_plan_id":"cebpf4jnsgd1na2vs0mg"},{"bike_id":"852ae433-cc4e-4f80-9afa-60b2796b15fb","system_id":"levelo_inurba_marseille","lat":43.32376,"lon":5.39313,"is_reserved":false,"is_disabled":false,"rental_uris":{"android":"levelo://app?vid=852ae433-cc4e-4f80-9afa-60b2796b15fb","ios":"levelo://app?vid=852ae433-cc4e-4f80-9afa-60b2796b15fb"},"vehicle_type_id":"4","last_reported":1743779412,"current_range_meters":16800,"station_id":"","pricing_plan_id":"cebpf4jnsgd1na2vs0mg"},{"bike_id":"289742d7-180c-424b-a309-b6439e29409f","system_id":"levelo_inurba_marseille","lat":43.2737,"lon":5.36257,"is_reserved":false,"is_disabled":false,"rental_uris":{"android":"levelo://app?vid=289742d7-180c-424b-a309-b6439e29409f","ios":"levelo://app?vid=289742d7-180c-424b-a309-b6439e29409f"},"vehicle_type_id":"4","last_reported":1743779412,"current_range_meters":16800,"station_id":"ce4bhbh2rcd13ifvqeo0","pricing_plan_id":"cebpf4jnsgd1na2vs0mg"},{"bike_id":"1274ddbc-641a-4ece-8713-7c68ad563385","system_id":"levelo_inurba_marseille","lat":43.26555,"lon":5.3728,"is_reserved":false,"is_disabled":false,"rental_uris":{"android":"levelo://app?vid=1274ddbc-641a-4ece-8713-7c68ad563385","ios":"levelo://app?vid=1274ddbc-641a-4ece-8713-7c68ad563385"},"vehicle_type_id":"4","last_reported":1743779412,"current_range_meters":16800,"station_id":"ce4bhg12rcd13ifvqf70","pricing_plan_id":"cebpf4jnsgd1na2vs0mg"},{"bike_id":"c2d5cddb-a29d-4d6a-8bda-dd6c12132c6b","system_id":"levelo_inurba_marseille","lat":43.28721,"lon":5.37934,"is_reserved":false,"is_disabled":false,"rental_uris":{"android":"levelo://app?vid=c2d5cddb-a29d-4d6a-8bda-dd6c12132c6b","ios":"levelo://app?vid=c2d5cddb-a29d-4d6a-8bda-dd6c12132c6b"},"vehicle_type_id":"4","last_reported":1743779412,"current_range_meters":16800,"station_id":"ce4bh9p2rcd13ifvqec0","pricing_plan_id":"cebpf4jnsgd1na2vs0mg"},{"bike_id":"f34f0d75-9db0-4b0d-b8d5-08ea114f0c39","system_id":"levelo_inurba_marseille","lat":43.305331,"lon":5.384242,"is_reserved":false,"is_disabled":false,"rental_uris":{"android":"levelo://app?vid=f34f0d75-9db0-4b0d-b8d5-08ea114f0c39","ios":"levelo://app?vid=f34f0d75-9db0-4b0d-b8d5-08ea114f0c39"},"vehicle_type_id":"4","last_reported":1743779412,"current_range_meters":16800,"station_id":"ce4bh192rcd13ifvqdd0","pricing_plan_id":"cebpf4jnsgd1na2vs0mg"},{"bike_id":"228943ef-05e9-4267-acbe-f2923b8321f1","system_id":"levelo_inurba_marseille","lat":43.27556,"lon":5.38431,"is_reserved":false,"is_disabled":false,"rental_uris":{"android":"levelo://app?vid=228943ef-05e9-4267-acbe-f2923b8321f1","ios":"levelo://app?vid=228943ef-05e9-4267-acbe-f2923b8321f1"},"vehicle_type_id":"4","last_reported":1743779412,"current_range_meters":16800,"station_id":"ce4bhh92rcd13ifvqfi0","pricing_plan_id":"cebpf4jnsgd1na2vs0mg"},{"bike_id":"b646ace8-08b7-485e-abcd-2b6b162d14dc","system_id":"levelo_inurba_marseille","lat":43.29904,"lon":5.43664,"is_reserved":false,"is_disabled":false,"rental_uris":{"android":"levelo://app?vid=b646ace8-08b7-485e-abcd-2b6b162d14dc","ios":"levelo://app?vid=b646ace8-08b7-485e-abcd-2b6b162d14dc"},"vehicle_type_id":"4","last_reported":1743779412,"current_range_meters":16800,"station_id":"ce4bhpp2rcd13ifvqhfg","pricing_plan_id":"cebpf4jnsgd1na2vs0mg"},{"bike_id":"b342debc-6228-45f2-a083-3ec61e39296f","system_id":"levelo_inurba_marseille","lat":43.29543,"lon":5.394,"is_reserved":false,"is_disabled":false,"rental_uris":{"android":"levelo://app?vid=b342debc-6228-45f2-a083-3ec61e39296f","ios":"levelo://app?vid=b342debc-6228-45f2-a083-3ec61e39296f"},"vehicle_type_id":"4","last_reported":1743779412,"current_range_meters":16800,"station_id":"ce4bh292rcd13ifvqdf0","pricing_plan_id":"cebpf4jnsgd1na2vs0mg"},{"bike_id":"01db9816-46d4-49c5-81cb-e613e3fb22bf","system_id":"levelo_inurba_marseille","lat":43.28623,"lon":5.35096,"is_reserved":false,"is_disabled":false,"rental_uris":{"android":"levelo://app?vid=01db9816-46d4-49c5-81cb-e613e3fb22bf","ios":"levelo://app?vid=01db9816-46d4-49c5-81cb-e613e3fb22bf"},"vehicle_type_id":"4","last_reported":1743779412,"current_range_meters":16800,"station_id":"ce4bhch2rcd13ifvqeug","pricing_plan_id":"cebpf4jnsgd1na2vs0mg"},{"bike_id":"4d0a0351-e349-4627-a8c5-4e2c58b75ff2","system_id":"levelo_inurba_marseille","lat":43.29611,"lon":5.38122,"is_reserved":false,"is_disabled":false,"rental_uris":{"android":"levelo://app?vid=4d0a0351-e349-4627-a8c5-4e2c58b75ff2","ios":"levelo://app?vid=4d0a0351-e349-4627-a8c5-4e2c58b75ff2"},"vehicle_type_id":"4","last_reported":1743779412,"current_range_meters":16800,"station_id":"ce4bgl12rcd13ifvqbo0","pricing_plan_id":"cebpf4jnsgd1na2vs0mg"},{"bike_id":"5b8d1103-1921-4c53-912e-93d122cd3cdc","system_id":"levelo_inurba_marseille","lat":43.24364,"lon":5.37127,"is_reserved":false,"is_disabled":true,"rental_uris":{"android":"levelo://app?vid=5b8d1103-1921-4c53-912e-93d122cd3cdc","ios":"levelo://app?vid=5b8d1103-1921-4c53-912e-93d122cd3cdc"},"vehicle_type_id":"4","last_reported":1743779412,"current_range_meters":16800,"station_id":"ce4bhhh2rcd13ifvqfk0","pricing_plan_id":"cebpf4jnsgd1na2vs0mg"},{"bike_id":"89709091-486f-4116-b203-524c8e73acee","system_id":"levelo_inurba_marseille","lat":43.32339,"lon":5.40617,"is_reserved":false,"is_disabled":false,"rental_uris":{"android":"levelo://app?vid=89709091-486f-4116-b203-524c8e73acee","ios":"levelo://app?vid=89709091-486f-4116-b203-524c8e73acee"},"vehicle_type_id":"4","last_reported":1743779412,"current_range_meters":17200,"station_id":"ce4bhq92rcd13ifvqhjg","pricing_plan_id":"cebpf4jnsgd1na2vs0mg"},{"bike_id":"cd96f45a-df90-4110-b263-67b214994ddd","system_id":"levelo_inurba_marseille","lat":43.30593,"lon":5.39365,"is_reserved":false,"is_disabled":false,"rental_uris":{"android":"levelo://app?vid=cd96f45a-df90-4110-b263-67b214994ddd","ios":"levelo://app?vid=cd96f45a-df90-4110-b263-67b214994ddd"},"vehicle_type_id":"4","last_reported":1743779412,"current_range_meters":17200,"station_id":"ce4bh0p2rcd13ifvqd80","pricing_plan_id":"cebpf4jnsgd1na2vs0mg"},{"bike_id":"f5af90c2-9215-46a4-9984-9aced5d41d13","system_id":"levelo_inurba_marseille","lat":43.29251,"lon":5.40914,"is_reserved":false,"is_disabled":false,"rental_uris":{"android":"levelo://app?vid=f5af90c2-9215-46a4-9984-9aced5d41d13","ios":"levelo://app?vid=f5af90c2-9215-46a4-9984-9aced5d41d13"},"vehicle_type_id":"4","last_reported":1743779412,"current_range_meters":17200,"station_id":"ce4bh192rcd13ifvqdc0","pricing_plan_id":"cebpf4jnsgd1na2vs0mg"},{"bike_id":"dabdb4a0-a190-4781-a978-36db6194def8","system_id":"levelo_inurba_marseille","lat":43.27368,"lon":5.3626,"is_reserved":false,"is_disabled":false,"rental_uris":{"android":"levelo://app?vid=dabdb4a0-a190-4781-a978-36db6194def8","ios":"levelo://app?vid=dabdb4a0-a190-4781-a978-36db6194def8"},"vehicle_type_id":"4","last_reported":1743779412,"current_range_meters":17200,"station_id":"ce4bhbh2rcd13ifvqeo0","pricing_plan_id":"cebpf4jnsgd1na2vs0mg"},{"bike_id":"1f796f8f-e19b-4ce7-a2e6-d147870da191","system_id":"levelo_inurba_marseille","lat":43.27199,"lon":5.40989,"is_reserved":false,"is_disabled":false,"rental_uris":{"android":"levelo://app?vid=1f796f8f-e19b-4ce7-a2e6-d147870da191","ios":"levelo://app?vid=1f796f8f-e19b-4ce7-a2e6-d147870da191"},"vehicle_type_id":"4","last_reported":1743779412,"current_range_meters":17600,"station_id":"ce4bhl12rcd13ifvqgf0","pricing_plan_id":"cebpf4jnsgd1na2vs0mg"},{"bike_id":"bfc2baa0-a6ff-4840-a313-dfed6bead8c3","system_id":"levelo_inurba_marseille","lat":43.30464,"lon":5.37913,"is_reserved":false,"is_disabled":false,"rental_uris":{"android":"levelo://app?vid=bfc2baa0-a6ff-4840-a313-dfed6bead8c3","ios":"levelo://app?vid=bfc2baa0-a6ff-4840-a313-dfed6bead8c3"},"vehicle_type_id":"4","last_reported":1743779412,"current_range_meters":17600,"station_id":"ce4bgup2rcd13ifvqcn0","pricing_plan_id":"cebpf4jnsgd1na2vs0mg"},{"bike_id":"d2a07d60-57ab-498a-9a05-2527f7931b4d","system_id":"levelo_inurba_marseille","lat":43.230591,"lon":5.354898,"is_reserved":false,"is_disabled":false,"rental_uris":{"android":"levelo://app?vid=d2a07d60-57ab-498a-9a05-2527f7931b4d","ios":"levelo://app?vid=d2a07d60-57ab-498a-9a05-2527f7931b4d"},"vehicle_type_id":"4","last_reported":1743779412,"current_range_meters":17600,"station_id":"cpo3342slgdg3j2ifvpg","pricing_plan_id":"cebpf4jnsgd1na2vs0mg"},{"bike_id":"ed81289f-b9f3-4d86-9f8f-d8896cd8f07f","system_id":"levelo_inurba_marseille","lat":43.30417,"lon":5.39751,"is_reserved":false,"is_disabled":true,"rental_uris":{"android":"levelo://app?vid=ed81289f-b9f3-4d86-9f8f-d8896cd8f07f","ios":"levelo://app?vid=ed81289f-b9f3-4d86-9f8f-d8896cd8f07f"},"vehicle_type_id":"4","last_reported":1743779412,"current_range_meters":17600,"station_id":"ce4bh092rcd13ifvqd20","pricing_plan_id":"cebpf4jnsgd1na2vs0mg"},{"bike_id":"94bbf571-4919-4cea-8c50-79e346f7dc11","system_id":"levelo_inurba_marseille","lat":43.32452,"lon":5.39121,"is_reserved":false,"is_disabled":false,"rental_uris":{"android":"levelo://app?vid=94bbf571-4919-4cea-8c50-79e346f7dc11","ios":"levelo://app?vid=94bbf571-4919-4cea-8c50-79e346f7dc11"},"vehicle_type_id":"4","last_reported":1743779412,"current_range_meters":17600,"station_id":"","pricing_plan_id":"cebpf4jnsgd1na2vs0mg"},{"bike_id":"449afdeb-635a-490e-8822-6a7264cb6184","system_id":"levelo_inurba_marseille","lat":43.309,"lon":5.3684,"is_reserved":false,"is_disabled":false,"rental_uris":{"android":"levelo://app?vid=449afdeb-635a-490e-8822-6a7264cb6184","ios":"levelo://app?vid=449afdeb-635a-490e-8822-6a7264cb6184"},"vehicle_type_id":"4","last_reported":1743779412,"current_range_meters":17600,"station_id":"ce4bgn92rcd13ifvqbvg","pricing_plan_id":"cebpf4jnsgd1na2vs0mg"},{"bike_id":"2c19d91b-e523-47f3-9eba-49c2b689947f","system_id":"levelo_inurba_marseille","lat":43.30419,"lon":5.38882,"is_reserved":false,"is_disabled":false,"rental_uris":{"android":"levelo://app?vid=2c19d91b-e523-47f3-9eba-49c2b689947f","ios":"levelo://app?vid=2c19d91b-e523-47f3-9eba-49c2b689947f"},"vehicle_type_id":"4","last_reported":1743779412,"current_range_meters":17600,"station_id":"ce4bgk12rcd13ifvqbi0","pricing_plan_id":"cebpf4jnsgd1na2vs0mg"},{"bike_id":"95c5837d-5bd2-431d-8887-6dfbedeba7a5","system_id":"levelo_inurba_marseille","lat":43.290434,"lon":5.370128,"is_reserved":false,"is_disabled":false,"rental_uris":{"android":"levelo://app?vid=95c5837d-5bd2-431d-8887-6dfbedeba7a5","ios":"levelo://app?vid=95c5837d-5bd2-431d-8887-6dfbedeba7a5"},"vehicle_type_id":"4","last_reported":1743779412,"current_range_meters":17600,"station_id":"ce4bhah2rcd13ifvqej0","pricing_plan_id":"cebpf4jnsgd1na2vs0mg"},{"bike_id":"77f9377f-7fa1-4152-9316-d69c0c77e248","system_id":"levelo_inurba_marseille","lat":43.30139,"lon":5.38787,"is_reserved":false,"is_disabled":true,"rental_uris":{"android":"levelo://app?vid=77f9377f-7fa1-4152-9316-d69c0c77e248","ios":"levelo://app?vid=77f9377f-7fa1-4152-9316-d69c0c77e248"},"vehicle_type_id":"4","last_reported":1743779412,"current_range_meters":18000,"station_id":"ce4bghh2rcd13ifvqb60","pricing_plan_id":"cebpf4jnsgd1na2vs0mg"},