{"last_updated":1747940873,"ttl":60,"version":"2.2","data":{"bikes":[{"bike_id":"c0b9fd4f-e181-46ce-b0bf-f5119973334f","system_id":"levelo_inurba_marseille","lat":43.33771,"lon":5.37424,"is_reserved":false,"is_disabled":true,"rental_uris":{"android":"levelo://app?vid=c0b9fd4f-e181-46ce-b0bf-f5119973334f","ios":"levelo://app?vid=c0b9fd4f-e181-46ce-b0bf-f5119973334f"},"vehicle_type_id":"4","last_reported":1747940873,"current_range_meters":0,"station_id":"","pricing_plan_id":"cebpf4jnsgd1na2vs0mg"},{"bike_id":"c306fa7d-481e-4ae3-9585-ff4c1f5ddcb9","system_id":"levelo_inurba_marseille","lat":43.3495,"lon":5.37891,"is_reserved":false,"is_disabled":true,"rental_uris":{"android":"levelo://app?vid=c306fa7d-481e-4ae3-9585-ff4c1f5ddcb9","ios":"levelo://app?vid=c306fa7d-481e-4ae3-9585-ff4c1f5ddcb9"},"vehicle_type_id":"4","last_reported":1747940873,"current_range_meters":0,"station_id":"","pricing_plan_id":"cebpf4jnsgd1na2vs0mg"},{"bike_id":"c2b4a03e-0b64-4ca0-8ea3-612bc6668100","system_id":"levelo_inurba_marseille","lat":43.31407,"lon":5.37547,"is_reserved":false,"is_disabled":true,"rental_uris":{"android":"levelo://app?vid=c2b4a03e-0b64-4ca0-8ea3-612bc6668100","ios":"levelo://app?vid=c2b4a03e-0b64-4ca0-8ea3-612bc6668100"},"vehicle_type_id":"4","last_reported":1747940873,"current_range_meters":0,"station_id":"","pricing_plan_id":"cebpf4jnsgd1na2vs0mg"},{"bike_id":"8f0f531d-6a65-4647-8a6f-baa3d982f42f","system_id":"levelo_inurba_marseille","lat":43.2812,"lon":5.42573,"is_reserved":false,"is_disabled":true,"rental_uris":{"android":"levelo://app?vid=8f0f531d-6a65-4647-8a6f-baa3d982f42f","ios":"levelo://app?vid=8f0f531d-6a65-4647-8a6f-baa3d982f42f"},"vehicle_type_id":"4","last_reported":1747940873,"current_range_meters":0,"station_id":"","pricing_plan_id":"cebpf4jnsgd1na2vs0mg"},{"bike_id":"a39feb78-45ea-48f2-bfec-45004cb27058","system_id":"levelo_inurba_marseille","lat":43.30737,"lon":5.41062,"is_reserved":false,"is_disabled":true,"rental_uris":{"android":"levelo://app?vid=a39feb78-45ea-48f2-bfec-45004cb27058","ios":"levelo://app?vid=a39feb78-45ea-48f2-bfec-45004cb27058"},"vehicle_type_id":"4","last_reported":1747940873,"current_range_meters":0,"station_id":"","pricing_plan_id":"cebpf4jnsgd1na2vs0mg"},{"bike_id":"70c5c5ad-5e66-4a49-9450-c4d67d96b788","system_id":"levelo_inurba_marseille","lat":43.27136,"lon":5.42722,"is_reserved":false,"is_disabled":true,"rental_uris":{"android":"levelo://app?vid=70c5c5ad-5e66-4a49-9450-c4d67d96b788","ios":"levelo://app?vid=70c5c5ad-5e66-4a49-9450-c4d67d96b788"},"vehicle_type_id":"4","last_reported":1747940873,"current_range_meters":0,"station_id":"","pricing_plan_id":"cebpf4jnsgd1na2vs0mg"},{"bike_id":"9913adaa-d53d-44af-8cc0-e1c41d052752","system_id":"levelo_inurba_marseille","lat":43.27976,"lon":5.3863,"is_reserved":false,"is_disabled":true,"rental_uris":{"android":"levelo://app?vid=9913adaa-d53d-44af-8cc0-e1c41d052752","ios":"levelo://app?vid=9913adaa-d53d-44af-8cc0-e1c41d052752"},"vehicle_type_id":"4","last_reported":1747940873,"current_range_meters":0,"station_id":"","pricing_plan_id":"cebpf4jnsgd1na2vs0mg"},{"bike_id":"5281ff50-15a3-4882-a775-51088d6a98cc","system_id":"levelo_inurba_marseille","lat":43.31311,"lon":5.37863,"is_reserved":false,"is_disabled":true,"rental_uris":{"android":"levelo://app?vid=5281ff50-15a3-4882-a775-51088d6a98cc","ios":"levelo://app?vid=5281ff50-15a3-4882-a775-51088d6a98cc"},"vehicle_type_id":"4","last_reported":1747940873,"current_range_meters":0,"station_id":"","pricing_plan_id":"cebpf4jnsgd1na2vs0mg"},{"bike_id":"15dcdbbd-a41e-43eb-9ed6-26ec15ce7a50","system_id":"levelo_inurba_marseille","lat":43.21411,"lon":5.34114,"is_reserved":false,"is_disabled":true,"rental_uris":{"android":"levelo://app?vid=15dcdbbd-a41e-43eb-9ed6-26ec15ce7a50","ios":"levelo://app?vid=15dcdbbd-a41e-43eb-9ed6-26ec15ce7a50"},"vehicle_type_id":"4","last_reported":1747940873,"current_range_meters":0,"station_id":"","pricing_plan_id":"cebpf4jnsgd1na2vs0mg"},{"bike_id":"e9dd3aa4-b5e7-4480-926d-d7f537719bfa","system_id":"levelo_inurba_marseille","lat":43.230331,"lon":5.401847,"is_reserved":false,"is_disabled":true,"rental_uris":{"android":"levelo://app?vid=e9dd3aa4-b5e7-4480-926d-d7f537719bfa","ios":"levelo://app?vid=e9dd3aa4-b5e7-4480-926d-d7f537719bfa"},"vehicle_type_id":"4","last_reported":1747940873,"current_range_meters":0,"station_id":"","pricing_plan_id":"cebpf4jnsgd1na2vs0mg"},{"bike_id":"14603e41-b2dd-4757-a53c-2e366aa4f983","system_id":"levelo_inurba_marseille","lat":43.27002,"lon":5.42832,"is_reserved":false,"is_disabled":true,"rental_uris":{"android":"levelo://app?vid=14603e41-b2dd-4757-a53c-2e366aa4f983","ios":"levelo://app?vid=14603e41-b2dd-4757-a53c-2e366aa4f983"},"vehicle_type_id":"4","last_reported":1747940873,"current_range_meters":0,"station_id":"","pricing_plan_id":"cebpf4jnsgd1na2vs0mg"},{"bike_id":"47b12486-0c45-45d6-8f97-7304f7d9d39d","system_id":"levelo_inurba_marseille","lat":43.299225,"lon":5.365258,"is_reserved":false,"is_disabled":true,"rental_uris":{"android":"levelo://app?vid=47b12486-0c45-45d6-8f97-7304f7d9d39d","ios":"levelo://app?vid=47b12486-0c45-45d6-8f97-7304f7d9d39d"},"vehicle_type_id":"4","last_reported":1747940873,"current_range_meters":0,"station_id":"ce4bgpp2rcd13ifvqc3g","pricing_plan_id":"cebpf4jnsgd1na2vs0mg"},{"bike_id":"5f7c0e81-9f91-45a3-8a1f-8ece3621a1a3","system_id":"levelo_inurba_marseille","lat":43.30641,"lon":5.40094,"is_reserved":false,"is_disabled":true,"rental_uris":{"android":"levelo://app?vid=5f7c0e81-9f91-45a3-8a1f-8ece3621a1a3","ios":"levelo://app?vid=5f7c0e81-9f91-45a3-8a1f-8ece3621a1a3"},"vehicle_type_id":"4","last_reported":1747940873,"current_range_meters":0,"station_id":"ce4bh112rcd13ifvqda0","pricing_plan_id":"cebpf4jnsgd1na2vs0mg"},{"bike_id":"2a2f4f87-4abe-4e98-bf2a-f14cbb551e5a","system_id":"levelo_inurba_marseille","lat":43.28482,"lon":5.38596,"is_reserved":false,"is_disabled":true,"rental_uris":{"android":"levelo://app?vid=2a2f4f87-4abe-4e98-bf2a-f14cbb551e5a","ios":"levelo://app?vid=2a2f4f87-4abe-4e98-bf2a-f14cbb551e5a"},"vehicle_type_id":"4","last_reported":1747940873,"current_range_meters":0,"station_id":"ce4bh8p2rcd13ifvqeb0","pricing_plan_id":"cebpf4jnsgd1na2vs0mg"},{"bike_id":"d3e90464-3416-4e35-adfa-0d611704cad2","system_id":"levelo_inurba_marseille","lat":43.28848,"lon":5.35863,"is_reserved":false,"is_disabled":true,"rental_uris":{"android":"levelo://app?vid=d3e90464-3416-4e35-adfa-0d611704cad2","ios":"levelo://app?vid=d3e90464-3416-4e35-adfa-0d611704cad2"},"vehicle_type_id":"4","last_reported":1747940873,"current_range_meters":0,"station_id":"ce4bhb12rcd13ifvqem0","pricing_plan_id":"cebpf4jnsgd1na2vs0mg"},{"bike_id":"8fab68f3-a366-4047-ae6c-02bfd676cfcd","system_id":"levelo_inurba_marseille","lat":43.29001,"lon":5.35614,"is_reserved":false,"is_disabled":true,"rental_uris":{"android":"levelo://app?vid=8fab68f3-a366-4047-ae6c-02bfd676cfcd","ios":"levelo://app?vid=8fab68f3-a366-4047-ae6c-02bfd676cfcd"},"vehicle_type_id":"4","last_reported":1747940873,"current_range_meters":400,"station_id":"ce4bhb92rcd13ifvqen0","pricing_plan_id":"cebpf4jnsgd1na2vs0mg"},{"bike_id":"addacb63-eaa1-4b88-b2d5-f495030c26ce","system_id":"levelo_inurba_marseille","lat":43.231519,"lon":5.437217,"is_reserved":false,"is_disabled":true,"rental_uris":{"android":"levelo://app?vid=addacb63-eaa1-4b88-b2d5-f495030c26ce","ios":"levelo://app?vid=addacb63-eaa1-4b88-b2d5-f495030c26ce"},"vehicle_type_id":"4","last_reported":1747940873,"current_range_meters":400,"station_id":"ce4bhmp2rcd13ifvqgog","pricing_plan_id":"cebpf4jnsgd1na2vs0mg"},{"bike_id":"d8bc2224-be57-4968-9c83-9fa46f458984","system_id":"levelo_inurba_marseille","lat":43.28216,"lon":5.39046,"is_reserved":false,"is_disabled":true,"rental_uris":{"android":"levelo://app?vid=d8bc2224-be57-4968-9c83-9fa46f458984","ios":"levelo://app?vid=d8bc2224-be57-4968-9c83-9fa46f458984"},"vehicle_type_id":"4","last_reported":1747940873,"current_range_meters":800,"station_id":"","pricing_plan_id":"cebpf4jnsgd1na2vs0mg"},{"bike_id":"7b19d4ad-51b1-4733-95c9-dbbc071108f6","system_id":"levelo_inurba_marseille","lat":43.301331,"lon":5.398666,"is_reserved":false,"is_disabled":false,"rental_uris":{"android":"levelo://app?vid=7b19d4ad-51b1-4733-95c9-dbbc071108f6","ios":"levelo://app?vid=7b19d4ad-51b1-4733-95c9-dbbc071108f6"},"vehicle_type_id":"4","last_reported":1747940873,"current_range_meters":800,"station_id":"ce4bh0h2rcd13ifvqd40","pricing_plan_id":"cebpf4jnsgd1na2vs0mg"},{"bike_id":"ca1ef42c-a88e-4a5c-bdc1-61570156b583","system_id":"levelo_inurba_marseille","lat":43.23158,"lon":5.43702,"is_reserved":false,"is_disabled":true,"rental_uris":{"android":"levelo://app?vid=ca1ef42c-a88e-4a5c-bdc1-61570156b583","ios":"levelo://app?vid=ca1ef42c-a88e-4a5c-bdc1-61570156b583"},"vehicle_type_id":"4","last_reported":1747940873,"current_range_meters":800,"station_id":"ce4bhmp2rcd13ifvqgog","pricing_plan_id":"cebpf4jnsgd1na2vs0mg"},{"bike_id":"1a923fe3-9b61-4f75-993d-10058a181d6d","system_id":"levelo_inurba_marseille","lat":43.21759,"lon":5.34608,"is_reserved":false,"is_disabled":true,"rental_uris":{"android":"levelo://app?vid=1a923fe3-9b61-4f75-993d-10058a181d6d","ios":"levelo://app?vid=1a923fe3-9b61-4f75-993d-10058a181d6d"},"vehicle_type_id":"4","last_reported":1747940873,"current_range_meters":800,"station_id":"st_cvj6r9ubvosntc0bgbag","pricing_plan_id":"cebpf4jnsgd1na2vs0mg"},{"bike_id":"b078d83b-fa8d-4c74-bf67-e7d0a7aacf5b","system_id":"levelo_inurba_marseille","lat":43.28221,"lon":5.39062,"is_reserved":false,"is_disabled":true,"rental_uris":{"android":"levelo://app?vid=b078d83b-fa8d-4c74-bf67-e7d0a7aacf5b","ios":"levelo://app?vid=b078d83b-fa8d-4c74-bf67-e7d0a7aacf5b"},"vehicle_type_id":"4","last_reported":1747940873,"current_range_meters":1200,"station_id":"","pricing_plan_id":"cebpf4jnsgd1na2vs0mg"},{"bike_id":"ebe5d4d0-59bd-4df5-9342-baf4818e05f4","system_id":"levelo_inurba_marseille","lat":43.28721,"lon":5.37941,"is_reserved":false,"is_disabled":true,"rental_uris":{"android":"levelo://app?vid=ebe5d4d0-59bd-4df5-9342-baf4818e05f4","ios":"levelo://app?vid=ebe5d4d0-59bd-4df5-9342-baf4818e05f4"},"vehicle_type_id":"4","last_reported":1747940873,"current_range_meters":1200,"station_id":"ce4bh9p2rcd13ifvqec0","pricing_plan_id":"cebpf4jnsgd1na2vs0mg"},{"bike_id":"9a6ad15f-4d4a-4a83-b8b2-49f514fcaa5d","system_id":"levelo_inurba_marseille","lat":43.29023,"lon":5.38645,"is_reserved":false,"is_disabled":true,"rental_uris":{"android":"levelo://app?vid=9a6ad15f-4d4a-4a83-b8b2-49f514fcaa5d","ios":"levelo://app?vid=9a6ad15f-4d4a-4a83-b8b2-49f514fcaa5d"},"vehicle_type_id":"4","last_reported":1747940873,"current_range_meters":2000,"station_id":"ce4bh4p2rcd13ifvqe0g","pricing_plan_id":"cebpf4jnsgd1na2vs0mg"},{"bike_id":"e8162579-a5ad-485f-ad83-fec8a2ebe7e1","system_id":"levelo_inurba_marseille","lat":43.26826,"lon":5.39099,"is_reserved":false,"is_disabled":false,"rental_uris":{"android":"levelo://app?vid=e8162579-a5ad-485f-ad83-fec8a2ebe7e1","ios":"levelo://app?vid=e8162579-a5ad-485f-ad83-fec8a2ebe7e1"},"vehicle_type_id":"4","last_reported":1747940873,"current_range_meters":2800,"station_id":"","pricing_plan_id":"cebpf4jnsgd1na2vs0mg"},{"bike_id":"1ff4dd87-bf56-4ab1-8365-aad71fcb827c","system_id":"levelo_inurba_marseille","lat":43.32579,"lon":5.42719,"is_reserved":false,"is_disabled":false,"rental_uris":{"android":"levelo://app?vid=1ff4dd87-bf56-4ab1-8365-aad71fcb827c","ios":"levelo://app?vid=1ff4dd87-bf56-4ab1-8365-aad71fcb827c"},"vehicle_type_id":"4","last_reported":1747940873,"current_range_meters":2800,"station_id":"","pricing_plan_id":"cebpf4jnsgd1na2vs0mg"},{"bike_id":"b83bdac2-b7bb-4ef4-b134-d8e96985e78f","system_id":"levelo_inurba_marseille","lat":43.29312,"lon":5.37176,"is_reserved":false,"is_disabled":false,"rental_uris":{"android":"levelo://app?vid=b83bdac2-b7bb-4ef4-b134-d8e96985e78f","ios":"levelo://app?vid=b83bdac2-b7bb-4ef4-b134-d8e96985e78f"},"vehicle_type_id":"4","last_reported":1747940873,"current_range_meters":2800,"station_id":"ce4bgh92rcd13ifvqb40","pricing_plan_id":"cebpf4jnsgd1na2vs0mg"},{"bike_id":"1b9642a3-5ee4-4539-9726-f6cb55942bb9","system_id":"levelo_inurba_marseille","lat":43.30795,"lon":5.38154,"is_reserved":false,"is_disabled":false,"rental_uris":{"android":"levelo://app?vid=1b9642a3-5ee4-4539-9726-f6cb55942bb9","ios":"levelo://app?vid=1b9642a3-5ee4-4539-9726-f6cb55942bb9"},"vehicle_type_id":"4","last_reported":1747940873,"current_range_meters":2800,"station_id":"ce4bgt12rcd13ifvqce0","pricing_plan_id":"cebpf4jnsgd1na2vs0mg"},{"bike_id":"97fe2f74-9b39-44e2-ac88-0a0e79542215","system_id":"levelo_inurba_marseille","lat":43.29227,"lon":5.36066,"is_reserved":false,"is_disabled":false,"rental_uris":{"android":"levelo://app?vid=97fe2f74-9b39-44e2-ac88-0a0e79542215","ios":"levelo://app?vid=97fe2f74-9b39-44e2-ac88-0a0e79542215"},"vehicle_type_id":"4","last_reported":1747940873,"current_range_meters":3200,"station_id":"ce4bhbh2rcd13ifvqeqg","pricing_plan_id":"cebpf4jnsgd1na2vs0mg"},{"bike_id":"943a04db-5f70-4903-871f-bb6a80a94945","system_id":"levelo_inurba_marseille","lat":43.25857,"lon":5.39905,"is_reserved":false,"is_disabled":false,"rental_uris":{"android":"levelo://app?vid=943a04db-5f70-4903-871f-bb6a80a94945","ios":"levelo://app?vid=943a04db-5f70-4903-871f-bb6a80a94945"},"vehicle_type_id":"4","last_reported":1747940873,"current_range_meters":3200,"station_id":"ce4bhl92rcd13ifvqghg","pricing_plan_id":"cebpf4jnsgd1na2vs0mg"},{"bike_id":"2b2fd894-37b4-4e39-bc99-43441209a5ab","system_id":"levelo_inurba_marseille","lat":43.24164,"lon":5.36392,"is_reserved":false,"is_disabled":false,"rental_uris":{"android":"levelo://app?vid=2b2fd894-37b4-4e39-bc99-43441209a5ab","ios":"levelo://app?vid=2b2fd894-37b4-4e39-bc99-43441209a5ab"},"vehicle_type_id":"4","last_reported":1747940873,"current_range_meters":3200,"station_id":"cpo36qri1sfpv3e86is0","pricing_plan_id":"cebpf4jnsgd1na2vs0mg"},{"bike_id":"e2f336e0-58b6-4c1d-ad42-0d571f39f2b9","system_id":"levelo_inurba_marseille","lat":43.2963,"lon":5.40596,"is_reserved":false,"is_disabled":false,"rental_uris":{"android":"levelo://app?vid=e2f336e0-58b6-4c1d-ad42-0d571f39f2b9","ios":"levelo://app?vid=e2f336e0-58b6-4c1d-ad42-0d571f39f2b9"},"vehicle_type_id":"4","last_reported":1747940873,"current_range_meters":4400,"station_id":"ce4bh0h2rcd13ifvqd60","pricing_plan_id":"cebpf4jnsgd1na2vs0mg"},{"bike_id":"2018189b-acfb-40b7-80e7-870cc844a9f8","system_id":"levelo_inurba_marseille","lat":43.2869,"lon":5.37386,"is_reserved":false,"is_disabled":false,"rental_uris":{"android":"levelo://app?vid=2018189b-acfb-40b7-80e7-870cc844a9f8","ios":"levelo://app?vid=2018189b-acfb-40b7-80e7-870cc844a9f8"},"vehicle_type_id":"4","last_reported":1747940873,"current_range_meters":4400,"station_id":"ce4bh3p2rcd13ifvqdq0","pricing_plan_id":"cebpf4jnsgd1na2vs0mg"},{"bike_id":"ad0584f4-b811-45c2-be5b-15f9a4eb38d6","system_id":"levelo_inurba_marseille","lat":43.30883,"lon":5.39655,"is_reserved":false,"is_disabled":true,"rental_uris":{"android":"levelo://app?vid=ad0584f4-b811-45c2-be5b-15f9a4eb38d6","ios":"levelo://app?vid=ad0584f4-b811-45c2-be5b-15f9a4eb38d6"},"vehicle_type_id":"4","last_reported":1747940873,"current_range_meters":4800,"station_id":"ce4bh012rcd13ifvqcv0","pricing_plan_id":"cebpf4jnsgd1na2vs0mg"},{"bike_id":"a965f51f-aafb-4afe-bfe3-121b43346203","system_id":"levelo_inurba_marseille","lat":43.28005,"lon":5.40022,"is_reserved":false,"is_disabled":false,"rental_uris":{"android":"levelo://app?vid=a965f51f-aafb-4afe-bfe3-121b43346203","ios":"levelo://app?vid=a965f51f-aafb-4afe-bfe3-121b43346203"},"vehicle_type_id":"4","last_reported":1747940873,"current_range_meters":4800,"station_id":"ce4bho92rcd13ifvqh4g","pricing_plan_id":"cebpf4jnsgd1na2vs0mg"},{"bike_id":"abe05535-e77a-49d1-9030-e7e29fc62a9f","system_id":"levelo_inurba_marseille","lat":43.32339,"lon":5.40622,"is_reserved":false,"is_disabled":false,"rental_uris":{"android":"levelo://app?vid=abe05535-e77a-49d1-9030-e7e29fc62a9f","ios":"levelo://app?vid=abe05535-e77a-49d1-9030-e7e29fc62a9f"},"vehicle_type_id":"4","last_reported":1747940873,"current_range_meters":4800,"station_id":"ce4bhq92rcd13ifvqhjg","pricing_plan_id":"cebpf4jnsgd1na2vs0mg"},{"bike_id":"4724448e-ff22-492a-ad57-05a55b2e23eb","system_id":"levelo_inurba_marseille","lat":43.32338,"lon":5.406142,"is_reserved":false,"is_disabled":false,"rental_uris":{"android":"levelo://app?vid=4724448e-ff22-492a-ad57-05a55b2e23eb","ios":"levelo://app?vid=4724448e-ff22-492a-ad57-05a55b2e23eb"},"vehicle_type_id":"4","last_reported":1747940873,"current_range_meters":4800,"station_id":"ce4bhq92rcd13ifvqhjg","pricing_plan_id":"cebpf4jnsgd1na2vs0mg"},{"bike_id":"8573fcb1-9852-4bdf-9d7a-c6c4f060a892","system_id":"levelo_inurba_marseille","lat":43.29543,"lon":5.38537,"is_reserved":false,"is_disabled":false,"rental_uris":{"android":"levelo://app?vid=8573fcb1-9852-4bdf-9d7a-c6c4f060a892","ios":"levelo://app?vid=8573fcb1-9852-4bdf-9d7a-c6c4f060a892"},"vehicle_type_id":"4","last_reported":1747940873,"current_range_meters":5600,"station_id":"ce4bgih2rcd13ifvqba0","pricing_plan_id":"cebpf4jnsgd1na2vs0mg"},{"bike_id":"aefcd895-d95f-4cc6-9c28-0e143d90011a","system_id":"levelo_inurba_marseille","lat":43.29248,"lon":5.40895,"is_reserved":false,"is_disabled":false,"rental_uris":{"android":"levelo://app?vid=aefcd895-d95f-4cc6-9c28-0e143d90011a","ios":"levelo://app?vid=aefcd895-d95f-4cc6-9c28-0e143d90011a"},"vehicle_type_id":"4","last_reported":1747940873,"current_range_meters":5600,"station_id":"ce4bh192rcd13ifvqdc0","pricing_plan_id":"cebpf4jnsgd1na2vs0mg"},{"bike_id":"0fcb0883-bd59-40ff-b3a2-c7bc9655de75","system_id":"levelo_inurba_marseille","lat":43.248037,"lon":5.374557,"is_reserved":false,"is_disabled":false,"rental_uris":{"android":"levelo://app?vid=0fcb0883-bd59-40ff-b3a2-c7bc9655de75","ios":"levelo://app?vid=0fcb0883-bd59-40ff-b3a2-c7bc9655de75"},"vehicle_type_id":"4","last_reported":1747940873,"current_range_meters":5600,"station_id":"ce4bhgh2rcd13ifvqfb0","pricing_plan_id":"cebpf4jnsgd1na2vs0mg"},{"bike_id":"31907cb9-b067-459a-920f-da7df97f835b","system_id":"levelo_inurba_marseille","lat":43.25125,"lon":5.40305,"is_reserved":false,"is_disabled":false,"rental_uris":{"android":"levelo://app?vid=31907cb9-b067-459a-920f-da7df97f835b","ios":"levelo://app?vid=31907cb9-b067-459a-920f-da7df97f835b"},"vehicle_type_id":"4","last_reported":1747940873,"current_range_meters":5600,"station_id":"ce4bhlh2rcd13ifvqgig","pricing_plan_id":"cebpf4jnsgd1na2vs0mg"},{"bike_id":"06647e29-d7ab-4202-9627-c6888a7e1765","system_id":"levelo_inurba_marseille","lat":43.2927,"lon":5.40134,"is_reserved":false,"is_disabled":false,"rental_uris":{"android":"levelo://app?vid=06647e29-d7ab-4202-9627-c6888a7e1765","ios":"levelo://app?vid=06647e29-d7ab-4202-9627-c6888a7e1765"},"vehicle_type_id":"4","last_reported":1747940873,"current_range_meters":6000,"station_id":"","pricing_plan_id":"cebpf4jnsgd1na2vs0mg"},{"bike_id":"b5e11a81-2b3f-49e4-851a-0e4d42bd02f7","system_id":"levelo_inurba_marseille","lat":43.27787,"lon":5.39986,"is_reserved":false,"is_disabled":false,"rental_uris":{"android":"levelo://app?vid=b5e11a81-2b3f-49e4-851a-0e4d42bd02f7","ios":"levelo://app?vid=b5e11a81-2b3f-49e4-851a-0e4d42bd02f7"},"vehicle_type_id":"4","last_reported":1747940873,"current_range_meters":6000,"station_id":"","pricing_plan_id":"cebpf4jnsgd1na2vs0mg"},{"bike_id":"43d29fe6-535a-4f8b-a078-bd2191c3b1f7","system_id":"levelo_inurba_marseille","lat":43.2481,"lon":5.37458,"is_reserved":false,"is_disabled":false,"rental_uris":{"android":"levelo://app?vid=43d29fe6-535a-4f8b-a078-bd2191c3b1f7","ios":"levelo://app?vid=43d29fe6-535a-4f8b-a078-bd2191c3b1f7"},"vehicle_type_id":"4","last_reported":1747940873,"current_range_meters":6000,"station_id":"ce4bhgh2rcd13ifvqfb0","pricing_plan_id":"cebpf4jnsgd1na2vs0mg"},{"bike_id":"4aaa0c9a-06f9-4739-9a58-ee92848a6f4b","system_id":"levelo_inurba_marseille","lat":43.23196,"lon":5.35554,"is_reserved":false,"is_disabled":false,"rental_uris":{"android":"levelo://app?vid=4aaa0c9a-06f9-4739-9a58-ee92848a6f4b","ios":"levelo://app?vid=4aaa0c9a-06f9-4739-9a58-ee92848a6f4b"},"vehicle_type_id":"4","last_reported":1747940873,"current_range_meters":6000,"station_id":"ce4bhu92rcd13ifvqi70","pricing_plan_id":"cebpf4jnsgd1na2vs0mg"},{"bike_id":"76394c4d-3056-444e-93db-abd92353dc1c","system_id":"levelo_inurba_marseille","lat":43.23968,"lon":5.36658,"is_reserved":false,"is_disabled":false,"rental_uris":{"android":"levelo://app?vid=76394c4d-3056-444e-93db-abd92353dc1c","ios":"levelo://app?vid=76394c4d-3056-444e-93db-abd92353dc1c"},"vehicle_type_id":"4","last_reported":1747940873,"current_range_meters":6400,"station_id":"ce4bhi12rcd13ifvqfp0","pricing_plan_id":"cebpf4jnsgd1na2vs0mg"},{"bike_id":"372443bc-a541-4449-9be0-27538b42322d","system_id":"levelo_inurba_marseille","lat":43.24181,"lon":5.39732,"is_reserved":false,"is_disabled":false,"rental_uris":{"android":"levelo://app?vid=372443bc-a541-4449-9be0-27538b42322d","ios":"levelo://app?vid=372443bc-a541-4449-9be0-27538b42322d"},"vehicle_type_id":"4","last_reported":1747940873,"current_range_meters":6400,"station_id":"ce4bhn12rcd13ifvqgpg","pricing_plan_id":"cebpf4jnsgd1na2vs0mg"},{"bike_id":"db08c183-6f97-4923-adba-234bb3462975","system_id":"levelo_inurba_marseille","lat":43.29784,"lon":5.39381,"is_reserved":false,"is_disabled":false,"rental_uris":{"android":"levelo://app?vid=db08c183-6f97-4923-adba-234bb3462975","ios":"levelo://app?vid=db08c183-6f97-4923-adba-234bb3462975"},"vehicle_type_id":"4","last_reported":1747940873,"current_range_meters":6400,"station_id":"chh1huq6cuj3fo74tm60","pricing_plan_id":"cebpf4jnsgd1na2vs0mg"},{"bike_id":"35b62aa6-a570-48d8-8fff-f4a2c0f14560","system_id":"levelo_inurba_marseille","lat":43.22963,"lon":5.35374,"is_reserved":false,"is_disabled":false,"rental_uris":{"android":"levelo://app?vid=35b62aa6-a570-48d8-8fff-f4a2c0f14560","ios":"levelo://app?vid=35b62aa6-a570-48d8-8fff-f4a2c0f14560"},"vehicle_type_id":"4","last_reported":1747940873,"current_range_meters":6400,"station_id":"cpo3532slgdg3j2ikp40","pricing_plan_id":"cebpf4jnsgd1na2vs0mg"},{"bike_id":"fb0766af-0fd3-44cb-8636-60eaef39357b","system_id":"levelo_inurba_marseille","lat":43.29946,"lon":5.36546,"is_reserved":false,"is_disabled":false,"rental_uris":{"android":"levelo://app?vid=fb0766af-0fd3-44cb-8636-60eaef39357b","ios":"levelo://app?vid=fb0766af-0fd3-44cb-8636-60eaef39357b"},"vehicle_type_id":"4","last_reported":1747940873,"current_range_meters":6800,"station_id":"ce4bgm92rcd13ifvqbr0","pricing_plan_id":"cebpf4jnsgd1na2vs0mg"},{"bike_id":"c568310b-8e3e-4723-9a4b-810969bf7def","system_id":"levelo_inurba_marseille","lat":43.28941,"lon":5.36637,"is_reserved":false,"is_disabled":false,"rental_uris":{"android":"levelo://app?vid=c568310b-8e3e-4723-9a4b-810969bf7def","ios":"levelo://app?vid=c568310b-8e3e-4723-9a4b-810969bf7def"},"vehicle_type_id":"4","last_reported":1747940873,"current_range_meters":6800,"station_id":"ce4bhap2rcd13ifvqek0","pricing_plan_id":"cebpf4jnsgd1na2vs0mg"},{"bike_id":"be2d82ff-805a-4add-af75-f4819258d421","system_id":"levelo_inurba_marseille","lat":43.28623,"lon":5.35102,"is_reserved":false,"is_disabled":false,"rental_uris":{"android":"levelo://app?vid=be2d82ff-805a-4add-af75-f4819258d421","ios":"levelo://app?vid=be2d82ff-805a-4add-af75-f4819258d421"},"vehicle_type_id":"4","last_reported":1747940873,"current_range_meters":6800,"station_id":"ce4bhch2rcd13ifvqeug","pricing_plan_id":"cebpf4jnsgd1na2vs0mg"},{"bike_id":"2c0b40ab-8e6e-451c-9ca9-7ac68cabe65f","system_id":"levelo_inurba_marseille","lat":43.248068,"lon":5.3746,"is_reserved":false,"is_disabled":false,"rental_uris":{"android":"levelo://app?vid=2c0b40ab-8e6e-451c-9ca9-7ac68cabe65f","ios":"levelo://app?vid=2c0b40ab-8e6e-451c-9ca9-7ac68cabe65f"},"vehicle_type_id":"4","last_reported":1747940873,"current_range_meters":6800,"station_id":"ce4bhgh2rcd13ifvqfb0","pricing_plan_id":"cebpf4jnsgd1na2vs0mg"},{"bike_id":"e2455154-356a-4f3a-8479-d3896853ee35","system_id":"levelo_inurba_marseille","lat":43.27665,"lon":5.3889,"is_reserved":false,"is_disabled":false,"rental_uris":{"android":"levelo://app?vid=e2455154-356a-4f3a-8479-d3896853ee35","ios":"levelo://app?vid=e2455154-356a-4f3a-8479-d3896853ee35"},"vehicle_type_id":"4","last_reported":1747940873,"current_range_meters":6800,"station_id":"ce4bhi12rcd13ifvqfo0","pricing_plan_id":"cebpf4jnsgd1na2vs0mg"},{"bike_id":"eebfa399-9785-4fc2-b66a-eed62a9fa6a0","system_id":"levelo_inurba_marseille","lat":43.32331,"lon":5.40617,"is_reserved":false,"is_disabled":false,"rental_uris":{"android":"levelo://app?vid=eebfa399-9785-4fc2-b66a-eed62a9fa6a0","ios":"levelo://app?vid=eebfa399-9785-4fc2-b66a-eed62a9fa6a0"},"vehicle_type_id":"4","last_reported":1747940873,"current_range_meters":6800,"station_id":"ce4bhq92rcd13ifvqhjg","pricing_plan_id":"cebpf4jnsgd1na2vs0mg"},{"bike_id":"86372bb5-95c5-4c52-ace3-cc928bfacdc2","system_id":"levelo_inurba_marseille","lat":43.31756,"lon":5.39016,"is_reserved":false,"is_disabled":false,"rental_uris":{"android":"levelo://app?vid=86372bb5-95c5-4c52-ace3-cc928bfacdc2","ios":"levelo://app?vid=86372bb5-95c5-4c52-ace3-cc928bfacdc2"},"vehicle_type_id":"4","last_reported":1747940873,"current_range_meters":6800,"station_id":"ce4bhqp2rcd13ifvqhng","pricing_plan_id":"cebpf4jnsgd1na2vs0mg"},{"bike_id":"3fe3d6c4-138a-47df-b6b4-e6f19e8f7d46","system_id":"levelo_inurba_marseille","lat":43.21448,"lon":5.34129,"is_reserved":false,"is_disabled":false,"rental_uris":{"android":"levelo://app?vid=3fe3d6c4-138a-47df-b6b4-e6f19e8f7d46","ios":"levelo://app?vid=3fe3d6c4-138a-47df-b6b4-e6f19e8f7d46"},"vehicle_type_id":"4","last_reported":1747940873,"current_range_meters":7200,"station_id":"","pricing_plan_id":"cebpf4jnsgd1na2vs0mg"},{"bike_id":"0a6a1c3d-9db2-4b87-8e51-44e642d374ec","system_id":"levelo_inurba_marseille","lat":43.29001,"lon":5.35604,"is_reserved":false,"is_disabled":false,"rental_uris":{"android":"levelo://app?vid=0a6a1c3d-9db2-4b87-8e51-44e642d374ec","ios":"levelo://app?vid=0a6a1c3d-9db2-4b87-8e51-44e642d374ec"},"vehicle_type_id":"4","last_reported":1747940873,"current_range_meters":7200,"station_id":"ce4bhb92rcd13ifvqen0","pricing_plan_id":"cebpf4jnsgd1na2vs0mg"},{"bike_id":"490cfea9-fbaf-4353-81f0-ee1052d69c71","system_id":"levelo_inurba_marseille","lat":43.25488,"lon":5.37632,"is_reserved":false,"is_disabled":false,"rental_uris":{"android":"levelo://app?vid=490cfea9-fbaf-4353-81f0-ee1052d69c71","ios":"levelo://app?vid=490cfea9-fbaf-4353-81f0-ee1052d69c71"},"vehicle_type_id":"4","last_reported":1747940873,"current_range_meters":7200,"station_id":"ce4bhh12rcd13ifvqff0","pricing_plan_id":"cebpf4jnsgd1na2vs0mg"},{"bike_id":"7f374a0c-9ab4-412c-a8dd-1f59fe7a5317","system_id":"levelo_inurba_marseille","lat":43.25582,"lon":5.38223,"is_reserved":false,"is_disabled":false,"rental_uris":{"android":"levelo://app?vid=7f374a0c-9ab4-412c-a8dd-1f59fe7a5317","ios":"levelo://app?vid=7f374a0c-9ab4-412c-a8dd-1f59fe7a5317"},"vehicle_type_id":"4","last_reported":1747940873,"current_range_meters":7200,"station_id":"ce4bhih2rcd13ifvqfs0","pricing_plan_id":"cebpf4jnsgd1na2vs0mg"},{"bike_id":"61ad8ca8-73f6-42e8-9411-c6759f7b2769","system_id":"levelo_inurba_marseille","lat":43.26837,"lon":5.40251,"is_reserved":false,"is_disabled":false,"rental_uris":{"android":"levelo://app?vid=61ad8ca8-73f6-42e8-9411-c6759f7b2769","ios":"levelo://app?vid=61ad8ca8-73f6-42e8-9411-c6759f7b2769"},"vehicle_type_id":"4","last_reported":1747940873,"current_range_meters":7200,"station_id":"ce501612rcd8frsf0b60","pricing_plan_id":"cebpf4jnsgd1na2vs0mg"},{"bike_id":"89e09390-8395-42a3-b1a2-37774c706930","system_id":"levelo_inurba_marseille","lat":43.298837,"lon":5.383713,"is_reserved":false,"is_disabled":false,"rental_uris":{"android":"levelo://app?vid=89e09390-8395-42a3-b1a2-37774c706930","ios":"levelo://app?vid=89e09390-8395-42a3-b1a2-37774c706930"},"vehicle_type_id":"4","last_reported":1747940873,"current_range_meters":8000,"station_id":"","pricing_plan_id":"cebpf4jnsgd1na2vs0mg"},{"bike_id":"4d220435-47a8-4d82-80db-a1284cf3e4c5","system_id":"levelo_inurba_marseille","lat":43.28654,"lon":5.3877,"is_reserved":false,"is_disabled":false,"rental_uris":{"android":"levelo://app?vid=4d220435-47a8-4d82-80db-a1284cf3e4c5","ios":"levelo://app?vid=4d220435-47a8-4d82-80db-a1284cf3e4c5"},"vehicle_type_id":"4","last_reported":1747940873,"current_range_meters":8000,"station_id":"","pricing_plan_id":"cebpf4jnsgd1na2vs0mg"},{"bike_id":"ad4d8099-03a6-43ca-966f-189fb83ff678","system_id":"levelo_inurba_marseille","lat":43.3129,"lon":5.37382,"is_reserved":false,"is_disabled":false,"rental_uris":{"android":"levelo://app?vid=ad4d8099-03a6-43ca-966f-189fb83ff678","ios":"levelo://app?vid=ad4d8099-03a6-43ca-966f-189fb83ff678"},"vehicle_type_id":"4","last_reported":1747940873,"current_range_meters":8000,"station_id":"","pricing_plan_id":"cebpf4jnsgd1na2vs0mg"},{"bike_id":"52eeb79d-2f05-490f-8fa2-6b8e4be7a385","system_id":"levelo_inurba_marseille","lat":43.29333,"lon":5.37155,"is_reserved":false,"is_disabled":false,"rental_uris":{"android":"levelo://app?vid=52eeb79d-2f05-490f-8fa2-6b8e4be7a385","ios":"levelo://app?vid=52eeb79d-2f05-490f-8fa2-6b8e4be7a385"},"vehicle_type_id":"4","last_reported":1747940873,"current_range_meters":8000,"station_id":"ce4bgh92rcd13ifvqb40","pricing_plan_id":"cebpf4jnsgd1na2vs0mg"},{"bike_id":"63265a60-c285-439c-ba63-4b6a00263b8d","system_id":"levelo_inurba_marseille","lat":43.29536,"lon":5.38545,"is_reserved":false,"is_disabled":false,"rental_uris":{"android":"levelo://app?vid=63265a60-c285-439c-ba63-4b6a00263b8d","ios":"levelo://app?vid=63265a60-c285-439c-ba63-4b6a00263b8d"},"vehicle_type_id":"4","last_reported":1747940873,"current_range_meters":8000,"station_id":"ce4bgih2rcd13ifvqba0","pricing_plan_id":"cebpf4jnsgd1na2vs0mg"},{"bike_id":"d79da465-bd83-4ade-b08f-670493236b30","system_id":"levelo_inurba_marseille","lat":43.29419,"lon":5.38628,"is_reserved":false,"is_disabled":false,"rental_uris":{"android":"levelo://app?vid=d79da465-bd83-4ade-b08f-670493236b30","ios":"levelo://app?vid=d79da465-bd83-4ade-b08f-670493236b30"},"vehicle_type_id":"4","last_reported":1747940873,"current_range_meters":8000,"station_id":"ce4bh2h2rcd13ifvqdh0","pricing_plan_id":"cebpf4jnsgd1na2vs0mg"},{"bike_id":"b91980aa-60ff-467c-bd75-7d53cde9d475","system_id":"levelo_inurba_marseille","lat":43.25127,"lon":5.40363,"is_reserved":false,"is_disabled":false,"rental_uris":{"android":"levelo://app?vid=b91980aa-60ff-467c-bd75-7d53cde9d475","ios":"levelo://app?vid=b91980aa-60ff-467c-bd75-7d53cde9d475"},"vehicle_type_id":"4","last_reported":1747940873,"current_range_meters":8000,"station_id":"ce4bhlh2rcd13ifvqgig","pricing_plan_id":"cebpf4jnsgd1na2vs0mg"},{"bike_id":"3944f00c-e9fc-4706-a38a-ade0f43ef779","system_id":"levelo_inurba_marseille","lat":43.251,"lon":5.40354,"is_reserved":false,"is_disabled":false,"rental_uris":{"android":"levelo://app?vid=3944f00c-e9fc-4706-a38a-ade0f43ef779","ios":"levelo://app?vid=3944f00c-e9fc-4706-a38a-ade0f43ef779"},"vehicle_type_id":"4","last_reported":1747940873,"current_range_meters":8000,"station_id":"ce4bhlh2rcd13ifvqgig","pricing_plan_id":"cebpf4jnsgd1na2vs0mg"},{"bike_id":"d5ef9bfd-47f0-45d4-b59f-f18ac0ae1387","system_id":"levelo_inurba_marseille","lat":43.24073,"lon":5.37763,"is_reserved":false,"is_disabled":false,"rental_uris":{"android":"levelo://app?vid=d5ef9bfd-47f0-45d4-b59f-f18ac0ae1387","ios":"levelo://app?vid=d5ef9bfd-47f0-45d4-b59f-f18ac0ae1387"},"vehicle_type_id":"4","last_reported":1747940873,"current_range_meters":8000,"station_id":"ce4bhnp2rcd13ifvqgvg","pricing_plan_id":"cebpf4jnsgd1na2vs0mg"},{"bike_id":"25144f7d-166a-475a-a92b-56bcb5a7cd23","system_id":"levelo_inurba_marseille","lat":43.31714,"lon":5.43708,"is_reserved":false,"is_disabled":false,"rental_uris":{"android":"levelo://app?vid=25144f7d-166a-475a-a92b-56bcb5a7cd23","ios":"levelo://app?vid=25144f7d-166a-475a-a92b-56bcb5a7cd23"},"vehicle_type_id":"4","last_reported":1747940873,"current_range_meters":8000,"station_id":"ce4bhp92rcd13ifvqhcg","pricing_plan_id":"cebpf4jnsgd1na2vs0mg"},{"bike_id":"14feda73-7baf-4b64-8ae9-79f4fe7d4a5f","system_id":"levelo_inurba_marseille","lat":43.3234,"lon":5.36664,"is_reserved":false,"is_disabled":false,"rental_uris":{"android":"levelo://app?vid=14feda73-7baf-4b64-8ae9-79f4fe7d4a5f","ios":"levelo://app?vid=14feda73-7baf-4b64-8ae9-79f4fe7d4a5f"},"vehicle_type_id":"4","last_reported":1747940873,"current_range_meters":8000,"station_id":"ce4bhsh2rcd13ifvqi2g","pricing_plan_id":"cebpf4jnsgd1na2vs0mg"},{"bike_id":"aa0f4425-628b-49d0-baa8-3140441c8be2","system_id":"levelo_inurba_marseille","lat":43.3102,"lon":5.37104,"is_reserved":false,"is_disabled":false,"rental_uris":{"android":"levelo://app?vid=aa0f4425-628b-49d0-baa8-3140441c8be2","ios":"levelo://app?vid=aa0f4425-628b-49d0-baa8-3140441c8be2"},"vehicle_type_id":"4","last_reported":1747940873,"current_range_meters":8400,"station_id":"","pricing_plan_id":"cebpf4jnsgd1na2vs0mg"},{"bike_id":"7c923a08-e440-4ed9-8a55-ccefacf96a77","system_id":"levelo_inurba_marseille","lat":43.30879,"lon":5.3965,"is_reserved":false,"is_disabled":false,"rental_uris":{"android":"levelo://app?vid=7c923a08-e440-4ed9-8a55-ccefacf96a77","ios":"levelo://app?vid=7c923a08-e440-4ed9-8a55-ccefacf96a77"},"vehicle_type_id":"4","last_reported":1747940873,"current_range_meters":8400,"station_id":"ce4bh012rcd13ifvqcv0","pricing_plan_id":"cebpf4jnsgd1na2vs0mg"},{"bike_id":"5d40f843-37fb-45b4-84dc-e6201b72053c","system_id":"levelo_inurba_marseille","lat":43.28343,"lon":5.38111,"is_reserved":false,"is_disabled":false,"rental_uris":{"android":"levelo://app?vid=5d40f843-37fb-45b4-84dc-e6201b72053c","ios":"levelo://app?vid=5d40f843-37fb-45b4-84dc-e6201b72053c"},"vehicle_type_id":"4","last_reported":1747940873,"current_range_meters":8400,"station_id":"ce4bh412rcd13ifvqdr0","pricing_plan_id":"cebpf4jnsgd1na2vs0mg"},{"bike_id":"f828df3b-3fd6-424d-ad29-90fe94c76fbb","system_id":"levelo_inurba_marseille","lat":43.26938,"lon":5.38914,"is_reserved":false,"is_disabled":false,"rental_uris":{"android":"levelo://app?vid=f828df3b-3fd6-424d-ad29-90fe94c76fbb","ios":"levelo://app?vid=f828df3b-3fd6-424d-ad29-90fe94c76fbb"},"vehicle_type_id":"4","last_reported":1747940873,"current_range_meters":8400,"station_id":"ce4bhhh2rcd13ifvqfl0","pricing_plan_id":"cebpf4jnsgd1na2vs0mg"},{"bike_id":"8022b9c5-3b31-46a7-933d-93d8ae4cd439","system_id":"levelo_inurba_marseille","lat":43.25113,"lon":5.40325,"is_reserved":false,"is_disabled":false,"rental_uris":{"android":"levelo://app?vid=8022b9c5-3b31-46a7-933d-93d8ae4cd439","ios":"levelo://app?vid=8022b9c5-3b31-46a7-933d-93d8ae4cd439"},"vehicle_type_id":"4","last_reported":1747940873,"current_range_meters":8400,"station_id":"ce4bhlh2rcd13ifvqgig","pricing_plan_id":"cebpf4jnsgd1na2vs0mg"},{"bike_id":"02a52646-fecc-41d2-983b-5b9e6643aa91","system_id":"levelo_inurba_marseille","lat":43.32116,"lon":5.3678,"is_reserved":false,"is_disabled":false,"rental_uris":{"android":"levelo://app?vid=02a52646-fecc-41d2-983b-5b9e6643aa91","ios":"levelo://app?vid=02a52646-fecc-41d2-983b-5b9e6643aa91"},"vehicle_type_id":"4","last_reported":1747940873,"current_range_meters":8400,"station_id":"ce4bhrh2rcd13ifvqhug","pricing_plan_id":"cebpf4jnsgd1na2vs0mg"},{"bike_id":"cc359fb8-2073-4660-98ad-514ac13697d3","system_id":"levelo_inurba_marseille","lat":43.2319,"lon":5.35543,"is_reserved":false,"is_disabled":false,"rental_uris":{"android":"levelo://app?vid=cc359fb8-2073-4660-98ad-514ac13697d3","ios":"levelo://app?vid=cc359fb8-2073-4660-98ad-514ac13697d3"},"vehicle_type_id":"4","last_reported":1747940873,"current_range_meters":8400,"station_id":"ce4bhu92rcd13ifvqi70","pricing_plan_id":"cebpf4jnsgd1na2vs0mg"},{"bike_id":"fb1b05c5-68d7-4243-a4b9-1e154a7a78cf","system_id":"levelo_inurba_marseille","lat":43.3042,"lon":5.37216,"is_reserved":false,"is_disabled":false,"rental_uris":{"android":"levelo://app?vid=fb1b05c5-68d7-4243-a4b9-1e154a7a78cf","ios":"levelo://app?vid=fb1b05c5-68d7-4243-a4b9-1e154a7a78cf"},"vehicle_type_id":"4","last_reported":1747940873,"current_range_meters":8800,"station_id":"","pricing_plan_id":"cebpf4jnsgd1na2vs0mg"},{"bike_id":"cd2b9d97-3676-4c83-8e3b-aa4857457d9a","system_id":"levelo_inurba_marseille","lat":43.31502,"lon":5.37022,"is_reserved":false,"is_disabled":false,"rental_uris":{"android":"levelo://app?vid=cd2b9d97-3676-4c83-8e3b-aa4857457d9a","ios":"levelo://app?vid=cd2b9d97-3676-4c83-8e3b-aa4857457d9a"},"vehicle_type_id":"4","last_reported":1747940873,"current_range_meters":8800,"station_id":"","pricing_plan_id":"cebpf4jnsgd1na2vs0mg"},{"bike_id":"f9fb40c0-1fcd-48cb-8e26-3f2dc0fb2451","system_id":"levelo_inurba_marseille","lat":43.33751,"lon":5.37509,"is_reserved":false,"is_disabled":false,"rental_uris":{"android":"levelo://app?vid=f9fb40c0-1fcd-48cb-8e26-3f2dc0fb2451","ios":"levelo://app?vid=f9fb40c0-1fcd-48cb-8e26-3f2dc0fb2451"},"vehicle_type_id":"4","last_reported":1747940873,"current_range_meters":8800,"station_id":"","pricing_plan_id":"cebpf4jnsgd1na2vs0mg"},{"bike_id":"99cdac27-c02c-493b-b38b-9fc3ae626e93","system_id":"levelo_inurba_marseille","lat":43.2942,"lon":5.38642,"is_reserved":false,"is_disabled":false,"rental_uris":{"android":"levelo://app?vid=99cdac27-c02c-493b-b38b-9fc3ae626e93","ios":"levelo://app?vid=99cdac27-c02c-493b-b38b-9fc3ae626e93"},"vehicle_type_id":"4","last_reported":1747940873,"current_range_meters":8800,"station_id":"ce4bh2h2rcd13ifvqdh0","pricing_plan_id":"cebpf4jnsgd1na2vs0mg"},{"bike_id":"3f7a8f4c-6efe-4b9b-8ef2-ddefb1e2415b","system_id":"levelo_inurba_marseille","lat":43.27985,"lon":5.40011,"is_reserved":false,"is_disabled":false,"rental_uris":{"android":"levelo://app?vid=3f7a8f4c-6efe-4b9b-8ef2-ddefb1e2415b","ios":"levelo://app?vid=3f7a8f4c-6efe-4b9b-8ef2-ddefb1e2415b"},"vehicle_type_id":"4","last_reported":1747940873,"current_range_meters":8800,"station_id":"ce4bho92rcd13ifvqh4g","pricing_plan_id":"cebpf4jnsgd1na2vs0mg"},{"bike_id":"7840330f-1868-47b7-b454-a81947a4dcc6","system_id":"levelo_inurba_marseille","lat":43.217649,"lon":5.345967,"is_reserved":false,"is_disabled":false,"rental_uris":{"android":"levelo://app?vid=7840330f-1868-47b7-b454-a81947a4dcc6","ios":"levelo://app?vid=7840330f-1868-47b7-b454-a81947a4dcc6"},"vehicle_type_id":"4","last_reported":1747940873,"current_range_meters":8800,"station_id":"st_cvj6r9ubvosntc0bgbag","pricing_plan_id":"cebpf4jnsgd1na2vs0mg"},{"bike_id":"971c8a5c-db56-48ea-b476-188519cb0562","system_id":"levelo_inurba_marseille","lat":43.30065,"lon":5.40535,"is_reserved":false,"is_disabled":false,"rental_uris":{"android":"levelo://app?vid=971c8a5c-db56-48ea-b476-188519cb0562","ios":"levelo://app?vid=971c8a5c-db56-48ea-b476-188519cb0562"},"vehicle_type_id":"4","last_reported":1747940873,"current_range_meters":9200,"station_id":"","pricing_plan_id":"cebpf4jnsgd1na2vs0mg"},{"bike_id":"27653dcd-dec9-4f13-b172-8968c20c1725","system_id":"levelo_inurba_marseille","lat":43.23843,"lon":5.43088,"is_reserved":false,"is_disabled":false,"rental_uris":{"android":"levelo://app?vid=27653dcd-dec9-4f13-b172-8968c20c1725","ios":"levelo://app?vid=27653dcd-dec9-4f13-b172-8968c20c1725"},"vehicle_type_id":"4","last_reported":1747940873,"current_range_meters":9200,"station_id":"","pricing_plan_id":"cebpf4jnsgd1na2vs0mg"},{"bike_id":"f815841a-a6d5-436e-a5fd-d000eff2afc1","system_id":"levelo_inurba_marseille","lat":43.29615,"lon":5.37722,"is_reserved":false,"is_disabled":false,"rental_uris":{"android":"levelo://app?vid=f815841a-a6d5-436e-a5fd-d000eff2afc1","ios":"levelo://app?vid=f815841a-a6d5-436e-a5fd-d000eff2afc1"},"vehicle_type_id":"4","last_reported":1747940873,"current_range_meters":9200,"station_id":"ce4bgi92rcd13ifvqb90","pricing_plan_id":"cebpf4jnsgd1na2vs0mg"},{"bike_id":"9b906e30-4e4c-45ba-a70d-7934a7025749","system_id":"levelo_inurba_marseille","lat":43.29373,"lon":5.37846,"is_reserved":false,"is_disabled":false,"rental_uris":{"android":"levelo://app?vid=9b906e30-4e4c-45ba-a70d-7934a7025749","ios":"levelo://app?vid=9b906e30-4e4c-45ba-a70d-7934a7025749"},"vehicle_type_id":"4","last_reported":1747940873,"current_range_meters":9200,"station_id":"ce4bgjh2rcd13ifvqbf0","pricing_plan_id":"cebpf4jnsgd1na2vs0mg"},{"bike_id":"cccf666c-4f02-42c1-9bfc-040daa3f71ca","system_id":"levelo_inurba_marseille","lat":43.28942,"lon":5.36397,"is_reserved":false,"is_disabled":false,"rental_uris":{"android":"levelo://app?vid=cccf666c-4f02-42c1-9bfc-040daa3f71ca","ios":"levelo://app?vid=cccf666c-4f02-42c1-9bfc-040daa3f71ca"},"vehicle_type_id":"4","last_reported":1747940873,"current_range_meters":9200,"station_id":"ce4bhc92rcd13ifvqetg","pricing_plan_id":"cebpf4jnsgd1na2vs0mg"},{"bike_id":"40c1961e-6fde-4a19-9608-959fd903f308","system_id":"levelo_inurba_marseille","lat":43.24805,"lon":5.37456,"is_reserved":false,"is_disabled":false,"rental_uris":{"android":"levelo://app?vid=40c1961e-6fde-4a19-9608-959fd903f308","ios":"levelo://app?vid=40c1961e-6fde-4a19-9608-959fd903f308"},"vehicle_type_id":"4","last_reported":1747940873,"current_range_meters":9200,"station_id":"ce4bhgh2rcd13ifvqfb0","pricing_plan_id":"cebpf4jnsgd1na2vs0mg"},{"bike_id":"325a04d7-0c6c-4a4d-804e-27b29ba6514b","system_id":"levelo_inurba_marseille","lat":43.23959,"lon":5.36645,"is_reserved":false,"is_disabled":false,"rental_uris":{"android":"levelo://app?vid=325a04d7-0c6c-4a4d-804e-27b29ba6514b","ios":"levelo://app?vid=325a04d7-0c6c-4a4d-804e-27b29ba6514b"},"vehicle_type_id":"4","last_reported":1747940873,"current_range_meters":9200,"station_id":"ce4bhi12rcd13ifvqfp0","pricing_plan_id":"cebpf4jnsgd1na2vs0mg"},{"bike_id":"7aae4ae8-7818-4c68-aea7-b7f338b36e37","system_id":"levelo_inurba_marseille","lat":43.24066,"lon":5.37778,"is_reserved":false,"is_disabled":false,"rental_uris":{"android":"levelo://app?vid=7aae4ae8-7818-4c68-aea7-b7f338b36e37","ios":"levelo://app?vid=7aae4ae8-7818-4c68-aea7-b7f338b36e37"},"vehicle_type_id":"4","last_reported":1747940873,"current_range_meters":9200,"station_id":"ce4bhnp2rcd13ifvqgvg","pricing_plan_id":"cebpf4jnsgd1na2vs0mg"},{"bike_id":"b2421589-4e6b-4946-a0a8-9c5526af668b","system_id":"levelo_inurba_marseille","lat":43.24071,"lon":5.37768,"is_reserved":false,"is_disabled":false,"rental_uris":{"android":"levelo://app?vid=b2421589-4e6b-4946-a0a8-9c5526af668b","ios":"levelo://app?vid=b2421589-4e6b-4946-a0a8-9c5526af668b"},"vehicle_type_id":"4","last_reported":1747940873,"current_range_meters":9200,"station_id":"ce4bhnp2rcd13ifvqgvg","pricing_plan_id":"cebpf4jnsgd1na2vs0mg"},{"bike_id":"6a85369f-636f-4448-91f6-e3994a0fb52b","system_id":"levelo_inurba_marseille","lat":43.27764,"lon":5.38673,"is_reserved":false,"is_disabled":false,"rental_uris":{"android":"levelo://app?vid=6a85369f-636f-4448-91f6-e3994a0fb52b","ios":"levelo://app?vid=6a85369f-636f-4448-91f6-e3994a0fb52b"},"vehicle_type_id":"4","last_reported":1747940873,"current_range_meters":9600,"station_id":"","pricing_plan_id":"cebpf4jnsgd1na2vs0mg"},{"bike_id":"3022497e-9a24-4d16-b5d2-78aa7c07375d","system_id":"levelo_inurba_marseille","lat":43.290615,"lon":5.378205,"is_reserved":false,"is_disabled":false,"rental_uris":{"android":"levelo://app?vid=3022497e-9a24-4d16-b5d2-78aa7c07375d","ios":"levelo://app?vid=3022497e-9a24-4d16-b5d2-78aa7c07375d"},"vehicle_type_id":"4","last_reported":1747940873,"current_range_meters":9600,"station_id":"","pricing_plan_id":"cebpf4jnsgd1na2vs0mg"},{"bike_id":"2ea0f2a2-9fad-4119-9217-ecdf88dfc954","system_id":"levelo_inurba_marseille","lat":43.31076,"lon":5.383576,"is_reserved":false,"is_disabled":false,"rental_uris":{"android":"levelo://app?vid=2ea0f2a2-9fad-4119-9217-ecdf88dfc954","ios":"levelo://app?vid=2ea0f2a2-9fad-4119-9217-ecdf88dfc954"},"vehicle_type_id":"4","last_reported":1747940873,"current_range_meters":9600,"station_id":"ce4bgv92rcd13ifvqcr0","pricing_plan_id":"cebpf4jnsgd1na2vs0mg"},{"bike_id":"4e0bf339-b285-4f03-9706-f97bba80a7c6","system_id":"levelo_inurba_marseille","lat":43.3033,"lon":5.40446,"is_reserved":false,"is_disabled":false,"rental_uris":{"android":"levelo://app?vid=4e0bf339-b285-4f03-9706-f97bba80a7c6","ios":"levelo://app?vid=4e0bf339-b285-4f03-9706-f97bba80a7c6"},"vehicle_type_id":"4","last_reported":1747940873,"current_range_meters":9600,"station_id":"ce4bh012rcd13ifvqd10","pricing_plan_id":"cebpf4jnsgd1na2vs0mg"},{"bike_id":"eb9e69ee-a673-4de7-a7d4-d76f0b8ba8cd","system_id":"levelo_inurba_marseille","lat":43.2926,"lon":5.38443,"is_reserved":false,"is_disabled":false,"rental_uris":{"android":"levelo://app?vid=eb9e69ee-a673-4de7-a7d4-d76f0b8ba8cd","ios":"levelo://app?vid=eb9e69ee-a673-4de7-a7d4-d76f0b8ba8cd"},"vehicle_type_id":"4","last_reported":1747940873,"current_range_meters":9600,"station_id":"ce4bh692rcd13ifvqea0","pricing_plan_id":"cebpf4jnsgd1na2vs0mg"},{"bike_id":"26dffcce-923d-48d2-aeb9-22b9f556f70b","system_id":"levelo_inurba_marseille","lat":43.2802,"lon":5.36935,"is_reserved":false,"is_disabled":false,"rental_uris":{"android":"levelo://app?vid=26dffcce-923d-48d2-aeb9-22b9f556f70b","ios":"levelo://app?vid=26dffcce-923d-48d2-aeb9-22b9f556f70b"},"vehicle_type_id":"4","last_reported":1747940873,"current_range_meters":9600,"station_id":"ce4bha12rcd13ifvqef0","pricing_plan_id":"cebpf4jnsgd1na2vs0mg"},{"bike_id":"20ae026e-c822-42f2-842b-cfba7e3ffe2d","system_id":"levelo_inurba_marseille","lat":43.28421,"lon":5.34996,"is_reserved":false,"is_disabled":false,"rental_uris":{"android":"levelo://app?vid=20ae026e-c822-42f2-842b-cfba7e3ffe2d","ios":"levelo://app?vid=20ae026e-c822-42f2-842b-cfba7e3ffe2d"},"vehicle_type_id":"4","last_reported":1747940873,"current_range_meters":9600,"station_id":"ce4bhbh2rcd13ifvqepg","pricing_plan_id":"cebpf4jnsgd1na2vs0mg"},{"bike_id":"e61ffd66-609d-40f0-bfdc-1af5f284f921","system_id":"levelo_inurba_marseille","lat":43.28617,"lon":5.35099,"is_reserved":false,"is_disabled":false,"rental_uris":{"android":"levelo://app?vid=e61ffd66-609d-40f0-bfdc-1af5f284f921","ios":"levelo://app?vid=e61ffd66-609d-40f0-bfdc-1af5f284f921"},"vehicle_type_id":"4","last_reported":1747940873,"current_range_meters":9600,"station_id":"ce4bhch2rcd13ifvqeug","pricing_plan_id":"cebpf4jnsgd1na2vs0mg"},{"bike_id":"634cd4eb-86da-4d1a-adbb-ae26e13bb077","system_id":"levelo_inurba_marseille","lat":43.23191,"lon":5.3999,"is_reserved":false,"is_disabled":false,"rental_uris":{"android":"levelo://app?vid=634cd4eb-86da-4d1a-adbb-ae26e13bb077","ios":"levelo://app?vid=634cd4eb-86da-4d1a-adbb-ae26e13bb077"},"vehicle_type_id":"4","last_reported":1747940873,"current_range_meters":9600,"station_id":"ce4bhn12rcd13ifvqgqg","pricing_plan_id":"cebpf4jnsgd1na2vs0mg"},{"bike_id":"04024622-d518-4279-9a8f-62073e36f855","system_id":"levelo_inurba_marseille","lat":43.28148,"lon":5.42659,"is_reserved":false,"is_disabled":false,"rental_uris":{"android":"levelo://app?vid=04024622-d518-4279-9a8f-62073e36f855","ios":"levelo://app?vid=04024622-d518-4279-9a8f-62073e36f855"},"vehicle_type_id":"4","last_reported":1747940873,"current_range_meters":9600,"station_id":"ce4bhnh2rcd13ifvqgug","pricing_plan_id":"cebpf4jnsgd1na2vs0mg"},{"bike_id":"5b067b50-6e4c-494a-beaa-3dd5b487827c","system_id":"levelo_inurba_marseille","lat":43.28154,"lon":5.42654,"is_reserved":false,"is_disabled":false,"rental_uris":{"android":"levelo://app?vid=5b067b50-6e4c-494a-beaa-3dd5b487827c","ios":"levelo://app?vid=5b067b50-6e4c-494a-beaa-3dd5b487827c"},"vehicle_type_id":"4","last_reported":1747940873,"current_range_meters":9600,"station_id":"ce4bhnh2rcd13ifvqgug","pricing_plan_id":"cebpf4jnsgd1na2vs0mg"},{"bike_id":"687d6fd5-3612-4651-9259-cff764d854af","system_id":"levelo_inurba_marseille","lat":43.28209,"lon":5.39055,"is_reserved":false,"is_disabled":false,"rental_uris":{"android":"levelo://app?vid=687d6fd5-3612-4651-9259-cff764d854af","ios":"levelo://app?vid=687d6fd5-3612-4651-9259-cff764d854af"},"vehicle_type_id":"4","last_reported":1747940873,"current_range_meters":10000,"station_id":"","pricing_plan_id":"cebpf4jnsgd1na2vs0mg"},{"bike_id":"7dfdfdc8-9c79-46b6-9a4b-924773b53f29","system_id":"levelo_inurba_marseille","lat":43.2688,"lon":5.39165,"is_reserved":false,"is_disabled":false,"rental_uris":{"android":"levelo://app?vid=7dfdfdc8-9c79-46b6-9a4b-924773b53f29","ios":"levelo://app?vid=7dfdfdc8-9c79-46b6-9a4b-924773b53f29"},"vehicle_type_id":"4","last_reported":1747940873,"current_range_meters":10000,"station_id":"","pricing_plan_id":"cebpf4jnsgd1na2vs0mg"},{"bike_id":"f2078ae5-2f5e-4d79-b314-93d80adc7ac8","system_id":"levelo_inurba_marseille","lat":43.3047,"lon":5.38898,"is_reserved":false,"is_disabled":false,"rental_uris":{"android":"levelo://app?vid=f2078ae5-2f5e-4d79-b314-93d80adc7ac8","ios":"levelo://app?vid=f2078ae5-2f5e-4d79-b314-93d80adc7ac8"},"vehicle_type_id":"4","last_reported":1747940873,"current_range_meters":10000,"station_id":"ce4bgk12rcd13ifvqbi0","pricing_plan_id":"cebpf4jnsgd1na2vs0mg"},{"bike_id":"bc71ac0c-23e5-4f9f-8046-eae94d67cdf4","system_id":"levelo_inurba_marseille","lat":43.2481,"lon":5.374516,"is_reserved":false,"is_disabled":false,"rental_uris":{"android":"levelo://app?vid=bc71ac0c-23e5-4f9f-8046-eae94d67cdf4","ios":"levelo://app?vid=bc71ac0c-23e5-4f9f-8046-eae94d67cdf4"},"vehicle_type_id":"4","last_reported":1747940873,"current_range_meters":10000,"station_id":"ce4bhgh2rcd13ifvqfb0","pricing_plan_id":"cebpf4jnsgd1na2vs0mg"},{"bike_id":"d2154540-b55c-455c-bf22-0708547dd516","system_id":"levelo_inurba_marseille","lat":43.2511,"lon":5.40339,"is_reserved":false,"is_disabled":false,"rental_uris":{"android":"levelo://app?vid=d2154540-b55c-455c-bf22-0708547dd516","ios":"levelo://app?vid=d2154540-b55c-455c-bf22-0708547dd516"},"vehicle_type_id":"4","last_reported":1747940873,"current_range_meters":10000,"station_id":"ce4bhlh2rcd13ifvqgig","pricing_plan_id":"cebpf4jnsgd1na2vs0mg"},{"bike_id":"daa1fa20-a4fc-4e4c-a5e0-a46c69fa4a94","system_id":"levelo_inurba_marseille","lat":43.25101,"lon":5.40288,"is_reserved":false,"is_disabled":false,"rental_uris":{"android":"levelo://app?vid=daa1fa20-a4fc-4e4c-a5e0-a46c69fa4a94","ios":"levelo://app?vid=daa1fa20-a4fc-4e4c-a5e0-a46c69fa4a94"},"vehicle_type_id":"4","last_reported":1747940873,"current_range_meters":10000,"station_id":"ce4bhlh2rcd13ifvqgig","pricing_plan_id":"cebpf4jnsgd1na2vs0mg"},{"bike_id":"5dc9a4bd-3265-47eb-93b1-1ebd847847d8","system_id":"levelo_inurba_marseille","lat":43.31085,"lon":5.42431,"is_reserved":false,"is_disabled":false,"rental_uris":{"android":"levelo://app?vid=5dc9a4bd-3265-47eb-93b1-1ebd847847d8","ios":"levelo://app?vid=5dc9a4bd-3265-47eb-93b1-1ebd847847d8"},"vehicle_type_id":"4","last_reported":1747940873,"current_range_meters":10000,"station_id":"ce4bhp92rcd13ifvqhag","pricing_plan_id":"cebpf4jnsgd1na2vs0mg"},{"bike_id":"ca5d4306-f84c-4e20-9b88-830ffa4263d2","system_id":"levelo_inurba_marseille","lat":43.22929,"lon":5.35388,"is_reserved":false,"is_disabled":false,"rental_uris":{"android":"levelo://app?vid=ca5d4306-f84c-4e20-9b88-830ffa4263d2","ios":"levelo://app?vid=ca5d4306-f84c-4e20-9b88-830ffa4263d2"},"vehicle_type_id":"4","last_reported":1747940873,"current_range_meters":10000,"station_id":"cpo3532slgdg3j2ikp40","pricing_plan_id":"cebpf4jnsgd1na2vs0mg"},{"bike_id":"a4062ef2-e989-4693-8918-648da1d87629","system_id":"levelo_inurba_marseille","lat":43.31332,"lon":5.39686,"is_reserved":false,"is_disabled":false,"rental_uris":{"android":"levelo://app?vid=a4062ef2-e989-4693-8918-648da1d87629","ios":"levelo://app?vid=a4062ef2-e989-4693-8918-648da1d87629"},"vehicle_type_id":"4","last_reported":1747940873,"current_range_meters":10800,"station_id":"ce4bgvp2rcd13ifvqcu0","pricing_plan_id":"cebpf4jnsgd1na2vs0mg"},{"bike_id":"95f4869c-80ca-466f-9c75-2a87eba51561","system_id":"levelo_inurba_marseille","lat":43.29251,"lon":5.38444,"is_reserved":false,"is_disabled":false,"rental_uris":{"android":"levelo://app?vid=95f4869c-80ca-466f-9c75-2a87eba51561","ios":"levelo://app?vid=95f4869c-80ca-466f-9c75-2a87eba51561"},"vehicle_type_id":"4","last_reported":1747940873,"current_range_meters":10800,"station_id":"ce4bh692rcd13ifvqea0","pricing_plan_id":"cebpf4jnsgd1na2vs0mg"},{"bike_id":"77d351e7-4031-43fb-a118-368e81529b6f","system_id":"levelo_inurba_marseille","lat":43.28618,"lon":5.3513,"is_reserved":false,"is_disabled":false,"rental_uris":{"android":"levelo://app?vid=77d351e7-4031-43fb-a118-368e81529b6f","ios":"levelo://app?vid=77d351e7-4031-43fb-a118-368e81529b6f"},"vehicle_type_id":"4","last_reported":1747940873,"current_range_meters":10800,"station_id":"ce4bhch2rcd13ifvqeug","pricing_plan_id":"cebpf4jnsgd1na2vs0mg"},{"bike_id":"97cefe16-8a9e-44aa-b4cb-d578d05e2968","system_id":"levelo_inurba_marseille","lat":43.26812,"lon":5.40246,"is_reserved":false,"is_disabled":false,"rental_uris":{"android":"levelo://app?vid=97cefe16-8a9e-44aa-b4cb-d578d05e2968","ios":"levelo://app?vid=97cefe16-8a9e-44aa-b4cb-d578d05e2968"},"vehicle_type_id":"4","last_reported":1747940873,"current_range_meters":10800,"station_id":"ce501612rcd8frsf0b60","pricing_plan_id":"cebpf4jnsgd1na2vs0mg"},{"bike_id":"2c79757f-7004-45c9-9004-f9919279f8ed","system_id":"levelo_inurba_marseille","lat":43.29414,"lon":5.38631,"is_reserved":false,"is_disabled":false,"rental_uris":{"android":"levelo://app?vid=2c79757f-7004-45c9-9004-f9919279f8ed","ios":"levelo://app?vid=2c79757f-7004-45c9-9004-f9919279f8ed"},"vehicle_type_id":"4","last_reported":1747940873,"current_range_meters":11200,"station_id":"ce4bh2h2rcd13ifvqdh0","pricing_plan_id":"cebpf4jnsgd1na2vs0mg"},{"bike_id":"b959514a-aef1-4d48-ab37-83edd3b9f801","system_id":"levelo_inurba_marseille","lat":43.29073,"lon":5.37165,"is_reserved":false,"is_disabled":false,"rental_uris":{"android":"levelo://app?vid=b959514a-aef1-4d48-ab37-83edd3b9f801","ios":"levelo://app?vid=b959514a-aef1-4d48-ab37-83edd3b9f801"},"vehicle_type_id":"4","last_reported":1747940873,"current_range_meters":11200,"station_id":"ce4bh5p2rcd13ifvqe4g","pricing_plan_id":"cebpf4jnsgd1na2vs0mg"},{"bike_id":"c467d70e-4278-4e37-b14a-431c823e4be9","system_id":"levelo_inurba_marseille","lat":43.24806,"lon":5.37452,"is_reserved":false,"is_disabled":false,"rental_uris":{"android":"levelo://app?vid=c467d70e-4278-4e37-b14a-431c823e4be9","ios":"levelo://app?vid=c467d70e-4278-4e37-b14a-431c823e4be9"},"vehicle_type_id":"4","last_reported":1747940873,"current_range_meters":11200,"station_id":"ce4bhgh2rcd13ifvqfb0","pricing_plan_id":"cebpf4jnsgd1na2vs0mg"},{"bike_id":"97ebe8c6-51f4-4e9c-afba-5a56e66cb0eb","system_id":"levelo_inurba_marseille","lat":43.28073,"lon":5.39662,"is_reserved":false,"is_disabled":false,"rental_uris":{"android":"levelo://app?vid=97ebe8c6-51f4-4e9c-afba-5a56e66cb0eb","ios":"levelo://app?vid=97ebe8c6-51f4-4e9c-afba-5a56e66cb0eb"},"vehicle_type_id":"4","last_reported":1747940873,"current_range_meters":11200,"station_id":"ce4bho12rcd13ifvqh2g","pricing_plan_id":"cebpf4jnsgd1na2vs0mg"},{"bike_id":"c2ea5a9c-8fd7-40ac-8515-427466010d70","system_id":"levelo_inurba_marseille","lat":43.321108,"lon":5.367712,"is_reserved":false,"is_disabled":false,"rental_uris":{"android":"levelo://app?vid=c2ea5a9c-8fd7-40ac-8515-427466010d70","ios":"levelo://app?vid=c2ea5a9c-8fd7-40ac-8515-427466010d70"},"vehicle_type_id":"4","last_reported":1747940873,"current_range_meters":11200,"station_id":"ce4bhrh2rcd13ifvqhug","pricing_plan_id":"cebpf4jnsgd1na2vs0mg"},{"bike_id":"d662beb8-6bff-44d8-bfcd-a87643645acf","system_id":"levelo_inurba_marseille","lat":43.295,"lon":5.37412,"is_reserved":false,"is_disabled":false,"rental_uris":{"android":"levelo://app?vid=d662beb8-6bff-44d8-bfcd-a87643645acf","ios":"levelo://app?vid=d662beb8-6bff-44d8-bfcd-a87643645acf"},"vehicle_type_id":"4","last_reported":1747940873,"current_range_meters":11600,"station_id":"","pricing_plan_id":"cebpf4jnsgd1na2vs0mg"},{"bike_id":"67ebb424-d9dd-4f6d-8db3-a43b13551dc6","system_id":"levelo_inurba_marseille","lat":43.29533,"lon":5.38549,"is_reserved":false,"is_disabled":false,"rental_uris":{"android":"levelo://app?vid=67ebb424-d9dd-4f6d-8db3-a43b13551dc6","ios":"levelo://app?vid=67ebb424-d9dd-4f6d-8db3-a43b13551dc6"},"vehicle_type_id":"4","last_reported":1747940873,"current_range_meters":11600,"station_id":"ce4bgih2rcd13ifvqba0","pricing_plan_id":"cebpf4jnsgd1na2vs0mg"},{"bike_id":"fc478b53-8c86-4331-b685-e08cb1f0dc78","system_id":"levelo_inurba_marseille","lat":43.28423,"lon":5.35004,"is_reserved":false,"is_disabled":false,"rental_uris":{"android":"levelo://app?vid=fc478b53-8c86-4331-b685-e08cb1f0dc78","ios":"levelo://app?vid=fc478b53-8c86-4331-b685-e08cb1f0dc78"},"vehicle_type_id":"4","last_reported":1747940873,"current_range_meters":11600,"station_id":"ce4bhbh2rcd13ifvqepg","pricing_plan_id":"cebpf4jnsgd1na2vs0mg"},{"bike_id":"c0358390-a5a6-4b5e-98fc-bd5074dd0aa4","system_id":"levelo_inurba_marseille","lat":43.28442,"lon":5.39206,"is_reserved":false,"is_disabled":false,"rental_uris":{"android":"levelo://app?vid=c0358390-a5a6-4b5e-98fc-bd5074dd0aa4","ios":"levelo://app?vid=c0358390-a5a6-4b5e-98fc-bd5074dd0aa4"},"vehicle_type_id":"4","last_reported":1747940873,"current_range_meters":11600,"station_id":"ce4bhoh2rcd13ifvqh5g","pricing_plan_id":"cebpf4jnsgd1na2vs0mg"},{"bike_id":"f9223343-51dd-4eb0-a255-7d7bd8e5d0ef","system_id":"levelo_inurba_marseille","lat":43.31207,"lon":5.40183,"is_reserved":false,"is_disabled":false,"rental_uris":{"android":"levelo://app?vid=f9223343-51dd-4eb0-a255-7d7bd8e5d0ef","ios":"levelo://app?vid=f9223343-51dd-4eb0-a255-7d7bd8e5d0ef"},"vehicle_type_id":"4","last_reported":1747940873,"current_range_meters":12000,"station_id":"","pricing_plan_id":"cebpf4jnsgd1na2vs0mg"},{"bike_id":"30a0f11c-e3df-4890-88ec-1e71dd0556ec","system_id":"levelo_inurba_marseille","lat":43.2923,"lon":5.36079,"is_reserved":false,"is_disabled":false,"rental_uris":{"android":"levelo://app?vid=30a0f11c-e3df-4890-88ec-1e71dd0556ec","ios":"levelo://app?vid=30a0f11c-e3df-4890-88ec-1e71dd0556ec"},"vehicle_type_id":"4","last_reported":1747940873,"current_range_meters":12000,"station_id":"ce4bhbh2rcd13ifvqeqg","pricing_plan_id":"cebpf4jnsgd1na2vs0mg"},{"bike_id":"424f80e6-8b01-4846-9ead-0a6942eac04c","system_id":"levelo_inurba_marseille","lat":43.31335,"lon":5.39715,"is_reserved":false,"is_disabled":false,"rental_uris":{"android":"levelo://app?vid=424f80e6-8b01-4846-9ead-0a6942eac04c","ios":"levelo://app?vid=424f80e6-8b01-4846-9ead-0a6942eac04c"},"vehicle_type_id":"4","last_reported":1747940873,"current_range_meters":12400,"station_id":"ce4bgvp2rcd13ifvqcu0","pricing_plan_id":"cebpf4jnsgd1na2vs0mg"},{"bike_id":"39cba5ba-cc49-4a39-90b2-31612c6f7456","system_id":"levelo_inurba_marseille","lat":43.23962,"lon":5.3664,"is_reserved":false,"is_disabled":false,"rental_uris":{"android":"levelo://app?vid=39cba5ba-cc49-4a39-90b2-31612c6f7456","ios":"levelo://app?vid=39cba5ba-cc49-4a39-90b2-31612c6f7456"},"vehicle_type_id":"4","last_reported":1747940873,"current_range_meters":12400,"station_id":"ce4bhi12rcd13ifvqfp0","pricing_plan_id":"cebpf4jnsgd1na2vs0mg"},{"bike_id":"1772951c-64c7-46a8-b7bf-653ddc693cfd","system_id":"levelo_inurba_marseille","lat":43.231794,"lon":5.399882,"is_reserved":false,"is_disabled":false,"rental_uris":{"android":"levelo://app?vid=1772951c-64c7-46a8-b7bf-653ddc693cfd","ios":"levelo://app?vid=1772951c-64c7-46a8-b7bf-653ddc693cfd"},"vehicle_type_id":"4","last_reported":1747940873,"current_range_meters":12400,"station_id":"ce4bhn12rcd13ifvqgqg","pricing_plan_id":"cebpf4jnsgd1na2vs0mg"},{"bike_id":"84f00b51-2429-41be-8a43-83978d7764de","system_id":"levelo_inurba_marseille","lat":43.27993,"lon":5.40043,"is_reserved":false,"is_disabled":false,"rental_uris":{"android":"levelo://app?vid=84f00b51-2429-41be-8a43-83978d7764de","ios":"levelo://app?vid=84f00b51-2429-41be-8a43-83978d7764de"},"vehicle_type_id":"4","last_reported":1747940873,"current_range_meters":12400,"station_id":"ce4bho92rcd13ifvqh4g","pricing_plan_id":"cebpf4jnsgd1na2vs0mg"},{"bike_id":"bcbce528-f9d7-44b0-8e7c-a8ac87c23372","system_id":"levelo_inurba_marseille","lat":43.31086,"lon":5.42431,"is_reserved":false,"is_disabled":false,"rental_uris":{"android":"levelo://app?vid=bcbce528-f9d7-44b0-8e7c-a8ac87c23372","ios":"levelo://app?vid=bcbce528-f9d7-44b0-8e7c-a8ac87c23372"},"vehicle_type_id":"4","last_reported":1747940873,"current_range_meters":12400,"station_id":"ce4bhp92rcd13ifvqhag","pricing_plan_id":"cebpf4jnsgd1na2vs0mg"},{"bike_id":"d1702258-80c2-42ca-81ce-b1892e0d7e60","system_id":"levelo_inurba_marseille","lat":43.29434,"lon":5.39752,"is_reserved":false,"is_disabled":false,"rental_uris":{"android":"levelo://app?vid=d1702258-80c2-42ca-81ce-b1892e0d7e60","ios":"levelo://app?vid=d1702258-80c2-42ca-81ce-b1892e0d7e60"},"vehicle_type_id":"4","last_reported":1747940873,"current_range_meters":12800,"station_id":"ce4bh3h2rcd13ifvqdo0","pricing_plan_id":"cebpf4jnsgd1na2vs0mg"},{"bike_id":"e127e1d0-f912-4042-982a-6c09fc291d04","system_id":"levelo_inurba_marseille","lat":43.29076,"lon":5.37172,"is_reserved":false,"is_disabled":false,"rental_uris":{"android":"levelo://app?vid=e127e1d0-f912-4042-982a-6c09fc291d04","ios":"levelo://app?vid=e127e1d0-f912-4042-982a-6c09fc291d04"},"vehicle_type_id":"4","last_reported":1747940873,"current_range_meters":12800,"station_id":"ce4bh5p2rcd13ifvqe4g","pricing_plan_id":"cebpf4jnsgd1na2vs0mg"},{"bike_id":"e496d50c-83a7-4110-9130-cb29abd86130","system_id":"levelo_inurba_marseille","lat":43.29267,"lon":5.38437,"is_reserved":false,"is_disabled":false,"rental_uris":{"android":"levelo://app?vid=e496d50c-83a7-4110-9130-cb29abd86130","ios":"levelo://app?vid=e496d50c-83a7-4110-9130-cb29abd86130"},"vehicle_type_id":"4","last_reported":1747940873,"current_range_meters":12800,"station_id":"ce4bh692rcd13ifvqea0","pricing_plan_id":"cebpf4jnsgd1na2vs0mg"},{"bike_id":"65709e04-dd2d-4829-ad4c-b8b87c733266","system_id":"levelo_inurba_marseille","lat":43.29268,"lon":5.38442,"is_reserved":false,"is_disabled":false,"rental_uris":{"android":"levelo://app?vid=65709e04-dd2d-4829-ad4c-b8b87c733266","ios":"levelo://app?vid=65709e04-dd2d-4829-ad4c-b8b87c733266"},"vehicle_type_id":"4","last_reported":1747940873,"current_range_meters":12800,"station_id":"ce4bh692rcd13ifvqea0","pricing_plan_id":"cebpf4jnsgd1na2vs0mg"},{"bike_id":"e77b9d43-a803-4f5c-912a-7a91f5e7da59","system_id":"levelo_inurba_marseille","lat":43.28425,"lon":5.34978,"is_reserved":false,"is_disabled":false,"rental_uris":{"android":"levelo://app?vid=e77b9d43-a803-4f5c-912a-7a91f5e7da59","ios":"levelo://app?vid=e77b9d43-a803-4f5c-912a-7a91f5e7da59"},"vehicle_type_id":"4","last_reported":1747940873,"current_range_meters":12800,"station_id":"ce4bhbh2rcd13ifvqepg","pricing_plan_id":"cebpf4jnsgd1na2vs0mg"},{"bike_id":"665b73db-847c-4162-be3a-f9fe18819e9a","system_id":"levelo_inurba_marseille","lat":43.28626,"lon":5.35089,"is_reserved":false,"is_disabled":false,"rental_uris":{"android":"levelo://app?vid=665b73db-847c-4162-be3a-f9fe18819e9a","ios":"levelo://app?vid=665b73db-847c-4162-be3a-f9fe18819e9a"},"vehicle_type_id":"4","last_reported":1747940873,"current_range_meters":12800,"station_id":"ce4bhch2rcd13ifvqeug","pricing_plan_id":"cebpf4jnsgd1na2vs0mg"},{"bike_id":"682e8c54-3f77-4582-937b-7490f31456f6","system_id":"levelo_inurba_marseille","lat":43.25864,"lon":5.39887,"is_reserved":false,"is_disabled":false,"rental_uris":{"android":"levelo://app?vid=682e8c54-3f77-4582-937b-7490f31456f6","ios":"levelo://app?vid=682e8c54-3f77-4582-937b-7490f31456f6"},"vehicle_type_id":"4","last_reported":1747940873,"current_range_meters":12800,"station_id":"ce4bhl92rcd13ifvqghg","pricing_plan_id":"cebpf4jnsgd1na2vs0mg"},{"bike_id":"82e0b8f7-3422-4587-ac56-37577d27ecdc","system_id":"levelo_inurba_marseille","lat":43.2624,"lon":5.40468,"is_reserved":false,"is_disabled":false,"rental_uris":{"android":"levelo://app?vid=82e0b8f7-3422-4587-ac56-37577d27ecdc","ios":"levelo://app?vid=82e0b8f7-3422-4587-ac56-37577d27ecdc"},"vehicle_type_id":"4","last_reported":1747940873,"current_range_meters":12800,"station_id":"ce4bhmh2rcd13ifvqgmg","pricing_plan_id":"cebpf4jnsgd1na2vs0mg"},{"bike_id":"b3344ccf-af21-4a59-b16c-eb13029cdccc","system_id":"levelo_inurba_marseille","lat":43.296227,"lon":5.377589,"is_reserved":false,"is_disabled":false,"rental_uris":{"android":"levelo://app?vid=b3344ccf-af21-4a59-b16c-eb13029cdccc","ios":"levelo://app?vid=b3344ccf-af21-4a59-b16c-eb13029cdccc"},"vehicle_type_id":"4","last_reported":1747940873,"current_range_meters":13600,"station_id":"ce4bgi92rcd13ifvqb90","pricing_plan_id":"cebpf4jnsgd1na2vs0mg"},{"bike_id":"1fcd0223-0c4e-4689-87a8-c35c85cde071","system_id":"levelo_inurba_marseille","lat":43.29509,"lon":5.394,"is_reserved":false,"is_disabled":false,"rental_uris":{"android":"levelo://app?vid=1fcd0223-0c4e-4689-87a8-c35c85cde071","ios":"levelo://app?vid=1fcd0223-0c4e-4689-87a8-c35c85cde071"},"vehicle_type_id":"4","last_reported":1747940873,"current_range_meters":13600,"station_id":"ce4bh292rcd13ifvqdf0","pricing_plan_id":"cebpf4jnsgd1na2vs0mg"},{"bike_id":"eaeb951c-8ba0-45ec-9224-4137b185a837","system_id":"levelo_inurba_marseille","lat":43.28424,"lon":5.34995,"is_reserved":false,"is_disabled":false,"rental_uris":{"android":"levelo://app?vid=eaeb951c-8ba0-45ec-9224-4137b185a837","ios":"levelo://app?vid=eaeb951c-8ba0-45ec-9224-4137b185a837"},"vehicle_type_id":"4","last_reported":1747940873,"current_range_meters":13600,"station_id":"ce4bhbh2rcd13ifvqepg","pricing_plan_id":"cebpf4jnsgd1na2vs0mg"},{"bike_id":"23d143d1-3ad0-448c-a704-752010e19e0b","system_id":"levelo_inurba_marseille","lat":43.25491,"lon":5.37661,"is_reserved":false,"is_disabled":false,"rental_uris":{"android":"levelo://app?vid=23d143d1-3ad0-448c-a704-752010e19e0b","ios":"levelo://app?vid=23d143d1-3ad0-448c-a704-752010e19e0b"},"vehicle_type_id":"4","last_reported":1747940873,"current_range_meters":13600,"station_id":"ce4bhh12rcd13ifvqff0","pricing_plan_id":"cebpf4jnsgd1na2vs0mg"},{"bike_id":"50170c98-e5dc-4924-8469-67ad32c60315","system_id":"levelo_inurba_marseille","lat":43.27197,"lon":5.40981,"is_reserved":false,"is_disabled":false,"rental_uris":{"android":"levelo://app?vid=50170c98-e5dc-4924-8469-67ad32c60315","ios":"levelo://app?vid=50170c98-e5dc-4924-8469-67ad32c60315"},"vehicle_type_id":"4","last_reported":1747940873,"current_range_meters":13600,"station_id":"ce4bhl12rcd13ifvqgf0","pricing_plan_id":"cebpf4jnsgd1na2vs0mg"},{"bike_id":"e3e19b90-9823-4b53-b8a7-4c599b3176c2","system_id":"levelo_inurba_marseille","lat":43.251107,"lon":5.403234,"is_reserved":false,"is_disabled":false,"rental_uris":{"android":"levelo://app?vid=e3e19b90-9823-4b53-b8a7-4c599b3176c2","ios":"levelo://app?vid=e3e19b90-9823-4b53-b8a7-4c599b3176c2"},"vehicle_type_id":"4","last_reported":1747940873,"current_range_meters":13600,"station_id":"ce4bhlh2rcd13ifvqgig","pricing_plan_id":"cebpf4jnsgd1na2vs0mg"},{"bike_id":"8d1870e3-eebf-4a4c-a21c-e3f24d9e7dcf","system_id":"levelo_inurba_marseille","lat":43.31524,"lon":5.38036,"is_reserved":false,"is_disabled":false,"rental_uris":{"android":"levelo://app?vid=8d1870e3-eebf-4a4c-a21c-e3f24d9e7dcf","ios":"levelo://app?vid=8d1870e3-eebf-4a4c-a21c-e3f24d9e7dcf"},"vehicle_type_id":"4","last_reported":1747940873,"current_range_meters":13600,"station_id":"ce4bhsp2rcd13ifvqi50","pricing_plan_id":"cebpf4jnsgd1na2vs0mg"},{"bike_id":"75e91607-f093-41b1-947a-69b62fe724b6","system_id":"levelo_inurba_marseille","lat":43.34704,"lon":5.34527,"is_reserved":false,"is_disabled":false,"rental_uris":{"android":"levelo://app?vid=75e91607-f093-41b1-947a-69b62fe724b6","ios":"levelo://app?vid=75e91607-f093-41b1-947a-69b62fe724b6"},"vehicle_type_id":"4","last_reported":1747940873,"current_range_meters":14000,"station_id":"","pricing_plan_id":"cebpf4jnsgd1na2vs0mg"},{"bike_id":"2c87c810-7a38-4e57-b8f4-53b1ff151be1","system_id":"levelo_inurba_marseille","lat":43.28631,"lon":5.35101,"is_reserved":false,"is_disabled":false,"rental_uris":{"android":"levelo://app?vid=2c87c810-7a38-4e57-b8f4-53b1ff151be1","ios":"levelo://app?vid=2c87c810-7a38-4e57-b8f4-53b1ff151be1"},"vehicle_type_id":"4","last_reported":1747940873,"current_range_meters":14000,"station_id":"ce4bhch2rcd13ifvqeug","pricing_plan_id":"cebpf4jnsgd1na2vs0mg"},{"bike_id":"45088ae6-0e74-4f3b-abe6-ef601e90e9f5","system_id":"levelo_inurba_marseille","lat":43.25501,"lon":5.37648,"is_reserved":false,"is_disabled":false,"rental_uris":{"android":"levelo://app?vid=45088ae6-0e74-4f3b-abe6-ef601e90e9f5","ios":"levelo://app?vid=45088ae6-0e74-4f3b-abe6-ef601e90e9f5"},"vehicle_type_id":"4","last_reported":1747940873,"current_range_meters":14000,"station_id":"ce4bhh12rcd13ifvqff0","pricing_plan_id":"cebpf4jnsgd1na2vs0mg"},{"bike_id":"eed511be-1a62-4434-a2ef-3b183c6b312b","system_id":"levelo_inurba_marseille","lat":43.3039,"lon":5.42482,"is_reserved":false,"is_disabled":false,"rental_uris":{"android":"levelo://app?vid=eed511be-1a62-4434-a2ef-3b183c6b312b","ios":"levelo://app?vid=eed511be-1a62-4434-a2ef-3b183c6b312b"},"vehicle_type_id":"4","last_reported":1747940873,"current_range_meters":14000,"station_id":"ce4bhoh2rcd13ifvqh6g","pricing_plan_id":"cebpf4jnsgd1na2vs0mg"},{"bike_id":"c17950ed-bd73-47e7-b2e0-366ac21ff70c","system_id":"levelo_inurba_marseille","lat":43.29068,"lon":5.37167,"is_reserved":false,"is_disabled":false,"rental_uris":{"android":"levelo://app?vid=c17950ed-bd73-47e7-b2e0-366ac21ff70c","ios":"levelo://app?vid=c17950ed-bd73-47e7-b2e0-366ac21ff70c"},"vehicle_type_id":"4","last_reported":1747940873,"current_range_meters":14400,"station_id":"ce4bh5p2rcd13ifvqe4g","pricing_plan_id":"cebpf4jnsgd1na2vs0mg"},{"bike_id":"73a670e9-bd87-4364-b1ce-1ce76196d507","system_id":"levelo_inurba_marseille","lat":43.23969,"lon":5.36627,"is_reserved":false,"is_disabled":false,"rental_uris":{"android":"levelo://app?vid=73a670e9-bd87-4364-b1ce-1ce76196d507","ios":"levelo://app?vid=73a670e9-bd87-4364-b1ce-1ce76196d507"},"vehicle_type_id":"4","last_reported":1747940873,"current_range_meters":14400,"station_id":"ce4bhi12rcd13ifvqfp0","pricing_plan_id":"cebpf4jnsgd1na2vs0mg"},{"bike_id":"2b4ea98d-9cf5-46a3-b61f-90473faf3650","system_id":"levelo_inurba_marseille","lat":43.24653,"lon":5.38166,"is_reserved":false,"is_disabled":false,"rental_uris":{"android":"levelo://app?vid=2b4ea98d-9cf5-46a3-b61f-90473faf3650","ios":"levelo://app?vid=2b4ea98d-9cf5-46a3-b61f-90473faf3650"},"vehicle_type_id":"4","last_reported":1747940873,"current_range_meters":14400,"station_id":"ce4bhih2rcd13ifvqfr0","pricing_plan_id":"cebpf4jnsgd1na2vs0mg"},{"bike_id":"60e4ed4d-cb67-42d1-aa59-cd42a0868b56","system_id":"levelo_inurba_marseille","lat":43.24187,"lon":5.39725,"is_reserved":false,"is_disabled":false,"rental_uris":{"android":"levelo://app?vid=60e4ed4d-cb67-42d1-aa59-cd42a0868b56","ios":"levelo://app?vid=60e4ed4d-cb67-42d1-aa59-cd42a0868b56"},"vehicle_type_id":"4","last_reported":1747940873,"current_range_meters":14400,"station_id":"ce4bhn12rcd13ifvqgpg","pricing_plan_id":"cebpf4jnsgd1na2vs0mg"},{"bike_id":"c25f5ad0-6345-4e6b-b0f7-8862fddc5c05","system_id":"levelo_inurba_marseille","lat":43.31121,"lon":5.3777,"is_reserved":false,"is_disabled":false,"rental_uris":{"android":"levelo://app?vid=c25f5ad0-6345-4e6b-b0f7-8862fddc5c05","ios":"levelo://app?vid=c25f5ad0-6345-4e6b-b0f7-8862fddc5c05"},"vehicle_type_id":"4","last_reported":1747940873,"current_range_meters":14800,"station_id":"ce4bgt92rcd13ifvqcg0","pricing_plan_id":"cebpf4jnsgd1na2vs0mg"},{"bike_id":"4a6bdf14-081c-441c-b2a9-29db624ff852","system_id":"levelo_inurba_marseille","lat":43.30137,"lon":5.39884,"is_reserved":false,"is_disabled":false,"rental_uris":{"android":"levelo://app?vid=4a6bdf14-081c-441c-b2a9-29db624ff852","ios":"levelo://app?vid=4a6bdf14-081c-441c-b2a9-29db624ff852"},"vehicle_type_id":"4","last_reported":1747940873,"current_range_meters":14800,"station_id":"ce4bh0h2rcd13ifvqd40","pricing_plan_id":"cebpf4jnsgd1na2vs0mg"},{"bike_id":"3b548a1e-9063-44d7-b5e4-dc73cd4eb45a","system_id":"levelo_inurba_marseille","lat":43.29425,"lon":5.38621,"is_reserved":false,"is_disabled":false,"rental_uris":{"android":"levelo://app?vid=3b548a1e-9063-44d7-b5e4-dc73cd4eb45a","ios":"levelo://app?vid=3b548a1e-9063-44d7-b5e4-dc73cd4eb45a"},"vehicle_type_id":"4","last_reported":1747940873,"current_range_meters":14800,"station_id":"ce4bh2h2rcd13ifvqdh0","pricing_plan_id":"cebpf4jnsgd1na2vs0mg"},{"bike_id":"b39909a3-c9c6-41c7-b6af-455b3b973cac","system_id":"levelo_inurba_marseille","lat":43.28267,"lon":5.35061,"is_reserved":false,"is_disabled":false,"rental_uris":{"android":"levelo://app?vid=b39909a3-c9c6-41c7-b6af-455b3b973cac","ios":"levelo://app?vid=b39909a3-c9c6-41c7-b6af-455b3b973cac"},"vehicle_type_id":"4","last_reported":1747940873,"current_range_meters":14800,"station_id":"ce4bhbp2rcd13ifvqerg","pricing_plan_id":"cebpf4jnsgd1na2vs0mg"},{"bike_id":"b17f4d77-4af5-4e2c-ba22-92595ad072e2","system_id":"levelo_inurba_marseille","lat":43.246522,"lon":5.388934,"is_reserved":false,"is_disabled":false,"rental_uris":{"android":"levelo://app?vid=b17f4d77-4af5-4e2c-ba22-92595ad072e2","ios":"levelo://app?vid=b17f4d77-4af5-4e2c-ba22-92595ad072e2"},"vehicle_type_id":"4","last_reported":1747940873,"current_range_meters":14800,"station_id":"ce4bhg12rcd13ifvqf60","pricing_plan_id":"cebpf4jnsgd1na2vs0mg"},{"bike_id":"d9cedd87-60a9-44d9-b244-855865e44d16","system_id":"levelo_inurba_marseille","lat":43.260334,"lon":5.3755,"is_reserved":false,"is_disabled":false,"rental_uris":{"android":"levelo://app?vid=d9cedd87-60a9-44d9-b244-855865e44d16","ios":"levelo://app?vid=d9cedd87-60a9-44d9-b244-855865e44d16"},"vehicle_type_id":"4","last_reported":1747940873,"current_range_meters":14800,"station_id":"ce4bhgh2rcd13ifvqfa0","pricing_plan_id":"cebpf4jnsgd1na2vs0mg"},{"bike_id":"ad28e2f8-38a2-4c91-945b-6eaeb4ede8f1","system_id":"levelo_inurba_marseille","lat":43.25112,"lon":5.40329,"is_reserved":false,"is_disabled":false,"rental_uris":{"android":"levelo://app?vid=ad28e2f8-38a2-4c91-945b-6eaeb4ede8f1","ios":"levelo://app?vid=ad28e2f8-38a2-4c91-945b-6eaeb4ede8f1"},"vehicle_type_id":"4","last_reported":1747940873,"current_range_meters":14800,"station_id":"ce4bhlh2rcd13ifvqgig","pricing_plan_id":"cebpf4jnsgd1na2vs0mg"},{"bike_id":"817348e2-fb05-4de7-96f6-c8b207cb8ed8","system_id":"levelo_inurba_marseille","lat":43.21184,"lon":5.35063,"is_reserved":false,"is_disabled":false,"rental_uris":{"android":"levelo://app?vid=817348e2-fb05-4de7-96f6-c8b207cb8ed8","ios":"levelo://app?vid=817348e2-fb05-4de7-96f6-c8b207cb8ed8"},"vehicle_type_id":"4","last_reported":1747940873,"current_range_meters":14800,"station_id":"st_cvj6sg6p6f1abm77japg","pricing_plan_id":"cebpf4jnsgd1na2vs0mg"},{"bike_id":"54849dcd-2947-4671-a6a5-128e0326b393","system_id":"levelo_inurba_marseille","lat":43.29974,"lon":5.4005,"is_reserved":false,"is_disabled":false,"rental_uris":{"android":"levelo://app?vid=54849dcd-2947-4671-a6a5-128e0326b393","ios":"levelo://app?vid=54849dcd-2947-4671-a6a5-128e0326b393"},"vehicle_type_id":"4","last_reported":1747940873,"current_range_meters":15200,"station_id":"","pricing_plan_id":"cebpf4jnsgd1na2vs0mg"},{"bike_id":"41bef200-0210-46a9-afd1-c001d345c4b0","system_id":"levelo_inurba_marseille","lat":43.33569,"lon":5.37827,"is_reserved":false,"is_disabled":false,"rental_uris":{"android":"levelo://app?vid=41bef200-0210-46a9-afd1-c001d345c4b0","ios":"levelo://app?vid=41bef200-0210-46a9-afd1-c001d345c4b0"},"vehicle_type_id":"4","last_reported":1747940873,"current_range_meters":15200,"station_id":"","pricing_plan_id":"cebpf4jnsgd1na2vs0mg"},{"bike_id":"4aa33abb-f8b1-4406-8249-c759069bc5ce","system_id":"levelo_inurba_marseille","lat":43.24654,"lon":5.38909,"is_reserved":false,"is_disabled":false,"rental_uris":{"android":"levelo://app?vid=4aa33abb-f8b1-4406-8249-c759069bc5ce","ios":"levelo://app?vid=4aa33abb-f8b1-4406-8249-c759069bc5ce"},"vehicle_type_id":"4","last_reported":1747940873,"current_range_meters":15200,"station_id":"ce4bhg12rcd13ifvqf60","pricing_plan_id":"cebpf4jnsgd1na2vs0mg"},{"bike_id":"356272d3-31fb-42a2-bddb-7056d8393b3b","system_id":"levelo_inurba_marseille","lat":43.28077,"lon":5.396557,"is_reserved":false,"is_disabled":false,"rental_uris":{"android":"levelo://app?vid=356272d3-31fb-42a2-bddb-7056d8393b3b","ios":"levelo://app?vid=356272d3-31fb-42a2-bddb-7056d8393b3b"},"vehicle_type_id":"4","last_reported":1747940873,"current_range_meters":15200,"station_id":"ce4bho12rcd13ifvqh2g","pricing_plan_id":"cebpf4jnsgd1na2vs0mg"},{"bike_id":"605be4bf-deee-4b33-a4cb-0294e9797557","system_id":"levelo_inurba_marseille","lat":43.230654,"lon":5.354994,"is_reserved":false,"is_disabled":false,"rental_uris":{"android":"levelo://app?vid=605be4bf-deee-4b33-a4cb-0294e9797557","ios":"levelo://app?vid=605be4bf-deee-4b33-a4cb-0294e9797557"},"vehicle_type_id":"4","last_reported":1747940873,"current_range_meters":15200,"station_id":"cpo3342slgdg3j2ifvpg","pricing_plan_id":"cebpf4jnsgd1na2vs0mg"},{"bike_id":"d427940c-0f05-4c46-8f3d-984e0fbe6816","system_id":"levelo_inurba_marseille","lat":43.303729,"lon":5.42491,"is_reserved":false,"is_disabled":false,"rental_uris":{"android":"levelo://app?vid=d427940c-0f05-4c46-8f3d-984e0fbe6816","ios":"levelo://app?vid=d427940c-0f05-4c46-8f3d-984e0fbe6816"},"vehicle_type_id":"4","last_reported":1747940873,"current_range_meters":16000,"station_id":"","pricing_plan_id":"cebpf4jnsgd1na2vs0mg"},{"bike_id":"232fc4c2-7d8b-423a-be5b-0ceace964d26","system_id":"levelo_inurba_marseille","lat":43.293,"lon":5.37471,"is_reserved":false,"is_disabled":false,"rental_uris":{"android":"levelo://app?vid=232fc4c2-7d8b-423a-be5b-0ceace964d26","ios":"levelo://app?vid=232fc4c2-7d8b-423a-be5b-0ceace964d26"},"vehicle_type_id":"4","last_reported":1747940873,"current_range_meters":16000,"station_id":"ce4bgi12rcd13ifvqb70","pricing_plan_id":"cebpf4jnsgd1na2vs0mg"},{"bike_id":"bf1fb60f-8f2e-471c-92df-1f449f543533","system_id":"levelo_inurba_marseille","lat":43.308502,"lon":5.396615,"is_reserved":false,"is_disabled":false,"rental_uris":{"android":"levelo://app?vid=bf1fb60f-8f2e-471c-92df-1f449f543533","ios":"levelo://app?vid=bf1fb60f-8f2e-471c-92df-1f449f543533"},"vehicle_type_id":"4","last_reported":1747940873,"current_range_meters":16000,"station_id":"ce4bh012rcd13ifvqcv0","pricing_plan_id":"cebpf4jnsgd1na2vs0mg"},{"bike_id":"d44b604c-5e8a-4278-992c-6e2865cc96b8","system_id":"levelo_inurba_marseille","lat":43.29228,"lon":5.36079,"is_reserved":false,"is_disabled":false,"rental_uris":{"android":"levelo://app?vid=d44b604c-5e8a-4278-992c-6e2865cc96b8","ios":"levelo://app?vid=d44b604c-5e8a-4278-992c-6e2865cc96b8"},"vehicle_type_id":"4","last_reported":1747940873,"current_range_meters":16000,"station_id":"ce4bhbh2rcd13ifvqeqg","pricing_plan_id":"cebpf4jnsgd1na2vs0mg"},{"bike_id":"f49ae62f-5f98-4b5a-99f5-ab387c6462b1","system_id":"levelo_inurba_marseille","lat":43.317176,"lon":5.437136,"is_reserved":false,"is_disabled":false,"rental_uris":{"android":"levelo://app?vid=f49ae62f-5f98-4b5a-99f5-ab387c6462b1","ios":"levelo://app?vid=f49ae62f-5f98-4b5a-99f5-ab387c6462b1"},"vehicle_type_id":"4","last_reported":1747940873,"current_range_meters":16000,"station_id":"ce4bhp92rcd13ifvqhcg","pricing_plan_id":"cebpf4jnsgd1na2vs0mg"},{"bike_id":"6dde22b3-be2c-4353-838d-05c85608e4d3","system_id":"levelo_inurba_marseille","lat":43.32358,"lon":5.36625,"is_reserved":false,"is_disabled":false,"rental_uris":{"android":"levelo://app?vid=6dde22b3-be2c-4353-838d-05c85608e4d3","ios":"levelo://app?vid=6dde22b3-be2c-4353-838d-05c85608e4d3"},"vehicle_type_id":"4","last_reported":1747940873,"current_range_meters":16000,"station_id":"ce4bhsh2rcd13ifvqi2g","pricing_plan_id":"cebpf4jnsgd1na2vs0mg"},{"bike_id":"53a0b361-b4b9-4fef-aa90-c2374a876d23","system_id":"levelo_inurba_marseille","lat":43.29376,"lon":5.3785,"is_reserved":false,"is_disabled":false,"rental_uris":{"android":"levelo://app?vid=53a0b361-b4b9-4fef-aa90-c2374a876d23","ios":"levelo://app?vid=53a0b361-b4b9-4fef-aa90-c2374a876d23"},"vehicle_type_id":"4","last_reported":1747940873,"current_range_meters":16400,"station_id":"ce4bgjh2rcd13ifvqbf0","pricing_plan_id":"cebpf4jnsgd1na2vs0mg"},{"bike_id":"e06f8d90-0758-4c99-ba06-91c855fc638c","system_id":"levelo_inurba_marseille","lat":43.28697,"lon":5.37391,"is_reserved":false,"is_disabled":false,"rental_uris":{"android":"levelo://app?vid=e06f8d90-0758-4c99-ba06-91c855fc638c","ios":"levelo://app?vid=e06f8d90-0758-4c99-ba06-91c855fc638c"},"vehicle_type_id":"4","last_reported":1747940873,"current_range_meters":16400,"station_id":"ce4bh3p2rcd13ifvqdq0","pricing_plan_id":"cebpf4jnsgd1na2vs0mg"},{"bike_id":"02d9e648-2b83-4abd-abaa-94a22f2aeef6","system_id":"levelo_inurba_marseille","lat":43.28366,"lon":5.38632,"is_reserved":false,"is_disabled":false,"rental_uris":{"android":"levelo://app?vid=02d9e648-2b83-4abd-abaa-94a22f2aeef6","ios":"levelo://app?vid=02d9e648-2b83-4abd-abaa-94a22f2aeef6"},"vehicle_type_id":"4","last_reported":1747940873,"current_range_meters":16400,"station_id":"ce4bh492rcd13ifvqdvg","pricing_plan_id":"cebpf4jnsgd1na2vs0mg"},{"bike_id":"8f5ad702-5ff8-41ee-b034-3d5a2428c0c5","system_id":"levelo_inurba_marseille","lat":43.251076,"lon":5.403224,"is_reserved":false,"is_disabled":false,"rental_uris":{"android":"levelo://app?vid=8f5ad702-5ff8-41ee-b034-3d5a2428c0c5","ios":"levelo://app?vid=8f5ad702-5ff8-41ee-b034-3d5a2428c0c5"},"vehicle_type_id":"4","last_reported":1747940873,"current_range_meters":16400,"station_id":"ce4bhlh2rcd13ifvqgig","pricing_plan_id":"cebpf4jnsgd1na2vs0mg"},{"bike_id":"7a174cf0-49bb-442b-9787-ed977ba34ca4","system_id":"levelo_inurba_marseille","lat":43.241816,"lon":5.397306,"is_reserved":false,"is_disabled":false,"rental_uris":{"android":"levelo://app?vid=7a174cf0-49bb-442b-9787-ed977ba34ca4","ios":"levelo://app?vid=7a174cf0-49bb-442b-9787-ed977ba34ca4"},"vehicle_type_id":"4","last_reported":1747940873,"current_range_meters":16400,"station_id":"ce4bhn12rcd13ifvqgpg","pricing_plan_id":"cebpf4jnsgd1na2vs0mg"},{"bike_id":"5fee235d-4f89-4968-8a96-e1366b043ab7","system_id":"levelo_inurba_marseille","lat":43.28154,"lon":5.42639,"is_reserved":false,"is_disabled":false,"rental_uris":{"android":"levelo://app?vid=5fee235d-4f89-4968-8a96-e1366b043ab7","ios":"levelo://app?vid=5fee235d-4f89-4968-8a96-e1366b043ab7"},"vehicle_type_id":"4","last_reported":1747940873,"current_range_meters":16400,"station_id":"ce4bhnh2rcd13ifvqgug","pricing_plan_id":"cebpf4jnsgd1na2vs0mg"},{"bike_id":"1e164eaf-2ffb-4814-9442-b43f6b5c9f80","system_id":"levelo_inurba_marseille","lat":43.24168,"lon":5.364068,"is_reserved":false,"is_disabled":false,"rental_uris":{"android":"levelo://app?vid=1e164eaf-2ffb-4814-9442-b43f6b5c9f80","ios":"levelo://app?vid=1e164eaf-2ffb-4814-9442-b43f6b5c9f80"},"vehicle_type_id":"4","last_reported":1747940873,"current_range_meters":16400,"station_id":"cpo36qri1sfpv3e86is0","pricing_plan_id":"cebpf4jnsgd1na2vs0mg"},{"bike_id":"1a340bac-8012-4c7c-b50a-247d19f083a9","system_id":"levelo_inurba_marseille","lat":43.22512,"lon":5.34796,"is_reserved":false,"is_disabled":false,"rental_uris":{"android":"levelo://app?vid=1a340bac-8012-4c7c-b50a-247d19f083a9","ios":"levelo://app?vid=1a340bac-8012-4c7c-b50a-247d19f083a9"},"vehicle_type_id":"4","last_reported":1747940873,"current_range_meters":16400,"station_id":"st_cvj5dfep6f1abm77gieg","pricing_plan_id":"cebpf4jnsgd1na2vs0mg"},{"bike_id":"beb93ece-8a2b-401d-b7e3-ad77b01ce941","system_id":"levelo_inurba_marseille","lat":43.21755,"lon":5.346024,"is_reserved":false,"is_disabled":false,"rental_uris":{"android":"levelo://app?vid=beb93ece-8a2b-401d-b7e3-ad77b01ce941","ios":"levelo://app?vid=beb93ece-8a2b-401d-b7e3-ad77b01ce941"},"vehicle_type_id":"4","last_reported":1747940873,"current_range_meters":16400,"station_id":"st_cvj6r9ubvosntc0bgbag","pricing_plan_id":"cebpf4jnsgd1na2vs0mg"},{"bike_id":"0e27a530-5aca-4bdb-bcfe-2711f03311f8","system_id":"levelo_inurba_marseille","lat":43.2176,"lon":5.3461,"is_reserved":false,"is_disabled":false,"rental_uris":{"android":"levelo://app?vid=0e27a530-5aca-4bdb-bcfe-2711f03311f8","ios":"levelo://app?vid=0e27a530-5aca-4bdb-bcfe-2711f03311f8"},"vehicle_type_id":"4","last_reported":1747940873,"current_range_meters":16400,"station_id":"st_cvj6r9ubvosntc0bgbag","pricing_plan_id":"cebpf4jnsgd1na2vs0mg"},{"bike_id":"cdb6d74e-9c68-4387-9984-de10b07ba04e","system_id":"levelo_inurba_marseille","lat":43.29519,"lon":5.38559,"is_reserved":false,"is_disabled":false,"rental_uris":{"android":"levelo://app?vid=cdb6d74e-9c68-4387-9984-de10b07ba04e","ios":"levelo://app?vid=cdb6d74e-9c68-4387-9984-de10b07ba04e"},"vehicle_type_id":"4","last_reported":1747940873,"current_range_meters":16800,"station_id":"ce4bgih2rcd13ifvqba0","pricing_plan_id":"cebpf4jnsgd1na2vs0mg"},{"bike_id":"1d690da7-7761-41f3-a6a0-1cae372ad2b2","system_id":"levelo_inurba_marseille","lat":43.29265,"lon":5.38444,"is_reserved":false,"is_disabled":false,"rental_uris":{"android":"levelo://app?vid=1d690da7-7761-41f3-a6a0-1cae372ad2b2","ios":"levelo://app?vid=1d690da7-7761-41f3-a6a0-1cae372ad2b2"},"vehicle_type_id":"4","last_reported":1747940873,"current_range_meters":16800,"station_id":"ce4bh692rcd13ifvqea0","pricing_plan_id":"cebpf4jnsgd1na2vs0mg"},{"bike_id":"b138d1cc-9fe4-4dad-b078-790748d99d8e","system_id":"levelo_inurba_marseille","lat":43.27375,"lon":5.36244,"is_reserved":false,"is_disabled":false,"rental_uris":{"android":"levelo://app?vid=b138d1cc-9fe4-4dad-b078-790748d99d8e","ios":"levelo://app?vid=b138d1cc-9fe4-4dad-b078-790748d99d8e"},"vehicle_type_id":"4","last_reported":1747940873,"current_range_meters":16800,"station_id":"ce4bhbh2rcd13ifvqeo0","pricing_plan_id":"cebpf4jnsgd1na2vs0mg"},{"bike_id":"59aa252f-9923-4da6-b784-702eb21726fb","system_id":"levelo_inurba_marseille","lat":43.25125,"lon":5.40364,"is_reserved":false,"is_disabled":false,"rental_uris":{"android":"levelo://app?vid=59aa252f-9923-4da6-b784-702eb21726fb","ios":"levelo://app?vid=59aa252f-9923-4da6-b784-702eb21726fb"},"vehicle_type_id":"4","last_reported":1747940873,"current_range_meters":16800,"station_id":"ce4bhlh2rcd13ifvqgig","pricing_plan_id":"cebpf4jnsgd1na2vs0mg"},{"bike_id":"6551eb7c-3b9e-4dfa-884c-9eb21912501f","system_id":"levelo_inurba_marseille","lat":43.28702,"lon":5.374,"is_reserved":false,"is_disabled":false,"rental_uris":{"android":"levelo://app?vid=6551eb7c-3b9e-4dfa-884c-9eb21912501f","ios":"levelo://app?vid=6551eb7c-3b9e-4dfa-884c-9eb21912501f"},"vehicle_type_id":"4","last_reported":1747940873,"current_range_meters":17200,"station_id":"ce4bh3p2rcd13ifvqdq0","pricing_plan_id":"cebpf4jnsgd1na2vs0mg"},{"bike_id":"d7b746e1-3616-450b-9002-35edb53f545b","system_id":"levelo_inurba_marseille","lat":43.28848,"lon":5.35851,"is_reserved":false,"is_disabled":false,"rental_uris":{"android":"levelo://app?vid=d7b746e1-3616-450b-9002-35edb53f545b","ios":"levelo://app?vid=d7b746e1-3616-450b-9002-35edb53f545b"},"vehicle_type_id":"4","last_reported":1747940873,"current_range_meters":17200,"station_id":"ce4bhb12rcd13ifvqem0","pricing_plan_id":"cebpf4jnsgd1na2vs0mg"},{"bike_id":"a798eef8-c007-4e16-853c-244b6e137a9a","system_id":"levelo_inurba_marseille","lat":43.28419,"lon":5.34986,"is_reserved":false,"is_disabled":false,"rental_uris":{"android":"levelo://app?vid=a798eef8-c007-4e16-853c-244b6e137a9a","ios":"levelo://app?vid=a798eef8-c007-4e16-853c-244b6e137a9a"},"vehicle_type_id":"4","last_reported":1747940873,"current_range_meters":17200,"station_id":"ce4bhbh2rcd13ifvqepg","pricing_plan_id":"cebpf4jnsgd1na2vs0mg"},{"bike_id":"c6bf2e46-fb2f-4485-b1e5-f93500b0678b","system_id":"levelo_inurba_marseille","lat":43.23064,"lon":5.35487,"is_reserved":false,"is_disabled":false,"rental_uris":{"android":"levelo://app?vid=c6bf2e46-fb2f-4485-b1e5-f93500b0678b","ios":"levelo://app?vid=c6bf2e46-fb2f-4485-b1e5-f93500b0678b"},"vehicle_type_id":"4","last_reported":1747940873,"current_range_meters":17200,"station_id":"cpo3342slgdg3j2ifvpg","pricing_plan_id":"cebpf4jnsgd1na2vs0mg"},{"bike_id":"44560ec7-b73c-4be4-8fc4-e72ecc8cd9bc","system_id":"levelo_inurba_marseille","lat":43.331307,"lon":5.382211,"is_reserved":false,"is_disabled":false,"rental_uris":{"android":"levelo://app?vid=44560ec7-b73c-4be4-8fc4-e72ecc8cd9bc","ios":"levelo://app?vid=44560ec7-b73c-4be4-8fc4-e72ecc8cd9bc"},"vehicle_type_id":"4","last_reported":1747940873,"current_range_meters":17600,"station_id":"","pricing_plan_id":"cebpf4jnsgd1na2vs0mg"},{"bike_id":"df26efee-d56a-45e6-872d-b61dbd90bd55","system_id":"levelo_inurba_marseille","lat":43.30425,"lon":5.38888,"is_reserved":false,"is_disabled":false,"rental_uris":{"android":"levelo://app?vid=df26efee-d56a-45e6-872d-b61dbd90bd55","ios":"levelo://app?vid=df26efee-d56a-45e6-872d-b61dbd90bd55"},"vehicle_type_id":"4","last_reported":1747940873,"current_range_meters":17600,"station_id":"ce4bgk12rcd13ifvqbi0","pricing_plan_id":"cebpf4jnsgd1na2vs0mg"},{"bike_id":"45c1fd32-0989-45c4-92f1-78ac7fb98b20","system_id":"levelo_inurba_marseille","lat":43.296,"lon":5.38097,"is_reserved":false,"is_disabled":false,"rental_uris":{"android":"levelo://app?vid=45c1fd32-0989-45c4-92f1-78ac7fb98b20","ios":"levelo://app?vid=45c1fd32-0989-45c4-92f1-78ac7fb98b20"},"vehicle_type_id":"4","last_reported":1747940873,"current_range_meters":17600,"station_id":"ce4bgl12rcd13ifvqbo0","pricing_plan_id":"cebpf4jnsgd1na2vs0mg"},{"bike_id":"a63517d6-1d09-4803-a217-893c80757b63","system_id":"levelo_inurba_marseille","lat":43.284305,"lon":5.349855,"is_reserved":false,"is_disabled":false,"rental_uris":{"android":"levelo://app?vid=a63517d6-1d09-4803-a217-893c80757b63","ios":"levelo://app?vid=a63517d6-1d09-4803-a217-893c80757b63"},"vehicle_type_id":"4","last_reported":1747940873,"current_range_meters":17600,"station_id":"ce4bhbh2rcd13ifvqepg","pricing_plan_id":"cebpf4jnsgd1na2vs0mg"},{"bike_id":"a2bc0a00-d5f7-4196-b98d-00d92aab98bc","system_id":"levelo_inurba_marseille","lat":43.24998,"lon":5.38931,"is_reserved":false,"is_disabled":false,"rental_uris":{"android":"levelo://app?vid=a2bc0a00-d5f7-4196-b98d-00d92aab98bc","ios":"levelo://app?vid=a2bc0a00-d5f7-4196-b98d-00d92aab98bc"},"vehicle_type_id":"4","last_reported":1747940873,"current_range_meters":17600,"station_id":"ce4bhgp2rcd13ifvqfd0","pricing_plan_id":"cebpf4jnsgd1na2vs0mg"},{"bike_id":"40295a92-0c71-4824-afc9-e9766e591a50","system_id":"levelo_inurba_marseille","lat":43.24166,"lon":5.39718,"is_reserved":false,"is_disabled":false,"rental_uris":{"android":"levelo://app?vid=40295a92-0c71-4824-afc9-e9766e591a50","ios":"levelo://app?vid=40295a92-0c71-4824-afc9-e9766e591a50"},"vehicle_type_id":"4","last_reported":1747940873,"current_range_meters":17600,"station_id":"ce4bhn12rcd13ifvqgpg","pricing_plan_id":"cebpf4jnsgd1na2vs0mg"},{"bike_id":"f93f3416-e632-4e2f-b5e9-783de1498918","system_id":"levelo_inurba_marseille","lat":43.27929,"lon":5.41079,"is_reserved":false,"is_disabled":false,"rental_uris":{"android":"levelo://app?vid=f93f3416-e632-4e2f-b5e9-783de1498918","ios":"levelo://app?vid=f93f3416-e632-4e2f-b5e9-783de1498918"},"vehicle_type_id":"4","last_reported":1747940873,"current_range_meters":17600,"station_id":"ce4bhnp2rcd13ifvqh0g","pricing_plan_id":"cebpf4jnsgd1na2vs0mg"},{"bike_id":"03c27706-dafc-4e44-b173-3742dda15e11","system_id":"levelo_inurba_marseille","lat":43.23196,"lon":5.35537,"is_reserved":false,"is_disabled":false,"rental_uris":{"android":"levelo://app?vid=03c27706-dafc-4e44-b173-3742dda15e11","ios":"levelo://app?vid=03c27706-dafc-4e44-b173-3742dda15e11"},"vehicle_type_id":"4","last_reported":1747940873,"current_range_meters":17600,"station_id":"ce4bhu92rcd13ifvqi70","pricing_plan_id":"cebpf4jnsgd1na2vs0mg"},{"bike_id":"3c627d69-a2b4-4f60-8a0a-c04c968f8c35","system_id":"levelo_inurba_marseille","lat":43.21737,"lon":5.34607,"is_reserved":false,"is_disabled":false,"rental_uris":{"android":"levelo://app?vid=3c627d69-a2b4-4f60-8a0a-c04c968f8c35","ios":"levelo://app?vid=3c627d69-a2b4-4f60-8a0a-c04c968f8c35"},"vehicle_type_id":"4","last_reported":1747940873,"current_range_meters":17600,"station_id":"st_cvj6r9ubvosntc0bgbag","pricing_plan_id":"cebpf4jnsgd1na2vs0mg"},{"bike_id":"59e86a7a-e8b9-481c-93cf-968bdb5ba166","system_id":"levelo_inurba_marseille","lat":43.21204,"lon":5.35069,"is_reserved":false,"is_disabled":false,"rental_uris":{"android":"levelo://app?vid=59e86a7a-e8b9-481c-93cf-968bdb5ba166","ios":"levelo://app?vid=59e86a7a-e8b9-481c-93cf-968bdb5ba166"},"vehicle_type_id":"4","last_reported":1747940873,"current_range_meters":17600,"station_id":"st_cvj6sg6p6f1abm77japg","pricing_plan_id":"cebpf4jnsgd1na2vs0mg"},{"bike_id":"a90f8e9a-f6e2-4b3d-9d6c-5156fa8f0a33","system_id":"levelo_inurba_marseille","lat":43.23238,"lon":5.35546,"is_reserved":false,"is_disabled":false,"rental_uris":{"android":"levelo://app?vid=a90f8e9a-f6e2-4b3d-9d6c-5156fa8f0a33","ios":"levelo://app?vid=a90f8e9a-f6e2-4b3d-9d6c-5156fa8f0a33"},"vehicle_type_id":"4","last_reported":1747940873,"current_range_meters":18000,"station_id":"","pricing_plan_id":"cebpf4jnsgd1na2vs0mg"},{"bike_id":"1e258547-1f44-456b-bd97-af587d77c6c6","system_id":"levelo_inurba_marseille","lat":43.2959,"lon":5.38107,"is_reserved":false,"is_disabled":false,"rental_uris":{"android":"levelo://app?vid=1e258547-1f44-456b-bd97-af587d77c6c6","ios":"levelo://app?vid=1e258547-1f44-456b-bd97-af587d77c6c6"},"vehicle_type_id":"4","last_reported":1747940873,"current_range_meters":18000,"station_id":"ce4bgl12rcd13ifvqbo0","pricing_plan_id":"cebpf4jnsgd1na2vs0mg"},{"bike_id":"2f86634d-ad0c-488b-9534-7718a471cd1d","system_id":"levelo_inurba_marseille","lat":43.29427,"lon":5.38626,"is_reserved":false,"is_disabled":false,"rental_uris":{"android":"levelo://app?vid=2f86634d-ad0c-488b-9534-7718a471cd1d","ios":"levelo://app?vid=2f86634d-ad0c-488b-9534-7718a471cd1d"},"vehicle_type_id":"4","last_reported":1747940873,"current_range_meters":18000,"station_id":"ce4bh2h2rcd13ifvqdh0","pricing_plan_id":"cebpf4jnsgd1na2vs0mg"},{"bike_id":"45deea83-5123-4a1e-af6b-7a7ee204e26f","system_id":"levelo_inurba_marseille","lat":43.28664,"lon":5.36354,"is_reserved":false,"is_disabled":false,"rental_uris":{"android":"levelo://app?vid=45deea83-5123-4a1e-af6b-7a7ee204e26f","ios":"levelo://app?vid=45deea83-5123-4a1e-af6b-7a7ee204e26f"},"vehicle_type_id":"4","last_reported":1747940873,"current_range_meters":18000,"station_id":"ce4bhah2rcd13ifvqej0","pricing_plan_id":"cebpf4jnsgd1na2vs0mg"},{"bike_id":"7a5bbfb1-dafb-4777-8f4b-4b1e0e7c5d19","system_id":"levelo_inurba_marseille","lat":43.27382,"lon":5.36263,"is_reserved":false,"is_disabled":false,"rental_uris":{"android":"levelo://app?vid=7a5bbfb1-dafb-4777-8f4b-4b1e0e7c5d19","ios":"levelo://app?vid=7a5bbfb1-dafb-4777-8f4b-4b1e0e7c5d19"},"vehicle_type_id":"4","last_reported":1747940873,"current_range_meters":18000,"station_id":"ce4bhbh2rcd13ifvqeo0","pricing_plan_id":"cebpf4jnsgd1na2vs0mg"},{"bike_id":"b982ab2a-ab78-4ed1-8fb4-0d250c1d6fa8","system_id":"levelo_inurba_marseille","lat":43.28933,"lon":5.36402,"is_reserved":false,"is_disabled":false,"rental_uris":{"android":"levelo://app?vid=b982ab2a-ab78-4ed1-8fb4-0d250c1d6fa8","ios":"levelo://app?vid=b982ab2a-ab78-4ed1-8fb4-0d250c1d6fa8"},"vehicle_type_id":"4","last_reported":1747940873,"current_range_meters":18000,"station_id":"ce4bhc92rcd13ifvqetg","pricing_plan_id":"cebpf4jnsgd1na2vs0mg"},{"bike_id":"f11aecc4-5d3a-4c3f-b42f-65e6f0c01c4e","system_id":"levelo_inurba_marseille","lat":43.2623,"lon":5.40452,"is_reserved":false,"is_disabled":false,"rental_uris":{"android":"levelo://app?vid=f11aecc4-5d3a-4c3f-b42f-65e6f0c01c4e","ios":"levelo://app?vid=f11aecc4-5d3a-4c3f-b42f-65e6f0c01c4e"},"vehicle_type_id":"4","last_reported":1747940873,"current_range_meters":18000,"station_id":"ce4bhmh2rcd13ifvqgmg","pricing_plan_id":"cebpf4jnsgd1na2vs0mg"},{"bike_id":"101ab50e-9e6a-4eb4-916f-7a97cef7313b","system_id":"levelo_inurba_marseille","lat":43.27812,"lon":5.40707,"is_reserved":false,"is_disabled":false,"rental_uris":{"android":"levelo://app?vid=101ab50e-9e6a-4eb4-916f-7a97cef7313b","ios":"levelo://app?vid=101ab50e-9e6a-4eb4-916f-7a97cef7313b"},"vehicle_type_id":"4","last_reported":1747940873,"current_range_meters":18000,"station_id":"ce4bhnh2rcd13ifvqgtg","pricing_plan_id":"cebpf4jnsgd1na2vs0mg"},{"bike_id":"91ee897c-3435-4d10-b3f8-ba484194adba","system_id":"levelo_inurba_marseille","lat":43.33023,"lon":5.39055,"is_reserved":false,"is_disabled":false,"rental_uris":{"android":"levelo://app?vid=91ee897c-3435-4d10-b3f8-ba484194adba","ios":"levelo://app?vid=91ee897c-3435-4d10-b3f8-ba484194adba"},"vehicle_type_id":"4","last_reported":1747940873,"current_range_meters":18000,"station_id":"ce4bhr92rcd13ifvqhrg","pricing_plan_id":"cebpf4jnsgd1na2vs0mg"},{"bike_id":"3018d689-e596-4461-b1de-4f7fdc55911e","system_id":"levelo_inurba_marseille","lat":43.28603,"lon":5.35042,"is_reserved":false,"is_disabled":false,"rental_uris":{"android":"levelo://app?vid=3018d689-e596-4461-b1de-4f7fdc55911e","ios":"levelo://app?vid=3018d689-e596-4461-b1de-4f7fdc55911e"},"vehicle_type_id":"4","last_reported":1747940873,"current_range_meters":18800,"station_id":"","pricing_plan_id":"cebpf4jnsgd1na2vs0mg"},{"bike_id":"c9b4cb60-98fc-4df9-8edd-74d6f8ca3ad2","system_id":"levelo_inurba_marseille","lat":43.2942,"lon":5.38613,"is_reserved":false,"is_disabled":false,"rental_uris":{"android":"levelo://app?vid=c9b4cb60-98fc-4df9-8edd-74d6f8ca3ad2","ios":"levelo://app?vid=c9b4cb60-98fc-4df9-8edd-74d6f8ca3ad2"},"vehicle_type_id":"4","last_reported":1747940873,"current_range_meters":18800,"station_id":"ce4bh2h2rcd13ifvqdh0","pricing_plan_id":"cebpf4jnsgd1na2vs0mg"},{"bike_id":"106a8323-cfd7-4b99-bc2d-94d397ef2e07","system_id":"levelo_inurba_marseille","lat":43.28945,"lon":5.36392,"is_reserved":false,"is_disabled":false,"rental_uris":{"android":"levelo://app?vid=106a8323-cfd7-4b99-bc2d-94d397ef2e07","ios":"levelo://app?vid=106a8323-cfd7-4b99-bc2d-94d397ef2e07"},"vehicle_type_id":"4","last_reported":1747940873,"current_range_meters":18800,"station_id":"ce4bhc92rcd13ifvqetg","pricing_plan_id":"cebpf4jnsgd1na2vs0mg"},{"bike_id":"d7efcac1-30d5-4ecc-ae2a-5c43522c1b4a","system_id":"levelo_inurba_marseille","lat":43.25002,"lon":5.38931,"is_reserved":false,"is_disabled":false,"rental_uris":{"android":"levelo://app?vid=d7efcac1-30d5-4ecc-ae2a-5c43522c1b4a","ios":"levelo://app?vid=d7efcac1-30d5-4ecc-ae2a-5c43522c1b4a"},"vehicle_type_id":"4","last_reported":1747940873,"current_range_meters":18800,"station_id":"ce4bhgp2rcd13ifvqfd0","pricing_plan_id":"cebpf4jnsgd1na2vs0mg"},{"bike_id":"33c323cb-a07e-4648-a17c-2e400a29ab0c","system_id":"levelo_inurba_marseille","lat":43.23967,"lon":5.36633,"is_reserved":false,"is_disabled":false,"rental_uris":{"android":"levelo://app?vid=33c323cb-a07e-4648-a17c-2e400a29ab0c","ios":"levelo://app?vid=33c323cb-a07e-4648-a17c-2e400a29ab0c"},"vehicle_type_id":"4","last_reported":1747940873,"current_range_meters":18800,"station_id":"ce4bhi12rcd13ifvqfp0","pricing_plan_id":"cebpf4jnsgd1na2vs0mg"},{"bike_id":"2fb25bca-4ab7-4d9d-b73b-4c33add73d3c","system_id":"levelo_inurba_marseille","lat":43.25868,"lon":5.39895,"is_reserved":false,"is_disabled":false,"rental_uris":{"android":"levelo://app?vid=2fb25bca-4ab7-4d9d-b73b-4c33add73d3c","ios":"levelo://app?vid=2fb25bca-4ab7-4d9d-b73b-4c33add73d3c"},"vehicle_type_id":"4","last_reported":1747940873,"current_range_meters":18800,"station_id":"ce4bhl92rcd13ifvqghg","pricing_plan_id":"cebpf4jnsgd1na2vs0mg"},{"bike_id":"d0a39aae-54fd-46ce-ab4f-e69a9cc3bdc9","system_id":"levelo_inurba_marseille","lat":43.2513,"lon":5.40337,"is_reserved":false,"is_disabled":false,"rental_uris":{"android":"levelo://app?vid=d0a39aae-54fd-46ce-ab4f-e69a9cc3bdc9","ios":"levelo://app?vid=d0a39aae-54fd-46ce-ab4f-e69a9cc3bdc9"},"vehicle_type_id":"4","last_reported":1747940873,"current_range_meters":18800,"station_id":"ce4bhlh2rcd13ifvqgig","pricing_plan_id":"cebpf4jnsgd1na2vs0mg"},{"bike_id":"0ed37231-f796-48d4-be29-6f19f8f76254","system_id":"levelo_inurba_marseille","lat":43.24169,"lon":5.39749,"is_reserved":false,"is_disabled":false,"rental_uris":{"android":"levelo://app?vid=0ed37231-f796-48d4-be29-6f19f8f76254","ios":"levelo://app?vid=0ed37231-f796-48d4-be29-6f19f8f76254"},"vehicle_type_id":"4","last_reported":1747940873,"current_range_meters":18800,"station_id":"ce4bhn12rcd13ifvqgpg","pricing_plan_id":"cebpf4jnsgd1na2vs0mg"},{"bike_id":"64de771d-bd4e-435e-ab48-8ec57c1d499e","system_id":"levelo_inurba_marseille","lat":43.29793,"lon":5.38106,"is_reserved":false,"is_disabled":false,"rental_uris":{"android":"levelo://app?vid=64de771d-bd4e-435e-ab48-8ec57c1d499e","ios":"levelo://app?vid=64de771d-bd4e-435e-ab48-8ec57c1d499e"},