{"last_updated":1747033886,"ttl":60,"version":"2.2","data":{"bikes":[{"bike_id":"d4668fb6-ea03-471f-86ff-d9bb8b38be08","system_id":"levelo_inurba_marseille","lat":43.29204,"lon":5.39338,"is_reserved":false,"is_disabled":false,"rental_uris":{"android":"levelo://app?vid=d4668fb6-ea03-471f-86ff-d9bb8b38be08","ios":"levelo://app?vid=d4668fb6-ea03-471f-86ff-d9bb8b38be08"},"vehicle_type_id":"4","last_reported":1747033886,"current_range_meters":2800,"station_id":"ce4bh192rcd13ifvqdd0","pricing_plan_id":"cebpf4jnsgd1na2vs0mg"},{"bike_id":"28aaa968-e2b4-4e48-a540-5281e8bcc3a5","system_id":"levelo_inurba_marseille","lat":43.27696,"lon":5.38913,"is_reserved":false,"is_disabled":false,"rental_uris":{"android":"levelo://app?vid=28aaa968-e2b4-4e48-a540-5281e8bcc3a5","ios":"levelo://app?vid=28aaa968-e2b4-4e48-a540-5281e8bcc3a5"},"vehicle_type_id":"4","last_reported":1747033886,"current_range_meters":2800,"station_id":"ce4bhi12rcd13ifvqfo0","pricing_plan_id":"cebpf4jnsgd1na2vs0mg"},{"bike_id":"237a059b-0913-4209-8b24-691ceec45172","system_id":"levelo_inurba_marseille","lat":43.337444,"lon":5.374475,"is_reserved":false,"is_disabled":true,"rental_uris":{"android":"levelo://app?vid=237a059b-0913-4209-8b24-691ceec45172","ios":"levelo://app?vid=237a059b-0913-4209-8b24-691ceec45172"},"vehicle_type_id":"4","last_reported":1747033886,"current_range_meters":2800,"station_id":"","pricing_plan_id":"cebpf4jnsgd1na2vs0mg"},{"bike_id":"814c300d-d261-4866-b022-44e7c5159380","system_id":"levelo_inurba_marseille","lat":43.24159,"lon":5.3639,"is_reserved":false,"is_disabled":false,"rental_uris":{"android":"levelo://app?vid=814c300d-d261-4866-b022-44e7c5159380","ios":"levelo://app?vid=814c300d-d261-4866-b022-44e7c5159380"},"vehicle_type_id":"4","last_reported":1747033886,"current_range_meters":3200,"station_id":"cpo36qri1sfpv3e86is0","pricing_plan_id":"cebpf4jnsgd1na2vs0mg"},{"bike_id":"d5f709dd-45ae-4ac7-8d40-49cd8e7e3f51","system_id":"levelo_inurba_marseille","lat":43.30916,"lon":5.36855,"is_reserved":false,"is_disabled":false,"rental_uris":{"android":"levelo://app?vid=d5f709dd-45ae-4ac7-8d40-49cd8e7e3f51","ios":"levelo://app?vid=d5f709dd-45ae-4ac7-8d40-49cd8e7e3f51"},"vehicle_type_id":"4","last_reported":1747033886,"current_range_meters":3200,"station_id":"ce4bgn92rcd13ifvqbvg","pricing_plan_id":"cebpf4jnsgd1na2vs0mg"},{"bike_id":"c7b2effd-ed37-4223-a0c6-29d0e842dbd5","system_id":"levelo_inurba_marseille","lat":43.300656,"lon":5.37805,"is_reserved":false,"is_disabled":false,"rental_uris":{"android":"levelo://app?vid=c7b2effd-ed37-4223-a0c6-29d0e842dbd5","ios":"levelo://app?vid=c7b2effd-ed37-4223-a0c6-29d0e842dbd5"},"vehicle_type_id":"4","last_reported":1747033886,"current_range_meters":3200,"station_id":"","pricing_plan_id":"cebpf4jnsgd1na2vs0mg"},{"bike_id":"bf084895-730f-4a2e-8a82-3812b81df4ca","system_id":"levelo_inurba_marseille","lat":43.29281,"lon":5.36842,"is_reserved":false,"is_disabled":false,"rental_uris":{"android":"levelo://app?vid=bf084895-730f-4a2e-8a82-3812b81df4ca","ios":"levelo://app?vid=bf084895-730f-4a2e-8a82-3812b81df4ca"},"vehicle_type_id":"4","last_reported":1747033886,"current_range_meters":4000,"station_id":"ce4bhbp2rcd13ifvqesg","pricing_plan_id":"cebpf4jnsgd1na2vs0mg"},{"bike_id":"717fa45e-5c30-4501-8202-72e2b0ccbccd","system_id":"levelo_inurba_marseille","lat":43.28937,"lon":5.38394,"is_reserved":false,"is_disabled":false,"rental_uris":{"android":"levelo://app?vid=717fa45e-5c30-4501-8202-72e2b0ccbccd","ios":"levelo://app?vid=717fa45e-5c30-4501-8202-72e2b0ccbccd"},"vehicle_type_id":"4","last_reported":1747033886,"current_range_meters":4000,"station_id":"ce4bh612rcd13ifvqe6g","pricing_plan_id":"cebpf4jnsgd1na2vs0mg"},{"bike_id":"d027de36-f3c5-487b-bf97-0ea587270eaa","system_id":"levelo_inurba_marseille","lat":43.26028,"lon":5.37548,"is_reserved":false,"is_disabled":false,"rental_uris":{"android":"levelo://app?vid=d027de36-f3c5-487b-bf97-0ea587270eaa","ios":"levelo://app?vid=d027de36-f3c5-487b-bf97-0ea587270eaa"},"vehicle_type_id":"4","last_reported":1747033886,"current_range_meters":4000,"station_id":"ce4bhgh2rcd13ifvqfa0","pricing_plan_id":"cebpf4jnsgd1na2vs0mg"},{"bike_id":"c22e9958-5fdb-4dfa-8ba5-c8e64f3dbf84","system_id":"levelo_inurba_marseille","lat":43.30915,"lon":5.36844,"is_reserved":false,"is_disabled":false,"rental_uris":{"android":"levelo://app?vid=c22e9958-5fdb-4dfa-8ba5-c8e64f3dbf84","ios":"levelo://app?vid=c22e9958-5fdb-4dfa-8ba5-c8e64f3dbf84"},"vehicle_type_id":"4","last_reported":1747033886,"current_range_meters":4400,"station_id":"ce4bgn92rcd13ifvqbvg","pricing_plan_id":"cebpf4jnsgd1na2vs0mg"},{"bike_id":"1cc3cb61-6166-4541-a599-6f63fd51eeee","system_id":"levelo_inurba_marseille","lat":43.30946,"lon":5.39031,"is_reserved":false,"is_disabled":false,"rental_uris":{"android":"levelo://app?vid=1cc3cb61-6166-4541-a599-6f63fd51eeee","ios":"levelo://app?vid=1cc3cb61-6166-4541-a599-6f63fd51eeee"},"vehicle_type_id":"4","last_reported":1747033886,"current_range_meters":4400,"station_id":"ce4bgup2rcd13ifvqco0","pricing_plan_id":"cebpf4jnsgd1na2vs0mg"},{"bike_id":"f1f47090-376e-489a-b9ad-7bf5f4813c6a","system_id":"levelo_inurba_marseille","lat":43.297457,"lon":5.376443,"is_reserved":false,"is_disabled":true,"rental_uris":{"android":"levelo://app?vid=f1f47090-376e-489a-b9ad-7bf5f4813c6a","ios":"levelo://app?vid=f1f47090-376e-489a-b9ad-7bf5f4813c6a"},"vehicle_type_id":"4","last_reported":1747033886,"current_range_meters":4400,"station_id":"","pricing_plan_id":"cebpf4jnsgd1na2vs0mg"},{"bike_id":"ea36e96d-78f4-40c4-b73b-06fbf003c506","system_id":"levelo_inurba_marseille","lat":43.3096,"lon":5.390473,"is_reserved":false,"is_disabled":false,"rental_uris":{"android":"levelo://app?vid=ea36e96d-78f4-40c4-b73b-06fbf003c506","ios":"levelo://app?vid=ea36e96d-78f4-40c4-b73b-06fbf003c506"},"vehicle_type_id":"4","last_reported":1747033886,"current_range_meters":4400,"station_id":"ce4bgup2rcd13ifvqco0","pricing_plan_id":"cebpf4jnsgd1na2vs0mg"},{"bike_id":"84bf9c12-8e9a-42fd-85e3-0ee02c0526e6","system_id":"levelo_inurba_marseille","lat":43.27206,"lon":5.41025,"is_reserved":false,"is_disabled":false,"rental_uris":{"android":"levelo://app?vid=84bf9c12-8e9a-42fd-85e3-0ee02c0526e6","ios":"levelo://app?vid=84bf9c12-8e9a-42fd-85e3-0ee02c0526e6"},"vehicle_type_id":"4","last_reported":1747033886,"current_range_meters":4400,"station_id":"ce4bhl12rcd13ifvqgf0","pricing_plan_id":"cebpf4jnsgd1na2vs0mg"},{"bike_id":"af37c181-9026-49df-a0ea-13007a6129cf","system_id":"levelo_inurba_marseille","lat":43.24179,"lon":5.39705,"is_reserved":false,"is_disabled":false,"rental_uris":{"android":"levelo://app?vid=af37c181-9026-49df-a0ea-13007a6129cf","ios":"levelo://app?vid=af37c181-9026-49df-a0ea-13007a6129cf"},"vehicle_type_id":"4","last_reported":1747033886,"current_range_meters":4800,"station_id":"ce4bhn12rcd13ifvqgpg","pricing_plan_id":"cebpf4jnsgd1na2vs0mg"},{"bike_id":"b3e39d10-09f4-469c-9cf2-8e6acdaefcf8","system_id":"levelo_inurba_marseille","lat":43.2668,"lon":5.38269,"is_reserved":false,"is_disabled":false,"rental_uris":{"android":"levelo://app?vid=b3e39d10-09f4-469c-9cf2-8e6acdaefcf8","ios":"levelo://app?vid=b3e39d10-09f4-469c-9cf2-8e6acdaefcf8"},"vehicle_type_id":"4","last_reported":1747033886,"current_range_meters":4800,"station_id":"ce4bhg92rcd13ifvqf90","pricing_plan_id":"cebpf4jnsgd1na2vs0mg"},{"bike_id":"186beaaa-c756-41bb-911a-474039104509","system_id":"levelo_inurba_marseille","lat":43.23966,"lon":5.36633,"is_reserved":false,"is_disabled":false,"rental_uris":{"android":"levelo://app?vid=186beaaa-c756-41bb-911a-474039104509","ios":"levelo://app?vid=186beaaa-c756-41bb-911a-474039104509"},"vehicle_type_id":"4","last_reported":1747033886,"current_range_meters":4800,"station_id":"ce4bhi12rcd13ifvqfp0","pricing_plan_id":"cebpf4jnsgd1na2vs0mg"},{"bike_id":"e53f0138-fdd5-4e2b-b405-a7f6d28cdbc6","system_id":"levelo_inurba_marseille","lat":43.24068,"lon":5.3774,"is_reserved":false,"is_disabled":false,"rental_uris":{"android":"levelo://app?vid=e53f0138-fdd5-4e2b-b405-a7f6d28cdbc6","ios":"levelo://app?vid=e53f0138-fdd5-4e2b-b405-a7f6d28cdbc6"},"vehicle_type_id":"4","last_reported":1747033886,"current_range_meters":5600,"station_id":"ce4bhnp2rcd13ifvqgvg","pricing_plan_id":"cebpf4jnsgd1na2vs0mg"},{"bike_id":"2ad85c1f-6220-49bc-b570-0e2ffff0f948","system_id":"levelo_inurba_marseille","lat":43.31238,"lon":5.36855,"is_reserved":false,"is_disabled":false,"rental_uris":{"android":"levelo://app?vid=2ad85c1f-6220-49bc-b570-0e2ffff0f948","ios":"levelo://app?vid=2ad85c1f-6220-49bc-b570-0e2ffff0f948"},"vehicle_type_id":"4","last_reported":1747033886,"current_range_meters":5600,"station_id":"ce4bgl92rcd13ifvqbq0","pricing_plan_id":"cebpf4jnsgd1na2vs0mg"},{"bike_id":"22932bc6-1947-449b-a3ce-701d2ddc38d2","system_id":"levelo_inurba_marseille","lat":43.24074,"lon":5.3776,"is_reserved":false,"is_disabled":false,"rental_uris":{"android":"levelo://app?vid=22932bc6-1947-449b-a3ce-701d2ddc38d2","ios":"levelo://app?vid=22932bc6-1947-449b-a3ce-701d2ddc38d2"},"vehicle_type_id":"4","last_reported":1747033886,"current_range_meters":5600,"station_id":"ce4bhnp2rcd13ifvqgvg","pricing_plan_id":"cebpf4jnsgd1na2vs0mg"},{"bike_id":"ec282f3e-d958-4c7a-8dc7-e73ba3d37e53","system_id":"levelo_inurba_marseille","lat":43.3091,"lon":5.36845,"is_reserved":false,"is_disabled":false,"rental_uris":{"android":"levelo://app?vid=ec282f3e-d958-4c7a-8dc7-e73ba3d37e53","ios":"levelo://app?vid=ec282f3e-d958-4c7a-8dc7-e73ba3d37e53"},"vehicle_type_id":"4","last_reported":1747033886,"current_range_meters":6000,"station_id":"ce4bgn92rcd13ifvqbvg","pricing_plan_id":"cebpf4jnsgd1na2vs0mg"},{"bike_id":"97b6f499-a1db-4c1c-94f6-a1dda611c5ce","system_id":"levelo_inurba_marseille","lat":43.32537,"lon":5.41427,"is_reserved":false,"is_disabled":false,"rental_uris":{"android":"levelo://app?vid=97b6f499-a1db-4c1c-94f6-a1dda611c5ce","ios":"levelo://app?vid=97b6f499-a1db-4c1c-94f6-a1dda611c5ce"},"vehicle_type_id":"4","last_reported":1747033886,"current_range_meters":6400,"station_id":"ce4bhq12rcd13ifvqhhg","pricing_plan_id":"cebpf4jnsgd1na2vs0mg"},{"bike_id":"987e982f-82f9-4bb4-8041-98fe25cb02cb","system_id":"levelo_inurba_marseille","lat":43.32479,"lon":5.36564,"is_reserved":false,"is_disabled":false,"rental_uris":{"android":"levelo://app?vid=987e982f-82f9-4bb4-8041-98fe25cb02cb","ios":"levelo://app?vid=987e982f-82f9-4bb4-8041-98fe25cb02cb"},"vehicle_type_id":"4","last_reported":1747033886,"current_range_meters":6400,"station_id":"ce4bhs12rcd13ifvqhvg","pricing_plan_id":"cebpf4jnsgd1na2vs0mg"},{"bike_id":"48b73517-8a40-4b3f-aad3-968dd3319f04","system_id":"levelo_inurba_marseille","lat":43.31711,"lon":5.43695,"is_reserved":false,"is_disabled":false,"rental_uris":{"android":"levelo://app?vid=48b73517-8a40-4b3f-aad3-968dd3319f04","ios":"levelo://app?vid=48b73517-8a40-4b3f-aad3-968dd3319f04"},"vehicle_type_id":"4","last_reported":1747033886,"current_range_meters":6400,"station_id":"ce4bhp92rcd13ifvqhcg","pricing_plan_id":"cebpf4jnsgd1na2vs0mg"},{"bike_id":"dff44ee9-d357-49fb-b8ef-b2ba825e92dc","system_id":"levelo_inurba_marseille","lat":43.33609,"lon":5.4102,"is_reserved":false,"is_disabled":false,"rental_uris":{"android":"levelo://app?vid=dff44ee9-d357-49fb-b8ef-b2ba825e92dc","ios":"levelo://app?vid=dff44ee9-d357-49fb-b8ef-b2ba825e92dc"},"vehicle_type_id":"4","last_reported":1747033886,"current_range_meters":6800,"station_id":"ce4bhqh2rcd13ifvqhmg","pricing_plan_id":"cebpf4jnsgd1na2vs0mg"},{"bike_id":"fc2577e7-1497-425b-9d4f-ab8d7dc843c6","system_id":"levelo_inurba_marseille","lat":43.33771,"lon":5.37485,"is_reserved":false,"is_disabled":false,"rental_uris":{"android":"levelo://app?vid=fc2577e7-1497-425b-9d4f-ab8d7dc843c6","ios":"levelo://app?vid=fc2577e7-1497-425b-9d4f-ab8d7dc843c6"},"vehicle_type_id":"4","last_reported":1747033886,"current_range_meters":6800,"station_id":"","pricing_plan_id":"cebpf4jnsgd1na2vs0mg"},{"bike_id":"63bdd50a-b728-4d10-9320-dbc9bfa5973f","system_id":"levelo_inurba_marseille","lat":43.27067,"lon":5.42291,"is_reserved":false,"is_disabled":false,"rental_uris":{"android":"levelo://app?vid=63bdd50a-b728-4d10-9320-dbc9bfa5973f","ios":"levelo://app?vid=63bdd50a-b728-4d10-9320-dbc9bfa5973f"},"vehicle_type_id":"4","last_reported":1747033886,"current_range_meters":6800,"station_id":"ce4bhk92rcd13ifvqgb0","pricing_plan_id":"cebpf4jnsgd1na2vs0mg"},{"bike_id":"349ab267-2d63-414f-8605-837bf3d40763","system_id":"levelo_inurba_marseille","lat":43.26489,"lon":5.39564,"is_reserved":false,"is_disabled":false,"rental_uris":{"android":"levelo://app?vid=349ab267-2d63-414f-8605-837bf3d40763","ios":"levelo://app?vid=349ab267-2d63-414f-8605-837bf3d40763"},"vehicle_type_id":"4","last_reported":1747033886,"current_range_meters":6800,"station_id":"ce4bhi12rcd13ifvqfq0","pricing_plan_id":"cebpf4jnsgd1na2vs0mg"},{"bike_id":"41f43e05-d897-45ff-8bad-32a9a60e29b8","system_id":"levelo_inurba_marseille","lat":43.30317,"lon":5.36578,"is_reserved":false,"is_disabled":false,"rental_uris":{"android":"levelo://app?vid=41f43e05-d897-45ff-8bad-32a9a60e29b8","ios":"levelo://app?vid=41f43e05-d897-45ff-8bad-32a9a60e29b8"},"vehicle_type_id":"4","last_reported":1747033886,"current_range_meters":6800,"station_id":"","pricing_plan_id":"cebpf4jnsgd1na2vs0mg"},{"bike_id":"1f6aa13c-0f60-4adc-9681-20e38b83d077","system_id":"levelo_inurba_marseille","lat":43.23148,"lon":5.43722,"is_reserved":false,"is_disabled":false,"rental_uris":{"android":"levelo://app?vid=1f6aa13c-0f60-4adc-9681-20e38b83d077","ios":"levelo://app?vid=1f6aa13c-0f60-4adc-9681-20e38b83d077"},"vehicle_type_id":"4","last_reported":1747033886,"current_range_meters":6800,"station_id":"ce4bhmp2rcd13ifvqgog","pricing_plan_id":"cebpf4jnsgd1na2vs0mg"},{"bike_id":"24fa0ea3-1d8d-480d-934b-66d97222646a","system_id":"levelo_inurba_marseille","lat":43.30958,"lon":5.39037,"is_reserved":false,"is_disabled":false,"rental_uris":{"android":"levelo://app?vid=24fa0ea3-1d8d-480d-934b-66d97222646a","ios":"levelo://app?vid=24fa0ea3-1d8d-480d-934b-66d97222646a"},"vehicle_type_id":"4","last_reported":1747033886,"current_range_meters":6800,"station_id":"ce4bgup2rcd13ifvqco0","pricing_plan_id":"cebpf4jnsgd1na2vs0mg"},{"bike_id":"32c348ca-2b3a-41c6-9143-a26e0f8f9eb9","system_id":"levelo_inurba_marseille","lat":43.28487,"lon":5.38563,"is_reserved":false,"is_disabled":false,"rental_uris":{"android":"levelo://app?vid=32c348ca-2b3a-41c6-9143-a26e0f8f9eb9","ios":"levelo://app?vid=32c348ca-2b3a-41c6-9143-a26e0f8f9eb9"},"vehicle_type_id":"4","last_reported":1747033886,"current_range_meters":7200,"station_id":"ce4bh8p2rcd13ifvqeb0","pricing_plan_id":"cebpf4jnsgd1na2vs0mg"},{"bike_id":"bfd5e787-a75e-4dab-9738-e35cbb0c870a","system_id":"levelo_inurba_marseille","lat":43.32475,"lon":5.36567,"is_reserved":false,"is_disabled":false,"rental_uris":{"android":"levelo://app?vid=bfd5e787-a75e-4dab-9738-e35cbb0c870a","ios":"levelo://app?vid=bfd5e787-a75e-4dab-9738-e35cbb0c870a"},"vehicle_type_id":"4","last_reported":1747033886,"current_range_meters":7200,"station_id":"ce4bhs12rcd13ifvqhvg","pricing_plan_id":"cebpf4jnsgd1na2vs0mg"},{"bike_id":"cda33d96-b0f5-4976-a031-efabf74d78c8","system_id":"levelo_inurba_marseille","lat":43.305143,"lon":5.366093,"is_reserved":false,"is_disabled":true,"rental_uris":{"android":"levelo://app?vid=cda33d96-b0f5-4976-a031-efabf74d78c8","ios":"levelo://app?vid=cda33d96-b0f5-4976-a031-efabf74d78c8"},"vehicle_type_id":"4","last_reported":1747033886,"current_range_meters":7200,"station_id":"","pricing_plan_id":"cebpf4jnsgd1na2vs0mg"},{"bike_id":"cfc17815-86ee-444c-a14e-53c91e445963","system_id":"levelo_inurba_marseille","lat":43.26231,"lon":5.40451,"is_reserved":false,"is_disabled":false,"rental_uris":{"android":"levelo://app?vid=cfc17815-86ee-444c-a14e-53c91e445963","ios":"levelo://app?vid=cfc17815-86ee-444c-a14e-53c91e445963"},"vehicle_type_id":"4","last_reported":1747033886,"current_range_meters":7200,"station_id":"ce4bhmh2rcd13ifvqgmg","pricing_plan_id":"cebpf4jnsgd1na2vs0mg"},{"bike_id":"060b2c70-09df-4854-a267-b8e0147b7bde","system_id":"levelo_inurba_marseille","lat":43.26563,"lon":5.39008,"is_reserved":false,"is_disabled":false,"rental_uris":{"android":"levelo://app?vid=060b2c70-09df-4854-a267-b8e0147b7bde","ios":"levelo://app?vid=060b2c70-09df-4854-a267-b8e0147b7bde"},"vehicle_type_id":"4","last_reported":1747033886,"current_range_meters":7200,"station_id":"ce4bhe12rcd13ifvqf30","pricing_plan_id":"cebpf4jnsgd1na2vs0mg"},{"bike_id":"910f58e1-bc11-4d4a-be16-a826726f8216","system_id":"levelo_inurba_marseille","lat":43.290386,"lon":5.359101,"is_reserved":false,"is_disabled":true,"rental_uris":{"android":"levelo://app?vid=910f58e1-bc11-4d4a-be16-a826726f8216","ios":"levelo://app?vid=910f58e1-bc11-4d4a-be16-a826726f8216"},"vehicle_type_id":"4","last_reported":1747033886,"current_range_meters":7200,"station_id":"ce4bha92rcd13ifvqeg0","pricing_plan_id":"cebpf4jnsgd1na2vs0mg"},{"bike_id":"6d705489-d3d5-4e12-a28e-5d7bb8b109f3","system_id":"levelo_inurba_marseille","lat":43.26815,"lon":5.42739,"is_reserved":false,"is_disabled":false,"rental_uris":{"android":"levelo://app?vid=6d705489-d3d5-4e12-a28e-5d7bb8b109f3","ios":"levelo://app?vid=6d705489-d3d5-4e12-a28e-5d7bb8b109f3"},"vehicle_type_id":"4","last_reported":1747033886,"current_range_meters":8000,"station_id":"","pricing_plan_id":"cebpf4jnsgd1na2vs0mg"},{"bike_id":"bf437247-db93-40d5-85fb-6086f54c3ae3","system_id":"levelo_inurba_marseille","lat":43.29273,"lon":5.36842,"is_reserved":false,"is_disabled":false,"rental_uris":{"android":"levelo://app?vid=bf437247-db93-40d5-85fb-6086f54c3ae3","ios":"levelo://app?vid=bf437247-db93-40d5-85fb-6086f54c3ae3"},"vehicle_type_id":"4","last_reported":1747033886,"current_range_meters":8000,"station_id":"ce4bhbp2rcd13ifvqesg","pricing_plan_id":"cebpf4jnsgd1na2vs0mg"},{"bike_id":"38fd2285-da0e-4f6a-be1d-f6c2112df572","system_id":"levelo_inurba_marseille","lat":43.286388,"lon":5.36358,"is_reserved":false,"is_disabled":true,"rental_uris":{"android":"levelo://app?vid=38fd2285-da0e-4f6a-be1d-f6c2112df572","ios":"levelo://app?vid=38fd2285-da0e-4f6a-be1d-f6c2112df572"},"vehicle_type_id":"4","last_reported":1747033886,"current_range_meters":8000,"station_id":"ce4bhah2rcd13ifvqej0","pricing_plan_id":"cebpf4jnsgd1na2vs0mg"},{"bike_id":"c7998c87-7411-4fae-8cf7-a3eea37a0050","system_id":"levelo_inurba_marseille","lat":43.31084,"lon":5.4243,"is_reserved":false,"is_disabled":false,"rental_uris":{"android":"levelo://app?vid=c7998c87-7411-4fae-8cf7-a3eea37a0050","ios":"levelo://app?vid=c7998c87-7411-4fae-8cf7-a3eea37a0050"},"vehicle_type_id":"4","last_reported":1747033886,"current_range_meters":8000,"station_id":"ce4bhp92rcd13ifvqhag","pricing_plan_id":"cebpf4jnsgd1na2vs0mg"},{"bike_id":"a709c096-19a6-423a-ad85-f5169b2557a1","system_id":"levelo_inurba_marseille","lat":43.27065,"lon":5.42284,"is_reserved":false,"is_disabled":true,"rental_uris":{"android":"levelo://app?vid=a709c096-19a6-423a-ad85-f5169b2557a1","ios":"levelo://app?vid=a709c096-19a6-423a-ad85-f5169b2557a1"},"vehicle_type_id":"4","last_reported":1747033886,"current_range_meters":8000,"station_id":"ce4bhk92rcd13ifvqgb0","pricing_plan_id":"cebpf4jnsgd1na2vs0mg"},{"bike_id":"ea1c8b97-7335-47a7-ad06-6c2727065bf8","system_id":"levelo_inurba_marseille","lat":43.2408,"lon":5.37754,"is_reserved":false,"is_disabled":false,"rental_uris":{"android":"levelo://app?vid=ea1c8b97-7335-47a7-ad06-6c2727065bf8","ios":"levelo://app?vid=ea1c8b97-7335-47a7-ad06-6c2727065bf8"},"vehicle_type_id":"4","last_reported":1747033886,"current_range_meters":8000,"station_id":"","pricing_plan_id":"cebpf4jnsgd1na2vs0mg"},{"bike_id":"4b460be1-c693-4bb9-911d-ee0bb3e597f1","system_id":"levelo_inurba_marseille","lat":43.32463,"lon":5.36575,"is_reserved":false,"is_disabled":false,"rental_uris":{"android":"levelo://app?vid=4b460be1-c693-4bb9-911d-ee0bb3e597f1","ios":"levelo://app?vid=4b460be1-c693-4bb9-911d-ee0bb3e597f1"},"vehicle_type_id":"4","last_reported":1747033886,"current_range_meters":8400,"station_id":"ce4bhs12rcd13ifvqhvg","pricing_plan_id":"cebpf4jnsgd1na2vs0mg"},{"bike_id":"0ae16d20-a1e7-41ef-876d-f95f6b5b97f0","system_id":"levelo_inurba_marseille","lat":43.27491,"lon":5.42449,"is_reserved":false,"is_disabled":false,"rental_uris":{"android":"levelo://app?vid=0ae16d20-a1e7-41ef-876d-f95f6b5b97f0","ios":"levelo://app?vid=0ae16d20-a1e7-41ef-876d-f95f6b5b97f0"},"vehicle_type_id":"4","last_reported":1747033886,"current_range_meters":8400,"station_id":"ce4bhn92rcd13ifvqgrg","pricing_plan_id":"cebpf4jnsgd1na2vs0mg"},{"bike_id":"1926bee1-a15b-49b3-8b0b-41a7c297fe4d","system_id":"levelo_inurba_marseille","lat":43.32478,"lon":5.36573,"is_reserved":false,"is_disabled":false,"rental_uris":{"android":"levelo://app?vid=1926bee1-a15b-49b3-8b0b-41a7c297fe4d","ios":"levelo://app?vid=1926bee1-a15b-49b3-8b0b-41a7c297fe4d"},"vehicle_type_id":"4","last_reported":1747033886,"current_range_meters":8400,"station_id":"ce4bhs12rcd13ifvqhvg","pricing_plan_id":"cebpf4jnsgd1na2vs0mg"},{"bike_id":"a1121b36-b5cd-4dda-96ef-13a3dfaa55e1","system_id":"levelo_inurba_marseille","lat":43.301401,"lon":5.387791,"is_reserved":false,"is_disabled":true,"rental_uris":{"android":"levelo://app?vid=a1121b36-b5cd-4dda-96ef-13a3dfaa55e1","ios":"levelo://app?vid=a1121b36-b5cd-4dda-96ef-13a3dfaa55e1"},"vehicle_type_id":"4","last_reported":1747033886,"current_range_meters":8800,"station_id":"","pricing_plan_id":"cebpf4jnsgd1na2vs0mg"},{"bike_id":"6663a384-abed-48bd-861f-d563c5fcecd4","system_id":"levelo_inurba_marseille","lat":43.2844,"lon":5.34986,"is_reserved":false,"is_disabled":true,"rental_uris":{"android":"levelo://app?vid=6663a384-abed-48bd-861f-d563c5fcecd4","ios":"levelo://app?vid=6663a384-abed-48bd-861f-d563c5fcecd4"},"vehicle_type_id":"4","last_reported":1747033886,"current_range_meters":8800,"station_id":"ce4bhbh2rcd13ifvqepg","pricing_plan_id":"cebpf4jnsgd1na2vs0mg"},{"bike_id":"1c18d2dd-70fa-4b45-b189-82bf96b182fc","system_id":"levelo_inurba_marseille","lat":43.24078,"lon":5.3776,"is_reserved":false,"is_disabled":false,"rental_uris":{"android":"levelo://app?vid=1c18d2dd-70fa-4b45-b189-82bf96b182fc","ios":"levelo://app?vid=1c18d2dd-70fa-4b45-b189-82bf96b182fc"},"vehicle_type_id":"4","last_reported":1747033886,"current_range_meters":8800,"station_id":"ce4bhnp2rcd13ifvqgvg","pricing_plan_id":"cebpf4jnsgd1na2vs0mg"},{"bike_id":"02b2ae6d-ada5-462e-b49a-c4c9de709f2c","system_id":"levelo_inurba_marseille","lat":43.3134,"lon":5.36717,"is_reserved":false,"is_disabled":false,"rental_uris":{"android":"levelo://app?vid=02b2ae6d-ada5-462e-b49a-c4c9de709f2c","ios":"levelo://app?vid=02b2ae6d-ada5-462e-b49a-c4c9de709f2c"},"vehicle_type_id":"4","last_reported":1747033886,"current_range_meters":8800,"station_id":"ce4bgr92rcd13ifvqc6g","pricing_plan_id":"cebpf4jnsgd1na2vs0mg"},{"bike_id":"c79e41c8-2bbc-4c46-bb8d-06eb7b747501","system_id":"levelo_inurba_marseille","lat":43.26784,"lon":5.3942,"is_reserved":false,"is_disabled":false,"rental_uris":{"android":"levelo://app?vid=c79e41c8-2bbc-4c46-bb8d-06eb7b747501","ios":"levelo://app?vid=c79e41c8-2bbc-4c46-bb8d-06eb7b747501"},"vehicle_type_id":"4","last_reported":1747033886,"current_range_meters":8800,"station_id":"ce4bhh12rcd13ifvqfg0","pricing_plan_id":"cebpf4jnsgd1na2vs0mg"},{"bike_id":"11a999a6-8fac-436b-9dc4-a6535e4e9b64","system_id":"levelo_inurba_marseille","lat":43.30537,"lon":5.36553,"is_reserved":false,"is_disabled":false,"rental_uris":{"android":"levelo://app?vid=11a999a6-8fac-436b-9dc4-a6535e4e9b64","ios":"levelo://app?vid=11a999a6-8fac-436b-9dc4-a6535e4e9b64"},"vehicle_type_id":"4","last_reported":1747033886,"current_range_meters":8800,"station_id":"ce4bgs12rcd13ifvqcag","pricing_plan_id":"cebpf4jnsgd1na2vs0mg"},{"bike_id":"ea52680e-1e7d-45dc-9db0-326be9317ea0","system_id":"levelo_inurba_marseille","lat":43.276797,"lon":5.38883,"is_reserved":false,"is_disabled":false,"rental_uris":{"android":"levelo://app?vid=ea52680e-1e7d-45dc-9db0-326be9317ea0","ios":"levelo://app?vid=ea52680e-1e7d-45dc-9db0-326be9317ea0"},"vehicle_type_id":"4","last_reported":1747033886,"current_range_meters":9200,"station_id":"ce4bhi12rcd13ifvqfo0","pricing_plan_id":"cebpf4jnsgd1na2vs0mg"},{"bike_id":"c33c979d-9903-40dc-a17f-25ccdad88704","system_id":"levelo_inurba_marseille","lat":43.29511,"lon":5.39393,"is_reserved":false,"is_disabled":true,"rental_uris":{"android":"levelo://app?vid=c33c979d-9903-40dc-a17f-25ccdad88704","ios":"levelo://app?vid=c33c979d-9903-40dc-a17f-25ccdad88704"},"vehicle_type_id":"4","last_reported":1747033886,"current_range_meters":9200,"station_id":"ce4bh292rcd13ifvqdf0","pricing_plan_id":"cebpf4jnsgd1na2vs0mg"},{"bike_id":"082c1f9f-4719-4cfe-b34a-37cfa3666b2e","system_id":"levelo_inurba_marseille","lat":43.287214,"lon":5.399979,"is_reserved":false,"is_disabled":true,"rental_uris":{"android":"levelo://app?vid=082c1f9f-4719-4cfe-b34a-37cfa3666b2e","ios":"levelo://app?vid=082c1f9f-4719-4cfe-b34a-37cfa3666b2e"},"vehicle_type_id":"4","last_reported":1747033886,"current_range_meters":9200,"station_id":"ce4bho92rcd13ifvqh3g","pricing_plan_id":"cebpf4jnsgd1na2vs0mg"},{"bike_id":"51eb8992-525a-4dcd-a5ad-837578809050","system_id":"levelo_inurba_marseille","lat":43.32529,"lon":5.41447,"is_reserved":false,"is_disabled":false,"rental_uris":{"android":"levelo://app?vid=51eb8992-525a-4dcd-a5ad-837578809050","ios":"levelo://app?vid=51eb8992-525a-4dcd-a5ad-837578809050"},"vehicle_type_id":"4","last_reported":1747033886,"current_range_meters":9200,"station_id":"ce4bhq12rcd13ifvqhhg","pricing_plan_id":"cebpf4jnsgd1na2vs0mg"},{"bike_id":"83a5dddc-f08f-476e-a316-d0e0dfb65037","system_id":"levelo_inurba_marseille","lat":43.3173,"lon":5.42408,"is_reserved":false,"is_disabled":false,"rental_uris":{"android":"levelo://app?vid=83a5dddc-f08f-476e-a316-d0e0dfb65037","ios":"levelo://app?vid=83a5dddc-f08f-476e-a316-d0e0dfb65037"},"vehicle_type_id":"4","last_reported":1747033886,"current_range_meters":9600,"station_id":"ce4bhp92rcd13ifvqhbg","pricing_plan_id":"cebpf4jnsgd1na2vs0mg"},{"bike_id":"c9deaedf-5e5e-40b5-8021-90d32a33051a","system_id":"levelo_inurba_marseille","lat":43.30915,"lon":5.36849,"is_reserved":false,"is_disabled":false,"rental_uris":{"android":"levelo://app?vid=c9deaedf-5e5e-40b5-8021-90d32a33051a","ios":"levelo://app?vid=c9deaedf-5e5e-40b5-8021-90d32a33051a"},"vehicle_type_id":"4","last_reported":1747033886,"current_range_meters":9600,"station_id":"ce4bgn92rcd13ifvqbvg","pricing_plan_id":"cebpf4jnsgd1na2vs0mg"},{"bike_id":"4b8071f5-69a5-472c-8c01-3da02b499dbe","system_id":"levelo_inurba_marseille","lat":43.292777,"lon":5.368443,"is_reserved":false,"is_disabled":true,"rental_uris":{"android":"levelo://app?vid=4b8071f5-69a5-472c-8c01-3da02b499dbe","ios":"levelo://app?vid=4b8071f5-69a5-472c-8c01-3da02b499dbe"},"vehicle_type_id":"4","last_reported":1747033886,"current_range_meters":9600,"station_id":"ce4bhbp2rcd13ifvqesg","pricing_plan_id":"cebpf4jnsgd1na2vs0mg"},{"bike_id":"8ddc5194-6dcd-4338-b396-781602bc7987","system_id":"levelo_inurba_marseille","lat":43.30558,"lon":5.36702,"is_reserved":false,"is_disabled":false,"rental_uris":{"android":"levelo://app?vid=8ddc5194-6dcd-4338-b396-781602bc7987","ios":"levelo://app?vid=8ddc5194-6dcd-4338-b396-781602bc7987"},"vehicle_type_id":"4","last_reported":1747033886,"current_range_meters":9200,"station_id":"ce4bgrp2rcd13ifvqc9g","pricing_plan_id":"cebpf4jnsgd1na2vs0mg"},{"bike_id":"4071bc6b-0376-4f46-b2a9-db87b2084a00","system_id":"levelo_inurba_marseille","lat":43.28272,"lon":5.35079,"is_reserved":false,"is_disabled":true,"rental_uris":{"android":"levelo://app?vid=4071bc6b-0376-4f46-b2a9-db87b2084a00","ios":"levelo://app?vid=4071bc6b-0376-4f46-b2a9-db87b2084a00"},"vehicle_type_id":"4","last_reported":1747033886,"current_range_meters":9600,"station_id":"ce4bhbp2rcd13ifvqerg","pricing_plan_id":"cebpf4jnsgd1na2vs0mg"},{"bike_id":"c80f8f6d-0a84-40ba-a770-93ad44f051f3","system_id":"levelo_inurba_marseille","lat":43.29539,"lon":5.38547,"is_reserved":false,"is_disabled":true,"rental_uris":{"android":"levelo://app?vid=c80f8f6d-0a84-40ba-a770-93ad44f051f3","ios":"levelo://app?vid=c80f8f6d-0a84-40ba-a770-93ad44f051f3"},"vehicle_type_id":"4","last_reported":1747033886,"current_range_meters":9600,"station_id":"ce4bgih2rcd13ifvqba0","pricing_plan_id":"cebpf4jnsgd1na2vs0mg"},{"bike_id":"de608a0b-278b-468e-957e-8246fb76906b","system_id":"levelo_inurba_marseille","lat":43.279544,"lon":5.387188,"is_reserved":false,"is_disabled":true,"rental_uris":{"android":"levelo://app?vid=de608a0b-278b-468e-957e-8246fb76906b","ios":"levelo://app?vid=de608a0b-278b-468e-957e-8246fb76906b"},"vehicle_type_id":"4","last_reported":1747033886,"current_range_meters":9600,"station_id":"ce4bhg12rcd13ifvqf80","pricing_plan_id":"cebpf4jnsgd1na2vs0mg"},{"bike_id":"75f7e021-a9c5-4232-90b8-1417f51b2982","system_id":"levelo_inurba_marseille","lat":43.22498,"lon":5.3472,"is_reserved":false,"is_disabled":true,"rental_uris":{"android":"levelo://app?vid=75f7e021-a9c5-4232-90b8-1417f51b2982","ios":"levelo://app?vid=75f7e021-a9c5-4232-90b8-1417f51b2982"},"vehicle_type_id":"4","last_reported":1747033886,"current_range_meters":10000,"station_id":"st_cvj5dfep6f1abm77gieg","pricing_plan_id":"cebpf4jnsgd1na2vs0mg"},{"bike_id":"3e65b7fa-d7c3-4fd7-ba88-2c063c440251","system_id":"levelo_inurba_marseille","lat":43.2512,"lon":5.40308,"is_reserved":false,"is_disabled":true,"rental_uris":{"android":"levelo://app?vid=3e65b7fa-d7c3-4fd7-ba88-2c063c440251","ios":"levelo://app?vid=3e65b7fa-d7c3-4fd7-ba88-2c063c440251"},"vehicle_type_id":"4","last_reported":1747033886,"current_range_meters":10000,"station_id":"ce4bhlh2rcd13ifvqgig","pricing_plan_id":"cebpf4jnsgd1na2vs0mg"},{"bike_id":"995e5fbf-2d3e-428b-aa14-7b4276796c93","system_id":"levelo_inurba_marseille","lat":43.33609,"lon":5.41033,"is_reserved":false,"is_disabled":false,"rental_uris":{"android":"levelo://app?vid=995e5fbf-2d3e-428b-aa14-7b4276796c93","ios":"levelo://app?vid=995e5fbf-2d3e-428b-aa14-7b4276796c93"},"vehicle_type_id":"4","last_reported":1747033886,"current_range_meters":10000,"station_id":"ce4bhqh2rcd13ifvqhmg","pricing_plan_id":"cebpf4jnsgd1na2vs0mg"},{"bike_id":"673879ad-2062-460c-8d8c-5633441c076d","system_id":"levelo_inurba_marseille","lat":43.29773,"lon":5.37112,"is_reserved":false,"is_disabled":false,"rental_uris":{"android":"levelo://app?vid=673879ad-2062-460c-8d8c-5633441c076d","ios":"levelo://app?vid=673879ad-2062-460c-8d8c-5633441c076d"},"vehicle_type_id":"4","last_reported":1747033886,"current_range_meters":10000,"station_id":"ce4bgop2rcd13ifvqc1g","pricing_plan_id":"cebpf4jnsgd1na2vs0mg"},{"bike_id":"283fdfb9-005b-4325-8d66-9428f105ee8b","system_id":"levelo_inurba_marseille","lat":43.30941,"lon":5.37449,"is_reserved":false,"is_disabled":false,"rental_uris":{"android":"levelo://app?vid=283fdfb9-005b-4325-8d66-9428f105ee8b","ios":"levelo://app?vid=283fdfb9-005b-4325-8d66-9428f105ee8b"},"vehicle_type_id":"4","last_reported":1747033886,"current_range_meters":10000,"station_id":"","pricing_plan_id":"cebpf4jnsgd1na2vs0mg"},{"bike_id":"55856a3b-99d2-496f-a027-bba5a37668e6","system_id":"levelo_inurba_marseille","lat":43.28375,"lon":5.38115,"is_reserved":false,"is_disabled":true,"rental_uris":{"android":"levelo://app?vid=55856a3b-99d2-496f-a027-bba5a37668e6","ios":"levelo://app?vid=55856a3b-99d2-496f-a027-bba5a37668e6"},"vehicle_type_id":"4","last_reported":1747033886,"current_range_meters":10000,"station_id":"ce4bh412rcd13ifvqdr0","pricing_plan_id":"cebpf4jnsgd1na2vs0mg"},{"bike_id":"de4a530f-3b17-41b9-bd98-d22e64d46bdc","system_id":"levelo_inurba_marseille","lat":43.321086,"lon":5.367818,"is_reserved":false,"is_disabled":false,"rental_uris":{"android":"levelo://app?vid=de4a530f-3b17-41b9-bd98-d22e64d46bdc","ios":"levelo://app?vid=de4a530f-3b17-41b9-bd98-d22e64d46bdc"},"vehicle_type_id":"4","last_reported":1747033886,"current_range_meters":10000,"station_id":"ce4bhrh2rcd13ifvqhug","pricing_plan_id":"cebpf4jnsgd1na2vs0mg"},{"bike_id":"f52c819d-ca4b-4640-b458-b877db1bf990","system_id":"levelo_inurba_marseille","lat":43.29881,"lon":5.40956,"is_reserved":false,"is_disabled":false,"rental_uris":{"android":"levelo://app?vid=f52c819d-ca4b-4640-b458-b877db1bf990","ios":"levelo://app?vid=f52c819d-ca4b-4640-b458-b877db1bf990"},"vehicle_type_id":"4","last_reported":1747033886,"current_range_meters":10800,"station_id":"","pricing_plan_id":"cebpf4jnsgd1na2vs0mg"},{"bike_id":"19708695-a8ee-4716-9e14-a794ed2f1a40","system_id":"levelo_inurba_marseille","lat":43.26577,"lon":5.39019,"is_reserved":false,"is_disabled":false,"rental_uris":{"android":"levelo://app?vid=19708695-a8ee-4716-9e14-a794ed2f1a40","ios":"levelo://app?vid=19708695-a8ee-4716-9e14-a794ed2f1a40"},"vehicle_type_id":"4","last_reported":1747033886,"current_range_meters":10800,"station_id":"ce4bhe12rcd13ifvqf30","pricing_plan_id":"cebpf4jnsgd1na2vs0mg"},{"bike_id":"9141d246-41aa-400e-a062-ffa76c8bba4d","system_id":"levelo_inurba_marseille","lat":43.30892,"lon":5.39658,"is_reserved":false,"is_disabled":false,"rental_uris":{"android":"levelo://app?vid=9141d246-41aa-400e-a062-ffa76c8bba4d","ios":"levelo://app?vid=9141d246-41aa-400e-a062-ffa76c8bba4d"},"vehicle_type_id":"4","last_reported":1747033886,"current_range_meters":10000,"station_id":"ce4bh012rcd13ifvqcv0","pricing_plan_id":"cebpf4jnsgd1na2vs0mg"},{"bike_id":"8240bb5f-933b-46ee-a4d5-059d56dc49af","system_id":"levelo_inurba_marseille","lat":43.24182,"lon":5.39738,"is_reserved":false,"is_disabled":false,"rental_uris":{"android":"levelo://app?vid=8240bb5f-933b-46ee-a4d5-059d56dc49af","ios":"levelo://app?vid=8240bb5f-933b-46ee-a4d5-059d56dc49af"},"vehicle_type_id":"4","last_reported":1747033886,"current_range_meters":10800,"station_id":"ce4bhn12rcd13ifvqgpg","pricing_plan_id":"cebpf4jnsgd1na2vs0mg"},{"bike_id":"10a2934f-a63d-4b20-9284-6189164d47c9","system_id":"levelo_inurba_marseille","lat":43.3092,"lon":5.36854,"is_reserved":false,"is_disabled":false,"rental_uris":{"android":"levelo://app?vid=10a2934f-a63d-4b20-9284-6189164d47c9","ios":"levelo://app?vid=10a2934f-a63d-4b20-9284-6189164d47c9"},"vehicle_type_id":"4","last_reported":1747033886,"current_range_meters":10800,"station_id":"ce4bgn92rcd13ifvqbvg","pricing_plan_id":"cebpf4jnsgd1na2vs0mg"},{"bike_id":"37f9a811-b11a-4a13-96cc-e5a1ddf4804e","system_id":"levelo_inurba_marseille","lat":43.23155,"lon":5.43718,"is_reserved":false,"is_disabled":false,"rental_uris":{"android":"levelo://app?vid=37f9a811-b11a-4a13-96cc-e5a1ddf4804e","ios":"levelo://app?vid=37f9a811-b11a-4a13-96cc-e5a1ddf4804e"},"vehicle_type_id":"4","last_reported":1747033886,"current_range_meters":11200,"station_id":"ce4bhmp2rcd13ifvqgog","pricing_plan_id":"cebpf4jnsgd1na2vs0mg"},{"bike_id":"11e4597e-c0da-4b11-b293-5b1f7659f2d6","system_id":"levelo_inurba_marseille","lat":43.31343,"lon":5.36705,"is_reserved":false,"is_disabled":false,"rental_uris":{"android":"levelo://app?vid=11e4597e-c0da-4b11-b293-5b1f7659f2d6","ios":"levelo://app?vid=11e4597e-c0da-4b11-b293-5b1f7659f2d6"},"vehicle_type_id":"4","last_reported":1747033886,"current_range_meters":11200,"station_id":"ce4bgr92rcd13ifvqc6g","pricing_plan_id":"cebpf4jnsgd1na2vs0mg"},{"bike_id":"2ee4d910-0ee1-4bc5-86c8-c77afad12b4f","system_id":"levelo_inurba_marseille","lat":43.321113,"lon":5.367667,"is_reserved":false,"is_disabled":false,"rental_uris":{"android":"levelo://app?vid=2ee4d910-0ee1-4bc5-86c8-c77afad12b4f","ios":"levelo://app?vid=2ee4d910-0ee1-4bc5-86c8-c77afad12b4f"},"vehicle_type_id":"4","last_reported":1747033886,"current_range_meters":11200,"station_id":"ce4bhrh2rcd13ifvqhug","pricing_plan_id":"cebpf4jnsgd1na2vs0mg"},{"bike_id":"e7821cbc-90f0-4895-97a8-fc4a147db19f","system_id":"levelo_inurba_marseille","lat":43.31083,"lon":5.42429,"is_reserved":false,"is_disabled":false,"rental_uris":{"android":"levelo://app?vid=e7821cbc-90f0-4895-97a8-fc4a147db19f","ios":"levelo://app?vid=e7821cbc-90f0-4895-97a8-fc4a147db19f"},"vehicle_type_id":"4","last_reported":1747033886,"current_range_meters":11600,"station_id":"ce4bhp92rcd13ifvqhag","pricing_plan_id":"cebpf4jnsgd1na2vs0mg"},{"bike_id":"7d1ac5d5-d4c2-4b61-a97f-68945c90da7b","system_id":"levelo_inurba_marseille","lat":43.27495,"lon":5.42444,"is_reserved":false,"is_disabled":false,"rental_uris":{"android":"levelo://app?vid=7d1ac5d5-d4c2-4b61-a97f-68945c90da7b","ios":"levelo://app?vid=7d1ac5d5-d4c2-4b61-a97f-68945c90da7b"},"vehicle_type_id":"4","last_reported":1747033886,"current_range_meters":11600,"station_id":"ce4bhn92rcd13ifvqgrg","pricing_plan_id":"cebpf4jnsgd1na2vs0mg"},{"bike_id":"829ec8de-42e4-489d-94ad-c2a37086aad6","system_id":"levelo_inurba_marseille","lat":43.25107,"lon":5.40323,"is_reserved":false,"is_disabled":true,"rental_uris":{"android":"levelo://app?vid=829ec8de-42e4-489d-94ad-c2a37086aad6","ios":"levelo://app?vid=829ec8de-42e4-489d-94ad-c2a37086aad6"},"vehicle_type_id":"4","last_reported":1747033886,"current_range_meters":11600,"station_id":"ce4bhlh2rcd13ifvqgig","pricing_plan_id":"cebpf4jnsgd1na2vs0mg"},{"bike_id":"62c464d8-51f3-4d14-9057-828134b07364","system_id":"levelo_inurba_marseille","lat":43.28117,"lon":5.37823,"is_reserved":false,"is_disabled":false,"rental_uris":{"android":"levelo://app?vid=62c464d8-51f3-4d14-9057-828134b07364","ios":"levelo://app?vid=62c464d8-51f3-4d14-9057-828134b07364"},"vehicle_type_id":"4","last_reported":1747033886,"current_range_meters":11600,"station_id":"ce4bha12rcd13ifvqee0","pricing_plan_id":"cebpf4jnsgd1na2vs0mg"},{"bike_id":"ace8c9c0-2df3-4842-8f8d-1495427e75a8","system_id":"levelo_inurba_marseille","lat":43.279456,"lon":5.41049,"is_reserved":false,"is_disabled":true,"rental_uris":{"android":"levelo://app?vid=ace8c9c0-2df3-4842-8f8d-1495427e75a8","ios":"levelo://app?vid=ace8c9c0-2df3-4842-8f8d-1495427e75a8"},"vehicle_type_id":"4","last_reported":1747033886,"current_range_meters":12000,"station_id":"ce4bhnp2rcd13ifvqh0g","pricing_plan_id":"cebpf4jnsgd1na2vs0mg"},{"bike_id":"68d8f3cb-2ff9-4cad-8197-16a050b2ecab","system_id":"levelo_inurba_marseille","lat":43.30478,"lon":5.37904,"is_reserved":false,"is_disabled":false,"rental_uris":{"android":"levelo://app?vid=68d8f3cb-2ff9-4cad-8197-16a050b2ecab","ios":"levelo://app?vid=68d8f3cb-2ff9-4cad-8197-16a050b2ecab"},"vehicle_type_id":"4","last_reported":1747033886,"current_range_meters":12000,"station_id":"ce4bgup2rcd13ifvqcn0","pricing_plan_id":"cebpf4jnsgd1na2vs0mg"},{"bike_id":"b70da5fe-0590-4764-8a58-b0cab3e2f5ec","system_id":"levelo_inurba_marseille","lat":43.308067,"lon":5.435269,"is_reserved":false,"is_disabled":false,"rental_uris":{"android":"levelo://app?vid=b70da5fe-0590-4764-8a58-b0cab3e2f5ec","ios":"levelo://app?vid=b70da5fe-0590-4764-8a58-b0cab3e2f5ec"},"vehicle_type_id":"4","last_reported":1747033886,"current_range_meters":11600,"station_id":"ce4bhph2rcd13ifvqheg","pricing_plan_id":"cebpf4jnsgd1na2vs0mg"},{"bike_id":"d242fac5-bd33-4551-8b80-5a6f72d8077a","system_id":"levelo_inurba_marseille","lat":43.28838,"lon":5.39312,"is_reserved":false,"is_disabled":false,"rental_uris":{"android":"levelo://app?vid=d242fac5-bd33-4551-8b80-5a6f72d8077a","ios":"levelo://app?vid=d242fac5-bd33-4551-8b80-5a6f72d8077a"},"vehicle_type_id":"4","last_reported":1747033886,"current_range_meters":12000,"station_id":"ce4bh2p2rcd13ifvqdi0","pricing_plan_id":"cebpf4jnsgd1na2vs0mg"},{"bike_id":"a8f961a9-ee12-42fe-b99b-1b7c40163514","system_id":"levelo_inurba_marseille","lat":43.30536,"lon":5.36557,"is_reserved":false,"is_disabled":false,"rental_uris":{"android":"levelo://app?vid=a8f961a9-ee12-42fe-b99b-1b7c40163514","ios":"levelo://app?vid=a8f961a9-ee12-42fe-b99b-1b7c40163514"},"vehicle_type_id":"4","last_reported":1747033886,"current_range_meters":12000,"station_id":"ce4bgs12rcd13ifvqcag","pricing_plan_id":"cebpf4jnsgd1na2vs0mg"},{"bike_id":"ab505afe-02ec-4919-8458-c2d24d617e6a","system_id":"levelo_inurba_marseille","lat":43.32536,"lon":5.41425,"is_reserved":false,"is_disabled":false,"rental_uris":{"android":"levelo://app?vid=ab505afe-02ec-4919-8458-c2d24d617e6a","ios":"levelo://app?vid=ab505afe-02ec-4919-8458-c2d24d617e6a"},"vehicle_type_id":"4","last_reported":1747033886,"current_range_meters":12400,"station_id":"ce4bhq12rcd13ifvqhhg","pricing_plan_id":"cebpf4jnsgd1na2vs0mg"},{"bike_id":"c717b955-1d23-42a6-bf63-f39e0d9342dd","system_id":"levelo_inurba_marseille","lat":43.28296,"lon":5.43115,"is_reserved":false,"is_disabled":false,"rental_uris":{"android":"levelo://app?vid=c717b955-1d23-42a6-bf63-f39e0d9342dd","ios":"levelo://app?vid=c717b955-1d23-42a6-bf63-f39e0d9342dd"},"vehicle_type_id":"4","last_reported":1747033886,"current_range_meters":12400,"station_id":"","pricing_plan_id":"cebpf4jnsgd1na2vs0mg"},{"bike_id":"093772c5-fb44-482c-a0c3-8501aa31b989","system_id":"levelo_inurba_marseille","lat":43.29893,"lon":5.43664,"is_reserved":false,"is_disabled":true,"rental_uris":{"android":"levelo://app?vid=093772c5-fb44-482c-a0c3-8501aa31b989","ios":"levelo://app?vid=093772c5-fb44-482c-a0c3-8501aa31b989"},"vehicle_type_id":"4","last_reported":1747033886,"current_range_meters":12400,"station_id":"ce4bhpp2rcd13ifvqhfg","pricing_plan_id":"cebpf4jnsgd1na2vs0mg"},{"bike_id":"8aa95a32-f084-4cbb-a8ec-ac9ae023b144","system_id":"levelo_inurba_marseille","lat":43.24102,"lon":5.37743,"is_reserved":false,"is_disabled":false,"rental_uris":{"android":"levelo://app?vid=8aa95a32-f084-4cbb-a8ec-ac9ae023b144","ios":"levelo://app?vid=8aa95a32-f084-4cbb-a8ec-ac9ae023b144"},"vehicle_type_id":"4","last_reported":1747033886,"current_range_meters":12800,"station_id":"","pricing_plan_id":"cebpf4jnsgd1na2vs0mg"},{"bike_id":"77b898d6-83c3-4819-8f10-342d8faa3aa9","system_id":"levelo_inurba_marseille","lat":43.27066,"lon":5.42278,"is_reserved":false,"is_disabled":true,"rental_uris":{"android":"levelo://app?vid=77b898d6-83c3-4819-8f10-342d8faa3aa9","ios":"levelo://app?vid=77b898d6-83c3-4819-8f10-342d8faa3aa9"},"vehicle_type_id":"4","last_reported":1747033886,"current_range_meters":12800,"station_id":"ce4bhk92rcd13ifvqgb0","pricing_plan_id":"cebpf4jnsgd1na2vs0mg"},{"bike_id":"f2ad7014-da25-4c51-a828-c9043e95905b","system_id":"levelo_inurba_marseille","lat":43.25581,"lon":5.382296,"is_reserved":false,"is_disabled":false,"rental_uris":{"android":"levelo://app?vid=f2ad7014-da25-4c51-a828-c9043e95905b","ios":"levelo://app?vid=f2ad7014-da25-4c51-a828-c9043e95905b"},"vehicle_type_id":"4","last_reported":1747033886,"current_range_meters":12800,"station_id":"ce4bhih2rcd13ifvqfs0","pricing_plan_id":"cebpf4jnsgd1na2vs0mg"},{"bike_id":"f50ea292-ff88-4796-bd07-8e9c58303144","system_id":"levelo_inurba_marseille","lat":43.29763,"lon":5.37114,"is_reserved":false,"is_disabled":false,"rental_uris":{"android":"levelo://app?vid=f50ea292-ff88-4796-bd07-8e9c58303144","ios":"levelo://app?vid=f50ea292-ff88-4796-bd07-8e9c58303144"},"vehicle_type_id":"4","last_reported":1747033886,"current_range_meters":12800,"station_id":"ce4bgop2rcd13ifvqc1g","pricing_plan_id":"cebpf4jnsgd1na2vs0mg"},{"bike_id":"d6c9883b-ba54-413e-8a94-fc12b4804f13","system_id":"levelo_inurba_marseille","lat":43.25119,"lon":5.40317,"is_reserved":false,"is_disabled":false,"rental_uris":{"android":"levelo://app?vid=d6c9883b-ba54-413e-8a94-fc12b4804f13","ios":"levelo://app?vid=d6c9883b-ba54-413e-8a94-fc12b4804f13"},"vehicle_type_id":"4","last_reported":1747033886,"current_range_meters":12800,"station_id":"ce4bhlh2rcd13ifvqgig","pricing_plan_id":"cebpf4jnsgd1na2vs0mg"},{"bike_id":"bca1914e-cac6-4a8a-9d51-4094f86b9c58","system_id":"levelo_inurba_marseille","lat":43.289727,"lon":5.366347,"is_reserved":false,"is_disabled":true,"rental_uris":{"android":"levelo://app?vid=bca1914e-cac6-4a8a-9d51-4094f86b9c58","ios":"levelo://app?vid=bca1914e-cac6-4a8a-9d51-4094f86b9c58"},"vehicle_type_id":"4","last_reported":1747033886,"current_range_meters":13600,"station_id":"","pricing_plan_id":"cebpf4jnsgd1na2vs0mg"},{"bike_id":"51a0d28f-d5dd-446e-84b0-17b7f268763f","system_id":"levelo_inurba_marseille","lat":43.264956,"lon":5.395406,"is_reserved":false,"is_disabled":false,"rental_uris":{"android":"levelo://app?vid=51a0d28f-d5dd-446e-84b0-17b7f268763f","ios":"levelo://app?vid=51a0d28f-d5dd-446e-84b0-17b7f268763f"},"vehicle_type_id":"4","last_reported":1747033886,"current_range_meters":13600,"station_id":"ce4bhi12rcd13ifvqfq0","pricing_plan_id":"cebpf4jnsgd1na2vs0mg"},{"bike_id":"91c9b9f6-1eaf-472d-a403-ec72afd13dbf","system_id":"levelo_inurba_marseille","lat":43.261912,"lon":5.379376,"is_reserved":false,"is_disabled":false,"rental_uris":{"android":"levelo://app?vid=91c9b9f6-1eaf-472d-a403-ec72afd13dbf","ios":"levelo://app?vid=91c9b9f6-1eaf-472d-a403-ec72afd13dbf"},"vehicle_type_id":"4","last_reported":1747033886,"current_range_meters":13600,"station_id":"ce4bhjp2rcd13ifvqg90","pricing_plan_id":"cebpf4jnsgd1na2vs0mg"},{"bike_id":"a63da369-f316-4936-b7dc-41d1da1b1831","system_id":"levelo_inurba_marseille","lat":43.299714,"lon":5.384945,"is_reserved":false,"is_disabled":true,"rental_uris":{"android":"levelo://app?vid=a63da369-f316-4936-b7dc-41d1da1b1831","ios":"levelo://app?vid=a63da369-f316-4936-b7dc-41d1da1b1831"},"vehicle_type_id":"4","last_reported":1747033886,"current_range_meters":14000,"station_id":"ce4bgj92rcd13ifvqbd0","pricing_plan_id":"cebpf4jnsgd1na2vs0mg"},{"bike_id":"06d5c192-bb57-491d-af41-f34fc3be25a6","system_id":"levelo_inurba_marseille","lat":43.30146,"lon":5.37423,"is_reserved":false,"is_disabled":false,"rental_uris":{"android":"levelo://app?vid=06d5c192-bb57-491d-af41-f34fc3be25a6","ios":"levelo://app?vid=06d5c192-bb57-491d-af41-f34fc3be25a6"},"vehicle_type_id":"4","last_reported":1747033886,"current_range_meters":14000,"station_id":"ce4bgs92rcd13ifvqcc0","pricing_plan_id":"cebpf4jnsgd1na2vs0mg"},{"bike_id":"0a4dc782-e1df-48ff-81bf-b707284fe935","system_id":"levelo_inurba_marseille","lat":43.28433,"lon":5.34987,"is_reserved":false,"is_disabled":true,"rental_uris":{"android":"levelo://app?vid=0a4dc782-e1df-48ff-81bf-b707284fe935","ios":"levelo://app?vid=0a4dc782-e1df-48ff-81bf-b707284fe935"},"vehicle_type_id":"4","last_reported":1747033886,"current_range_meters":14000,"station_id":"ce4bhbh2rcd13ifvqepg","pricing_plan_id":"cebpf4jnsgd1na2vs0mg"},{"bike_id":"e4e87270-29b5-4ef1-94bc-80e66952af02","system_id":"levelo_inurba_marseille","lat":43.295199,"lon":5.375798,"is_reserved":false,"is_disabled":false,"rental_uris":{"android":"levelo://app?vid=e4e87270-29b5-4ef1-94bc-80e66952af02","ios":"levelo://app?vid=e4e87270-29b5-4ef1-94bc-80e66952af02"},"vehicle_type_id":"4","last_reported":1747033886,"current_range_meters":14400,"station_id":"ce4bgh92rcd13ifvqb50","pricing_plan_id":"cebpf4jnsgd1na2vs0mg"},{"bike_id":"be3a48a7-efdf-46f8-a2f2-0f99accb0509","system_id":"levelo_inurba_marseille","lat":43.30532,"lon":5.36706,"is_reserved":false,"is_disabled":false,"rental_uris":{"android":"levelo://app?vid=be3a48a7-efdf-46f8-a2f2-0f99accb0509","ios":"levelo://app?vid=be3a48a7-efdf-46f8-a2f2-0f99accb0509"},"vehicle_type_id":"4","last_reported":1747033886,"current_range_meters":14400,"station_id":"ce4bgrp2rcd13ifvqc9g","pricing_plan_id":"cebpf4jnsgd1na2vs0mg"},{"bike_id":"f023d5da-6c8e-4a6a-bb3e-046cd3c4d71c","system_id":"levelo_inurba_marseille","lat":43.30291,"lon":5.36886,"is_reserved":false,"is_disabled":false,"rental_uris":{"android":"levelo://app?vid=f023d5da-6c8e-4a6a-bb3e-046cd3c4d71c","ios":"levelo://app?vid=f023d5da-6c8e-4a6a-bb3e-046cd3c4d71c"},"vehicle_type_id":"4","last_reported":1747033886,"current_range_meters":14400,"station_id":"ce4bgqh2rcd13ifvqc5g","pricing_plan_id":"cebpf4jnsgd1na2vs0mg"},{"bike_id":"8cf26f62-9b63-4505-b08b-12d42479f8bf","system_id":"levelo_inurba_marseille","lat":43.25732,"lon":5.41108,"is_reserved":false,"is_disabled":false,"rental_uris":{"android":"levelo://app?vid=8cf26f62-9b63-4505-b08b-12d42479f8bf","ios":"levelo://app?vid=8cf26f62-9b63-4505-b08b-12d42479f8bf"},"vehicle_type_id":"4","last_reported":1747033886,"current_range_meters":14800,"station_id":"ce4bhkp2rcd13ifvqgd0","pricing_plan_id":"cebpf4jnsgd1na2vs0mg"},{"bike_id":"f5067748-16fb-4221-b439-905aeb40a51c","system_id":"levelo_inurba_marseille","lat":43.30548,"lon":5.36704,"is_reserved":false,"is_disabled":false,"rental_uris":{"android":"levelo://app?vid=f5067748-16fb-4221-b439-905aeb40a51c","ios":"levelo://app?vid=f5067748-16fb-4221-b439-905aeb40a51c"},"vehicle_type_id":"4","last_reported":1747033886,"current_range_meters":14800,"station_id":"ce4bgrp2rcd13ifvqc9g","pricing_plan_id":"cebpf4jnsgd1na2vs0mg"},{"bike_id":"dff80bd1-e301-49a7-b049-00f1b611688b","system_id":"levelo_inurba_marseille","lat":43.30885,"lon":5.39654,"is_reserved":false,"is_disabled":false,"rental_uris":{"android":"levelo://app?vid=dff80bd1-e301-49a7-b049-00f1b611688b","ios":"levelo://app?vid=dff80bd1-e301-49a7-b049-00f1b611688b"},"vehicle_type_id":"4","last_reported":1747033886,"current_range_meters":14800,"station_id":"ce4bh012rcd13ifvqcv0","pricing_plan_id":"cebpf4jnsgd1na2vs0mg"},{"bike_id":"8cb58eec-43c8-41aa-899e-9650f6236c9b","system_id":"levelo_inurba_marseille","lat":43.30892,"lon":5.37183,"is_reserved":false,"is_disabled":false,"rental_uris":{"android":"levelo://app?vid=8cb58eec-43c8-41aa-899e-9650f6236c9b","ios":"levelo://app?vid=8cb58eec-43c8-41aa-899e-9650f6236c9b"},"vehicle_type_id":"4","last_reported":1747033886,"current_range_meters":15200,"station_id":"ce4bguh2rcd13ifvqckg","pricing_plan_id":"cebpf4jnsgd1na2vs0mg"},{"bike_id":"4a86cdc6-b823-490b-bbf2-e6e3003db362","system_id":"levelo_inurba_marseille","lat":43.313465,"lon":5.367205,"is_reserved":false,"is_disabled":false,"rental_uris":{"android":"levelo://app?vid=4a86cdc6-b823-490b-bbf2-e6e3003db362","ios":"levelo://app?vid=4a86cdc6-b823-490b-bbf2-e6e3003db362"},"vehicle_type_id":"4","last_reported":1747033886,"current_range_meters":16400,"station_id":"ce4bgr92rcd13ifvqc6g","pricing_plan_id":"cebpf4jnsgd1na2vs0mg"},{"bike_id":"08d78f5c-8129-4084-bc9d-0b358be358d2","system_id":"levelo_inurba_marseille","lat":43.31688,"lon":5.40472,"is_reserved":false,"is_disabled":false,"rental_uris":{"android":"levelo://app?vid=08d78f5c-8129-4084-bc9d-0b358be358d2","ios":"levelo://app?vid=08d78f5c-8129-4084-bc9d-0b358be358d2"},"vehicle_type_id":"4","last_reported":1747033886,"current_range_meters":16400,"station_id":"ce4bh012rcd13ifvqd00","pricing_plan_id":"cebpf4jnsgd1na2vs0mg"},{"bike_id":"efb62e9e-a5bf-4966-90aa-8d3ad0a27c0f","system_id":"levelo_inurba_marseille","lat":43.23959,"lon":5.3665,"is_reserved":false,"is_disabled":false,"rental_uris":{"android":"levelo://app?vid=efb62e9e-a5bf-4966-90aa-8d3ad0a27c0f","ios":"levelo://app?vid=efb62e9e-a5bf-4966-90aa-8d3ad0a27c0f"},"vehicle_type_id":"4","last_reported":1747033886,"current_range_meters":16000,"station_id":"ce4bhi12rcd13ifvqfp0","pricing_plan_id":"cebpf4jnsgd1na2vs0mg"},{"bike_id":"114100dc-96fb-46da-9b2a-6a4c53bce82c","system_id":"levelo_inurba_marseille","lat":43.299743,"lon":5.371688,"is_reserved":false,"is_disabled":false,"rental_uris":{"android":"levelo://app?vid=114100dc-96fb-46da-9b2a-6a4c53bce82c","ios":"levelo://app?vid=114100dc-96fb-46da-9b2a-6a4c53bce82c"},"vehicle_type_id":"4","last_reported":1747033886,"current_range_meters":16400,"station_id":"ce4bgr92rcd13ifvqc7g","pricing_plan_id":"cebpf4jnsgd1na2vs0mg"},{"bike_id":"923bc3c8-9653-42f6-ab2d-a12cb585d499","system_id":"levelo_inurba_marseille","lat":43.29442,"lon":5.38691,"is_reserved":false,"is_disabled":false,"rental_uris":{"android":"levelo://app?vid=923bc3c8-9653-42f6-ab2d-a12cb585d499","ios":"levelo://app?vid=923bc3c8-9653-42f6-ab2d-a12cb585d499"},"vehicle_type_id":"4","last_reported":1747033886,"current_range_meters":16400,"station_id":"","pricing_plan_id":"cebpf4jnsgd1na2vs0mg"},{"bike_id":"1aab4aa2-19b2-47ee-8a2e-43fbbfc39058","system_id":"levelo_inurba_marseille","lat":43.301275,"lon":5.387849,"is_reserved":false,"is_disabled":true,"rental_uris":{"android":"levelo://app?vid=1aab4aa2-19b2-47ee-8a2e-43fbbfc39058","ios":"levelo://app?vid=1aab4aa2-19b2-47ee-8a2e-43fbbfc39058"},"vehicle_type_id":"4","last_reported":1747033886,"current_range_meters":16400,"station_id":"ce4bghh2rcd13ifvqb60","pricing_plan_id":"cebpf4jnsgd1na2vs0mg"},{"bike_id":"f69257da-8878-41a7-b8f6-c7f02aa7ae1d","system_id":"levelo_inurba_marseille","lat":43.25934,"lon":5.40911,"is_reserved":false,"is_disabled":false,"rental_uris":{"android":"levelo://app?vid=f69257da-8878-41a7-b8f6-c7f02aa7ae1d","ios":"levelo://app?vid=f69257da-8878-41a7-b8f6-c7f02aa7ae1d"},"vehicle_type_id":"4","last_reported":1747033886,"current_range_meters":16800,"station_id":"ce4bhm92rcd13ifvqglg","pricing_plan_id":"cebpf4jnsgd1na2vs0mg"},{"bike_id":"aca142bd-2716-4ee3-8c04-bd27c952c647","system_id":"levelo_inurba_marseille","lat":43.26444,"lon":5.37478,"is_reserved":false,"is_disabled":false,"rental_uris":{"android":"levelo://app?vid=aca142bd-2716-4ee3-8c04-bd27c952c647","ios":"levelo://app?vid=aca142bd-2716-4ee3-8c04-bd27c952c647"},"vehicle_type_id":"4","last_reported":1747033886,"current_range_meters":16800,"station_id":"","pricing_plan_id":"cebpf4jnsgd1na2vs0mg"},{"bike_id":"9264b5eb-e573-451e-aa47-2e3cf2c6552a","system_id":"levelo_inurba_marseille","lat":43.30275,"lon":5.37709,"is_reserved":false,"is_disabled":false,"rental_uris":{"android":"levelo://app?vid=9264b5eb-e573-451e-aa47-2e3cf2c6552a","ios":"levelo://app?vid=9264b5eb-e573-451e-aa47-2e3cf2c6552a"},"vehicle_type_id":"4","last_reported":1747033886,"current_range_meters":16800,"station_id":"ce4bguh2rcd13ifvqcj0","pricing_plan_id":"cebpf4jnsgd1na2vs0mg"},{"bike_id":"76093809-58f7-4f65-a9e3-acfb8c5bb9b6","system_id":"levelo_inurba_marseille","lat":43.24075,"lon":5.37763,"is_reserved":false,"is_disabled":false,"rental_uris":{"android":"levelo://app?vid=76093809-58f7-4f65-a9e3-acfb8c5bb9b6","ios":"levelo://app?vid=76093809-58f7-4f65-a9e3-acfb8c5bb9b6"},"vehicle_type_id":"4","last_reported":1747033886,"current_range_meters":17200,"station_id":"ce4bhnp2rcd13ifvqgvg","pricing_plan_id":"cebpf4jnsgd1na2vs0mg"},{"bike_id":"f9c899a5-888c-4627-af53-0401f3e5ba6a","system_id":"levelo_inurba_marseille","lat":43.25727,"lon":5.41106,"is_reserved":false,"is_disabled":false,"rental_uris":{"android":"levelo://app?vid=f9c899a5-888c-4627-af53-0401f3e5ba6a","ios":"levelo://app?vid=f9c899a5-888c-4627-af53-0401f3e5ba6a"},"vehicle_type_id":"4","last_reported":1747033886,"current_range_meters":17200,"station_id":"ce4bhkp2rcd13ifvqgd0","pricing_plan_id":"cebpf4jnsgd1na2vs0mg"},{"bike_id":"8995a6ff-add1-4bca-a9f9-6366652969c9","system_id":"levelo_inurba_marseille","lat":43.3132,"lon":5.36738,"is_reserved":false,"is_disabled":false,"rental_uris":{"android":"levelo://app?vid=8995a6ff-add1-4bca-a9f9-6366652969c9","ios":"levelo://app?vid=8995a6ff-add1-4bca-a9f9-6366652969c9"},"vehicle_type_id":"4","last_reported":1747033886,"current_range_meters":17600,"station_id":"ce4bgr92rcd13ifvqc6g","pricing_plan_id":"cebpf4jnsgd1na2vs0mg"},{"bike_id":"90369903-f828-45b6-935c-bbdd6f528857","system_id":"levelo_inurba_marseille","lat":43.23153,"lon":5.43709,"is_reserved":false,"is_disabled":false,"rental_uris":{"android":"levelo://app?vid=90369903-f828-45b6-935c-bbdd6f528857","ios":"levelo://app?vid=90369903-f828-45b6-935c-bbdd6f528857"},"vehicle_type_id":"4","last_reported":1747033886,"current_range_meters":17600,"station_id":"ce4bhmp2rcd13ifvqgog","pricing_plan_id":"cebpf4jnsgd1na2vs0mg"},{"bike_id":"294f442a-0613-428d-ae2a-0cf72c6c5397","system_id":"levelo_inurba_marseille","lat":43.27961,"lon":5.38689,"is_reserved":false,"is_disabled":false,"rental_uris":{"android":"levelo://app?vid=294f442a-0613-428d-ae2a-0cf72c6c5397","ios":"levelo://app?vid=294f442a-0613-428d-ae2a-0cf72c6c5397"},"vehicle_type_id":"4","last_reported":1747033886,"current_range_meters":18000,"station_id":"ce4bhg12rcd13ifvqf80","pricing_plan_id":"cebpf4jnsgd1na2vs0mg"},{"bike_id":"b902a09a-ad68-487b-9764-06bad030b8b5","system_id":"levelo_inurba_marseille","lat":43.27429,"lon":5.397813,"is_reserved":false,"is_disabled":false,"rental_uris":{"android":"levelo://app?vid=b902a09a-ad68-487b-9764-06bad030b8b5","ios":"levelo://app?vid=b902a09a-ad68-487b-9764-06bad030b8b5"},"vehicle_type_id":"4","last_reported":1747033886,"current_range_meters":18000,"station_id":"ce4bhkp2rcd13ifvqgd0","pricing_plan_id":"cebpf4jnsgd1na2vs0mg"},{"bike_id":"2df1ab65-61e9-4fcf-9a25-275a30df03a7","system_id":"levelo_inurba_marseille","lat":43.30921,"lon":5.3685,"is_reserved":false,"is_disabled":false,"rental_uris":{"android":"levelo://app?vid=2df1ab65-61e9-4fcf-9a25-275a30df03a7","ios":"levelo://app?vid=2df1ab65-61e9-4fcf-9a25-275a30df03a7"},"vehicle_type_id":"4","last_reported":1747033886,"current_range_meters":18000,"station_id":"ce4bgn92rcd13ifvqbvg","pricing_plan_id":"cebpf4jnsgd1na2vs0mg"},{"bike_id":"dc79e1a9-4804-40b9-9063-cbe7d4c914a2","system_id":"levelo_inurba_marseille","lat":43.302424,"lon":5.374381,"is_reserved":false,"is_disabled":false,"rental_uris":{"android":"levelo://app?vid=dc79e1a9-4804-40b9-9063-cbe7d4c914a2","ios":"levelo://app?vid=dc79e1a9-4804-40b9-9063-cbe7d4c914a2"},"vehicle_type_id":"4","last_reported":1747033886,"current_range_meters":18000,"station_id":"","pricing_plan_id":"cebpf4jnsgd1na2vs0mg"},{"bike_id":"5304a163-325c-4baa-a281-f0fdf86d0265","system_id":"levelo_inurba_marseille","lat":43.27484,"lon":5.42441,"is_reserved":false,"is_disabled":false,"rental_uris":{"android":"levelo://app?vid=5304a163-325c-4baa-a281-f0fdf86d0265","ios":"levelo://app?vid=5304a163-325c-4baa-a281-f0fdf86d0265"},"vehicle_type_id":"4","last_reported":1747033886,"current_range_meters":18000,"station_id":"ce4bhn92rcd13ifvqgrg","pricing_plan_id":"cebpf4jnsgd1na2vs0mg"},{"bike_id":"3b8db556-de89-44d0-994d-1d37c2446eb1","system_id":"levelo_inurba_marseille","lat":43.29039,"lon":5.39966,"is_reserved":false,"is_disabled":false,"rental_uris":{"android":"levelo://app?vid=3b8db556-de89-44d0-994d-1d37c2446eb1","ios":"levelo://app?vid=3b8db556-de89-44d0-994d-1d37c2446eb1"},"vehicle_type_id":"4","last_reported":1747033886,"current_range_meters":18000,"station_id":"ce4bh392rcd13ifvqdm0","pricing_plan_id":"cebpf4jnsgd1na2vs0mg"},{"bike_id":"e8c31f4e-8d16-426b-b5fc-9f997a75435b","system_id":"levelo_inurba_marseille","lat":43.30539,"lon":5.36703,"is_reserved":false,"is_disabled":false,"rental_uris":{"android":"levelo://app?vid=e8c31f4e-8d16-426b-b5fc-9f997a75435b","ios":"levelo://app?vid=e8c31f4e-8d16-426b-b5fc-9f997a75435b"},"vehicle_type_id":"4","last_reported":1747033886,"current_range_meters":18000,"station_id":"ce4bgrp2rcd13ifvqc9g","pricing_plan_id":"cebpf4jnsgd1na2vs0mg"},{"bike_id":"cddebfb5-ba9a-4b45-8db6-1d3b911c2d1f","system_id":"levelo_inurba_marseille","lat":43.30909,"lon":5.36846,"is_reserved":false,"is_disabled":false,"rental_uris":{"android":"levelo://app?vid=cddebfb5-ba9a-4b45-8db6-1d3b911c2d1f","ios":"levelo://app?vid=cddebfb5-ba9a-4b45-8db6-1d3b911c2d1f"},"vehicle_type_id":"4","last_reported":1747033886,"current_range_meters":18000,"station_id":"ce4bgn92rcd13ifvqbvg","pricing_plan_id":"cebpf4jnsgd1na2vs0mg"},{"bike_id":"fc6e693c-992c-41f9-b827-1151421c293f","system_id":"levelo_inurba_marseille","lat":43.25933,"lon":5.40909,"is_reserved":false,"is_disabled":false,"rental_uris":{"android":"levelo://app?vid=fc6e693c-992c-41f9-b827-1151421c293f","ios":"levelo://app?vid=fc6e693c-992c-41f9-b827-1151421c293f"},"vehicle_type_id":"4","last_reported":1747033886,"current_range_meters":18000,"station_id":"ce4bhm92rcd13ifvqglg","pricing_plan_id":"cebpf4jnsgd1na2vs0mg"},{"bike_id":"f8dc9e04-d2ee-4752-9e41-df75a435cdb1","system_id":"levelo_inurba_marseille","lat":43.3255,"lon":5.41457,"is_reserved":false,"is_disabled":false,"rental_uris":{"android":"levelo://app?vid=f8dc9e04-d2ee-4752-9e41-df75a435cdb1","ios":"levelo://app?vid=f8dc9e04-d2ee-4752-9e41-df75a435cdb1"},"vehicle_type_id":"4","last_reported":1747033886,"current_range_meters":18800,"station_id":"ce4bhq12rcd13ifvqhhg","pricing_plan_id":"cebpf4jnsgd1na2vs0mg"},{"bike_id":"8acb5c33-715c-472b-b181-6250c36ed015","system_id":"levelo_inurba_marseille","lat":43.301472,"lon":5.380864,"is_reserved":false,"is_disabled":true,"rental_uris":{"android":"levelo://app?vid=8acb5c33-715c-472b-b181-6250c36ed015","ios":"levelo://app?vid=8acb5c33-715c-472b-b181-6250c36ed015"},"vehicle_type_id":"4","last_reported":1747033886,"current_range_meters":18800,"station_id":"","pricing_plan_id":"cebpf4jnsgd1na2vs0mg"},{"bike_id":"cc6105f9-6f7d-4848-9f36-916e401bfe26","system_id":"levelo_inurba_marseille","lat":43.31347,"lon":5.36713,"is_reserved":false,"is_disabled":false,"rental_uris":{"android":"levelo://app?vid=cc6105f9-6f7d-4848-9f36-916e401bfe26","ios":"levelo://app?vid=cc6105f9-6f7d-4848-9f36-916e401bfe26"},"vehicle_type_id":"4","last_reported":1747033886,"current_range_meters":18800,"station_id":"ce4bgr92rcd13ifvqc6g","pricing_plan_id":"cebpf4jnsgd1na2vs0mg"},{"bike_id":"5c0afe02-e4ef-4129-808a-cc1834fa7ec0","system_id":"levelo_inurba_marseille","lat":43.26953,"lon":5.38649,"is_reserved":false,"is_disabled":true,"rental_uris":{"android":"levelo://app?vid=5c0afe02-e4ef-4129-808a-cc1834fa7ec0","ios":"levelo://app?vid=5c0afe02-e4ef-4129-808a-cc1834fa7ec0"},"vehicle_type_id":"4","last_reported":1747033886,"current_range_meters":18800,"station_id":"ce4bhh92rcd13ifvqfh0","pricing_plan_id":"cebpf4jnsgd1na2vs0mg"},{"bike_id":"bf6d392c-76ea-4e2e-8173-b31e7f798cd8","system_id":"levelo_inurba_marseille","lat":43.25938,"lon":5.409,"is_reserved":false,"is_disabled":false,"rental_uris":{"android":"levelo://app?vid=bf6d392c-76ea-4e2e-8173-b31e7f798cd8","ios":"levelo://app?vid=bf6d392c-76ea-4e2e-8173-b31e7f798cd8"},"vehicle_type_id":"4","last_reported":1747033886,"current_range_meters":18800,"station_id":"ce4bhm92rcd13ifvqglg","pricing_plan_id":"cebpf4jnsgd1na2vs0mg"},{"bike_id":"274428a0-f624-470d-97ad-4d677cbd848f","system_id":"levelo_inurba_marseille","lat":43.270669,"lon":5.422821,"is_reserved":false,"is_disabled":false,"rental_uris":{"android":"levelo://app?vid=274428a0-f624-470d-97ad-4d677cbd848f","ios":"levelo://app?vid=274428a0-f624-470d-97ad-4d677cbd848f"},"vehicle_type_id":"4","last_reported":1747033886,"current_range_meters":19200,"station_id":"ce4bhk92rcd13ifvqgb0","pricing_plan_id":"cebpf4jnsgd1na2vs0mg"},{"bike_id":"6a4f700e-2091-4ba2-940a-dc26934d0b22","system_id":"levelo_inurba_marseille","lat":43.29249,"lon":5.37606,"is_reserved":false,"is_disabled":false,"rental_uris":{"android":"levelo://app?vid=6a4f700e-2091-4ba2-940a-dc26934d0b22","ios":"levelo://app?vid=6a4f700e-2091-4ba2-940a-dc26934d0b22"},"vehicle_type_id":"4","last_reported":1747033886,"current_range_meters":19200,"station_id":"ce4bgi12rcd13ifvqb80","pricing_plan_id":"cebpf4jnsgd1na2vs0mg"},{"bike_id":"38b7b9f0-4d03-4b6a-b846-b1a53fc87f21","system_id":"levelo_inurba_marseille","lat":43.262631,"lon":5.405323,"is_reserved":false,"is_disabled":false,"rental_uris":{"android":"levelo://app?vid=38b7b9f0-4d03-4b6a-b846-b1a53fc87f21","ios":"levelo://app?vid=38b7b9f0-4d03-4b6a-b846-b1a53fc87f21"},"vehicle_type_id":"4","last_reported":1747033886,"current_range_meters":19200,"station_id":"ce4bh412rcd13ifvqds0","pricing_plan_id":"cebpf4jnsgd1na2vs0mg"},{"bike_id":"e5a8b07c-0025-499d-976f-7165264b0c14","system_id":"levelo_inurba_marseille","lat":43.29266,"lon":5.37621,"is_reserved":false,"is_disabled":false,"rental_uris":{"android":"levelo://app?vid=e5a8b07c-0025-499d-976f-7165264b0c14","ios":"levelo://app?vid=e5a8b07c-0025-499d-976f-7165264b0c14"},"vehicle_type_id":"4","last_reported":1747033886,"current_range_meters":19200,"station_id":"ce4bgi12rcd13ifvqb80","pricing_plan_id":"cebpf4jnsgd1na2vs0mg"},{"bike_id":"d0d77266-b030-48e7-bb4a-e4747b4776ec","system_id":"levelo_inurba_marseille","lat":43.30135,"lon":5.39877,"is_reserved":false,"is_disabled":true,"rental_uris":{"android":"levelo://app?vid=d0d77266-b030-48e7-bb4a-e4747b4776ec","ios":"levelo://app?vid=d0d77266-b030-48e7-bb4a-e4747b4776ec"},"vehicle_type_id":"4","last_reported":1747033886,"current_range_meters":19200,"station_id":"ce4bh0h2rcd13ifvqd40","pricing_plan_id":"cebpf4jnsgd1na2vs0mg"},{"bike_id":"fff0e4d4-39ac-48d5-99a5-85615c4a83f8","system_id":"levelo_inurba_marseille","lat":43.29981,"lon":5.39204,"is_reserved":false,"is_disabled":true,"rental_uris":{"android":"levelo://app?vid=fff0e4d4-39ac-48d5-99a5-85615c4a83f8","ios":"levelo://app?vid=fff0e4d4-39ac-48d5-99a5-85615c4a83f8"},"vehicle_type_id":"4","last_reported":1747033886,"current_range_meters":19200,"station_id":"","pricing_plan_id":"cebpf4jnsgd1na2vs0mg"},{"bike_id":"77f04649-f9d2-4222-99e5-75d958567933","system_id":"levelo_inurba_marseille","lat":43.25933,"lon":5.40907,"is_reserved":false,"is_disabled":false,"rental_uris":{"android":"levelo://app?vid=77f04649-f9d2-4222-99e5-75d958567933","ios":"levelo://app?vid=77f04649-f9d2-4222-99e5-75d958567933"},"vehicle_type_id":"4","last_reported":1747033886,"current_range_meters":19600,"station_id":"ce4bhm92rcd13ifvqglg","pricing_plan_id":"cebpf4jnsgd1na2vs0mg"},{"bike_id":"feaed5e1-8dfb-4df7-bd3a-9eb769163c1a","system_id":"levelo_inurba_marseille","lat":43.30905,"lon":5.36841,"is_reserved":false,"is_disabled":false,"rental_uris":{"android":"levelo://app?vid=feaed5e1-8dfb-4df7-bd3a-9eb769163c1a","ios":"levelo://app?vid=feaed5e1-8dfb-4df7-bd3a-9eb769163c1a"},"vehicle_type_id":"4","last_reported":1747033886,"current_range_meters":19600,"station_id":"ce4bgn92rcd13ifvqbvg","pricing_plan_id":"cebpf4jnsgd1na2vs0mg"},{"bike_id":"c20c9918-16fa-4f89-b948-fa3e20e0d3b7","system_id":"levelo_inurba_marseille","lat":43.3123,"lon":5.36843,"is_reserved":false,"is_disabled":false,"rental_uris":{"android":"levelo://app?vid=c20c9918-16fa-4f89-b948-fa3e20e0d3b7","ios":"levelo://app?vid=c20c9918-16fa-4f89-b948-fa3e20e0d3b7"},"vehicle_type_id":"4","last_reported":1747033886,"current_range_meters":20000,"station_id":"ce4bgl92rcd13ifvqbq0","pricing_plan_id":"cebpf4jnsgd1na2vs0mg"},{"bike_id":"c2180296-e525-4f7e-aeda-5622275d4cbc","system_id":"levelo_inurba_marseille","lat":43.30538,"lon":5.3655,"is_reserved":false,"is_disabled":false,"rental_uris":{"android":"levelo://app?vid=c2180296-e525-4f7e-aeda-5622275d4cbc","ios":"levelo://app?vid=c2180296-e525-4f7e-aeda-5622275d4cbc"},"vehicle_type_id":"4","last_reported":1747033886,"current_range_meters":20000,"station_id":"ce4bgs12rcd13ifvqcag","pricing_plan_id":"cebpf4jnsgd1na2vs0mg"},{"bike_id":"ef2b26fc-936e-4fec-98df-2bdec328e090","system_id":"levelo_inurba_marseille","lat":43.27938,"lon":5.41045,"is_reserved":false,"is_disabled":false,"rental_uris":{"android":"levelo://app?vid=ef2b26fc-936e-4fec-98df-2bdec328e090","ios":"levelo://app?vid=ef2b26fc-936e-4fec-98df-2bdec328e090"},"vehicle_type_id":"4","last_reported":1747033886,"current_range_meters":20000,"station_id":"ce4bhnp2rcd13ifvqh0g","pricing_plan_id":"cebpf4jnsgd1na2vs0mg"},{"bike_id":"64fe9b0e-93e0-4846-87ac-5c14a0c43c6c","system_id":"levelo_inurba_marseille","lat":43.33718,"lon":5.39193,"is_reserved":false,"is_disabled":false,"rental_uris":{"android":"levelo://app?vid=64fe9b0e-93e0-4846-87ac-5c14a0c43c6c","ios":"levelo://app?vid=64fe9b0e-93e0-4846-87ac-5c14a0c43c6c"},"vehicle_type_id":"4","last_reported":1747033886,"current_range_meters":19600,"station_id":"ce4bhr92rcd13ifvqhsg","pricing_plan_id":"cebpf4jnsgd1na2vs0mg"},{"bike_id":"6b335384-884e-4a9b-a5c3-4f818d710f88","system_id":"levelo_inurba_marseille","lat":43.32538,"lon":5.41451,"is_reserved":false,"is_disabled":false,"rental_uris":{"android":"levelo://app?vid=6b335384-884e-4a9b-a5c3-4f818d710f88","ios":"levelo://app?vid=6b335384-884e-4a9b-a5c3-4f818d710f88"},"vehicle_type_id":"4","last_reported":1747033886,"current_range_meters":20000,"station_id":"ce4bhq12rcd13ifvqhhg","pricing_plan_id":"cebpf4jnsgd1na2vs0mg"},{"bike_id":"af870e04-8d0c-4a00-a73d-c5c448081eaf","system_id":"levelo_inurba_marseille","lat":43.290312,"lon":5.386413,"is_reserved":false,"is_disabled":true,"rental_uris":{"android":"levelo://app?vid=af870e04-8d0c-4a00-a73d-c5c448081eaf","ios":"levelo://app?vid=af870e04-8d0c-4a00-a73d-c5c448081eaf"},"vehicle_type_id":"4","last_reported":1747033886,"current_range_meters":20000,"station_id":"ce4bh4p2rcd13ifvqe0g","pricing_plan_id":"cebpf4jnsgd1na2vs0mg"},{"bike_id":"ea1eca92-ae8d-4090-800e-971b03021a45","system_id":"levelo_inurba_marseille","lat":43.27494,"lon":5.42451,"is_reserved":false,"is_disabled":false,"rental_uris":{"android":"levelo://app?vid=ea1eca92-ae8d-4090-800e-971b03021a45","ios":"levelo://app?vid=ea1eca92-ae8d-4090-800e-971b03021a45"},"vehicle_type_id":"4","last_reported":1747033886,"current_range_meters":20000,"station_id":"ce4bhn92rcd13ifvqgrg","pricing_plan_id":"cebpf4jnsgd1na2vs0mg"},{"bike_id":"3760a90c-af47-4664-8a68-82982bdfbbe5","system_id":"levelo_inurba_marseille","lat":43.28856,"lon":5.39315,"is_reserved":false,"is_disabled":false,"rental_uris":{"android":"levelo://app?vid=3760a90c-af47-4664-8a68-82982bdfbbe5","ios":"levelo://app?vid=3760a90c-af47-4664-8a68-82982bdfbbe5"},"vehicle_type_id":"4","last_reported":1747033886,"current_range_meters":20000,"station_id":"ce4bh2p2rcd13ifvqdi0","pricing_plan_id":"cebpf4jnsgd1na2vs0mg"},{"bike_id":"4e97d8c4-d7ff-436e-a33c-0cb524219512","system_id":"levelo_inurba_marseille","lat":43.31701,"lon":5.40461,"is_reserved":false,"is_disabled":false,"rental_uris":{"android":"levelo://app?vid=4e97d8c4-d7ff-436e-a33c-0cb524219512","ios":"levelo://app?vid=4e97d8c4-d7ff-436e-a33c-0cb524219512"},"vehicle_type_id":"4","last_reported":1747033886,"current_range_meters":20000,"station_id":"ce4bh012rcd13ifvqd00","pricing_plan_id":"cebpf4jnsgd1na2vs0mg"},{"bike_id":"f1342c4c-a94b-4654-9628-680ba7db74df","system_id":"levelo_inurba_marseille","lat":43.23196,"lon":5.35523,"is_reserved":false,"is_disabled":true,"rental_uris":{"android":"levelo://app?vid=f1342c4c-a94b-4654-9628-680ba7db74df","ios":"levelo://app?vid=f1342c4c-a94b-4654-9628-680ba7db74df"},"vehicle_type_id":"4","last_reported":1747033886,"current_range_meters":20000,"station_id":"ce4bhu92rcd13ifvqi70","pricing_plan_id":"cebpf4jnsgd1na2vs0mg"},{"bike_id":"0313b675-cb4e-4522-bfa7-1ec9c2c6ec9b","system_id":"levelo_inurba_marseille","lat":43.3054,"lon":5.36556,"is_reserved":false,"is_disabled":false,"rental_uris":{"android":"levelo://app?vid=0313b675-cb4e-4522-bfa7-1ec9c2c6ec9b","ios":"levelo://app?vid=0313b675-cb4e-4522-bfa7-1ec9c2c6ec9b"},"vehicle_type_id":"4","last_reported":1747033886,"current_range_meters":20000,"station_id":"ce4bgs12rcd13ifvqcag","pricing_plan_id":"cebpf4jnsgd1na2vs0mg"},{"bike_id":"52113851-1488-4df3-816e-7070c016bca6","system_id":"levelo_inurba_marseille","lat":43.26561,"lon":5.38999,"is_reserved":false,"is_disabled":false,"rental_uris":{"android":"levelo://app?vid=52113851-1488-4df3-816e-7070c016bca6","ios":"levelo://app?vid=52113851-1488-4df3-816e-7070c016bca6"},"vehicle_type_id":"4","last_reported":1747033886,"current_range_meters":20000,"station_id":"ce4bhe12rcd13ifvqf30","pricing_plan_id":"cebpf4jnsgd1na2vs0mg"},{"bike_id":"a2ca5ede-ce4f-4c21-a020-bb0d99beeee4","system_id":"levelo_inurba_marseille","lat":43.25939,"lon":5.40897,"is_reserved":false,"is_disabled":false,"rental_uris":{"android":"levelo://app?vid=a2ca5ede-ce4f-4c21-a020-bb0d99beeee4","ios":"levelo://app?vid=a2ca5ede-ce4f-4c21-a020-bb0d99beeee4"},"vehicle_type_id":"4","last_reported":1747033886,"current_range_meters":20400,"station_id":"ce4bhm92rcd13ifvqglg","pricing_plan_id":"cebpf4jnsgd1na2vs0mg"},{"bike_id":"b336a229-0bf1-452c-97d8-afd000b0f02e","system_id":"levelo_inurba_marseille","lat":43.32503,"lon":5.36589,"is_reserved":false,"is_disabled":true,"rental_uris":{"android":"levelo://app?vid=b336a229-0bf1-452c-97d8-afd000b0f02e","ios":"levelo://app?vid=b336a229-0bf1-452c-97d8-afd000b0f02e"},"vehicle_type_id":"4","last_reported":1747033886,"current_range_meters":20400,"station_id":"ce4bhs12rcd13ifvqhvg","pricing_plan_id":"cebpf4jnsgd1na2vs0mg"},{"bike_id":"7f9abf71-8019-498c-8243-8b5ce9ff851e","system_id":"levelo_inurba_marseille","lat":43.298539,"lon":5.362953,"is_reserved":false,"is_disabled":true,"rental_uris":{"android":"levelo://app?vid=7f9abf71-8019-498c-8243-8b5ce9ff851e","ios":"levelo://app?vid=7f9abf71-8019-498c-8243-8b5ce9ff851e"},"vehicle_type_id":"4","last_reported":1747033886,"current_range_meters":20400,"station_id":"","pricing_plan_id":"cebpf4jnsgd1na2vs0mg"},{"bike_id":"84b4bb9c-665d-4c0c-b45b-85ddd3240c78","system_id":"levelo_inurba_marseille","lat":43.27205,"lon":5.3918,"is_reserved":false,"is_disabled":false,"rental_uris":{"android":"levelo://app?vid=84b4bb9c-665d-4c0c-b45b-85ddd3240c78","ios":"levelo://app?vid=84b4bb9c-665d-4c0c-b45b-85ddd3240c78"},"vehicle_type_id":"4","last_reported":1747033886,"current_range_meters":20400,"station_id":"ce4bhhp2rcd13ifvqfm0","pricing_plan_id":"cebpf4jnsgd1na2vs0mg"},{"bike_id":"2bfa9be8-de4b-4789-ab32-c5f272092122","system_id":"levelo_inurba_marseille","lat":43.2796,"lon":5.3871,"is_reserved":false,"is_disabled":false,"rental_uris":{"android":"levelo://app?vid=2bfa9be8-de4b-4789-ab32-c5f272092122","ios":"levelo://app?vid=2bfa9be8-de4b-4789-ab32-c5f272092122"},"vehicle_type_id":"4","last_reported":1747033886,"current_range_meters":20800,"station_id":"ce4bhg12rcd13ifvqf80","pricing_plan_id":"cebpf4jnsgd1na2vs0mg"},{"bike_id":"9190df99-a307-433e-90e0-340a66f17de6","system_id":"levelo_inurba_marseille","lat":43.25936,"lon":5.40903,"is_reserved":false,"is_disabled":false,"rental_uris":{"android":"levelo://app?vid=9190df99-a307-433e-90e0-340a66f17de6","ios":"levelo://app?vid=9190df99-a307-433e-90e0-340a66f17de6"},"vehicle_type_id":"4","last_reported":1747033886,"current_range_meters":20800,"station_id":"ce4bhm92rcd13ifvqglg","pricing_plan_id":"cebpf4jnsgd1na2vs0mg"},{"bike_id":"ad318f3b-2a79-4060-98f6-ed32498cf202","system_id":"levelo_inurba_marseille","lat":43.25935,"lon":5.40911,"is_reserved":false,"is_disabled":false,"rental_uris":{"android":"levelo://app?vid=ad318f3b-2a79-4060-98f6-ed32498cf202","ios":"levelo://app?vid=ad318f3b-2a79-4060-98f6-ed32498cf202"},"vehicle_type_id":"4","last_reported":1747033886,"current_range_meters":20800,"station_id":"ce4bhm92rcd13ifvqglg","pricing_plan_id":"cebpf4jnsgd1na2vs0mg"},{"bike_id":"cc25aae6-3197-44f8-8471-8a0efb35cc4f","system_id":"levelo_inurba_marseille","lat":43.30737,"lon":5.36713,"is_reserved":false,"is_disabled":true,"rental_uris":{"android":"levelo://app?vid=cc25aae6-3197-44f8-8471-8a0efb35cc4f","ios":"levelo://app?vid=cc25aae6-3197-44f8-8471-8a0efb35cc4f"},"vehicle_type_id":"4","last_reported":1747033886,"current_range_meters":20800,"station_id":"","pricing_plan_id":"cebpf4jnsgd1na2vs0mg"},{"bike_id":"e6dcc4fb-28d6-42b3-a8f2-825ed54e9237","system_id":"levelo_inurba_marseille","lat":43.30912,"lon":5.36859,"is_reserved":false,"is_disabled":false,"rental_uris":{"android":"levelo://app?vid=e6dcc4fb-28d6-42b3-a8f2-825ed54e9237","ios":"levelo://app?vid=e6dcc4fb-28d6-42b3-a8f2-825ed54e9237"},"vehicle_type_id":"4","last_reported":1747033886,"current_range_meters":20800,"station_id":"ce4bgn92rcd13ifvqbvg","pricing_plan_id":"cebpf4jnsgd1na2vs0mg"},{"bike_id":"c84cc980-38fe-4761-924e-99f94b7ce9c7","system_id":"levelo_inurba_marseille","lat":43.337444,"lon":5.374475,"is_reserved":false,"is_disabled":true,"rental_uris":{"android":"levelo://app?vid=c84cc980-38fe-4761-924e-99f94b7ce9c7","ios":"levelo://app?vid=c84cc980-38fe-4761-924e-99f94b7ce9c7"},"vehicle_type_id":"4","last_reported":1747033886,"current_range_meters":20800,"station_id":"","pricing_plan_id":"cebpf4jnsgd1na2vs0mg"},{"bike_id":"8d5d2952-cba3-48a2-9074-b5ec58c95ca8","system_id":"levelo_inurba_marseille","lat":43.30902,"lon":5.36844,"is_reserved":false,"is_disabled":false,"rental_uris":{"android":"levelo://app?vid=8d5d2952-cba3-48a2-9074-b5ec58c95ca8","ios":"levelo://app?vid=8d5d2952-cba3-48a2-9074-b5ec58c95ca8"},"vehicle_type_id":"4","last_reported":1747033886,"current_range_meters":20800,"station_id":"ce4bgn92rcd13ifvqbvg","pricing_plan_id":"cebpf4jnsgd1na2vs0mg"},{"bike_id":"9f952b18-032d-4a87-a464-b179467689ad","system_id":"levelo_inurba_marseille","lat":43.28278,"lon":5.35054,"is_reserved":false,"is_disabled":true,"rental_uris":{"android":"levelo://app?vid=9f952b18-032d-4a87-a464-b179467689ad","ios":"levelo://app?vid=9f952b18-032d-4a87-a464-b179467689ad"},"vehicle_type_id":"4","last_reported":1747033886,"current_range_meters":20800,"station_id":"ce4bhbp2rcd13ifvqerg","pricing_plan_id":"cebpf4jnsgd1na2vs0mg"},{"bike_id":"7dca15d5-c10e-46e1-bf2c-a2d0718db2e3","system_id":"levelo_inurba_marseille","lat":43.30306,"lon":5.36896,"is_reserved":false,"is_disabled":false,"rental_uris":{"android":"levelo://app?vid=7dca15d5-c10e-46e1-bf2c-a2d0718db2e3","ios":"levelo://app?vid=7dca15d5-c10e-46e1-bf2c-a2d0718db2e3"},"vehicle_type_id":"4","last_reported":1747033886,"current_range_meters":21600,"station_id":"ce4bgqh2rcd13ifvqc5g","pricing_plan_id":"cebpf4jnsgd1na2vs0mg"},{"bike_id":"86243c57-09f2-484b-9e50-bd939da0867b","system_id":"levelo_inurba_marseille","lat":43.23963,"lon":5.36634,"is_reserved":false,"is_disabled":false,"rental_uris":{"android":"levelo://app?vid=86243c57-09f2-484b-9e50-bd939da0867b","ios":"levelo://app?vid=86243c57-09f2-484b-9e50-bd939da0867b"},"vehicle_type_id":"4","last_reported":1747033886,"current_range_meters":21600,"station_id":"ce4bhi12rcd13ifvqfp0","pricing_plan_id":"cebpf4jnsgd1na2vs0mg"},{"bike_id":"dc53d17a-6042-4f83-8552-4e608df3f076","system_id":"levelo_inurba_marseille","lat":43.25521,"lon":5.40099,"is_reserved":false,"is_disabled":false,"rental_uris":{"android":"levelo://app?vid=dc53d17a-6042-4f83-8552-4e608df3f076","ios":"levelo://app?vid=dc53d17a-6042-4f83-8552-4e608df3f076"},"vehicle_type_id":"4","last_reported":1747033886,"current_range_meters":21600,"station_id":"","pricing_plan_id":"cebpf4jnsgd1na2vs0mg"},{"bike_id":"504380e2-220e-4851-8fb5-3d12b71f87de","system_id":"levelo_inurba_marseille","lat":43.30924,"lon":5.36851,"is_reserved":false,"is_disabled":false,"rental_uris":{"android":"levelo://app?vid=504380e2-220e-4851-8fb5-3d12b71f87de","ios":"levelo://app?vid=504380e2-220e-4851-8fb5-3d12b71f87de"},"vehicle_type_id":"4","last_reported":1747033886,"current_range_meters":21600,"station_id":"ce4bgn92rcd13ifvqbvg","pricing_plan_id":"cebpf4jnsgd1na2vs0mg"},{"bike_id":"ea5f4cd8-3650-4c02-bb6d-7c8641e06da7","system_id":"levelo_inurba_marseille","lat":43.30903,"lon":5.36844,"is_reserved":false,"is_disabled":false,"rental_uris":{"android":"levelo://app?vid=ea5f4cd8-3650-4c02-bb6d-7c8641e06da7","ios":"levelo://app?vid=ea5f4cd8-3650-4c02-bb6d-7c8641e06da7"},"vehicle_type_id":"4","last_reported":1747033886,"current_range_meters":22000,"station_id":"ce4bgn92rcd13ifvqbvg","pricing_plan_id":"cebpf4jnsgd1na2vs0mg"},{"bike_id":"dbd895d8-924b-478f-bd90-1998095e67fd","system_id":"levelo_inurba_marseille","lat":43.25877,"lon":5.39897,"is_reserved":false,"is_disabled":false,"rental_uris":{"android":"levelo://app?vid=dbd895d8-924b-478f-bd90-1998095e67fd","ios":"levelo://app?vid=dbd895d8-924b-478f-bd90-1998095e67fd"},"vehicle_type_id":"4","last_reported":1747033886,"current_range_meters":22000,"station_id":"ce4bhl92rcd13ifvqghg","pricing_plan_id":"cebpf4jnsgd1na2vs0mg"},{"bike_id":"d3cbc46f-5375-4d60-978c-d259ee44514f","system_id":"levelo_inurba_marseille","lat":43.29308,"lon":5.37467,"is_reserved":false,"is_disabled":true,"rental_uris":{"android":"levelo://app?vid=d3cbc46f-5375-4d60-978c-d259ee44514f","ios":"levelo://app?vid=d3cbc46f-5375-4d60-978c-d259ee44514f"},"vehicle_type_id":"4","last_reported":1747033886,"current_range_meters":22000,"station_id":"","pricing_plan_id":"cebpf4jnsgd1na2vs0mg"},{"bike_id":"f19b41c5-ff43-4d84-8e7f-1f91c3f7eb82","system_id":"levelo_inurba_marseille","lat":43.23962,"lon":5.36625,"is_reserved":false,"is_disabled":false,"rental_uris":{"android":"levelo://app?vid=f19b41c5-ff43-4d84-8e7f-1f91c3f7eb82","ios":"levelo://app?vid=f19b41c5-ff43-4d84-8e7f-1f91c3f7eb82"},"vehicle_type_id":"4","last_reported":1747033886,"current_range_meters":22000,"station_id":"ce4bhi12rcd13ifvqfp0","pricing_plan_id":"cebpf4jnsgd1na2vs0mg"},{"bike_id":"6144ad03-1e2b-4d52-86c0-aa5bb18d5e62","system_id":"levelo_inurba_marseille","lat":43.30924,"lon":5.36887,"is_reserved":false,"is_disabled":false,"rental_uris":{"android":"levelo://app?vid=6144ad03-1e2b-4d52-86c0-aa5bb18d5e62","ios":"levelo://app?vid=6144ad03-1e2b-4d52-86c0-aa5bb18d5e62"},"vehicle_type_id":"4","last_reported":1747033886,"current_range_meters":22000,"station_id":"ce4bgn92rcd13ifvqbvg","pricing_plan_id":"cebpf4jnsgd1na2vs0mg"},{"bike_id":"bb84fdad-e309-4160-b1a7-177bf33bc36f","system_id":"levelo_inurba_marseille","lat":43.29799,"lon":5.38122,"is_reserved":false,"is_disabled":true,"rental_uris":{"android":"levelo://app?vid=bb84fdad-e309-4160-b1a7-177bf33bc36f","ios":"levelo://app?vid=bb84fdad-e309-4160-b1a7-177bf33bc36f"},"vehicle_type_id":"4","last_reported":1747033886,"current_range_meters":22000,"station_id":"ce4bgip2rcd13ifvqbb0","pricing_plan_id":"cebpf4jnsgd1na2vs0mg"},{"bike_id":"3aee9e0f-eb09-45d3-bbb8-6d7f5864590e","system_id":"levelo_inurba_marseille","lat":43.31339,"lon":5.36722,"is_reserved":false,"is_disabled":false,"rental_uris":{"android":"levelo://app?vid=3aee9e0f-eb09-45d3-bbb8-6d7f5864590e","ios":"levelo://app?vid=3aee9e0f-eb09-45d3-bbb8-6d7f5864590e"},"vehicle_type_id":"4","last_reported":1747033886,"current_range_meters":22000,"station_id":"ce4bgr92rcd13ifvqc6g","pricing_plan_id":"cebpf4jnsgd1na2vs0mg"},{"bike_id":"15e031a5-8bb9-4a95-821a-c4d6f17dba12","system_id":"levelo_inurba_marseille","lat":43.30143,"lon":5.38064,"is_reserved":false,"is_disabled":false,"rental_uris":{"android":"levelo://app?vid=15e031a5-8bb9-4a95-821a-c4d6f17dba12","ios":"levelo://app?vid=15e031a5-8bb9-4a95-821a-c4d6f17dba12"},"vehicle_type_id":"4","last_reported":1747033886,"current_range_meters":22000,"station_id":"ce4bgjp2rcd13ifvqbh0","pricing_plan_id":"cebpf4jnsgd1na2vs0mg"},{"bike_id":"b5bf798b-62b6-4c83-b4af-1967f8178485","system_id":"levelo_inurba_marseille","lat":43.34141,"lon":5.40916,"is_reserved":false,"is_disabled":false,"rental_uris":{"android":"levelo://app?vid=b5bf798b-62b6-4c83-b4af-1967f8178485","ios":"levelo://app?vid=b5bf798b-62b6-4c83-b4af-1967f8178485"},"vehicle_type_id":"4","last_reported":1747033886,"current_range_meters":22400,"station_id":"ce4bhqh2rcd13ifvqhlg","pricing_plan_id":"cebpf4jnsgd1na2vs0mg"},{"bike_id":"6ccb63aa-6150-4d5a-b545-c6b01b658255","system_id":"levelo_inurba_marseille","lat":43.31364,"lon":5.36718,"is_reserved":false,"is_disabled":false,"rental_uris":{"android":"levelo://app?vid=6ccb63aa-6150-4d5a-b545-c6b01b658255","ios":"levelo://app?vid=6ccb63aa-6150-4d5a-b545-c6b01b658255"},"vehicle_type_id":"4","last_reported":1747033886,"current_range_meters":22400,"station_id":"ce4bgr92rcd13ifvqc6g","pricing_plan_id":"cebpf4jnsgd1na2vs0mg"},{"bike_id":"fcf9463b-401b-4157-a5a9-4c36ca7d015d","system_id":"levelo_inurba_marseille","lat":43.30671,"lon":5.3705,"is_reserved":false,"is_disabled":false,"rental_uris":{"android":"levelo://app?vid=fcf9463b-401b-4157-a5a9-4c36ca7d015d","ios":"levelo://app?vid=fcf9463b-401b-4157-a5a9-4c36ca7d015d"},"vehicle_type_id":"4","last_reported":1747033886,"current_range_meters":22400,"station_id":"","pricing_plan_id":"cebpf4jnsgd1na2vs0mg"},{"bike_id":"45eb10b2-1312-490c-9fcf-3c7991e677d0","system_id":"levelo_inurba_marseille","lat":43.29852,"lon":5.36287,"is_reserved":false,"is_disabled":false,"rental_uris":{"android":"levelo://app?vid=45eb10b2-1312-490c-9fcf-3c7991e677d0","ios":"levelo://app?vid=45eb10b2-1312-490c-9fcf-3c7991e677d0"},"vehicle_type_id":"4","last_reported":1747033886,"current_range_meters":22400,"station_id":"ce4bgpp2rcd13ifvqc3g","pricing_plan_id":"cebpf4jnsgd1na2vs0mg"},{"bike_id":"02ad220e-4f4a-4d8d-96bd-3ecf889fe3eb","system_id":"levelo_inurba_marseille","lat":43.29845,"lon":5.36276,"is_reserved":false,"is_disabled":false,"rental_uris":{"android":"levelo://app?vid=02ad220e-4f4a-4d8d-96bd-3ecf889fe3eb","ios":"levelo://app?vid=02ad220e-4f4a-4d8d-96bd-3ecf889fe3eb"},"vehicle_type_id":"4","last_reported":1747033886,"current_range_meters":22400,"station_id":"ce4bgpp2rcd13ifvqc3g","pricing_plan_id":"cebpf4jnsgd1na2vs0mg"},{"bike_id":"025b2018-5ff3-4c4c-9661-1931d34e9be8","system_id":"levelo_inurba_marseille","lat":43.23539,"lon":5.36129,"is_reserved":false,"is_disabled":true,"rental_uris":{"android":"levelo://app?vid=025b2018-5ff3-4c4c-9661-1931d34e9be8","ios":"levelo://app?vid=025b2018-5ff3-4c4c-9661-1931d34e9be8"},"vehicle_type_id":"4","last_reported":1747033886,"current_range_meters":22400,"station_id":"","pricing_plan_id":"cebpf4jnsgd1na2vs0mg"},{"bike_id":"49fd3e52-fd90-4367-83cd-61df58a2fc82","system_id":"levelo_inurba_marseille","lat":43.30896,"lon":5.3718,"is_reserved":false,"is_disabled":false,"rental_uris":{"android":"levelo://app?vid=49fd3e52-fd90-4367-83cd-61df58a2fc82","ios":"levelo://app?vid=49fd3e52-fd90-4367-83cd-61df58a2fc82"},"vehicle_type_id":"4","last_reported":1747033886,"current_range_meters":22400,"station_id":"ce4bguh2rcd13ifvqckg","pricing_plan_id":"cebpf4jnsgd1na2vs0mg"},{"bike_id":"06f72430-38f7-4a96-b8ad-b771838324c8","system_id":"levelo_inurba_marseille","lat":43.28932,"lon":5.36638,"is_reserved":false,"is_disabled":false,"rental_uris":{"android":"levelo://app?vid=06f72430-38f7-4a96-b8ad-b771838324c8","ios":"levelo://app?vid=06f72430-38f7-4a96-b8ad-b771838324c8"},"vehicle_type_id":"4","last_reported":1747033886,"current_range_meters":22000,"station_id":"ce4bhap2rcd13ifvqek0","pricing_plan_id":"cebpf4jnsgd1na2vs0mg"},{"bike_id":"986f1567-4a9f-471e-ad2c-3c962c5d9526","system_id":"levelo_inurba_marseille","lat":43.281463,"lon":5.386307,"is_reserved":false,"is_disabled":true,"rental_uris":{"android":"levelo://app?vid=986f1567-4a9f-471e-ad2c-3c962c5d9526","ios":"levelo://app?vid=986f1567-4a9f-471e-ad2c-3c962c5d9526"},"vehicle_type_id":"4","last_reported":1747033886,"current_range_meters":22400,"station_id":"","pricing_plan_id":"cebpf4jnsgd1na2vs0mg"},{"bike_id":"408d9330-e303-418f-8f08-2214028633bb","system_id":"levelo_inurba_marseille","lat":43.31223,"lon":5.36858,"is_reserved":false,"is_disabled":false,"rental_uris":{"android":"levelo://app?vid=408d9330-e303-418f-8f08-2214028633bb","ios":"levelo://app?vid=408d9330-e303-418f-8f08-2214028633bb"},"vehicle_type_id":"4","last_reported":1747033886,"current_range_meters":22800,"station_id":"ce4bgl92rcd13ifvqbq0","pricing_plan_id":"cebpf4jnsgd1na2vs0mg"},{"bike_id":"b7b43362-86c1-4294-8548-d57f37b20909","system_id":"levelo_inurba_marseille","lat":43.27492,"lon":5.42449,"is_reserved":false,"is_disabled":false,"rental_uris":{"android":"levelo://app?vid=b7b43362-86c1-4294-8548-d57f37b20909","ios":"levelo://app?vid=b7b43362-86c1-4294-8548-d57f37b20909"},"vehicle_type_id":"4","last_reported":1747033886,"current_range_meters":22800,"station_id":"ce4bhn92rcd13ifvqgrg","pricing_plan_id":"cebpf4jnsgd1na2vs0mg"},{"bike_id":"9c9d3041-bfe4-4715-921d-17c563740b35","system_id":"levelo_inurba_marseille","lat":43.29365,"lon":5.3785,"is_reserved":false,"is_disabled":false,"rental_uris":{"android":"levelo://app?vid=9c9d3041-bfe4-4715-921d-17c563740b35","ios":"levelo://app?vid=9c9d3041-bfe4-4715-921d-17c563740b35"},"vehicle_type_id":"4","last_reported":1747033886,"current_range_meters":22800,"station_id":"ce4bgjh2rcd13ifvqbf0","pricing_plan_id":"cebpf4jnsgd1na2vs0mg"},{"bike_id":"31aff3d1-8b7d-44bd-941e-c886557a73c4","system_id":"levelo_inurba_marseille","lat":43.274994,"lon":5.42459,"is_reserved":false,"is_disabled":false,"rental_uris":{"android":"levelo://app?vid=31aff3d1-8b7d-44bd-941e-c886557a73c4","ios":"levelo://app?vid=31aff3d1-8b7d-44bd-941e-c886557a73c4"},"vehicle_type_id":"4","last_reported":1747033886,"current_range_meters":22800,"station_id":"","pricing_plan_id":"cebpf4jnsgd1na2vs0mg"},{"bike_id":"8bfc3fc7-4ce6-4f24-b5a7-01ebe7229227","system_id":"levelo_inurba_marseille","lat":43.305153,"lon":5.372657,"is_reserved":false,"is_disabled":false,"rental_uris":{"android":"levelo://app?vid=8bfc3fc7-4ce6-4f24-b5a7-01ebe7229227","ios":"levelo://app?vid=8bfc3fc7-4ce6-4f24-b5a7-01ebe7229227"},"vehicle_type_id":"4","last_reported":1747033886,"current_range_meters":22800,"station_id":"ce4bgs12rcd13ifvqcag","pricing_plan_id":"cebpf4jnsgd1na2vs0mg"},{"bike_id":"5728e68c-f162-4e22-b613-26d103e45857","system_id":"levelo_inurba_marseille","lat":43.25945,"lon":5.40899,"is_reserved":false,"is_disabled":false,"rental_uris":{"android":"levelo://app?vid=5728e68c-f162-4e22-b613-26d103e45857","ios":"levelo://app?vid=5728e68c-f162-4e22-b613-26d103e45857"},"vehicle_type_id":"4","last_reported":1747033886,"current_range_meters":22800,"station_id":"ce4bhm92rcd13ifvqglg","pricing_plan_id":"cebpf4jnsgd1na2vs0mg"},{"bike_id":"f5452b2f-365f-4631-a181-1204d57cd39b","system_id":"levelo_inurba_marseille","lat":43.31342,"lon":5.36724,"is_reserved":false,"is_disabled":false,"rental_uris":{"android":"levelo://app?vid=f5452b2f-365f-4631-a181-1204d57cd39b","ios":"levelo://app?vid=f5452b2f-365f-4631-a181-1204d57cd39b"},"vehicle_type_id":"4","last_reported":1747033886,"current_range_meters":22800,"station_id":"ce4bgr92rcd13ifvqc6g","pricing_plan_id":"cebpf4jnsgd1na2vs0mg"},{"bike_id":"9f480ce6-71eb-46d6-af21-ed9d3348125b","system_id":"levelo_inurba_marseille","lat":43.31489,"lon":5.37299,"is_reserved":false,"is_disabled":false,"rental_uris":{"android":"levelo://app?vid=9f480ce6-71eb-46d6-af21-ed9d3348125b","ios":"levelo://app?vid=9f480ce6-71eb-46d6-af21-ed9d3348125b"},"vehicle_type_id":"4","last_reported":1747033886,"current_range_meters":22800,"station_id":"ce4bgt12rcd13ifvqcd0","pricing_plan_id":"cebpf4jnsgd1na2vs0mg"},{"bike_id":"f8329652-576c-45fe-a8cd-a35fffc96966","system_id":"levelo_inurba_marseille","lat":43.26783,"lon":5.39416,"is_reserved":false,"is_disabled":false,"rental_uris":{"android":"levelo://app?vid=f8329652-576c-45fe-a8cd-a35fffc96966","ios":"levelo://app?vid=f8329652-576c-45fe-a8cd-a35fffc96966"},"vehicle_type_id":"4","last_reported":1747033886,"current_range_meters":23200,"station_id":"ce4bhh12rcd13ifvqfg0","pricing_plan_id":"cebpf4jnsgd1na2vs0mg"},{"bike_id":"3d0918d5-ba3a-49f1-82b8-5d254697ea34","system_id":"levelo_inurba_marseille","lat":43.25111,"lon":5.40321,"is_reserved":false,"is_disabled":false,"rental_uris":{"android":"levelo://app?vid=3d0918d5-ba3a-49f1-82b8-5d254697ea34","ios":"levelo://app?vid=3d0918d5-ba3a-49f1-82b8-5d254697ea34"},"vehicle_type_id":"4","last_reported":1747033886,"current_range_meters":23200,"station_id":"ce4bhlh2rcd13ifvqgig","pricing_plan_id":"cebpf4jnsgd1na2vs0mg"},{"bike_id":"dcf2eb3d-8371-4bfd-8960-0a1ca56c3105","system_id":"levelo_inurba_marseille","lat":43.295736,"lon":5.375217,"is_reserved":false,"is_disabled":false,"rental_uris":{"android":"levelo://app?vid=dcf2eb3d-8371-4bfd-8960-0a1ca56c3105","ios":"levelo://app?vid=dcf2eb3d-8371-4bfd-8960-0a1ca56c3105"},"vehicle_type_id":"4","last_reported":1747033886,"current_range_meters":23200,"station_id":"ce4bgi92rcd13ifvqb90","pricing_plan_id":"cebpf4jnsgd1na2vs0mg"},{"bike_id":"c6ce5e1c-e6d6-4258-8758-da15e2d5fec9","system_id":"levelo_inurba_marseille","lat":43.27071,"lon":5.42282,"is_reserved":false,"is_disabled":false,"rental_uris":{"android":"levelo://app?vid=c6ce5e1c-e6d6-4258-8758-da15e2d5fec9","ios":"levelo://app?vid=c6ce5e1c-e6d6-4258-8758-da15e2d5fec9"},"vehicle_type_id":"4","last_reported":1747033886,"current_range_meters":23200,"station_id":"ce4bhk92rcd13ifvqgb0","pricing_plan_id":"cebpf4jnsgd1na2vs0mg"},{"bike_id":"1fe5cd3c-b89c-47be-8fa0-fbcac5696485","system_id":"levelo_inurba_marseille","lat":43.2655,"lon":5.39005,"is_reserved":false,"is_disabled":false,"rental_uris":{"android":"levelo://app?vid=1fe5cd3c-b89c-47be-8fa0-fbcac5696485","ios":"levelo://app?vid=1fe5cd3c-b89c-47be-8fa0-fbcac5696485"},"vehicle_type_id":"4","last_reported":1747033886,"current_range_meters":23200,"station_id":"ce4bhe12rcd13ifvqf30","pricing_plan_id":"cebpf4jnsgd1na2vs0mg"},{"bike_id":"d4c0f4db-2aba-433a-90a4-3613f72508be","system_id":"levelo_inurba_marseille","lat":43.31064,"lon":5.38352,"is_reserved":false,"is_disabled":false,"rental_uris":{"android":"levelo://app?vid=d4c0f4db-2aba-433a-90a4-3613f72508be","ios":"levelo://app?vid=d4c0f4db-2aba-433a-90a4-3613f72508be"},"vehicle_type_id":"4","last_reported":1747033886,"current_range_meters":23200,"station_id":"ce4bgv92rcd13ifvqcr0","pricing_plan_id":"cebpf4jnsgd1na2vs0mg"},{"bike_id":"36b9d717-ff45-4630-b0ca-dea1b6c762ec","system_id":"levelo_inurba_marseille","lat":43.30441,"lon":5.38869,"is_reserved":false,"is_disabled":true,"rental_uris":{"android":"levelo://app?vid=36b9d717-ff45-4630-b0ca-dea1b6c762ec","ios":"levelo://app?vid=36b9d717-ff45-4630-b0ca-dea1b6c762ec"},"vehicle_type_id":"4","last_reported":1747033886,"current_range_meters":23200,"station_id":"ce4bgk12rcd13ifvqbi0","pricing_plan_id":"cebpf4jnsgd1na2vs0mg"},{"bike_id":"ec5dbda6-ebfd-4415-a2e6-6eb897c940b0","system_id":"levelo_inurba_marseille","lat":43.31337,"lon":5.3673,"is_reserved":false,"is_disabled":false,"rental_uris":{"android":"levelo://app?vid=ec5dbda6-ebfd-4415-a2e6-6eb897c940b0","ios":"levelo://app?vid=ec5dbda6-ebfd-4415-a2e6-6eb897c940b0"},"vehicle_type_id":"4","last_reported":1747033886,"current_range_meters":24000,"station_id":"ce4bgr92rcd13ifvqc6g","pricing_plan_id":"cebpf4jnsgd1na2vs0mg"},{"bike_id":"24bf9b3f-7b86-4fc2-8efe-689a8770a2b0","system_id":"levelo_inurba_marseille","lat":43.31224,"lon":5.36848,"is_reserved":false,"is_disabled":false,"rental_uris":{"android":"levelo://app?vid=24bf9b3f-7b86-4fc2-8efe-689a8770a2b0","ios":"levelo://app?vid=24bf9b3f-7b86-4fc2-8efe-689a8770a2b0"},"vehicle_type_id":"4","last_reported":1747033886,"current_range_meters":24000,"station_id":"ce4bgl92rcd13ifvqbq0","pricing_plan_id":"cebpf4jnsgd1na2vs0mg"},{"bike_id":"ae9cc5b0-1bb4-4def-974f-05c4bfd04ea6","system_id":"levelo_inurba_marseille","lat":43.292742,"lon":5.367928,"is_reserved":false,"is_disabled":true,"rental_uris":{"android":"levelo://app?vid=ae9cc5b0-1bb4-4def-974f-05c4bfd04ea6","ios":"levelo://app?vid=ae9cc5b0-1bb4-4def-974f-05c4bfd04ea6"},"vehicle_type_id":"4","last_reported":1747033886,"current_range_meters":24000,"station_id":"","pricing_plan_id":"cebpf4jnsgd1na2vs0mg"},{"bike_id":"581a76c6-406f-436c-80cf-424046378536","system_id":"levelo_inurba_marseille","lat":43.23136,"lon":5.43714,"is_reserved":false,"is_disabled":false,"rental_uris":{"android":"levelo://app?vid=581a76c6-406f-436c-80cf-424046378536","ios":"levelo://app?vid=581a76c6-406f-436c-80cf-424046378536"},"vehicle_type_id":"4","last_reported":1747033886,"current_range_meters":24000,"station_id":"ce4bhmp2rcd13ifvqgog","pricing_plan_id":"cebpf4jnsgd1na2vs0mg"},{"bike_id":"38911158-b89a-46f7-b819-6be4e8fe7512","system_id":"levelo_inurba_marseille","lat":43.29974,"lon":5.38485,"is_reserved":false,"is_disabled":false,"rental_uris":{"android":"levelo://app?vid=38911158-b89a-46f7-b819-6be4e8fe7512","ios":"levelo://app?vid=38911158-b89a-46f7-b819-6be4e8fe7512"},"vehicle_type_id":"4","last_reported":1747033886,"current_range_meters":24000,"station_id":"ce4bgj92rcd13ifvqbd0","pricing_plan_id":"cebpf4jnsgd1na2vs0mg"},{"bike_id":"fea1f76e-aa01-4d84-996a-b69dcee85071","system_id":"levelo_inurba_marseille","lat":43.33613,"lon":5.41026,"is_reserved":false,"is_disabled":false,"rental_uris":{"android":"levelo://app?vid=fea1f76e-aa01-4d84-996a-b69dcee85071","ios":"levelo://app?vid=fea1f76e-aa01-4d84-996a-b69dcee85071"},"vehicle_type_id":"4","last_reported":1747033886,"current_range_meters":24000,"station_id":"ce4bhqh2rcd13ifvqhmg","pricing_plan_id":"cebpf4jnsgd1na2vs0mg"},{"bike_id":"f7b28b14-5137-4023-b1b7-b7e5bb33d722","system_id":"levelo_inurba_marseille","lat":43.25924,"lon":5.40892,"is_reserved":false,"is_disabled":false,"rental_uris":{"android":"levelo://app?vid=f7b28b14-5137-4023-b1b7-b7e5bb33d722","ios":"levelo://app?vid=f7b28b14-5137-4023-b1b7-b7e5bb33d722"},"vehicle_type_id":"4","last_reported":1747033886,"current_range_meters":24400,"station_id":"ce4bhm92rcd13ifvqglg","pricing_plan_id":"cebpf4jnsgd1na2vs0mg"},{"bike_id":"4fe80057-dec0-49cd-ba39-faa109ba6f7d","system_id":"levelo_inurba_marseille","lat":43.28488,"lon":5.38573,"is_reserved":false,"is_disabled":false,"rental_uris":{"android":"levelo://app?vid=4fe80057-dec0-49cd-ba39-faa109ba6f7d","ios":"levelo://app?vid=4fe80057-dec0-49cd-ba39-faa109ba6f7d"},"vehicle_type_id":"4","last_reported":1747033886,"current_range_meters":24400,"station_id":"ce4bh8p2rcd13ifvqeb0","pricing_plan_id":"cebpf4jnsgd1na2vs0mg"},{"bike_id":"1d87308b-21ba-4e27-940f-d61f1de1f028","system_id":"levelo_inurba_marseille","lat":43.24387,"lon":5.3706,"is_reserved":false,"is_disabled":false,"rental_uris":{"android":"levelo://app?vid=1d87308b-21ba-4e27-940f-d61f1de1f028","ios":"levelo://app?vid=1d87308b-21ba-4e27-940f-d61f1de1f028"},"vehicle_type_id":"4","last_reported":1747033886,"current_range_meters":24400,"station_id":"ce4bhhh2rcd13ifvqfk0","pricing_plan_id":"cebpf4jnsgd1na2vs0mg"},{"bike_id":"22076a30-cd42-4842-af66-be73565e119a","system_id":"levelo_inurba_marseille","lat":43.25714,"lon":5.41045,"is_reserved":false,"is_disabled":false,"rental_uris":{"android":"levelo://app?vid=22076a30-cd42-4842-af66-be73565e119a","ios":"levelo://app?vid=22076a30-cd42-4842-af66-be73565e119a"},"vehicle_type_id":"4","last_reported":1747033886,"current_range_meters":24400,"station_id":"ce4bhkp2rcd13ifvqgd0","pricing_plan_id":"cebpf4jnsgd1na2vs0mg"},{"bike_id":"4d63b7a0-57f9-49dd-8f93-4aaf539ee40c","system_id":"levelo_inurba_marseille","lat":43.26227,"lon":5.40457,"is_reserved":false,"is_disabled":false,"rental_uris":{"android":"levelo://app?vid=4d63b7a0-57f9-49dd-8f93-4aaf539ee40c","ios":"levelo://app?vid=4d63b7a0-57f9-49dd-8f93-4aaf539ee40c"},"vehicle_type_id":"4","last_reported":1747033886,"current_range_meters":24400,"station_id":"ce4bhmh2rcd13ifvqgmg","pricing_plan_id":"cebpf4jnsgd1na2vs0mg"},{"bike_id":"e6782632-c1fe-42de-b21b-94e58fc56a6e","system_id":"levelo_inurba_marseille","lat":43.25483,"lon":5.37644,"is_reserved":false,"is_disabled":true,"rental_uris":{"android":"levelo://app?vid=e6782632-c1fe-42de-b21b-94e58fc56a6e","ios":"levelo://app?vid=e6782632-c1fe-42de-b21b-94e58fc56a6e"},"vehicle_type_id":"4","last_reported":1747033886,"current_range_meters":24400,"station_id":"ce4bhh12rcd13ifvqff0","pricing_plan_id":"cebpf4jnsgd1na2vs0mg"},{"bike_id":"84a90c81-7da8-4d32-895e-c327cac4305b","system_id":"levelo_inurba_marseille","lat":43.2994,"lon":5.36545,"is_reserved":false,"is_disabled":false,"rental_uris":{"android":"levelo://app?vid=84a90c81-7da8-4d32-895e-c327cac4305b","ios":"levelo://app?vid=84a90c81-7da8-4d32-895e-c327cac4305b"},"vehicle_type_id":"4","last_reported":1747033886,"current_range_meters":24400,"station_id":"ce4bgm92rcd13ifvqbr0","pricing_plan_id":"cebpf4jnsgd1na2vs0mg"},{"bike_id":"6122c9d0-a284-43b2-a3ac-8f854f7b4067","system_id":"levelo_inurba_marseille","lat":43.27972,"lon":5.38735,"is_reserved":false,"is_disabled":false,"rental_uris":{"android":"levelo://app?vid=6122c9d0-a284-43b2-a3ac-8f854f7b4067","ios":"levelo://app?vid=6122c9d0-a284-43b2-a3ac-8f854f7b4067"},"vehicle_type_id":"4","last_reported":1747033886,"current_range_meters":24400,"station_id":"ce4bhg12rcd13ifvqf80","pricing_plan_id":"cebpf4jnsgd1na2vs0mg"},{"bike_id":"3bb76f8d-de22-4c8b-9c35-324f92e2c0ce","system_id":"levelo_inurba_marseille","lat":43.27314,"lon":5.39074,"is_reserved":false,"is_disabled":true,"rental_uris":{"android":"levelo://app?vid=3bb76f8d-de22-4c8b-9c35-324f92e2c0ce","ios":"levelo://app?vid=3bb76f8d-de22-4c8b-9c35-324f92e2c0ce"},"vehicle_type_id":"4","last_reported":1747033886,"current_range_meters":24400,"station_id":"ce4bhgp2rcd13ifvqfe0","pricing_plan_id":"cebpf4jnsgd1na2vs0mg"},{"bike_id":"66c32517-c658-49b1-83e1-4d1b4c29beb6","system_id":"levelo_inurba_marseille","lat":43.33603,"lon":5.41006,"is_reserved":false,"is_disabled":false,"rental_uris":{"android":"levelo://app?vid=66c32517-c658-49b1-83e1-4d1b4c29beb6","ios":"levelo://app?vid=66c32517-c658-49b1-83e1-4d1b4c29beb6"},"vehicle_type_id":"4","last_reported":1747033886,"current_range_meters":24400,"station_id":"ce4bhqh2rcd13ifvqhmg","pricing_plan_id":"cebpf4jnsgd1na2vs0mg"},{"bike_id":"bdf00845-6469-432e-82c1-145b741a3065","system_id":"levelo_inurba_marseille","lat":43.31351,"lon":5.36703,"is_reserved":false,"is_disabled":false,"rental_uris":{"android":"levelo://app?vid=bdf00845-6469-432e-82c1-145b741a3065","ios":"levelo://app?vid=bdf00845-6469-432e-82c1-145b741a3065"},"vehicle_type_id":"4","last_reported":1747033886,"current_range_meters":24400,"station_id":"ce4bgr92rcd13ifvqc6g","pricing_plan_id":"cebpf4jnsgd1na2vs0mg"},