{"last_updated":1730902106,"ttl":60,"version":"2.2","data":{"bikes":[{"bike_id":"fedc9081-229c-486d-ab3c-96a02eb22c46","system_id":"levelo_inurba_marseille","lat":43.30137,"lon":5.37423,"is_reserved":false,"is_disabled":false,"rental_uris":{"android":"levelo://app?vid=fedc9081-229c-486d-ab3c-96a02eb22c46","ios":"levelo://app?vid=fedc9081-229c-486d-ab3c-96a02eb22c46"},"vehicle_type_id":"4","last_reported":1730902106,"current_range_meters":22400,"station_id":"ce4bgs92rcd13ifvqcc0","pricing_plan_id":"cebpf4jnsgd1na2vs0mg"},{"bike_id":"7ae96026-45f8-4be1-a705-40a234940d94","system_id":"levelo_inurba_marseille","lat":43.27992,"lon":5.40024,"is_reserved":false,"is_disabled":false,"rental_uris":{"android":"levelo://app?vid=7ae96026-45f8-4be1-a705-40a234940d94","ios":"levelo://app?vid=7ae96026-45f8-4be1-a705-40a234940d94"},"vehicle_type_id":"4","last_reported":1730902106,"current_range_meters":38800,"station_id":"ce4bho92rcd13ifvqh4g","pricing_plan_id":"cebpf4jnsgd1na2vs0mg"},{"bike_id":"19df1608-2db4-4a64-8a9a-d0d9548fc94a","system_id":"levelo_inurba_marseille","lat":43.32111,"lon":5.36774,"is_reserved":false,"is_disabled":false,"rental_uris":{"android":"levelo://app?vid=19df1608-2db4-4a64-8a9a-d0d9548fc94a","ios":"levelo://app?vid=19df1608-2db4-4a64-8a9a-d0d9548fc94a"},"vehicle_type_id":"4","last_reported":1730902106,"current_range_meters":4800,"station_id":"ce4bhrh2rcd13ifvqhug","pricing_plan_id":"cebpf4jnsgd1na2vs0mg"},{"bike_id":"3a81c58e-8a62-4fc2-acf8-f362e6f47d33","system_id":"levelo_inurba_marseille","lat":43.32661,"lon":5.40992,"is_reserved":false,"is_disabled":false,"rental_uris":{"android":"levelo://app?vid=3a81c58e-8a62-4fc2-acf8-f362e6f47d33","ios":"levelo://app?vid=3a81c58e-8a62-4fc2-acf8-f362e6f47d33"},"vehicle_type_id":"4","last_reported":1730902106,"current_range_meters":26800,"station_id":"ce4bhpp2rcd13ifvqhgg","pricing_plan_id":"cebpf4jnsgd1na2vs0mg"},{"bike_id":"1bd060f7-43b5-475a-98cf-06aa747e2916","system_id":"levelo_inurba_marseille","lat":43.27464,"lon":5.39435,"is_reserved":false,"is_disabled":false,"rental_uris":{"android":"levelo://app?vid=1bd060f7-43b5-475a-98cf-06aa747e2916","ios":"levelo://app?vid=1bd060f7-43b5-475a-98cf-06aa747e2916"},"vehicle_type_id":"4","last_reported":1730902106,"current_range_meters":25600,"station_id":"","pricing_plan_id":"cebpf4jnsgd1na2vs0mg"},{"bike_id":"bc869811-1aad-4ece-b858-9965c373b037","system_id":"levelo_inurba_marseille","lat":43.23154,"lon":5.43713,"is_reserved":false,"is_disabled":false,"rental_uris":{"android":"levelo://app?vid=bc869811-1aad-4ece-b858-9965c373b037","ios":"levelo://app?vid=bc869811-1aad-4ece-b858-9965c373b037"},"vehicle_type_id":"4","last_reported":1730902106,"current_range_meters":37600,"station_id":"ce4bhmp2rcd13ifvqgog","pricing_plan_id":"cebpf4jnsgd1na2vs0mg"},{"bike_id":"ba12822a-1423-429c-ba5e-4a214c4a0dd5","system_id":"levelo_inurba_marseille","lat":43.258647,"lon":5.398954,"is_reserved":false,"is_disabled":false,"rental_uris":{"android":"levelo://app?vid=ba12822a-1423-429c-ba5e-4a214c4a0dd5","ios":"levelo://app?vid=ba12822a-1423-429c-ba5e-4a214c4a0dd5"},"vehicle_type_id":"4","last_reported":1730902106,"current_range_meters":36400,"station_id":"ce4bhl92rcd13ifvqghg","pricing_plan_id":"cebpf4jnsgd1na2vs0mg"},{"bike_id":"b39459a1-1b6b-488a-bca4-57fd8bb3e512","system_id":"levelo_inurba_marseille","lat":43.29578,"lon":5.37514,"is_reserved":false,"is_disabled":false,"rental_uris":{"android":"levelo://app?vid=b39459a1-1b6b-488a-bca4-57fd8bb3e512","ios":"levelo://app?vid=b39459a1-1b6b-488a-bca4-57fd8bb3e512"},"vehicle_type_id":"4","last_reported":1730902106,"current_range_meters":12400,"station_id":"ce4bgh92rcd13ifvqb50","pricing_plan_id":"cebpf4jnsgd1na2vs0mg"},{"bike_id":"132a7490-b2ca-43dc-ac45-97330026ed9a","system_id":"levelo_inurba_marseille","lat":43.28729,"lon":5.36087,"is_reserved":false,"is_disabled":false,"rental_uris":{"android":"levelo://app?vid=132a7490-b2ca-43dc-ac45-97330026ed9a","ios":"levelo://app?vid=132a7490-b2ca-43dc-ac45-97330026ed9a"},"vehicle_type_id":"4","last_reported":1730902106,"current_range_meters":39200,"station_id":"cki0cbj6b192h4jlfktg","pricing_plan_id":"cebpf4jnsgd1na2vs0mg"},{"bike_id":"aaf896be-23fc-4cde-b212-d643c208e7c1","system_id":"levelo_inurba_marseille","lat":43.30422,"lon":5.41289,"is_reserved":false,"is_disabled":false,"rental_uris":{"android":"levelo://app?vid=aaf896be-23fc-4cde-b212-d643c208e7c1","ios":"levelo://app?vid=aaf896be-23fc-4cde-b212-d643c208e7c1"},"vehicle_type_id":"4","last_reported":1730902106,"current_range_meters":37600,"station_id":"ce4bhop2rcd13ifvqh8g","pricing_plan_id":"cebpf4jnsgd1na2vs0mg"},{"bike_id":"538af67c-9caf-4f91-a409-0a8795829c40","system_id":"levelo_inurba_marseille","lat":43.24808,"lon":5.37462,"is_reserved":false,"is_disabled":false,"rental_uris":{"android":"levelo://app?vid=538af67c-9caf-4f91-a409-0a8795829c40","ios":"levelo://app?vid=538af67c-9caf-4f91-a409-0a8795829c40"},"vehicle_type_id":"4","last_reported":1730902106,"current_range_meters":32800,"station_id":"ce4bhgh2rcd13ifvqfb0","pricing_plan_id":"cebpf4jnsgd1na2vs0mg"},{"bike_id":"72efadbb-bf11-43ff-96cf-c421a3f198ee","system_id":"levelo_inurba_marseille","lat":43.27618,"lon":5.36108,"is_reserved":false,"is_disabled":false,"rental_uris":{"android":"levelo://app?vid=72efadbb-bf11-43ff-96cf-c421a3f198ee","ios":"levelo://app?vid=72efadbb-bf11-43ff-96cf-c421a3f198ee"},"vehicle_type_id":"4","last_reported":1730902106,"current_range_meters":16800,"station_id":"ce4bgj92rcd13ifvqbe0","pricing_plan_id":"cebpf4jnsgd1na2vs0mg"},{"bike_id":"3e44a259-abe4-4226-9633-ae30cd00b80d","system_id":"levelo_inurba_marseille","lat":43.30782,"lon":5.38137,"is_reserved":false,"is_disabled":false,"rental_uris":{"android":"levelo://app?vid=3e44a259-abe4-4226-9633-ae30cd00b80d","ios":"levelo://app?vid=3e44a259-abe4-4226-9633-ae30cd00b80d"},"vehicle_type_id":"4","last_reported":1730902106,"current_range_meters":36400,"station_id":"ce4bgt12rcd13ifvqce0","pricing_plan_id":"cebpf4jnsgd1na2vs0mg"},{"bike_id":"ab979e1d-465e-4937-87ae-2a74307121f9","system_id":"levelo_inurba_marseille","lat":43.26789,"lon":5.39414,"is_reserved":false,"is_disabled":false,"rental_uris":{"android":"levelo://app?vid=ab979e1d-465e-4937-87ae-2a74307121f9","ios":"levelo://app?vid=ab979e1d-465e-4937-87ae-2a74307121f9"},"vehicle_type_id":"4","last_reported":1730902106,"current_range_meters":36800,"station_id":"ce4bhh12rcd13ifvqfg0","pricing_plan_id":"cebpf4jnsgd1na2vs0mg"},{"bike_id":"8af378d1-5bc4-457f-9470-74e88c52bda7","system_id":"levelo_inurba_marseille","lat":43.31994,"lon":5.38155,"is_reserved":false,"is_disabled":false,"rental_uris":{"android":"levelo://app?vid=8af378d1-5bc4-457f-9470-74e88c52bda7","ios":"levelo://app?vid=8af378d1-5bc4-457f-9470-74e88c52bda7"},"vehicle_type_id":"4","last_reported":1730902106,"current_range_meters":7200,"station_id":"ce4bhr12rcd13ifvqhpg","pricing_plan_id":"cebpf4jnsgd1na2vs0mg"},{"bike_id":"8f450e34-aa71-4b67-9b5c-0979d4024834","system_id":"levelo_inurba_marseille","lat":43.30285,"lon":5.37695,"is_reserved":false,"is_disabled":false,"rental_uris":{"android":"levelo://app?vid=8f450e34-aa71-4b67-9b5c-0979d4024834","ios":"levelo://app?vid=8f450e34-aa71-4b67-9b5c-0979d4024834"},"vehicle_type_id":"4","last_reported":1730902106,"current_range_meters":21600,"station_id":"ce4bguh2rcd13ifvqcj0","pricing_plan_id":"cebpf4jnsgd1na2vs0mg"},{"bike_id":"f6ed0561-68ae-498d-8379-7c031d7444cb","system_id":"levelo_inurba_marseille","lat":43.30954,"lon":5.39039,"is_reserved":false,"is_disabled":false,"rental_uris":{"android":"levelo://app?vid=f6ed0561-68ae-498d-8379-7c031d7444cb","ios":"levelo://app?vid=f6ed0561-68ae-498d-8379-7c031d7444cb"},"vehicle_type_id":"4","last_reported":1730902106,"current_range_meters":27200,"station_id":"ce4bgup2rcd13ifvqco0","pricing_plan_id":"cebpf4jnsgd1na2vs0mg"},{"bike_id":"b140672b-ae2d-4f5c-8060-0341618fb455","system_id":"levelo_inurba_marseille","lat":43.31327,"lon":5.39701,"is_reserved":false,"is_disabled":false,"rental_uris":{"android":"levelo://app?vid=b140672b-ae2d-4f5c-8060-0341618fb455","ios":"levelo://app?vid=b140672b-ae2d-4f5c-8060-0341618fb455"},"vehicle_type_id":"4","last_reported":1730902106,"current_range_meters":39200,"station_id":"ce4bgvp2rcd13ifvqcu0","pricing_plan_id":"cebpf4jnsgd1na2vs0mg"},{"bike_id":"67a8e1fc-b0ba-4a1f-a41d-071bef2a3f12","system_id":"levelo_inurba_marseille","lat":43.29629,"lon":5.40601,"is_reserved":false,"is_disabled":false,"rental_uris":{"android":"levelo://app?vid=67a8e1fc-b0ba-4a1f-a41d-071bef2a3f12","ios":"levelo://app?vid=67a8e1fc-b0ba-4a1f-a41d-071bef2a3f12"},"vehicle_type_id":"4","last_reported":1730902106,"current_range_meters":20000,"station_id":"ce4bh0h2rcd13ifvqd60","pricing_plan_id":"cebpf4jnsgd1na2vs0mg"},{"bike_id":"a213fa16-3a18-406f-b424-76f795b2c79a","system_id":"levelo_inurba_marseille","lat":43.30527,"lon":5.36704,"is_reserved":false,"is_disabled":false,"rental_uris":{"android":"levelo://app?vid=a213fa16-3a18-406f-b424-76f795b2c79a","ios":"levelo://app?vid=a213fa16-3a18-406f-b424-76f795b2c79a"},"vehicle_type_id":"4","last_reported":1730902106,"current_range_meters":34000,"station_id":"ce4bgrp2rcd13ifvqc9g","pricing_plan_id":"cebpf4jnsgd1na2vs0mg"},{"bike_id":"33bd9836-7c52-42ac-b481-34f16b2d96a9","system_id":"levelo_inurba_marseille","lat":43.29568,"lon":5.37508,"is_reserved":false,"is_disabled":false,"rental_uris":{"android":"levelo://app?vid=33bd9836-7c52-42ac-b481-34f16b2d96a9","ios":"levelo://app?vid=33bd9836-7c52-42ac-b481-34f16b2d96a9"},"vehicle_type_id":"4","last_reported":1730902106,"current_range_meters":38400,"station_id":"ce4bgh92rcd13ifvqb50","pricing_plan_id":"cebpf4jnsgd1na2vs0mg"},{"bike_id":"35cf71f5-f37e-4bbb-b151-04fa72375f7a","system_id":"levelo_inurba_marseille","lat":43.23149,"lon":5.43714,"is_reserved":false,"is_disabled":false,"rental_uris":{"android":"levelo://app?vid=35cf71f5-f37e-4bbb-b151-04fa72375f7a","ios":"levelo://app?vid=35cf71f5-f37e-4bbb-b151-04fa72375f7a"},"vehicle_type_id":"4","last_reported":1730902106,"current_range_meters":37600,"station_id":"ce4bhmp2rcd13ifvqgog","pricing_plan_id":"cebpf4jnsgd1na2vs0mg"},{"bike_id":"fdad7c30-93d5-41d6-a8f7-ef1ef2e83268","system_id":"levelo_inurba_marseille","lat":43.27623,"lon":5.36111,"is_reserved":false,"is_disabled":false,"rental_uris":{"android":"levelo://app?vid=fdad7c30-93d5-41d6-a8f7-ef1ef2e83268","ios":"levelo://app?vid=fdad7c30-93d5-41d6-a8f7-ef1ef2e83268"},"vehicle_type_id":"4","last_reported":1730902106,"current_range_meters":21600,"station_id":"ce4bgj92rcd13ifvqbe0","pricing_plan_id":"cebpf4jnsgd1na2vs0mg"},{"bike_id":"7218581a-8154-4d65-9c43-4b988b9f366a","system_id":"levelo_inurba_marseille","lat":43.29969,"lon":5.385,"is_reserved":false,"is_disabled":false,"rental_uris":{"android":"levelo://app?vid=7218581a-8154-4d65-9c43-4b988b9f366a","ios":"levelo://app?vid=7218581a-8154-4d65-9c43-4b988b9f366a"},"vehicle_type_id":"4","last_reported":1730902106,"current_range_meters":37600,"station_id":"ce4bgj92rcd13ifvqbd0","pricing_plan_id":"cebpf4jnsgd1na2vs0mg"},{"bike_id":"b5f01ca1-08a3-4b12-8a1e-5c3219f2f4c8","system_id":"levelo_inurba_marseille","lat":43.2781,"lon":5.40712,"is_reserved":false,"is_disabled":false,"rental_uris":{"android":"levelo://app?vid=b5f01ca1-08a3-4b12-8a1e-5c3219f2f4c8","ios":"levelo://app?vid=b5f01ca1-08a3-4b12-8a1e-5c3219f2f4c8"},"vehicle_type_id":"4","last_reported":1730902106,"current_range_meters":36000,"station_id":"ce4bhnh2rcd13ifvqgtg","pricing_plan_id":"cebpf4jnsgd1na2vs0mg"},{"bike_id":"79a1fb00-8904-4659-bdb4-462f18c6c1ac","system_id":"levelo_inurba_marseille","lat":43.29612,"lon":5.3773,"is_reserved":false,"is_disabled":false,"rental_uris":{"android":"levelo://app?vid=79a1fb00-8904-4659-bdb4-462f18c6c1ac","ios":"levelo://app?vid=79a1fb00-8904-4659-bdb4-462f18c6c1ac"},"vehicle_type_id":"4","last_reported":1730902106,"current_range_meters":24800,"station_id":"ce4bgi92rcd13ifvqb90","pricing_plan_id":"cebpf4jnsgd1na2vs0mg"},{"bike_id":"e10a265c-6cec-4cf1-a0ae-4528eeeaf535","system_id":"levelo_inurba_marseille","lat":43.29708,"lon":5.36608,"is_reserved":false,"is_disabled":false,"rental_uris":{"android":"levelo://app?vid=e10a265c-6cec-4cf1-a0ae-4528eeeaf535","ios":"levelo://app?vid=e10a265c-6cec-4cf1-a0ae-4528eeeaf535"},"vehicle_type_id":"4","last_reported":1730902106,"current_range_meters":39200,"station_id":"ce4bgn12rcd13ifvqbt0","pricing_plan_id":"cebpf4jnsgd1na2vs0mg"},{"bike_id":"bcf94556-2246-41f1-8c06-a98f1a3ca966","system_id":"levelo_inurba_marseille","lat":43.28925,"lon":5.38386,"is_reserved":false,"is_disabled":false,"rental_uris":{"android":"levelo://app?vid=bcf94556-2246-41f1-8c06-a98f1a3ca966","ios":"levelo://app?vid=bcf94556-2246-41f1-8c06-a98f1a3ca966"},"vehicle_type_id":"4","last_reported":1730902106,"current_range_meters":22800,"station_id":"ce4bh612rcd13ifvqe6g","pricing_plan_id":"cebpf4jnsgd1na2vs0mg"},{"bike_id":"dd78239e-e0e0-4c1e-8f70-0172a6eb777c","system_id":"levelo_inurba_marseille","lat":43.30257,"lon":5.40073,"is_reserved":false,"is_disabled":false,"rental_uris":{"android":"levelo://app?vid=dd78239e-e0e0-4c1e-8f70-0172a6eb777c","ios":"levelo://app?vid=dd78239e-e0e0-4c1e-8f70-0172a6eb777c"},"vehicle_type_id":"4","last_reported":1730902106,"current_range_meters":38400,"station_id":"ce4bgvh2rcd13ifvqcs0","pricing_plan_id":"cebpf4jnsgd1na2vs0mg"},{"bike_id":"d2f32c1c-813b-4e70-86bc-86683f2deaa1","system_id":"levelo_inurba_marseille","lat":43.30789,"lon":5.37653,"is_reserved":false,"is_disabled":false,"rental_uris":{"android":"levelo://app?vid=d2f32c1c-813b-4e70-86bc-86683f2deaa1","ios":"levelo://app?vid=d2f32c1c-813b-4e70-86bc-86683f2deaa1"},"vehicle_type_id":"4","last_reported":1730902106,"current_range_meters":37600,"station_id":"ce4bgv92rcd13ifvqcq0","pricing_plan_id":"cebpf4jnsgd1na2vs0mg"},{"bike_id":"d229beaa-ac54-4996-9589-9d5015965115","system_id":"levelo_inurba_marseille","lat":43.31708,"lon":5.40461,"is_reserved":false,"is_disabled":false,"rental_uris":{"android":"levelo://app?vid=d229beaa-ac54-4996-9589-9d5015965115","ios":"levelo://app?vid=d229beaa-ac54-4996-9589-9d5015965115"},"vehicle_type_id":"4","last_reported":1730902106,"current_range_meters":12000,"station_id":"ce4bh292rcd13ifvqdg0","pricing_plan_id":"cebpf4jnsgd1na2vs0mg"},{"bike_id":"e09626d7-6ad5-4f83-99e0-4ecc70ad6a62","system_id":"levelo_inurba_marseille","lat":43.28429,"lon":5.34993,"is_reserved":false,"is_disabled":false,"rental_uris":{"android":"levelo://app?vid=e09626d7-6ad5-4f83-99e0-4ecc70ad6a62","ios":"levelo://app?vid=e09626d7-6ad5-4f83-99e0-4ecc70ad6a62"},"vehicle_type_id":"4","last_reported":1730902106,"current_range_meters":38800,"station_id":"ce4bhbh2rcd13ifvqepg","pricing_plan_id":"cebpf4jnsgd1na2vs0mg"},{"bike_id":"32b5a664-5c16-435c-a9c7-6235b45cbf39","system_id":"levelo_inurba_marseille","lat":43.33754,"lon":5.37454,"is_reserved":false,"is_disabled":false,"rental_uris":{"android":"levelo://app?vid=32b5a664-5c16-435c-a9c7-6235b45cbf39","ios":"levelo://app?vid=32b5a664-5c16-435c-a9c7-6235b45cbf39"},"vehicle_type_id":"4","last_reported":1730902106,"current_range_meters":36000,"station_id":"","pricing_plan_id":"cebpf4jnsgd1na2vs0mg"},{"bike_id":"692f31da-ed64-4e18-b7cc-350f01a2fb79","system_id":"levelo_inurba_marseille","lat":43.29891,"lon":5.43669,"is_reserved":false,"is_disabled":false,"rental_uris":{"android":"levelo://app?vid=692f31da-ed64-4e18-b7cc-350f01a2fb79","ios":"levelo://app?vid=692f31da-ed64-4e18-b7cc-350f01a2fb79"},"vehicle_type_id":"4","last_reported":1730902106,"current_range_meters":18800,"station_id":"ce4bhpp2rcd13ifvqhfg","pricing_plan_id":"cebpf4jnsgd1na2vs0mg"},{"bike_id":"1851148b-6302-4458-97d7-daf520137bd6","system_id":"levelo_inurba_marseille","lat":43.29545,"lon":5.3751,"is_reserved":false,"is_disabled":false,"rental_uris":{"android":"levelo://app?vid=1851148b-6302-4458-97d7-daf520137bd6","ios":"levelo://app?vid=1851148b-6302-4458-97d7-daf520137bd6"},"vehicle_type_id":"4","last_reported":1730902106,"current_range_meters":35600,"station_id":"ce4bgkp2rcd13ifvqbmg","pricing_plan_id":"cebpf4jnsgd1na2vs0mg"},{"bike_id":"cef088fc-14e6-41c6-992b-1fc7bb5e4aa9","system_id":"levelo_inurba_marseille","lat":43.30281,"lon":5.37714,"is_reserved":false,"is_disabled":false,"rental_uris":{"android":"levelo://app?vid=cef088fc-14e6-41c6-992b-1fc7bb5e4aa9","ios":"levelo://app?vid=cef088fc-14e6-41c6-992b-1fc7bb5e4aa9"},"vehicle_type_id":"4","last_reported":1730902106,"current_range_meters":34000,"station_id":"ce4bguh2rcd13ifvqcj0","pricing_plan_id":"cebpf4jnsgd1na2vs0mg"},{"bike_id":"ec7f15c5-1145-4250-ad27-8df191b42f18","system_id":"levelo_inurba_marseille","lat":43.30145,"lon":5.37423,"is_reserved":false,"is_disabled":false,"rental_uris":{"android":"levelo://app?vid=ec7f15c5-1145-4250-ad27-8df191b42f18","ios":"levelo://app?vid=ec7f15c5-1145-4250-ad27-8df191b42f18"},"vehicle_type_id":"4","last_reported":1730902106,"current_range_meters":11600,"station_id":"ce4bgs92rcd13ifvqcc0","pricing_plan_id":"cebpf4jnsgd1na2vs0mg"},{"bike_id":"c96fa703-adf0-4364-aa26-ee63944d763d","system_id":"levelo_inurba_marseille","lat":43.2916,"lon":5.37168,"is_reserved":false,"is_disabled":false,"rental_uris":{"android":"levelo://app?vid=c96fa703-adf0-4364-aa26-ee63944d763d","ios":"levelo://app?vid=c96fa703-adf0-4364-aa26-ee63944d763d"},"vehicle_type_id":"4","last_reported":1730902106,"current_range_meters":38800,"station_id":"ce4bha92rcd13ifvqeh0","pricing_plan_id":"cebpf4jnsgd1na2vs0mg"},{"bike_id":"587e2033-43ab-44e0-a4f4-b4fc67d83408","system_id":"levelo_inurba_marseille","lat":43.30537,"lon":5.36707,"is_reserved":false,"is_disabled":false,"rental_uris":{"android":"levelo://app?vid=587e2033-43ab-44e0-a4f4-b4fc67d83408","ios":"levelo://app?vid=587e2033-43ab-44e0-a4f4-b4fc67d83408"},"vehicle_type_id":"4","last_reported":1730902106,"current_range_meters":38800,"station_id":"ce4bgrp2rcd13ifvqc9g","pricing_plan_id":"cebpf4jnsgd1na2vs0mg"},{"bike_id":"14369dd9-2c9a-49d9-96a4-1a60db71f9ac","system_id":"levelo_inurba_marseille","lat":43.29715,"lon":5.37701,"is_reserved":false,"is_disabled":false,"rental_uris":{"android":"levelo://app?vid=14369dd9-2c9a-49d9-96a4-1a60db71f9ac","ios":"levelo://app?vid=14369dd9-2c9a-49d9-96a4-1a60db71f9ac"},"vehicle_type_id":"4","last_reported":1730902106,"current_range_meters":36000,"station_id":"ce4bgkh2rcd13ifvqbl0","pricing_plan_id":"cebpf4jnsgd1na2vs0mg"},{"bike_id":"ad92d505-e54c-4fbd-9b19-09a8a7fd07da","system_id":"levelo_inurba_marseille","lat":43.31324,"lon":5.36768,"is_reserved":false,"is_disabled":false,"rental_uris":{"android":"levelo://app?vid=ad92d505-e54c-4fbd-9b19-09a8a7fd07da","ios":"levelo://app?vid=ad92d505-e54c-4fbd-9b19-09a8a7fd07da"},"vehicle_type_id":"4","last_reported":1730902106,"current_range_meters":38800,"station_id":"ce4bgr92rcd13ifvqc6g","pricing_plan_id":"cebpf4jnsgd1na2vs0mg"},{"bike_id":"b906c90f-d744-43b5-a151-2597c972af78","system_id":"levelo_inurba_marseille","lat":43.306445,"lon":5.400753,"is_reserved":false,"is_disabled":false,"rental_uris":{"android":"levelo://app?vid=b906c90f-d744-43b5-a151-2597c972af78","ios":"levelo://app?vid=b906c90f-d744-43b5-a151-2597c972af78"},"vehicle_type_id":"4","last_reported":1730902106,"current_range_meters":38800,"station_id":"ce4bh112rcd13ifvqda0","pricing_plan_id":"cebpf4jnsgd1na2vs0mg"},{"bike_id":"b30b3076-6dc0-4cb5-80a1-9fcabfa933da","system_id":"levelo_inurba_marseille","lat":43.30255,"lon":5.40072,"is_reserved":false,"is_disabled":false,"rental_uris":{"android":"levelo://app?vid=b30b3076-6dc0-4cb5-80a1-9fcabfa933da","ios":"levelo://app?vid=b30b3076-6dc0-4cb5-80a1-9fcabfa933da"},"vehicle_type_id":"4","last_reported":1730902106,"current_range_meters":30000,"station_id":"ce4bgvh2rcd13ifvqcs0","pricing_plan_id":"cebpf4jnsgd1na2vs0mg"},{"bike_id":"95c9ca03-5a37-479f-af3f-a85137c7b24c","system_id":"levelo_inurba_marseille","lat":43.29371,"lon":5.37868,"is_reserved":false,"is_disabled":false,"rental_uris":{"android":"levelo://app?vid=95c9ca03-5a37-479f-af3f-a85137c7b24c","ios":"levelo://app?vid=95c9ca03-5a37-479f-af3f-a85137c7b24c"},"vehicle_type_id":"4","last_reported":1730902106,"current_range_meters":28800,"station_id":"ce4bgjh2rcd13ifvqbf0","pricing_plan_id":"cebpf4jnsgd1na2vs0mg"},{"bike_id":"aee130be-4924-45a9-bbba-e24deb772286","system_id":"levelo_inurba_marseille","lat":43.30055,"lon":5.388153,"is_reserved":false,"is_disabled":false,"rental_uris":{"android":"levelo://app?vid=aee130be-4924-45a9-bbba-e24deb772286","ios":"levelo://app?vid=aee130be-4924-45a9-bbba-e24deb772286"},"vehicle_type_id":"4","last_reported":1730902106,"current_range_meters":36400,"station_id":"ce4bh2h2rcd13ifvqdh0","pricing_plan_id":"cebpf4jnsgd1na2vs0mg"},{"bike_id":"66cadc2f-87dc-4b78-bb91-c6d6eee1cfce","system_id":"levelo_inurba_marseille","lat":43.30132,"lon":5.39882,"is_reserved":false,"is_disabled":false,"rental_uris":{"android":"levelo://app?vid=66cadc2f-87dc-4b78-bb91-c6d6eee1cfce","ios":"levelo://app?vid=66cadc2f-87dc-4b78-bb91-c6d6eee1cfce"},"vehicle_type_id":"4","last_reported":1730902106,"current_range_meters":19200,"station_id":"ce4bh0h2rcd13ifvqd40","pricing_plan_id":"cebpf4jnsgd1na2vs0mg"},{"bike_id":"c491fa16-4b4a-458c-ac66-986c67921221","system_id":"levelo_inurba_marseille","lat":43.27812,"lon":5.40717,"is_reserved":false,"is_disabled":false,"rental_uris":{"android":"levelo://app?vid=c491fa16-4b4a-458c-ac66-986c67921221","ios":"levelo://app?vid=c491fa16-4b4a-458c-ac66-986c67921221"},"vehicle_type_id":"4","last_reported":1730902106,"current_range_meters":20800,"station_id":"ce4bhnh2rcd13ifvqgtg","pricing_plan_id":"cebpf4jnsgd1na2vs0mg"},{"bike_id":"e5f32691-52b3-49a0-bf2d-4ae76cb03ca6","system_id":"levelo_inurba_marseille","lat":43.30178,"lon":5.36628,"is_reserved":false,"is_disabled":false,"rental_uris":{"android":"levelo://app?vid=e5f32691-52b3-49a0-bf2d-4ae76cb03ca6","ios":"levelo://app?vid=e5f32691-52b3-49a0-bf2d-4ae76cb03ca6"},"vehicle_type_id":"4","last_reported":1730902106,"current_range_meters":23200,"station_id":"ce4bgrh2rcd13ifvqc8g","pricing_plan_id":"cebpf4jnsgd1na2vs0mg"},{"bike_id":"6c0ec494-6a8d-470b-8cc1-989fb91438d3","system_id":"levelo_inurba_marseille","lat":43.23177,"lon":5.39995,"is_reserved":false,"is_disabled":false,"rental_uris":{"android":"levelo://app?vid=6c0ec494-6a8d-470b-8cc1-989fb91438d3","ios":"levelo://app?vid=6c0ec494-6a8d-470b-8cc1-989fb91438d3"},"vehicle_type_id":"4","last_reported":1730902106,"current_range_meters":30000,"station_id":"ce4bhn12rcd13ifvqgqg","pricing_plan_id":"cebpf4jnsgd1na2vs0mg"},{"bike_id":"bdbbaea9-237d-4daf-be87-8e4a54fea7c2","system_id":"levelo_inurba_marseille","lat":43.28619,"lon":5.35107,"is_reserved":false,"is_disabled":false,"rental_uris":{"android":"levelo://app?vid=bdbbaea9-237d-4daf-be87-8e4a54fea7c2","ios":"levelo://app?vid=bdbbaea9-237d-4daf-be87-8e4a54fea7c2"},"vehicle_type_id":"4","last_reported":1730902106,"current_range_meters":28400,"station_id":"ce4bhch2rcd13ifvqeug","pricing_plan_id":"cebpf4jnsgd1na2vs0mg"},{"bike_id":"504a2677-e7f9-490d-8752-2a9c4e557185","system_id":"levelo_inurba_marseille","lat":43.27181,"lon":5.40999,"is_reserved":false,"is_disabled":false,"rental_uris":{"android":"levelo://app?vid=504a2677-e7f9-490d-8752-2a9c4e557185","ios":"levelo://app?vid=504a2677-e7f9-490d-8752-2a9c4e557185"},"vehicle_type_id":"4","last_reported":1730902106,"current_range_meters":29600,"station_id":"ce4bhl12rcd13ifvqgf0","pricing_plan_id":"cebpf4jnsgd1na2vs0mg"},{"bike_id":"2a232289-2988-4a24-b62c-08c58525e2c8","system_id":"levelo_inurba_marseille","lat":43.26794,"lon":5.39428,"is_reserved":false,"is_disabled":false,"rental_uris":{"android":"levelo://app?vid=2a232289-2988-4a24-b62c-08c58525e2c8","ios":"levelo://app?vid=2a232289-2988-4a24-b62c-08c58525e2c8"},"vehicle_type_id":"4","last_reported":1730902106,"current_range_meters":28400,"station_id":"ce4bhh12rcd13ifvqfg0","pricing_plan_id":"cebpf4jnsgd1na2vs0mg"},{"bike_id":"32ead500-60bc-4e58-9c3f-2e7db620ef30","system_id":"levelo_inurba_marseille","lat":43.29045,"lon":5.39951,"is_reserved":false,"is_disabled":false,"rental_uris":{"android":"levelo://app?vid=32ead500-60bc-4e58-9c3f-2e7db620ef30","ios":"levelo://app?vid=32ead500-60bc-4e58-9c3f-2e7db620ef30"},"vehicle_type_id":"4","last_reported":1730902106,"current_range_meters":24400,"station_id":"ce4bh392rcd13ifvqdm0","pricing_plan_id":"cebpf4jnsgd1na2vs0mg"},{"bike_id":"275e784a-e419-4a27-a562-2d67e69c1a9b","system_id":"levelo_inurba_marseille","lat":43.29915,"lon":5.37475,"is_reserved":false,"is_disabled":false,"rental_uris":{"android":"levelo://app?vid=275e784a-e419-4a27-a562-2d67e69c1a9b","ios":"levelo://app?vid=275e784a-e419-4a27-a562-2d67e69c1a9b"},"vehicle_type_id":"4","last_reported":1730902106,"current_range_meters":25600,"station_id":"ce4bgjh2rcd13ifvqbg0","pricing_plan_id":"cebpf4jnsgd1na2vs0mg"},{"bike_id":"23d9951a-b210-46ef-949e-a673ac8046d6","system_id":"levelo_inurba_marseille","lat":43.29091,"lon":5.38129,"is_reserved":false,"is_disabled":false,"rental_uris":{"android":"levelo://app?vid=23d9951a-b210-46ef-949e-a673ac8046d6","ios":"levelo://app?vid=23d9951a-b210-46ef-949e-a673ac8046d6"},"vehicle_type_id":"4","last_reported":1730902106,"current_range_meters":11600,"station_id":"ce4bh512rcd13ifvqe2g","pricing_plan_id":"cebpf4jnsgd1na2vs0mg"},{"bike_id":"6960f8f4-7f41-4f9d-aecd-0776e60fb5a9","system_id":"levelo_inurba_marseille","lat":43.23146,"lon":5.43729,"is_reserved":false,"is_disabled":false,"rental_uris":{"android":"levelo://app?vid=6960f8f4-7f41-4f9d-aecd-0776e60fb5a9","ios":"levelo://app?vid=6960f8f4-7f41-4f9d-aecd-0776e60fb5a9"},"vehicle_type_id":"4","last_reported":1730902106,"current_range_meters":8400,"station_id":"ce4bhmp2rcd13ifvqgog","pricing_plan_id":"cebpf4jnsgd1na2vs0mg"},{"bike_id":"d17dc638-905b-4348-ae3b-a03999ca9b02","system_id":"levelo_inurba_marseille","lat":43.31757,"lon":5.39015,"is_reserved":false,"is_disabled":false,"rental_uris":{"android":"levelo://app?vid=d17dc638-905b-4348-ae3b-a03999ca9b02","ios":"levelo://app?vid=d17dc638-905b-4348-ae3b-a03999ca9b02"},"vehicle_type_id":"4","last_reported":1730902106,"current_range_meters":6800,"station_id":"ce4bhqp2rcd13ifvqhng","pricing_plan_id":"cebpf4jnsgd1na2vs0mg"},{"bike_id":"9b8567ef-4042-4b8a-b170-44ad3c689258","system_id":"levelo_inurba_marseille","lat":43.25009,"lon":5.38918,"is_reserved":false,"is_disabled":false,"rental_uris":{"android":"levelo://app?vid=9b8567ef-4042-4b8a-b170-44ad3c689258","ios":"levelo://app?vid=9b8567ef-4042-4b8a-b170-44ad3c689258"},"vehicle_type_id":"4","last_reported":1730902106,"current_range_meters":2800,"station_id":"ce4bhgp2rcd13ifvqfd0","pricing_plan_id":"cebpf4jnsgd1na2vs0mg"},{"bike_id":"42163e3e-5009-401f-a1ce-f09eb7e2a510","system_id":"levelo_inurba_marseille","lat":43.31323,"lon":5.39701,"is_reserved":false,"is_disabled":false,"rental_uris":{"android":"levelo://app?vid=42163e3e-5009-401f-a1ce-f09eb7e2a510","ios":"levelo://app?vid=42163e3e-5009-401f-a1ce-f09eb7e2a510"},"vehicle_type_id":"4","last_reported":1730902106,"current_range_meters":39200,"station_id":"ce4bgvp2rcd13ifvqcu0","pricing_plan_id":"cebpf4jnsgd1na2vs0mg"},{"bike_id":"c66f045f-3eba-44fc-88af-e49b13fae6c6","system_id":"levelo_inurba_marseille","lat":43.24072,"lon":5.37763,"is_reserved":false,"is_disabled":false,"rental_uris":{"android":"levelo://app?vid=c66f045f-3eba-44fc-88af-e49b13fae6c6","ios":"levelo://app?vid=c66f045f-3eba-44fc-88af-e49b13fae6c6"},"vehicle_type_id":"4","last_reported":1730902106,"current_range_meters":30800,"station_id":"ce4bhnp2rcd13ifvqgvg","pricing_plan_id":"cebpf4jnsgd1na2vs0mg"},{"bike_id":"a9b55777-f1e2-44bb-bd36-ea38a2f4482b","system_id":"levelo_inurba_marseille","lat":43.29977,"lon":5.3849,"is_reserved":false,"is_disabled":false,"rental_uris":{"android":"levelo://app?vid=a9b55777-f1e2-44bb-bd36-ea38a2f4482b","ios":"levelo://app?vid=a9b55777-f1e2-44bb-bd36-ea38a2f4482b"},"vehicle_type_id":"4","last_reported":1730902106,"current_range_meters":34000,"station_id":"ce4bgj92rcd13ifvqbd0","pricing_plan_id":"cebpf4jnsgd1na2vs0mg"},{"bike_id":"a0db1695-32d8-4d9c-9829-ab1da773a69e","system_id":"levelo_inurba_marseille","lat":43.3013,"lon":5.39879,"is_reserved":false,"is_disabled":false,"rental_uris":{"android":"levelo://app?vid=a0db1695-32d8-4d9c-9829-ab1da773a69e","ios":"levelo://app?vid=a0db1695-32d8-4d9c-9829-ab1da773a69e"},"vehicle_type_id":"4","last_reported":1730902106,"current_range_meters":36800,"station_id":"ce4bh0h2rcd13ifvqd40","pricing_plan_id":"cebpf4jnsgd1na2vs0mg"},{"bike_id":"9d5bb832-736f-447e-90e2-4b4afdee42a6","system_id":"levelo_inurba_marseille","lat":43.29277,"lon":5.36853,"is_reserved":false,"is_disabled":false,"rental_uris":{"android":"levelo://app?vid=9d5bb832-736f-447e-90e2-4b4afdee42a6","ios":"levelo://app?vid=9d5bb832-736f-447e-90e2-4b4afdee42a6"},"vehicle_type_id":"4","last_reported":1730902106,"current_range_meters":9200,"station_id":"ce4bhbp2rcd13ifvqesg","pricing_plan_id":"cebpf4jnsgd1na2vs0mg"},{"bike_id":"d877ce7d-d4ae-49e3-99e4-8e9fef3cb744","system_id":"levelo_inurba_marseille","lat":43.29271,"lon":5.36854,"is_reserved":false,"is_disabled":false,"rental_uris":{"android":"levelo://app?vid=d877ce7d-d4ae-49e3-99e4-8e9fef3cb744","ios":"levelo://app?vid=d877ce7d-d4ae-49e3-99e4-8e9fef3cb744"},"vehicle_type_id":"4","last_reported":1730902106,"current_range_meters":8000,"station_id":"ce4bhbp2rcd13ifvqesg","pricing_plan_id":"cebpf4jnsgd1na2vs0mg"},{"bike_id":"305ce754-dda4-452f-a713-e0d2d593c5da","system_id":"levelo_inurba_marseille","lat":43.26938,"lon":5.40253,"is_reserved":false,"is_disabled":false,"rental_uris":{"android":"levelo://app?vid=305ce754-dda4-452f-a713-e0d2d593c5da","ios":"levelo://app?vid=305ce754-dda4-452f-a713-e0d2d593c5da"},"vehicle_type_id":"4","last_reported":1730902106,"current_range_meters":3200,"station_id":"cjm6bp8fraef2m0cb0m0","pricing_plan_id":"cebpf4jnsgd1na2vs0mg"},{"bike_id":"bd871aba-02f8-4525-8254-dc5111bda068","system_id":"levelo_inurba_marseille","lat":43.29565,"lon":5.37514,"is_reserved":false,"is_disabled":false,"rental_uris":{"android":"levelo://app?vid=bd871aba-02f8-4525-8254-dc5111bda068","ios":"levelo://app?vid=bd871aba-02f8-4525-8254-dc5111bda068"},"vehicle_type_id":"4","last_reported":1730902106,"current_range_meters":39200,"station_id":"ce4bgh92rcd13ifvqb50","pricing_plan_id":"cebpf4jnsgd1na2vs0mg"},{"bike_id":"2be58595-1ee4-4e97-90d2-c6d933b5e1c7","system_id":"levelo_inurba_marseille","lat":43.29892,"lon":5.43658,"is_reserved":false,"is_disabled":false,"rental_uris":{"android":"levelo://app?vid=2be58595-1ee4-4e97-90d2-c6d933b5e1c7","ios":"levelo://app?vid=2be58595-1ee4-4e97-90d2-c6d933b5e1c7"},"vehicle_type_id":"4","last_reported":1730902106,"current_range_meters":19600,"station_id":"ce4bhpp2rcd13ifvqhfg","pricing_plan_id":"cebpf4jnsgd1na2vs0mg"},{"bike_id":"56774acb-db67-4ad7-a357-929e677f3cc8","system_id":"levelo_inurba_marseille","lat":43.2808,"lon":5.39665,"is_reserved":false,"is_disabled":false,"rental_uris":{"android":"levelo://app?vid=56774acb-db67-4ad7-a357-929e677f3cc8","ios":"levelo://app?vid=56774acb-db67-4ad7-a357-929e677f3cc8"},"vehicle_type_id":"4","last_reported":1730902106,"current_range_meters":39200,"station_id":"ce4bho12rcd13ifvqh2g","pricing_plan_id":"cebpf4jnsgd1na2vs0mg"},{"bike_id":"34ac4c49-fde2-4ef1-a681-846cdf76301d","system_id":"levelo_inurba_marseille","lat":43.3046,"lon":5.37909,"is_reserved":false,"is_disabled":false,"rental_uris":{"android":"levelo://app?vid=34ac4c49-fde2-4ef1-a681-846cdf76301d","ios":"levelo://app?vid=34ac4c49-fde2-4ef1-a681-846cdf76301d"},"vehicle_type_id":"4","last_reported":1730902106,"current_range_meters":34800,"station_id":"ce4bgup2rcd13ifvqcn0","pricing_plan_id":"cebpf4jnsgd1na2vs0mg"},{"bike_id":"7c4e4407-2e0a-4970-b60b-e4c318769401","system_id":"levelo_inurba_marseille","lat":43.3014,"lon":5.37425,"is_reserved":false,"is_disabled":false,"rental_uris":{"android":"levelo://app?vid=7c4e4407-2e0a-4970-b60b-e4c318769401","ios":"levelo://app?vid=7c4e4407-2e0a-4970-b60b-e4c318769401"},"vehicle_type_id":"4","last_reported":1730902106,"current_range_meters":4800,"station_id":"ce4bgs92rcd13ifvqcc0","pricing_plan_id":"cebpf4jnsgd1na2vs0mg"},{"bike_id":"f348c9f4-9a66-4443-89e4-59eadd84ea52","system_id":"levelo_inurba_marseille","lat":43.31533,"lon":5.3725,"is_reserved":false,"is_disabled":false,"rental_uris":{"android":"levelo://app?vid=f348c9f4-9a66-4443-89e4-59eadd84ea52","ios":"levelo://app?vid=f348c9f4-9a66-4443-89e4-59eadd84ea52"},"vehicle_type_id":"4","last_reported":1730902106,"current_range_meters":8000,"station_id":"","pricing_plan_id":"cebpf4jnsgd1na2vs0mg"},{"bike_id":"da96c2be-ffe8-410e-b05f-bd4285b4e703","system_id":"levelo_inurba_marseille","lat":43.23153,"lon":5.43719,"is_reserved":false,"is_disabled":false,"rental_uris":{"android":"levelo://app?vid=da96c2be-ffe8-410e-b05f-bd4285b4e703","ios":"levelo://app?vid=da96c2be-ffe8-410e-b05f-bd4285b4e703"},"vehicle_type_id":"4","last_reported":1730902106,"current_range_meters":20000,"station_id":"ce4bhmp2rcd13ifvqgog","pricing_plan_id":"cebpf4jnsgd1na2vs0mg"},{"bike_id":"dfc5a11b-cfc2-4ce9-8698-799cdda3d684","system_id":"levelo_inurba_marseille","lat":43.28078,"lon":5.39663,"is_reserved":false,"is_disabled":false,"rental_uris":{"android":"levelo://app?vid=dfc5a11b-cfc2-4ce9-8698-799cdda3d684","ios":"levelo://app?vid=dfc5a11b-cfc2-4ce9-8698-799cdda3d684"},"vehicle_type_id":"4","last_reported":1730902106,"current_range_meters":38800,"station_id":"ce4bho12rcd13ifvqh2g","pricing_plan_id":"cebpf4jnsgd1na2vs0mg"},{"bike_id":"41d1f86c-47c8-47d8-9882-96d09b861f50","system_id":"levelo_inurba_marseille","lat":43.29595,"lon":5.37514,"is_reserved":false,"is_disabled":false,"rental_uris":{"android":"levelo://app?vid=41d1f86c-47c8-47d8-9882-96d09b861f50","ios":"levelo://app?vid=41d1f86c-47c8-47d8-9882-96d09b861f50"},"vehicle_type_id":"4","last_reported":1730902106,"current_range_meters":37600,"station_id":"","pricing_plan_id":"cebpf4jnsgd1na2vs0mg"},{"bike_id":"d1980623-f2e9-488f-ad4c-96f1b4b18325","system_id":"levelo_inurba_marseille","lat":43.26214,"lon":5.37442,"is_reserved":false,"is_disabled":false,"rental_uris":{"android":"levelo://app?vid=d1980623-f2e9-488f-ad4c-96f1b4b18325","ios":"levelo://app?vid=d1980623-f2e9-488f-ad4c-96f1b4b18325"},"vehicle_type_id":"4","last_reported":1730902106,"current_range_meters":35200,"station_id":"ce4bhgp2rcd13ifvqfc0","pricing_plan_id":"cebpf4jnsgd1na2vs0mg"},{"bike_id":"4c5cf20b-b392-4566-944f-1600750b1527","system_id":"levelo_inurba_marseille","lat":43.24995,"lon":5.38932,"is_reserved":false,"is_disabled":false,"rental_uris":{"android":"levelo://app?vid=4c5cf20b-b392-4566-944f-1600750b1527","ios":"levelo://app?vid=4c5cf20b-b392-4566-944f-1600750b1527"},"vehicle_type_id":"4","last_reported":1730902106,"current_range_meters":36400,"station_id":"ce4bhgp2rcd13ifvqfd0","pricing_plan_id":"cebpf4jnsgd1na2vs0mg"},{"bike_id":"4ff64ffd-ab9b-49fc-9447-387d286174e1","system_id":"levelo_inurba_marseille","lat":43.29718,"lon":5.376493,"is_reserved":false,"is_disabled":false,"rental_uris":{"android":"levelo://app?vid=4ff64ffd-ab9b-49fc-9447-387d286174e1","ios":"levelo://app?vid=4ff64ffd-ab9b-49fc-9447-387d286174e1"},"vehicle_type_id":"4","last_reported":1730902106,"current_range_meters":36400,"station_id":"ce4bgk12rcd13ifvqbj0","pricing_plan_id":"cebpf4jnsgd1na2vs0mg"},{"bike_id":"bdd117ca-e1f1-4e1e-986d-f8c35615d02a","system_id":"levelo_inurba_marseille","lat":43.30931,"lon":5.40145,"is_reserved":false,"is_disabled":false,"rental_uris":{"android":"levelo://app?vid=bdd117ca-e1f1-4e1e-986d-f8c35615d02a","ios":"levelo://app?vid=bdd117ca-e1f1-4e1e-986d-f8c35615d02a"},"vehicle_type_id":"4","last_reported":1730902106,"current_range_meters":25600,"station_id":"ce4bgvp2rcd13ifvqct0","pricing_plan_id":"cebpf4jnsgd1na2vs0mg"},{"bike_id":"7282d1b8-8009-41c5-a7b3-bb16b1ddaa3d","system_id":"levelo_inurba_marseille","lat":43.26551,"lon":5.37284,"is_reserved":false,"is_disabled":false,"rental_uris":{"android":"levelo://app?vid=7282d1b8-8009-41c5-a7b3-bb16b1ddaa3d","ios":"levelo://app?vid=7282d1b8-8009-41c5-a7b3-bb16b1ddaa3d"},"vehicle_type_id":"4","last_reported":1730902106,"current_range_meters":25600,"station_id":"ce4bhg12rcd13ifvqf70","pricing_plan_id":"cebpf4jnsgd1na2vs0mg"},{"bike_id":"1f47ed8e-1934-48ce-892b-9aee2605272e","system_id":"levelo_inurba_marseille","lat":43.28925,"lon":5.38405,"is_reserved":false,"is_disabled":false,"rental_uris":{"android":"levelo://app?vid=1f47ed8e-1934-48ce-892b-9aee2605272e","ios":"levelo://app?vid=1f47ed8e-1934-48ce-892b-9aee2605272e"},"vehicle_type_id":"4","last_reported":1730902106,"current_range_meters":25600,"station_id":"ce4bh612rcd13ifvqe6g","pricing_plan_id":"cebpf4jnsgd1na2vs0mg"},{"bike_id":"8f43fe37-2b63-4a02-98dd-daf0496db2f7","system_id":"levelo_inurba_marseille","lat":43.30155,"lon":5.38084,"is_reserved":false,"is_disabled":false,"rental_uris":{"android":"levelo://app?vid=8f43fe37-2b63-4a02-98dd-daf0496db2f7","ios":"levelo://app?vid=8f43fe37-2b63-4a02-98dd-daf0496db2f7"},"vehicle_type_id":"4","last_reported":1730902106,"current_range_meters":38000,"station_id":"ce4bgjp2rcd13ifvqbh0","pricing_plan_id":"cebpf4jnsgd1na2vs0mg"},{"bike_id":"3b8fb496-7cfc-4bab-bdb0-1f6f6ea988cb","system_id":"levelo_inurba_marseille","lat":43.28353,"lon":5.38622,"is_reserved":false,"is_disabled":false,"rental_uris":{"android":"levelo://app?vid=3b8fb496-7cfc-4bab-bdb0-1f6f6ea988cb","ios":"levelo://app?vid=3b8fb496-7cfc-4bab-bdb0-1f6f6ea988cb"},"vehicle_type_id":"4","last_reported":1730902106,"current_range_meters":36400,"station_id":"ce4bh492rcd13ifvqdvg","pricing_plan_id":"cebpf4jnsgd1na2vs0mg"},{"bike_id":"5c5c97c6-5f7d-433c-8abd-3ba4e15a4983","system_id":"levelo_inurba_marseille","lat":43.28417,"lon":5.34989,"is_reserved":false,"is_disabled":false,"rental_uris":{"android":"levelo://app?vid=5c5c97c6-5f7d-433c-8abd-3ba4e15a4983","ios":"levelo://app?vid=5c5c97c6-5f7d-433c-8abd-3ba4e15a4983"},"vehicle_type_id":"4","last_reported":1730902106,"current_range_meters":28000,"station_id":"ce4bhbh2rcd13ifvqepg","pricing_plan_id":"cebpf4jnsgd1na2vs0mg"},{"bike_id":"b4678c20-7935-41da-9eb4-bbd1cd730c71","system_id":"levelo_inurba_marseille","lat":43.25871,"lon":5.39902,"is_reserved":false,"is_disabled":false,"rental_uris":{"android":"levelo://app?vid=b4678c20-7935-41da-9eb4-bbd1cd730c71","ios":"levelo://app?vid=b4678c20-7935-41da-9eb4-bbd1cd730c71"},"vehicle_type_id":"4","last_reported":1730902106,"current_range_meters":37600,"station_id":"ce4bhl92rcd13ifvqghg","pricing_plan_id":"cebpf4jnsgd1na2vs0mg"},{"bike_id":"f090f7de-cf8c-4c26-b6b1-807907555e45","system_id":"levelo_inurba_marseille","lat":43.30955,"lon":5.3904,"is_reserved":false,"is_disabled":false,"rental_uris":{"android":"levelo://app?vid=f090f7de-cf8c-4c26-b6b1-807907555e45","ios":"levelo://app?vid=f090f7de-cf8c-4c26-b6b1-807907555e45"},"vehicle_type_id":"4","last_reported":1730902106,"current_range_meters":4800,"station_id":"ce4bgup2rcd13ifvqco0","pricing_plan_id":"cebpf4jnsgd1na2vs0mg"},{"bike_id":"cde33d01-4fdf-4588-9993-50576e545d63","system_id":"levelo_inurba_marseille","lat":43.29901,"lon":5.43665,"is_reserved":false,"is_disabled":false,"rental_uris":{"android":"levelo://app?vid=cde33d01-4fdf-4588-9993-50576e545d63","ios":"levelo://app?vid=cde33d01-4fdf-4588-9993-50576e545d63"},"vehicle_type_id":"4","last_reported":1730902106,"current_range_meters":37600,"station_id":"ce4bhpp2rcd13ifvqhfg","pricing_plan_id":"cebpf4jnsgd1na2vs0mg"},{"bike_id":"7b0fa45b-73b1-43d0-b318-c7b89f93ae59","system_id":"levelo_inurba_marseille","lat":43.3132,"lon":5.39703,"is_reserved":false,"is_disabled":false,"rental_uris":{"android":"levelo://app?vid=7b0fa45b-73b1-43d0-b318-c7b89f93ae59","ios":"levelo://app?vid=7b0fa45b-73b1-43d0-b318-c7b89f93ae59"},"vehicle_type_id":"4","last_reported":1730902106,"current_range_meters":8400,"station_id":"ce4bgvp2rcd13ifvqcu0","pricing_plan_id":"cebpf4jnsgd1na2vs0mg"},{"bike_id":"eb71f511-ab54-44c6-a494-e46c8dd9479e","system_id":"levelo_inurba_marseille","lat":43.29976,"lon":5.38492,"is_reserved":false,"is_disabled":false,"rental_uris":{"android":"levelo://app?vid=eb71f511-ab54-44c6-a494-e46c8dd9479e","ios":"levelo://app?vid=eb71f511-ab54-44c6-a494-e46c8dd9479e"},"vehicle_type_id":"4","last_reported":1730902106,"current_range_meters":36400,"station_id":"ce4bgj92rcd13ifvqbd0","pricing_plan_id":"cebpf4jnsgd1na2vs0mg"},{"bike_id":"7866ea0a-6c3c-43f7-a1a9-45e28d6aff4e","system_id":"levelo_inurba_marseille","lat":43.31115,"lon":5.37773,"is_reserved":false,"is_disabled":false,"rental_uris":{"android":"levelo://app?vid=7866ea0a-6c3c-43f7-a1a9-45e28d6aff4e","ios":"levelo://app?vid=7866ea0a-6c3c-43f7-a1a9-45e28d6aff4e"},"vehicle_type_id":"4","last_reported":1730902106,"current_range_meters":38400,"station_id":"ce4bgt92rcd13ifvqcg0","pricing_plan_id":"cebpf4jnsgd1na2vs0mg"},{"bike_id":"39c3ac78-4566-4892-96a1-d3c5038f88f9","system_id":"levelo_inurba_marseille","lat":43.30087,"lon":5.39084,"is_reserved":false,"is_disabled":false,"rental_uris":{"android":"levelo://app?vid=39c3ac78-4566-4892-96a1-d3c5038f88f9","ios":"levelo://app?vid=39c3ac78-4566-4892-96a1-d3c5038f88f9"},"vehicle_type_id":"4","last_reported":1730902106,"current_range_meters":32800,"station_id":"ce4bh192rcd13ifvqdb0","pricing_plan_id":"cebpf4jnsgd1na2vs0mg"},{"bike_id":"9d9dc117-b422-4432-b305-2ee17862cef6","system_id":"levelo_inurba_marseille","lat":43.31216,"lon":5.36909,"is_reserved":false,"is_disabled":false,"rental_uris":{"android":"levelo://app?vid=9d9dc117-b422-4432-b305-2ee17862cef6","ios":"levelo://app?vid=9d9dc117-b422-4432-b305-2ee17862cef6"},"vehicle_type_id":"4","last_reported":1730902106,"current_range_meters":28400,"station_id":"ce4bgl92rcd13ifvqbq0","pricing_plan_id":"cebpf4jnsgd1na2vs0mg"},{"bike_id":"7c11a563-75b5-427a-8e7e-4e83724c2cde","system_id":"levelo_inurba_marseille","lat":43.2586,"lon":5.39903,"is_reserved":false,"is_disabled":false,"rental_uris":{"android":"levelo://app?vid=7c11a563-75b5-427a-8e7e-4e83724c2cde","ios":"levelo://app?vid=7c11a563-75b5-427a-8e7e-4e83724c2cde"},"vehicle_type_id":"4","last_reported":1730902106,"current_range_meters":28800,"station_id":"ce4bhl92rcd13ifvqghg","pricing_plan_id":"cebpf4jnsgd1na2vs0mg"},{"bike_id":"f5596869-7913-4686-95ca-aa0c6c69ba13","system_id":"levelo_inurba_marseille","lat":43.3091,"lon":5.36856,"is_reserved":false,"is_disabled":false,"rental_uris":{"android":"levelo://app?vid=f5596869-7913-4686-95ca-aa0c6c69ba13","ios":"levelo://app?vid=f5596869-7913-4686-95ca-aa0c6c69ba13"},"vehicle_type_id":"4","last_reported":1730902106,"current_range_meters":38800,"station_id":"ce4bgn92rcd13ifvqbvg","pricing_plan_id":"cebpf4jnsgd1na2vs0mg"},{"bike_id":"6eb85ccd-da9a-4ffe-af26-c8aa9f5f40f1","system_id":"levelo_inurba_marseille","lat":43.27617,"lon":5.36113,"is_reserved":false,"is_disabled":false,"rental_uris":{"android":"levelo://app?vid=6eb85ccd-da9a-4ffe-af26-c8aa9f5f40f1","ios":"levelo://app?vid=6eb85ccd-da9a-4ffe-af26-c8aa9f5f40f1"},"vehicle_type_id":"4","last_reported":1730902106,"current_range_meters":33600,"station_id":"ce4bgj92rcd13ifvqbe0","pricing_plan_id":"cebpf4jnsgd1na2vs0mg"},{"bike_id":"bc8ee944-4095-408e-9184-b2d4e6d962c5","system_id":"levelo_inurba_marseille","lat":43.29194,"lon":5.39318,"is_reserved":false,"is_disabled":false,"rental_uris":{"android":"levelo://app?vid=bc8ee944-4095-408e-9184-b2d4e6d962c5","ios":"levelo://app?vid=bc8ee944-4095-408e-9184-b2d4e6d962c5"},"vehicle_type_id":"4","last_reported":1730902106,"current_range_meters":36400,"station_id":"ce4bh192rcd13ifvqdd0","pricing_plan_id":"cebpf4jnsgd1na2vs0mg"},{"bike_id":"5174ae6b-73b7-4eb9-b82e-9c61c1f78ce8","system_id":"levelo_inurba_marseille","lat":43.31228,"lon":5.40656,"is_reserved":false,"is_disabled":false,"rental_uris":{"android":"levelo://app?vid=5174ae6b-73b7-4eb9-b82e-9c61c1f78ce8","ios":"levelo://app?vid=5174ae6b-73b7-4eb9-b82e-9c61c1f78ce8"},"vehicle_type_id":"4","last_reported":1730902106,"current_range_meters":22800,"station_id":"","pricing_plan_id":"cebpf4jnsgd1na2vs0mg"},{"bike_id":"284a4a32-770b-413a-b42b-b4d6ebbc0f1f","system_id":"levelo_inurba_marseille","lat":43.31164,"lon":5.38729,"is_reserved":false,"is_disabled":false,"rental_uris":{"android":"levelo://app?vid=284a4a32-770b-413a-b42b-b4d6ebbc0f1f","ios":"levelo://app?vid=284a4a32-770b-413a-b42b-b4d6ebbc0f1f"},"vehicle_type_id":"4","last_reported":1730902106,"current_range_meters":20400,"station_id":"ce4bgv12rcd13ifvqcp0","pricing_plan_id":"cebpf4jnsgd1na2vs0mg"},{"bike_id":"206293ad-7e31-422a-b835-21e609ea696e","system_id":"levelo_inurba_marseille","lat":43.25867,"lon":5.39909,"is_reserved":false,"is_disabled":false,"rental_uris":{"android":"levelo://app?vid=206293ad-7e31-422a-b835-21e609ea696e","ios":"levelo://app?vid=206293ad-7e31-422a-b835-21e609ea696e"},"vehicle_type_id":"4","last_reported":1730902106,"current_range_meters":27600,"station_id":"ce4bhl92rcd13ifvqghg","pricing_plan_id":"cebpf4jnsgd1na2vs0mg"},{"bike_id":"6fcb4180-2357-44c0-bc2b-7c583caea156","system_id":"levelo_inurba_marseille","lat":43.2593,"lon":5.40917,"is_reserved":false,"is_disabled":false,"rental_uris":{"android":"levelo://app?vid=6fcb4180-2357-44c0-bc2b-7c583caea156","ios":"levelo://app?vid=6fcb4180-2357-44c0-bc2b-7c583caea156"},"vehicle_type_id":"4","last_reported":1730902106,"current_range_meters":32000,"station_id":"ce4bhm92rcd13ifvqglg","pricing_plan_id":"cebpf4jnsgd1na2vs0mg"},{"bike_id":"bff19b85-fa9d-4d2e-a404-1b3282f15d63","system_id":"levelo_inurba_marseille","lat":43.28001,"lon":5.4002,"is_reserved":false,"is_disabled":false,"rental_uris":{"android":"levelo://app?vid=bff19b85-fa9d-4d2e-a404-1b3282f15d63","ios":"levelo://app?vid=bff19b85-fa9d-4d2e-a404-1b3282f15d63"},"vehicle_type_id":"4","last_reported":1730902106,"current_range_meters":38400,"station_id":"ce4bho92rcd13ifvqh4g","pricing_plan_id":"cebpf4jnsgd1na2vs0mg"},{"bike_id":"f9df7627-bf91-4f5c-b4f8-a525b3fc1501","system_id":"levelo_inurba_marseille","lat":43.31666,"lon":5.39561,"is_reserved":false,"is_disabled":false,"rental_uris":{"android":"levelo://app?vid=f9df7627-bf91-4f5c-b4f8-a525b3fc1501","ios":"levelo://app?vid=f9df7627-bf91-4f5c-b4f8-a525b3fc1501"},"vehicle_type_id":"4","last_reported":1730902106,"current_range_meters":36400,"station_id":"ce4bh292rcd13ifvqdf0","pricing_plan_id":"cebpf4jnsgd1na2vs0mg"},{"bike_id":"34bb6386-09b5-43a4-a2d3-3cf731f7f71f","system_id":"levelo_inurba_marseille","lat":43.28415,"lon":5.34991,"is_reserved":false,"is_disabled":false,"rental_uris":{"android":"levelo://app?vid=34bb6386-09b5-43a4-a2d3-3cf731f7f71f","ios":"levelo://app?vid=34bb6386-09b5-43a4-a2d3-3cf731f7f71f"},"vehicle_type_id":"4","last_reported":1730902106,"current_range_meters":30800,"station_id":"ce4bhbh2rcd13ifvqepg","pricing_plan_id":"cebpf4jnsgd1na2vs0mg"},{"bike_id":"31a9ee20-6554-4af8-a0eb-815725c30b2e","system_id":"levelo_inurba_marseille","lat":43.29034,"lon":5.39972,"is_reserved":false,"is_disabled":false,"rental_uris":{"android":"levelo://app?vid=31a9ee20-6554-4af8-a0eb-815725c30b2e","ios":"levelo://app?vid=31a9ee20-6554-4af8-a0eb-815725c30b2e"},"vehicle_type_id":"4","last_reported":1730902106,"current_range_meters":38400,"station_id":"ce4bh392rcd13ifvqdm0","pricing_plan_id":"cebpf4jnsgd1na2vs0mg"},{"bike_id":"a5bf7cab-62eb-4d16-9034-1642e0761f5c","system_id":"levelo_inurba_marseille","lat":43.301427,"lon":5.374227,"is_reserved":false,"is_disabled":false,"rental_uris":{"android":"levelo://app?vid=a5bf7cab-62eb-4d16-9034-1642e0761f5c","ios":"levelo://app?vid=a5bf7cab-62eb-4d16-9034-1642e0761f5c"},"vehicle_type_id":"4","last_reported":1730902106,"current_range_meters":16800,"station_id":"ce4bh412rcd13ifvqdr0","pricing_plan_id":"cebpf4jnsgd1na2vs0mg"},{"bike_id":"facaddb7-865b-4fc0-aede-e7720a798ab7","system_id":"levelo_inurba_marseille","lat":43.30138,"lon":5.37419,"is_reserved":false,"is_disabled":false,"rental_uris":{"android":"levelo://app?vid=facaddb7-865b-4fc0-aede-e7720a798ab7","ios":"levelo://app?vid=facaddb7-865b-4fc0-aede-e7720a798ab7"},"vehicle_type_id":"4","last_reported":1730902106,"current_range_meters":31200,"station_id":"ce4bgs92rcd13ifvqcc0","pricing_plan_id":"cebpf4jnsgd1na2vs0mg"},{"bike_id":"ebcf6733-e41e-4f70-b758-d56fe1de23df","system_id":"levelo_inurba_marseille","lat":43.30535,"lon":5.36532,"is_reserved":false,"is_disabled":false,"rental_uris":{"android":"levelo://app?vid=ebcf6733-e41e-4f70-b758-d56fe1de23df","ios":"levelo://app?vid=ebcf6733-e41e-4f70-b758-d56fe1de23df"},"vehicle_type_id":"4","last_reported":1730902106,"current_range_meters":38800,"station_id":"ce4bgs12rcd13ifvqcag","pricing_plan_id":"cebpf4jnsgd1na2vs0mg"},{"bike_id":"a8f4201d-6ccd-4b26-9347-c5cae8dd7043","system_id":"levelo_inurba_marseille","lat":43.24181,"lon":5.3972,"is_reserved":false,"is_disabled":false,"rental_uris":{"android":"levelo://app?vid=a8f4201d-6ccd-4b26-9347-c5cae8dd7043","ios":"levelo://app?vid=a8f4201d-6ccd-4b26-9347-c5cae8dd7043"},"vehicle_type_id":"4","last_reported":1730902106,"current_range_meters":32400,"station_id":"ce4bhn12rcd13ifvqgpg","pricing_plan_id":"cebpf4jnsgd1na2vs0mg"},{"bike_id":"dc397fa6-87ca-400e-beb0-b20e68c09032","system_id":"levelo_inurba_marseille","lat":43.314867,"lon":5.373017,"is_reserved":false,"is_disabled":false,"rental_uris":{"android":"levelo://app?vid=dc397fa6-87ca-400e-beb0-b20e68c09032","ios":"levelo://app?vid=dc397fa6-87ca-400e-beb0-b20e68c09032"},"vehicle_type_id":"4","last_reported":1730902106,"current_range_meters":20400,"station_id":"ce4bgt12rcd13ifvqcd0","pricing_plan_id":"cebpf4jnsgd1na2vs0mg"},{"bike_id":"097dd610-02a5-4fc8-8a3d-1082f852a16d","system_id":"levelo_inurba_marseille","lat":43.30941,"lon":5.4014,"is_reserved":false,"is_disabled":false,"rental_uris":{"android":"levelo://app?vid=097dd610-02a5-4fc8-8a3d-1082f852a16d","ios":"levelo://app?vid=097dd610-02a5-4fc8-8a3d-1082f852a16d"},"vehicle_type_id":"4","last_reported":1730902106,"current_range_meters":39200,"station_id":"ce4bgvp2rcd13ifvqct0","pricing_plan_id":"cebpf4jnsgd1na2vs0mg"},{"bike_id":"5ff13389-cd97-4c5f-85f4-c1cc4ea3dcce","system_id":"levelo_inurba_marseille","lat":43.30415,"lon":5.39756,"is_reserved":false,"is_disabled":false,"rental_uris":{"android":"levelo://app?vid=5ff13389-cd97-4c5f-85f4-c1cc4ea3dcce","ios":"levelo://app?vid=5ff13389-cd97-4c5f-85f4-c1cc4ea3dcce"},"vehicle_type_id":"4","last_reported":1730902106,"current_range_meters":37600,"station_id":"ce4bh092rcd13ifvqd20","pricing_plan_id":"cebpf4jnsgd1na2vs0mg"},{"bike_id":"437037e9-de2d-4c1f-b6d8-074d1c9b96f5","system_id":"levelo_inurba_marseille","lat":43.30802,"lon":5.38142,"is_reserved":false,"is_disabled":false,"rental_uris":{"android":"levelo://app?vid=437037e9-de2d-4c1f-b6d8-074d1c9b96f5","ios":"levelo://app?vid=437037e9-de2d-4c1f-b6d8-074d1c9b96f5"},"vehicle_type_id":"4","last_reported":1730902106,"current_range_meters":37600,"station_id":"ce4bgt12rcd13ifvqce0","pricing_plan_id":"cebpf4jnsgd1na2vs0mg"},{"bike_id":"f32885a4-16d6-40a5-a975-114c008bbe17","system_id":"levelo_inurba_marseille","lat":43.26495,"lon":5.39548,"is_reserved":false,"is_disabled":false,"rental_uris":{"android":"levelo://app?vid=f32885a4-16d6-40a5-a975-114c008bbe17","ios":"levelo://app?vid=f32885a4-16d6-40a5-a975-114c008bbe17"},"vehicle_type_id":"4","last_reported":1730902106,"current_range_meters":37600,"station_id":"ce4bhi12rcd13ifvqfq0","pricing_plan_id":"cebpf4jnsgd1na2vs0mg"},{"bike_id":"ae7c54f6-13e8-40df-b574-d525f8ee83d0","system_id":"levelo_inurba_marseille","lat":43.30259,"lon":5.4007,"is_reserved":false,"is_disabled":false,"rental_uris":{"android":"levelo://app?vid=ae7c54f6-13e8-40df-b574-d525f8ee83d0","ios":"levelo://app?vid=ae7c54f6-13e8-40df-b574-d525f8ee83d0"},"vehicle_type_id":"4","last_reported":1730902106,"current_range_meters":38400,"station_id":"ce4bgvh2rcd13ifvqcs0","pricing_plan_id":"cebpf4jnsgd1na2vs0mg"},{"bike_id":"67c65a4c-d5fc-45c3-aaae-b079185a8771","system_id":"levelo_inurba_marseille","lat":43.28728,"lon":5.36089,"is_reserved":false,"is_disabled":false,"rental_uris":{"android":"levelo://app?vid=67c65a4c-d5fc-45c3-aaae-b079185a8771","ios":"levelo://app?vid=67c65a4c-d5fc-45c3-aaae-b079185a8771"},"vehicle_type_id":"4","last_reported":1730902106,"current_range_meters":10000,"station_id":"cki0cbj6b192h4jlfktg","pricing_plan_id":"cebpf4jnsgd1na2vs0mg"},{"bike_id":"e396c6cd-138b-4fea-9eb2-6903ea239f14","system_id":"levelo_inurba_marseille","lat":43.27435,"lon":5.39424,"is_reserved":false,"is_disabled":false,"rental_uris":{"android":"levelo://app?vid=e396c6cd-138b-4fea-9eb2-6903ea239f14","ios":"levelo://app?vid=e396c6cd-138b-4fea-9eb2-6903ea239f14"},"vehicle_type_id":"4","last_reported":1730902106,"current_range_meters":38800,"station_id":"ce4bhdp2rcd13ifvqf20","pricing_plan_id":"cebpf4jnsgd1na2vs0mg"},{"bike_id":"2a83a5d6-41f8-4301-a4a2-aafdaad65f75","system_id":"levelo_inurba_marseille","lat":43.27055,"lon":5.40262,"is_reserved":false,"is_disabled":false,"rental_uris":{"android":"levelo://app?vid=2a83a5d6-41f8-4301-a4a2-aafdaad65f75","ios":"levelo://app?vid=2a83a5d6-41f8-4301-a4a2-aafdaad65f75"},"vehicle_type_id":"4","last_reported":1730902106,"current_range_meters":16000,"station_id":"ce4bhk92rcd13ifvqgc0","pricing_plan_id":"cebpf4jnsgd1na2vs0mg"},{"bike_id":"d0196702-7429-4a2d-86eb-6777a267cff3","system_id":"levelo_inurba_marseille","lat":43.299835,"lon":5.371806,"is_reserved":false,"is_disabled":false,"rental_uris":{"android":"levelo://app?vid=d0196702-7429-4a2d-86eb-6777a267cff3","ios":"levelo://app?vid=d0196702-7429-4a2d-86eb-6777a267cff3"},"vehicle_type_id":"4","last_reported":1730902106,"current_range_meters":12000,"station_id":"ce4bgr92rcd13ifvqc7g","pricing_plan_id":"cebpf4jnsgd1na2vs0mg"},{"bike_id":"3a1de69a-19e0-4032-a6ce-08161212d61b","system_id":"levelo_inurba_marseille","lat":43.29089,"lon":5.3814,"is_reserved":false,"is_disabled":false,"rental_uris":{"android":"levelo://app?vid=3a1de69a-19e0-4032-a6ce-08161212d61b","ios":"levelo://app?vid=3a1de69a-19e0-4032-a6ce-08161212d61b"},"vehicle_type_id":"4","last_reported":1730902106,"current_range_meters":32400,"station_id":"ce4bh512rcd13ifvqe2g","pricing_plan_id":"cebpf4jnsgd1na2vs0mg"},{"bike_id":"51bf97ca-409a-467f-b997-5575c38d9b4c","system_id":"levelo_inurba_marseille","lat":43.29552,"lon":5.42295,"is_reserved":false,"is_disabled":false,"rental_uris":{"android":"levelo://app?vid=51bf97ca-409a-467f-b997-5575c38d9b4c","ios":"levelo://app?vid=51bf97ca-409a-467f-b997-5575c38d9b4c"},"vehicle_type_id":"4","last_reported":1730902106,"current_range_meters":38800,"station_id":"ce4bhph2rcd13ifvqhdg","pricing_plan_id":"cebpf4jnsgd1na2vs0mg"},{"bike_id":"5ecf0605-24fa-47c4-8513-8410af8ebd26","system_id":"levelo_inurba_marseille","lat":43.29618,"lon":5.37155,"is_reserved":false,"is_disabled":false,"rental_uris":{"android":"levelo://app?vid=5ecf0605-24fa-47c4-8513-8410af8ebd26","ios":"levelo://app?vid=5ecf0605-24fa-47c4-8513-8410af8ebd26"},"vehicle_type_id":"4","last_reported":1730902106,"current_range_meters":22000,"station_id":"ce4bgnh2rcd13ifvqc0g","pricing_plan_id":"cebpf4jnsgd1na2vs0mg"},{"bike_id":"fa7b0e37-7e18-4a6e-9d36-9bc2f765b5d0","system_id":"levelo_inurba_marseille","lat":43.33759,"lon":5.37437,"is_reserved":false,"is_disabled":false,"rental_uris":{"android":"levelo://app?vid=fa7b0e37-7e18-4a6e-9d36-9bc2f765b5d0","ios":"levelo://app?vid=fa7b0e37-7e18-4a6e-9d36-9bc2f765b5d0"},"vehicle_type_id":"4","last_reported":1730902106,"current_range_meters":36800,"station_id":"","pricing_plan_id":"cebpf4jnsgd1na2vs0mg"},{"bike_id":"214f6f7b-eb59-4f2e-bfc3-fc8ff7d33840","system_id":"levelo_inurba_marseille","lat":43.29896,"lon":5.43661,"is_reserved":false,"is_disabled":false,"rental_uris":{"android":"levelo://app?vid=214f6f7b-eb59-4f2e-bfc3-fc8ff7d33840","ios":"levelo://app?vid=214f6f7b-eb59-4f2e-bfc3-fc8ff7d33840"},"vehicle_type_id":"4","last_reported":1730902106,"current_range_meters":23200,"station_id":"ce4bhpp2rcd13ifvqhfg","pricing_plan_id":"cebpf4jnsgd1na2vs0mg"},{"bike_id":"b7dd8bea-767b-4a90-a1d4-bc825086e891","system_id":"levelo_inurba_marseille","lat":43.30138,"lon":5.39886,"is_reserved":false,"is_disabled":false,"rental_uris":{"android":"levelo://app?vid=b7dd8bea-767b-4a90-a1d4-bc825086e891","ios":"levelo://app?vid=b7dd8bea-767b-4a90-a1d4-bc825086e891"},"vehicle_type_id":"4","last_reported":1730902106,"current_range_meters":28400,"station_id":"ce4bh0h2rcd13ifvqd40","pricing_plan_id":"cebpf4jnsgd1na2vs0mg"},{"bike_id":"2c4af81a-61a4-4b7d-9737-a21161e3b7d5","system_id":"levelo_inurba_marseille","lat":43.30548,"lon":5.3653,"is_reserved":false,"is_disabled":false,"rental_uris":{"android":"levelo://app?vid=2c4af81a-61a4-4b7d-9737-a21161e3b7d5","ios":"levelo://app?vid=2c4af81a-61a4-4b7d-9737-a21161e3b7d5"},"vehicle_type_id":"4","last_reported":1730902106,"current_range_meters":33200,"station_id":"ce4bgs12rcd13ifvqcag","pricing_plan_id":"cebpf4jnsgd1na2vs0mg"},{"bike_id":"079bc0d2-fabb-40a7-95c8-f2c27c02578a","system_id":"levelo_inurba_marseille","lat":43.30807,"lon":5.38157,"is_reserved":false,"is_disabled":false,"rental_uris":{"android":"levelo://app?vid=079bc0d2-fabb-40a7-95c8-f2c27c02578a","ios":"levelo://app?vid=079bc0d2-fabb-40a7-95c8-f2c27c02578a"},"vehicle_type_id":"4","last_reported":1730902106,"current_range_meters":16400,"station_id":"ce4bgt12rcd13ifvqce0","pricing_plan_id":"cebpf4jnsgd1na2vs0mg"},{"bike_id":"b8d968c2-430e-4297-9b22-19cd8c0f916d","system_id":"levelo_inurba_marseille","lat":43.23154,"lon":5.43696,"is_reserved":false,"is_disabled":false,"rental_uris":{"android":"levelo://app?vid=b8d968c2-430e-4297-9b22-19cd8c0f916d","ios":"levelo://app?vid=b8d968c2-430e-4297-9b22-19cd8c0f916d"},"vehicle_type_id":"4","last_reported":1730902106,"current_range_meters":37600,"station_id":"ce4bhmp2rcd13ifvqgog","pricing_plan_id":"cebpf4jnsgd1na2vs0mg"},{"bike_id":"4eb50040-f52f-46c0-a67d-2e65f9d92d61","system_id":"levelo_inurba_marseille","lat":43.29278,"lon":5.40124,"is_reserved":false,"is_disabled":false,"rental_uris":{"android":"levelo://app?vid=4eb50040-f52f-46c0-a67d-2e65f9d92d61","ios":"levelo://app?vid=4eb50040-f52f-46c0-a67d-2e65f9d92d61"},"vehicle_type_id":"4","last_reported":1730902106,"current_range_meters":36800,"station_id":"ce4bh312rcd13ifvqdk0","pricing_plan_id":"cebpf4jnsgd1na2vs0mg"},{"bike_id":"cf8e3cfe-7bdb-4977-8828-5eb0a7506402","system_id":"levelo_inurba_marseille","lat":43.30205,"lon":5.39471,"is_reserved":false,"is_disabled":false,"rental_uris":{"android":"levelo://app?vid=cf8e3cfe-7bdb-4977-8828-5eb0a7506402","ios":"levelo://app?vid=cf8e3cfe-7bdb-4977-8828-5eb0a7506402"},"vehicle_type_id":"4","last_reported":1730902106,"current_range_meters":38800,"station_id":"ce4bh0p2rcd13ifvqd70","pricing_plan_id":"cebpf4jnsgd1na2vs0mg"},{"bike_id":"4e5d727a-7c34-44b8-af94-45a54b88c1cc","system_id":"levelo_inurba_marseille","lat":43.33711,"lon":5.39185,"is_reserved":false,"is_disabled":false,"rental_uris":{"android":"levelo://app?vid=4e5d727a-7c34-44b8-af94-45a54b88c1cc","ios":"levelo://app?vid=4e5d727a-7c34-44b8-af94-45a54b88c1cc"},"vehicle_type_id":"4","last_reported":1730902106,"current_range_meters":38800,"station_id":"ce4bhr92rcd13ifvqhsg","pricing_plan_id":"cebpf4jnsgd1na2vs0mg"},{"bike_id":"ee6bbaf5-9172-46c6-9fee-23cd6bf90313","system_id":"levelo_inurba_marseille","lat":43.29934,"lon":5.36549,"is_reserved":false,"is_disabled":false,"rental_uris":{"android":"levelo://app?vid=ee6bbaf5-9172-46c6-9fee-23cd6bf90313","ios":"levelo://app?vid=ee6bbaf5-9172-46c6-9fee-23cd6bf90313"},"vehicle_type_id":"4","last_reported":1730902106,"current_range_meters":37600,"station_id":"ce4bgm92rcd13ifvqbr0","pricing_plan_id":"cebpf4jnsgd1na2vs0mg"},{"bike_id":"597b74d7-5fba-452b-a0b9-168e38ee85ca","system_id":"levelo_inurba_marseille","lat":43.30137,"lon":5.38122,"is_reserved":false,"is_disabled":false,"rental_uris":{"android":"levelo://app?vid=597b74d7-5fba-452b-a0b9-168e38ee85ca","ios":"levelo://app?vid=597b74d7-5fba-452b-a0b9-168e38ee85ca"},"vehicle_type_id":"4","last_reported":1730902106,"current_range_meters":19600,"station_id":"ce4bgjp2rcd13ifvqbh0","pricing_plan_id":"cebpf4jnsgd1na2vs0mg"},{"bike_id":"154555d2-d999-43e9-8051-ed368bf09b55","system_id":"levelo_inurba_marseille","lat":43.30137,"lon":5.37426,"is_reserved":false,"is_disabled":false,"rental_uris":{"android":"levelo://app?vid=154555d2-d999-43e9-8051-ed368bf09b55","ios":"levelo://app?vid=154555d2-d999-43e9-8051-ed368bf09b55"},"vehicle_type_id":"4","last_reported":1730902106,"current_range_meters":34000,"station_id":"ce4bgs92rcd13ifvqcc0","pricing_plan_id":"cebpf4jnsgd1na2vs0mg"},{"bike_id":"2ac59b30-95ad-4d41-84cd-66b709f67fc4","system_id":"levelo_inurba_marseille","lat":43.337444,"lon":5.374475,"is_reserved":false,"is_disabled":false,"rental_uris":{"android":"levelo://app?vid=2ac59b30-95ad-4d41-84cd-66b709f67fc4","ios":"levelo://app?vid=2ac59b30-95ad-4d41-84cd-66b709f67fc4"},"vehicle_type_id":"4","last_reported":1730902106,"current_range_meters":35600,"station_id":"","pricing_plan_id":"cebpf4jnsgd1na2vs0mg"},{"bike_id":"f1782029-15e4-4990-8ef8-55f2d9f1602d","system_id":"levelo_inurba_marseille","lat":43.23147,"lon":5.43729,"is_reserved":false,"is_disabled":false,"rental_uris":{"android":"levelo://app?vid=f1782029-15e4-4990-8ef8-55f2d9f1602d","ios":"levelo://app?vid=f1782029-15e4-4990-8ef8-55f2d9f1602d"},"vehicle_type_id":"4","last_reported":1730902106,"current_range_meters":26800,"station_id":"ce4bhmp2rcd13ifvqgog","pricing_plan_id":"cebpf4jnsgd1na2vs0mg"},{"bike_id":"198e4f0a-aad9-484c-8a93-c134530f4de4","system_id":"levelo_inurba_marseille","lat":43.31328,"lon":5.39693,"is_reserved":false,"is_disabled":false,"rental_uris":{"android":"levelo://app?vid=198e4f0a-aad9-484c-8a93-c134530f4de4","ios":"levelo://app?vid=198e4f0a-aad9-484c-8a93-c134530f4de4"},"vehicle_type_id":"4","last_reported":1730902106,"current_range_meters":8800,"station_id":"ce4bgvp2rcd13ifvqcu0","pricing_plan_id":"cebpf4jnsgd1na2vs0mg"},{"bike_id":"a5040757-7554-43ed-bc92-6cb364ea1d80","system_id":"levelo_inurba_marseille","lat":43.30127,"lon":5.39868,"is_reserved":false,"is_disabled":false,"rental_uris":{"android":"levelo://app?vid=a5040757-7554-43ed-bc92-6cb364ea1d80","ios":"levelo://app?vid=a5040757-7554-43ed-bc92-6cb364ea1d80"},"vehicle_type_id":"4","last_reported":1730902106,"current_range_meters":15200,"station_id":"ce4bh0h2rcd13ifvqd40","pricing_plan_id":"cebpf4jnsgd1na2vs0mg"},{"bike_id":"77f0f942-cc19-4114-9693-f96851c5cf8b","system_id":"levelo_inurba_marseille","lat":43.31071,"lon":5.38351,"is_reserved":false,"is_disabled":false,"rental_uris":{"android":"levelo://app?vid=77f0f942-cc19-4114-9693-f96851c5cf8b","ios":"levelo://app?vid=77f0f942-cc19-4114-9693-f96851c5cf8b"},"vehicle_type_id":"4","last_reported":1730902106,"current_range_meters":9200,"station_id":"ce4bgv92rcd13ifvqcr0","pricing_plan_id":"cebpf4jnsgd1na2vs0mg"},{"bike_id":"69cae95c-cdf3-41e8-9071-5c257b3e83a0","system_id":"levelo_inurba_marseille","lat":43.289682,"lon":5.363918,"is_reserved":false,"is_disabled":false,"rental_uris":{"android":"levelo://app?vid=69cae95c-cdf3-41e8-9071-5c257b3e83a0","ios":"levelo://app?vid=69cae95c-cdf3-41e8-9071-5c257b3e83a0"},"vehicle_type_id":"4","last_reported":1730902106,"current_range_meters":37600,"station_id":"ce4bhc92rcd13ifvqetg","pricing_plan_id":"cebpf4jnsgd1na2vs0mg"},{"bike_id":"56c5b526-506d-4b61-ab4a-cd190944ab2c","system_id":"levelo_inurba_marseille","lat":43.28358,"lon":5.38642,"is_reserved":false,"is_disabled":false,"rental_uris":{"android":"levelo://app?vid=56c5b526-506d-4b61-ab4a-cd190944ab2c","ios":"levelo://app?vid=56c5b526-506d-4b61-ab4a-cd190944ab2c"},"vehicle_type_id":"4","last_reported":1730902106,"current_range_meters":8400,"station_id":"ce4bh492rcd13ifvqdvg","pricing_plan_id":"cebpf4jnsgd1na2vs0mg"},{"bike_id":"5ae67661-d8d4-4654-8cf2-88eb3a5892fe","system_id":"levelo_inurba_marseille","lat":43.27901,"lon":5.38014,"is_reserved":false,"is_disabled":false,"rental_uris":{"android":"levelo://app?vid=5ae67661-d8d4-4654-8cf2-88eb3a5892fe","ios":"levelo://app?vid=5ae67661-d8d4-4654-8cf2-88eb3a5892fe"},"vehicle_type_id":"4","last_reported":1730902106,"current_range_meters":28800,"station_id":"ce4bhf92rcd13ifvqf50","pricing_plan_id":"cebpf4jnsgd1na2vs0mg"},{"bike_id":"f7cb5961-bcab-4aaf-b7f7-9dfef6493fe6","system_id":"levelo_inurba_marseille","lat":43.30133,"lon":5.39876,"is_reserved":false,"is_disabled":false,"rental_uris":{"android":"levelo://app?vid=f7cb5961-bcab-4aaf-b7f7-9dfef6493fe6","ios":"levelo://app?vid=f7cb5961-bcab-4aaf-b7f7-9dfef6493fe6"},"vehicle_type_id":"4","last_reported":1730902106,"current_range_meters":17600,"station_id":"ce4bh0h2rcd13ifvqd40","pricing_plan_id":"cebpf4jnsgd1na2vs0mg"},{"bike_id":"1bc09de0-51b6-4ee1-a11d-6dfb659a62bd","system_id":"levelo_inurba_marseille","lat":43.30877,"lon":5.39651,"is_reserved":false,"is_disabled":false,"rental_uris":{"android":"levelo://app?vid=1bc09de0-51b6-4ee1-a11d-6dfb659a62bd","ios":"levelo://app?vid=1bc09de0-51b6-4ee1-a11d-6dfb659a62bd"},"vehicle_type_id":"4","last_reported":1730902106,"current_range_meters":38800,"station_id":"ce4bh012rcd13ifvqcv0","pricing_plan_id":"cebpf4jnsgd1na2vs0mg"},{"bike_id":"2a9ceb86-08b2-45ce-b34b-fb24912f0df1","system_id":"levelo_inurba_marseille","lat":43.31154,"lon":5.4253,"is_reserved":false,"is_disabled":false,"rental_uris":{"android":"levelo://app?vid=2a9ceb86-08b2-45ce-b34b-fb24912f0df1","ios":"levelo://app?vid=2a9ceb86-08b2-45ce-b34b-fb24912f0df1"},"vehicle_type_id":"4","last_reported":1730902106,"current_range_meters":30800,"station_id":"ce4bhp92rcd13ifvqhag","pricing_plan_id":"cebpf4jnsgd1na2vs0mg"},{"bike_id":"b6c8489d-6b27-447e-ad01-13802d31bc3a","system_id":"levelo_inurba_marseille","lat":43.30212,"lon":5.39481,"is_reserved":false,"is_disabled":false,"rental_uris":{"android":"levelo://app?vid=b6c8489d-6b27-447e-ad01-13802d31bc3a","ios":"levelo://app?vid=b6c8489d-6b27-447e-ad01-13802d31bc3a"},"vehicle_type_id":"4","last_reported":1730902106,"current_range_meters":38800,"station_id":"ce4bh0p2rcd13ifvqd70","pricing_plan_id":"cebpf4jnsgd1na2vs0mg"},{"bike_id":"0072c09f-84dc-4387-89a5-d8c408b867ad","system_id":"levelo_inurba_marseille","lat":43.30128,"lon":5.39877,"is_reserved":false,"is_disabled":false,"rental_uris":{"android":"levelo://app?vid=0072c09f-84dc-4387-89a5-d8c408b867ad","ios":"levelo://app?vid=0072c09f-84dc-4387-89a5-d8c408b867ad"},"vehicle_type_id":"4","last_reported":1730902106,"current_range_meters":38800,"station_id":"ce4bh0h2rcd13ifvqd40","pricing_plan_id":"cebpf4jnsgd1na2vs0mg"},{"bike_id":"66711ca4-b921-4b9b-9313-6fc49002690f","system_id":"levelo_inurba_marseille","lat":43.29416,"lon":5.38614,"is_reserved":false,"is_disabled":false,"rental_uris":{"android":"levelo://app?vid=66711ca4-b921-4b9b-9313-6fc49002690f","ios":"levelo://app?vid=66711ca4-b921-4b9b-9313-6fc49002690f"},"vehicle_type_id":"4","last_reported":1730902106,"current_range_meters":32400,"station_id":"ce4bh2h2rcd13ifvqdh0","pricing_plan_id":"cebpf4jnsgd1na2vs0mg"},{"bike_id":"b1bad0ba-10ef-4925-b797-dc512cea0ed1","system_id":"levelo_inurba_marseille","lat":43.24385,"lon":5.3706,"is_reserved":false,"is_disabled":false,"rental_uris":{"android":"levelo://app?vid=b1bad0ba-10ef-4925-b797-dc512cea0ed1","ios":"levelo://app?vid=b1bad0ba-10ef-4925-b797-dc512cea0ed1"},"vehicle_type_id":"4","last_reported":1730902106,"current_range_meters":4400,"station_id":"ce4bhhh2rcd13ifvqfk0","pricing_plan_id":"cebpf4jnsgd1na2vs0mg"},{"bike_id":"3158667e-e690-48d7-acae-7d318c4fda7b","system_id":"levelo_inurba_marseille","lat":43.24168,"lon":5.36393,"is_reserved":false,"is_disabled":false,"rental_uris":{"android":"levelo://app?vid=3158667e-e690-48d7-acae-7d318c4fda7b","ios":"levelo://app?vid=3158667e-e690-48d7-acae-7d318c4fda7b"},"vehicle_type_id":"4","last_reported":1730902106,"current_range_meters":29600,"station_id":"cpo36qri1sfpv3e86is0","pricing_plan_id":"cebpf4jnsgd1na2vs0mg"},{"bike_id":"88b98dba-2073-4983-9539-ecdaff941dda","system_id":"levelo_inurba_marseille","lat":43.30528,"lon":5.36546,"is_reserved":false,"is_disabled":false,"rental_uris":{"android":"levelo://app?vid=88b98dba-2073-4983-9539-ecdaff941dda","ios":"levelo://app?vid=88b98dba-2073-4983-9539-ecdaff941dda"},"vehicle_type_id":"4","last_reported":1730902106,"current_range_meters":29600,"station_id":"ce4bgs12rcd13ifvqcag","pricing_plan_id":"cebpf4jnsgd1na2vs0mg"},{"bike_id":"eec4a6f2-ab3e-48aa-9e8e-1193f6ac04cb","system_id":"levelo_inurba_marseille","lat":43.27988,"lon":5.41663,"is_reserved":false,"is_disabled":false,"rental_uris":{"android":"levelo://app?vid=eec4a6f2-ab3e-48aa-9e8e-1193f6ac04cb","ios":"levelo://app?vid=eec4a6f2-ab3e-48aa-9e8e-1193f6ac04cb"},"vehicle_type_id":"4","last_reported":1730902106,"current_range_meters":36000,"station_id":"ce4bho12rcd13ifvqh1g","pricing_plan_id":"cebpf4jnsgd1na2vs0mg"},{"bike_id":"35b06bc8-da46-4ba5-8c07-e31dde1f57ed","system_id":"levelo_inurba_marseille","lat":43.3033,"lon":5.40454,"is_reserved":false,"is_disabled":false,"rental_uris":{"android":"levelo://app?vid=35b06bc8-da46-4ba5-8c07-e31dde1f57ed","ios":"levelo://app?vid=35b06bc8-da46-4ba5-8c07-e31dde1f57ed"},"vehicle_type_id":"4","last_reported":1730902106,"current_range_meters":32400,"station_id":"ce4bh012rcd13ifvqd10","pricing_plan_id":"cebpf4jnsgd1na2vs0mg"},{"bike_id":"c7367667-89df-47fe-81c7-f08f2b8feb92","system_id":"levelo_inurba_marseille","lat":43.30415,"lon":5.41283,"is_reserved":false,"is_disabled":false,"rental_uris":{"android":"levelo://app?vid=c7367667-89df-47fe-81c7-f08f2b8feb92","ios":"levelo://app?vid=c7367667-89df-47fe-81c7-f08f2b8feb92"},"vehicle_type_id":"4","last_reported":1730902106,"current_range_meters":38400,"station_id":"ce4bhop2rcd13ifvqh8g","pricing_plan_id":"cebpf4jnsgd1na2vs0mg"},{"bike_id":"28732b85-e2ea-4a0e-9bad-44f81ad20925","system_id":"levelo_inurba_marseille","lat":43.27051,"lon":5.40264,"is_reserved":false,"is_disabled":false,"rental_uris":{"android":"levelo://app?vid=28732b85-e2ea-4a0e-9bad-44f81ad20925","ios":"levelo://app?vid=28732b85-e2ea-4a0e-9bad-44f81ad20925"},"vehicle_type_id":"4","last_reported":1730902106,"current_range_meters":20400,"station_id":"ce4bhk92rcd13ifvqgc0","pricing_plan_id":"cebpf4jnsgd1na2vs0mg"},{"bike_id":"13d6bed8-4343-46cf-8feb-d327220ee05d","system_id":"levelo_inurba_marseille","lat":43.28724,"lon":5.36096,"is_reserved":false,"is_disabled":false,"rental_uris":{"android":"levelo://app?vid=13d6bed8-4343-46cf-8feb-d327220ee05d","ios":"levelo://app?vid=13d6bed8-4343-46cf-8feb-d327220ee05d"},"vehicle_type_id":"4","last_reported":1730902106,"current_range_meters":36800,"station_id":"cki0cbj6b192h4jlfktg","pricing_plan_id":"cebpf4jnsgd1na2vs0mg"},{"bike_id":"ef65c891-f7da-4796-bc0f-1118289dbc8f","system_id":"levelo_inurba_marseille","lat":43.30133,"lon":5.39881,"is_reserved":false,"is_disabled":false,"rental_uris":{"android":"levelo://app?vid=ef65c891-f7da-4796-bc0f-1118289dbc8f","ios":"levelo://app?vid=ef65c891-f7da-4796-bc0f-1118289dbc8f"},"vehicle_type_id":"4","last_reported":1730902106,"current_range_meters":20000,"station_id":"ce4bh0h2rcd13ifvqd40","pricing_plan_id":"cebpf4jnsgd1na2vs0mg"},{"bike_id":"2849af15-4c39-4386-9243-1ddf0865328b","system_id":"levelo_inurba_marseille","lat":43.26935,"lon":5.38914,"is_reserved":false,"is_disabled":false,"rental_uris":{"android":"levelo://app?vid=2849af15-4c39-4386-9243-1ddf0865328b","ios":"levelo://app?vid=2849af15-4c39-4386-9243-1ddf0865328b"},"vehicle_type_id":"4","last_reported":1730902106,"current_range_meters":28000,"station_id":"ce4bhhh2rcd13ifvqfl0","pricing_plan_id":"cebpf4jnsgd1na2vs0mg"},{"bike_id":"2a08f7c9-2c16-4842-a58f-8860af7a4847","system_id":"levelo_inurba_marseille","lat":43.31714,"lon":5.437056,"is_reserved":false,"is_disabled":false,"rental_uris":{"android":"levelo://app?vid=2a08f7c9-2c16-4842-a58f-8860af7a4847","ios":"levelo://app?vid=2a08f7c9-2c16-4842-a58f-8860af7a4847"},"vehicle_type_id":"4","last_reported":1730902106,"current_range_meters":9600,"station_id":"ce4bhp92rcd13ifvqhcg","pricing_plan_id":"cebpf4jnsgd1na2vs0mg"},{"bike_id":"bbdf1426-ef58-4e7c-8890-61373cd2cf49","system_id":"levelo_inurba_marseille","lat":43.27616,"lon":5.36112,"is_reserved":false,"is_disabled":false,"rental_uris":{"android":"levelo://app?vid=bbdf1426-ef58-4e7c-8890-61373cd2cf49","ios":"levelo://app?vid=bbdf1426-ef58-4e7c-8890-61373cd2cf49"},"vehicle_type_id":"4","last_reported":1730902106,"current_range_meters":18800,"station_id":"ce4bgj92rcd13ifvqbe0","pricing_plan_id":"cebpf4jnsgd1na2vs0mg"},{"bike_id":"59e79e81-ac1b-42b7-9d09-f17fda2936b9","system_id":"levelo_inurba_marseille","lat":43.29621,"lon":5.37735,"is_reserved":false,"is_disabled":false,"rental_uris":{"android":"levelo://app?vid=59e79e81-ac1b-42b7-9d09-f17fda2936b9","ios":"levelo://app?vid=59e79e81-ac1b-42b7-9d09-f17fda2936b9"},"vehicle_type_id":"4","last_reported":1730902106,"current_range_meters":16800,"station_id":"ce4bgi92rcd13ifvqb90","pricing_plan_id":"cebpf4jnsgd1na2vs0mg"},{"bike_id":"719bcfe8-ba97-47af-a566-a5f0939a0896","system_id":"levelo_inurba_marseille","lat":43.28029,"lon":5.36955,"is_reserved":false,"is_disabled":false,"rental_uris":{"android":"levelo://app?vid=719bcfe8-ba97-47af-a566-a5f0939a0896","ios":"levelo://app?vid=719bcfe8-ba97-47af-a566-a5f0939a0896"},"vehicle_type_id":"4","last_reported":1730902106,"current_range_meters":13600,"station_id":"ce4bha12rcd13ifvqef0","pricing_plan_id":"cebpf4jnsgd1na2vs0mg"},{"bike_id":"80d277bd-a47a-458f-9a5d-ec5507b037bb","system_id":"levelo_inurba_marseille","lat":43.26785,"lon":5.39418,"is_reserved":false,"is_disabled":false,"rental_uris":{"android":"levelo://app?vid=80d277bd-a47a-458f-9a5d-ec5507b037bb","ios":"levelo://app?vid=80d277bd-a47a-458f-9a5d-ec5507b037bb"},"vehicle_type_id":"4","last_reported":1730902106,"current_range_meters":32000,"station_id":"ce4bhh12rcd13ifvqfg0","pricing_plan_id":"cebpf4jnsgd1na2vs0mg"},{"bike_id":"e58aacf2-a8a5-4ce2-835e-5eb9a75e9200","system_id":"levelo_inurba_marseille","lat":43.30899,"lon":5.36859,"is_reserved":false,"is_disabled":false,"rental_uris":{"android":"levelo://app?vid=e58aacf2-a8a5-4ce2-835e-5eb9a75e9200","ios":"levelo://app?vid=e58aacf2-a8a5-4ce2-835e-5eb9a75e9200"},"vehicle_type_id":"4","last_reported":1730902106,"current_range_meters":38800,"station_id":"ce4bgn92rcd13ifvqbvg","pricing_plan_id":"cebpf4jnsgd1na2vs0mg"},{"bike_id":"4ba708c0-8ced-418c-bdca-7748a87a5ef6","system_id":"levelo_inurba_marseille","lat":43.29046,"lon":5.39954,"is_reserved":false,"is_disabled":false,"rental_uris":{"android":"levelo://app?vid=4ba708c0-8ced-418c-bdca-7748a87a5ef6","ios":"levelo://app?vid=4ba708c0-8ced-418c-bdca-7748a87a5ef6"},"vehicle_type_id":"4","last_reported":1730902106,"current_range_meters":34800,"station_id":"ce4bh392rcd13ifvqdm0","pricing_plan_id":"cebpf4jnsgd1na2vs0mg"},{"bike_id":"bb1b40e5-7cd8-4573-adba-21612a498e79","system_id":"levelo_inurba_marseille","lat":43.30127,"lon":5.37428,"is_reserved":false,"is_disabled":false,"rental_uris":{"android":"levelo://app?vid=bb1b40e5-7cd8-4573-adba-21612a498e79","ios":"levelo://app?vid=bb1b40e5-7cd8-4573-adba-21612a498e79"},"vehicle_type_id":"4","last_reported":1730902106,"current_range_meters":33600,"station_id":"ce4bgs92rcd13ifvqcc0","pricing_plan_id":"cebpf4jnsgd1na2vs0mg"},{"bike_id":"2f076aaa-29b0-4fb9-a4cc-3fad6e37f57d","system_id":"levelo_inurba_marseille","lat":43.3053,"lon":5.36548,"is_reserved":false,"is_disabled":false,"rental_uris":{"android":"levelo://app?vid=2f076aaa-29b0-4fb9-a4cc-3fad6e37f57d","ios":"levelo://app?vid=2f076aaa-29b0-4fb9-a4cc-3fad6e37f57d"},"vehicle_type_id":"4","last_reported":1730902106,"current_range_meters":38400,"station_id":"ce4bgs12rcd13ifvqcag","pricing_plan_id":"cebpf4jnsgd1na2vs0mg"},{"bike_id":"9fae83eb-b88f-49db-8a0a-1bf41cfd562c","system_id":"levelo_inurba_marseille","lat":43.28933,"lon":5.3963,"is_reserved":false,"is_disabled":false,"rental_uris":{"android":"levelo://app?vid=9fae83eb-b88f-49db-8a0a-1bf41cfd562c","ios":"levelo://app?vid=9fae83eb-b88f-49db-8a0a-1bf41cfd562c"},"vehicle_type_id":"4","last_reported":1730902106,"current_range_meters":40000,"station_id":"ce4bh3h2rcd13ifvqdn0","pricing_plan_id":"cebpf4jnsgd1na2vs0mg"},{"bike_id":"ed058e4f-9ac0-418d-bdc9-6394a770ce1f","system_id":"levelo_inurba_marseille","lat":43.29256,"lon":5.40903,"is_reserved":false,"is_disabled":false,"rental_uris":{"android":"levelo://app?vid=ed058e4f-9ac0-418d-bdc9-6394a770ce1f","ios":"levelo://app?vid=ed058e4f-9ac0-418d-bdc9-6394a770ce1f"},"vehicle_type_id":"4","last_reported":1730902106,"current_range_meters":40000,"station_id":"ce4bh192rcd13ifvqdc0","pricing_plan_id":"cebpf4jnsgd1na2vs0mg"},{"bike_id":"af9aa3d5-2e2d-4a21-907a-0dca8824310a","system_id":"levelo_inurba_marseille","lat":43.33604,"lon":5.41035,"is_reserved":false,"is_disabled":false,"rental_uris":{"android":"levelo://app?vid=af9aa3d5-2e2d-4a21-907a-0dca8824310a","ios":"levelo://app?vid=af9aa3d5-2e2d-4a21-907a-0dca8824310a"},"vehicle_type_id":"4","last_reported":1730902106,"current_range_meters":22000,"station_id":"ce4bhqh2rcd13ifvqhmg","pricing_plan_id":"cebpf4jnsgd1na2vs0mg"},{"bike_id":"37c4356f-53a4-4fc1-9027-d635783b81a2","system_id":"levelo_inurba_marseille","lat":43.299,"lon":5.38139,"is_reserved":false,"is_disabled":false,"rental_uris":{"android":"levelo://app?vid=37c4356f-53a4-4fc1-9027-d635783b81a2","ios":"levelo://app?vid=37c4356f-53a4-4fc1-9027-d635783b81a2"},"vehicle_type_id":"4","last_reported":1730902106,"current_range_meters":35600,"station_id":"ce4bgj12rcd13ifvqbc0","pricing_plan_id":"cebpf4jnsgd1na2vs0mg"},{"bike_id":"fd74afea-7eed-437e-9798-dbb158e97572","system_id":"levelo_inurba_marseille","lat":43.30609,"lon":5.37232,"is_reserved":false,"is_disabled":false,"rental_uris":{"android":"levelo://app?vid=fd74afea-7eed-437e-9798-dbb158e97572","ios":"levelo://app?vid=fd74afea-7eed-437e-9798-dbb158e97572"},"vehicle_type_id":"4","last_reported":1730902106,"current_range_meters":36400,"station_id":"ce4bgqh2rcd13ifvqc4g","pricing_plan_id":"cebpf4jnsgd1na2vs0mg"},{"bike_id":"ac3085be-2aba-453a-b37c-d1057ee9d66b","system_id":"levelo_inurba_marseille","lat":43.31268,"lon":5.40157,"is_reserved":false,"is_disabled":false,"rental_uris":{"android":"levelo://app?vid=ac3085be-2aba-453a-b37c-d1057ee9d66b","ios":"levelo://app?vid=ac3085be-2aba-453a-b37c-d1057ee9d66b"},"vehicle_type_id":"4","last_reported":1730902106,"current_range_meters":24400,"station_id":"ce4bh092rcd13ifvqd30","pricing_plan_id":"cebpf4jnsgd1na2vs0mg"},{"bike_id":"fdf616c0-10cd-4944-9570-898b95bf61f2","system_id":"levelo_inurba_marseille","lat":43.32047,"lon":5.41568,"is_reserved":false,"is_disabled":false,"rental_uris":{"android":"levelo://app?vid=fdf616c0-10cd-4944-9570-898b95bf61f2","ios":"levelo://app?vid=fdf616c0-10cd-4944-9570-898b95bf61f2"},"vehicle_type_id":"4","last_reported":1730902106,"current_range_meters":34000,"station_id":"ce4bhq92rcd13ifvqhkg","pricing_plan_id":"cebpf4jnsgd1na2vs0mg"},{"bike_id":"818f01a2-70c1-4282-8f3e-a5df75b74421","system_id":"levelo_inurba_marseille","lat":43.23149,"lon":5.43706,"is_reserved":false,"is_disabled":false,"rental_uris":{"android":"levelo://app?vid=818f01a2-70c1-4282-8f3e-a5df75b74421","ios":"levelo://app?vid=818f01a2-70c1-4282-8f3e-a5df75b74421"},"vehicle_type_id":"4","last_reported":1730902106,"current_range_meters":39200,"station_id":"ce4bhmp2rcd13ifvqgog","pricing_plan_id":"cebpf4jnsgd1na2vs0mg"},{"bike_id":"c61c261f-6e7c-47f2-9517-7b46566fdc27","system_id":"levelo_inurba_marseille","lat":43.24394,"lon":5.37051,"is_reserved":false,"is_disabled":false,"rental_uris":{"android":"levelo://app?vid=c61c261f-6e7c-47f2-9517-7b46566fdc27","ios":"levelo://app?vid=c61c261f-6e7c-47f2-9517-7b46566fdc27"},"vehicle_type_id":"4","last_reported":1730902106,"current_range_meters":30400,"station_id":"ce4bhhh2rcd13ifvqfk0","pricing_plan_id":"cebpf4jnsgd1na2vs0mg"},{"bike_id":"89b72991-99c2-4b3e-a7af-f3a408a8007f","system_id":"levelo_inurba_marseille","lat":43.2315,"lon":5.43705,"is_reserved":false,"is_disabled":false,"rental_uris":{"android":"levelo://app?vid=89b72991-99c2-4b3e-a7af-f3a408a8007f","ios":"levelo://app?vid=89b72991-99c2-4b3e-a7af-f3a408a8007f"},"vehicle_type_id":"4","last_reported":1730902106,"current_range_meters":24800,"station_id":"ce4bhmp2rcd13ifvqgog","pricing_plan_id":"cebpf4jnsgd1na2vs0mg"},{"bike_id":"aff4cc40-c923-4034-be9c-e88ce8ea159c","system_id":"levelo_inurba_marseille","lat":43.30914,"lon":5.36852,"is_reserved":false,"is_disabled":false,"rental_uris":{"android":"levelo://app?vid=aff4cc40-c923-4034-be9c-e88ce8ea159c","ios":"levelo://app?vid=aff4cc40-c923-4034-be9c-e88ce8ea159c"},"vehicle_type_id":"4","last_reported":1730902106,"current_range_meters":38800,"station_id":"ce4bgn92rcd13ifvqbvg","pricing_plan_id":"cebpf4jnsgd1na2vs0mg"},{"bike_id":"72643726-e3ad-499f-b3f0-568659b9b21c","system_id":"levelo_inurba_marseille","lat":43.29788,"lon":5.38127,"is_reserved":false,"is_disabled":false,"rental_uris":{"android":"levelo://app?vid=72643726-e3ad-499f-b3f0-568659b9b21c","ios":"levelo://app?vid=72643726-e3ad-499f-b3f0-568659b9b21c"},"vehicle_type_id":"4","last_reported":1730902106,"current_range_meters":38800,"station_id":"ce4bgip2rcd13ifvqbb0","pricing_plan_id":"cebpf4jnsgd1na2vs0mg"},{"bike_id":"21e8cf42-0b7d-4e13-a0d3-9df96439137c","system_id":"levelo_inurba_marseille","lat":43.3414,"lon":5.40907,"is_reserved":false,"is_disabled":false,"rental_uris":{"android":"levelo://app?vid=21e8cf42-0b7d-4e13-a0d3-9df96439137c","ios":"levelo://app?vid=21e8cf42-0b7d-4e13-a0d3-9df96439137c"},"vehicle_type_id":"4","last_reported":1730902106,"current_range_meters":38800,"station_id":"ce4bhqh2rcd13ifvqhlg","pricing_plan_id":"cebpf4jnsgd1na2vs0mg"},{"bike_id":"fd013d01-6ed9-4b7f-8cd5-9e9adf47f6a7","system_id":"levelo_inurba_marseille","lat":43.23158,"lon":5.43706,"is_reserved":false,"is_disabled":false,"rental_uris":{"android":"levelo://app?vid=fd013d01-6ed9-4b7f-8cd5-9e9adf47f6a7","ios":"levelo://app?vid=fd013d01-6ed9-4b7f-8cd5-9e9adf47f6a7"},"vehicle_type_id":"4","last_reported":1730902106,"current_range_meters":32800,"station_id":"ce4bhmp2rcd13ifvqgog","pricing_plan_id":"cebpf4jnsgd1na2vs0mg"},{"bike_id":"2b2cb5ff-ef71-409d-a80f-c39a4fc7080d","system_id":"levelo_inurba_marseille","lat":43.30465,"lon":5.37911,"is_reserved":false,"is_disabled":false,"rental_uris":{"android":"levelo://app?vid=2b2cb5ff-ef71-409d-a80f-c39a4fc7080d","ios":"levelo://app?vid=2b2cb5ff-ef71-409d-a80f-c39a4fc7080d"},"vehicle_type_id":"4","last_reported":1730902106,"current_range_meters":28800,"station_id":"ce4bgup2rcd13ifvqcn0","pricing_plan_id":"cebpf4jnsgd1na2vs0mg"},{"bike_id":"76a6e6d2-4686-4b04-b754-fb622b90a2bd","system_id":"levelo_inurba_marseille","lat":43.30117,"lon":5.39863,"is_reserved":false,"is_disabled":false,"rental_uris":{"android":"levelo://app?vid=76a6e6d2-4686-4b04-b754-fb622b90a2bd","ios":"levelo://app?vid=76a6e6d2-4686-4b04-b754-fb622b90a2bd"},"vehicle_type_id":"4","last_reported":1730902106,"current_range_meters":2800,"station_id":"ce4bh0h2rcd13ifvqd40","pricing_plan_id":"cebpf4jnsgd1na2vs0mg"},{"bike_id":"eb1158a4-8ad9-47a5-816d-b512bea7352a","system_id":"levelo_inurba_marseille","lat":43.30463,"lon":5.37909,"is_reserved":false,"is_disabled":false,"rental_uris":{"android":"levelo://app?vid=eb1158a4-8ad9-47a5-816d-b512bea7352a","ios":"levelo://app?vid=eb1158a4-8ad9-47a5-816d-b512bea7352a"},"vehicle_type_id":"4","last_reported":1730902106,"current_range_meters":26800,"station_id":"ce4bgup2rcd13ifvqcn0","pricing_plan_id":"cebpf4jnsgd1na2vs0mg"},{"bike_id":"cb88ee8d-5c92-46c2-8b0d-47e01176a68d","system_id":"levelo_inurba_marseille","lat":43.25714,"lon":5.41127,"is_reserved":false,"is_disabled":false,"rental_uris":{"android":"levelo://app?vid=cb88ee8d-5c92-46c2-8b0d-47e01176a68d","ios":"levelo://app?vid=cb88ee8d-5c92-46c2-8b0d-47e01176a68d"},"vehicle_type_id":"4","last_reported":1730902106,"current_range_meters":38800,"station_id":"ce4bhkp2rcd13ifvqgd0","pricing_plan_id":"cebpf4jnsgd1na2vs0mg"},{"bike_id":"0621bc65-e0fa-45fd-a83e-4b6f424b1f9a","system_id":"levelo_inurba_marseille","lat":43.302105,"lon":5.394785,"is_reserved":false,"is_disabled":false,"rental_uris":{"android":"levelo://app?vid=0621bc65-e0fa-45fd-a83e-4b6f424b1f9a","ios":"levelo://app?vid=0621bc65-e0fa-45fd-a83e-4b6f424b1f9a"},"vehicle_type_id":"4","last_reported":1730902106,"current_range_meters":7200,"station_id":"ce4bh0p2rcd13ifvqd70","pricing_plan_id":"cebpf4jnsgd1na2vs0mg"},{"bike_id":"2c0700cf-1f8e-4517-aa06-8630cd1b440f","system_id":"levelo_inurba_marseille","lat":43.3013,"lon":5.37429,"is_reserved":false,"is_disabled":false,"rental_uris":{"android":"levelo://app?vid=2c0700cf-1f8e-4517-aa06-8630cd1b440f","ios":"levelo://app?vid=2c0700cf-1f8e-4517-aa06-8630cd1b440f"},"vehicle_type_id":"4","last_reported":1730902106,"current_range_meters":16000,"station_id":"ce4bgs92rcd13ifvqcc0","pricing_plan_id":"cebpf4jnsgd1na2vs0mg"},{"bike_id":"ce1990ac-3390-413c-9a93-5d1336a43aa1","system_id":"levelo_inurba_marseille","lat":43.27378,"lon":5.36251,"is_reserved":false,"is_disabled":false,"rental_uris":{"android":"levelo://app?vid=ce1990ac-3390-413c-9a93-5d1336a43aa1","ios":"levelo://app?vid=ce1990ac-3390-413c-9a93-5d1336a43aa1"},"vehicle_type_id":"4","last_reported":1730902106,"current_range_meters":36400,"station_id":"ce4bhbh2rcd13ifvqeo0","pricing_plan_id":"cebpf4jnsgd1na2vs0mg"},{"bike_id":"74695514-743b-4a43-8a3c-3ee8c9a28175","system_id":"levelo_inurba_marseille","lat":43.23196,"lon":5.35553,"is_reserved":false,"is_disabled":false,"rental_uris":{"android":"levelo://app?vid=74695514-743b-4a43-8a3c-3ee8c9a28175","ios":"levelo://app?vid=74695514-743b-4a43-8a3c-3ee8c9a28175"},"vehicle_type_id":"4","last_reported":1730902106,"current_range_meters":38800,"station_id":"ce4bhu92rcd13ifvqi70","pricing_plan_id":"cebpf4jnsgd1na2vs0mg"},{"bike_id":"93ae9130-8a73-4d3d-b59d-a07712547fae","system_id":"levelo_inurba_marseille","lat":43.29577,"lon":5.37523,"is_reserved":false,"is_disabled":false,"rental_uris":{"android":"levelo://app?vid=93ae9130-8a73-4d3d-b59d-a07712547fae","ios":"levelo://app?vid=93ae9130-8a73-4d3d-b59d-a07712547fae"},"vehicle_type_id":"4","last_reported":1730902106,"current_range_meters":3200,"station_id":"ce4bgh92rcd13ifvqb50","pricing_plan_id":"cebpf4jnsgd1na2vs0mg"},{"bike_id":"1f127e32-7467-4299-af3a-4750a3aad6d6","system_id":"levelo_inurba_marseille","lat":43.30558,"lon":5.36572,"is_reserved":false,"is_disabled":false,"rental_uris":{"android":"levelo://app?vid=1f127e32-7467-4299-af3a-4750a3aad6d6","ios":"levelo://app?vid=1f127e32-7467-4299-af3a-4750a3aad6d6"},"vehicle_type_id":"4","last_reported":1730902106,"current_range_meters":34000,"station_id":"ce4bgs12rcd13ifvqcag","pricing_plan_id":"cebpf4jnsgd1na2vs0mg"},{"bike_id":"9ff3586d-9cde-4805-acf4-6cda14abeb3d","system_id":"levelo_inurba_marseille","lat":43.269531,"lon":5.386273,"is_reserved":false,"is_disabled":false,"rental_uris":{"android":"levelo://app?vid=9ff3586d-9cde-4805-acf4-6cda14abeb3d","ios":"levelo://app?vid=9ff3586d-9cde-4805-acf4-6cda14abeb3d"},"vehicle_type_id":"4","last_reported":1730902106,"current_range_meters":8000,"station_id":"ce4bhh92rcd13ifvqfh0","pricing_plan_id":"cebpf4jnsgd1na2vs0mg"},{"bike_id":"a571c36f-b14e-48c6-bf85-2d1573976db9","system_id":"levelo_inurba_marseille","lat":43.2582,"lon":5.39435,"is_reserved":false,"is_disabled":false,"rental_uris":{"android":"levelo://app?vid=a571c36f-b14e-48c6-bf85-2d1573976db9","ios":"levelo://app?vid=a571c36f-b14e-48c6-bf85-2d1573976db9"},"vehicle_type_id":"4","last_reported":1730902106,"current_range_meters":28000,"station_id":"ce4bhip2rcd13ifvqft0","pricing_plan_id":"cebpf4jnsgd1na2vs0mg"},{"bike_id":"f9a8c473-50f6-461e-98fa-f58e5ab7fcbc","system_id":"levelo_inurba_marseille","lat":43.31359,"lon":5.36917,"is_reserved":false,"is_disabled":false,"rental_uris":{"android":"levelo://app?vid=f9a8c473-50f6-461e-98fa-f58e5ab7fcbc","ios":"levelo://app?vid=f9a8c473-50f6-461e-98fa-f58e5ab7fcbc"},"vehicle_type_id":"4","last_reported":1730902106,"current_range_meters":37600,"station_id":"","pricing_plan_id":"cebpf4jnsgd1na2vs0mg"},{"bike_id":"f74730d6-e906-4041-ac7c-fa9a5c97183a","system_id":"levelo_inurba_marseille","lat":43.2679,"lon":5.3942,"is_reserved":false,"is_disabled":false,"rental_uris":{"android":"levelo://app?vid=f74730d6-e906-4041-ac7c-fa9a5c97183a","ios":"levelo://app?vid=f74730d6-e906-4041-ac7c-fa9a5c97183a"},"vehicle_type_id":"4","last_reported":1730902106,"current_range_meters":19600,"station_id":"ce4bhh12rcd13ifvqfg0","pricing_plan_id":"cebpf4jnsgd1na2vs0mg"},{"bike_id":"9c07c115-8458-42eb-a90e-dec43e520f3f","system_id":"levelo_inurba_marseille","lat":43.26028,"lon":5.37559,"is_reserved":false,"is_disabled":false,"rental_uris":{"android":"levelo://app?vid=9c07c115-8458-42eb-a90e-dec43e520f3f","ios":"levelo://app?vid=9c07c115-8458-42eb-a90e-dec43e520f3f"},"vehicle_type_id":"4","last_reported":1730902106,"current_range_meters":37600,"station_id":"ce4bhgh2rcd13ifvqfa0","pricing_plan_id":"cebpf4jnsgd1na2vs0mg"},{"bike_id":"063ac76c-7dc9-49c1-80b2-af40a50c2880","system_id":"levelo_inurba_marseille","lat":43.30547,"lon":5.36527,"is_reserved":false,"is_disabled":false,"rental_uris":{"android":"levelo://app?vid=063ac76c-7dc9-49c1-80b2-af40a50c2880","ios":"levelo://app?vid=063ac76c-7dc9-49c1-80b2-af40a50c2880"},"vehicle_type_id":"4","last_reported":1730902106,"current_range_meters":22400,"station_id":"ce4bgs12rcd13ifvqcag","pricing_plan_id":"cebpf4jnsgd1na2vs0mg"},{"bike_id":"c4a58466-c1ee-47b1-9453-f9eafdcaf771","system_id":"levelo_inurba_marseille","lat":43.27614,"lon":5.36114,"is_reserved":false,"is_disabled":false,"rental_uris":{"android":"levelo://app?vid=c4a58466-c1ee-47b1-9453-f9eafdcaf771","ios":"levelo://app?vid=c4a58466-c1ee-47b1-9453-f9eafdcaf771"},"vehicle_type_id":"4","last_reported":1730902106,"current_range_meters":28400,"station_id":"ce4bgj92rcd13ifvqbe0","pricing_plan_id":"cebpf4jnsgd1na2vs0mg"},{"bike_id":"5b2293cf-0d15-4091-ae9a-f19f036d6c1b","system_id":"levelo_inurba_marseille","lat":43.29041,"lon":5.39961,"is_reserved":false,"is_disabled":false,"rental_uris":{"android":"levelo://app?vid=5b2293cf-0d15-4091-ae9a-f19f036d6c1b","ios":"levelo://app?vid=5b2293cf-0d15-4091-ae9a-f19f036d6c1b"},"vehicle_type_id":"4","last_reported":1730902106,"current_range_meters":36000,"station_id":"ce4bh392rcd13ifvqdm0","pricing_plan_id":"cebpf4jnsgd1na2vs0mg"},{"bike_id":"a6472af6-7a48-4ce2-9ffd-b7c1f65c55a7","system_id":"levelo_inurba_marseille","lat":43.26558,"lon":5.37312,"is_reserved":false,"is_disabled":false,"rental_uris":{"android":"levelo://app?vid=a6472af6-7a48-4ce2-9ffd-b7c1f65c55a7","ios":"levelo://app?vid=a6472af6-7a48-4ce2-9ffd-b7c1f65c55a7"},"vehicle_type_id":"4","last_reported":1730902106,"current_range_meters":27600,"station_id":"ce4bhg12rcd13ifvqf70","pricing_plan_id":"cebpf4jnsgd1na2vs0mg"},{"bike_id":"5762ed2d-019a-4513-8343-3f40a713eb9c","system_id":"levelo_inurba_marseille","lat":43.31698,"lon":5.40476,"is_reserved":false,"is_disabled":false,"rental_uris":{"android":"levelo://app?vid=5762ed2d-019a-4513-8343-3f40a713eb9c","ios":"levelo://app?vid=5762ed2d-019a-4513-8343-3f40a713eb9c"},"vehicle_type_id":"4","last_reported":1730902106,"current_range_meters":38800,"station_id":"ce4bh012rcd13ifvqd00","pricing_plan_id":"cebpf4jnsgd1na2vs0mg"},{"bike_id":"66c86b3c-9169-469d-a2db-a1c38c38f50d","system_id":"levelo_inurba_marseille","lat":43.29966,"lon":5.37187,"is_reserved":false,"is_disabled":false,"rental_uris":{"android":"levelo://app?vid=66c86b3c-9169-469d-a2db-a1c38c38f50d","ios":"levelo://app?vid=66c86b3c-9169-469d-a2db-a1c38c38f50d"},"vehicle_type_id":"4","last_reported":1730902106,"current_range_meters":39200,"station_id":"ce4bgr92rcd13ifvqc7g","pricing_plan_id":"cebpf4jnsgd1na2vs0mg"},{"bike_id":"ce2b7b0a-da9e-4ad7-9541-832f2fe5f5ed","system_id":"levelo_inurba_marseille","lat":43.32482,"lon":5.36579,"is_reserved":false,"is_disabled":false,"rental_uris":{"android":"levelo://app?vid=ce2b7b0a-da9e-4ad7-9541-832f2fe5f5ed","ios":"levelo://app?vid=ce2b7b0a-da9e-4ad7-9541-832f2fe5f5ed"},"vehicle_type_id":"4","last_reported":1730902106,"current_range_meters":25600,"station_id":"ce4bhs12rcd13ifvqhvg","pricing_plan_id":"cebpf4jnsgd1na2vs0mg"},{"bike_id":"92b60d0d-13cb-4a96-923a-5752d1b7d29f","system_id":"levelo_inurba_marseille","lat":43.26553,"lon":5.37284,"is_reserved":false,"is_disabled":false,"rental_uris":{"android":"levelo://app?vid=92b60d0d-13cb-4a96-923a-5752d1b7d29f","ios":"levelo://app?vid=92b60d0d-13cb-4a96-923a-5752d1b7d29f"},"vehicle_type_id":"4","last_reported":1730902106,"current_range_meters":8400,"station_id":"ce4bhg12rcd13ifvqf70","pricing_plan_id":"cebpf4jnsgd1na2vs0mg"},{"bike_id":"658fd11c-dc1e-4060-ba3b-55f673c94657","system_id":"levelo_inurba_marseille","lat":43.292832,"lon":5.36843,"is_reserved":false,"is_disabled":false,"rental_uris":{"android":"levelo://app?vid=658fd11c-dc1e-4060-ba3b-55f673c94657","ios":"levelo://app?vid=658fd11c-dc1e-4060-ba3b-55f673c94657"},"vehicle_type_id":"4","last_reported":1730902106,"current_range_meters":20000,"station_id":"ce4bhbp2rcd13ifvqesg","pricing_plan_id":"cebpf4jnsgd1na2vs0mg"},{"bike_id":"2cc98d62-8db6-4424-88b3-c6172c713eb9","system_id":"levelo_inurba_marseille","lat":43.29036,"lon":5.3997,"is_reserved":false,"is_disabled":false,"rental_uris":{"android":"levelo://app?vid=2cc98d62-8db6-4424-88b3-c6172c713eb9","ios":"levelo://app?vid=2cc98d62-8db6-4424-88b3-c6172c713eb9"},"vehicle_type_id":"4","last_reported":1730902106,"current_range_meters":38800,"station_id":"ce4bh392rcd13ifvqdm0","pricing_plan_id":"cebpf4jnsgd1na2vs0mg"},{"bike_id":"c9b128e3-c9a9-4f92-9729-1344ef51148c","system_id":"levelo_inurba_marseille","lat":43.28078,"lon":5.39664,"is_reserved":false,"is_disabled":false,"rental_uris":{"android":"levelo://app?vid=c9b128e3-c9a9-4f92-9729-1344ef51148c","ios":"levelo://app?vid=c9b128e3-c9a9-4f92-9729-1344ef51148c"},"vehicle_type_id":"4","last_reported":1730902106,"current_range_meters":37600,"station_id":"ce4bho12rcd13ifvqh2g","pricing_plan_id":"cebpf4jnsgd1na2vs0mg"},{"bike_id":"f2db6799-5c41-4fb5-bc3e-24e767bf9afd","system_id":"levelo_inurba_marseille","lat":43.26551,"lon":5.37287,"is_reserved":false,"is_disabled":false,"rental_uris":{"android":"levelo://app?vid=f2db6799-5c41-4fb5-bc3e-24e767bf9afd","ios":"levelo://app?vid=f2db6799-5c41-4fb5-bc3e-24e767bf9afd"},"vehicle_type_id":"4","last_reported":1730902106,"current_range_meters":8400,"station_id":"ce4bhg12rcd13ifvqf70","pricing_plan_id":"cebpf4jnsgd1na2vs0mg"},{"bike_id":"058e845b-3f35-400d-90ac-100f90420198","system_id":"levelo_inurba_marseille","lat":43.30141,"lon":5.38086,"is_reserved":false,"is_disabled":false,"rental_uris":{"android":"levelo://app?vid=058e845b-3f35-400d-90ac-100f90420198","ios":"levelo://app?vid=058e845b-3f35-400d-90ac-100f90420198"},"vehicle_type_id":"4","last_reported":1730902106,"current_range_meters":17600,"station_id":"ce4bgjp2rcd13ifvqbh0","pricing_plan_id":"cebpf4jnsgd1na2vs0mg"},{"bike_id":"40ff6146-766a-4986-bada-c3c0f2bb47ce","system_id":"levelo_inurba_marseille","lat":43.25826,"lon":5.39436,"is_reserved":false,"is_disabled":false,"rental_uris":{"android":"levelo://app?vid=40ff6146-766a-4986-bada-c3c0f2bb47ce","ios":"levelo://app?vid=40ff6146-766a-4986-bada-c3c0f2bb47ce"},"vehicle_type_id":"4","last_reported":1730902106,"current_range_meters":31200,"station_id":"ce4bhip2rcd13ifvqft0","pricing_plan_id":"cebpf4jnsgd1na2vs0mg"},{"bike_id":"7dcd8e6e-f1a9-4416-9505-f86d49a701dc","system_id":"levelo_inurba_marseille","lat":43.26912,"lon":5.36775,"is_reserved":false,"is_disabled":false,"rental_uris":{"android":"levelo://app?vid=7dcd8e6e-f1a9-4416-9505-f86d49a701dc","ios":"levelo://app?vid=7dcd8e6e-f1a9-4416-9505-f86d49a701dc"},"vehicle_type_id":"4","last_reported":1730902106,"current_range_meters":20400,"station_id":"ce4bhbh2rcd13ifvqeo0","pricing_plan_id":"cebpf4jnsgd1na2vs0mg"},{"bike_id":"a0ad9079-fe37-4893-b447-7ef4518a09ca","system_id":"levelo_inurba_marseille","lat":43.29852,"lon":5.36282,"is_reserved":false,"is_disabled":false,"rental_uris":{"android":"levelo://app?vid=a0ad9079-fe37-4893-b447-7ef4518a09ca","ios":"levelo://app?vid=a0ad9079-fe37-4893-b447-7ef4518a09ca"},"vehicle_type_id":"4","last_reported":1730902106,"current_range_meters":38000,"station_id":"ce4bgpp2rcd13ifvqc3g","pricing_plan_id":"cebpf4jnsgd1na2vs0mg"},{"bike_id":"1f0c5b52-0098-4313-86a8-5984af0206da","system_id":"levelo_inurba_marseille","lat":43.30142,"lon":5.37422,"is_reserved":false,"is_disabled":false,"rental_uris":{"android":"levelo://app?vid=1f0c5b52-0098-4313-86a8-5984af0206da","ios":"levelo://app?vid=1f0c5b52-0098-4313-86a8-5984af0206da"},"vehicle_type_id":"4","last_reported":1730902106,"current_range_meters":38800,"station_id":"ce4bgs92rcd13ifvqcc0","pricing_plan_id":"cebpf4jnsgd1na2vs0mg"},{"bike_id":"de5f1c4e-fc14-44d2-9495-8cbc1a871d3b","system_id":"levelo_inurba_marseille","lat":43.32534,"lon":5.41437,"is_reserved":false,"is_disabled":false,"rental_uris":{"android":"levelo://app?vid=de5f1c4e-fc14-44d2-9495-8cbc1a871d3b","ios":"levelo://app?vid=de5f1c4e-fc14-44d2-9495-8cbc1a871d3b"},"vehicle_type_id":"4","last_reported":1730902106,"current_range_meters":20000,"station_id":"ce4bhq12rcd13ifvqhhg","pricing_plan_id":"cebpf4jnsgd1na2vs0mg"},{"bike_id":"53c7c542-4309-48eb-bed0-d4095a2a67ec","system_id":"levelo_inurba_marseille","lat":43.27433,"lon":5.38497,"is_reserved":false,"is_disabled":false,"rental_uris":{"android":"levelo://app?vid=53c7c542-4309-48eb-bed0-d4095a2a67ec","ios":"levelo://app?vid=53c7c542-4309-48eb-bed0-d4095a2a67ec"},"vehicle_type_id":"4","last_reported":1730902106,"current_range_meters":32800,"station_id":"","pricing_plan_id":"cebpf4jnsgd1na2vs0mg"},{"bike_id":"516007e4-4aaf-4bdd-ad46-b7227ff0ca4d","system_id":"levelo_inurba_marseille","lat":43.30468,"lon":5.379032,"is_reserved":false,"is_disabled":false,"rental_uris":{"android":"levelo://app?vid=516007e4-4aaf-4bdd-ad46-b7227ff0ca4d","ios":"levelo://app?vid=516007e4-4aaf-4bdd-ad46-b7227ff0ca4d"},"vehicle_type_id":"4","last_reported":1730902106,"current_range_meters":6800,"station_id":"ce4bgup2rcd13ifvqcn0","pricing_plan_id":"cebpf4jnsgd1na2vs0mg"},{"bike_id":"e2d34608-6456-47a2-8884-d461e179d5b1","system_id":"levelo_inurba_marseille","lat":43.3088,"lon":5.39652,"is_reserved":false,"is_disabled":false,"rental_uris":{"android":"levelo://app?vid=e2d34608-6456-47a2-8884-d461e179d5b1","ios":"levelo://app?vid=e2d34608-6456-47a2-8884-d461e179d5b1"},"vehicle_type_id":"4","last_reported":1730902106,"current_range_meters":37600,"station_id":"ce4bh012rcd13ifvqcv0","pricing_plan_id":"cebpf4jnsgd1na2vs0mg"},{"bike_id":"25879f3a-132a-4fa4-a087-6a68ce4418ee","system_id":"levelo_inurba_marseille","lat":43.2957,"lon":5.37512,"is_reserved":false,"is_disabled":false,"rental_uris":{"android":"levelo://app?vid=25879f3a-132a-4fa4-a087-6a68ce4418ee","ios":"levelo://app?vid=25879f3a-132a-4fa4-a087-6a68ce4418ee"},"vehicle_type_id":"4","last_reported":1730902106,"current_range_meters":38800,"station_id":"ce4bgh92rcd13ifvqb50","pricing_plan_id":"cebpf4jnsgd1na2vs0mg"},{"bike_id":"53223ec0-7f8b-4b4b-b840-977e0a938748","system_id":"levelo_inurba_marseille","lat":43.3028,"lon":5.37693,"is_reserved":false,"is_disabled":false,"rental_uris":{"android":"levelo://app?vid=53223ec0-7f8b-4b4b-b840-977e0a938748","ios":"levelo://app?vid=53223ec0-7f8b-4b4b-b840-977e0a938748"},"vehicle_type_id":"4","last_reported":1730902106,"current_range_meters":36000,"station_id":"ce4bguh2rcd13ifvqcj0","pricing_plan_id":"cebpf4jnsgd1na2vs0mg"},{"bike_id":"f55cc1d3-66e2-4092-8a56-209373b1b8a1","system_id":"levelo_inurba_marseille","lat":43.27622,"lon":5.36113,"is_reserved":false,"is_disabled":false,"rental_uris":{"android":"levelo://app?vid=f55cc1d3-66e2-4092-8a56-209373b1b8a1","ios":"levelo://app?vid=f55cc1d3-66e2-4092-8a56-209373b1b8a1"},"vehicle_type_id":"4","last_reported":1730902106,"current_range_meters":23200,"station_id":"ce4bgj92rcd13ifvqbe0","pricing_plan_id":"cebpf4jnsgd1na2vs0mg"},{"bike_id":"a27e7fb2-a76c-4de6-9d53-0d5bb1f0b390","system_id":"levelo_inurba_marseille","lat":43.279433,"lon":5.410403,"is_reserved":false,"is_disabled":false,"rental_uris":{"android":"levelo://app?vid=a27e7fb2-a76c-4de6-9d53-0d5bb1f0b390","ios":"levelo://app?vid=a27e7fb2-a76c-4de6-9d53-0d5bb1f0b390"},"vehicle_type_id":"4","last_reported":1730902106,"current_range_meters":30800,"station_id":"ce4bhnp2rcd13ifvqh0g","pricing_plan_id":"cebpf4jnsgd1na2vs0mg"},