{"last_updated":1748337091,"ttl":60,"version":"2.2","data":{"bikes":[{"bike_id":"c0b9fd4f-e181-46ce-b0bf-f5119973334f","system_id":"levelo_inurba_marseille","lat":43.33771,"lon":5.37424,"is_reserved":false,"is_disabled":true,"rental_uris":{"android":"levelo://app?vid=c0b9fd4f-e181-46ce-b0bf-f5119973334f","ios":"levelo://app?vid=c0b9fd4f-e181-46ce-b0bf-f5119973334f"},"vehicle_type_id":"4","last_reported":1748337092,"current_range_meters":0,"station_id":"","pricing_plan_id":"cebpf4jnsgd1na2vs0mg"},{"bike_id":"3581c28c-41f2-4cb7-b494-0448776c0438","system_id":"levelo_inurba_marseille","lat":43.29648,"lon":5.36057,"is_reserved":false,"is_disabled":true,"rental_uris":{"android":"levelo://app?vid=3581c28c-41f2-4cb7-b494-0448776c0438","ios":"levelo://app?vid=3581c28c-41f2-4cb7-b494-0448776c0438"},"vehicle_type_id":"4","last_reported":1748337092,"current_range_meters":0,"station_id":"","pricing_plan_id":"cebpf4jnsgd1na2vs0mg"},{"bike_id":"7fe337a2-1b46-4c17-bdf9-15e9d383471b","system_id":"levelo_inurba_marseille","lat":43.272649,"lon":5.389939,"is_reserved":false,"is_disabled":true,"rental_uris":{"android":"levelo://app?vid=7fe337a2-1b46-4c17-bdf9-15e9d383471b","ios":"levelo://app?vid=7fe337a2-1b46-4c17-bdf9-15e9d383471b"},"vehicle_type_id":"4","last_reported":1748337092,"current_range_meters":0,"station_id":"","pricing_plan_id":"cebpf4jnsgd1na2vs0mg"},{"bike_id":"9dfea71a-4994-4298-98be-a818ae9ee8f8","system_id":"levelo_inurba_marseille","lat":43.33344,"lon":5.40711,"is_reserved":false,"is_disabled":true,"rental_uris":{"android":"levelo://app?vid=9dfea71a-4994-4298-98be-a818ae9ee8f8","ios":"levelo://app?vid=9dfea71a-4994-4298-98be-a818ae9ee8f8"},"vehicle_type_id":"4","last_reported":1748337092,"current_range_meters":0,"station_id":"","pricing_plan_id":"cebpf4jnsgd1na2vs0mg"},{"bike_id":"3fe3d6c4-138a-47df-b6b4-e6f19e8f7d46","system_id":"levelo_inurba_marseille","lat":43.21411,"lon":5.34114,"is_reserved":false,"is_disabled":true,"rental_uris":{"android":"levelo://app?vid=3fe3d6c4-138a-47df-b6b4-e6f19e8f7d46","ios":"levelo://app?vid=3fe3d6c4-138a-47df-b6b4-e6f19e8f7d46"},"vehicle_type_id":"4","last_reported":1748337092,"current_range_meters":0,"station_id":"","pricing_plan_id":"cebpf4jnsgd1na2vs0mg"},{"bike_id":"fd133867-b5d2-4fd2-aa0a-382781ea3f5a","system_id":"levelo_inurba_marseille","lat":43.2899,"lon":5.43039,"is_reserved":false,"is_disabled":true,"rental_uris":{"android":"levelo://app?vid=fd133867-b5d2-4fd2-aa0a-382781ea3f5a","ios":"levelo://app?vid=fd133867-b5d2-4fd2-aa0a-382781ea3f5a"},"vehicle_type_id":"4","last_reported":1748337092,"current_range_meters":0,"station_id":"","pricing_plan_id":"cebpf4jnsgd1na2vs0mg"},{"bike_id":"3cc6b360-d31b-4265-a77a-c13370fe8da7","system_id":"levelo_inurba_marseille","lat":43.295591,"lon":5.375243,"is_reserved":false,"is_disabled":true,"rental_uris":{"android":"levelo://app?vid=3cc6b360-d31b-4265-a77a-c13370fe8da7","ios":"levelo://app?vid=3cc6b360-d31b-4265-a77a-c13370fe8da7"},"vehicle_type_id":"4","last_reported":1748337092,"current_range_meters":0,"station_id":"","pricing_plan_id":"cebpf4jnsgd1na2vs0mg"},{"bike_id":"72896a3b-b1ed-438a-978e-43f56aeeea39","system_id":"levelo_inurba_marseille","lat":43.23149,"lon":5.43721,"is_reserved":false,"is_disabled":true,"rental_uris":{"android":"levelo://app?vid=72896a3b-b1ed-438a-978e-43f56aeeea39","ios":"levelo://app?vid=72896a3b-b1ed-438a-978e-43f56aeeea39"},"vehicle_type_id":"4","last_reported":1748337092,"current_range_meters":0,"station_id":"","pricing_plan_id":"cebpf4jnsgd1na2vs0mg"},{"bike_id":"d5335d64-e51c-4de5-80e3-8db36761569f","system_id":"levelo_inurba_marseille","lat":43.294463,"lon":5.381226,"is_reserved":false,"is_disabled":true,"rental_uris":{"android":"levelo://app?vid=d5335d64-e51c-4de5-80e3-8db36761569f","ios":"levelo://app?vid=d5335d64-e51c-4de5-80e3-8db36761569f"},"vehicle_type_id":"4","last_reported":1748337092,"current_range_meters":0,"station_id":"","pricing_plan_id":"cebpf4jnsgd1na2vs0mg"},{"bike_id":"15dcdbbd-a41e-43eb-9ed6-26ec15ce7a50","system_id":"levelo_inurba_marseille","lat":43.21411,"lon":5.34113,"is_reserved":false,"is_disabled":true,"rental_uris":{"android":"levelo://app?vid=15dcdbbd-a41e-43eb-9ed6-26ec15ce7a50","ios":"levelo://app?vid=15dcdbbd-a41e-43eb-9ed6-26ec15ce7a50"},"vehicle_type_id":"4","last_reported":1748337092,"current_range_meters":0,"station_id":"","pricing_plan_id":"cebpf4jnsgd1na2vs0mg"},{"bike_id":"f9fb40c0-1fcd-48cb-8e26-3f2dc0fb2451","system_id":"levelo_inurba_marseille","lat":43.33751,"lon":5.37509,"is_reserved":false,"is_disabled":true,"rental_uris":{"android":"levelo://app?vid=f9fb40c0-1fcd-48cb-8e26-3f2dc0fb2451","ios":"levelo://app?vid=f9fb40c0-1fcd-48cb-8e26-3f2dc0fb2451"},"vehicle_type_id":"4","last_reported":1748337092,"current_range_meters":0,"station_id":"","pricing_plan_id":"cebpf4jnsgd1na2vs0mg"},{"bike_id":"e9dd3aa4-b5e7-4480-926d-d7f537719bfa","system_id":"levelo_inurba_marseille","lat":43.230331,"lon":5.401847,"is_reserved":false,"is_disabled":true,"rental_uris":{"android":"levelo://app?vid=e9dd3aa4-b5e7-4480-926d-d7f537719bfa","ios":"levelo://app?vid=e9dd3aa4-b5e7-4480-926d-d7f537719bfa"},"vehicle_type_id":"4","last_reported":1748337092,"current_range_meters":0,"station_id":"","pricing_plan_id":"cebpf4jnsgd1na2vs0mg"},{"bike_id":"dcd075ea-b4af-4d6d-90b2-1236858b7bc1","system_id":"levelo_inurba_marseille","lat":43.27609,"lon":5.35873,"is_reserved":false,"is_disabled":true,"rental_uris":{"android":"levelo://app?vid=dcd075ea-b4af-4d6d-90b2-1236858b7bc1","ios":"levelo://app?vid=dcd075ea-b4af-4d6d-90b2-1236858b7bc1"},"vehicle_type_id":"4","last_reported":1748337092,"current_range_meters":0,"station_id":"","pricing_plan_id":"cebpf4jnsgd1na2vs0mg"},{"bike_id":"c1cdde3a-e3ae-4d8c-becb-dd026f15b64a","system_id":"levelo_inurba_marseille","lat":43.296041,"lon":5.381079,"is_reserved":false,"is_disabled":true,"rental_uris":{"android":"levelo://app?vid=c1cdde3a-e3ae-4d8c-becb-dd026f15b64a","ios":"levelo://app?vid=c1cdde3a-e3ae-4d8c-becb-dd026f15b64a"},"vehicle_type_id":"4","last_reported":1748337092,"current_range_meters":0,"station_id":"ce4bgl12rcd13ifvqbo0","pricing_plan_id":"cebpf4jnsgd1na2vs0mg"},{"bike_id":"1d4a9764-30b0-4737-8401-f141a4e59eef","system_id":"levelo_inurba_marseille","lat":43.29932,"lon":5.36544,"is_reserved":false,"is_disabled":true,"rental_uris":{"android":"levelo://app?vid=1d4a9764-30b0-4737-8401-f141a4e59eef","ios":"levelo://app?vid=1d4a9764-30b0-4737-8401-f141a4e59eef"},"vehicle_type_id":"4","last_reported":1748337092,"current_range_meters":0,"station_id":"ce4bgm92rcd13ifvqbr0","pricing_plan_id":"cebpf4jnsgd1na2vs0mg"},{"bike_id":"94239a87-44eb-4892-909b-b1d3e459b83f","system_id":"levelo_inurba_marseille","lat":43.30144,"lon":5.37417,"is_reserved":false,"is_disabled":true,"rental_uris":{"android":"levelo://app?vid=94239a87-44eb-4892-909b-b1d3e459b83f","ios":"levelo://app?vid=94239a87-44eb-4892-909b-b1d3e459b83f"},"vehicle_type_id":"4","last_reported":1748337092,"current_range_meters":0,"station_id":"ce4bgs92rcd13ifvqcc0","pricing_plan_id":"cebpf4jnsgd1na2vs0mg"},{"bike_id":"3fd5b67b-234f-493c-8598-a82f1989058f","system_id":"levelo_inurba_marseille","lat":43.29031,"lon":5.39973,"is_reserved":false,"is_disabled":true,"rental_uris":{"android":"levelo://app?vid=3fd5b67b-234f-493c-8598-a82f1989058f","ios":"levelo://app?vid=3fd5b67b-234f-493c-8598-a82f1989058f"},"vehicle_type_id":"4","last_reported":1748337092,"current_range_meters":0,"station_id":"ce4bh392rcd13ifvqdm0","pricing_plan_id":"cebpf4jnsgd1na2vs0mg"},{"bike_id":"5a8f4430-b8fd-4f2d-87a4-ec9972631204","system_id":"levelo_inurba_marseille","lat":43.28718,"lon":5.3793,"is_reserved":false,"is_disabled":true,"rental_uris":{"android":"levelo://app?vid=5a8f4430-b8fd-4f2d-87a4-ec9972631204","ios":"levelo://app?vid=5a8f4430-b8fd-4f2d-87a4-ec9972631204"},"vehicle_type_id":"4","last_reported":1748337092,"current_range_meters":0,"station_id":"ce4bh9p2rcd13ifvqec0","pricing_plan_id":"cebpf4jnsgd1na2vs0mg"},{"bike_id":"8729e75b-96b4-4750-87a7-60d25505283b","system_id":"levelo_inurba_marseille","lat":43.28979,"lon":5.37832,"is_reserved":false,"is_disabled":true,"rental_uris":{"android":"levelo://app?vid=8729e75b-96b4-4750-87a7-60d25505283b","ios":"levelo://app?vid=8729e75b-96b4-4750-87a7-60d25505283b"},"vehicle_type_id":"4","last_reported":1748337092,"current_range_meters":0,"station_id":"ce4bh9p2rcd13ifvqed0","pricing_plan_id":"cebpf4jnsgd1na2vs0mg"},{"bike_id":"ded2a3c0-b3f3-4b75-a997-7bf2a7cf8624","system_id":"levelo_inurba_marseille","lat":43.28271,"lon":5.35071,"is_reserved":false,"is_disabled":true,"rental_uris":{"android":"levelo://app?vid=ded2a3c0-b3f3-4b75-a997-7bf2a7cf8624","ios":"levelo://app?vid=ded2a3c0-b3f3-4b75-a997-7bf2a7cf8624"},"vehicle_type_id":"4","last_reported":1748337092,"current_range_meters":0,"station_id":"ce4bhbp2rcd13ifvqerg","pricing_plan_id":"cebpf4jnsgd1na2vs0mg"},{"bike_id":"b5e507af-5dd9-4f7b-824a-160dcd6679e0","system_id":"levelo_inurba_marseille","lat":43.282662,"lon":5.350758,"is_reserved":false,"is_disabled":true,"rental_uris":{"android":"levelo://app?vid=b5e507af-5dd9-4f7b-824a-160dcd6679e0","ios":"levelo://app?vid=b5e507af-5dd9-4f7b-824a-160dcd6679e0"},"vehicle_type_id":"4","last_reported":1748337092,"current_range_meters":0,"station_id":"ce4bhbp2rcd13ifvqerg","pricing_plan_id":"cebpf4jnsgd1na2vs0mg"},{"bike_id":"94cb938d-bc36-42ad-af73-a2aa616d60b8","system_id":"levelo_inurba_marseille","lat":48.855438,"lon":2.428272,"is_reserved":false,"is_disabled":true,"rental_uris":{"android":"levelo://app?vid=94cb938d-bc36-42ad-af73-a2aa616d60b8","ios":"levelo://app?vid=94cb938d-bc36-42ad-af73-a2aa616d60b8"},"vehicle_type_id":"4","last_reported":1748337092,"current_range_meters":0,"station_id":"ce4bhgh2rcd13ifvqfb0","pricing_plan_id":"cebpf4jnsgd1na2vs0mg"},{"bike_id":"a295551a-4c6e-4173-92fc-6435b30af36a","system_id":"levelo_inurba_marseille","lat":43.27563,"lon":5.384226,"is_reserved":false,"is_disabled":true,"rental_uris":{"android":"levelo://app?vid=a295551a-4c6e-4173-92fc-6435b30af36a","ios":"levelo://app?vid=a295551a-4c6e-4173-92fc-6435b30af36a"},"vehicle_type_id":"4","last_reported":1748337092,"current_range_meters":0,"station_id":"ce4bhh92rcd13ifvqfi0","pricing_plan_id":"cebpf4jnsgd1na2vs0mg"},{"bike_id":"2732b454-d02c-44c9-b7e7-138889c0e317","system_id":"levelo_inurba_marseille","lat":43.23145,"lon":5.43714,"is_reserved":false,"is_disabled":true,"rental_uris":{"android":"levelo://app?vid=2732b454-d02c-44c9-b7e7-138889c0e317","ios":"levelo://app?vid=2732b454-d02c-44c9-b7e7-138889c0e317"},"vehicle_type_id":"4","last_reported":1748337092,"current_range_meters":0,"station_id":"ce4bhmp2rcd13ifvqgog","pricing_plan_id":"cebpf4jnsgd1na2vs0mg"},{"bike_id":"b22e3fd3-705a-4a18-aa84-33d3e598db75","system_id":"levelo_inurba_marseille","lat":43.28006,"lon":5.41677,"is_reserved":false,"is_disabled":true,"rental_uris":{"android":"levelo://app?vid=b22e3fd3-705a-4a18-aa84-33d3e598db75","ios":"levelo://app?vid=b22e3fd3-705a-4a18-aa84-33d3e598db75"},"vehicle_type_id":"4","last_reported":1748337092,"current_range_meters":0,"station_id":"ce4bho12rcd13ifvqh1g","pricing_plan_id":"cebpf4jnsgd1na2vs0mg"},{"bike_id":"f064eb62-6c51-4a0e-a110-1b5af6282596","system_id":"levelo_inurba_marseille","lat":43.26482,"lon":5.395588,"is_reserved":false,"is_disabled":true,"rental_uris":{"android":"levelo://app?vid=f064eb62-6c51-4a0e-a110-1b5af6282596","ios":"levelo://app?vid=f064eb62-6c51-4a0e-a110-1b5af6282596"},"vehicle_type_id":"4","last_reported":1748337092,"current_range_meters":400,"station_id":"ce4bhi12rcd13ifvqfq0","pricing_plan_id":"cebpf4jnsgd1na2vs0mg"},{"bike_id":"fdda0b7e-2b07-4773-80f2-b8538aac2ac4","system_id":"levelo_inurba_marseille","lat":43.23152,"lon":5.43704,"is_reserved":false,"is_disabled":true,"rental_uris":{"android":"levelo://app?vid=fdda0b7e-2b07-4773-80f2-b8538aac2ac4","ios":"levelo://app?vid=fdda0b7e-2b07-4773-80f2-b8538aac2ac4"},"vehicle_type_id":"4","last_reported":1748337092,"current_range_meters":400,"station_id":"ce4bhmp2rcd13ifvqgog","pricing_plan_id":"cebpf4jnsgd1na2vs0mg"},{"bike_id":"d9fa0449-e47c-4bbe-a91c-4939cab5d888","system_id":"levelo_inurba_marseille","lat":43.28497,"lon":5.42645,"is_reserved":false,"is_disabled":true,"rental_uris":{"android":"levelo://app?vid=d9fa0449-e47c-4bbe-a91c-4939cab5d888","ios":"levelo://app?vid=d9fa0449-e47c-4bbe-a91c-4939cab5d888"},"vehicle_type_id":"4","last_reported":1748337092,"current_range_meters":800,"station_id":"","pricing_plan_id":"cebpf4jnsgd1na2vs0mg"},{"bike_id":"4c9ef955-7ed2-44b5-8a3c-14322e19d5a4","system_id":"levelo_inurba_marseille","lat":43.30147,"lon":5.37426,"is_reserved":false,"is_disabled":true,"rental_uris":{"android":"levelo://app?vid=4c9ef955-7ed2-44b5-8a3c-14322e19d5a4","ios":"levelo://app?vid=4c9ef955-7ed2-44b5-8a3c-14322e19d5a4"},"vehicle_type_id":"4","last_reported":1748337092,"current_range_meters":800,"station_id":"ce4bgs92rcd13ifvqcc0","pricing_plan_id":"cebpf4jnsgd1na2vs0mg"},{"bike_id":"3afa28b6-968d-4a49-9213-22700141a8f6","system_id":"levelo_inurba_marseille","lat":43.31167,"lon":5.38707,"is_reserved":false,"is_disabled":false,"rental_uris":{"android":"levelo://app?vid=3afa28b6-968d-4a49-9213-22700141a8f6","ios":"levelo://app?vid=3afa28b6-968d-4a49-9213-22700141a8f6"},"vehicle_type_id":"4","last_reported":1748337092,"current_range_meters":800,"station_id":"ce4bgv12rcd13ifvqcp0","pricing_plan_id":"cebpf4jnsgd1na2vs0mg"},{"bike_id":"da453a88-f81b-4e0f-9781-5a7f6c1d364c","system_id":"levelo_inurba_marseille","lat":43.337499,"lon":5.374469,"is_reserved":false,"is_disabled":true,"rental_uris":{"android":"levelo://app?vid=da453a88-f81b-4e0f-9781-5a7f6c1d364c","ios":"levelo://app?vid=da453a88-f81b-4e0f-9781-5a7f6c1d364c"},"vehicle_type_id":"4","last_reported":1748337092,"current_range_meters":1200,"station_id":"","pricing_plan_id":"cebpf4jnsgd1na2vs0mg"},{"bike_id":"539acd6b-3c3a-4b98-96e1-e53b9375ec15","system_id":"levelo_inurba_marseille","lat":43.27059,"lon":5.40254,"is_reserved":false,"is_disabled":true,"rental_uris":{"android":"levelo://app?vid=539acd6b-3c3a-4b98-96e1-e53b9375ec15","ios":"levelo://app?vid=539acd6b-3c3a-4b98-96e1-e53b9375ec15"},"vehicle_type_id":"4","last_reported":1748337092,"current_range_meters":1200,"station_id":"ce4bhk92rcd13ifvqgc0","pricing_plan_id":"cebpf4jnsgd1na2vs0mg"},{"bike_id":"99633436-aaa5-4db0-b6f1-82e378e4e690","system_id":"levelo_inurba_marseille","lat":43.28714,"lon":5.37927,"is_reserved":false,"is_disabled":true,"rental_uris":{"android":"levelo://app?vid=99633436-aaa5-4db0-b6f1-82e378e4e690","ios":"levelo://app?vid=99633436-aaa5-4db0-b6f1-82e378e4e690"},"vehicle_type_id":"4","last_reported":1748337092,"current_range_meters":1600,"station_id":"ce4bh9p2rcd13ifvqec0","pricing_plan_id":"cebpf4jnsgd1na2vs0mg"},{"bike_id":"4d0a9206-1caa-456e-8c6c-f37124a22523","system_id":"levelo_inurba_marseille","lat":43.27082,"lon":5.42272,"is_reserved":false,"is_disabled":true,"rental_uris":{"android":"levelo://app?vid=4d0a9206-1caa-456e-8c6c-f37124a22523","ios":"levelo://app?vid=4d0a9206-1caa-456e-8c6c-f37124a22523"},"vehicle_type_id":"4","last_reported":1748337092,"current_range_meters":1600,"station_id":"ce4bhk92rcd13ifvqgb0","pricing_plan_id":"cebpf4jnsgd1na2vs0mg"},{"bike_id":"db5710f7-d2cb-4b65-a8a7-9b3f6a0c4983","system_id":"levelo_inurba_marseille","lat":43.30212,"lon":5.39458,"is_reserved":false,"is_disabled":true,"rental_uris":{"android":"levelo://app?vid=db5710f7-d2cb-4b65-a8a7-9b3f6a0c4983","ios":"levelo://app?vid=db5710f7-d2cb-4b65-a8a7-9b3f6a0c4983"},"vehicle_type_id":"4","last_reported":1748337092,"current_range_meters":2000,"station_id":"ce4bh0p2rcd13ifvqd70","pricing_plan_id":"cebpf4jnsgd1na2vs0mg"},{"bike_id":"237f07b5-3a28-4bd4-9777-ed7d877516a1","system_id":"levelo_inurba_marseille","lat":43.28401,"lon":5.37519,"is_reserved":false,"is_disabled":true,"rental_uris":{"android":"levelo://app?vid=237f07b5-3a28-4bd4-9777-ed7d877516a1","ios":"levelo://app?vid=237f07b5-3a28-4bd4-9777-ed7d877516a1"},"vehicle_type_id":"4","last_reported":1748337092,"current_range_meters":2000,"station_id":"ce4bh412rcd13ifvqds0","pricing_plan_id":"cebpf4jnsgd1na2vs0mg"},{"bike_id":"c7d8ed78-4eee-45cf-ad34-164e3d3224dd","system_id":"levelo_inurba_marseille","lat":43.2811,"lon":5.37842,"is_reserved":false,"is_disabled":true,"rental_uris":{"android":"levelo://app?vid=c7d8ed78-4eee-45cf-ad34-164e3d3224dd","ios":"levelo://app?vid=c7d8ed78-4eee-45cf-ad34-164e3d3224dd"},"vehicle_type_id":"4","last_reported":1748337092,"current_range_meters":2000,"station_id":"ce4bha12rcd13ifvqee0","pricing_plan_id":"cebpf4jnsgd1na2vs0mg"},{"bike_id":"b7ab4751-3dbf-4148-86b3-37e175a4d63e","system_id":"levelo_inurba_marseille","lat":43.24647,"lon":5.39317,"is_reserved":false,"is_disabled":false,"rental_uris":{"android":"levelo://app?vid=b7ab4751-3dbf-4148-86b3-37e175a4d63e","ios":"levelo://app?vid=b7ab4751-3dbf-4148-86b3-37e175a4d63e"},"vehicle_type_id":"4","last_reported":1748337092,"current_range_meters":3200,"station_id":"","pricing_plan_id":"cebpf4jnsgd1na2vs0mg"},{"bike_id":"f6a03fd3-4718-47dc-818f-aa1ad164b0e8","system_id":"levelo_inurba_marseille","lat":43.29717,"lon":5.377,"is_reserved":false,"is_disabled":false,"rental_uris":{"android":"levelo://app?vid=f6a03fd3-4718-47dc-818f-aa1ad164b0e8","ios":"levelo://app?vid=f6a03fd3-4718-47dc-818f-aa1ad164b0e8"},"vehicle_type_id":"4","last_reported":1748337092,"current_range_meters":3200,"station_id":"ce4bgkh2rcd13ifvqbl0","pricing_plan_id":"cebpf4jnsgd1na2vs0mg"},{"bike_id":"46ec4e1e-bc74-455b-8020-16258edd33a0","system_id":"levelo_inurba_marseille","lat":43.25587,"lon":5.38233,"is_reserved":false,"is_disabled":false,"rental_uris":{"android":"levelo://app?vid=46ec4e1e-bc74-455b-8020-16258edd33a0","ios":"levelo://app?vid=46ec4e1e-bc74-455b-8020-16258edd33a0"},"vehicle_type_id":"4","last_reported":1748337092,"current_range_meters":3200,"station_id":"ce4bhih2rcd13ifvqfs0","pricing_plan_id":"cebpf4jnsgd1na2vs0mg"},{"bike_id":"aaa4ace5-cac5-4052-92ee-4343ebf7e8fe","system_id":"levelo_inurba_marseille","lat":43.30441,"lon":5.39748,"is_reserved":false,"is_disabled":false,"rental_uris":{"android":"levelo://app?vid=aaa4ace5-cac5-4052-92ee-4343ebf7e8fe","ios":"levelo://app?vid=aaa4ace5-cac5-4052-92ee-4343ebf7e8fe"},"vehicle_type_id":"4","last_reported":1748337092,"current_range_meters":3600,"station_id":"ce4bh092rcd13ifvqd20","pricing_plan_id":"cebpf4jnsgd1na2vs0mg"},{"bike_id":"ab485184-dee6-4278-8ed8-78cb97c31dd5","system_id":"levelo_inurba_marseille","lat":43.2921,"lon":5.35824,"is_reserved":false,"is_disabled":false,"rental_uris":{"android":"levelo://app?vid=ab485184-dee6-4278-8ed8-78cb97c31dd5","ios":"levelo://app?vid=ab485184-dee6-4278-8ed8-78cb97c31dd5"},"vehicle_type_id":"4","last_reported":1748337092,"current_range_meters":4000,"station_id":"","pricing_plan_id":"cebpf4jnsgd1na2vs0mg"},{"bike_id":"7e73a566-8464-4ea8-a816-460c9fb51ba5","system_id":"levelo_inurba_marseille","lat":43.26677,"lon":5.38259,"is_reserved":false,"is_disabled":false,"rental_uris":{"android":"levelo://app?vid=7e73a566-8464-4ea8-a816-460c9fb51ba5","ios":"levelo://app?vid=7e73a566-8464-4ea8-a816-460c9fb51ba5"},"vehicle_type_id":"4","last_reported":1748337092,"current_range_meters":4000,"station_id":"ce4bhg92rcd13ifvqf90","pricing_plan_id":"cebpf4jnsgd1na2vs0mg"},{"bike_id":"6900b167-66e1-474c-8bf8-235a548eef6e","system_id":"levelo_inurba_marseille","lat":43.25721,"lon":5.41102,"is_reserved":false,"is_disabled":false,"rental_uris":{"android":"levelo://app?vid=6900b167-66e1-474c-8bf8-235a548eef6e","ios":"levelo://app?vid=6900b167-66e1-474c-8bf8-235a548eef6e"},"vehicle_type_id":"4","last_reported":1748337092,"current_range_meters":4400,"station_id":"ce4bhkp2rcd13ifvqgd0","pricing_plan_id":"cebpf4jnsgd1na2vs0mg"},{"bike_id":"e9496718-b841-4999-823d-28c5bee5d6f1","system_id":"levelo_inurba_marseille","lat":43.26541,"lon":5.38993,"is_reserved":false,"is_disabled":false,"rental_uris":{"android":"levelo://app?vid=e9496718-b841-4999-823d-28c5bee5d6f1","ios":"levelo://app?vid=e9496718-b841-4999-823d-28c5bee5d6f1"},"vehicle_type_id":"4","last_reported":1748337092,"current_range_meters":4800,"station_id":"ce4bhe12rcd13ifvqf30","pricing_plan_id":"cebpf4jnsgd1na2vs0mg"},{"bike_id":"9589e48b-d254-48c7-a520-59d155d46467","system_id":"levelo_inurba_marseille","lat":43.23152,"lon":5.43708,"is_reserved":false,"is_disabled":false,"rental_uris":{"android":"levelo://app?vid=9589e48b-d254-48c7-a520-59d155d46467","ios":"levelo://app?vid=9589e48b-d254-48c7-a520-59d155d46467"},"vehicle_type_id":"4","last_reported":1748337092,"current_range_meters":4800,"station_id":"ce4bhmp2rcd13ifvqgog","pricing_plan_id":"cebpf4jnsgd1na2vs0mg"},{"bike_id":"af02aa73-68b2-498b-ad6a-9a50456db18d","system_id":"levelo_inurba_marseille","lat":43.29888,"lon":5.37662,"is_reserved":false,"is_disabled":false,"rental_uris":{"android":"levelo://app?vid=af02aa73-68b2-498b-ad6a-9a50456db18d","ios":"levelo://app?vid=af02aa73-68b2-498b-ad6a-9a50456db18d"},"vehicle_type_id":"4","last_reported":1748337092,"current_range_meters":5600,"station_id":"","pricing_plan_id":"cebpf4jnsgd1na2vs0mg"},{"bike_id":"253942ac-fbad-4881-bf8b-9fcd6c32a576","system_id":"levelo_inurba_marseille","lat":43.30205,"lon":5.39475,"is_reserved":false,"is_disabled":false,"rental_uris":{"android":"levelo://app?vid=253942ac-fbad-4881-bf8b-9fcd6c32a576","ios":"levelo://app?vid=253942ac-fbad-4881-bf8b-9fcd6c32a576"},"vehicle_type_id":"4","last_reported":1748337092,"current_range_meters":5600,"station_id":"ce4bh0p2rcd13ifvqd70","pricing_plan_id":"cebpf4jnsgd1na2vs0mg"},{"bike_id":"eb0ad926-5172-4b67-9b72-fbfbd3375fac","system_id":"levelo_inurba_marseille","lat":43.26956,"lon":5.38636,"is_reserved":false,"is_disabled":false,"rental_uris":{"android":"levelo://app?vid=eb0ad926-5172-4b67-9b72-fbfbd3375fac","ios":"levelo://app?vid=eb0ad926-5172-4b67-9b72-fbfbd3375fac"},"vehicle_type_id":"4","last_reported":1748337092,"current_range_meters":5600,"station_id":"ce4bhh92rcd13ifvqfh0","pricing_plan_id":"cebpf4jnsgd1na2vs0mg"},{"bike_id":"c27b8244-4bf7-40d0-9439-e8421c2e6189","system_id":"levelo_inurba_marseille","lat":43.2571,"lon":5.41099,"is_reserved":false,"is_disabled":false,"rental_uris":{"android":"levelo://app?vid=c27b8244-4bf7-40d0-9439-e8421c2e6189","ios":"levelo://app?vid=c27b8244-4bf7-40d0-9439-e8421c2e6189"},"vehicle_type_id":"4","last_reported":1748337092,"current_range_meters":5600,"station_id":"ce4bhkp2rcd13ifvqgd0","pricing_plan_id":"cebpf4jnsgd1na2vs0mg"},{"bike_id":"a4aef2b9-b7e8-4e2d-8340-592d28bc6c85","system_id":"levelo_inurba_marseille","lat":43.337654,"lon":5.37434,"is_reserved":false,"is_disabled":false,"rental_uris":{"android":"levelo://app?vid=a4aef2b9-b7e8-4e2d-8340-592d28bc6c85","ios":"levelo://app?vid=a4aef2b9-b7e8-4e2d-8340-592d28bc6c85"},"vehicle_type_id":"4","last_reported":1748337092,"current_range_meters":6000,"station_id":"","pricing_plan_id":"cebpf4jnsgd1na2vs0mg"},{"bike_id":"efd698cb-2450-498f-9f0b-bfc662548e61","system_id":"levelo_inurba_marseille","lat":43.26567,"lon":5.40324,"is_reserved":false,"is_disabled":false,"rental_uris":{"android":"levelo://app?vid=efd698cb-2450-498f-9f0b-bfc662548e61","ios":"levelo://app?vid=efd698cb-2450-498f-9f0b-bfc662548e61"},"vehicle_type_id":"4","last_reported":1748337092,"current_range_meters":6000,"station_id":"","pricing_plan_id":"cebpf4jnsgd1na2vs0mg"},{"bike_id":"f91c6bd9-e710-4c5f-85f4-f9b79a1e1457","system_id":"levelo_inurba_marseille","lat":43.27323,"lon":5.39075,"is_reserved":false,"is_disabled":false,"rental_uris":{"android":"levelo://app?vid=f91c6bd9-e710-4c5f-85f4-f9b79a1e1457","ios":"levelo://app?vid=f91c6bd9-e710-4c5f-85f4-f9b79a1e1457"},"vehicle_type_id":"4","last_reported":1748337092,"current_range_meters":6400,"station_id":"ce4bhgp2rcd13ifvqfe0","pricing_plan_id":"cebpf4jnsgd1na2vs0mg"},{"bike_id":"914b0cdd-674e-4033-aea7-b6f07b686478","system_id":"levelo_inurba_marseille","lat":43.272031,"lon":5.391977,"is_reserved":false,"is_disabled":false,"rental_uris":{"android":"levelo://app?vid=914b0cdd-674e-4033-aea7-b6f07b686478","ios":"levelo://app?vid=914b0cdd-674e-4033-aea7-b6f07b686478"},"vehicle_type_id":"4","last_reported":1748337092,"current_range_meters":6400,"station_id":"ce4bhi12rcd13ifvqfo0","pricing_plan_id":"cebpf4jnsgd1na2vs0mg"},{"bike_id":"ed9f862b-b077-46c5-b196-9b4679e1c225","system_id":"levelo_inurba_marseille","lat":43.26217,"lon":5.40444,"is_reserved":false,"is_disabled":false,"rental_uris":{"android":"levelo://app?vid=ed9f862b-b077-46c5-b196-9b4679e1c225","ios":"levelo://app?vid=ed9f862b-b077-46c5-b196-9b4679e1c225"},"vehicle_type_id":"4","last_reported":1748337092,"current_range_meters":6400,"station_id":"ce4bhmh2rcd13ifvqgmg","pricing_plan_id":"cebpf4jnsgd1na2vs0mg"},{"bike_id":"e94f5885-66fa-4222-84cb-33e6ca8e260b","system_id":"levelo_inurba_marseille","lat":43.23148,"lon":5.43717,"is_reserved":false,"is_disabled":false,"rental_uris":{"android":"levelo://app?vid=e94f5885-66fa-4222-84cb-33e6ca8e260b","ios":"levelo://app?vid=e94f5885-66fa-4222-84cb-33e6ca8e260b"},"vehicle_type_id":"4","last_reported":1748337092,"current_range_meters":6400,"station_id":"ce4bhmp2rcd13ifvqgog","pricing_plan_id":"cebpf4jnsgd1na2vs0mg"},{"bike_id":"b744080c-dd77-486d-9609-00c9cf60c1ad","system_id":"levelo_inurba_marseille","lat":43.23647,"lon":5.39204,"is_reserved":false,"is_disabled":false,"rental_uris":{"android":"levelo://app?vid=b744080c-dd77-486d-9609-00c9cf60c1ad","ios":"levelo://app?vid=b744080c-dd77-486d-9609-00c9cf60c1ad"},"vehicle_type_id":"4","last_reported":1748337092,"current_range_meters":6800,"station_id":"","pricing_plan_id":"cebpf4jnsgd1na2vs0mg"},{"bike_id":"b4389aeb-de0c-4160-b173-a16bf710958d","system_id":"levelo_inurba_marseille","lat":43.3169,"lon":5.4048,"is_reserved":false,"is_disabled":false,"rental_uris":{"android":"levelo://app?vid=b4389aeb-de0c-4160-b173-a16bf710958d","ios":"levelo://app?vid=b4389aeb-de0c-4160-b173-a16bf710958d"},"vehicle_type_id":"4","last_reported":1748337092,"current_range_meters":6800,"station_id":"ce4bh012rcd13ifvqd00","pricing_plan_id":"cebpf4jnsgd1na2vs0mg"},{"bike_id":"71a77ed2-e716-47f6-948d-dc03f7d279ac","system_id":"levelo_inurba_marseille","lat":43.304965,"lon":5.393213,"is_reserved":false,"is_disabled":false,"rental_uris":{"android":"levelo://app?vid=71a77ed2-e716-47f6-948d-dc03f7d279ac","ios":"levelo://app?vid=71a77ed2-e716-47f6-948d-dc03f7d279ac"},"vehicle_type_id":"4","last_reported":1748337092,"current_range_meters":6800,"station_id":"ce4bh0p2rcd13ifvqd80","pricing_plan_id":"cebpf4jnsgd1na2vs0mg"},{"bike_id":"ba7ee7c1-c730-454e-a5dd-7035fe2458a3","system_id":"levelo_inurba_marseille","lat":43.29169,"lon":5.37161,"is_reserved":false,"is_disabled":false,"rental_uris":{"android":"levelo://app?vid=ba7ee7c1-c730-454e-a5dd-7035fe2458a3","ios":"levelo://app?vid=ba7ee7c1-c730-454e-a5dd-7035fe2458a3"},"vehicle_type_id":"4","last_reported":1748337092,"current_range_meters":6800,"station_id":"ce4bha92rcd13ifvqeh0","pricing_plan_id":"cebpf4jnsgd1na2vs0mg"},{"bike_id":"15d9a1a9-3602-4455-8ed7-aab588bb0af0","system_id":"levelo_inurba_marseille","lat":43.2397,"lon":5.36621,"is_reserved":false,"is_disabled":false,"rental_uris":{"android":"levelo://app?vid=15d9a1a9-3602-4455-8ed7-aab588bb0af0","ios":"levelo://app?vid=15d9a1a9-3602-4455-8ed7-aab588bb0af0"},"vehicle_type_id":"4","last_reported":1748337092,"current_range_meters":6800,"station_id":"ce4bhi12rcd13ifvqfp0","pricing_plan_id":"cebpf4jnsgd1na2vs0mg"},{"bike_id":"366cccb2-0019-4f2f-9f9d-959e84b31d90","system_id":"levelo_inurba_marseille","lat":43.25932,"lon":5.40908,"is_reserved":false,"is_disabled":false,"rental_uris":{"android":"levelo://app?vid=366cccb2-0019-4f2f-9f9d-959e84b31d90","ios":"levelo://app?vid=366cccb2-0019-4f2f-9f9d-959e84b31d90"},"vehicle_type_id":"4","last_reported":1748337092,"current_range_meters":6800,"station_id":"ce4bhm92rcd13ifvqglg","pricing_plan_id":"cebpf4jnsgd1na2vs0mg"},{"bike_id":"a3fdfab4-cb8b-4639-a8f9-ac99f398c758","system_id":"levelo_inurba_marseille","lat":43.24172,"lon":5.36406,"is_reserved":false,"is_disabled":false,"rental_uris":{"android":"levelo://app?vid=a3fdfab4-cb8b-4639-a8f9-ac99f398c758","ios":"levelo://app?vid=a3fdfab4-cb8b-4639-a8f9-ac99f398c758"},"vehicle_type_id":"4","last_reported":1748337092,"current_range_meters":6800,"station_id":"cpo36qri1sfpv3e86is0","pricing_plan_id":"cebpf4jnsgd1na2vs0mg"},{"bike_id":"f9a1ccb4-eefa-4aee-bcfd-72472de0c30f","system_id":"levelo_inurba_marseille","lat":43.29261,"lon":5.3766,"is_reserved":false,"is_disabled":false,"rental_uris":{"android":"levelo://app?vid=f9a1ccb4-eefa-4aee-bcfd-72472de0c30f","ios":"levelo://app?vid=f9a1ccb4-eefa-4aee-bcfd-72472de0c30f"},"vehicle_type_id":"4","last_reported":1748337092,"current_range_meters":7200,"station_id":"ce4bgi12rcd13ifvqb80","pricing_plan_id":"cebpf4jnsgd1na2vs0mg"},{"bike_id":"42947c9b-1732-44f7-af5b-ab889be1b391","system_id":"levelo_inurba_marseille","lat":43.290393,"lon":5.375639,"is_reserved":false,"is_disabled":false,"rental_uris":{"android":"levelo://app?vid=42947c9b-1732-44f7-af5b-ab889be1b391","ios":"levelo://app?vid=42947c9b-1732-44f7-af5b-ab889be1b391"},"vehicle_type_id":"4","last_reported":1748337092,"current_range_meters":7200,"station_id":"ce4bh692rcd13ifvqe90","pricing_plan_id":"cebpf4jnsgd1na2vs0mg"},{"bike_id":"44ab0b0d-fb6b-4274-badd-dc81c5776be7","system_id":"levelo_inurba_marseille","lat":43.25496,"lon":5.37639,"is_reserved":false,"is_disabled":false,"rental_uris":{"android":"levelo://app?vid=44ab0b0d-fb6b-4274-badd-dc81c5776be7","ios":"levelo://app?vid=44ab0b0d-fb6b-4274-badd-dc81c5776be7"},"vehicle_type_id":"4","last_reported":1748337092,"current_range_meters":7200,"station_id":"ce4bhh12rcd13ifvqff0","pricing_plan_id":"cebpf4jnsgd1na2vs0mg"},{"bike_id":"86461345-ae83-4df3-95fb-cd9c3c6316ee","system_id":"levelo_inurba_marseille","lat":43.23151,"lon":5.43706,"is_reserved":false,"is_disabled":false,"rental_uris":{"android":"levelo://app?vid=86461345-ae83-4df3-95fb-cd9c3c6316ee","ios":"levelo://app?vid=86461345-ae83-4df3-95fb-cd9c3c6316ee"},"vehicle_type_id":"4","last_reported":1748337092,"current_range_meters":7200,"station_id":"ce4bhmp2rcd13ifvqgog","pricing_plan_id":"cebpf4jnsgd1na2vs0mg"},{"bike_id":"15895a4c-6504-4c01-aecb-996f77f1a3b5","system_id":"levelo_inurba_marseille","lat":43.31884,"lon":5.36739,"is_reserved":false,"is_disabled":false,"rental_uris":{"android":"levelo://app?vid=15895a4c-6504-4c01-aecb-996f77f1a3b5","ios":"levelo://app?vid=15895a4c-6504-4c01-aecb-996f77f1a3b5"},"vehicle_type_id":"4","last_reported":1748337092,"current_range_meters":8000,"station_id":"","pricing_plan_id":"cebpf4jnsgd1na2vs0mg"},{"bike_id":"a345dfd7-05db-4690-9151-3164195a6282","system_id":"levelo_inurba_marseille","lat":43.31122,"lon":5.377801,"is_reserved":false,"is_disabled":false,"rental_uris":{"android":"levelo://app?vid=a345dfd7-05db-4690-9151-3164195a6282","ios":"levelo://app?vid=a345dfd7-05db-4690-9151-3164195a6282"},"vehicle_type_id":"4","last_reported":1748337092,"current_range_meters":8000,"station_id":"ce4bgt92rcd13ifvqcg0","pricing_plan_id":"cebpf4jnsgd1na2vs0mg"},{"bike_id":"06ab0218-5a88-4d49-a7dd-7ca72f0219d2","system_id":"levelo_inurba_marseille","lat":43.28734,"lon":5.37947,"is_reserved":false,"is_disabled":false,"rental_uris":{"android":"levelo://app?vid=06ab0218-5a88-4d49-a7dd-7ca72f0219d2","ios":"levelo://app?vid=06ab0218-5a88-4d49-a7dd-7ca72f0219d2"},"vehicle_type_id":"4","last_reported":1748337092,"current_range_meters":8000,"station_id":"ce4bh9p2rcd13ifvqec0","pricing_plan_id":"cebpf4jnsgd1na2vs0mg"},{"bike_id":"0a39277b-5b56-4b3f-a743-9c62bbc310fd","system_id":"levelo_inurba_marseille","lat":43.26685,"lon":5.38274,"is_reserved":false,"is_disabled":false,"rental_uris":{"android":"levelo://app?vid=0a39277b-5b56-4b3f-a743-9c62bbc310fd","ios":"levelo://app?vid=0a39277b-5b56-4b3f-a743-9c62bbc310fd"},"vehicle_type_id":"4","last_reported":1748337092,"current_range_meters":8000,"station_id":"ce4bhg92rcd13ifvqf90","pricing_plan_id":"cebpf4jnsgd1na2vs0mg"},{"bike_id":"e44962ee-a9bf-4a7f-ab11-3c4d00cdcb94","system_id":"levelo_inurba_marseille","lat":43.27687,"lon":5.38852,"is_reserved":false,"is_disabled":false,"rental_uris":{"android":"levelo://app?vid=e44962ee-a9bf-4a7f-ab11-3c4d00cdcb94","ios":"levelo://app?vid=e44962ee-a9bf-4a7f-ab11-3c4d00cdcb94"},"vehicle_type_id":"4","last_reported":1748337092,"current_range_meters":8000,"station_id":"ce4bhi12rcd13ifvqfo0","pricing_plan_id":"cebpf4jnsgd1na2vs0mg"},{"bike_id":"6a80d0cd-0ed1-4299-94b2-c768810a3301","system_id":"levelo_inurba_marseille","lat":43.25958,"lon":5.40883,"is_reserved":false,"is_disabled":false,"rental_uris":{"android":"levelo://app?vid=6a80d0cd-0ed1-4299-94b2-c768810a3301","ios":"levelo://app?vid=6a80d0cd-0ed1-4299-94b2-c768810a3301"},"vehicle_type_id":"4","last_reported":1748337092,"current_range_meters":8000,"station_id":"ce4bhm92rcd13ifvqglg","pricing_plan_id":"cebpf4jnsgd1na2vs0mg"},{"bike_id":"ab38c358-cac1-441f-8c4f-fedc45bd4803","system_id":"levelo_inurba_marseille","lat":43.23145,"lon":5.43704,"is_reserved":false,"is_disabled":false,"rental_uris":{"android":"levelo://app?vid=ab38c358-cac1-441f-8c4f-fedc45bd4803","ios":"levelo://app?vid=ab38c358-cac1-441f-8c4f-fedc45bd4803"},"vehicle_type_id":"4","last_reported":1748337092,"current_range_meters":8000,"station_id":"ce4bhmp2rcd13ifvqgog","pricing_plan_id":"cebpf4jnsgd1na2vs0mg"},{"bike_id":"b92e726a-b07f-4cb9-8abb-7ebdf0ca2500","system_id":"levelo_inurba_marseille","lat":43.2417,"lon":5.36402,"is_reserved":false,"is_disabled":false,"rental_uris":{"android":"levelo://app?vid=b92e726a-b07f-4cb9-8abb-7ebdf0ca2500","ios":"levelo://app?vid=b92e726a-b07f-4cb9-8abb-7ebdf0ca2500"},"vehicle_type_id":"4","last_reported":1748337092,"current_range_meters":8000,"station_id":"cpo36qri1sfpv3e86is0","pricing_plan_id":"cebpf4jnsgd1na2vs0mg"},{"bike_id":"8654a797-522d-48db-9c8f-3e52a37eb0a7","system_id":"levelo_inurba_marseille","lat":43.24666,"lon":5.38159,"is_reserved":false,"is_disabled":false,"rental_uris":{"android":"levelo://app?vid=8654a797-522d-48db-9c8f-3e52a37eb0a7","ios":"levelo://app?vid=8654a797-522d-48db-9c8f-3e52a37eb0a7"},"vehicle_type_id":"4","last_reported":1748337092,"current_range_meters":8400,"station_id":"","pricing_plan_id":"cebpf4jnsgd1na2vs0mg"},{"bike_id":"1c3b362a-7d63-4dff-8af4-11bd4c26b2d7","system_id":"levelo_inurba_marseille","lat":43.30284,"lon":5.3772,"is_reserved":false,"is_disabled":false,"rental_uris":{"android":"levelo://app?vid=1c3b362a-7d63-4dff-8af4-11bd4c26b2d7","ios":"levelo://app?vid=1c3b362a-7d63-4dff-8af4-11bd4c26b2d7"},"vehicle_type_id":"4","last_reported":1748337092,"current_range_meters":8400,"station_id":"ce4bguh2rcd13ifvqcj0","pricing_plan_id":"cebpf4jnsgd1na2vs0mg"},{"bike_id":"391adc34-7a38-41da-afd7-c49f00ebb60f","system_id":"levelo_inurba_marseille","lat":43.282623,"lon":5.350599,"is_reserved":false,"is_disabled":false,"rental_uris":{"android":"levelo://app?vid=391adc34-7a38-41da-afd7-c49f00ebb60f","ios":"levelo://app?vid=391adc34-7a38-41da-afd7-c49f00ebb60f"},"vehicle_type_id":"4","last_reported":1748337092,"current_range_meters":8400,"station_id":"ce4bhbp2rcd13ifvqerg","pricing_plan_id":"cebpf4jnsgd1na2vs0mg"},{"bike_id":"a01d5c9b-cf5c-41aa-a3a4-acfa2cc9fe89","system_id":"levelo_inurba_marseille","lat":43.26561,"lon":5.39,"is_reserved":false,"is_disabled":false,"rental_uris":{"android":"levelo://app?vid=a01d5c9b-cf5c-41aa-a3a4-acfa2cc9fe89","ios":"levelo://app?vid=a01d5c9b-cf5c-41aa-a3a4-acfa2cc9fe89"},"vehicle_type_id":"4","last_reported":1748337092,"current_range_meters":8400,"station_id":"ce4bhe12rcd13ifvqf30","pricing_plan_id":"cebpf4jnsgd1na2vs0mg"},{"bike_id":"39b9e6f9-7f50-4c15-865f-e83796dd4da6","system_id":"levelo_inurba_marseille","lat":43.25584,"lon":5.38244,"is_reserved":false,"is_disabled":false,"rental_uris":{"android":"levelo://app?vid=39b9e6f9-7f50-4c15-865f-e83796dd4da6","ios":"levelo://app?vid=39b9e6f9-7f50-4c15-865f-e83796dd4da6"},"vehicle_type_id":"4","last_reported":1748337092,"current_range_meters":8400,"station_id":"ce4bhih2rcd13ifvqfs0","pricing_plan_id":"cebpf4jnsgd1na2vs0mg"},{"bike_id":"fb1a3b4e-0be5-4550-bfd4-854affb491cd","system_id":"levelo_inurba_marseille","lat":43.258978,"lon":5.409127,"is_reserved":false,"is_disabled":false,"rental_uris":{"android":"levelo://app?vid=fb1a3b4e-0be5-4550-bfd4-854affb491cd","ios":"levelo://app?vid=fb1a3b4e-0be5-4550-bfd4-854affb491cd"},"vehicle_type_id":"4","last_reported":1748337092,"current_range_meters":8400,"station_id":"ce4bhm92rcd13ifvqglg","pricing_plan_id":"cebpf4jnsgd1na2vs0mg"},{"bike_id":"9ea0d084-b7dd-4cae-8983-9385691118e8","system_id":"levelo_inurba_marseille","lat":43.31897,"lon":5.40722,"is_reserved":false,"is_disabled":false,"rental_uris":{"android":"levelo://app?vid=9ea0d084-b7dd-4cae-8983-9385691118e8","ios":"levelo://app?vid=9ea0d084-b7dd-4cae-8983-9385691118e8"},"vehicle_type_id":"4","last_reported":1748337092,"current_range_meters":8400,"station_id":"ce4bhq12rcd13ifvqhig","pricing_plan_id":"cebpf4jnsgd1na2vs0mg"},{"bike_id":"f0ea11cc-6b49-4c9c-90a7-c9e4ead2f0fb","system_id":"levelo_inurba_marseille","lat":43.254969,"lon":5.37649,"is_reserved":false,"is_disabled":false,"rental_uris":{"android":"levelo://app?vid=f0ea11cc-6b49-4c9c-90a7-c9e4ead2f0fb","ios":"levelo://app?vid=f0ea11cc-6b49-4c9c-90a7-c9e4ead2f0fb"},"vehicle_type_id":"4","last_reported":1748337092,"current_range_meters":8800,"station_id":"","pricing_plan_id":"cebpf4jnsgd1na2vs0mg"},{"bike_id":"95e97862-f421-4240-89e6-49e6726f17d7","system_id":"levelo_inurba_marseille","lat":43.2997,"lon":5.38503,"is_reserved":false,"is_disabled":false,"rental_uris":{"android":"levelo://app?vid=95e97862-f421-4240-89e6-49e6726f17d7","ios":"levelo://app?vid=95e97862-f421-4240-89e6-49e6726f17d7"},"vehicle_type_id":"4","last_reported":1748337092,"current_range_meters":8800,"station_id":"ce4bgj92rcd13ifvqbd0","pricing_plan_id":"cebpf4jnsgd1na2vs0mg"},{"bike_id":"b828648a-6074-4fc9-9a05-c5b54f17c817","system_id":"levelo_inurba_marseille","lat":43.30217,"lon":5.394701,"is_reserved":false,"is_disabled":false,"rental_uris":{"android":"levelo://app?vid=b828648a-6074-4fc9-9a05-c5b54f17c817","ios":"levelo://app?vid=b828648a-6074-4fc9-9a05-c5b54f17c817"},"vehicle_type_id":"4","last_reported":1748337092,"current_range_meters":8800,"station_id":"ce4bh0p2rcd13ifvqd70","pricing_plan_id":"cebpf4jnsgd1na2vs0mg"},{"bike_id":"6c20acb1-25c9-414d-91e8-cb3caa814195","system_id":"levelo_inurba_marseille","lat":43.27067,"lon":5.42264,"is_reserved":false,"is_disabled":false,"rental_uris":{"android":"levelo://app?vid=6c20acb1-25c9-414d-91e8-cb3caa814195","ios":"levelo://app?vid=6c20acb1-25c9-414d-91e8-cb3caa814195"},"vehicle_type_id":"4","last_reported":1748337092,"current_range_meters":8800,"station_id":"ce4bhk92rcd13ifvqgb0","pricing_plan_id":"cebpf4jnsgd1na2vs0mg"},{"bike_id":"b351c5db-868c-4139-a29e-47665b4d6171","system_id":"levelo_inurba_marseille","lat":43.2593,"lon":5.40906,"is_reserved":false,"is_disabled":false,"rental_uris":{"android":"levelo://app?vid=b351c5db-868c-4139-a29e-47665b4d6171","ios":"levelo://app?vid=b351c5db-868c-4139-a29e-47665b4d6171"},"vehicle_type_id":"4","last_reported":1748337092,"current_range_meters":8800,"station_id":"ce4bhm92rcd13ifvqglg","pricing_plan_id":"cebpf4jnsgd1na2vs0mg"},{"bike_id":"28d55f7a-98cd-4aaa-95b2-35edf61c17cc","system_id":"levelo_inurba_marseille","lat":43.26808,"lon":5.40262,"is_reserved":false,"is_disabled":false,"rental_uris":{"android":"levelo://app?vid=28d55f7a-98cd-4aaa-95b2-35edf61c17cc","ios":"levelo://app?vid=28d55f7a-98cd-4aaa-95b2-35edf61c17cc"},"vehicle_type_id":"4","last_reported":1748337092,"current_range_meters":8800,"station_id":"ce501612rcd8frsf0b60","pricing_plan_id":"cebpf4jnsgd1na2vs0mg"},{"bike_id":"1a0998e5-8bb9-474f-a827-53cad24c9e8f","system_id":"levelo_inurba_marseille","lat":43.32048,"lon":5.44957,"is_reserved":false,"is_disabled":false,"rental_uris":{"android":"levelo://app?vid=1a0998e5-8bb9-474f-a827-53cad24c9e8f","ios":"levelo://app?vid=1a0998e5-8bb9-474f-a827-53cad24c9e8f"},"vehicle_type_id":"4","last_reported":1748337092,"current_range_meters":9200,"station_id":"","pricing_plan_id":"cebpf4jnsgd1na2vs0mg"},{"bike_id":"ae6e6868-2635-4f49-b7c1-b03759c58ec7","system_id":"levelo_inurba_marseille","lat":43.272801,"lon":5.415877,"is_reserved":false,"is_disabled":false,"rental_uris":{"android":"levelo://app?vid=ae6e6868-2635-4f49-b7c1-b03759c58ec7","ios":"levelo://app?vid=ae6e6868-2635-4f49-b7c1-b03759c58ec7"},"vehicle_type_id":"4","last_reported":1748337092,"current_range_meters":9200,"station_id":"","pricing_plan_id":"cebpf4jnsgd1na2vs0mg"},{"bike_id":"0e2d4175-f1d6-43fe-947f-552fbc78ac6c","system_id":"levelo_inurba_marseille","lat":43.29009,"lon":5.3562,"is_reserved":false,"is_disabled":false,"rental_uris":{"android":"levelo://app?vid=0e2d4175-f1d6-43fe-947f-552fbc78ac6c","ios":"levelo://app?vid=0e2d4175-f1d6-43fe-947f-552fbc78ac6c"},"vehicle_type_id":"4","last_reported":1748337092,"current_range_meters":9200,"station_id":"ce4bhb92rcd13ifvqen0","pricing_plan_id":"cebpf4jnsgd1na2vs0mg"},{"bike_id":"b36d6891-4c30-4070-b13d-5c313b80adf0","system_id":"levelo_inurba_marseille","lat":43.23153,"lon":5.43706,"is_reserved":false,"is_disabled":false,"rental_uris":{"android":"levelo://app?vid=b36d6891-4c30-4070-b13d-5c313b80adf0","ios":"levelo://app?vid=b36d6891-4c30-4070-b13d-5c313b80adf0"},"vehicle_type_id":"4","last_reported":1748337092,"current_range_meters":9200,"station_id":"ce4bhmp2rcd13ifvqgog","pricing_plan_id":"cebpf4jnsgd1na2vs0mg"},{"bike_id":"d8f3bdce-5dec-46b5-874b-14a02e9937b6","system_id":"levelo_inurba_marseille","lat":43.28678,"lon":5.38669,"is_reserved":false,"is_disabled":false,"rental_uris":{"android":"levelo://app?vid=d8f3bdce-5dec-46b5-874b-14a02e9937b6","ios":"levelo://app?vid=d8f3bdce-5dec-46b5-874b-14a02e9937b6"},"vehicle_type_id":"4","last_reported":1748337092,"current_range_meters":9600,"station_id":"ce4bh492rcd13ifvqdug","pricing_plan_id":"cebpf4jnsgd1na2vs0mg"},{"bike_id":"5c410044-783a-4bf0-a539-9010017a1490","system_id":"levelo_inurba_marseille","lat":43.2707,"lon":5.4228,"is_reserved":false,"is_disabled":false,"rental_uris":{"android":"levelo://app?vid=5c410044-783a-4bf0-a539-9010017a1490","ios":"levelo://app?vid=5c410044-783a-4bf0-a539-9010017a1490"},"vehicle_type_id":"4","last_reported":1748337092,"current_range_meters":9600,"station_id":"ce4bhk92rcd13ifvqgb0","pricing_plan_id":"cebpf4jnsgd1na2vs0mg"},{"bike_id":"f6a291c8-009c-4799-858f-3d0684b35fea","system_id":"levelo_inurba_marseille","lat":43.23158,"lon":5.4371,"is_reserved":false,"is_disabled":false,"rental_uris":{"android":"levelo://app?vid=f6a291c8-009c-4799-858f-3d0684b35fea","ios":"levelo://app?vid=f6a291c8-009c-4799-858f-3d0684b35fea"},"vehicle_type_id":"4","last_reported":1748337092,"current_range_meters":9600,"station_id":"ce4bhmp2rcd13ifvqgog","pricing_plan_id":"cebpf4jnsgd1na2vs0mg"},{"bike_id":"973ee30b-9f6f-411e-8470-8c0f868b3c62","system_id":"levelo_inurba_marseille","lat":43.24086,"lon":5.37768,"is_reserved":false,"is_disabled":false,"rental_uris":{"android":"levelo://app?vid=973ee30b-9f6f-411e-8470-8c0f868b3c62","ios":"levelo://app?vid=973ee30b-9f6f-411e-8470-8c0f868b3c62"},"vehicle_type_id":"4","last_reported":1748337092,"current_range_meters":10000,"station_id":"","pricing_plan_id":"cebpf4jnsgd1na2vs0mg"},{"bike_id":"0157baa6-716a-4ef5-a59e-d516fe0c7ce2","system_id":"levelo_inurba_marseille","lat":43.29929,"lon":5.36542,"is_reserved":false,"is_disabled":false,"rental_uris":{"android":"levelo://app?vid=0157baa6-716a-4ef5-a59e-d516fe0c7ce2","ios":"levelo://app?vid=0157baa6-716a-4ef5-a59e-d516fe0c7ce2"},"vehicle_type_id":"4","last_reported":1748337092,"current_range_meters":10000,"station_id":"ce4bgm92rcd13ifvqbr0","pricing_plan_id":"cebpf4jnsgd1na2vs0mg"},{"bike_id":"46cda4ed-94e5-4bec-b035-3e0d6ee84711","system_id":"levelo_inurba_marseille","lat":43.30906,"lon":5.36852,"is_reserved":false,"is_disabled":false,"rental_uris":{"android":"levelo://app?vid=46cda4ed-94e5-4bec-b035-3e0d6ee84711","ios":"levelo://app?vid=46cda4ed-94e5-4bec-b035-3e0d6ee84711"},"vehicle_type_id":"4","last_reported":1748337092,"current_range_meters":10000,"station_id":"ce4bgn92rcd13ifvqbvg","pricing_plan_id":"cebpf4jnsgd1na2vs0mg"},{"bike_id":"b1896fda-f2f9-47b3-a9e3-359cfb028382","system_id":"levelo_inurba_marseille","lat":43.29865,"lon":5.36266,"is_reserved":false,"is_disabled":false,"rental_uris":{"android":"levelo://app?vid=b1896fda-f2f9-47b3-a9e3-359cfb028382","ios":"levelo://app?vid=b1896fda-f2f9-47b3-a9e3-359cfb028382"},"vehicle_type_id":"4","last_reported":1748337092,"current_range_meters":10000,"station_id":"ce4bgpp2rcd13ifvqc3g","pricing_plan_id":"cebpf4jnsgd1na2vs0mg"},{"bike_id":"de7de93d-7329-426c-a55a-9e1f5b37f3bc","system_id":"levelo_inurba_marseille","lat":43.3016,"lon":5.37401,"is_reserved":false,"is_disabled":false,"rental_uris":{"android":"levelo://app?vid=de7de93d-7329-426c-a55a-9e1f5b37f3bc","ios":"levelo://app?vid=de7de93d-7329-426c-a55a-9e1f5b37f3bc"},"vehicle_type_id":"4","last_reported":1748337092,"current_range_meters":10000,"station_id":"ce4bgs92rcd13ifvqcc0","pricing_plan_id":"cebpf4jnsgd1na2vs0mg"},{"bike_id":"b97ad454-c14c-494b-9cce-fb8712210834","system_id":"levelo_inurba_marseille","lat":43.295747,"lon":5.399617,"is_reserved":false,"is_disabled":false,"rental_uris":{"android":"levelo://app?vid=b97ad454-c14c-494b-9cce-fb8712210834","ios":"levelo://app?vid=b97ad454-c14c-494b-9cce-fb8712210834"},"vehicle_type_id":"4","last_reported":1748337092,"current_range_meters":10000,"station_id":"ce4bh312rcd13ifvqdj0","pricing_plan_id":"cebpf4jnsgd1na2vs0mg"},{"bike_id":"7e3fffbc-5a0f-4ece-b481-63e40e5aabfe","system_id":"levelo_inurba_marseille","lat":43.337259,"lon":5.391846,"is_reserved":false,"is_disabled":false,"rental_uris":{"android":"levelo://app?vid=7e3fffbc-5a0f-4ece-b481-63e40e5aabfe","ios":"levelo://app?vid=7e3fffbc-5a0f-4ece-b481-63e40e5aabfe"},"vehicle_type_id":"4","last_reported":1748337092,"current_range_meters":10000,"station_id":"ce4bhr92rcd13ifvqhsg","pricing_plan_id":"cebpf4jnsgd1na2vs0mg"},{"bike_id":"6ef27e84-462a-46f9-afe5-e09b209cc7f0","system_id":"levelo_inurba_marseille","lat":43.331128,"lon":5.362084,"is_reserved":false,"is_disabled":false,"rental_uris":{"android":"levelo://app?vid=6ef27e84-462a-46f9-afe5-e09b209cc7f0","ios":"levelo://app?vid=6ef27e84-462a-46f9-afe5-e09b209cc7f0"},"vehicle_type_id":"4","last_reported":1748337092,"current_range_meters":10800,"station_id":"","pricing_plan_id":"cebpf4jnsgd1na2vs0mg"},{"bike_id":"42c10d11-f4af-478b-84cf-a4c649096884","system_id":"levelo_inurba_marseille","lat":43.30213,"lon":5.39494,"is_reserved":false,"is_disabled":false,"rental_uris":{"android":"levelo://app?vid=42c10d11-f4af-478b-84cf-a4c649096884","ios":"levelo://app?vid=42c10d11-f4af-478b-84cf-a4c649096884"},"vehicle_type_id":"4","last_reported":1748337092,"current_range_meters":10800,"station_id":"ce4bh0p2rcd13ifvqd70","pricing_plan_id":"cebpf4jnsgd1na2vs0mg"},{"bike_id":"cfc02dfa-9860-4adb-99ff-af4b27bc97c1","system_id":"levelo_inurba_marseille","lat":43.29171,"lon":5.37159,"is_reserved":false,"is_disabled":false,"rental_uris":{"android":"levelo://app?vid=cfc02dfa-9860-4adb-99ff-af4b27bc97c1","ios":"levelo://app?vid=cfc02dfa-9860-4adb-99ff-af4b27bc97c1"},"vehicle_type_id":"4","last_reported":1748337092,"current_range_meters":10800,"station_id":"ce4bha92rcd13ifvqeh0","pricing_plan_id":"cebpf4jnsgd1na2vs0mg"},{"bike_id":"1a775a5e-1792-4706-b4f6-ec50ef749d53","system_id":"levelo_inurba_marseille","lat":43.255796,"lon":5.38223,"is_reserved":false,"is_disabled":false,"rental_uris":{"android":"levelo://app?vid=1a775a5e-1792-4706-b4f6-ec50ef749d53","ios":"levelo://app?vid=1a775a5e-1792-4706-b4f6-ec50ef749d53"},"vehicle_type_id":"4","last_reported":1748337092,"current_range_meters":10800,"station_id":"ce4bhih2rcd13ifvqfs0","pricing_plan_id":"cebpf4jnsgd1na2vs0mg"},{"bike_id":"01483357-963a-4f2b-b8b0-5b9f7615ef4c","system_id":"levelo_inurba_marseille","lat":43.27184,"lon":5.40998,"is_reserved":false,"is_disabled":false,"rental_uris":{"android":"levelo://app?vid=01483357-963a-4f2b-b8b0-5b9f7615ef4c","ios":"levelo://app?vid=01483357-963a-4f2b-b8b0-5b9f7615ef4c"},"vehicle_type_id":"4","last_reported":1748337092,"current_range_meters":10800,"station_id":"ce4bhl12rcd13ifvqgf0","pricing_plan_id":"cebpf4jnsgd1na2vs0mg"},{"bike_id":"cd431521-2266-4f45-ac9a-95e56b6903c9","system_id":"levelo_inurba_marseille","lat":43.24178,"lon":5.39729,"is_reserved":false,"is_disabled":false,"rental_uris":{"android":"levelo://app?vid=cd431521-2266-4f45-ac9a-95e56b6903c9","ios":"levelo://app?vid=cd431521-2266-4f45-ac9a-95e56b6903c9"},"vehicle_type_id":"4","last_reported":1748337092,"current_range_meters":10800,"station_id":"ce4bhn12rcd13ifvqgpg","pricing_plan_id":"cebpf4jnsgd1na2vs0mg"},{"bike_id":"f5b1aa50-af32-4b67-af03-fc8d46feddb5","system_id":"levelo_inurba_marseille","lat":43.292694,"lon":5.401271,"is_reserved":false,"is_disabled":false,"rental_uris":{"android":"levelo://app?vid=f5b1aa50-af32-4b67-af03-fc8d46feddb5","ios":"levelo://app?vid=f5b1aa50-af32-4b67-af03-fc8d46feddb5"},"vehicle_type_id":"4","last_reported":1748337092,"current_range_meters":11200,"station_id":"","pricing_plan_id":"cebpf4jnsgd1na2vs0mg"},{"bike_id":"f751281a-bb1b-441a-bca7-73629890d3ee","system_id":"levelo_inurba_marseille","lat":43.29984,"lon":5.37169,"is_reserved":false,"is_disabled":false,"rental_uris":{"android":"levelo://app?vid=f751281a-bb1b-441a-bca7-73629890d3ee","ios":"levelo://app?vid=f751281a-bb1b-441a-bca7-73629890d3ee"},"vehicle_type_id":"4","last_reported":1748337092,"current_range_meters":11200,"station_id":"ce4bgr92rcd13ifvqc7g","pricing_plan_id":"cebpf4jnsgd1na2vs0mg"},{"bike_id":"257447f6-b60e-4ea7-bb4c-ba769a2c1b8d","system_id":"levelo_inurba_marseille","lat":43.30485,"lon":5.37898,"is_reserved":false,"is_disabled":false,"rental_uris":{"android":"levelo://app?vid=257447f6-b60e-4ea7-bb4c-ba769a2c1b8d","ios":"levelo://app?vid=257447f6-b60e-4ea7-bb4c-ba769a2c1b8d"},"vehicle_type_id":"4","last_reported":1748337092,"current_range_meters":11200,"station_id":"ce4bgup2rcd13ifvqcn0","pricing_plan_id":"cebpf4jnsgd1na2vs0mg"},{"bike_id":"5046fad6-7e56-4b3d-b074-accb7f2f5a2e","system_id":"levelo_inurba_marseille","lat":43.23155,"lon":5.43709,"is_reserved":false,"is_disabled":false,"rental_uris":{"android":"levelo://app?vid=5046fad6-7e56-4b3d-b074-accb7f2f5a2e","ios":"levelo://app?vid=5046fad6-7e56-4b3d-b074-accb7f2f5a2e"},"vehicle_type_id":"4","last_reported":1748337092,"current_range_meters":11200,"station_id":"ce4bhmp2rcd13ifvqgog","pricing_plan_id":"cebpf4jnsgd1na2vs0mg"},{"bike_id":"e6c65de3-7d92-4979-809c-6677188473c0","system_id":"levelo_inurba_marseille","lat":43.337598,"lon":5.374632,"is_reserved":false,"is_disabled":false,"rental_uris":{"android":"levelo://app?vid=e6c65de3-7d92-4979-809c-6677188473c0","ios":"levelo://app?vid=e6c65de3-7d92-4979-809c-6677188473c0"},"vehicle_type_id":"4","last_reported":1748337092,"current_range_meters":11600,"station_id":"","pricing_plan_id":"cebpf4jnsgd1na2vs0mg"},{"bike_id":"2a046dee-b3af-48c9-9659-b7d30ba20af5","system_id":"levelo_inurba_marseille","lat":43.24354,"lon":5.3799,"is_reserved":false,"is_disabled":false,"rental_uris":{"android":"levelo://app?vid=2a046dee-b3af-48c9-9659-b7d30ba20af5","ios":"levelo://app?vid=2a046dee-b3af-48c9-9659-b7d30ba20af5"},"vehicle_type_id":"4","last_reported":1748337092,"current_range_meters":11600,"station_id":"","pricing_plan_id":"cebpf4jnsgd1na2vs0mg"},{"bike_id":"6d72f470-5485-49c3-8a7e-00d661f76d62","system_id":"levelo_inurba_marseille","lat":43.3042,"lon":5.38881,"is_reserved":false,"is_disabled":false,"rental_uris":{"android":"levelo://app?vid=6d72f470-5485-49c3-8a7e-00d661f76d62","ios":"levelo://app?vid=6d72f470-5485-49c3-8a7e-00d661f76d62"},"vehicle_type_id":"4","last_reported":1748337092,"current_range_meters":11600,"station_id":"ce4bgk12rcd13ifvqbi0","pricing_plan_id":"cebpf4jnsgd1na2vs0mg"},{"bike_id":"54d54403-4df4-448b-b522-41aee07a2743","system_id":"levelo_inurba_marseille","lat":43.29853,"lon":5.36285,"is_reserved":false,"is_disabled":false,"rental_uris":{"android":"levelo://app?vid=54d54403-4df4-448b-b522-41aee07a2743","ios":"levelo://app?vid=54d54403-4df4-448b-b522-41aee07a2743"},"vehicle_type_id":"4","last_reported":1748337092,"current_range_meters":11600,"station_id":"ce4bgpp2rcd13ifvqc3g","pricing_plan_id":"cebpf4jnsgd1na2vs0mg"},{"bike_id":"66edb79c-6bb2-418b-9ffd-57411d4997b2","system_id":"levelo_inurba_marseille","lat":43.31342,"lon":5.36714,"is_reserved":false,"is_disabled":false,"rental_uris":{"android":"levelo://app?vid=66edb79c-6bb2-418b-9ffd-57411d4997b2","ios":"levelo://app?vid=66edb79c-6bb2-418b-9ffd-57411d4997b2"},"vehicle_type_id":"4","last_reported":1748337092,"current_range_meters":11600,"station_id":"ce4bgr92rcd13ifvqc6g","pricing_plan_id":"cebpf4jnsgd1na2vs0mg"},{"bike_id":"5f9391d7-2924-464d-abdc-d40ada4b1c07","system_id":"levelo_inurba_marseille","lat":43.30138,"lon":5.37418,"is_reserved":false,"is_disabled":false,"rental_uris":{"android":"levelo://app?vid=5f9391d7-2924-464d-abdc-d40ada4b1c07","ios":"levelo://app?vid=5f9391d7-2924-464d-abdc-d40ada4b1c07"},"vehicle_type_id":"4","last_reported":1748337092,"current_range_meters":11600,"station_id":"ce4bgs92rcd13ifvqcc0","pricing_plan_id":"cebpf4jnsgd1na2vs0mg"},{"bike_id":"48cd0317-1c6f-4804-9cd1-21cb1ebe5af3","system_id":"levelo_inurba_marseille","lat":43.254909,"lon":5.376446,"is_reserved":false,"is_disabled":false,"rental_uris":{"android":"levelo://app?vid=48cd0317-1c6f-4804-9cd1-21cb1ebe5af3","ios":"levelo://app?vid=48cd0317-1c6f-4804-9cd1-21cb1ebe5af3"},"vehicle_type_id":"4","last_reported":1748337092,"current_range_meters":11600,"station_id":"ce4bhh12rcd13ifvqff0","pricing_plan_id":"cebpf4jnsgd1na2vs0mg"},{"bike_id":"574a5384-3718-4ee1-ac7a-c93ae74144c2","system_id":"levelo_inurba_marseille","lat":43.25582,"lon":5.38238,"is_reserved":false,"is_disabled":false,"rental_uris":{"android":"levelo://app?vid=574a5384-3718-4ee1-ac7a-c93ae74144c2","ios":"levelo://app?vid=574a5384-3718-4ee1-ac7a-c93ae74144c2"},"vehicle_type_id":"4","last_reported":1748337092,"current_range_meters":11600,"station_id":"ce4bhih2rcd13ifvqfs0","pricing_plan_id":"cebpf4jnsgd1na2vs0mg"},{"bike_id":"82e61e28-6553-43b1-802a-e27fca196057","system_id":"levelo_inurba_marseille","lat":43.23184,"lon":5.39989,"is_reserved":false,"is_disabled":false,"rental_uris":{"android":"levelo://app?vid=82e61e28-6553-43b1-802a-e27fca196057","ios":"levelo://app?vid=82e61e28-6553-43b1-802a-e27fca196057"},"vehicle_type_id":"4","last_reported":1748337092,"current_range_meters":11600,"station_id":"ce4bhn12rcd13ifvqgqg","pricing_plan_id":"cebpf4jnsgd1na2vs0mg"},{"bike_id":"3f855aa9-a03a-4d28-bbc8-2f3b26d07315","system_id":"levelo_inurba_marseille","lat":43.229276,"lon":5.353806,"is_reserved":false,"is_disabled":false,"rental_uris":{"android":"levelo://app?vid=3f855aa9-a03a-4d28-bbc8-2f3b26d07315","ios":"levelo://app?vid=3f855aa9-a03a-4d28-bbc8-2f3b26d07315"},"vehicle_type_id":"4","last_reported":1748337092,"current_range_meters":11600,"station_id":"cpo3532slgdg3j2ikp40","pricing_plan_id":"cebpf4jnsgd1na2vs0mg"},{"bike_id":"64b30bf5-4f1e-401e-9ba8-ce7484f4325f","system_id":"levelo_inurba_marseille","lat":43.293001,"lon":5.371671,"is_reserved":false,"is_disabled":false,"rental_uris":{"android":"levelo://app?vid=64b30bf5-4f1e-401e-9ba8-ce7484f4325f","ios":"levelo://app?vid=64b30bf5-4f1e-401e-9ba8-ce7484f4325f"},"vehicle_type_id":"4","last_reported":1748337092,"current_range_meters":12000,"station_id":"ce4bgh92rcd13ifvqb40","pricing_plan_id":"cebpf4jnsgd1na2vs0mg"},{"bike_id":"c78b4b30-ca11-4ea9-819f-29f192065116","system_id":"levelo_inurba_marseille","lat":43.3017,"lon":5.36617,"is_reserved":false,"is_disabled":false,"rental_uris":{"android":"levelo://app?vid=c78b4b30-ca11-4ea9-819f-29f192065116","ios":"levelo://app?vid=c78b4b30-ca11-4ea9-819f-29f192065116"},"vehicle_type_id":"4","last_reported":1748337092,"current_range_meters":12000,"station_id":"ce4bgrh2rcd13ifvqc8g","pricing_plan_id":"cebpf4jnsgd1na2vs0mg"},{"bike_id":"3e599d50-bb15-43cc-bb74-1ac33a77ee6d","system_id":"levelo_inurba_marseille","lat":43.31168,"lon":5.38717,"is_reserved":false,"is_disabled":false,"rental_uris":{"android":"levelo://app?vid=3e599d50-bb15-43cc-bb74-1ac33a77ee6d","ios":"levelo://app?vid=3e599d50-bb15-43cc-bb74-1ac33a77ee6d"},"vehicle_type_id":"4","last_reported":1748337092,"current_range_meters":12000,"station_id":"ce4bgv12rcd13ifvqcp0","pricing_plan_id":"cebpf4jnsgd1na2vs0mg"},{"bike_id":"f8051d0c-f0e1-4f4a-9de5-4da32de7df26","system_id":"levelo_inurba_marseille","lat":43.28722,"lon":5.37934,"is_reserved":false,"is_disabled":false,"rental_uris":{"android":"levelo://app?vid=f8051d0c-f0e1-4f4a-9de5-4da32de7df26","ios":"levelo://app?vid=f8051d0c-f0e1-4f4a-9de5-4da32de7df26"},"vehicle_type_id":"4","last_reported":1748337092,"current_range_meters":12000,"station_id":"ce4bh9p2rcd13ifvqec0","pricing_plan_id":"cebpf4jnsgd1na2vs0mg"},{"bike_id":"1e952921-7125-4c5a-896c-77bb737f2457","system_id":"levelo_inurba_marseille","lat":43.25703,"lon":5.41083,"is_reserved":false,"is_disabled":false,"rental_uris":{"android":"levelo://app?vid=1e952921-7125-4c5a-896c-77bb737f2457","ios":"levelo://app?vid=1e952921-7125-4c5a-896c-77bb737f2457"},"vehicle_type_id":"4","last_reported":1748337092,"current_range_meters":12000,"station_id":"ce4bhkp2rcd13ifvqgd0","pricing_plan_id":"cebpf4jnsgd1na2vs0mg"},{"bike_id":"e3d8d668-a817-4f08-82de-1f66bda33eb3","system_id":"levelo_inurba_marseille","lat":43.27184,"lon":5.40998,"is_reserved":false,"is_disabled":false,"rental_uris":{"android":"levelo://app?vid=e3d8d668-a817-4f08-82de-1f66bda33eb3","ios":"levelo://app?vid=e3d8d668-a817-4f08-82de-1f66bda33eb3"},"vehicle_type_id":"4","last_reported":1748337092,"current_range_meters":12000,"station_id":"ce4bhl12rcd13ifvqgf0","pricing_plan_id":"cebpf4jnsgd1na2vs0mg"},{"bike_id":"5a5d3cd9-43c9-4580-afc1-94b3cc3c8454","system_id":"levelo_inurba_marseille","lat":43.23143,"lon":5.43711,"is_reserved":false,"is_disabled":false,"rental_uris":{"android":"levelo://app?vid=5a5d3cd9-43c9-4580-afc1-94b3cc3c8454","ios":"levelo://app?vid=5a5d3cd9-43c9-4580-afc1-94b3cc3c8454"},"vehicle_type_id":"4","last_reported":1748337092,"current_range_meters":12000,"station_id":"ce4bhmp2rcd13ifvqgog","pricing_plan_id":"cebpf4jnsgd1na2vs0mg"},{"bike_id":"17b0d8ff-aa28-408b-9628-4a545be2c769","system_id":"levelo_inurba_marseille","lat":43.31933,"lon":5.38042,"is_reserved":false,"is_disabled":false,"rental_uris":{"android":"levelo://app?vid=17b0d8ff-aa28-408b-9628-4a545be2c769","ios":"levelo://app?vid=17b0d8ff-aa28-408b-9628-4a545be2c769"},"vehicle_type_id":"4","last_reported":1748337092,"current_range_meters":12400,"station_id":"","pricing_plan_id":"cebpf4jnsgd1na2vs0mg"},{"bike_id":"6b482028-512e-4dbe-b943-3138dd0f6f46","system_id":"levelo_inurba_marseille","lat":43.29678,"lon":5.36898,"is_reserved":false,"is_disabled":false,"rental_uris":{"android":"levelo://app?vid=6b482028-512e-4dbe-b943-3138dd0f6f46","ios":"levelo://app?vid=6b482028-512e-4dbe-b943-3138dd0f6f46"},"vehicle_type_id":"4","last_reported":1748337092,"current_range_meters":12400,"station_id":"","pricing_plan_id":"cebpf4jnsgd1na2vs0mg"},{"bike_id":"8abc75c9-b0fd-4852-8b61-2f8579698374","system_id":"levelo_inurba_marseille","lat":43.31213,"lon":5.36876,"is_reserved":false,"is_disabled":false,"rental_uris":{"android":"levelo://app?vid=8abc75c9-b0fd-4852-8b61-2f8579698374","ios":"levelo://app?vid=8abc75c9-b0fd-4852-8b61-2f8579698374"},"vehicle_type_id":"4","last_reported":1748337092,"current_range_meters":12400,"station_id":"ce4bgl92rcd13ifvqbq0","pricing_plan_id":"cebpf4jnsgd1na2vs0mg"},{"bike_id":"fb51b4d0-c1ad-477a-bce3-8583bf281086","system_id":"levelo_inurba_marseille","lat":43.30488,"lon":5.379073,"is_reserved":false,"is_disabled":false,"rental_uris":{"android":"levelo://app?vid=fb51b4d0-c1ad-477a-bce3-8583bf281086","ios":"levelo://app?vid=fb51b4d0-c1ad-477a-bce3-8583bf281086"},"vehicle_type_id":"4","last_reported":1748337092,"current_range_meters":12400,"station_id":"ce4bgup2rcd13ifvqcn0","pricing_plan_id":"cebpf4jnsgd1na2vs0mg"},{"bike_id":"2a9b9f6f-e086-4a48-b343-0410abb19aae","system_id":"levelo_inurba_marseille","lat":43.25942,"lon":5.40917,"is_reserved":false,"is_disabled":false,"rental_uris":{"android":"levelo://app?vid=2a9b9f6f-e086-4a48-b343-0410abb19aae","ios":"levelo://app?vid=2a9b9f6f-e086-4a48-b343-0410abb19aae"},"vehicle_type_id":"4","last_reported":1748337092,"current_range_meters":12400,"station_id":"ce4bhm92rcd13ifvqglg","pricing_plan_id":"cebpf4jnsgd1na2vs0mg"},{"bike_id":"a3a1e2f8-c082-4657-9cf8-ceb282e14a71","system_id":"levelo_inurba_marseille","lat":43.232,"lon":5.39998,"is_reserved":false,"is_disabled":false,"rental_uris":{"android":"levelo://app?vid=a3a1e2f8-c082-4657-9cf8-ceb282e14a71","ios":"levelo://app?vid=a3a1e2f8-c082-4657-9cf8-ceb282e14a71"},"vehicle_type_id":"4","last_reported":1748337092,"current_range_meters":12400,"station_id":"ce4bhn12rcd13ifvqgqg","pricing_plan_id":"cebpf4jnsgd1na2vs0mg"},{"bike_id":"9e8816ba-fb14-4a82-8af0-26b6dedbf368","system_id":"levelo_inurba_marseille","lat":43.28701,"lon":5.39977,"is_reserved":false,"is_disabled":false,"rental_uris":{"android":"levelo://app?vid=9e8816ba-fb14-4a82-8af0-26b6dedbf368","ios":"levelo://app?vid=9e8816ba-fb14-4a82-8af0-26b6dedbf368"},"vehicle_type_id":"4","last_reported":1748337092,"current_range_meters":12400,"station_id":"ce4bho92rcd13ifvqh3g","pricing_plan_id":"cebpf4jnsgd1na2vs0mg"},{"bike_id":"0076ffba-4f65-4c73-81c4-f6573bb26af8","system_id":"levelo_inurba_marseille","lat":43.3091,"lon":5.36854,"is_reserved":false,"is_disabled":false,"rental_uris":{"android":"levelo://app?vid=0076ffba-4f65-4c73-81c4-f6573bb26af8","ios":"levelo://app?vid=0076ffba-4f65-4c73-81c4-f6573bb26af8"},"vehicle_type_id":"4","last_reported":1748337092,"current_range_meters":12800,"station_id":"ce4bgn92rcd13ifvqbvg","pricing_plan_id":"cebpf4jnsgd1na2vs0mg"},{"bike_id":"0ff622ec-9b1f-421c-b8eb-a9e9508f50d9","system_id":"levelo_inurba_marseille","lat":43.313519,"lon":5.367238,"is_reserved":false,"is_disabled":false,"rental_uris":{"android":"levelo://app?vid=0ff622ec-9b1f-421c-b8eb-a9e9508f50d9","ios":"levelo://app?vid=0ff622ec-9b1f-421c-b8eb-a9e9508f50d9"},"vehicle_type_id":"4","last_reported":1748337092,"current_range_meters":12800,"station_id":"ce4bgr92rcd13ifvqc6g","pricing_plan_id":"cebpf4jnsgd1na2vs0mg"},{"bike_id":"f7dc54fc-d31f-4da9-b1f8-48c21978e801","system_id":"levelo_inurba_marseille","lat":43.30569,"lon":5.36543,"is_reserved":false,"is_disabled":false,"rental_uris":{"android":"levelo://app?vid=f7dc54fc-d31f-4da9-b1f8-48c21978e801","ios":"levelo://app?vid=f7dc54fc-d31f-4da9-b1f8-48c21978e801"},"vehicle_type_id":"4","last_reported":1748337092,"current_range_meters":12800,"station_id":"ce4bgs12rcd13ifvqcag","pricing_plan_id":"cebpf4jnsgd1na2vs0mg"},{"bike_id":"c1de9de1-53bc-4dc6-93ea-a26394da061c","system_id":"levelo_inurba_marseille","lat":43.302082,"lon":5.39468,"is_reserved":false,"is_disabled":false,"rental_uris":{"android":"levelo://app?vid=c1de9de1-53bc-4dc6-93ea-a26394da061c","ios":"levelo://app?vid=c1de9de1-53bc-4dc6-93ea-a26394da061c"},"vehicle_type_id":"4","last_reported":1748337092,"current_range_meters":12800,"station_id":"ce4bh0p2rcd13ifvqd70","pricing_plan_id":"cebpf4jnsgd1na2vs0mg"},{"bike_id":"aaa5edaa-a560-48e2-93af-cdefbeab5609","system_id":"levelo_inurba_marseille","lat":43.29002,"lon":5.35627,"is_reserved":false,"is_disabled":false,"rental_uris":{"android":"levelo://app?vid=aaa5edaa-a560-48e2-93af-cdefbeab5609","ios":"levelo://app?vid=aaa5edaa-a560-48e2-93af-cdefbeab5609"},"vehicle_type_id":"4","last_reported":1748337092,"current_range_meters":12800,"station_id":"ce4bhb92rcd13ifvqen0","pricing_plan_id":"cebpf4jnsgd1na2vs0mg"},{"bike_id":"a1b1b016-dda8-4777-a2f6-4fa5f5de069c","system_id":"levelo_inurba_marseille","lat":43.26789,"lon":5.39427,"is_reserved":false,"is_disabled":false,"rental_uris":{"android":"levelo://app?vid=a1b1b016-dda8-4777-a2f6-4fa5f5de069c","ios":"levelo://app?vid=a1b1b016-dda8-4777-a2f6-4fa5f5de069c"},"vehicle_type_id":"4","last_reported":1748337092,"current_range_meters":12800,"station_id":"ce4bhh12rcd13ifvqfg0","pricing_plan_id":"cebpf4jnsgd1na2vs0mg"},{"bike_id":"7e75b3bc-0075-4903-9da5-f4d99ff79813","system_id":"levelo_inurba_marseille","lat":43.25703,"lon":5.41084,"is_reserved":false,"is_disabled":false,"rental_uris":{"android":"levelo://app?vid=7e75b3bc-0075-4903-9da5-f4d99ff79813","ios":"levelo://app?vid=7e75b3bc-0075-4903-9da5-f4d99ff79813"},"vehicle_type_id":"4","last_reported":1748337092,"current_range_meters":12800,"station_id":"ce4bhkp2rcd13ifvqgd0","pricing_plan_id":"cebpf4jnsgd1na2vs0mg"},{"bike_id":"3f1c2676-c3e9-4a42-a936-f25869d92038","system_id":"levelo_inurba_marseille","lat":43.28155,"lon":5.42639,"is_reserved":false,"is_disabled":false,"rental_uris":{"android":"levelo://app?vid=3f1c2676-c3e9-4a42-a936-f25869d92038","ios":"levelo://app?vid=3f1c2676-c3e9-4a42-a936-f25869d92038"},"vehicle_type_id":"4","last_reported":1748337092,"current_range_meters":12800,"station_id":"ce4bhnh2rcd13ifvqgug","pricing_plan_id":"cebpf4jnsgd1na2vs0mg"},{"bike_id":"1710148a-3a48-4543-b954-3a96d221adf5","system_id":"levelo_inurba_marseille","lat":43.24081,"lon":5.37716,"is_reserved":false,"is_disabled":false,"rental_uris":{"android":"levelo://app?vid=1710148a-3a48-4543-b954-3a96d221adf5","ios":"levelo://app?vid=1710148a-3a48-4543-b954-3a96d221adf5"},"vehicle_type_id":"4","last_reported":1748337092,"current_range_meters":12800,"station_id":"ce4bhnp2rcd13ifvqgvg","pricing_plan_id":"cebpf4jnsgd1na2vs0mg"},{"bike_id":"1b2ce060-b724-4576-983e-2718fb06a773","system_id":"levelo_inurba_marseille","lat":43.269397,"lon":5.402453,"is_reserved":false,"is_disabled":false,"rental_uris":{"android":"levelo://app?vid=1b2ce060-b724-4576-983e-2718fb06a773","ios":"levelo://app?vid=1b2ce060-b724-4576-983e-2718fb06a773"},"vehicle_type_id":"4","last_reported":1748337092,"current_range_meters":12800,"station_id":"cjm6bp8fraef2m0cb0m0","pricing_plan_id":"cebpf4jnsgd1na2vs0mg"},{"bike_id":"ceb81090-b40e-47dd-bc35-8598d269ef58","system_id":"levelo_inurba_marseille","lat":43.26663,"lon":5.38431,"is_reserved":false,"is_disabled":false,"rental_uris":{"android":"levelo://app?vid=ceb81090-b40e-47dd-bc35-8598d269ef58","ios":"levelo://app?vid=ceb81090-b40e-47dd-bc35-8598d269ef58"},"vehicle_type_id":"4","last_reported":1748337092,"current_range_meters":13600,"station_id":"","pricing_plan_id":"cebpf4jnsgd1na2vs0mg"},{"bike_id":"8a1b7b57-e5d3-405a-b842-f606ffd5479d","system_id":"levelo_inurba_marseille","lat":43.24883,"lon":5.37498,"is_reserved":false,"is_disabled":false,"rental_uris":{"android":"levelo://app?vid=8a1b7b57-e5d3-405a-b842-f606ffd5479d","ios":"levelo://app?vid=8a1b7b57-e5d3-405a-b842-f606ffd5479d"},"vehicle_type_id":"4","last_reported":1748337092,"current_range_meters":13600,"station_id":"","pricing_plan_id":"cebpf4jnsgd1na2vs0mg"},{"bike_id":"16870941-3cf8-4fcc-91ac-b41d328134bc","system_id":"levelo_inurba_marseille","lat":43.31688,"lon":5.40481,"is_reserved":false,"is_disabled":false,"rental_uris":{"android":"levelo://app?vid=16870941-3cf8-4fcc-91ac-b41d328134bc","ios":"levelo://app?vid=16870941-3cf8-4fcc-91ac-b41d328134bc"},"vehicle_type_id":"4","last_reported":1748337092,"current_range_meters":13600,"station_id":"ce4bh012rcd13ifvqd00","pricing_plan_id":"cebpf4jnsgd1na2vs0mg"},{"bike_id":"e02448a0-3844-4145-b6e3-b327403c02f6","system_id":"levelo_inurba_marseille","lat":43.25951,"lon":5.40889,"is_reserved":false,"is_disabled":false,"rental_uris":{"android":"levelo://app?vid=e02448a0-3844-4145-b6e3-b327403c02f6","ios":"levelo://app?vid=e02448a0-3844-4145-b6e3-b327403c02f6"},"vehicle_type_id":"4","last_reported":1748337092,"current_range_meters":13600,"station_id":"ce4bhm92rcd13ifvqglg","pricing_plan_id":"cebpf4jnsgd1na2vs0mg"},{"bike_id":"e5c82b4c-e30f-487a-ae65-76f66da567ea","system_id":"levelo_inurba_marseille","lat":43.32345,"lon":5.36697,"is_reserved":false,"is_disabled":false,"rental_uris":{"android":"levelo://app?vid=e5c82b4c-e30f-487a-ae65-76f66da567ea","ios":"levelo://app?vid=e5c82b4c-e30f-487a-ae65-76f66da567ea"},"vehicle_type_id":"4","last_reported":1748337092,"current_range_meters":13600,"station_id":"ce4bhsh2rcd13ifvqi2g","pricing_plan_id":"cebpf4jnsgd1na2vs0mg"},{"bike_id":"636e1f89-3248-486d-b0de-58d805dd7f17","system_id":"levelo_inurba_marseille","lat":43.29379,"lon":5.37858,"is_reserved":false,"is_disabled":false,"rental_uris":{"android":"levelo://app?vid=636e1f89-3248-486d-b0de-58d805dd7f17","ios":"levelo://app?vid=636e1f89-3248-486d-b0de-58d805dd7f17"},"vehicle_type_id":"4","last_reported":1748337092,"current_range_meters":14000,"station_id":"ce4bgjh2rcd13ifvqbf0","pricing_plan_id":"cebpf4jnsgd1na2vs0mg"},{"bike_id":"03a878d5-7464-43c2-bb12-8804355fff55","system_id":"levelo_inurba_marseille","lat":43.25594,"lon":5.38233,"is_reserved":false,"is_disabled":false,"rental_uris":{"android":"levelo://app?vid=03a878d5-7464-43c2-bb12-8804355fff55","ios":"levelo://app?vid=03a878d5-7464-43c2-bb12-8804355fff55"},"vehicle_type_id":"4","last_reported":1748337092,"current_range_meters":14000,"station_id":"ce4bhih2rcd13ifvqfs0","pricing_plan_id":"cebpf4jnsgd1na2vs0mg"},{"bike_id":"0faa77cd-73c9-4445-b2e2-e790c9db7859","system_id":"levelo_inurba_marseille","lat":43.25589,"lon":5.38253,"is_reserved":false,"is_disabled":false,"rental_uris":{"android":"levelo://app?vid=0faa77cd-73c9-4445-b2e2-e790c9db7859","ios":"levelo://app?vid=0faa77cd-73c9-4445-b2e2-e790c9db7859"},"vehicle_type_id":"4","last_reported":1748337092,"current_range_meters":14000,"station_id":"ce4bhih2rcd13ifvqfs0","pricing_plan_id":"cebpf4jnsgd1na2vs0mg"},{"bike_id":"e113429b-222d-4f6d-9814-e3b93bf8685c","system_id":"levelo_inurba_marseille","lat":43.25924,"lon":5.40849,"is_reserved":false,"is_disabled":false,"rental_uris":{"android":"levelo://app?vid=e113429b-222d-4f6d-9814-e3b93bf8685c","ios":"levelo://app?vid=e113429b-222d-4f6d-9814-e3b93bf8685c"},"vehicle_type_id":"4","last_reported":1748337092,"current_range_meters":14000,"station_id":"ce4bhm92rcd13ifvqglg","pricing_plan_id":"cebpf4jnsgd1na2vs0mg"},{"bike_id":"c1ea287e-557e-4f96-9299-d911775493d9","system_id":"levelo_inurba_marseille","lat":43.25936,"lon":5.40901,"is_reserved":false,"is_disabled":false,"rental_uris":{"android":"levelo://app?vid=c1ea287e-557e-4f96-9299-d911775493d9","ios":"levelo://app?vid=c1ea287e-557e-4f96-9299-d911775493d9"},"vehicle_type_id":"4","last_reported":1748337092,"current_range_meters":14000,"station_id":"ce4bhm92rcd13ifvqglg","pricing_plan_id":"cebpf4jnsgd1na2vs0mg"},{"bike_id":"91778dc6-5ac3-4d73-a11f-9b1ddc717184","system_id":"levelo_inurba_marseille","lat":43.23182,"lon":5.39965,"is_reserved":false,"is_disabled":false,"rental_uris":{"android":"levelo://app?vid=91778dc6-5ac3-4d73-a11f-9b1ddc717184","ios":"levelo://app?vid=91778dc6-5ac3-4d73-a11f-9b1ddc717184"},"vehicle_type_id":"4","last_reported":1748337092,"current_range_meters":14000,"station_id":"ce4bhn12rcd13ifvqgqg","pricing_plan_id":"cebpf4jnsgd1na2vs0mg"},{"bike_id":"a40588ee-00f9-4620-a7e7-03b577ebbb6e","system_id":"levelo_inurba_marseille","lat":43.23197,"lon":5.40009,"is_reserved":false,"is_disabled":false,"rental_uris":{"android":"levelo://app?vid=a40588ee-00f9-4620-a7e7-03b577ebbb6e","ios":"levelo://app?vid=a40588ee-00f9-4620-a7e7-03b577ebbb6e"},"vehicle_type_id":"4","last_reported":1748337092,"current_range_meters":14000,"station_id":"ce4bhn12rcd13ifvqgqg","pricing_plan_id":"cebpf4jnsgd1na2vs0mg"},{"bike_id":"064e6fa0-0d7c-4ec8-b1ad-7f69178c75b7","system_id":"levelo_inurba_marseille","lat":43.298989,"lon":5.436754,"is_reserved":false,"is_disabled":false,"rental_uris":{"android":"levelo://app?vid=064e6fa0-0d7c-4ec8-b1ad-7f69178c75b7","ios":"levelo://app?vid=064e6fa0-0d7c-4ec8-b1ad-7f69178c75b7"},"vehicle_type_id":"4","last_reported":1748337092,"current_range_meters":14000,"station_id":"ce4bhpp2rcd13ifvqhfg","pricing_plan_id":"cebpf4jnsgd1na2vs0mg"},{"bike_id":"ade626e2-c9d9-42b7-b26b-cdded97b1af7","system_id":"levelo_inurba_marseille","lat":43.25917,"lon":5.40862,"is_reserved":false,"is_disabled":false,"rental_uris":{"android":"levelo://app?vid=ade626e2-c9d9-42b7-b26b-cdded97b1af7","ios":"levelo://app?vid=ade626e2-c9d9-42b7-b26b-cdded97b1af7"},"vehicle_type_id":"4","last_reported":1748337092,"current_range_meters":14400,"station_id":"ce4bhm92rcd13ifvqglg","pricing_plan_id":"cebpf4jnsgd1na2vs0mg"},{"bike_id":"af4d3c08-fbff-43a2-ab9c-1e8f68b50302","system_id":"levelo_inurba_marseille","lat":43.32496,"lon":5.36578,"is_reserved":false,"is_disabled":false,"rental_uris":{"android":"levelo://app?vid=af4d3c08-fbff-43a2-ab9c-1e8f68b50302","ios":"levelo://app?vid=af4d3c08-fbff-43a2-ab9c-1e8f68b50302"},"vehicle_type_id":"4","last_reported":1748337092,"current_range_meters":14400,"station_id":"ce4bhs12rcd13ifvqhvg","pricing_plan_id":"cebpf4jnsgd1na2vs0mg"},{"bike_id":"59be5d3d-ccf7-4ada-9d8b-91dac08e748f","system_id":"levelo_inurba_marseille","lat":43.30913,"lon":5.36867,"is_reserved":false,"is_disabled":false,"rental_uris":{"android":"levelo://app?vid=59be5d3d-ccf7-4ada-9d8b-91dac08e748f","ios":"levelo://app?vid=59be5d3d-ccf7-4ada-9d8b-91dac08e748f"},"vehicle_type_id":"4","last_reported":1748337092,"current_range_meters":14800,"station_id":"ce4bgn92rcd13ifvqbvg","pricing_plan_id":"cebpf4jnsgd1na2vs0mg"},{"bike_id":"01fb0934-c8b9-4fd3-a118-fc6aab7694f9","system_id":"levelo_inurba_marseille","lat":43.30497,"lon":5.36498,"is_reserved":false,"is_disabled":false,"rental_uris":{"android":"levelo://app?vid=01fb0934-c8b9-4fd3-a118-fc6aab7694f9","ios":"levelo://app?vid=01fb0934-c8b9-4fd3-a118-fc6aab7694f9"},"vehicle_type_id":"4","last_reported":1748337092,"current_range_meters":15200,"station_id":"","pricing_plan_id":"cebpf4jnsgd1na2vs0mg"},{"bike_id":"c72ffc93-1e5a-4311-bd65-9146276caa8e","system_id":"levelo_inurba_marseille","lat":43.29301,"lon":5.3746,"is_reserved":false,"is_disabled":false,"rental_uris":{"android":"levelo://app?vid=c72ffc93-1e5a-4311-bd65-9146276caa8e","ios":"levelo://app?vid=c72ffc93-1e5a-4311-bd65-9146276caa8e"},"vehicle_type_id":"4","last_reported":1748337092,"current_range_meters":15200,"station_id":"ce4bgi12rcd13ifvqb70","pricing_plan_id":"cebpf4jnsgd1na2vs0mg"},{"bike_id":"980e8cca-89ef-4b30-82fe-412e2b552861","system_id":"levelo_inurba_marseille","lat":43.31236,"lon":5.36875,"is_reserved":false,"is_disabled":false,"rental_uris":{"android":"levelo://app?vid=980e8cca-89ef-4b30-82fe-412e2b552861","ios":"levelo://app?vid=980e8cca-89ef-4b30-82fe-412e2b552861"},"vehicle_type_id":"4","last_reported":1748337092,"current_range_meters":15200,"station_id":"ce4bgl92rcd13ifvqbq0","pricing_plan_id":"cebpf4jnsgd1na2vs0mg"},{"bike_id":"9198b550-c5cf-463c-bb76-767cf162342b","system_id":"levelo_inurba_marseille","lat":43.25572,"lon":5.38225,"is_reserved":false,"is_disabled":false,"rental_uris":{"android":"levelo://app?vid=9198b550-c5cf-463c-bb76-767cf162342b","ios":"levelo://app?vid=9198b550-c5cf-463c-bb76-767cf162342b"},"vehicle_type_id":"4","last_reported":1748337092,"current_range_meters":15200,"station_id":"ce4bhih2rcd13ifvqfs0","pricing_plan_id":"cebpf4jnsgd1na2vs0mg"},{"bike_id":"3ca578f3-f6b6-487e-b8e7-abd4707c54dd","system_id":"levelo_inurba_marseille","lat":43.259354,"lon":5.409033,"is_reserved":false,"is_disabled":false,"rental_uris":{"android":"levelo://app?vid=3ca578f3-f6b6-487e-b8e7-abd4707c54dd","ios":"levelo://app?vid=3ca578f3-f6b6-487e-b8e7-abd4707c54dd"},"vehicle_type_id":"4","last_reported":1748337092,"current_range_meters":15200,"station_id":"ce4bhm92rcd13ifvqglg","pricing_plan_id":"cebpf4jnsgd1na2vs0mg"},{"bike_id":"dbec5777-e1be-405e-94c6-afded2aa4329","system_id":"levelo_inurba_marseille","lat":43.30389,"lon":5.42487,"is_reserved":false,"is_disabled":false,"rental_uris":{"android":"levelo://app?vid=dbec5777-e1be-405e-94c6-afded2aa4329","ios":"levelo://app?vid=dbec5777-e1be-405e-94c6-afded2aa4329"},"vehicle_type_id":"4","last_reported":1748337092,"current_range_meters":15200,"station_id":"ce4bhoh2rcd13ifvqh6g","pricing_plan_id":"cebpf4jnsgd1na2vs0mg"},{"bike_id":"c359ce31-503c-4864-81a4-8b7ff30ded70","system_id":"levelo_inurba_marseille","lat":43.32459,"lon":5.365747,"is_reserved":false,"is_disabled":false,"rental_uris":{"android":"levelo://app?vid=c359ce31-503c-4864-81a4-8b7ff30ded70","ios":"levelo://app?vid=c359ce31-503c-4864-81a4-8b7ff30ded70"},"vehicle_type_id":"4","last_reported":1748337092,"current_range_meters":15200,"station_id":"ce4bhs12rcd13ifvqhvg","pricing_plan_id":"cebpf4jnsgd1na2vs0mg"},{"bike_id":"4c4cc050-34b8-4579-9269-4ad5e67b243a","system_id":"levelo_inurba_marseille","lat":43.28711,"lon":5.3793,"is_reserved":false,"is_disabled":false,"rental_uris":{"android":"levelo://app?vid=4c4cc050-34b8-4579-9269-4ad5e67b243a","ios":"levelo://app?vid=4c4cc050-34b8-4579-9269-4ad5e67b243a"},"vehicle_type_id":"4","last_reported":1748337092,"current_range_meters":16000,"station_id":"ce4bh9p2rcd13ifvqec0","pricing_plan_id":"cebpf4jnsgd1na2vs0mg"},{"bike_id":"0298550e-f6fc-452f-9590-1d55a14697e8","system_id":"levelo_inurba_marseille","lat":43.28431,"lon":5.34958,"is_reserved":false,"is_disabled":false,"rental_uris":{"android":"levelo://app?vid=0298550e-f6fc-452f-9590-1d55a14697e8","ios":"levelo://app?vid=0298550e-f6fc-452f-9590-1d55a14697e8"},"vehicle_type_id":"4","last_reported":1748337092,"current_range_meters":16000,"station_id":"ce4bhbh2rcd13ifvqepg","pricing_plan_id":"cebpf4jnsgd1na2vs0mg"},{"bike_id":"91c7b8b2-33a5-4479-a86d-0eb969f17036","system_id":"levelo_inurba_marseille","lat":43.23184,"lon":5.39991,"is_reserved":false,"is_disabled":false,"rental_uris":{"android":"levelo://app?vid=91c7b8b2-33a5-4479-a86d-0eb969f17036","ios":"levelo://app?vid=91c7b8b2-33a5-4479-a86d-0eb969f17036"},"vehicle_type_id":"4","last_reported":1748337092,"current_range_meters":16000,"station_id":"ce4bhn12rcd13ifvqgqg","pricing_plan_id":"cebpf4jnsgd1na2vs0mg"},{"bike_id":"b9feece3-8db7-4d9c-b5c4-3d592ac61b90","system_id":"levelo_inurba_marseille","lat":43.291848,"lon":5.358085,"is_reserved":false,"is_disabled":false,"rental_uris":{"android":"levelo://app?vid=b9feece3-8db7-4d9c-b5c4-3d592ac61b90","ios":"levelo://app?vid=b9feece3-8db7-4d9c-b5c4-3d592ac61b90"},"vehicle_type_id":"4","last_reported":1748337092,"current_range_meters":16400,"station_id":"","pricing_plan_id":"cebpf4jnsgd1na2vs0mg"},{"bike_id":"e5c41bcc-15b4-4856-a15a-1d642ce07776","system_id":"levelo_inurba_marseille","lat":43.29848,"lon":5.36279,"is_reserved":false,"is_disabled":false,"rental_uris":{"android":"levelo://app?vid=e5c41bcc-15b4-4856-a15a-1d642ce07776","ios":"levelo://app?vid=e5c41bcc-15b4-4856-a15a-1d642ce07776"},"vehicle_type_id":"4","last_reported":1748337092,"current_range_meters":16400,"station_id":"ce4bgpp2rcd13ifvqc3g","pricing_plan_id":"cebpf4jnsgd1na2vs0mg"},{"bike_id":"251add03-efa8-487e-be76-924d4eee03a6","system_id":"levelo_inurba_marseille","lat":43.30535,"lon":5.36688,"is_reserved":false,"is_disabled":false,"rental_uris":{"android":"levelo://app?vid=251add03-efa8-487e-be76-924d4eee03a6","ios":"levelo://app?vid=251add03-efa8-487e-be76-924d4eee03a6"},"vehicle_type_id":"4","last_reported":1748337092,"current_range_meters":16400,"station_id":"ce4bgrp2rcd13ifvqc9g","pricing_plan_id":"cebpf4jnsgd1na2vs0mg"},{"bike_id":"0feb5fc7-c1f1-435d-b268-924592d7b8a0","system_id":"levelo_inurba_marseille","lat":43.30536,"lon":5.36695,"is_reserved":false,"is_disabled":false,"rental_uris":{"android":"levelo://app?vid=0feb5fc7-c1f1-435d-b268-924592d7b8a0","ios":"levelo://app?vid=0feb5fc7-c1f1-435d-b268-924592d7b8a0"},"vehicle_type_id":"4","last_reported":1748337092,"current_range_meters":16400,"station_id":"ce4bgrp2rcd13ifvqc9g","pricing_plan_id":"cebpf4jnsgd1na2vs0mg"},{"bike_id":"4807cc62-6a9b-4bb6-9a64-b3c1da7dd454","system_id":"levelo_inurba_marseille","lat":43.30531,"lon":5.36549,"is_reserved":false,"is_disabled":false,"rental_uris":{"android":"levelo://app?vid=4807cc62-6a9b-4bb6-9a64-b3c1da7dd454","ios":"levelo://app?vid=4807cc62-6a9b-4bb6-9a64-b3c1da7dd454"},"vehicle_type_id":"4","last_reported":1748337092,"current_range_meters":16400,"station_id":"ce4bgs12rcd13ifvqcag","pricing_plan_id":"cebpf4jnsgd1na2vs0mg"},{"bike_id":"c859d98b-4afc-4666-b282-14ffe6c7cab8","system_id":"levelo_inurba_marseille","lat":43.28717,"lon":5.3795,"is_reserved":false,"is_disabled":false,"rental_uris":{"android":"levelo://app?vid=c859d98b-4afc-4666-b282-14ffe6c7cab8","ios":"levelo://app?vid=c859d98b-4afc-4666-b282-14ffe6c7cab8"},"vehicle_type_id":"4","last_reported":1748337092,"current_range_meters":16400,"station_id":"ce4bh9p2rcd13ifvqec0","pricing_plan_id":"cebpf4jnsgd1na2vs0mg"},{"bike_id":"05979feb-1446-4c15-aac7-282f043c0049","system_id":"levelo_inurba_marseille","lat":43.26558,"lon":5.39004,"is_reserved":false,"is_disabled":false,"rental_uris":{"android":"levelo://app?vid=05979feb-1446-4c15-aac7-282f043c0049","ios":"levelo://app?vid=05979feb-1446-4c15-aac7-282f043c0049"},"vehicle_type_id":"4","last_reported":1748337092,"current_range_meters":16400,"station_id":"ce4bhe12rcd13ifvqf30","pricing_plan_id":"cebpf4jnsgd1na2vs0mg"},{"bike_id":"9fdac073-4a87-4d1f-8797-f859be7ad104","system_id":"levelo_inurba_marseille","lat":43.25006,"lon":5.38925,"is_reserved":false,"is_disabled":false,"rental_uris":{"android":"levelo://app?vid=9fdac073-4a87-4d1f-8797-f859be7ad104","ios":"levelo://app?vid=9fdac073-4a87-4d1f-8797-f859be7ad104"},"vehicle_type_id":"4","last_reported":1748337092,"current_range_meters":16400,"station_id":"ce4bhgp2rcd13ifvqfd0","pricing_plan_id":"cebpf4jnsgd1na2vs0mg"},{"bike_id":"34c85f29-fdda-482f-acf8-db1e2e9f946f","system_id":"levelo_inurba_marseille","lat":43.259374,"lon":5.409037,"is_reserved":false,"is_disabled":false,"rental_uris":{"android":"levelo://app?vid=34c85f29-fdda-482f-acf8-db1e2e9f946f","ios":"levelo://app?vid=34c85f29-fdda-482f-acf8-db1e2e9f946f"},"vehicle_type_id":"4","last_reported":1748337092,"current_range_meters":16400,"station_id":"ce4bhm92rcd13ifvqglg","pricing_plan_id":"cebpf4jnsgd1na2vs0mg"},{"bike_id":"69ac8acb-6816-4e3d-b61e-e01a1548e4df","system_id":"levelo_inurba_marseille","lat":43.23147,"lon":5.43723,"is_reserved":false,"is_disabled":false,"rental_uris":{"android":"levelo://app?vid=69ac8acb-6816-4e3d-b61e-e01a1548e4df","ios":"levelo://app?vid=69ac8acb-6816-4e3d-b61e-e01a1548e4df"},"vehicle_type_id":"4","last_reported":1748337092,"current_range_meters":16400,"station_id":"ce4bhmp2rcd13ifvqgog","pricing_plan_id":"cebpf4jnsgd1na2vs0mg"},{"bike_id":"b9fa2087-e906-4b59-a728-8662eb964473","system_id":"levelo_inurba_marseille","lat":43.2408,"lon":5.37757,"is_reserved":false,"is_disabled":false,"rental_uris":{"android":"levelo://app?vid=b9fa2087-e906-4b59-a728-8662eb964473","ios":"levelo://app?vid=b9fa2087-e906-4b59-a728-8662eb964473"},"vehicle_type_id":"4","last_reported":1748337092,"current_range_meters":16400,"station_id":"ce4bhnp2rcd13ifvqgvg","pricing_plan_id":"cebpf4jnsgd1na2vs0mg"},{"bike_id":"bcaed641-032b-433f-8a0a-283ee03d0a12","system_id":"levelo_inurba_marseille","lat":43.21209,"lon":5.35077,"is_reserved":false,"is_disabled":false,"rental_uris":{"android":"levelo://app?vid=bcaed641-032b-433f-8a0a-283ee03d0a12","ios":"levelo://app?vid=bcaed641-032b-433f-8a0a-283ee03d0a12"},"vehicle_type_id":"4","last_reported":1748337092,"current_range_meters":16400,"station_id":"st_cvj6sg6p6f1abm77japg","pricing_plan_id":"cebpf4jnsgd1na2vs0mg"},{"bike_id":"3e0e8113-701c-4b70-a076-81563c4ee92f","system_id":"levelo_inurba_marseille","lat":43.30543,"lon":5.36531,"is_reserved":false,"is_disabled":false,"rental_uris":{"android":"levelo://app?vid=3e0e8113-701c-4b70-a076-81563c4ee92f","ios":"levelo://app?vid=3e0e8113-701c-4b70-a076-81563c4ee92f"},"vehicle_type_id":"4","last_reported":1748337092,"current_range_meters":16800,"station_id":"ce4bgs12rcd13ifvqcag","pricing_plan_id":"cebpf4jnsgd1na2vs0mg"},{"bike_id":"e21355d0-d87e-4401-86dd-5f9df401d5d3","system_id":"levelo_inurba_marseille","lat":43.30551,"lon":5.36532,"is_reserved":false,"is_disabled":false,"rental_uris":{"android":"levelo://app?vid=e21355d0-d87e-4401-86dd-5f9df401d5d3","ios":"levelo://app?vid=e21355d0-d87e-4401-86dd-5f9df401d5d3"},"vehicle_type_id":"4","last_reported":1748337092,"current_range_meters":16800,"station_id":"ce4bgs12rcd13ifvqcag","pricing_plan_id":"cebpf4jnsgd1na2vs0mg"},{"bike_id":"c0501524-0d98-40ab-88c9-d8ed6f25f1ab","system_id":"levelo_inurba_marseille","lat":43.290102,"lon":5.356175,"is_reserved":false,"is_disabled":false,"rental_uris":{"android":"levelo://app?vid=c0501524-0d98-40ab-88c9-d8ed6f25f1ab","ios":"levelo://app?vid=c0501524-0d98-40ab-88c9-d8ed6f25f1ab"},"vehicle_type_id":"4","last_reported":1748337092,"current_range_meters":16800,"station_id":"ce4bhb92rcd13ifvqen0","pricing_plan_id":"cebpf4jnsgd1na2vs0mg"},{"bike_id":"a0dd592e-70a8-4c4f-a365-46d0d7c017ac","system_id":"levelo_inurba_marseille","lat":43.263105,"lon":5.374172,"is_reserved":false,"is_disabled":false,"rental_uris":{"android":"levelo://app?vid=a0dd592e-70a8-4c4f-a365-46d0d7c017ac","ios":"levelo://app?vid=a0dd592e-70a8-4c4f-a365-46d0d7c017ac"},"vehicle_type_id":"4","last_reported":1748337092,"current_range_meters":16800,"station_id":"ce4bhbh2rcd13ifvqeo0","pricing_plan_id":"cebpf4jnsgd1na2vs0mg"},{"bike_id":"d4bcc636-6bd2-4d89-a14b-857f593b977a","system_id":"levelo_inurba_marseille","lat":43.25578,"lon":5.3824,"is_reserved":false,"is_disabled":false,"rental_uris":{"android":"levelo://app?vid=d4bcc636-6bd2-4d89-a14b-857f593b977a","ios":"levelo://app?vid=d4bcc636-6bd2-4d89-a14b-857f593b977a"},"vehicle_type_id":"4","last_reported":1748337092,"current_range_meters":16800,"station_id":"ce4bhih2rcd13ifvqfs0","pricing_plan_id":"cebpf4jnsgd1na2vs0mg"},{"bike_id":"d4658d7d-793c-4023-9862-bd1266c0df4c","system_id":"levelo_inurba_marseille","lat":43.25707,"lon":5.41105,"is_reserved":false,"is_disabled":false,"rental_uris":{"android":"levelo://app?vid=d4658d7d-793c-4023-9862-bd1266c0df4c","ios":"levelo://app?vid=d4658d7d-793c-4023-9862-bd1266c0df4c"},"vehicle_type_id":"4","last_reported":1748337092,"current_range_meters":16800,"station_id":"ce4bhkp2rcd13ifvqgd0","pricing_plan_id":"cebpf4jnsgd1na2vs0mg"},{"bike_id":"5226cef5-05f9-42fd-b5bb-0d90ff96286b","system_id":"levelo_inurba_marseille","lat":43.24179,"lon":5.3973,"is_reserved":false,"is_disabled":false,"rental_uris":{"android":"levelo://app?vid=5226cef5-05f9-42fd-b5bb-0d90ff96286b","ios":"levelo://app?vid=5226cef5-05f9-42fd-b5bb-0d90ff96286b"},"vehicle_type_id":"4","last_reported":1748337092,"current_range_meters":16800,"station_id":"ce4bhn12rcd13ifvqgpg","pricing_plan_id":"cebpf4jnsgd1na2vs0mg"},{"bike_id":"134c70cc-46f1-414c-ba60-b99ba2b4a992","system_id":"levelo_inurba_marseille","lat":43.34747,"lon":5.35127,"is_reserved":false,"is_disabled":false,"rental_uris":{"android":"levelo://app?vid=134c70cc-46f1-414c-ba60-b99ba2b4a992","ios":"levelo://app?vid=134c70cc-46f1-414c-ba60-b99ba2b4a992"},"vehicle_type_id":"4","last_reported":1748337092,"current_range_meters":17200,"station_id":"","pricing_plan_id":"cebpf4jnsgd1na2vs0mg"},{"bike_id":"8734f14a-29fa-4cbe-8c09-7e23aa0e08a6","system_id":"levelo_inurba_marseille","lat":43.29576,"lon":5.374997,"is_reserved":false,"is_disabled":false,"rental_uris":{"android":"levelo://app?vid=8734f14a-29fa-4cbe-8c09-7e23aa0e08a6","ios":"levelo://app?vid=8734f14a-29fa-4cbe-8c09-7e23aa0e08a6"},"vehicle_type_id":"4","last_reported":1748337092,"current_range_meters":17200,"station_id":"ce4bgh92rcd13ifvqb50","pricing_plan_id":"cebpf4jnsgd1na2vs0mg"},{"bike_id":"0e8dcc92-08cd-4501-aca1-fa90a8bf6352","system_id":"levelo_inurba_marseille","lat":43.297024,"lon":5.376934,"is_reserved":false,"is_disabled":false,"rental_uris":{"android":"levelo://app?vid=0e8dcc92-08cd-4501-aca1-fa90a8bf6352","ios":"levelo://app?vid=0e8dcc92-08cd-4501-aca1-fa90a8bf6352"},"vehicle_type_id":"4","last_reported":1748337092,"current_range_meters":17200,"station_id":"ce4bgkh2rcd13ifvqbl0","pricing_plan_id":"cebpf4jnsgd1na2vs0mg"},{"bike_id":"9b62adbe-9463-41bc-bd57-a93be9c28b84","system_id":"levelo_inurba_marseille","lat":43.30472,"lon":5.37909,"is_reserved":false,"is_disabled":false,"rental_uris":{"android":"levelo://app?vid=9b62adbe-9463-41bc-bd57-a93be9c28b84","ios":"levelo://app?vid=9b62adbe-9463-41bc-bd57-a93be9c28b84"},"vehicle_type_id":"4","last_reported":1748337092,"current_range_meters":17200,"station_id":"ce4bgup2rcd13ifvqcn0","pricing_plan_id":"cebpf4jnsgd1na2vs0mg"},{"bike_id":"a89d0ae8-94cc-4d0a-90d6-7b04a2ec97ff","system_id":"levelo_inurba_marseille","lat":43.28969,"lon":5.37839,"is_reserved":false,"is_disabled":false,"rental_uris":{"android":"levelo://app?vid=a89d0ae8-94cc-4d0a-90d6-7b04a2ec97ff","ios":"levelo://app?vid=a89d0ae8-94cc-4d0a-90d6-7b04a2ec97ff"},"vehicle_type_id":"4","last_reported":1748337092,"current_range_meters":17200,"station_id":"ce4bh9p2rcd13ifvqed0","pricing_plan_id":"cebpf4jnsgd1na2vs0mg"},{"bike_id":"f553d2bf-8903-4cef-afe7-aeb793950569","system_id":"levelo_inurba_marseille","lat":43.29264,"lon":5.36849,"is_reserved":false,"is_disabled":false,"rental_uris":{"android":"levelo://app?vid=f553d2bf-8903-4cef-afe7-aeb793950569","ios":"levelo://app?vid=f553d2bf-8903-4cef-afe7-aeb793950569"},"vehicle_type_id":"4","last_reported":1748337092,"current_range_meters":17200,"station_id":"ce4bhbp2rcd13ifvqesg","pricing_plan_id":"cebpf4jnsgd1na2vs0mg"},{"bike_id":"b03801a0-915c-496a-a3fa-9a549955af5c","system_id":"levelo_inurba_marseille","lat":43.2694,"lon":5.38913,"is_reserved":false,"is_disabled":false,"rental_uris":{"android":"levelo://app?vid=b03801a0-915c-496a-a3fa-9a549955af5c","ios":"levelo://app?vid=b03801a0-915c-496a-a3fa-9a549955af5c"},"vehicle_type_id":"4","last_reported":1748337092,"current_range_meters":17200,"station_id":"ce4bhhh2rcd13ifvqfl0","pricing_plan_id":"cebpf4jnsgd1na2vs0mg"},{"bike_id":"7d4a633a-007f-4407-ae99-b56b5e19205d","system_id":"levelo_inurba_marseille","lat":43.23189,"lon":5.39981,"is_reserved":false,"is_disabled":false,"rental_uris":{"android":"levelo://app?vid=7d4a633a-007f-4407-ae99-b56b5e19205d","ios":"levelo://app?vid=7d4a633a-007f-4407-ae99-b56b5e19205d"},"vehicle_type_id":"4","last_reported":1748337092,"current_range_meters":17200,"station_id":"ce4bhn12rcd13ifvqgqg","pricing_plan_id":"cebpf4jnsgd1na2vs0mg"},{"bike_id":"cc56ac32-4df7-425c-aa5c-1d586a1201b2","system_id":"levelo_inurba_marseille","lat":43.31712,"lon":5.43688,"is_reserved":false,"is_disabled":false,"rental_uris":{"android":"levelo://app?vid=cc56ac32-4df7-425c-aa5c-1d586a1201b2","ios":"levelo://app?vid=cc56ac32-4df7-425c-aa5c-1d586a1201b2"},"vehicle_type_id":"4","last_reported":1748337092,"current_range_meters":17200,"station_id":"ce4bhp92rcd13ifvqhcg","pricing_plan_id":"cebpf4jnsgd1na2vs0mg"},{"bike_id":"840b0819-618c-4bab-87c1-44f88a9308cb","system_id":"levelo_inurba_marseille","lat":43.313583,"lon":5.367037,"is_reserved":false,"is_disabled":false,"rental_uris":{"android":"levelo://app?vid=840b0819-618c-4bab-87c1-44f88a9308cb","ios":"levelo://app?vid=840b0819-618c-4bab-87c1-44f88a9308cb"},"vehicle_type_id":"4","last_reported":1748337092,"current_range_meters":17600,"station_id":"ce4bgr92rcd13ifvqc6g","pricing_plan_id":"cebpf4jnsgd1na2vs0mg"},{"bike_id":"56145a22-f7a6-42f4-a5c7-e93b09385f21","system_id":"levelo_inurba_marseille","lat":43.29263,"lon":5.40902,"is_reserved":false,"is_disabled":false,"rental_uris":{"android":"levelo://app?vid=56145a22-f7a6-42f4-a5c7-e93b09385f21","ios":"levelo://app?vid=56145a22-f7a6-42f4-a5c7-e93b09385f21"},"vehicle_type_id":"4","last_reported":1748337092,"current_range_meters":17600,"station_id":"ce4bh192rcd13ifvqdc0","pricing_plan_id":"cebpf4jnsgd1na2vs0mg"},{"bike_id":"f4a70a9d-d0f0-46b7-a227-a067305c7a52","system_id":"levelo_inurba_marseille","lat":43.28943,"lon":5.39639,"is_reserved":false,"is_disabled":false,"rental_uris":{"android":"levelo://app?vid=f4a70a9d-d0f0-46b7-a227-a067305c7a52","ios":"levelo://app?vid=f4a70a9d-d0f0-46b7-a227-a067305c7a52"},"vehicle_type_id":"4","last_reported":1748337092,"current_range_meters":17600,"station_id":"ce4bh3h2rcd13ifvqdn0","pricing_plan_id":"cebpf4jnsgd1na2vs0mg"},{"bike_id":"44ec1f37-be60-49e4-bb5a-83e871444fde","system_id":"levelo_inurba_marseille","lat":43.290045,"lon":5.356169,"is_reserved":false,"is_disabled":false,"rental_uris":{"android":"levelo://app?vid=44ec1f37-be60-49e4-bb5a-83e871444fde","ios":"levelo://app?vid=44ec1f37-be60-49e4-bb5a-83e871444fde"},"vehicle_type_id":"4","last_reported":1748337092,"current_range_meters":17600,"station_id":"ce4bhb92rcd13ifvqen0","pricing_plan_id":"cebpf4jnsgd1na2vs0mg"},{"bike_id":"1dafdf51-656d-4975-819b-79ae74d93918","system_id":"levelo_inurba_marseille","lat":43.23171,"lon":5.43681,"is_reserved":false,"is_disabled":false,"rental_uris":{"android":"levelo://app?vid=1dafdf51-656d-4975-819b-79ae74d93918","ios":"levelo://app?vid=1dafdf51-656d-4975-819b-79ae74d93918"},"vehicle_type_id":"4","last_reported":1748337092,"current_range_meters":17600,"station_id":"ce4bhmp2rcd13ifvqgog","pricing_plan_id":"cebpf4jnsgd1na2vs0mg"},{"bike_id":"4c21e0f4-f427-48d3-9bb6-91b49541c78b","system_id":"levelo_inurba_marseille","lat":43.31886,"lon":5.40744,"is_reserved":false,"is_disabled":false,"rental_uris":{"android":"levelo://app?vid=4c21e0f4-f427-48d3-9bb6-91b49541c78b","ios":"levelo://app?vid=4c21e0f4-f427-48d3-9bb6-91b49541c78b"},"vehicle_type_id":"4","last_reported":1748337092,"current_range_meters":17600,"station_id":"ce4bhq12rcd13ifvqhig","pricing_plan_id":"cebpf4jnsgd1na2vs0mg"},{"bike_id":"ed9771b0-7eaa-495d-943a-62208655fa9c","system_id":"levelo_inurba_marseille","lat":43.31564,"lon":5.38371,"is_reserved":false,"is_disabled":false,"rental_uris":{"android":"levelo://app?vid=ed9771b0-7eaa-495d-943a-62208655fa9c","ios":"levelo://app?vid=ed9771b0-7eaa-495d-943a-62208655fa9c"},"vehicle_type_id":"4","last_reported":1748337092,"current_range_meters":18000,"station_id":"","pricing_plan_id":"cebpf4jnsgd1na2vs0mg"},{"bike_id":"6228d6a1-fcab-462d-ba63-e03503892b52","system_id":"levelo_inurba_marseille","lat":43.31229,"lon":5.36864,"is_reserved":false,"is_disabled":false,"rental_uris":{"android":"levelo://app?vid=6228d6a1-fcab-462d-ba63-e03503892b52","ios":"levelo://app?vid=6228d6a1-fcab-462d-ba63-e03503892b52"},"vehicle_type_id":"4","last_reported":1748337092,"current_range_meters":18000,"station_id":"ce4bgl92rcd13ifvqbq0","pricing_plan_id":"cebpf4jnsgd1na2vs0mg"},{"bike_id":"6f23f62d-638d-405a-a986-d591fccb4076","system_id":"levelo_inurba_marseille","lat":43.28276,"lon":5.35068,"is_reserved":false,"is_disabled":false,"rental_uris":{"android":"levelo://app?vid=6f23f62d-638d-405a-a986-d591fccb4076","ios":"levelo://app?vid=6f23f62d-638d-405a-a986-d591fccb4076"},"vehicle_type_id":"4","last_reported":1748337092,"current_range_meters":18000,"station_id":"ce4bhbp2rcd13ifvqerg","pricing_plan_id":"cebpf4jnsgd1na2vs0mg"},{"bike_id":"95e4abe4-1522-4bd3-a549-2f840eea18de","system_id":"levelo_inurba_marseille","lat":43.27174,"lon":5.40999,"is_reserved":false,"is_disabled":false,"rental_uris":{"android":"levelo://app?vid=95e4abe4-1522-4bd3-a549-2f840eea18de","ios":"levelo://app?vid=95e4abe4-1522-4bd3-a549-2f840eea18de"},"vehicle_type_id":"4","last_reported":1748337092,"current_range_meters":18000,"station_id":"ce4bhl12rcd13ifvqgf0","pricing_plan_id":"cebpf4jnsgd1na2vs0mg"},{"bike_id":"98cbf70d-d9f6-4b71-bf03-63425172bed7","system_id":"levelo_inurba_marseille","lat":43.23146,"lon":5.43717,"is_reserved":false,"is_disabled":false,"rental_uris":{"android":"levelo://app?vid=98cbf70d-d9f6-4b71-bf03-63425172bed7","ios":"levelo://app?vid=98cbf70d-d9f6-4b71-bf03-63425172bed7"},"vehicle_type_id":"4","last_reported":1748337092,"current_range_meters":18000,"station_id":"ce4bhmp2rcd13ifvqgog","pricing_plan_id":"cebpf4jnsgd1na2vs0mg"},{"bike_id":"cce1f941-ac93-43b9-8849-8a7abeafc559","system_id":"levelo_inurba_marseille","lat":43.26804,"lon":5.40263,"is_reserved":false,"is_disabled":false,"rental_uris":{"android":"levelo://app?vid=cce1f941-ac93-43b9-8849-8a7abeafc559","ios":"levelo://app?vid=cce1f941-ac93-43b9-8849-8a7abeafc559"},"vehicle_type_id":"4","last_reported":1748337092,"current_range_meters":18000,"station_id":"ce501612rcd8frsf0b60","pricing_plan_id":"cebpf4jnsgd1na2vs0mg"},{"bike_id":"e603730e-e603-4cb3-a1c1-1f07bd783778","system_id":"levelo_inurba_marseille","lat":43.28179,"lon":5.39407,"is_reserved":false,"is_disabled":false,"rental_uris":{"android":"levelo://app?vid=e603730e-e603-4cb3-a1c1-1f07bd783778","ios":"levelo://app?vid=e603730e-e603-4cb3-a1c1-1f07bd783778"},"vehicle_type_id":"4","last_reported":1748337092,"current_range_meters":18800,"station_id":"","pricing_plan_id":"cebpf4jnsgd1na2vs0mg"},{"bike_id":"fc374944-cd63-4d3d-8efa-ce3bae07a3c1","system_id":"levelo_inurba_marseille","lat":43.31325,"lon":5.36736,"is_reserved":false,"is_disabled":false,"rental_uris":{"android":"levelo://app?vid=fc374944-cd63-4d3d-8efa-ce3bae07a3c1","ios":"levelo://app?vid=fc374944-cd63-4d3d-8efa-ce3bae07a3c1"},"vehicle_type_id":"4","last_reported":1748337092,"current_range_meters":18800,"station_id":"ce4bgr92rcd13ifvqc6g","pricing_plan_id":"cebpf4jnsgd1na2vs0mg"},{"bike_id":"329a6f0a-1f73-4e11-92f5-cd0525da8dd9","system_id":"levelo_inurba_marseille","lat":43.30147,"lon":5.37422,"is_reserved":false,"is_disabled":false,"rental_uris":{"android":"levelo://app?vid=329a6f0a-1f73-4e11-92f5-cd0525da8dd9","ios":"levelo://app?vid=329a6f0a-1f73-4e11-92f5-cd0525da8dd9"},"vehicle_type_id":"4","last_reported":1748337092,"current_range_meters":18800,"station_id":"ce4bgs92rcd13ifvqcc0","pricing_plan_id":"cebpf4jnsgd1na2vs0mg"},{"bike_id":"799d75e0-088b-4441-bd94-28f251fa8a3d","system_id":"levelo_inurba_marseille","lat":43.231364,"lon":5.437244,"is_reserved":false,"is_disabled":false,"rental_uris":{"android":"levelo://app?vid=799d75e0-088b-4441-bd94-28f251fa8a3d","ios":"levelo://app?vid=799d75e0-088b-4441-bd94-28f251fa8a3d"},"vehicle_type_id":"4","last_reported":1748337092,"current_range_meters":18800,"station_id":"ce4bhmp2rcd13ifvqgog","pricing_plan_id":"cebpf4jnsgd1na2vs0mg"},{"bike_id":"24695fcc-1634-4887-9a04-00f71eb609f0","system_id":"levelo_inurba_marseille","lat":43.23195,"lon":5.39977,"is_reserved":false,"is_disabled":false,"rental_uris":{"android":"levelo://app?vid=24695fcc-1634-4887-9a04-00f71eb609f0","ios":"levelo://app?vid=24695fcc-1634-4887-9a04-00f71eb609f0"},"vehicle_type_id":"4","last_reported":1748337092,"current_range_meters":18800,"station_id":"ce4bhn12rcd13ifvqgqg","pricing_plan_id":"cebpf4jnsgd1na2vs0mg"},{"bike_id":"af59f17a-80fa-4750-821c-16012142a2e3","system_id":"levelo_inurba_marseille","lat":43.33572,"lon":5.40979,"is_reserved":false,"is_disabled":false,"rental_uris":{"android":"levelo://app?vid=af59f17a-80fa-4750-821c-16012142a2e3","ios":"levelo://app?vid=af59f17a-80fa-4750-821c-16012142a2e3"},"vehicle_type_id":"4","last_reported":1748337092,"current_range_meters":19200,"station_id":"","pricing_plan_id":"cebpf4jnsgd1na2vs0mg"},{"bike_id":"3b07f020-3d8e-47eb-b723-de46e817e2a3","system_id":"levelo_inurba_marseille","lat":43.29771,"lon":5.38366,"is_reserved":false,"is_disabled":false,"rental_uris":{"android":"levelo://app?vid=3b07f020-3d8e-47eb-b723-de46e817e2a3","ios":"levelo://app?vid=3b07f020-3d8e-47eb-b723-de46e817e2a3"},"vehicle_type_id":"4","last_reported":1748337092,"current_range_meters":19200,"station_id":"","pricing_plan_id":"cebpf4jnsgd1na2vs0mg"},{"bike_id":"59114af0-ddc1-445c-bb5d-26567edf1ab1","system_id":"levelo_inurba_marseille","lat":43.32048,"lon":5.36286,"is_reserved":false,"is_disabled":false,"rental_uris":{"android":"levelo://app?vid=59114af0-ddc1-445c-bb5d-26567edf1ab1","ios":"levelo://app?vid=59114af0-ddc1-445c-bb5d-26567edf1ab1"},"vehicle_type_id":"4","last_reported":1748337092,"current_range_meters":19200,"station_id":"","pricing_plan_id":"cebpf4jnsgd1na2vs0mg"},{"bike_id":"ec5612cb-98f6-474d-af9e-4e3c8d95f3e3","system_id":"levelo_inurba_marseille","lat":43.292511,"lon":5.376264,"is_reserved":false,"is_disabled":false,"rental_uris":{"android":"levelo://app?vid=ec5612cb-98f6-474d-af9e-4e3c8d95f3e3","ios":"levelo://app?vid=ec5612cb-98f6-474d-af9e-4e3c8d95f3e3"},