{"last_updated":1705514955,"ttl":30,"version":"2.2","data":{"bikes":[{"bike_id":"bde9a313-f0b7-49d2-b695-7c2609d05c1e","system_id":"levelo_inurba_marseille","lat":43.313391,"lon":5.36706,"is_reserved":false,"is_disabled":false,"rental_uris":{"android":"levelo://app?vid=bde9a313-f0b7-49d2-b695-7c2609d05c1e","ios":"levelo://app?vid=bde9a313-f0b7-49d2-b695-7c2609d05c1e"},"vehicle_type_id":"4","last_reported":1705514955,"current_range_meters":20000,"station_id":"ce4bgr92rcd13ifvqc6g","pricing_plan_id":"free"},{"bike_id":"4338c0fa-a147-4395-b2df-614f80d3791e","system_id":"levelo_inurba_marseille","lat":43.313391,"lon":5.36706,"is_reserved":false,"is_disabled":false,"rental_uris":{"android":"levelo://app?vid=4338c0fa-a147-4395-b2df-614f80d3791e","ios":"levelo://app?vid=4338c0fa-a147-4395-b2df-614f80d3791e"},"vehicle_type_id":"4","last_reported":1705514955,"current_range_meters":25200,"station_id":"ce4bgr92rcd13ifvqc6g","pricing_plan_id":"free"},{"bike_id":"b583a396-5034-4f77-a306-795f95f6e1aa","system_id":"levelo_inurba_marseille","lat":43.313391,"lon":5.36706,"is_reserved":false,"is_disabled":false,"rental_uris":{"android":"levelo://app?vid=b583a396-5034-4f77-a306-795f95f6e1aa","ios":"levelo://app?vid=b583a396-5034-4f77-a306-795f95f6e1aa"},"vehicle_type_id":"4","last_reported":1705514955,"current_range_meters":26800,"station_id":"ce4bgr92rcd13ifvqc6g","pricing_plan_id":"free"},{"bike_id":"b971be56-0d34-41af-a304-2ab17fe49619","system_id":"levelo_inurba_marseille","lat":43.313391,"lon":5.36706,"is_reserved":false,"is_disabled":false,"rental_uris":{"android":"levelo://app?vid=b971be56-0d34-41af-a304-2ab17fe49619","ios":"levelo://app?vid=b971be56-0d34-41af-a304-2ab17fe49619"},"vehicle_type_id":"4","last_reported":1705514955,"current_range_meters":2800,"station_id":"ce4bgr92rcd13ifvqc6g","pricing_plan_id":"free"},{"bike_id":"50a57f4a-89a6-4468-b091-73bdd49f1de9","system_id":"levelo_inurba_marseille","lat":43.313391,"lon":5.36706,"is_reserved":false,"is_disabled":false,"rental_uris":{"android":"levelo://app?vid=50a57f4a-89a6-4468-b091-73bdd49f1de9","ios":"levelo://app?vid=50a57f4a-89a6-4468-b091-73bdd49f1de9"},"vehicle_type_id":"4","last_reported":1705514955,"current_range_meters":11200,"station_id":"ce4bgr92rcd13ifvqc6g","pricing_plan_id":"free"},{"bike_id":"5281a25d-f713-4966-a4be-4e58ac81736c","system_id":"levelo_inurba_marseille","lat":43.313391,"lon":5.36706,"is_reserved":false,"is_disabled":false,"rental_uris":{"android":"levelo://app?vid=5281a25d-f713-4966-a4be-4e58ac81736c","ios":"levelo://app?vid=5281a25d-f713-4966-a4be-4e58ac81736c"},"vehicle_type_id":"4","last_reported":1705514955,"current_range_meters":9600,"station_id":"ce4bgr92rcd13ifvqc6g","pricing_plan_id":"free"},{"bike_id":"ca02a1fc-4b5a-4862-b417-379c2ed087c9","system_id":"levelo_inurba_marseille","lat":43.312239,"lon":5.368562,"is_reserved":false,"is_disabled":false,"rental_uris":{"android":"levelo://app?vid=ca02a1fc-4b5a-4862-b417-379c2ed087c9","ios":"levelo://app?vid=ca02a1fc-4b5a-4862-b417-379c2ed087c9"},"vehicle_type_id":"4","last_reported":1705514955,"current_range_meters":11200,"station_id":"ce4bgl92rcd13ifvqbq0","pricing_plan_id":"free"},{"bike_id":"a70a786d-c26c-46ae-a2d3-16bd4d8a87ad","system_id":"levelo_inurba_marseille","lat":43.312239,"lon":5.368562,"is_reserved":false,"is_disabled":false,"rental_uris":{"android":"levelo://app?vid=a70a786d-c26c-46ae-a2d3-16bd4d8a87ad","ios":"levelo://app?vid=a70a786d-c26c-46ae-a2d3-16bd4d8a87ad"},"vehicle_type_id":"4","last_reported":1705514955,"current_range_meters":23600,"station_id":"ce4bgl92rcd13ifvqbq0","pricing_plan_id":"free"},{"bike_id":"95e050c9-115b-4651-8594-81df310c2c39","system_id":"levelo_inurba_marseille","lat":43.312239,"lon":5.368562,"is_reserved":false,"is_disabled":false,"rental_uris":{"android":"levelo://app?vid=95e050c9-115b-4651-8594-81df310c2c39","ios":"levelo://app?vid=95e050c9-115b-4651-8594-81df310c2c39"},"vehicle_type_id":"4","last_reported":1705514955,"current_range_meters":21200,"station_id":"ce4bgl92rcd13ifvqbq0","pricing_plan_id":"free"},{"bike_id":"f3f4a518-7714-4b0a-bd44-5859e8ab86d4","system_id":"levelo_inurba_marseille","lat":43.312239,"lon":5.368562,"is_reserved":false,"is_disabled":false,"rental_uris":{"android":"levelo://app?vid=f3f4a518-7714-4b0a-bd44-5859e8ab86d4","ios":"levelo://app?vid=f3f4a518-7714-4b0a-bd44-5859e8ab86d4"},"vehicle_type_id":"4","last_reported":1705514955,"current_range_meters":27200,"station_id":"ce4bgl92rcd13ifvqbq0","pricing_plan_id":"free"},{"bike_id":"0d5bffaa-2a7c-4b8a-81d6-6fa37b044d80","system_id":"levelo_inurba_marseille","lat":43.312239,"lon":5.368562,"is_reserved":false,"is_disabled":false,"rental_uris":{"android":"levelo://app?vid=0d5bffaa-2a7c-4b8a-81d6-6fa37b044d80","ios":"levelo://app?vid=0d5bffaa-2a7c-4b8a-81d6-6fa37b044d80"},"vehicle_type_id":"4","last_reported":1705514955,"current_range_meters":0,"station_id":"ce4bgl92rcd13ifvqbq0","pricing_plan_id":"free"},{"bike_id":"59ec84ac-235b-4c4e-84dc-a68e918cc7f8","system_id":"levelo_inurba_marseille","lat":43.312168,"lon":5.368505,"is_reserved":false,"is_disabled":false,"rental_uris":{"android":"levelo://app?vid=59ec84ac-235b-4c4e-84dc-a68e918cc7f8","ios":"levelo://app?vid=59ec84ac-235b-4c4e-84dc-a68e918cc7f8"},"vehicle_type_id":"4","last_reported":1705514955,"current_range_meters":4800,"station_id":"ce4bgl92rcd13ifvqbq0","pricing_plan_id":"free"},{"bike_id":"eea6dd2e-fa08-4d68-81d7-26b1b29fcb36","system_id":"levelo_inurba_marseille","lat":43.312239,"lon":5.368562,"is_reserved":false,"is_disabled":false,"rental_uris":{"android":"levelo://app?vid=eea6dd2e-fa08-4d68-81d7-26b1b29fcb36","ios":"levelo://app?vid=eea6dd2e-fa08-4d68-81d7-26b1b29fcb36"},"vehicle_type_id":"4","last_reported":1705514955,"current_range_meters":20000,"station_id":"ce4bgl92rcd13ifvqbq0","pricing_plan_id":"free"},{"bike_id":"897ae299-b3ab-481c-adba-997e1f460526","system_id":"levelo_inurba_marseille","lat":43.312239,"lon":5.368562,"is_reserved":false,"is_disabled":false,"rental_uris":{"android":"levelo://app?vid=897ae299-b3ab-481c-adba-997e1f460526","ios":"levelo://app?vid=897ae299-b3ab-481c-adba-997e1f460526"},"vehicle_type_id":"4","last_reported":1705514955,"current_range_meters":30400,"station_id":"ce4bgl92rcd13ifvqbq0","pricing_plan_id":"free"},{"bike_id":"1b8b2211-0599-4df2-958e-865ef08fa8df","system_id":"levelo_inurba_marseille","lat":43.312239,"lon":5.368562,"is_reserved":false,"is_disabled":false,"rental_uris":{"android":"levelo://app?vid=1b8b2211-0599-4df2-958e-865ef08fa8df","ios":"levelo://app?vid=1b8b2211-0599-4df2-958e-865ef08fa8df"},"vehicle_type_id":"4","last_reported":1705514955,"current_range_meters":31600,"station_id":"ce4bgl92rcd13ifvqbq0","pricing_plan_id":"free"},{"bike_id":"997a21bd-ba3e-4191-aef4-f73594d7bef4","system_id":"levelo_inurba_marseille","lat":43.312239,"lon":5.368562,"is_reserved":false,"is_disabled":false,"rental_uris":{"android":"levelo://app?vid=997a21bd-ba3e-4191-aef4-f73594d7bef4","ios":"levelo://app?vid=997a21bd-ba3e-4191-aef4-f73594d7bef4"},"vehicle_type_id":"4","last_reported":1705514955,"current_range_meters":21600,"station_id":"ce4bgl92rcd13ifvqbq0","pricing_plan_id":"free"},{"bike_id":"1419ddeb-e783-4a0b-ba4e-21e25b6a097d","system_id":"levelo_inurba_marseille","lat":43.312239,"lon":5.368562,"is_reserved":false,"is_disabled":false,"rental_uris":{"android":"levelo://app?vid=1419ddeb-e783-4a0b-ba4e-21e25b6a097d","ios":"levelo://app?vid=1419ddeb-e783-4a0b-ba4e-21e25b6a097d"},"vehicle_type_id":"4","last_reported":1705514955,"current_range_meters":29600,"station_id":"ce4bgl92rcd13ifvqbq0","pricing_plan_id":"free"},{"bike_id":"61b63232-f6e0-4376-9ccd-aeaf9492060e","system_id":"levelo_inurba_marseille","lat":43.312239,"lon":5.368562,"is_reserved":false,"is_disabled":false,"rental_uris":{"android":"levelo://app?vid=61b63232-f6e0-4376-9ccd-aeaf9492060e","ios":"levelo://app?vid=61b63232-f6e0-4376-9ccd-aeaf9492060e"},"vehicle_type_id":"4","last_reported":1705514955,"current_range_meters":28000,"station_id":"ce4bgl92rcd13ifvqbq0","pricing_plan_id":"free"},{"bike_id":"0e249f33-755c-461c-a176-c06afd22d40f","system_id":"levelo_inurba_marseille","lat":43.312239,"lon":5.368562,"is_reserved":false,"is_disabled":false,"rental_uris":{"android":"levelo://app?vid=0e249f33-755c-461c-a176-c06afd22d40f","ios":"levelo://app?vid=0e249f33-755c-461c-a176-c06afd22d40f"},"vehicle_type_id":"4","last_reported":1705514955,"current_range_meters":17600,"station_id":"ce4bgl92rcd13ifvqbq0","pricing_plan_id":"free"},{"bike_id":"c6c3d459-51cc-41a1-812a-e8b470d2f921","system_id":"levelo_inurba_marseille","lat":43.312239,"lon":5.368562,"is_reserved":false,"is_disabled":false,"rental_uris":{"android":"levelo://app?vid=c6c3d459-51cc-41a1-812a-e8b470d2f921","ios":"levelo://app?vid=c6c3d459-51cc-41a1-812a-e8b470d2f921"},"vehicle_type_id":"4","last_reported":1705514955,"current_range_meters":12400,"station_id":"ce4bgl92rcd13ifvqbq0","pricing_plan_id":"free"},{"bike_id":"61b93c57-6b08-4259-a460-f9bbda173b07","system_id":"levelo_inurba_marseille","lat":43.312239,"lon":5.368562,"is_reserved":false,"is_disabled":false,"rental_uris":{"android":"levelo://app?vid=61b93c57-6b08-4259-a460-f9bbda173b07","ios":"levelo://app?vid=61b93c57-6b08-4259-a460-f9bbda173b07"},"vehicle_type_id":"4","last_reported":1705514955,"current_range_meters":21200,"station_id":"ce4bgl92rcd13ifvqbq0","pricing_plan_id":"free"},{"bike_id":"18ebb11f-9373-48c4-b956-ab13106027eb","system_id":"levelo_inurba_marseille","lat":43.309076,"lon":5.368465,"is_reserved":false,"is_disabled":false,"rental_uris":{"android":"levelo://app?vid=18ebb11f-9373-48c4-b956-ab13106027eb","ios":"levelo://app?vid=18ebb11f-9373-48c4-b956-ab13106027eb"},"vehicle_type_id":"4","last_reported":1705514955,"current_range_meters":13200,"station_id":"ce4bgn92rcd13ifvqbvg","pricing_plan_id":"free"},{"bike_id":"9f0c4f7b-c65f-47d2-82c7-9070e347cc27","system_id":"levelo_inurba_marseille","lat":43.309076,"lon":5.368465,"is_reserved":false,"is_disabled":false,"rental_uris":{"android":"levelo://app?vid=9f0c4f7b-c65f-47d2-82c7-9070e347cc27","ios":"levelo://app?vid=9f0c4f7b-c65f-47d2-82c7-9070e347cc27"},"vehicle_type_id":"4","last_reported":1705514955,"current_range_meters":31600,"station_id":"ce4bgn92rcd13ifvqbvg","pricing_plan_id":"free"},{"bike_id":"edc30e53-7a77-4343-bba1-3b571672ba54","system_id":"levelo_inurba_marseille","lat":43.309076,"lon":5.368465,"is_reserved":false,"is_disabled":false,"rental_uris":{"android":"levelo://app?vid=edc30e53-7a77-4343-bba1-3b571672ba54","ios":"levelo://app?vid=edc30e53-7a77-4343-bba1-3b571672ba54"},"vehicle_type_id":"4","last_reported":1705514955,"current_range_meters":29200,"station_id":"ce4bgn92rcd13ifvqbvg","pricing_plan_id":"free"},{"bike_id":"e4eb5cf9-bd23-4b6e-89c6-c0f95b186d32","system_id":"levelo_inurba_marseille","lat":43.309076,"lon":5.368465,"is_reserved":false,"is_disabled":false,"rental_uris":{"android":"levelo://app?vid=e4eb5cf9-bd23-4b6e-89c6-c0f95b186d32","ios":"levelo://app?vid=e4eb5cf9-bd23-4b6e-89c6-c0f95b186d32"},"vehicle_type_id":"4","last_reported":1705514955,"current_range_meters":31200,"station_id":"ce4bgn92rcd13ifvqbvg","pricing_plan_id":"free"},{"bike_id":"4e48d49b-cb43-41ed-bfcd-57c52ff253be","system_id":"levelo_inurba_marseille","lat":43.309039,"lon":5.371797,"is_reserved":false,"is_disabled":false,"rental_uris":{"android":"levelo://app?vid=4e48d49b-cb43-41ed-bfcd-57c52ff253be","ios":"levelo://app?vid=4e48d49b-cb43-41ed-bfcd-57c52ff253be"},"vehicle_type_id":"4","last_reported":1705514955,"current_range_meters":28400,"station_id":"ce4bguh2rcd13ifvqckg","pricing_plan_id":"free"},{"bike_id":"e35e11a2-bfb5-4fe5-8f10-0f53304353db","system_id":"levelo_inurba_marseille","lat":43.3089,"lon":5.37197,"is_reserved":false,"is_disabled":false,"rental_uris":{"android":"levelo://app?vid=e35e11a2-bfb5-4fe5-8f10-0f53304353db","ios":"levelo://app?vid=e35e11a2-bfb5-4fe5-8f10-0f53304353db"},"vehicle_type_id":"4","last_reported":1705514955,"current_range_meters":18000,"station_id":"","pricing_plan_id":"free"},{"bike_id":"b63a4689-fb04-42d6-8260-73365ec2cccf","system_id":"levelo_inurba_marseille","lat":43.309039,"lon":5.371797,"is_reserved":false,"is_disabled":false,"rental_uris":{"android":"levelo://app?vid=b63a4689-fb04-42d6-8260-73365ec2cccf","ios":"levelo://app?vid=b63a4689-fb04-42d6-8260-73365ec2cccf"},"vehicle_type_id":"4","last_reported":1705514955,"current_range_meters":22800,"station_id":"ce4bguh2rcd13ifvqckg","pricing_plan_id":"free"},{"bike_id":"0fd1310f-eb7e-48e6-a8fb-29c28ffc1b12","system_id":"levelo_inurba_marseille","lat":43.309034,"lon":5.371783,"is_reserved":false,"is_disabled":false,"rental_uris":{"android":"levelo://app?vid=0fd1310f-eb7e-48e6-a8fb-29c28ffc1b12","ios":"levelo://app?vid=0fd1310f-eb7e-48e6-a8fb-29c28ffc1b12"},"vehicle_type_id":"4","last_reported":1705514955,"current_range_meters":10400,"station_id":"ce4bguh2rcd13ifvqckg","pricing_plan_id":"free"},{"bike_id":"bdcfa337-974b-478d-b158-990316e84cc9","system_id":"levelo_inurba_marseille","lat":43.309034,"lon":5.371783,"is_reserved":false,"is_disabled":false,"rental_uris":{"android":"levelo://app?vid=bdcfa337-974b-478d-b158-990316e84cc9","ios":"levelo://app?vid=bdcfa337-974b-478d-b158-990316e84cc9"},"vehicle_type_id":"4","last_reported":1705514955,"current_range_meters":0,"station_id":"ce4bguh2rcd13ifvqckg","pricing_plan_id":"free"},{"bike_id":"93fb4545-e407-4e71-a589-18d75eba21e6","system_id":"levelo_inurba_marseille","lat":43.30143,"lon":5.37413,"is_reserved":false,"is_disabled":false,"rental_uris":{"android":"levelo://app?vid=93fb4545-e407-4e71-a589-18d75eba21e6","ios":"levelo://app?vid=93fb4545-e407-4e71-a589-18d75eba21e6"},"vehicle_type_id":"4","last_reported":1705514955,"current_range_meters":20800,"station_id":"ce4bgs92rcd13ifvqcc0","pricing_plan_id":"free"},{"bike_id":"a454aec8-7ebe-4c5a-b9d9-5a274ec33104","system_id":"levelo_inurba_marseille","lat":43.305714,"lon":5.365633,"is_reserved":false,"is_disabled":false,"rental_uris":{"android":"levelo://app?vid=a454aec8-7ebe-4c5a-b9d9-5a274ec33104","ios":"levelo://app?vid=a454aec8-7ebe-4c5a-b9d9-5a274ec33104"},"vehicle_type_id":"4","last_reported":1705514955,"current_range_meters":19600,"station_id":"ce4bgs12rcd13ifvqcag","pricing_plan_id":"free"},{"bike_id":"8bb8c963-1b03-44bb-b666-da4504944280","system_id":"levelo_inurba_marseille","lat":43.305706,"lon":5.365654,"is_reserved":false,"is_disabled":false,"rental_uris":{"android":"levelo://app?vid=8bb8c963-1b03-44bb-b666-da4504944280","ios":"levelo://app?vid=8bb8c963-1b03-44bb-b666-da4504944280"},"vehicle_type_id":"4","last_reported":1705514955,"current_range_meters":13600,"station_id":"ce4bgs12rcd13ifvqcag","pricing_plan_id":"free"},{"bike_id":"33ccaf58-42f7-4582-975a-135a6a27d526","system_id":"levelo_inurba_marseille","lat":43.305989,"lon":5.37225,"is_reserved":false,"is_disabled":false,"rental_uris":{"android":"levelo://app?vid=33ccaf58-42f7-4582-975a-135a6a27d526","ios":"levelo://app?vid=33ccaf58-42f7-4582-975a-135a6a27d526"},"vehicle_type_id":"4","last_reported":1705514955,"current_range_meters":21200,"station_id":"ce4bgqh2rcd13ifvqc4g","pricing_plan_id":"free"},{"bike_id":"57751df3-d3d8-48d3-a652-8e86c37b8a96","system_id":"levelo_inurba_marseille","lat":43.306,"lon":5.37211,"is_reserved":false,"is_disabled":false,"rental_uris":{"android":"levelo://app?vid=57751df3-d3d8-48d3-a652-8e86c37b8a96","ios":"levelo://app?vid=57751df3-d3d8-48d3-a652-8e86c37b8a96"},"vehicle_type_id":"4","last_reported":1705514955,"current_range_meters":30400,"station_id":"ce4bgqh2rcd13ifvqc4g","pricing_plan_id":"free"},{"bike_id":"e2121fa2-bdda-41f6-bc5a-4ed75a9076d3","system_id":"levelo_inurba_marseille","lat":43.306013,"lon":5.372189,"is_reserved":false,"is_disabled":false,"rental_uris":{"android":"levelo://app?vid=e2121fa2-bdda-41f6-bc5a-4ed75a9076d3","ios":"levelo://app?vid=e2121fa2-bdda-41f6-bc5a-4ed75a9076d3"},"vehicle_type_id":"4","last_reported":1705514955,"current_range_meters":30800,"station_id":"ce4bgqh2rcd13ifvqc4g","pricing_plan_id":"free"},{"bike_id":"e76023cb-1c18-430f-b058-0bbda461010e","system_id":"levelo_inurba_marseille","lat":43.306014,"lon":5.372194,"is_reserved":false,"is_disabled":false,"rental_uris":{"android":"levelo://app?vid=e76023cb-1c18-430f-b058-0bbda461010e","ios":"levelo://app?vid=e76023cb-1c18-430f-b058-0bbda461010e"},"vehicle_type_id":"4","last_reported":1705514955,"current_range_meters":29600,"station_id":"ce4bgqh2rcd13ifvqc4g","pricing_plan_id":"free"},{"bike_id":"ed0176ef-2292-4caf-8008-313fc09ad931","system_id":"levelo_inurba_marseille","lat":43.305989,"lon":5.37225,"is_reserved":false,"is_disabled":false,"rental_uris":{"android":"levelo://app?vid=ed0176ef-2292-4caf-8008-313fc09ad931","ios":"levelo://app?vid=ed0176ef-2292-4caf-8008-313fc09ad931"},"vehicle_type_id":"4","last_reported":1705514955,"current_range_meters":31600,"station_id":"ce4bgqh2rcd13ifvqc4g","pricing_plan_id":"free"},{"bike_id":"4424402e-fee4-46b5-a323-1b492924afa0","system_id":"levelo_inurba_marseille","lat":43.311131,"lon":5.377651,"is_reserved":false,"is_disabled":false,"rental_uris":{"android":"levelo://app?vid=4424402e-fee4-46b5-a323-1b492924afa0","ios":"levelo://app?vid=4424402e-fee4-46b5-a323-1b492924afa0"},"vehicle_type_id":"4","last_reported":1705514955,"current_range_meters":16000,"station_id":"ce4bgt92rcd13ifvqcg0","pricing_plan_id":"free"},{"bike_id":"d7c66d3f-2946-470c-9ee6-301b97661653","system_id":"levelo_inurba_marseille","lat":43.307945,"lon":5.376487,"is_reserved":false,"is_disabled":false,"rental_uris":{"android":"levelo://app?vid=d7c66d3f-2946-470c-9ee6-301b97661653","ios":"levelo://app?vid=d7c66d3f-2946-470c-9ee6-301b97661653"},"vehicle_type_id":"4","last_reported":1705514955,"current_range_meters":14400,"station_id":"ce4bgv92rcd13ifvqcq0","pricing_plan_id":"free"},{"bike_id":"4f8c14b8-2945-4aeb-9ceb-2cce7a2e7e64","system_id":"levelo_inurba_marseille","lat":43.307945,"lon":5.376487,"is_reserved":false,"is_disabled":false,"rental_uris":{"android":"levelo://app?vid=4f8c14b8-2945-4aeb-9ceb-2cce7a2e7e64","ios":"levelo://app?vid=4f8c14b8-2945-4aeb-9ceb-2cce7a2e7e64"},"vehicle_type_id":"4","last_reported":1705514955,"current_range_meters":16400,"station_id":"ce4bgv92rcd13ifvqcq0","pricing_plan_id":"free"},{"bike_id":"f76f4704-41f3-41b9-91d8-3beb03c38fa0","system_id":"levelo_inurba_marseille","lat":43.317075,"lon":5.377367,"is_reserved":false,"is_disabled":false,"rental_uris":{"android":"levelo://app?vid=f76f4704-41f3-41b9-91d8-3beb03c38fa0","ios":"levelo://app?vid=f76f4704-41f3-41b9-91d8-3beb03c38fa0"},"vehicle_type_id":"4","last_reported":1705514955,"current_range_meters":25200,"station_id":"ce4bgth2rcd13ifvqch0","pricing_plan_id":"free"},{"bike_id":"462a3997-f179-4714-a434-bd1c0d0c1acf","system_id":"levelo_inurba_marseille","lat":43.317075,"lon":5.377367,"is_reserved":false,"is_disabled":false,"rental_uris":{"android":"levelo://app?vid=462a3997-f179-4714-a434-bd1c0d0c1acf","ios":"levelo://app?vid=462a3997-f179-4714-a434-bd1c0d0c1acf"},"vehicle_type_id":"4","last_reported":1705514955,"current_range_meters":21200,"station_id":"ce4bgth2rcd13ifvqch0","pricing_plan_id":"free"},{"bike_id":"9507b9a3-f418-4cd7-85c9-640f1d508976","system_id":"levelo_inurba_marseille","lat":43.317075,"lon":5.377367,"is_reserved":false,"is_disabled":false,"rental_uris":{"android":"levelo://app?vid=9507b9a3-f418-4cd7-85c9-640f1d508976","ios":"levelo://app?vid=9507b9a3-f418-4cd7-85c9-640f1d508976"},"vehicle_type_id":"4","last_reported":1705514955,"current_range_meters":8400,"station_id":"ce4bgth2rcd13ifvqch0","pricing_plan_id":"free"},{"bike_id":"7b62741a-a8df-4ac1-895f-917dfdd58ab9","system_id":"levelo_inurba_marseille","lat":43.303046,"lon":5.368981,"is_reserved":false,"is_disabled":false,"rental_uris":{"android":"levelo://app?vid=7b62741a-a8df-4ac1-895f-917dfdd58ab9","ios":"levelo://app?vid=7b62741a-a8df-4ac1-895f-917dfdd58ab9"},"vehicle_type_id":"4","last_reported":1705514955,"current_range_meters":3200,"station_id":"ce4bgqh2rcd13ifvqc5g","pricing_plan_id":"free"},{"bike_id":"29a6beec-1e5e-4e5f-92b7-09852a1f4df1","system_id":"levelo_inurba_marseille","lat":43.303046,"lon":5.368981,"is_reserved":false,"is_disabled":false,"rental_uris":{"android":"levelo://app?vid=29a6beec-1e5e-4e5f-92b7-09852a1f4df1","ios":"levelo://app?vid=29a6beec-1e5e-4e5f-92b7-09852a1f4df1"},"vehicle_type_id":"4","last_reported":1705514955,"current_range_meters":11200,"station_id":"ce4bgqh2rcd13ifvqc5g","pricing_plan_id":"free"},{"bike_id":"be473787-eebd-4460-ac65-a7c62d882601","system_id":"levelo_inurba_marseille","lat":43.301939,"lon":5.366286,"is_reserved":false,"is_disabled":false,"rental_uris":{"android":"levelo://app?vid=be473787-eebd-4460-ac65-a7c62d882601","ios":"levelo://app?vid=be473787-eebd-4460-ac65-a7c62d882601"},"vehicle_type_id":"4","last_reported":1705514955,"current_range_meters":26800,"station_id":"ce4bgrh2rcd13ifvqc8g","pricing_plan_id":"free"},{"bike_id":"16751599-fc5c-4cd3-aafd-f368269580e0","system_id":"levelo_inurba_marseille","lat":43.308012,"lon":5.381511,"is_reserved":false,"is_disabled":false,"rental_uris":{"android":"levelo://app?vid=16751599-fc5c-4cd3-aafd-f368269580e0","ios":"levelo://app?vid=16751599-fc5c-4cd3-aafd-f368269580e0"},"vehicle_type_id":"4","last_reported":1705514955,"current_range_meters":7600,"station_id":"ce4bgt12rcd13ifvqce0","pricing_plan_id":"free"},{"bike_id":"295cf9e3-e06d-4e1b-976e-fabb04d99937","system_id":"levelo_inurba_marseille","lat":43.308012,"lon":5.381511,"is_reserved":false,"is_disabled":false,"rental_uris":{"android":"levelo://app?vid=295cf9e3-e06d-4e1b-976e-fabb04d99937","ios":"levelo://app?vid=295cf9e3-e06d-4e1b-976e-fabb04d99937"},"vehicle_type_id":"4","last_reported":1705514955,"current_range_meters":16000,"station_id":"ce4bgt12rcd13ifvqce0","pricing_plan_id":"free"},{"bike_id":"326a09b9-5447-4f1b-ad9f-e661369031c5","system_id":"levelo_inurba_marseille","lat":43.308012,"lon":5.381511,"is_reserved":false,"is_disabled":false,"rental_uris":{"android":"levelo://app?vid=326a09b9-5447-4f1b-ad9f-e661369031c5","ios":"levelo://app?vid=326a09b9-5447-4f1b-ad9f-e661369031c5"},"vehicle_type_id":"4","last_reported":1705514955,"current_range_meters":25200,"station_id":"ce4bgt12rcd13ifvqce0","pricing_plan_id":"free"},{"bike_id":"236310be-7746-47f3-95e9-e0af82c21860","system_id":"levelo_inurba_marseille","lat":43.308012,"lon":5.381511,"is_reserved":false,"is_disabled":false,"rental_uris":{"android":"levelo://app?vid=236310be-7746-47f3-95e9-e0af82c21860","ios":"levelo://app?vid=236310be-7746-47f3-95e9-e0af82c21860"},"vehicle_type_id":"4","last_reported":1705514955,"current_range_meters":6400,"station_id":"ce4bgt12rcd13ifvqce0","pricing_plan_id":"free"},{"bike_id":"4f4f5acf-d4cd-4c73-8c60-e137a37af945","system_id":"levelo_inurba_marseille","lat":43.308012,"lon":5.381511,"is_reserved":false,"is_disabled":false,"rental_uris":{"android":"levelo://app?vid=4f4f5acf-d4cd-4c73-8c60-e137a37af945","ios":"levelo://app?vid=4f4f5acf-d4cd-4c73-8c60-e137a37af945"},"vehicle_type_id":"4","last_reported":1705514955,"current_range_meters":12000,"station_id":"ce4bgt12rcd13ifvqce0","pricing_plan_id":"free"},{"bike_id":"343d904e-df91-4cfe-a74b-580b78aaed5e","system_id":"levelo_inurba_marseille","lat":43.296263,"lon":5.40601,"is_reserved":false,"is_disabled":false,"rental_uris":{"android":"levelo://app?vid=343d904e-df91-4cfe-a74b-580b78aaed5e","ios":"levelo://app?vid=343d904e-df91-4cfe-a74b-580b78aaed5e"},"vehicle_type_id":"4","last_reported":1705514955,"current_range_meters":21600,"station_id":"ce4bh0h2rcd13ifvqd60","pricing_plan_id":"free"},{"bike_id":"9d09f9b8-182a-4a91-9b68-0716a784d1fb","system_id":"levelo_inurba_marseille","lat":43.304606,"lon":5.379026,"is_reserved":false,"is_disabled":false,"rental_uris":{"android":"levelo://app?vid=9d09f9b8-182a-4a91-9b68-0716a784d1fb","ios":"levelo://app?vid=9d09f9b8-182a-4a91-9b68-0716a784d1fb"},"vehicle_type_id":"4","last_reported":1705514955,"current_range_meters":23200,"station_id":"ce4bgup2rcd13ifvqcn0","pricing_plan_id":"free"},{"bike_id":"7e3adcaa-d1ef-4f28-9f42-506253bfb0c8","system_id":"levelo_inurba_marseille","lat":43.304606,"lon":5.379026,"is_reserved":false,"is_disabled":false,"rental_uris":{"android":"levelo://app?vid=7e3adcaa-d1ef-4f28-9f42-506253bfb0c8","ios":"levelo://app?vid=7e3adcaa-d1ef-4f28-9f42-506253bfb0c8"},"vehicle_type_id":"4","last_reported":1705514955,"current_range_meters":27200,"station_id":"ce4bgup2rcd13ifvqcn0","pricing_plan_id":"free"},{"bike_id":"4e1e7aef-ee03-4f0f-8ff0-b16e38bf1360","system_id":"levelo_inurba_marseille","lat":43.304606,"lon":5.379026,"is_reserved":false,"is_disabled":false,"rental_uris":{"android":"levelo://app?vid=4e1e7aef-ee03-4f0f-8ff0-b16e38bf1360","ios":"levelo://app?vid=4e1e7aef-ee03-4f0f-8ff0-b16e38bf1360"},"vehicle_type_id":"4","last_reported":1705514955,"current_range_meters":6000,"station_id":"ce4bgup2rcd13ifvqcn0","pricing_plan_id":"free"},{"bike_id":"9e2f2a00-72e7-4ea1-a49b-5bb75531b416","system_id":"levelo_inurba_marseille","lat":43.304606,"lon":5.379026,"is_reserved":false,"is_disabled":false,"rental_uris":{"android":"levelo://app?vid=9e2f2a00-72e7-4ea1-a49b-5bb75531b416","ios":"levelo://app?vid=9e2f2a00-72e7-4ea1-a49b-5bb75531b416"},"vehicle_type_id":"4","last_reported":1705514955,"current_range_meters":25200,"station_id":"ce4bgup2rcd13ifvqcn0","pricing_plan_id":"free"},{"bike_id":"0f7a5f69-b8ee-46d2-991f-bf1e0f8a5c1e","system_id":"levelo_inurba_marseille","lat":43.3046,"lon":5.37902,"is_reserved":false,"is_disabled":false,"rental_uris":{"android":"levelo://app?vid=0f7a5f69-b8ee-46d2-991f-bf1e0f8a5c1e","ios":"levelo://app?vid=0f7a5f69-b8ee-46d2-991f-bf1e0f8a5c1e"},"vehicle_type_id":"4","last_reported":1705514955,"current_range_meters":29200,"station_id":"ce4bgup2rcd13ifvqcn0","pricing_plan_id":"free"},{"bike_id":"59330b1e-d643-4779-b4ff-e79ba4382f96","system_id":"levelo_inurba_marseille","lat":43.30466,"lon":5.3791,"is_reserved":false,"is_disabled":false,"rental_uris":{"android":"levelo://app?vid=59330b1e-d643-4779-b4ff-e79ba4382f96","ios":"levelo://app?vid=59330b1e-d643-4779-b4ff-e79ba4382f96"},"vehicle_type_id":"4","last_reported":1705514955,"current_range_meters":20800,"station_id":"ce4bgup2rcd13ifvqcn0","pricing_plan_id":"free"},{"bike_id":"6e811e76-8f67-4ebd-81da-70a44877287f","system_id":"levelo_inurba_marseille","lat":43.304606,"lon":5.379026,"is_reserved":false,"is_disabled":false,"rental_uris":{"android":"levelo://app?vid=6e811e76-8f67-4ebd-81da-70a44877287f","ios":"levelo://app?vid=6e811e76-8f67-4ebd-81da-70a44877287f"},"vehicle_type_id":"4","last_reported":1705514955,"current_range_meters":30400,"station_id":"ce4bgup2rcd13ifvqcn0","pricing_plan_id":"free"},{"bike_id":"b6665513-6ca2-42dc-9baf-3c5b43a49768","system_id":"levelo_inurba_marseille","lat":43.324771,"lon":5.36557,"is_reserved":false,"is_disabled":false,"rental_uris":{"android":"levelo://app?vid=b6665513-6ca2-42dc-9baf-3c5b43a49768","ios":"levelo://app?vid=b6665513-6ca2-42dc-9baf-3c5b43a49768"},"vehicle_type_id":"4","last_reported":1705514955,"current_range_meters":24400,"station_id":"ce4bhs12rcd13ifvqhvg","pricing_plan_id":"free"},{"bike_id":"31dbbd4c-02e9-4cfa-9f91-95ada6c6d99e","system_id":"levelo_inurba_marseille","lat":43.301429,"lon":5.37413,"is_reserved":false,"is_disabled":false,"rental_uris":{"android":"levelo://app?vid=31dbbd4c-02e9-4cfa-9f91-95ada6c6d99e","ios":"levelo://app?vid=31dbbd4c-02e9-4cfa-9f91-95ada6c6d99e"},"vehicle_type_id":"4","last_reported":1705514955,"current_range_meters":17600,"station_id":"ce4bgs92rcd13ifvqcc0","pricing_plan_id":"free"},{"bike_id":"d2edba53-b6fb-4937-aa17-e4cc1be26aea","system_id":"levelo_inurba_marseille","lat":43.319935,"lon":5.381699,"is_reserved":false,"is_disabled":false,"rental_uris":{"android":"levelo://app?vid=d2edba53-b6fb-4937-aa17-e4cc1be26aea","ios":"levelo://app?vid=d2edba53-b6fb-4937-aa17-e4cc1be26aea"},"vehicle_type_id":"4","last_reported":1705514955,"current_range_meters":13600,"station_id":"ce4bhr12rcd13ifvqhpg","pricing_plan_id":"free"},{"bike_id":"e64ec3a8-eebd-4cdf-a91e-b0a283fed678","system_id":"levelo_inurba_marseille","lat":43.319935,"lon":5.381699,"is_reserved":false,"is_disabled":false,"rental_uris":{"android":"levelo://app?vid=e64ec3a8-eebd-4cdf-a91e-b0a283fed678","ios":"levelo://app?vid=e64ec3a8-eebd-4cdf-a91e-b0a283fed678"},"vehicle_type_id":"4","last_reported":1705514955,"current_range_meters":29200,"station_id":"ce4bhr12rcd13ifvqhpg","pricing_plan_id":"free"},{"bike_id":"58977b51-72c4-41b5-811b-3ff864e1122f","system_id":"levelo_inurba_marseille","lat":43.319935,"lon":5.381699,"is_reserved":false,"is_disabled":false,"rental_uris":{"android":"levelo://app?vid=58977b51-72c4-41b5-811b-3ff864e1122f","ios":"levelo://app?vid=58977b51-72c4-41b5-811b-3ff864e1122f"},"vehicle_type_id":"4","last_reported":1705514955,"current_range_meters":18400,"station_id":"ce4bhr12rcd13ifvqhpg","pricing_plan_id":"free"},{"bike_id":"d7969d1d-a1b3-4043-b8e0-646e47c43f31","system_id":"levelo_inurba_marseille","lat":43.319935,"lon":5.381699,"is_reserved":false,"is_disabled":false,"rental_uris":{"android":"levelo://app?vid=d7969d1d-a1b3-4043-b8e0-646e47c43f31","ios":"levelo://app?vid=d7969d1d-a1b3-4043-b8e0-646e47c43f31"},"vehicle_type_id":"4","last_reported":1705514955,"current_range_meters":28400,"station_id":"ce4bhr12rcd13ifvqhpg","pricing_plan_id":"free"},{"bike_id":"3e697225-b6ee-47d5-86ea-22d2c83785de","system_id":"levelo_inurba_marseille","lat":43.313571,"lon":5.384829,"is_reserved":false,"is_disabled":false,"rental_uris":{"android":"levelo://app?vid=3e697225-b6ee-47d5-86ea-22d2c83785de","ios":"levelo://app?vid=3e697225-b6ee-47d5-86ea-22d2c83785de"},"vehicle_type_id":"4","last_reported":1705514955,"current_range_meters":9200,"station_id":"ce4bgt92rcd13ifvqcf0","pricing_plan_id":"free"},{"bike_id":"814692ac-b473-4130-8719-0b5cf8a6c6f1","system_id":"levelo_inurba_marseille","lat":43.313571,"lon":5.384829,"is_reserved":false,"is_disabled":false,"rental_uris":{"android":"levelo://app?vid=814692ac-b473-4130-8719-0b5cf8a6c6f1","ios":"levelo://app?vid=814692ac-b473-4130-8719-0b5cf8a6c6f1"},"vehicle_type_id":"4","last_reported":1705514955,"current_range_meters":4000,"station_id":"ce4bgt92rcd13ifvqcf0","pricing_plan_id":"free"},{"bike_id":"178fa526-e880-4274-9764-86cda6eadcaf","system_id":"levelo_inurba_marseille","lat":43.313571,"lon":5.384829,"is_reserved":false,"is_disabled":false,"rental_uris":{"android":"levelo://app?vid=178fa526-e880-4274-9764-86cda6eadcaf","ios":"levelo://app?vid=178fa526-e880-4274-9764-86cda6eadcaf"},"vehicle_type_id":"4","last_reported":1705514955,"current_range_meters":24800,"station_id":"ce4bgt92rcd13ifvqcf0","pricing_plan_id":"free"},{"bike_id":"b121b863-e8d2-4011-901e-87165fdee019","system_id":"levelo_inurba_marseille","lat":43.313571,"lon":5.384829,"is_reserved":false,"is_disabled":false,"rental_uris":{"android":"levelo://app?vid=b121b863-e8d2-4011-901e-87165fdee019","ios":"levelo://app?vid=b121b863-e8d2-4011-901e-87165fdee019"},"vehicle_type_id":"4","last_reported":1705514955,"current_range_meters":12000,"station_id":"ce4bgt92rcd13ifvqcf0","pricing_plan_id":"free"},{"bike_id":"3261db55-3177-4284-a75b-d10222dcdbd6","system_id":"levelo_inurba_marseille","lat":43.313571,"lon":5.384829,"is_reserved":false,"is_disabled":false,"rental_uris":{"android":"levelo://app?vid=3261db55-3177-4284-a75b-d10222dcdbd6","ios":"levelo://app?vid=3261db55-3177-4284-a75b-d10222dcdbd6"},"vehicle_type_id":"4","last_reported":1705514955,"current_range_meters":18800,"station_id":"ce4bgt92rcd13ifvqcf0","pricing_plan_id":"free"},{"bike_id":"e22ca999-bbcb-4ff4-92f6-b1383d59db7b","system_id":"levelo_inurba_marseille","lat":43.299724,"lon":5.371829,"is_reserved":false,"is_disabled":false,"rental_uris":{"android":"levelo://app?vid=e22ca999-bbcb-4ff4-92f6-b1383d59db7b","ios":"levelo://app?vid=e22ca999-bbcb-4ff4-92f6-b1383d59db7b"},"vehicle_type_id":"4","last_reported":1705514955,"current_range_meters":0,"station_id":"ce4bgr92rcd13ifvqc7g","pricing_plan_id":"free"},{"bike_id":"1ce24435-6b1a-42f8-8108-ae5690103358","system_id":"levelo_inurba_marseille","lat":43.299222,"lon":5.365554,"is_reserved":false,"is_disabled":false,"rental_uris":{"android":"levelo://app?vid=1ce24435-6b1a-42f8-8108-ae5690103358","ios":"levelo://app?vid=1ce24435-6b1a-42f8-8108-ae5690103358"},"vehicle_type_id":"4","last_reported":1705514955,"current_range_meters":12800,"station_id":"ce4bgm92rcd13ifvqbr0","pricing_plan_id":"free"},{"bike_id":"dd802da7-1564-4138-a30c-c346421661e2","system_id":"levelo_inurba_marseille","lat":43.299724,"lon":5.371829,"is_reserved":false,"is_disabled":false,"rental_uris":{"android":"levelo://app?vid=dd802da7-1564-4138-a30c-c346421661e2","ios":"levelo://app?vid=dd802da7-1564-4138-a30c-c346421661e2"},"vehicle_type_id":"4","last_reported":1705514955,"current_range_meters":16400,"station_id":"ce4bgr92rcd13ifvqc7g","pricing_plan_id":"free"},{"bike_id":"e99e9bc0-2163-461b-ad2a-0c04dd3ac8d2","system_id":"levelo_inurba_marseille","lat":43.311722,"lon":5.387247,"is_reserved":false,"is_disabled":false,"rental_uris":{"android":"levelo://app?vid=e99e9bc0-2163-461b-ad2a-0c04dd3ac8d2","ios":"levelo://app?vid=e99e9bc0-2163-461b-ad2a-0c04dd3ac8d2"},"vehicle_type_id":"4","last_reported":1705514955,"current_range_meters":19600,"station_id":"ce4bgv12rcd13ifvqcp0","pricing_plan_id":"free"},{"bike_id":"ece942ec-6dd4-4148-93a4-84eb0dcc7674","system_id":"levelo_inurba_marseille","lat":43.31178,"lon":5.38711,"is_reserved":false,"is_disabled":false,"rental_uris":{"android":"levelo://app?vid=ece942ec-6dd4-4148-93a4-84eb0dcc7674","ios":"levelo://app?vid=ece942ec-6dd4-4148-93a4-84eb0dcc7674"},"vehicle_type_id":"4","last_reported":1705514955,"current_range_meters":21600,"station_id":"ce4bgv12rcd13ifvqcp0","pricing_plan_id":"free"},{"bike_id":"96cfc0ad-ae2b-4314-8b3b-a25126fb411b","system_id":"levelo_inurba_marseille","lat":43.299243,"lon":5.37481,"is_reserved":false,"is_disabled":false,"rental_uris":{"android":"levelo://app?vid=96cfc0ad-ae2b-4314-8b3b-a25126fb411b","ios":"levelo://app?vid=96cfc0ad-ae2b-4314-8b3b-a25126fb411b"},"vehicle_type_id":"4","last_reported":1705514955,"current_range_meters":4000,"station_id":"ce4bgjh2rcd13ifvqbg0","pricing_plan_id":"free"},{"bike_id":"fa4f125e-5944-434d-a913-6a1e13996f3f","system_id":"levelo_inurba_marseille","lat":43.297774,"lon":5.370875,"is_reserved":false,"is_disabled":false,"rental_uris":{"android":"levelo://app?vid=fa4f125e-5944-434d-a913-6a1e13996f3f","ios":"levelo://app?vid=fa4f125e-5944-434d-a913-6a1e13996f3f"},"vehicle_type_id":"4","last_reported":1705514955,"current_range_meters":17600,"station_id":"ce4bgop2rcd13ifvqc1g","pricing_plan_id":"free"},{"bike_id":"34c8b400-5074-46e3-aa02-f5d274dfaa4f","system_id":"levelo_inurba_marseille","lat":43.322872,"lon":5.382588,"is_reserved":false,"is_disabled":false,"rental_uris":{"android":"levelo://app?vid=34c8b400-5074-46e3-aa02-f5d274dfaa4f","ios":"levelo://app?vid=34c8b400-5074-46e3-aa02-f5d274dfaa4f"},"vehicle_type_id":"4","last_reported":1705514955,"current_range_meters":14800,"station_id":"ce4bhr12rcd13ifvqhqg","pricing_plan_id":"free"},{"bike_id":"3f6079be-fb20-4733-af0c-85ab4c3940ea","system_id":"levelo_inurba_marseille","lat":43.322872,"lon":5.382756,"is_reserved":false,"is_disabled":false,"rental_uris":{"android":"levelo://app?vid=3f6079be-fb20-4733-af0c-85ab4c3940ea","ios":"levelo://app?vid=3f6079be-fb20-4733-af0c-85ab4c3940ea"},"vehicle_type_id":"4","last_reported":1705514955,"current_range_meters":26000,"station_id":"ce4bhr12rcd13ifvqhqg","pricing_plan_id":"free"},{"bike_id":"afe2d6ba-ebda-4981-9104-c77037901f05","system_id":"levelo_inurba_marseille","lat":43.322872,"lon":5.382756,"is_reserved":false,"is_disabled":false,"rental_uris":{"android":"levelo://app?vid=afe2d6ba-ebda-4981-9104-c77037901f05","ios":"levelo://app?vid=afe2d6ba-ebda-4981-9104-c77037901f05"},"vehicle_type_id":"4","last_reported":1705514955,"current_range_meters":14800,"station_id":"ce4bhr12rcd13ifvqhqg","pricing_plan_id":"free"},{"bike_id":"c59e915a-05cb-49b2-8b19-dcae4465ebcc","system_id":"levelo_inurba_marseille","lat":43.322872,"lon":5.382756,"is_reserved":false,"is_disabled":false,"rental_uris":{"android":"levelo://app?vid=c59e915a-05cb-49b2-8b19-dcae4465ebcc","ios":"levelo://app?vid=c59e915a-05cb-49b2-8b19-dcae4465ebcc"},"vehicle_type_id":"4","last_reported":1705514955,"current_range_meters":30000,"station_id":"ce4bhr12rcd13ifvqhqg","pricing_plan_id":"free"},{"bike_id":"aceabc87-d681-4c2c-a7db-fc99976ae55a","system_id":"levelo_inurba_marseille","lat":43.322872,"lon":5.382756,"is_reserved":false,"is_disabled":false,"rental_uris":{"android":"levelo://app?vid=aceabc87-d681-4c2c-a7db-fc99976ae55a","ios":"levelo://app?vid=aceabc87-d681-4c2c-a7db-fc99976ae55a"},"vehicle_type_id":"4","last_reported":1705514955,"current_range_meters":7600,"station_id":"ce4bhr12rcd13ifvqhqg","pricing_plan_id":"free"},{"bike_id":"bc668f13-2e56-47cf-a84f-2f5cc2560e83","system_id":"levelo_inurba_marseille","lat":43.322872,"lon":5.382756,"is_reserved":false,"is_disabled":false,"rental_uris":{"android":"levelo://app?vid=bc668f13-2e56-47cf-a84f-2f5cc2560e83","ios":"levelo://app?vid=bc668f13-2e56-47cf-a84f-2f5cc2560e83"},"vehicle_type_id":"4","last_reported":1705514955,"current_range_meters":26800,"station_id":"ce4bhr12rcd13ifvqhqg","pricing_plan_id":"free"},{"bike_id":"7f73b72d-cc5e-4953-9b4b-d396e1416c0e","system_id":"levelo_inurba_marseille","lat":43.322872,"lon":5.382756,"is_reserved":false,"is_disabled":false,"rental_uris":{"android":"levelo://app?vid=7f73b72d-cc5e-4953-9b4b-d396e1416c0e","ios":"levelo://app?vid=7f73b72d-cc5e-4953-9b4b-d396e1416c0e"},"vehicle_type_id":"4","last_reported":1705514955,"current_range_meters":14800,"station_id":"ce4bhr12rcd13ifvqhqg","pricing_plan_id":"free"},{"bike_id":"510e4003-ad50-4182-a4bb-6da1b111fff5","system_id":"levelo_inurba_marseille","lat":43.322872,"lon":5.382756,"is_reserved":false,"is_disabled":false,"rental_uris":{"android":"levelo://app?vid=510e4003-ad50-4182-a4bb-6da1b111fff5","ios":"levelo://app?vid=510e4003-ad50-4182-a4bb-6da1b111fff5"},"vehicle_type_id":"4","last_reported":1705514955,"current_range_meters":18400,"station_id":"ce4bhr12rcd13ifvqhqg","pricing_plan_id":"free"},{"bike_id":"947a5c0b-0299-4cd2-aecd-5f351114aaf8","system_id":"levelo_inurba_marseille","lat":43.32822,"lon":5.3668,"is_reserved":false,"is_disabled":false,"rental_uris":{"android":"levelo://app?vid=947a5c0b-0299-4cd2-aecd-5f351114aaf8","ios":"levelo://app?vid=947a5c0b-0299-4cd2-aecd-5f351114aaf8"},"vehicle_type_id":"4","last_reported":1705514955,"current_range_meters":21200,"station_id":"ce4bhs92rcd13ifvqi0g","pricing_plan_id":"free"},{"bike_id":"8463d0da-e03a-4a02-8a84-4dd7b137838e","system_id":"levelo_inurba_marseille","lat":43.328229,"lon":5.366788,"is_reserved":false,"is_disabled":false,"rental_uris":{"android":"levelo://app?vid=8463d0da-e03a-4a02-8a84-4dd7b137838e","ios":"levelo://app?vid=8463d0da-e03a-4a02-8a84-4dd7b137838e"},"vehicle_type_id":"4","last_reported":1705514955,"current_range_meters":20800,"station_id":"ce4bhs92rcd13ifvqi0g","pricing_plan_id":"free"},{"bike_id":"6b4ea496-3016-42db-af64-ba8beb6e73fc","system_id":"levelo_inurba_marseille","lat":43.32823,"lon":5.36663,"is_reserved":false,"is_disabled":false,"rental_uris":{"android":"levelo://app?vid=6b4ea496-3016-42db-af64-ba8beb6e73fc","ios":"levelo://app?vid=6b4ea496-3016-42db-af64-ba8beb6e73fc"},"vehicle_type_id":"4","last_reported":1705514955,"current_range_meters":23200,"station_id":"ce4bhs92rcd13ifvqi0g","pricing_plan_id":"free"},{"bike_id":"1782ad4d-7cbc-4ac0-af82-b65688e9d34c","system_id":"levelo_inurba_marseille","lat":43.328235,"lon":5.366722,"is_reserved":false,"is_disabled":false,"rental_uris":{"android":"levelo://app?vid=1782ad4d-7cbc-4ac0-af82-b65688e9d34c","ios":"levelo://app?vid=1782ad4d-7cbc-4ac0-af82-b65688e9d34c"},"vehicle_type_id":"4","last_reported":1705514955,"current_range_meters":24800,"station_id":"ce4bhs92rcd13ifvqi0g","pricing_plan_id":"free"},{"bike_id":"09621f87-561a-4138-9bcf-5568c59432a9","system_id":"levelo_inurba_marseille","lat":43.328242,"lon":5.366826,"is_reserved":false,"is_disabled":false,"rental_uris":{"android":"levelo://app?vid=09621f87-561a-4138-9bcf-5568c59432a9","ios":"levelo://app?vid=09621f87-561a-4138-9bcf-5568c59432a9"},"vehicle_type_id":"4","last_reported":1705514955,"current_range_meters":0,"station_id":"ce4bhs92rcd13ifvqi0g","pricing_plan_id":"free"},{"bike_id":"ea0178f3-2c6b-4af6-b062-91b0b8dde1df","system_id":"levelo_inurba_marseille","lat":43.328247,"lon":5.366764,"is_reserved":false,"is_disabled":false,"rental_uris":{"android":"levelo://app?vid=ea0178f3-2c6b-4af6-b062-91b0b8dde1df","ios":"levelo://app?vid=ea0178f3-2c6b-4af6-b062-91b0b8dde1df"},"vehicle_type_id":"4","last_reported":1705514955,"current_range_meters":6000,"station_id":"ce4bhs92rcd13ifvqi0g","pricing_plan_id":"free"},{"bike_id":"85cedcff-9e9a-415d-8415-195178ea3cb7","system_id":"levelo_inurba_marseille","lat":43.32825,"lon":5.36677,"is_reserved":false,"is_disabled":false,"rental_uris":{"android":"levelo://app?vid=85cedcff-9e9a-415d-8415-195178ea3cb7","ios":"levelo://app?vid=85cedcff-9e9a-415d-8415-195178ea3cb7"},"vehicle_type_id":"4","last_reported":1705514955,"current_range_meters":20000,"station_id":"ce4bhs92rcd13ifvqi0g","pricing_plan_id":"free"},{"bike_id":"7a5cfd19-67b5-4404-837f-9d2597d5b4a4","system_id":"levelo_inurba_marseille","lat":43.32826,"lon":5.36681,"is_reserved":false,"is_disabled":false,"rental_uris":{"android":"levelo://app?vid=7a5cfd19-67b5-4404-837f-9d2597d5b4a4","ios":"levelo://app?vid=7a5cfd19-67b5-4404-837f-9d2597d5b4a4"},"vehicle_type_id":"4","last_reported":1705514955,"current_range_meters":14000,"station_id":"ce4bhs92rcd13ifvqi0g","pricing_plan_id":"free"},{"bike_id":"bae0e6ef-8eeb-485a-a054-bea3431d2035","system_id":"levelo_inurba_marseille","lat":43.328276,"lon":5.366806,"is_reserved":false,"is_disabled":false,"rental_uris":{"android":"levelo://app?vid=bae0e6ef-8eeb-485a-a054-bea3431d2035","ios":"levelo://app?vid=bae0e6ef-8eeb-485a-a054-bea3431d2035"},"vehicle_type_id":"4","last_reported":1705514955,"current_range_meters":18800,"station_id":"ce4bhs92rcd13ifvqi0g","pricing_plan_id":"free"},{"bike_id":"9cda7071-0b99-4f13-a66f-99ee8455accb","system_id":"levelo_inurba_marseille","lat":43.32828,"lon":5.36674,"is_reserved":false,"is_disabled":false,"rental_uris":{"android":"levelo://app?vid=9cda7071-0b99-4f13-a66f-99ee8455accb","ios":"levelo://app?vid=9cda7071-0b99-4f13-a66f-99ee8455accb"},"vehicle_type_id":"4","last_reported":1705514955,"current_range_meters":17600,"station_id":"ce4bhs92rcd13ifvqi0g","pricing_plan_id":"free"},{"bike_id":"a53b6dde-9c97-4a96-897c-ee7f9265222d","system_id":"levelo_inurba_marseille","lat":43.328282,"lon":5.366788,"is_reserved":false,"is_disabled":false,"rental_uris":{"android":"levelo://app?vid=a53b6dde-9c97-4a96-897c-ee7f9265222d","ios":"levelo://app?vid=a53b6dde-9c97-4a96-897c-ee7f9265222d"},"vehicle_type_id":"4","last_reported":1705514955,"current_range_meters":21600,"station_id":"ce4bhs92rcd13ifvqi0g","pricing_plan_id":"free"},{"bike_id":"02f97db8-1e1e-4f38-89f3-11868234f7c3","system_id":"levelo_inurba_marseille","lat":43.328303,"lon":5.36676,"is_reserved":false,"is_disabled":false,"rental_uris":{"android":"levelo://app?vid=02f97db8-1e1e-4f38-89f3-11868234f7c3","ios":"levelo://app?vid=02f97db8-1e1e-4f38-89f3-11868234f7c3"},"vehicle_type_id":"4","last_reported":1705514955,"current_range_meters":17200,"station_id":"ce4bhs92rcd13ifvqi0g","pricing_plan_id":"free"},{"bike_id":"641739e6-19de-47df-9491-35da26c3c9da","system_id":"levelo_inurba_marseille","lat":43.32831,"lon":5.36676,"is_reserved":false,"is_disabled":false,"rental_uris":{"android":"levelo://app?vid=641739e6-19de-47df-9491-35da26c3c9da","ios":"levelo://app?vid=641739e6-19de-47df-9491-35da26c3c9da"},"vehicle_type_id":"4","last_reported":1705514955,"current_range_meters":400,"station_id":"ce4bhs92rcd13ifvqi0g","pricing_plan_id":"free"},{"bike_id":"88638e12-da12-4596-b7e2-600ab2f62219","system_id":"levelo_inurba_marseille","lat":43.32834,"lon":5.36679,"is_reserved":false,"is_disabled":false,"rental_uris":{"android":"levelo://app?vid=88638e12-da12-4596-b7e2-600ab2f62219","ios":"levelo://app?vid=88638e12-da12-4596-b7e2-600ab2f62219"},"vehicle_type_id":"4","last_reported":1705514955,"current_range_meters":9600,"station_id":"ce4bhs92rcd13ifvqi0g","pricing_plan_id":"free"},{"bike_id":"1a3153c9-ff6f-441c-bf5d-446ae2ed72d0","system_id":"levelo_inurba_marseille","lat":43.29715,"lon":5.36612,"is_reserved":false,"is_disabled":false,"rental_uris":{"android":"levelo://app?vid=1a3153c9-ff6f-441c-bf5d-446ae2ed72d0","ios":"levelo://app?vid=1a3153c9-ff6f-441c-bf5d-446ae2ed72d0"},"vehicle_type_id":"4","last_reported":1705514955,"current_range_meters":0,"station_id":"ce4bgn12rcd13ifvqbt0","pricing_plan_id":"free"},{"bike_id":"b4462b3d-7726-4d91-8012-ba1bac161ec5","system_id":"levelo_inurba_marseille","lat":43.29713,"lon":5.36595,"is_reserved":false,"is_disabled":false,"rental_uris":{"android":"levelo://app?vid=b4462b3d-7726-4d91-8012-ba1bac161ec5","ios":"levelo://app?vid=b4462b3d-7726-4d91-8012-ba1bac161ec5"},"vehicle_type_id":"4","last_reported":1705514955,"current_range_meters":24000,"station_id":"ce4bgn12rcd13ifvqbt0","pricing_plan_id":"free"},{"bike_id":"38082c03-fac1-44d3-a79f-5142b4a113a9","system_id":"levelo_inurba_marseille","lat":43.328373,"lon":5.366902,"is_reserved":false,"is_disabled":false,"rental_uris":{"android":"levelo://app?vid=38082c03-fac1-44d3-a79f-5142b4a113a9","ios":"levelo://app?vid=38082c03-fac1-44d3-a79f-5142b4a113a9"},"vehicle_type_id":"4","last_reported":1705514955,"current_range_meters":22400,"station_id":"ce4bhs92rcd13ifvqi0g","pricing_plan_id":"free"},{"bike_id":"a57fb72f-fba7-4d3c-bb6c-145fe89d9f7a","system_id":"levelo_inurba_marseille","lat":43.297163,"lon":5.365866,"is_reserved":false,"is_disabled":false,"rental_uris":{"android":"levelo://app?vid=a57fb72f-fba7-4d3c-bb6c-145fe89d9f7a","ios":"levelo://app?vid=a57fb72f-fba7-4d3c-bb6c-145fe89d9f7a"},"vehicle_type_id":"4","last_reported":1705514955,"current_range_meters":31600,"station_id":"ce4bgn12rcd13ifvqbt0","pricing_plan_id":"free"},{"bike_id":"c6744f53-5428-4454-8fc7-2722f2a1bf4f","system_id":"levelo_inurba_marseille","lat":43.29706,"lon":5.36611,"is_reserved":false,"is_disabled":false,"rental_uris":{"android":"levelo://app?vid=c6744f53-5428-4454-8fc7-2722f2a1bf4f","ios":"levelo://app?vid=c6744f53-5428-4454-8fc7-2722f2a1bf4f"},"vehicle_type_id":"4","last_reported":1705514955,"current_range_meters":15600,"station_id":"ce4bgn12rcd13ifvqbt0","pricing_plan_id":"free"},{"bike_id":"8c8841e0-3da9-4ec9-ab3e-86fdfcff75fa","system_id":"levelo_inurba_marseille","lat":43.297033,"lon":5.366013,"is_reserved":false,"is_disabled":false,"rental_uris":{"android":"levelo://app?vid=8c8841e0-3da9-4ec9-ab3e-86fdfcff75fa","ios":"levelo://app?vid=8c8841e0-3da9-4ec9-ab3e-86fdfcff75fa"},"vehicle_type_id":"4","last_reported":1705514955,"current_range_meters":12000,"station_id":"ce4bgn12rcd13ifvqbt0","pricing_plan_id":"free"},{"bike_id":"fca86b06-2160-4bc5-be0f-6c0b71564379","system_id":"levelo_inurba_marseille","lat":43.29702,"lon":5.36611,"is_reserved":false,"is_disabled":false,"rental_uris":{"android":"levelo://app?vid=fca86b06-2160-4bc5-be0f-6c0b71564379","ios":"levelo://app?vid=fca86b06-2160-4bc5-be0f-6c0b71564379"},"vehicle_type_id":"4","last_reported":1705514955,"current_range_meters":25600,"station_id":"ce4bgn12rcd13ifvqbt0","pricing_plan_id":"free"},{"bike_id":"d43c57c2-7bf4-4425-bc47-bf63cf92422b","system_id":"levelo_inurba_marseille","lat":43.29701,"lon":5.36614,"is_reserved":false,"is_disabled":false,"rental_uris":{"android":"levelo://app?vid=d43c57c2-7bf4-4425-bc47-bf63cf92422b","ios":"levelo://app?vid=d43c57c2-7bf4-4425-bc47-bf63cf92422b"},"vehicle_type_id":"4","last_reported":1705514955,"current_range_meters":13600,"station_id":"ce4bgn12rcd13ifvqbt0","pricing_plan_id":"free"},{"bike_id":"7d938c63-dbba-42ce-a1b7-02540336bb82","system_id":"levelo_inurba_marseille","lat":43.297163,"lon":5.365866,"is_reserved":false,"is_disabled":false,"rental_uris":{"android":"levelo://app?vid=7d938c63-dbba-42ce-a1b7-02540336bb82","ios":"levelo://app?vid=7d938c63-dbba-42ce-a1b7-02540336bb82"},"vehicle_type_id":"4","last_reported":1705514955,"current_range_meters":10800,"station_id":"ce4bgn12rcd13ifvqbt0","pricing_plan_id":"free"},{"bike_id":"75327801-226a-4cd6-87e3-76e954b3f0ed","system_id":"levelo_inurba_marseille","lat":43.2968,"lon":5.37291,"is_reserved":false,"is_disabled":false,"rental_uris":{"android":"levelo://app?vid=75327801-226a-4cd6-87e3-76e954b3f0ed","ios":"levelo://app?vid=75327801-226a-4cd6-87e3-76e954b3f0ed"},"vehicle_type_id":"4","last_reported":1705514955,"current_range_meters":28800,"station_id":"ce4bgk12rcd13ifvqbj0","pricing_plan_id":"free"},{"bike_id":"65adfcf7-a629-484a-9b33-f300917fa970","system_id":"levelo_inurba_marseille","lat":43.296131,"lon":5.370791,"is_reserved":false,"is_disabled":false,"rental_uris":{"android":"levelo://app?vid=65adfcf7-a629-484a-9b33-f300917fa970","ios":"levelo://app?vid=65adfcf7-a629-484a-9b33-f300917fa970"},"vehicle_type_id":"4","last_reported":1705514955,"current_range_meters":30000,"station_id":"ce4bgnh2rcd13ifvqc0g","pricing_plan_id":"free"},{"bike_id":"c6c2a42c-cb3e-4d36-a6b9-d2650d13a887","system_id":"levelo_inurba_marseille","lat":43.29573,"lon":5.367355,"is_reserved":false,"is_disabled":false,"rental_uris":{"android":"levelo://app?vid=c6c2a42c-cb3e-4d36-a6b9-d2650d13a887","ios":"levelo://app?vid=c6c2a42c-cb3e-4d36-a6b9-d2650d13a887"},"vehicle_type_id":"4","last_reported":1705514955,"current_range_meters":27200,"station_id":"ce4bgph2rcd13ifvqc2g","pricing_plan_id":"free"},{"bike_id":"5131e3c2-e8dd-4e8f-82af-617515a56617","system_id":"levelo_inurba_marseille","lat":43.299028,"lon":5.381509,"is_reserved":false,"is_disabled":false,"rental_uris":{"android":"levelo://app?vid=5131e3c2-e8dd-4e8f-82af-617515a56617","ios":"levelo://app?vid=5131e3c2-e8dd-4e8f-82af-617515a56617"},"vehicle_type_id":"4","last_reported":1705514955,"current_range_meters":30400,"station_id":"ce4bgj12rcd13ifvqbc0","pricing_plan_id":"free"},{"bike_id":"1760caf8-6654-44da-97f9-6434af21e26e","system_id":"levelo_inurba_marseille","lat":43.299028,"lon":5.381509,"is_reserved":false,"is_disabled":false,"rental_uris":{"android":"levelo://app?vid=1760caf8-6654-44da-97f9-6434af21e26e","ios":"levelo://app?vid=1760caf8-6654-44da-97f9-6434af21e26e"},"vehicle_type_id":"4","last_reported":1705514955,"current_range_meters":18000,"station_id":"ce4bgj12rcd13ifvqbc0","pricing_plan_id":"free"},{"bike_id":"32935f3e-9384-4f94-b00c-2513249f47cf","system_id":"levelo_inurba_marseille","lat":43.296701,"lon":5.375771,"is_reserved":false,"is_disabled":false,"rental_uris":{"android":"levelo://app?vid=32935f3e-9384-4f94-b00c-2513249f47cf","ios":"levelo://app?vid=32935f3e-9384-4f94-b00c-2513249f47cf"},"vehicle_type_id":"4","last_reported":1705514955,"current_range_meters":6800,"station_id":"","pricing_plan_id":"free"},{"bike_id":"ae25b857-b4fe-4172-ac22-c1cf3b35f4fa","system_id":"levelo_inurba_marseille","lat":43.309589,"lon":5.390258,"is_reserved":false,"is_disabled":false,"rental_uris":{"android":"levelo://app?vid=ae25b857-b4fe-4172-ac22-c1cf3b35f4fa","ios":"levelo://app?vid=ae25b857-b4fe-4172-ac22-c1cf3b35f4fa"},"vehicle_type_id":"4","last_reported":1705514955,"current_range_meters":5200,"station_id":"ce4bgup2rcd13ifvqco0","pricing_plan_id":"free"},{"bike_id":"531b506f-e7b8-4458-9265-c6dfc415b393","system_id":"levelo_inurba_marseille","lat":43.309589,"lon":5.390258,"is_reserved":false,"is_disabled":false,"rental_uris":{"android":"levelo://app?vid=531b506f-e7b8-4458-9265-c6dfc415b393","ios":"levelo://app?vid=531b506f-e7b8-4458-9265-c6dfc415b393"},"vehicle_type_id":"4","last_reported":1705514955,"current_range_meters":20400,"station_id":"ce4bgup2rcd13ifvqco0","pricing_plan_id":"free"},{"bike_id":"e77c535a-aa14-4adf-b6c7-4eef60e37ea5","system_id":"levelo_inurba_marseille","lat":43.309589,"lon":5.390258,"is_reserved":false,"is_disabled":false,"rental_uris":{"android":"levelo://app?vid=e77c535a-aa14-4adf-b6c7-4eef60e37ea5","ios":"levelo://app?vid=e77c535a-aa14-4adf-b6c7-4eef60e37ea5"},"vehicle_type_id":"4","last_reported":1705514955,"current_range_meters":21200,"station_id":"ce4bgup2rcd13ifvqco0","pricing_plan_id":"free"},{"bike_id":"369fc543-c745-4505-8a14-66a26b07e9db","system_id":"levelo_inurba_marseille","lat":43.309589,"lon":5.390258,"is_reserved":false,"is_disabled":false,"rental_uris":{"android":"levelo://app?vid=369fc543-c745-4505-8a14-66a26b07e9db","ios":"levelo://app?vid=369fc543-c745-4505-8a14-66a26b07e9db"},"vehicle_type_id":"4","last_reported":1705514955,"current_range_meters":16400,"station_id":"ce4bgup2rcd13ifvqco0","pricing_plan_id":"free"},{"bike_id":"ae04197c-27cd-44f2-a5dc-680c3f3e39b6","system_id":"levelo_inurba_marseille","lat":43.317557,"lon":5.390173,"is_reserved":false,"is_disabled":false,"rental_uris":{"android":"levelo://app?vid=ae04197c-27cd-44f2-a5dc-680c3f3e39b6","ios":"levelo://app?vid=ae04197c-27cd-44f2-a5dc-680c3f3e39b6"},"vehicle_type_id":"4","last_reported":1705514955,"current_range_meters":7600,"station_id":"ce4bhqp2rcd13ifvqhng","pricing_plan_id":"free"},{"bike_id":"14bfab19-5549-4458-bee0-c972e66d182b","system_id":"levelo_inurba_marseille","lat":43.317557,"lon":5.390173,"is_reserved":false,"is_disabled":false,"rental_uris":{"android":"levelo://app?vid=14bfab19-5549-4458-bee0-c972e66d182b","ios":"levelo://app?vid=14bfab19-5549-4458-bee0-c972e66d182b"},"vehicle_type_id":"4","last_reported":1705514955,"current_range_meters":27600,"station_id":"ce4bhqp2rcd13ifvqhng","pricing_plan_id":"free"},{"bike_id":"3fc1c41e-5148-4539-8611-6ae4c5633027","system_id":"levelo_inurba_marseille","lat":43.317557,"lon":5.390173,"is_reserved":false,"is_disabled":false,"rental_uris":{"android":"levelo://app?vid=3fc1c41e-5148-4539-8611-6ae4c5633027","ios":"levelo://app?vid=3fc1c41e-5148-4539-8611-6ae4c5633027"},"vehicle_type_id":"4","last_reported":1705514955,"current_range_meters":18800,"station_id":"ce4bhqp2rcd13ifvqhng","pricing_plan_id":"free"},{"bike_id":"248e45cf-ee62-44b7-95a2-300a3119b3d7","system_id":"levelo_inurba_marseille","lat":43.298037,"lon":5.381066,"is_reserved":false,"is_disabled":false,"rental_uris":{"android":"levelo://app?vid=248e45cf-ee62-44b7-95a2-300a3119b3d7","ios":"levelo://app?vid=248e45cf-ee62-44b7-95a2-300a3119b3d7"},"vehicle_type_id":"4","last_reported":1705514955,"current_range_meters":24000,"station_id":"ce4bgip2rcd13ifvqbb0","pricing_plan_id":"free"},{"bike_id":"6dd42397-db80-4e3e-b14a-9f21621dcbe4","system_id":"levelo_inurba_marseille","lat":43.304278,"lon":5.388868,"is_reserved":false,"is_disabled":false,"rental_uris":{"android":"levelo://app?vid=6dd42397-db80-4e3e-b14a-9f21621dcbe4","ios":"levelo://app?vid=6dd42397-db80-4e3e-b14a-9f21621dcbe4"},"vehicle_type_id":"4","last_reported":1705514955,"current_range_meters":400,"station_id":"ce4bgk12rcd13ifvqbi0","pricing_plan_id":"free"},{"bike_id":"ca150350-f7fa-4d05-8df5-fb21065da687","system_id":"levelo_inurba_marseille","lat":43.304274,"lon":5.388873,"is_reserved":false,"is_disabled":false,"rental_uris":{"android":"levelo://app?vid=ca150350-f7fa-4d05-8df5-fb21065da687","ios":"levelo://app?vid=ca150350-f7fa-4d05-8df5-fb21065da687"},"vehicle_type_id":"4","last_reported":1705514955,"current_range_meters":4800,"station_id":"ce4bgk12rcd13ifvqbi0","pricing_plan_id":"free"},{"bike_id":"93117c9e-526b-460b-8d5e-74b212349d98","system_id":"levelo_inurba_marseille","lat":43.304372,"lon":5.388916,"is_reserved":false,"is_disabled":false,"rental_uris":{"android":"levelo://app?vid=93117c9e-526b-460b-8d5e-74b212349d98","ios":"levelo://app?vid=93117c9e-526b-460b-8d5e-74b212349d98"},"vehicle_type_id":"4","last_reported":1705514955,"current_range_meters":800,"station_id":"ce4bgk12rcd13ifvqbi0","pricing_plan_id":"free"},{"bike_id":"45adc039-67f3-42eb-baff-dedcdd4aad87","system_id":"levelo_inurba_marseille","lat":43.304274,"lon":5.388873,"is_reserved":false,"is_disabled":false,"rental_uris":{"android":"levelo://app?vid=45adc039-67f3-42eb-baff-dedcdd4aad87","ios":"levelo://app?vid=45adc039-67f3-42eb-baff-dedcdd4aad87"},"vehicle_type_id":"4","last_reported":1705514955,"current_range_meters":5200,"station_id":"ce4bgk12rcd13ifvqbi0","pricing_plan_id":"free"},{"bike_id":"1e134b88-b23b-43cc-ba02-857e074ece00","system_id":"levelo_inurba_marseille","lat":43.30445,"lon":5.38911,"is_reserved":false,"is_disabled":false,"rental_uris":{"android":"levelo://app?vid=1e134b88-b23b-43cc-ba02-857e074ece00","ios":"levelo://app?vid=1e134b88-b23b-43cc-ba02-857e074ece00"},"vehicle_type_id":"4","last_reported":1705514955,"current_range_meters":2400,"station_id":"ce4bgk12rcd13ifvqbi0","pricing_plan_id":"free"},{"bike_id":"2992a8a2-2230-4889-93df-14df567e2dda","system_id":"levelo_inurba_marseille","lat":43.295279,"lon":5.375048,"is_reserved":false,"is_disabled":false,"rental_uris":{"android":"levelo://app?vid=2992a8a2-2230-4889-93df-14df567e2dda","ios":"levelo://app?vid=2992a8a2-2230-4889-93df-14df567e2dda"},"vehicle_type_id":"4","last_reported":1705514955,"current_range_meters":20400,"station_id":"ce4bgkp2rcd13ifvqbmg","pricing_plan_id":"free"},{"bike_id":"bf0f37c9-34e4-4880-b61b-32e123f04b88","system_id":"levelo_inurba_marseille","lat":43.299707,"lon":5.384859,"is_reserved":false,"is_disabled":false,"rental_uris":{"android":"levelo://app?vid=bf0f37c9-34e4-4880-b61b-32e123f04b88","ios":"levelo://app?vid=bf0f37c9-34e4-4880-b61b-32e123f04b88"},"vehicle_type_id":"4","last_reported":1705514955,"current_range_meters":20000,"station_id":"ce4bgj92rcd13ifvqbd0","pricing_plan_id":"free"},{"bike_id":"e08d12b7-c0a4-4aa0-ab51-a24eb81bbc09","system_id":"levelo_inurba_marseille","lat":43.29964,"lon":5.38476,"is_reserved":false,"is_disabled":false,"rental_uris":{"android":"levelo://app?vid=e08d12b7-c0a4-4aa0-ab51-a24eb81bbc09","ios":"levelo://app?vid=e08d12b7-c0a4-4aa0-ab51-a24eb81bbc09"},"vehicle_type_id":"4","last_reported":1705514955,"current_range_meters":5600,"station_id":"","pricing_plan_id":"free"},{"bike_id":"f65eac4e-0e58-4737-8917-e016bf9d4784","system_id":"levelo_inurba_marseille","lat":43.295279,"lon":5.375048,"is_reserved":false,"is_disabled":false,"rental_uris":{"android":"levelo://app?vid=f65eac4e-0e58-4737-8917-e016bf9d4784","ios":"levelo://app?vid=f65eac4e-0e58-4737-8917-e016bf9d4784"},"vehicle_type_id":"4","last_reported":1705514955,"current_range_meters":0,"station_id":"ce4bgkp2rcd13ifvqbmg","pricing_plan_id":"free"},{"bike_id":"40b3a212-5f0f-438d-a159-a2e754b53e66","system_id":"levelo_inurba_marseille","lat":43.299724,"lon":5.384848,"is_reserved":false,"is_disabled":false,"rental_uris":{"android":"levelo://app?vid=40b3a212-5f0f-438d-a159-a2e754b53e66","ios":"levelo://app?vid=40b3a212-5f0f-438d-a159-a2e754b53e66"},"vehicle_type_id":"4","last_reported":1705514955,"current_range_meters":7200,"station_id":"ce4bgj92rcd13ifvqbd0","pricing_plan_id":"free"},{"bike_id":"3830786e-8ef8-4c97-9d5b-f38f73013422","system_id":"levelo_inurba_marseille","lat":43.299717,"lon":5.384845,"is_reserved":false,"is_disabled":false,"rental_uris":{"android":"levelo://app?vid=3830786e-8ef8-4c97-9d5b-f38f73013422","ios":"levelo://app?vid=3830786e-8ef8-4c97-9d5b-f38f73013422"},"vehicle_type_id":"4","last_reported":1705514955,"current_range_meters":16000,"station_id":"ce4bgj92rcd13ifvqbd0","pricing_plan_id":"free"},{"bike_id":"a15063df-aede-4928-b84c-da8c67bc7c2f","system_id":"levelo_inurba_marseille","lat":43.299717,"lon":5.384845,"is_reserved":false,"is_disabled":false,"rental_uris":{"android":"levelo://app?vid=a15063df-aede-4928-b84c-da8c67bc7c2f","ios":"levelo://app?vid=a15063df-aede-4928-b84c-da8c67bc7c2f"},"vehicle_type_id":"4","last_reported":1705514955,"current_range_meters":31200,"station_id":"ce4bgj92rcd13ifvqbd0","pricing_plan_id":"free"},{"bike_id":"7cbab40b-0c67-4f57-8ee4-06afd8e5e065","system_id":"levelo_inurba_marseille","lat":43.299724,"lon":5.384848,"is_reserved":false,"is_disabled":false,"rental_uris":{"android":"levelo://app?vid=7cbab40b-0c67-4f57-8ee4-06afd8e5e065","ios":"levelo://app?vid=7cbab40b-0c67-4f57-8ee4-06afd8e5e065"},"vehicle_type_id":"4","last_reported":1705514955,"current_range_meters":21200,"station_id":"ce4bgj92rcd13ifvqbd0","pricing_plan_id":"free"},{"bike_id":"729b1129-c077-4e1d-a97f-2b4fe2e2cfb0","system_id":"levelo_inurba_marseille","lat":43.299724,"lon":5.384848,"is_reserved":false,"is_disabled":false,"rental_uris":{"android":"levelo://app?vid=729b1129-c077-4e1d-a97f-2b4fe2e2cfb0","ios":"levelo://app?vid=729b1129-c077-4e1d-a97f-2b4fe2e2cfb0"},"vehicle_type_id":"4","last_reported":1705514955,"current_range_meters":22000,"station_id":"ce4bgj92rcd13ifvqbd0","pricing_plan_id":"free"},{"bike_id":"8c683a70-e779-4a8e-bf9c-8aaaf46b6f30","system_id":"levelo_inurba_marseille","lat":43.32367,"lon":5.388836,"is_reserved":false,"is_disabled":false,"rental_uris":{"android":"levelo://app?vid=8c683a70-e779-4a8e-bf9c-8aaaf46b6f30","ios":"levelo://app?vid=8c683a70-e779-4a8e-bf9c-8aaaf46b6f30"},"vehicle_type_id":"4","last_reported":1705514955,"current_range_meters":20400,"station_id":"ce4bhqp2rcd13ifvqhog","pricing_plan_id":"free"},{"bike_id":"dfaa302c-58f2-441b-8b66-a88d65e9e952","system_id":"levelo_inurba_marseille","lat":43.32367,"lon":5.388836,"is_reserved":false,"is_disabled":false,"rental_uris":{"android":"levelo://app?vid=dfaa302c-58f2-441b-8b66-a88d65e9e952","ios":"levelo://app?vid=dfaa302c-58f2-441b-8b66-a88d65e9e952"},"vehicle_type_id":"4","last_reported":1705514955,"current_range_meters":29200,"station_id":"ce4bhqp2rcd13ifvqhog","pricing_plan_id":"free"},{"bike_id":"4e1e9b11-3c6c-41ca-93a2-a6773594a990","system_id":"levelo_inurba_marseille","lat":43.32367,"lon":5.388836,"is_reserved":false,"is_disabled":false,"rental_uris":{"android":"levelo://app?vid=4e1e9b11-3c6c-41ca-93a2-a6773594a990","ios":"levelo://app?vid=4e1e9b11-3c6c-41ca-93a2-a6773594a990"},"vehicle_type_id":"4","last_reported":1705514955,"current_range_meters":28800,"station_id":"ce4bhqp2rcd13ifvqhog","pricing_plan_id":"free"},{"bike_id":"b7beb6a5-b030-4fe2-a25b-ee6b5b88bebb","system_id":"levelo_inurba_marseille","lat":43.32367,"lon":5.388836,"is_reserved":false,"is_disabled":false,"rental_uris":{"android":"levelo://app?vid=b7beb6a5-b030-4fe2-a25b-ee6b5b88bebb","ios":"levelo://app?vid=b7beb6a5-b030-4fe2-a25b-ee6b5b88bebb"},"vehicle_type_id":"4","last_reported":1705514955,"current_range_meters":30800,"station_id":"ce4bhqp2rcd13ifvqhog","pricing_plan_id":"free"},{"bike_id":"ebf063ec-fe68-439b-bf38-249e36edea5c","system_id":"levelo_inurba_marseille","lat":43.32367,"lon":5.388836,"is_reserved":false,"is_disabled":false,"rental_uris":{"android":"levelo://app?vid=ebf063ec-fe68-439b-bf38-249e36edea5c","ios":"levelo://app?vid=ebf063ec-fe68-439b-bf38-249e36edea5c"},"vehicle_type_id":"4","last_reported":1705514955,"current_range_meters":17200,"station_id":"ce4bhqp2rcd13ifvqhog","pricing_plan_id":"free"},{"bike_id":"ae329723-b6cd-4f52-99af-83cccf370dd2","system_id":"levelo_inurba_marseille","lat":43.32367,"lon":5.388836,"is_reserved":false,"is_disabled":false,"rental_uris":{"android":"levelo://app?vid=ae329723-b6cd-4f52-99af-83cccf370dd2","ios":"levelo://app?vid=ae329723-b6cd-4f52-99af-83cccf370dd2"},"vehicle_type_id":"4","last_reported":1705514955,"current_range_meters":10400,"station_id":"ce4bhqp2rcd13ifvqhog","pricing_plan_id":"free"},{"bike_id":"37488e4d-837d-443b-a7f0-f22909aa2c7f","system_id":"levelo_inurba_marseille","lat":43.32367,"lon":5.388836,"is_reserved":false,"is_disabled":false,"rental_uris":{"android":"levelo://app?vid=37488e4d-837d-443b-a7f0-f22909aa2c7f","ios":"levelo://app?vid=37488e4d-837d-443b-a7f0-f22909aa2c7f"},"vehicle_type_id":"4","last_reported":1705514955,"current_range_meters":24400,"station_id":"ce4bhqp2rcd13ifvqhog","pricing_plan_id":"free"},{"bike_id":"48d01839-1c06-4604-a1d2-ae1f8bd3df35","system_id":"levelo_inurba_marseille","lat":43.32367,"lon":5.388836,"is_reserved":false,"is_disabled":false,"rental_uris":{"android":"levelo://app?vid=48d01839-1c06-4604-a1d2-ae1f8bd3df35","ios":"levelo://app?vid=48d01839-1c06-4604-a1d2-ae1f8bd3df35"},"vehicle_type_id":"4","last_reported":1705514955,"current_range_meters":14800,"station_id":"ce4bhqp2rcd13ifvqhog","pricing_plan_id":"free"},{"bike_id":"ab1d9b80-665e-4ca5-9110-b3e7655cdda0","system_id":"levelo_inurba_marseille","lat":43.32367,"lon":5.388836,"is_reserved":false,"is_disabled":false,"rental_uris":{"android":"levelo://app?vid=ab1d9b80-665e-4ca5-9110-b3e7655cdda0","ios":"levelo://app?vid=ab1d9b80-665e-4ca5-9110-b3e7655cdda0"},"vehicle_type_id":"4","last_reported":1705514955,"current_range_meters":16400,"station_id":"ce4bhqp2rcd13ifvqhog","pricing_plan_id":"free"},{"bike_id":"4ed8488a-f05c-4119-bfec-f892cce04e14","system_id":"levelo_inurba_marseille","lat":43.32367,"lon":5.388836,"is_reserved":false,"is_disabled":false,"rental_uris":{"android":"levelo://app?vid=4ed8488a-f05c-4119-bfec-f892cce04e14","ios":"levelo://app?vid=4ed8488a-f05c-4119-bfec-f892cce04e14"},"vehicle_type_id":"4","last_reported":1705514955,"current_range_meters":30400,"station_id":"ce4bhqp2rcd13ifvqhog","pricing_plan_id":"free"},{"bike_id":"5887ba77-b141-46e7-80f3-1e60b33b738c","system_id":"levelo_inurba_marseille","lat":43.32367,"lon":5.388836,"is_reserved":false,"is_disabled":false,"rental_uris":{"android":"levelo://app?vid=5887ba77-b141-46e7-80f3-1e60b33b738c","ios":"levelo://app?vid=5887ba77-b141-46e7-80f3-1e60b33b738c"},"vehicle_type_id":"4","last_reported":1705514955,"current_range_meters":20400,"station_id":"ce4bhqp2rcd13ifvqhog","pricing_plan_id":"free"},{"bike_id":"f7aa7bd5-9de4-4647-9d4c-974d2b3c6d5a","system_id":"levelo_inurba_marseille","lat":43.32367,"lon":5.388836,"is_reserved":false,"is_disabled":false,"rental_uris":{"android":"levelo://app?vid=f7aa7bd5-9de4-4647-9d4c-974d2b3c6d5a","ios":"levelo://app?vid=f7aa7bd5-9de4-4647-9d4c-974d2b3c6d5a"},"vehicle_type_id":"4","last_reported":1705514955,"current_range_meters":25200,"station_id":"ce4bhqp2rcd13ifvqhog","pricing_plan_id":"free"},{"bike_id":"4105c154-7a2e-4cd6-9ea7-4d06f6570656","system_id":"levelo_inurba_marseille","lat":43.32367,"lon":5.388836,"is_reserved":false,"is_disabled":false,"rental_uris":{"android":"levelo://app?vid=4105c154-7a2e-4cd6-9ea7-4d06f6570656","ios":"levelo://app?vid=4105c154-7a2e-4cd6-9ea7-4d06f6570656"},"vehicle_type_id":"4","last_reported":1705514955,"current_range_meters":24800,"station_id":"ce4bhqp2rcd13ifvqhog","pricing_plan_id":"free"},{"bike_id":"2ec4001f-5cf2-4614-bbfc-ffc6c5b765c3","system_id":"levelo_inurba_marseille","lat":43.32367,"lon":5.388836,"is_reserved":false,"is_disabled":false,"rental_uris":{"android":"levelo://app?vid=2ec4001f-5cf2-4614-bbfc-ffc6c5b765c3","ios":"levelo://app?vid=2ec4001f-5cf2-4614-bbfc-ffc6c5b765c3"},"vehicle_type_id":"4","last_reported":1705514955,"current_range_meters":24000,"station_id":"ce4bhqp2rcd13ifvqhog","pricing_plan_id":"free"},{"bike_id":"7269ba30-2acb-40c8-85a3-50770d25dcf9","system_id":"levelo_inurba_marseille","lat":43.29601,"lon":5.381084,"is_reserved":false,"is_disabled":false,"rental_uris":{"android":"levelo://app?vid=7269ba30-2acb-40c8-85a3-50770d25dcf9","ios":"levelo://app?vid=7269ba30-2acb-40c8-85a3-50770d25dcf9"},"vehicle_type_id":"4","last_reported":1705514955,"current_range_meters":22400,"station_id":"ce4bgl12rcd13ifvqbo0","pricing_plan_id":"free"},{"bike_id":"a4d343a3-486f-48d9-aa66-24c4b9d7359c","system_id":"levelo_inurba_marseille","lat":43.29524,"lon":5.37914,"is_reserved":false,"is_disabled":false,"rental_uris":{"android":"levelo://app?vid=a4d343a3-486f-48d9-aa66-24c4b9d7359c","ios":"levelo://app?vid=a4d343a3-486f-48d9-aa66-24c4b9d7359c"},"vehicle_type_id":"4","last_reported":1705514955,"current_range_meters":10400,"station_id":"","pricing_plan_id":"free"},{"bike_id":"79d6bda8-388c-4a76-aac0-a4bb86cb5dd2","system_id":"levelo_inurba_marseille","lat":43.29601,"lon":5.381084,"is_reserved":false,"is_disabled":false,"rental_uris":{"android":"levelo://app?vid=79d6bda8-388c-4a76-aac0-a4bb86cb5dd2","ios":"levelo://app?vid=79d6bda8-388c-4a76-aac0-a4bb86cb5dd2"},"vehicle_type_id":"4","last_reported":1705514955,"current_range_meters":29200,"station_id":"ce4bgl12rcd13ifvqbo0","pricing_plan_id":"free"},{"bike_id":"cded705a-5626-4809-831c-f4c79d6a842a","system_id":"levelo_inurba_marseille","lat":43.29601,"lon":5.381084,"is_reserved":false,"is_disabled":false,"rental_uris":{"android":"levelo://app?vid=cded705a-5626-4809-831c-f4c79d6a842a","ios":"levelo://app?vid=cded705a-5626-4809-831c-f4c79d6a842a"},"vehicle_type_id":"4","last_reported":1705514955,"current_range_meters":21600,"station_id":"ce4bgl12rcd13ifvqbo0","pricing_plan_id":"free"},{"bike_id":"12605e5c-c94d-4006-905e-781049bfd495","system_id":"levelo_inurba_marseille","lat":43.29601,"lon":5.381084,"is_reserved":false,"is_disabled":false,"rental_uris":{"android":"levelo://app?vid=12605e5c-c94d-4006-905e-781049bfd495","ios":"levelo://app?vid=12605e5c-c94d-4006-905e-781049bfd495"},"vehicle_type_id":"4","last_reported":1705514955,"current_range_meters":31200,"station_id":"ce4bgl12rcd13ifvqbo0","pricing_plan_id":"free"},{"bike_id":"f3771900-67ab-4069-8e25-b69067d3ec26","system_id":"levelo_inurba_marseille","lat":43.29602,"lon":5.381084,"is_reserved":false,"is_disabled":false,"rental_uris":{"android":"levelo://app?vid=f3771900-67ab-4069-8e25-b69067d3ec26","ios":"levelo://app?vid=f3771900-67ab-4069-8e25-b69067d3ec26"},"vehicle_type_id":"4","last_reported":1705514955,"current_range_meters":15200,"station_id":"ce4bgl12rcd13ifvqbo0","pricing_plan_id":"free"},{"bike_id":"d66248c1-dc55-4cdb-a269-c0de4e9aade3","system_id":"levelo_inurba_marseille","lat":43.293249,"lon":5.371578,"is_reserved":false,"is_disabled":false,"rental_uris":{"android":"levelo://app?vid=d66248c1-dc55-4cdb-a269-c0de4e9aade3","ios":"levelo://app?vid=d66248c1-dc55-4cdb-a269-c0de4e9aade3"},"vehicle_type_id":"4","last_reported":1705514955,"current_range_meters":16000,"station_id":"ce4bgh92rcd13ifvqb40","pricing_plan_id":"free"},{"bike_id":"4de1fc05-d596-4070-85f5-e297eae7d5e5","system_id":"levelo_inurba_marseille","lat":43.292749,"lon":5.368402,"is_reserved":false,"is_disabled":false,"rental_uris":{"android":"levelo://app?vid=4de1fc05-d596-4070-85f5-e297eae7d5e5","ios":"levelo://app?vid=4de1fc05-d596-4070-85f5-e297eae7d5e5"},"vehicle_type_id":"4","last_reported":1705514955,"current_range_meters":10400,"station_id":"ce4bhbp2rcd13ifvqesg","pricing_plan_id":"free"},{"bike_id":"bc8f62f8-cf66-4265-a8b7-69bce55cd5cc","system_id":"levelo_inurba_marseille","lat":43.292749,"lon":5.368402,"is_reserved":false,"is_disabled":false,"rental_uris":{"android":"levelo://app?vid=bc8f62f8-cf66-4265-a8b7-69bce55cd5cc","ios":"levelo://app?vid=bc8f62f8-cf66-4265-a8b7-69bce55cd5cc"},"vehicle_type_id":"4","last_reported":1705514955,"current_range_meters":4000,"station_id":"ce4bhbp2rcd13ifvqesg","pricing_plan_id":"free"},{"bike_id":"8c41f5a8-7007-4fa6-b579-a357492cfc67","system_id":"levelo_inurba_marseille","lat":43.293259,"lon":5.371586,"is_reserved":false,"is_disabled":false,"rental_uris":{"android":"levelo://app?vid=8c41f5a8-7007-4fa6-b579-a357492cfc67","ios":"levelo://app?vid=8c41f5a8-7007-4fa6-b579-a357492cfc67"},"vehicle_type_id":"4","last_reported":1705514955,"current_range_meters":27200,"station_id":"ce4bgh92rcd13ifvqb40","pricing_plan_id":"free"},{"bike_id":"35fff85c-86a7-48e7-b159-494f155d9d1a","system_id":"levelo_inurba_marseille","lat":43.292749,"lon":5.368402,"is_reserved":false,"is_disabled":false,"rental_uris":{"android":"levelo://app?vid=35fff85c-86a7-48e7-b159-494f155d9d1a","ios":"levelo://app?vid=35fff85c-86a7-48e7-b159-494f155d9d1a"},"vehicle_type_id":"4","last_reported":1705514955,"current_range_meters":26800,"station_id":"ce4bhbp2rcd13ifvqesg","pricing_plan_id":"free"},{"bike_id":"0e2940fb-de18-4aef-a7e3-b9db86d75381","system_id":"levelo_inurba_marseille","lat":43.293009,"lon":5.374584,"is_reserved":false,"is_disabled":false,"rental_uris":{"android":"levelo://app?vid=0e2940fb-de18-4aef-a7e3-b9db86d75381","ios":"levelo://app?vid=0e2940fb-de18-4aef-a7e3-b9db86d75381"},"vehicle_type_id":"4","last_reported":1705514955,"current_range_meters":2000,"station_id":"ce4bgi12rcd13ifvqb70","pricing_plan_id":"free"},{"bike_id":"e516b95f-ee18-4caa-bd04-fb9d2d60927b","system_id":"levelo_inurba_marseille","lat":43.293009,"lon":5.374584,"is_reserved":false,"is_disabled":false,"rental_uris":{"android":"levelo://app?vid=e516b95f-ee18-4caa-bd04-fb9d2d60927b","ios":"levelo://app?vid=e516b95f-ee18-4caa-bd04-fb9d2d60927b"},"vehicle_type_id":"4","last_reported":1705514955,"current_range_meters":14800,"station_id":"ce4bgi12rcd13ifvqb70","pricing_plan_id":"free"},{"bike_id":"b1842335-f0cd-4c57-bc39-08b0e6aa4b28","system_id":"levelo_inurba_marseille","lat":43.293009,"lon":5.374584,"is_reserved":false,"is_disabled":false,"rental_uris":{"android":"levelo://app?vid=b1842335-f0cd-4c57-bc39-08b0e6aa4b28","ios":"levelo://app?vid=b1842335-f0cd-4c57-bc39-08b0e6aa4b28"},"vehicle_type_id":"4","last_reported":1705514955,"current_range_meters":17200,"station_id":"ce4bgi12rcd13ifvqb70","pricing_plan_id":"free"},{"bike_id":"4e170446-664e-4598-83d8-aa09d68d1488","system_id":"levelo_inurba_marseille","lat":43.303002,"lon":5.392142,"is_reserved":false,"is_disabled":false,"rental_uris":{"android":"levelo://app?vid=4e170446-664e-4598-83d8-aa09d68d1488","ios":"levelo://app?vid=4e170446-664e-4598-83d8-aa09d68d1488"},"vehicle_type_id":"4","last_reported":1705514955,"current_range_meters":25200,"station_id":"ce4bgkh2rcd13ifvqbk0","pricing_plan_id":"free"},{"bike_id":"6387ce18-0496-4497-9687-ef6c027f4d1a","system_id":"levelo_inurba_marseille","lat":43.302992,"lon":5.392136,"is_reserved":false,"is_disabled":false,"rental_uris":{"android":"levelo://app?vid=6387ce18-0496-4497-9687-ef6c027f4d1a","ios":"levelo://app?vid=6387ce18-0496-4497-9687-ef6c027f4d1a"},"vehicle_type_id":"4","last_reported":1705514955,"current_range_meters":14800,"station_id":"ce4bgkh2rcd13ifvqbk0","pricing_plan_id":"free"},{"bike_id":"d20fa685-410e-42bf-96c4-9c9b8892d1be","system_id":"levelo_inurba_marseille","lat":43.302992,"lon":5.392136,"is_reserved":false,"is_disabled":false,"rental_uris":{"android":"levelo://app?vid=d20fa685-410e-42bf-96c4-9c9b8892d1be","ios":"levelo://app?vid=d20fa685-410e-42bf-96c4-9c9b8892d1be"},"vehicle_type_id":"4","last_reported":1705514955,"current_range_meters":10800,"station_id":"ce4bgkh2rcd13ifvqbk0","pricing_plan_id":"free"},{"bike_id":"cec1818c-62f2-4343-84f2-3af6453291ed","system_id":"levelo_inurba_marseille","lat":43.298577,"lon":5.387943,"is_reserved":false,"is_disabled":false,"rental_uris":{"android":"levelo://app?vid=cec1818c-62f2-4343-84f2-3af6453291ed","ios":"levelo://app?vid=cec1818c-62f2-4343-84f2-3af6453291ed"},"vehicle_type_id":"4","last_reported":1705514955,"current_range_meters":20800,"station_id":"","pricing_plan_id":"free"},{"bike_id":"9509fdd8-6e63-4115-b72f-8218644c06bf","system_id":"levelo_inurba_marseille","lat":43.299717,"lon":5.384845,"is_reserved":false,"is_disabled":false,"rental_uris":{"android":"levelo://app?vid=9509fdd8-6e63-4115-b72f-8218644c06bf","ios":"levelo://app?vid=9509fdd8-6e63-4115-b72f-8218644c06bf"},"vehicle_type_id":"4","last_reported":1705514955,"current_range_meters":18400,"station_id":"ce4bgj92rcd13ifvqbd0","pricing_plan_id":"free"},{"bike_id":"7338ae99-030e-4d7d-917f-3d658565d59e","system_id":"levelo_inurba_marseille","lat":43.300852,"lon":5.390859,"is_reserved":false,"is_disabled":false,"rental_uris":{"android":"levelo://app?vid=7338ae99-030e-4d7d-917f-3d658565d59e","ios":"levelo://app?vid=7338ae99-030e-4d7d-917f-3d658565d59e"},"vehicle_type_id":"4","last_reported":1705514955,"current_range_meters":21200,"station_id":"ce4bh192rcd13ifvqdb0","pricing_plan_id":"free"},{"bike_id":"f98b5a96-2d08-4c92-b7cb-0f9b23c5bb13","system_id":"levelo_inurba_marseille","lat":43.300852,"lon":5.390859,"is_reserved":false,"is_disabled":false,"rental_uris":{"android":"levelo://app?vid=f98b5a96-2d08-4c92-b7cb-0f9b23c5bb13","ios":"levelo://app?vid=f98b5a96-2d08-4c92-b7cb-0f9b23c5bb13"},"vehicle_type_id":"4","last_reported":1705514955,"current_range_meters":7200,"station_id":"ce4bh192rcd13ifvqdb0","pricing_plan_id":"free"},{"bike_id":"d32acd03-b7b1-4b80-9b4a-fab5d27b218d","system_id":"levelo_inurba_marseille","lat":43.30085,"lon":5.390856,"is_reserved":false,"is_disabled":false,"rental_uris":{"android":"levelo://app?vid=d32acd03-b7b1-4b80-9b4a-fab5d27b218d","ios":"levelo://app?vid=d32acd03-b7b1-4b80-9b4a-fab5d27b218d"},"vehicle_type_id":"4","last_reported":1705514955,"current_range_meters":26000,"station_id":"ce4bh192rcd13ifvqdb0","pricing_plan_id":"free"},{"bike_id":"bc25def7-5912-4da4-9339-8f6c72d72c3d","system_id":"levelo_inurba_marseille","lat":43.30085,"lon":5.390856,"is_reserved":false,"is_disabled":false,"rental_uris":{"android":"levelo://app?vid=bc25def7-5912-4da4-9339-8f6c72d72c3d","ios":"levelo://app?vid=bc25def7-5912-4da4-9339-8f6c72d72c3d"},"vehicle_type_id":"4","last_reported":1705514955,"current_range_meters":21600,"station_id":"ce4bh192rcd13ifvqdb0","pricing_plan_id":"free"},{"bike_id":"6d200277-c8cc-42e2-a0ed-8381df9431f9","system_id":"levelo_inurba_marseille","lat":43.291627,"lon":5.371477,"is_reserved":false,"is_disabled":false,"rental_uris":{"android":"levelo://app?vid=6d200277-c8cc-42e2-a0ed-8381df9431f9","ios":"levelo://app?vid=6d200277-c8cc-42e2-a0ed-8381df9431f9"},"vehicle_type_id":"4","last_reported":1705514955,"current_range_meters":1600,"station_id":"ce4bha92rcd13ifvqeh0","pricing_plan_id":"free"},{"bike_id":"827ffc24-bc0a-4bd6-a2cb-18062492140c","system_id":"levelo_inurba_marseille","lat":43.308807,"lon":5.396343,"is_reserved":false,"is_disabled":false,"rental_uris":{"android":"levelo://app?vid=827ffc24-bc0a-4bd6-a2cb-18062492140c","ios":"levelo://app?vid=827ffc24-bc0a-4bd6-a2cb-18062492140c"},"vehicle_type_id":"4","last_reported":1705514955,"current_range_meters":8000,"station_id":"ce4bh012rcd13ifvqcv0","pricing_plan_id":"free"},{"bike_id":"5045406e-995a-4c59-8208-43bc63deaa15","system_id":"levelo_inurba_marseille","lat":43.291994,"lon":5.357886,"is_reserved":false,"is_disabled":false,"rental_uris":{"android":"levelo://app?vid=5045406e-995a-4c59-8208-43bc63deaa15","ios":"levelo://app?vid=5045406e-995a-4c59-8208-43bc63deaa15"},"vehicle_type_id":"4","last_reported":1705514955,"current_range_meters":5200,"station_id":"ce4bhb12rcd13ifvqel0","pricing_plan_id":"free"},{"bike_id":"824c12d2-5308-47ba-bec9-796f31427d25","system_id":"levelo_inurba_marseille","lat":43.313291,"lon":5.396838,"is_reserved":false,"is_disabled":false,"rental_uris":{"android":"levelo://app?vid=824c12d2-5308-47ba-bec9-796f31427d25","ios":"levelo://app?vid=824c12d2-5308-47ba-bec9-796f31427d25"},"vehicle_type_id":"4","last_reported":1705514955,"current_range_meters":8800,"station_id":"ce4bgvp2rcd13ifvqcu0","pricing_plan_id":"free"},{"bike_id":"8937de69-dc86-4c87-a75b-e6b4169157f1","system_id":"levelo_inurba_marseille","lat":43.313291,"lon":5.396838,"is_reserved":false,"is_disabled":false,"rental_uris":{"android":"levelo://app?vid=8937de69-dc86-4c87-a75b-e6b4169157f1","ios":"levelo://app?vid=8937de69-dc86-4c87-a75b-e6b4169157f1"},"vehicle_type_id":"4","last_reported":1705514955,"current_range_meters":18000,"station_id":"ce4bgvp2rcd13ifvqcu0","pricing_plan_id":"free"},{"bike_id":"b554e7ac-4f8a-4cf6-a09b-27acbb2989f8","system_id":"levelo_inurba_marseille","lat":43.309047,"lon":5.396551,"is_reserved":false,"is_disabled":false,"rental_uris":{"android":"levelo://app?vid=b554e7ac-4f8a-4cf6-a09b-27acbb2989f8","ios":"levelo://app?vid=b554e7ac-4f8a-4cf6-a09b-27acbb2989f8"},"vehicle_type_id":"4","last_reported":1705514955,"current_range_meters":20000,"station_id":"ce4bh012rcd13ifvqcv0","pricing_plan_id":"free"},{"bike_id":"31dcaf9f-1780-4552-82e2-11de53d73ca6","system_id":"levelo_inurba_marseille","lat":43.313291,"lon":5.396838,"is_reserved":false,"is_disabled":false,"rental_uris":{"android":"levelo://app?vid=31dcaf9f-1780-4552-82e2-11de53d73ca6","ios":"levelo://app?vid=31dcaf9f-1780-4552-82e2-11de53d73ca6"},"vehicle_type_id":"4","last_reported":1705514955,"current_range_meters":13600,"station_id":"ce4bgvp2rcd13ifvqcu0","pricing_plan_id":"free"},{"bike_id":"5f472800-0f39-4887-8720-f04d543a3086","system_id":"levelo_inurba_marseille","lat":43.313291,"lon":5.396838,"is_reserved":false,"is_disabled":false,"rental_uris":{"android":"levelo://app?vid=5f472800-0f39-4887-8720-f04d543a3086","ios":"levelo://app?vid=5f472800-0f39-4887-8720-f04d543a3086"},"vehicle_type_id":"4","last_reported":1705514955,"current_range_meters":14400,"station_id":"ce4bgvp2rcd13ifvqcu0","pricing_plan_id":"free"},{"bike_id":"972daad8-f292-4396-b8c2-7eb4ffa2e49e","system_id":"levelo_inurba_marseille","lat":43.309047,"lon":5.396551,"is_reserved":false,"is_disabled":false,"rental_uris":{"android":"levelo://app?vid=972daad8-f292-4396-b8c2-7eb4ffa2e49e","ios":"levelo://app?vid=972daad8-f292-4396-b8c2-7eb4ffa2e49e"},"vehicle_type_id":"4","last_reported":1705514955,"current_range_meters":13200,"station_id":"ce4bh012rcd13ifvqcv0","pricing_plan_id":"free"},{"bike_id":"85ac0da5-9138-415d-90ae-1ec76f0f5dbd","system_id":"levelo_inurba_marseille","lat":43.313291,"lon":5.396838,"is_reserved":false,"is_disabled":false,"rental_uris":{"android":"levelo://app?vid=85ac0da5-9138-415d-90ae-1ec76f0f5dbd","ios":"levelo://app?vid=85ac0da5-9138-415d-90ae-1ec76f0f5dbd"},"vehicle_type_id":"4","last_reported":1705514955,"current_range_meters":31200,"station_id":"ce4bgvp2rcd13ifvqcu0","pricing_plan_id":"free"},{"bike_id":"3c2b412c-7031-4f01-96fe-6731e1ab597e","system_id":"levelo_inurba_marseille","lat":43.309047,"lon":5.396551,"is_reserved":false,"is_disabled":false,"rental_uris":{"android":"levelo://app?vid=3c2b412c-7031-4f01-96fe-6731e1ab597e","ios":"levelo://app?vid=3c2b412c-7031-4f01-96fe-6731e1ab597e"},"vehicle_type_id":"4","last_reported":1705514955,"current_range_meters":25600,"station_id":"ce4bh012rcd13ifvqcv0","pricing_plan_id":"free"},{"bike_id":"5d724e7b-cde7-4b79-85c7-39fd817599c0","system_id":"levelo_inurba_marseille","lat":43.309038,"lon":5.396546,"is_reserved":false,"is_disabled":false,"rental_uris":{"android":"levelo://app?vid=5d724e7b-cde7-4b79-85c7-39fd817599c0","ios":"levelo://app?vid=5d724e7b-cde7-4b79-85c7-39fd817599c0"},"vehicle_type_id":"4","last_reported":1705514955,"current_range_meters":5200,"station_id":"ce4bh012rcd13ifvqcv0","pricing_plan_id":"free"},{"bike_id":"031f42bc-82ab-47fa-921e-d34a45a10a2f","system_id":"levelo_inurba_marseille","lat":43.29529,"lon":5.385581,"is_reserved":false,"is_disabled":false,"rental_uris":{"android":"levelo://app?vid=031f42bc-82ab-47fa-921e-d34a45a10a2f","ios":"levelo://app?vid=031f42bc-82ab-47fa-921e-d34a45a10a2f"},"vehicle_type_id":"4","last_reported":1705514955,"current_range_meters":28400,"station_id":"ce4bgih2rcd13ifvqba0","pricing_plan_id":"free"},{"bike_id":"550e6c46-a77a-4196-a095-f3fb45aa87ce","system_id":"levelo_inurba_marseille","lat":43.29524,"lon":5.38525,"is_reserved":false,"is_disabled":false,"rental_uris":{"android":"levelo://app?vid=550e6c46-a77a-4196-a095-f3fb45aa87ce","ios":"levelo://app?vid=550e6c46-a77a-4196-a095-f3fb45aa87ce"},"vehicle_type_id":"4","last_reported":1705514955,"current_range_meters":18800,"station_id":"ce4bgih2rcd13ifvqba0","pricing_plan_id":"free"},{"bike_id":"b3b670d0-523b-47dc-97ce-4615004c16d8","system_id":"levelo_inurba_marseille","lat":43.29529,"lon":5.385581,"is_reserved":false,"is_disabled":false,"rental_uris":{"android":"levelo://app?vid=b3b670d0-523b-47dc-97ce-4615004c16d8","ios":"levelo://app?vid=b3b670d0-523b-47dc-97ce-4615004c16d8"},"vehicle_type_id":"4","last_reported":1705514955,"current_range_meters":19200,"station_id":"ce4bgih2rcd13ifvqba0","pricing_plan_id":"free"},{"bike_id":"c0ce3b3e-bc17-4f6b-84ca-5aba2f6292a1","system_id":"levelo_inurba_marseille","lat":43.29529,"lon":5.385581,"is_reserved":false,"is_disabled":false,"rental_uris":{"android":"levelo://app?vid=c0ce3b3e-bc17-4f6b-84ca-5aba2f6292a1","ios":"levelo://app?vid=c0ce3b3e-bc17-4f6b-84ca-5aba2f6292a1"},"vehicle_type_id":"4","last_reported":1705514955,"current_range_meters":11200,"station_id":"ce4bgih2rcd13ifvqba0","pricing_plan_id":"free"},{"bike_id":"393ba482-e404-48b9-8ee3-d36346d64e74","system_id":"levelo_inurba_marseille","lat":43.29529,"lon":5.385581,"is_reserved":false,"is_disabled":false,"rental_uris":{"android":"levelo://app?vid=393ba482-e404-48b9-8ee3-d36346d64e74","ios":"levelo://app?vid=393ba482-e404-48b9-8ee3-d36346d64e74"},"vehicle_type_id":"4","last_reported":1705514955,"current_range_meters":26800,"station_id":"ce4bgih2rcd13ifvqba0","pricing_plan_id":"free"},{"bike_id":"091dd450-0a69-4300-bd7d-13cda957eadc","system_id":"levelo_inurba_marseille","lat":43.29529,"lon":5.385581,"is_reserved":false,"is_disabled":false,"rental_uris":{"android":"levelo://app?vid=091dd450-0a69-4300-bd7d-13cda957eadc","ios":"levelo://app?vid=091dd450-0a69-4300-bd7d-13cda957eadc"},"vehicle_type_id":"4","last_reported":1705514955,"current_range_meters":28800,"station_id":"ce4bgih2rcd13ifvqba0","pricing_plan_id":"free"},{"bike_id":"51299a7c-5f29-40bc-af4f-139813a14219","system_id":"levelo_inurba_marseille","lat":43.29533,"lon":5.3855,"is_reserved":false,"is_disabled":false,"rental_uris":{"android":"levelo://app?vid=51299a7c-5f29-40bc-af4f-139813a14219","ios":"levelo://app?vid=51299a7c-5f29-40bc-af4f-139813a14219"},"vehicle_type_id":"4","last_reported":1705514955,"current_range_meters":1600,"station_id":"ce4bgih2rcd13ifvqba0","pricing_plan_id":"free"},{"bike_id":"5650c341-78f9-46d2-9988-d98254752d8e","system_id":"levelo_inurba_marseille","lat":43.29529,"lon":5.385581,"is_reserved":false,"is_disabled":false,"rental_uris":{"android":"levelo://app?vid=5650c341-78f9-46d2-9988-d98254752d8e","ios":"levelo://app?vid=5650c341-78f9-46d2-9988-d98254752d8e"},"vehicle_type_id":"4","last_reported":1705514955,"current_range_meters":18000,"station_id":"ce4bgih2rcd13ifvqba0","pricing_plan_id":"free"},{"bike_id":"a0eaf192-61b2-4ca3-ab60-f9ebcbaaf0be","system_id":"levelo_inurba_marseille","lat":43.29529,"lon":5.385581,"is_reserved":false,"is_disabled":false,"rental_uris":{"android":"levelo://app?vid=a0eaf192-61b2-4ca3-ab60-f9ebcbaaf0be","ios":"levelo://app?vid=a0eaf192-61b2-4ca3-ab60-f9ebcbaaf0be"},"vehicle_type_id":"4","last_reported":1705514955,"current_range_meters":20400,"station_id":"ce4bgih2rcd13ifvqba0","pricing_plan_id":"free"},{"bike_id":"4ac4c291-fda6-419c-a051-74cc643d0d7b","system_id":"levelo_inurba_marseille","lat":43.29525,"lon":5.38537,"is_reserved":false,"is_disabled":false,"rental_uris":{"android":"levelo://app?vid=4ac4c291-fda6-419c-a051-74cc643d0d7b","ios":"levelo://app?vid=4ac4c291-fda6-419c-a051-74cc643d0d7b"},"vehicle_type_id":"4","last_reported":1705514955,"current_range_meters":23200,"station_id":"ce4bgih2rcd13ifvqba0","pricing_plan_id":"free"},{"bike_id":"e8bb5c7f-5cd5-4525-bca5-bb8e02a79dea","system_id":"levelo_inurba_marseille","lat":43.29529,"lon":5.385581,"is_reserved":false,"is_disabled":false,"rental_uris":{"android":"levelo://app?vid=e8bb5c7f-5cd5-4525-bca5-bb8e02a79dea","ios":"levelo://app?vid=e8bb5c7f-5cd5-4525-bca5-bb8e02a79dea"},"vehicle_type_id":"4","last_reported":1705514955,"current_range_meters":13600,"station_id":"ce4bgih2rcd13ifvqba0","pricing_plan_id":"free"},{"bike_id":"5f3fb362-3754-456b-a7fb-bbe95e33ea3b","system_id":"levelo_inurba_marseille","lat":43.290779,"lon":5.371482,"is_reserved":false,"is_disabled":false,"rental_uris":{"android":"levelo://app?vid=5f3fb362-3754-456b-a7fb-bbe95e33ea3b","ios":"levelo://app?vid=5f3fb362-3754-456b-a7fb-bbe95e33ea3b"},"vehicle_type_id":"4","last_reported":1705514955,"current_range_meters":8400,"station_id":"ce4bh5p2rcd13ifvqe4g","pricing_plan_id":"free"},{"bike_id":"d213819d-8669-4388-859c-9af16b22029c","system_id":"levelo_inurba_marseille","lat":43.302008,"lon":5.394694,"is_reserved":false,"is_disabled":false,"rental_uris":{"android":"levelo://app?vid=d213819d-8669-4388-859c-9af16b22029c","ios":"levelo://app?vid=d213819d-8669-4388-859c-9af16b22029c"},"vehicle_type_id":"4","last_reported":1705514955,"current_range_meters":26800,"station_id":"ce4bh0p2rcd13ifvqd70","pricing_plan_id":"free"},{"bike_id":"ab566cf8-5f0e-4513-b33b-8628bd442123","system_id":"levelo_inurba_marseille","lat":43.29421,"lon":5.38625,"is_reserved":false,"is_disabled":false,"rental_uris":{"android":"levelo://app?vid=ab566cf8-5f0e-4513-b33b-8628bd442123","ios":"levelo://app?vid=ab566cf8-5f0e-4513-b33b-8628bd442123"},"vehicle_type_id":"4","last_reported":1705514955,"current_range_meters":6000,"station_id":"ce4bh2h2rcd13ifvqdh0","pricing_plan_id":"free"},{"bike_id":"a098ca54-0363-47d5-a5d2-416e809b38fa","system_id":"levelo_inurba_marseille","lat":43.294162,"lon":5.386292,"is_reserved":false,"is_disabled":false,"rental_uris":{"android":"levelo://app?vid=a098ca54-0363-47d5-a5d2-416e809b38fa","ios":"levelo://app?vid=a098ca54-0363-47d5-a5d2-416e809b38fa"},"vehicle_type_id":"4","last_reported":1705514955,"current_range_meters":8000,"station_id":"ce4bh2h2rcd13ifvqdh0","pricing_plan_id":"free"},{"bike_id":"b27084a1-b5a9-4744-9030-8b024a8469b3","system_id":"levelo_inurba_marseille","lat":43.294162,"lon":5.386292,"is_reserved":false,"is_disabled":false,"rental_uris":{"android":"levelo://app?vid=b27084a1-b5a9-4744-9030-8b024a8469b3","ios":"levelo://app?vid=b27084a1-b5a9-4744-9030-8b024a8469b3"},"vehicle_type_id":"4","last_reported":1705514955,"current_range_meters":0,"station_id":"ce4bh2h2rcd13ifvqdh0","pricing_plan_id":"free"},{"bike_id":"cb0a56de-6d99-40de-8a51-a5dc1bae923b","system_id":"levelo_inurba_marseille","lat":43.294162,"lon":5.386292,"is_reserved":false,"is_disabled":false,"rental_uris":{"android":"levelo://app?vid=cb0a56de-6d99-40de-8a51-a5dc1bae923b","ios":"levelo://app?vid=cb0a56de-6d99-40de-8a51-a5dc1bae923b"},"vehicle_type_id":"4","last_reported":1705514955,"current_range_meters":6800,"station_id":"ce4bh2h2rcd13ifvqdh0","pricing_plan_id":"free"},{"bike_id":"f7938631-786d-4d02-aad4-8c04c5022972","system_id":"levelo_inurba_marseille","lat":43.29416,"lon":5.38621,"is_reserved":false,"is_disabled":false,"rental_uris":{"android":"levelo://app?vid=f7938631-786d-4d02-aad4-8c04c5022972","ios":"levelo://app?vid=f7938631-786d-4d02-aad4-8c04c5022972"},"vehicle_type_id":"4","last_reported":1705514955,"current_range_meters":21600,"station_id":"ce4bh2h2rcd13ifvqdh0","pricing_plan_id":"free"},{"bike_id":"c924a47a-c874-4b59-a835-a751dde1a261","system_id":"levelo_inurba_marseille","lat":43.294205,"lon":5.3863,"is_reserved":false,"is_disabled":false,"rental_uris":{"android":"levelo://app?vid=c924a47a-c874-4b59-a835-a751dde1a261","ios":"levelo://app?vid=c924a47a-c874-4b59-a835-a751dde1a261"},"vehicle_type_id":"4","last_reported":1705514955,"current_range_meters":9600,"station_id":"ce4bh2h2rcd13ifvqdh0","pricing_plan_id":"free"},{"bike_id":"14b17173-34ee-4391-b11b-1572cd18c8d9","system_id":"levelo_inurba_marseille","lat":43.29417,"lon":5.38628,"is_reserved":false,"is_disabled":false,"rental_uris":{"android":"levelo://app?vid=14b17173-34ee-4391-b11b-1572cd18c8d9","ios":"levelo://app?vid=14b17173-34ee-4391-b11b-1572cd18c8d9"},"vehicle_type_id":"4","last_reported":1705514955,"current_range_meters":23200,"station_id":"ce4bh2h2rcd13ifvqdh0","pricing_plan_id":"free"},{"bike_id":"010cee77-a119-47b3-b0b8-8a4016070586","system_id":"levelo_inurba_marseille","lat":43.289468,"lon":5.363719,"is_reserved":false,"is_disabled":false,"rental_uris":{"android":"levelo://app?vid=010cee77-a119-47b3-b0b8-8a4016070586","ios":"levelo://app?vid=010cee77-a119-47b3-b0b8-8a4016070586"},"vehicle_type_id":"4","last_reported":1705514955,"current_range_meters":2000,"station_id":"ce4bhc92rcd13ifvqetg","pricing_plan_id":"free"},{"bike_id":"30e30b19-16b1-451f-adff-ee0c5c93a1a7","system_id":"levelo_inurba_marseille","lat":43.294153,"lon":5.386305,"is_reserved":false,"is_disabled":false,"rental_uris":{"android":"levelo://app?vid=30e30b19-16b1-451f-adff-ee0c5c93a1a7","ios":"levelo://app?vid=30e30b19-16b1-451f-adff-ee0c5c93a1a7"},"vehicle_type_id":"4","last_reported":1705514955,"current_range_meters":9600,"station_id":"ce4bh2h2rcd13ifvqdh0","pricing_plan_id":"free"},{"bike_id":"01e3f15c-2e9b-4328-873b-453c066c7f0d","system_id":"levelo_inurba_marseille","lat":43.294153,"lon":5.386305,"is_reserved":false,"is_disabled":false,"rental_uris":{"android":"levelo://app?vid=01e3f15c-2e9b-4328-873b-453c066c7f0d","ios":"levelo://app?vid=01e3f15c-2e9b-4328-873b-453c066c7f0d"},"vehicle_type_id":"4","last_reported":1705514955,"current_range_meters":1200,"station_id":"ce4bh2h2rcd13ifvqdh0","pricing_plan_id":"free"},{"bike_id":"ec432897-2b5f-4276-9db1-11fcc5ae4e1a","system_id":"levelo_inurba_marseille","lat":43.294153,"lon":5.386305,"is_reserved":false,"is_disabled":false,"rental_uris":{"android":"levelo://app?vid=ec432897-2b5f-4276-9db1-11fcc5ae4e1a","ios":"levelo://app?vid=ec432897-2b5f-4276-9db1-11fcc5ae4e1a"},"vehicle_type_id":"4","last_reported":1705514955,"current_range_meters":20800,"station_id":"ce4bh2h2rcd13ifvqdh0","pricing_plan_id":"free"},{"bike_id":"e10b8ab3-8df8-4016-8c17-001b0b41e938","system_id":"levelo_inurba_marseille","lat":43.294153,"lon":5.386305,"is_reserved":false,"is_disabled":false,"rental_uris":{"android":"levelo://app?vid=e10b8ab3-8df8-4016-8c17-001b0b41e938","ios":"levelo://app?vid=e10b8ab3-8df8-4016-8c17-001b0b41e938"},"vehicle_type_id":"4","last_reported":1705514955,"current_range_meters":20400,"station_id":"ce4bh2h2rcd13ifvqdh0","pricing_plan_id":"free"},{"bike_id":"98bce02d-57db-489d-9046-1fd464f2f6a6","system_id":"levelo_inurba_marseille","lat":43.289184,"lon":5.366408,"is_reserved":false,"is_disabled":false,"rental_uris":{"android":"levelo://app?vid=98bce02d-57db-489d-9046-1fd464f2f6a6","ios":"levelo://app?vid=98bce02d-57db-489d-9046-1fd464f2f6a6"},"vehicle_type_id":"4","last_reported":1705514955,"current_range_meters":16400,"station_id":"ce4bhap2rcd13ifvqek0","pricing_plan_id":"free"},{"bike_id":"be9e502f-a354-4924-b32d-945b2c6835a1","system_id":"levelo_inurba_marseille","lat":43.289184,"lon":5.366408,"is_reserved":false,"is_disabled":false,"rental_uris":{"android":"levelo://app?vid=be9e502f-a354-4924-b32d-945b2c6835a1","ios":"levelo://app?vid=be9e502f-a354-4924-b32d-945b2c6835a1"},"vehicle_type_id":"4","last_reported":1705514955,"current_range_meters":13600,"station_id":"ce4bhap2rcd13ifvqek0","pricing_plan_id":"free"},{"bike_id":"cdb4a45f-bf1d-4dfe-befe-57641647a15c","system_id":"levelo_inurba_marseille","lat":43.289468,"lon":5.363719,"is_reserved":false,"is_disabled":false,"rental_uris":{"android":"levelo://app?vid=cdb4a45f-bf1d-4dfe-befe-57641647a15c","ios":"levelo://app?vid=cdb4a45f-bf1d-4dfe-befe-57641647a15c"},"vehicle_type_id":"4","last_reported":1705514955,"current_range_meters":1600,"station_id":"ce4bhc92rcd13ifvqetg","pricing_plan_id":"free"},{"bike_id":"f20104c3-1044-4109-b1ec-79c93c1fb023","system_id":"levelo_inurba_marseille","lat":43.289184,"lon":5.366408,"is_reserved":false,"is_disabled":false,"rental_uris":{"android":"levelo://app?vid=f20104c3-1044-4109-b1ec-79c93c1fb023","ios":"levelo://app?vid=f20104c3-1044-4109-b1ec-79c93c1fb023"},"vehicle_type_id":"4","last_reported":1705514955,"current_range_meters":30400,"station_id":"ce4bhap2rcd13ifvqek0","pricing_plan_id":"free"},{"bike_id":"95d890aa-5cdc-4e82-bd01-c86a67d131af","system_id":"levelo_inurba_marseille","lat":43.283998,"lon":5.375062,"is_reserved":false,"is_disabled":false,"rental_uris":{"android":"levelo://app?vid=95d890aa-5cdc-4e82-bd01-c86a67d131af","ios":"levelo://app?vid=95d890aa-5cdc-4e82-bd01-c86a67d131af"},"vehicle_type_id":"4","last_reported":1705514955,"current_range_meters":18400,"station_id":"ce4bh412rcd13ifvqds0","pricing_plan_id":"free"},{"bike_id":"033feb93-64bb-42e2-a445-24406e6bce5b","system_id":"levelo_inurba_marseille","lat":43.292644,"lon":5.384257,"is_reserved":false,"is_disabled":false,"rental_uris":{"android":"levelo://app?vid=033feb93-64bb-42e2-a445-24406e6bce5b","ios":"levelo://app?vid=033feb93-64bb-42e2-a445-24406e6bce5b"},"vehicle_type_id":"4","last_reported":1705514955,"current_range_meters":29600,"station_id":"ce4bh692rcd13ifvqea0","pricing_plan_id":"free"},{"bike_id":"28149cdb-3a8f-4d43-ae3e-c6c9614d8f98","system_id":"levelo_inurba_marseille","lat":43.292644,"lon":5.384257,"is_reserved":false,"is_disabled":false,"rental_uris":{"android":"levelo://app?vid=28149cdb-3a8f-4d43-ae3e-c6c9614d8f98","ios":"levelo://app?vid=28149cdb-3a8f-4d43-ae3e-c6c9614d8f98"},"vehicle_type_id":"4","last_reported":1705514955,"current_range_meters":18400,"station_id":"ce4bh692rcd13ifvqea0","pricing_plan_id":"free"},{"bike_id":"a56ec429-8954-4089-b9a2-ab010e97b8ab","system_id":"levelo_inurba_marseille","lat":43.292644,"lon":5.384257,"is_reserved":false,"is_disabled":false,"rental_uris":{"android":"levelo://app?vid=a56ec429-8954-4089-b9a2-ab010e97b8ab","ios":"levelo://app?vid=a56ec429-8954-4089-b9a2-ab010e97b8ab"},"vehicle_type_id":"4","last_reported":1705514955,"current_range_meters":12400,"station_id":"ce4bh692rcd13ifvqea0","pricing_plan_id":"free"},{"bike_id":"35625e32-a6b7-4ad5-89ea-6a4ebed58f49","system_id":"levelo_inurba_marseille","lat":43.292644,"lon":5.384257,"is_reserved":false,"is_disabled":false,"rental_uris":{"android":"levelo://app?vid=35625e32-a6b7-4ad5-89ea-6a4ebed58f49","ios":"levelo://app?vid=35625e32-a6b7-4ad5-89ea-6a4ebed58f49"},"vehicle_type_id":"4","last_reported":1705514955,"current_range_meters":4800,"station_id":"ce4bh692rcd13ifvqea0","pricing_plan_id":"free"},{"bike_id":"1ba8e8bc-1b7f-4225-8817-a3816852b1e3","system_id":"levelo_inurba_marseille","lat":43.28887,"lon":5.364725,"is_reserved":false,"is_disabled":false,"rental_uris":{"android":"levelo://app?vid=1ba8e8bc-1b7f-4225-8817-a3816852b1e3","ios":"levelo://app?vid=1ba8e8bc-1b7f-4225-8817-a3816852b1e3"},"vehicle_type_id":"4","last_reported":1705514955,"current_range_meters":6400,"station_id":"","pricing_plan_id":"free"},{"bike_id":"abacd75d-d0ee-43fc-b3f0-b1de37320bd5","system_id":"levelo_inurba_marseille","lat":43.290104,"lon":5.356111,"is_reserved":false,"is_disabled":false,"rental_uris":{"android":"levelo://app?vid=abacd75d-d0ee-43fc-b3f0-b1de37320bd5","ios":"levelo://app?vid=abacd75d-d0ee-43fc-b3f0-b1de37320bd5"},"vehicle_type_id":"4","last_reported":1705514955,"current_range_meters":29200,"station_id":"ce4bhb92rcd13ifvqen0","pricing_plan_id":"free"},{"bike_id":"9f11964e-af43-47c4-aefe-0639bd7c631f","system_id":"levelo_inurba_marseille","lat":43.290103,"lon":5.356114,"is_reserved":false,"is_disabled":false,"rental_uris":{"android":"levelo://app?vid=9f11964e-af43-47c4-aefe-0639bd7c631f","ios":"levelo://app?vid=9f11964e-af43-47c4-aefe-0639bd7c631f"},"vehicle_type_id":"4","last_reported":1705514955,"current_range_meters":13600,"station_id":"ce4bhb92rcd13ifvqen0","pricing_plan_id":"free"},{"bike_id":"eeaca6dc-cafe-4f6d-9eff-9ad980635919","system_id":"levelo_inurba_marseille","lat":43.290104,"lon":5.356111,"is_reserved":false,"is_disabled":false,"rental_uris":{"android":"levelo://app?vid=eeaca6dc-cafe-4f6d-9eff-9ad980635919","ios":"levelo://app?vid=eeaca6dc-cafe-4f6d-9eff-9ad980635919"},"vehicle_type_id":"4","last_reported":1705514955,"current_range_meters":24800,"station_id":"ce4bhb92rcd13ifvqen0","pricing_plan_id":"free"},{"bike_id":"a09879fd-02c9-4ff6-93b1-b4af5cecc244","system_id":"levelo_inurba_marseille","lat":43.29003,"lon":5.35611,"is_reserved":false,"is_disabled":false,"rental_uris":{"android":"levelo://app?vid=a09879fd-02c9-4ff6-93b1-b4af5cecc244","ios":"levelo://app?vid=a09879fd-02c9-4ff6-93b1-b4af5cecc244"},"vehicle_type_id":"4","last_reported":1705514955,"current_range_meters":21200,"station_id":"ce4bhb92rcd13ifvqen0","pricing_plan_id":"free"},{"bike_id":"16d92609-fcfd-4eaa-be10-06e564986dfd","system_id":"levelo_inurba_marseille","lat":43.29002,"lon":5.35611,"is_reserved":false,"is_disabled":false,"rental_uris":{"android":"levelo://app?vid=16d92609-fcfd-4eaa-be10-06e564986dfd","ios":"levelo://app?vid=16d92609-fcfd-4eaa-be10-06e564986dfd"},"vehicle_type_id":"4","last_reported":1705514955,"current_range_meters":24800,"station_id":"ce4bhb92rcd13ifvqen0","pricing_plan_id":"free"},