{"last_updated":1717020444,"ttl":30,"version":"2.2","data":{"bikes":[{"bike_id":"9994e4ad-06b3-4f0e-b8e3-a78ef6c2ef90","system_id":"levelo_inurba_marseille","lat":43.31341,"lon":5.367098,"is_reserved":false,"is_disabled":false,"rental_uris":{"android":"levelo://app?vid=9994e4ad-06b3-4f0e-b8e3-a78ef6c2ef90","ios":"levelo://app?vid=9994e4ad-06b3-4f0e-b8e3-a78ef6c2ef90"},"vehicle_type_id":"4","last_reported":1717020444,"current_range_meters":24000,"station_id":"ce4bgr92rcd13ifvqc6g","pricing_plan_id":"cebpf4jnsgd1na2vs0mg"},{"bike_id":"535e3230-28bd-41a4-8804-c304b5ec2abf","system_id":"levelo_inurba_marseille","lat":43.313391,"lon":5.36706,"is_reserved":false,"is_disabled":false,"rental_uris":{"android":"levelo://app?vid=535e3230-28bd-41a4-8804-c304b5ec2abf","ios":"levelo://app?vid=535e3230-28bd-41a4-8804-c304b5ec2abf"},"vehicle_type_id":"4","last_reported":1717020444,"current_range_meters":8800,"station_id":"ce4bgr92rcd13ifvqc6g","pricing_plan_id":"cebpf4jnsgd1na2vs0mg"},{"bike_id":"7abccc1c-3083-46be-944e-05ba3e8544e6","system_id":"levelo_inurba_marseille","lat":43.312239,"lon":5.368562,"is_reserved":false,"is_disabled":false,"rental_uris":{"android":"levelo://app?vid=7abccc1c-3083-46be-944e-05ba3e8544e6","ios":"levelo://app?vid=7abccc1c-3083-46be-944e-05ba3e8544e6"},"vehicle_type_id":"4","last_reported":1717020444,"current_range_meters":0,"station_id":"ce4bgl92rcd13ifvqbq0","pricing_plan_id":"cebpf4jnsgd1na2vs0mg"},{"bike_id":"230a4ff6-06c0-4727-afaa-af1ee4acf772","system_id":"levelo_inurba_marseille","lat":43.312239,"lon":5.368562,"is_reserved":false,"is_disabled":false,"rental_uris":{"android":"levelo://app?vid=230a4ff6-06c0-4727-afaa-af1ee4acf772","ios":"levelo://app?vid=230a4ff6-06c0-4727-afaa-af1ee4acf772"},"vehicle_type_id":"4","last_reported":1717020444,"current_range_meters":24000,"station_id":"ce4bgl92rcd13ifvqbq0","pricing_plan_id":"cebpf4jnsgd1na2vs0mg"},{"bike_id":"e01a808e-0cbe-45d6-a862-e006d2b66235","system_id":"levelo_inurba_marseille","lat":43.314811,"lon":5.373103,"is_reserved":false,"is_disabled":false,"rental_uris":{"android":"levelo://app?vid=e01a808e-0cbe-45d6-a862-e006d2b66235","ios":"levelo://app?vid=e01a808e-0cbe-45d6-a862-e006d2b66235"},"vehicle_type_id":"4","last_reported":1717020444,"current_range_meters":0,"station_id":"ce4bgt12rcd13ifvqcd0","pricing_plan_id":"cebpf4jnsgd1na2vs0mg"},{"bike_id":"3d9fd324-87fe-40fa-81d8-f78acc95369a","system_id":"levelo_inurba_marseille","lat":43.314811,"lon":5.373103,"is_reserved":false,"is_disabled":false,"rental_uris":{"android":"levelo://app?vid=3d9fd324-87fe-40fa-81d8-f78acc95369a","ios":"levelo://app?vid=3d9fd324-87fe-40fa-81d8-f78acc95369a"},"vehicle_type_id":"4","last_reported":1717020444,"current_range_meters":800,"station_id":"ce4bgt12rcd13ifvqcd0","pricing_plan_id":"cebpf4jnsgd1na2vs0mg"},{"bike_id":"6e1cfa6a-e215-4012-8fba-d1f2521aeeb2","system_id":"levelo_inurba_marseille","lat":43.314811,"lon":5.373103,"is_reserved":false,"is_disabled":false,"rental_uris":{"android":"levelo://app?vid=6e1cfa6a-e215-4012-8fba-d1f2521aeeb2","ios":"levelo://app?vid=6e1cfa6a-e215-4012-8fba-d1f2521aeeb2"},"vehicle_type_id":"4","last_reported":1717020444,"current_range_meters":0,"station_id":"ce4bgt12rcd13ifvqcd0","pricing_plan_id":"cebpf4jnsgd1na2vs0mg"},{"bike_id":"a8c9f1a8-ce40-4da0-bde8-de2e5c779411","system_id":"levelo_inurba_marseille","lat":43.31491,"lon":5.3731,"is_reserved":false,"is_disabled":false,"rental_uris":{"android":"levelo://app?vid=a8c9f1a8-ce40-4da0-bde8-de2e5c779411","ios":"levelo://app?vid=a8c9f1a8-ce40-4da0-bde8-de2e5c779411"},"vehicle_type_id":"4","last_reported":1717020444,"current_range_meters":0,"station_id":"ce4bgt12rcd13ifvqcd0","pricing_plan_id":"cebpf4jnsgd1na2vs0mg"},{"bike_id":"32adc1e0-0eba-4f06-a33b-0fdd13704beb","system_id":"levelo_inurba_marseille","lat":43.314811,"lon":5.373104,"is_reserved":false,"is_disabled":false,"rental_uris":{"android":"levelo://app?vid=32adc1e0-0eba-4f06-a33b-0fdd13704beb","ios":"levelo://app?vid=32adc1e0-0eba-4f06-a33b-0fdd13704beb"},"vehicle_type_id":"4","last_reported":1717020444,"current_range_meters":15600,"station_id":"ce4bgt12rcd13ifvqcd0","pricing_plan_id":"cebpf4jnsgd1na2vs0mg"},{"bike_id":"3d68650f-0635-4a8a-8b3c-c94c77fc9195","system_id":"levelo_inurba_marseille","lat":43.309039,"lon":5.371797,"is_reserved":false,"is_disabled":false,"rental_uris":{"android":"levelo://app?vid=3d68650f-0635-4a8a-8b3c-c94c77fc9195","ios":"levelo://app?vid=3d68650f-0635-4a8a-8b3c-c94c77fc9195"},"vehicle_type_id":"4","last_reported":1717020444,"current_range_meters":10000,"station_id":"ce4bguh2rcd13ifvqckg","pricing_plan_id":"cebpf4jnsgd1na2vs0mg"},{"bike_id":"e40b864a-5dc3-4cd4-92e1-eee17a9e1a8a","system_id":"levelo_inurba_marseille","lat":43.308826,"lon":5.37185,"is_reserved":false,"is_disabled":false,"rental_uris":{"android":"levelo://app?vid=e40b864a-5dc3-4cd4-92e1-eee17a9e1a8a","ios":"levelo://app?vid=e40b864a-5dc3-4cd4-92e1-eee17a9e1a8a"},"vehicle_type_id":"4","last_reported":1717020444,"current_range_meters":10000,"station_id":"ce4bguh2rcd13ifvqckg","pricing_plan_id":"cebpf4jnsgd1na2vs0mg"},{"bike_id":"99804935-9d9f-49c2-b8bc-2470d1bb9cd7","system_id":"levelo_inurba_marseille","lat":43.309039,"lon":5.371797,"is_reserved":false,"is_disabled":false,"rental_uris":{"android":"levelo://app?vid=99804935-9d9f-49c2-b8bc-2470d1bb9cd7","ios":"levelo://app?vid=99804935-9d9f-49c2-b8bc-2470d1bb9cd7"},"vehicle_type_id":"4","last_reported":1717020444,"current_range_meters":21200,"station_id":"ce4bguh2rcd13ifvqckg","pricing_plan_id":"cebpf4jnsgd1na2vs0mg"},{"bike_id":"f49cb664-5b1c-4507-9154-de118bca945d","system_id":"levelo_inurba_marseille","lat":43.31447,"lon":5.37385,"is_reserved":false,"is_disabled":false,"rental_uris":{"android":"levelo://app?vid=f49cb664-5b1c-4507-9154-de118bca945d","ios":"levelo://app?vid=f49cb664-5b1c-4507-9154-de118bca945d"},"vehicle_type_id":"4","last_reported":1717020444,"current_range_meters":2000,"station_id":"","pricing_plan_id":"cebpf4jnsgd1na2vs0mg"},{"bike_id":"0e4340eb-2f86-486c-bda9-424db0ba519c","system_id":"levelo_inurba_marseille","lat":43.309034,"lon":5.371783,"is_reserved":false,"is_disabled":false,"rental_uris":{"android":"levelo://app?vid=0e4340eb-2f86-486c-bda9-424db0ba519c","ios":"levelo://app?vid=0e4340eb-2f86-486c-bda9-424db0ba519c"},"vehicle_type_id":"4","last_reported":1717020444,"current_range_meters":2800,"station_id":"ce4bguh2rcd13ifvqckg","pricing_plan_id":"cebpf4jnsgd1na2vs0mg"},{"bike_id":"0848d30c-cc3d-4a9d-8512-da738d3499e7","system_id":"levelo_inurba_marseille","lat":43.30537,"lon":5.367345,"is_reserved":false,"is_disabled":false,"rental_uris":{"android":"levelo://app?vid=0848d30c-cc3d-4a9d-8512-da738d3499e7","ios":"levelo://app?vid=0848d30c-cc3d-4a9d-8512-da738d3499e7"},"vehicle_type_id":"4","last_reported":1717020444,"current_range_meters":21200,"station_id":"ce4bgrp2rcd13ifvqc9g","pricing_plan_id":"cebpf4jnsgd1na2vs0mg"},{"bike_id":"7c0c1ca8-a764-4f0c-bdcf-168eb8668dce","system_id":"levelo_inurba_marseille","lat":43.30537,"lon":5.367345,"is_reserved":false,"is_disabled":false,"rental_uris":{"android":"levelo://app?vid=7c0c1ca8-a764-4f0c-bdcf-168eb8668dce","ios":"levelo://app?vid=7c0c1ca8-a764-4f0c-bdcf-168eb8668dce"},"vehicle_type_id":"4","last_reported":1717020444,"current_range_meters":2000,"station_id":"ce4bgrp2rcd13ifvqc9g","pricing_plan_id":"cebpf4jnsgd1na2vs0mg"},{"bike_id":"3771e2a6-2a10-4ef4-9a34-810b8c37fddb","system_id":"levelo_inurba_marseille","lat":43.30537,"lon":5.367345,"is_reserved":false,"is_disabled":false,"rental_uris":{"android":"levelo://app?vid=3771e2a6-2a10-4ef4-9a34-810b8c37fddb","ios":"levelo://app?vid=3771e2a6-2a10-4ef4-9a34-810b8c37fddb"},"vehicle_type_id":"4","last_reported":1717020444,"current_range_meters":22000,"station_id":"ce4bgrp2rcd13ifvqc9g","pricing_plan_id":"cebpf4jnsgd1na2vs0mg"},{"bike_id":"bd72837e-fdbb-489b-8cc4-7782850d0118","system_id":"levelo_inurba_marseille","lat":43.30537,"lon":5.367345,"is_reserved":false,"is_disabled":false,"rental_uris":{"android":"levelo://app?vid=bd72837e-fdbb-489b-8cc4-7782850d0118","ios":"levelo://app?vid=bd72837e-fdbb-489b-8cc4-7782850d0118"},"vehicle_type_id":"4","last_reported":1717020444,"current_range_meters":28400,"station_id":"ce4bgrp2rcd13ifvqc9g","pricing_plan_id":"cebpf4jnsgd1na2vs0mg"},{"bike_id":"f10755ca-5ebf-4e2f-a9ad-ad8164c5c725","system_id":"levelo_inurba_marseille","lat":43.30537,"lon":5.367345,"is_reserved":false,"is_disabled":false,"rental_uris":{"android":"levelo://app?vid=f10755ca-5ebf-4e2f-a9ad-ad8164c5c725","ios":"levelo://app?vid=f10755ca-5ebf-4e2f-a9ad-ad8164c5c725"},"vehicle_type_id":"4","last_reported":1717020444,"current_range_meters":0,"station_id":"ce4bgrp2rcd13ifvqc9g","pricing_plan_id":"cebpf4jnsgd1na2vs0mg"},{"bike_id":"fe64097f-fe62-4de4-a27a-1cef9af4bb4d","system_id":"levelo_inurba_marseille","lat":43.305989,"lon":5.37225,"is_reserved":false,"is_disabled":false,"rental_uris":{"android":"levelo://app?vid=fe64097f-fe62-4de4-a27a-1cef9af4bb4d","ios":"levelo://app?vid=fe64097f-fe62-4de4-a27a-1cef9af4bb4d"},"vehicle_type_id":"4","last_reported":1717020444,"current_range_meters":9200,"station_id":"ce4bgqh2rcd13ifvqc4g","pricing_plan_id":"cebpf4jnsgd1na2vs0mg"},{"bike_id":"01faf7fe-8dd4-4df9-85d7-d98df07a46f6","system_id":"levelo_inurba_marseille","lat":43.305989,"lon":5.37225,"is_reserved":false,"is_disabled":false,"rental_uris":{"android":"levelo://app?vid=01faf7fe-8dd4-4df9-85d7-d98df07a46f6","ios":"levelo://app?vid=01faf7fe-8dd4-4df9-85d7-d98df07a46f6"},"vehicle_type_id":"4","last_reported":1717020444,"current_range_meters":31600,"station_id":"ce4bgqh2rcd13ifvqc4g","pricing_plan_id":"cebpf4jnsgd1na2vs0mg"},{"bike_id":"1b591a7e-a035-4d12-ae2d-9e35d512f52f","system_id":"levelo_inurba_marseille","lat":43.305989,"lon":5.37225,"is_reserved":false,"is_disabled":false,"rental_uris":{"android":"levelo://app?vid=1b591a7e-a035-4d12-ae2d-9e35d512f52f","ios":"levelo://app?vid=1b591a7e-a035-4d12-ae2d-9e35d512f52f"},"vehicle_type_id":"4","last_reported":1717020444,"current_range_meters":16000,"station_id":"ce4bgqh2rcd13ifvqc4g","pricing_plan_id":"cebpf4jnsgd1na2vs0mg"},{"bike_id":"855f00dd-25cd-4dab-a7b3-9c448caadfd5","system_id":"levelo_inurba_marseille","lat":43.30537,"lon":5.367345,"is_reserved":false,"is_disabled":false,"rental_uris":{"android":"levelo://app?vid=855f00dd-25cd-4dab-a7b3-9c448caadfd5","ios":"levelo://app?vid=855f00dd-25cd-4dab-a7b3-9c448caadfd5"},"vehicle_type_id":"4","last_reported":1717020444,"current_range_meters":16000,"station_id":"ce4bgrp2rcd13ifvqc9g","pricing_plan_id":"cebpf4jnsgd1na2vs0mg"},{"bike_id":"cc899213-de14-4045-beca-a93edc5b355c","system_id":"levelo_inurba_marseille","lat":43.305989,"lon":5.37225,"is_reserved":false,"is_disabled":false,"rental_uris":{"android":"levelo://app?vid=cc899213-de14-4045-beca-a93edc5b355c","ios":"levelo://app?vid=cc899213-de14-4045-beca-a93edc5b355c"},"vehicle_type_id":"4","last_reported":1717020444,"current_range_meters":28000,"station_id":"ce4bgqh2rcd13ifvqc4g","pricing_plan_id":"cebpf4jnsgd1na2vs0mg"},{"bike_id":"436d150e-aafa-481f-adec-7aadb556961e","system_id":"levelo_inurba_marseille","lat":43.31116,"lon":5.377573,"is_reserved":false,"is_disabled":false,"rental_uris":{"android":"levelo://app?vid=436d150e-aafa-481f-adec-7aadb556961e","ios":"levelo://app?vid=436d150e-aafa-481f-adec-7aadb556961e"},"vehicle_type_id":"4","last_reported":1717020444,"current_range_meters":8800,"station_id":"ce4bgt92rcd13ifvqcg0","pricing_plan_id":"cebpf4jnsgd1na2vs0mg"},{"bike_id":"8ac3ebaf-8025-4362-95e1-e4766d6876dc","system_id":"levelo_inurba_marseille","lat":43.311125,"lon":5.377624,"is_reserved":false,"is_disabled":false,"rental_uris":{"android":"levelo://app?vid=8ac3ebaf-8025-4362-95e1-e4766d6876dc","ios":"levelo://app?vid=8ac3ebaf-8025-4362-95e1-e4766d6876dc"},"vehicle_type_id":"4","last_reported":1717020444,"current_range_meters":21200,"station_id":"ce4bgt92rcd13ifvqcg0","pricing_plan_id":"cebpf4jnsgd1na2vs0mg"},{"bike_id":"3ff87c26-3242-447b-86f6-5ff4fc78f45d","system_id":"levelo_inurba_marseille","lat":43.311125,"lon":5.377624,"is_reserved":false,"is_disabled":false,"rental_uris":{"android":"levelo://app?vid=3ff87c26-3242-447b-86f6-5ff4fc78f45d","ios":"levelo://app?vid=3ff87c26-3242-447b-86f6-5ff4fc78f45d"},"vehicle_type_id":"4","last_reported":1717020444,"current_range_meters":6000,"station_id":"ce4bgt92rcd13ifvqcg0","pricing_plan_id":"cebpf4jnsgd1na2vs0mg"},{"bike_id":"1e68aee7-ad81-4dac-a924-4458b0fc5119","system_id":"levelo_inurba_marseille","lat":43.311125,"lon":5.377624,"is_reserved":false,"is_disabled":false,"rental_uris":{"android":"levelo://app?vid=1e68aee7-ad81-4dac-a924-4458b0fc5119","ios":"levelo://app?vid=1e68aee7-ad81-4dac-a924-4458b0fc5119"},"vehicle_type_id":"4","last_reported":1717020444,"current_range_meters":4800,"station_id":"ce4bgt92rcd13ifvqcg0","pricing_plan_id":"cebpf4jnsgd1na2vs0mg"},{"bike_id":"382de23e-78d1-4692-90d3-c420288f838a","system_id":"levelo_inurba_marseille","lat":43.311131,"lon":5.377651,"is_reserved":false,"is_disabled":false,"rental_uris":{"android":"levelo://app?vid=382de23e-78d1-4692-90d3-c420288f838a","ios":"levelo://app?vid=382de23e-78d1-4692-90d3-c420288f838a"},"vehicle_type_id":"4","last_reported":1717020444,"current_range_meters":14400,"station_id":"ce4bgt92rcd13ifvqcg0","pricing_plan_id":"cebpf4jnsgd1na2vs0mg"},{"bike_id":"49264be7-2cc7-4699-b3f4-6f9279c8a0ea","system_id":"levelo_inurba_marseille","lat":43.311125,"lon":5.377624,"is_reserved":false,"is_disabled":false,"rental_uris":{"android":"levelo://app?vid=49264be7-2cc7-4699-b3f4-6f9279c8a0ea","ios":"levelo://app?vid=49264be7-2cc7-4699-b3f4-6f9279c8a0ea"},"vehicle_type_id":"4","last_reported":1717020444,"current_range_meters":22000,"station_id":"ce4bgt92rcd13ifvqcg0","pricing_plan_id":"cebpf4jnsgd1na2vs0mg"},{"bike_id":"e75632ce-ea00-4c71-a3db-e09a19635f60","system_id":"levelo_inurba_marseille","lat":43.304623,"lon":5.369227,"is_reserved":false,"is_disabled":false,"rental_uris":{"android":"levelo://app?vid=e75632ce-ea00-4c71-a3db-e09a19635f60","ios":"levelo://app?vid=e75632ce-ea00-4c71-a3db-e09a19635f60"},"vehicle_type_id":"4","last_reported":1717020444,"current_range_meters":10000,"station_id":"","pricing_plan_id":"cebpf4jnsgd1na2vs0mg"},{"bike_id":"a7dd1ea0-ed80-4551-bc9f-e8158bbd5f00","system_id":"levelo_inurba_marseille","lat":43.307945,"lon":5.376487,"is_reserved":false,"is_disabled":false,"rental_uris":{"android":"levelo://app?vid=a7dd1ea0-ed80-4551-bc9f-e8158bbd5f00","ios":"levelo://app?vid=a7dd1ea0-ed80-4551-bc9f-e8158bbd5f00"},"vehicle_type_id":"4","last_reported":1717020444,"current_range_meters":25600,"station_id":"ce4bgv92rcd13ifvqcq0","pricing_plan_id":"cebpf4jnsgd1na2vs0mg"},{"bike_id":"09a5e324-20a7-4ac5-81e9-54da35bcfd51","system_id":"levelo_inurba_marseille","lat":43.307945,"lon":5.376487,"is_reserved":false,"is_disabled":false,"rental_uris":{"android":"levelo://app?vid=09a5e324-20a7-4ac5-81e9-54da35bcfd51","ios":"levelo://app?vid=09a5e324-20a7-4ac5-81e9-54da35bcfd51"},"vehicle_type_id":"4","last_reported":1717020444,"current_range_meters":17600,"station_id":"ce4bgv92rcd13ifvqcq0","pricing_plan_id":"cebpf4jnsgd1na2vs0mg"},{"bike_id":"2f46a7c4-6d79-4026-82e5-33fa7c650bff","system_id":"levelo_inurba_marseille","lat":43.307945,"lon":5.376487,"is_reserved":false,"is_disabled":false,"rental_uris":{"android":"levelo://app?vid=2f46a7c4-6d79-4026-82e5-33fa7c650bff","ios":"levelo://app?vid=2f46a7c4-6d79-4026-82e5-33fa7c650bff"},"vehicle_type_id":"4","last_reported":1717020444,"current_range_meters":14000,"station_id":"ce4bgv92rcd13ifvqcq0","pricing_plan_id":"cebpf4jnsgd1na2vs0mg"},{"bike_id":"18040719-64eb-48e0-b105-c491f68b2898","system_id":"levelo_inurba_marseille","lat":43.307945,"lon":5.376487,"is_reserved":false,"is_disabled":false,"rental_uris":{"android":"levelo://app?vid=18040719-64eb-48e0-b105-c491f68b2898","ios":"levelo://app?vid=18040719-64eb-48e0-b105-c491f68b2898"},"vehicle_type_id":"4","last_reported":1717020444,"current_range_meters":17600,"station_id":"ce4bgv92rcd13ifvqcq0","pricing_plan_id":"cebpf4jnsgd1na2vs0mg"},{"bike_id":"9cf047f3-cf21-46bf-bee0-df7ea6b2b82d","system_id":"levelo_inurba_marseille","lat":43.307945,"lon":5.376487,"is_reserved":false,"is_disabled":false,"rental_uris":{"android":"levelo://app?vid=9cf047f3-cf21-46bf-bee0-df7ea6b2b82d","ios":"levelo://app?vid=9cf047f3-cf21-46bf-bee0-df7ea6b2b82d"},"vehicle_type_id":"4","last_reported":1717020444,"current_range_meters":0,"station_id":"ce4bgv92rcd13ifvqcq0","pricing_plan_id":"cebpf4jnsgd1na2vs0mg"},{"bike_id":"fc5e3b52-f771-440d-93e5-df4008645921","system_id":"levelo_inurba_marseille","lat":43.307945,"lon":5.376487,"is_reserved":false,"is_disabled":false,"rental_uris":{"android":"levelo://app?vid=fc5e3b52-f771-440d-93e5-df4008645921","ios":"levelo://app?vid=fc5e3b52-f771-440d-93e5-df4008645921"},"vehicle_type_id":"4","last_reported":1717020444,"current_range_meters":25200,"station_id":"ce4bgv92rcd13ifvqcq0","pricing_plan_id":"cebpf4jnsgd1na2vs0mg"},{"bike_id":"aa2d73ef-29bb-41b5-9c6a-5a05a87f7f9d","system_id":"levelo_inurba_marseille","lat":43.307945,"lon":5.376487,"is_reserved":false,"is_disabled":false,"rental_uris":{"android":"levelo://app?vid=aa2d73ef-29bb-41b5-9c6a-5a05a87f7f9d","ios":"levelo://app?vid=aa2d73ef-29bb-41b5-9c6a-5a05a87f7f9d"},"vehicle_type_id":"4","last_reported":1717020444,"current_range_meters":30800,"station_id":"ce4bgv92rcd13ifvqcq0","pricing_plan_id":"cebpf4jnsgd1na2vs0mg"},{"bike_id":"f5434cbf-5818-4f03-934e-fa9ca5f47164","system_id":"levelo_inurba_marseille","lat":43.307945,"lon":5.376487,"is_reserved":false,"is_disabled":false,"rental_uris":{"android":"levelo://app?vid=f5434cbf-5818-4f03-934e-fa9ca5f47164","ios":"levelo://app?vid=f5434cbf-5818-4f03-934e-fa9ca5f47164"},"vehicle_type_id":"4","last_reported":1717020444,"current_range_meters":22400,"station_id":"ce4bgv92rcd13ifvqcq0","pricing_plan_id":"cebpf4jnsgd1na2vs0mg"},{"bike_id":"dc0ed29a-38bf-4e8e-b9cd-d2fe3ae5bc2a","system_id":"levelo_inurba_marseille","lat":43.307945,"lon":5.376487,"is_reserved":false,"is_disabled":false,"rental_uris":{"android":"levelo://app?vid=dc0ed29a-38bf-4e8e-b9cd-d2fe3ae5bc2a","ios":"levelo://app?vid=dc0ed29a-38bf-4e8e-b9cd-d2fe3ae5bc2a"},"vehicle_type_id":"4","last_reported":1717020444,"current_range_meters":10800,"station_id":"ce4bgv92rcd13ifvqcq0","pricing_plan_id":"cebpf4jnsgd1na2vs0mg"},{"bike_id":"91f5f5e2-e632-4e62-bc8a-4ade2eac678f","system_id":"levelo_inurba_marseille","lat":43.307945,"lon":5.376487,"is_reserved":false,"is_disabled":false,"rental_uris":{"android":"levelo://app?vid=91f5f5e2-e632-4e62-bc8a-4ade2eac678f","ios":"levelo://app?vid=91f5f5e2-e632-4e62-bc8a-4ade2eac678f"},"vehicle_type_id":"4","last_reported":1717020444,"current_range_meters":25600,"station_id":"ce4bgv92rcd13ifvqcq0","pricing_plan_id":"cebpf4jnsgd1na2vs0mg"},{"bike_id":"0656589d-2b1a-49d7-bed9-4ad66bb99723","system_id":"levelo_inurba_marseille","lat":43.307945,"lon":5.376487,"is_reserved":false,"is_disabled":false,"rental_uris":{"android":"levelo://app?vid=0656589d-2b1a-49d7-bed9-4ad66bb99723","ios":"levelo://app?vid=0656589d-2b1a-49d7-bed9-4ad66bb99723"},"vehicle_type_id":"4","last_reported":1717020444,"current_range_meters":22800,"station_id":"ce4bgv92rcd13ifvqcq0","pricing_plan_id":"cebpf4jnsgd1na2vs0mg"},{"bike_id":"6fcf5eb3-8b21-4c41-a8aa-2cb1a862de08","system_id":"levelo_inurba_marseille","lat":43.307945,"lon":5.376487,"is_reserved":false,"is_disabled":false,"rental_uris":{"android":"levelo://app?vid=6fcf5eb3-8b21-4c41-a8aa-2cb1a862de08","ios":"levelo://app?vid=6fcf5eb3-8b21-4c41-a8aa-2cb1a862de08"},"vehicle_type_id":"4","last_reported":1717020444,"current_range_meters":28000,"station_id":"ce4bgv92rcd13ifvqcq0","pricing_plan_id":"cebpf4jnsgd1na2vs0mg"},{"bike_id":"b21aaf60-ac1c-4e43-b5a6-304bbc595e1a","system_id":"levelo_inurba_marseille","lat":43.303046,"lon":5.368981,"is_reserved":false,"is_disabled":false,"rental_uris":{"android":"levelo://app?vid=b21aaf60-ac1c-4e43-b5a6-304bbc595e1a","ios":"levelo://app?vid=b21aaf60-ac1c-4e43-b5a6-304bbc595e1a"},"vehicle_type_id":"4","last_reported":1717020444,"current_range_meters":12000,"station_id":"ce4bgqh2rcd13ifvqc5g","pricing_plan_id":"cebpf4jnsgd1na2vs0mg"},{"bike_id":"481ea65b-4de2-47f6-9464-5d37925fd36b","system_id":"levelo_inurba_marseille","lat":43.30304,"lon":5.368987,"is_reserved":false,"is_disabled":false,"rental_uris":{"android":"levelo://app?vid=481ea65b-4de2-47f6-9464-5d37925fd36b","ios":"levelo://app?vid=481ea65b-4de2-47f6-9464-5d37925fd36b"},"vehicle_type_id":"4","last_reported":1717020444,"current_range_meters":10800,"station_id":"ce4bgqh2rcd13ifvqc5g","pricing_plan_id":"cebpf4jnsgd1na2vs0mg"},{"bike_id":"e5e10a49-25e9-434e-96ce-0d67ab85730d","system_id":"levelo_inurba_marseille","lat":43.30304,"lon":5.368987,"is_reserved":false,"is_disabled":false,"rental_uris":{"android":"levelo://app?vid=e5e10a49-25e9-434e-96ce-0d67ab85730d","ios":"levelo://app?vid=e5e10a49-25e9-434e-96ce-0d67ab85730d"},"vehicle_type_id":"4","last_reported":1717020444,"current_range_meters":6400,"station_id":"ce4bgqh2rcd13ifvqc5g","pricing_plan_id":"cebpf4jnsgd1na2vs0mg"},{"bike_id":"09c1d68f-4b52-4ce7-9212-8d595cab6156","system_id":"levelo_inurba_marseille","lat":43.30304,"lon":5.368987,"is_reserved":false,"is_disabled":false,"rental_uris":{"android":"levelo://app?vid=09c1d68f-4b52-4ce7-9212-8d595cab6156","ios":"levelo://app?vid=09c1d68f-4b52-4ce7-9212-8d595cab6156"},"vehicle_type_id":"4","last_reported":1717020444,"current_range_meters":14800,"station_id":"ce4bgqh2rcd13ifvqc5g","pricing_plan_id":"cebpf4jnsgd1na2vs0mg"},{"bike_id":"7838e463-42eb-49a7-9652-004dc1831384","system_id":"levelo_inurba_marseille","lat":43.315289,"lon":5.380349,"is_reserved":false,"is_disabled":false,"rental_uris":{"android":"levelo://app?vid=7838e463-42eb-49a7-9652-004dc1831384","ios":"levelo://app?vid=7838e463-42eb-49a7-9652-004dc1831384"},"vehicle_type_id":"4","last_reported":1717020444,"current_range_meters":20000,"station_id":"ce4bhsp2rcd13ifvqi50","pricing_plan_id":"cebpf4jnsgd1na2vs0mg"},{"bike_id":"91191004-ed80-4044-9421-e40765ae7d21","system_id":"levelo_inurba_marseille","lat":43.315289,"lon":5.380349,"is_reserved":false,"is_disabled":false,"rental_uris":{"android":"levelo://app?vid=91191004-ed80-4044-9421-e40765ae7d21","ios":"levelo://app?vid=91191004-ed80-4044-9421-e40765ae7d21"},"vehicle_type_id":"4","last_reported":1717020444,"current_range_meters":24800,"station_id":"ce4bhsp2rcd13ifvqi50","pricing_plan_id":"cebpf4jnsgd1na2vs0mg"},{"bike_id":"554971dd-8471-43fb-8f74-19c6d343931b","system_id":"levelo_inurba_marseille","lat":43.315289,"lon":5.380349,"is_reserved":false,"is_disabled":false,"rental_uris":{"android":"levelo://app?vid=554971dd-8471-43fb-8f74-19c6d343931b","ios":"levelo://app?vid=554971dd-8471-43fb-8f74-19c6d343931b"},"vehicle_type_id":"4","last_reported":1717020444,"current_range_meters":1600,"station_id":"ce4bhsp2rcd13ifvqi50","pricing_plan_id":"cebpf4jnsgd1na2vs0mg"},{"bike_id":"f6cedf0c-9576-416a-a4d3-596faa44f1f0","system_id":"levelo_inurba_marseille","lat":43.315378,"lon":5.380322,"is_reserved":false,"is_disabled":false,"rental_uris":{"android":"levelo://app?vid=f6cedf0c-9576-416a-a4d3-596faa44f1f0","ios":"levelo://app?vid=f6cedf0c-9576-416a-a4d3-596faa44f1f0"},"vehicle_type_id":"4","last_reported":1717020444,"current_range_meters":0,"station_id":"ce4bhsp2rcd13ifvqi50","pricing_plan_id":"cebpf4jnsgd1na2vs0mg"},{"bike_id":"81015be3-05c6-48a1-8fc6-8dafdbd4738a","system_id":"levelo_inurba_marseille","lat":43.301939,"lon":5.366286,"is_reserved":false,"is_disabled":false,"rental_uris":{"android":"levelo://app?vid=81015be3-05c6-48a1-8fc6-8dafdbd4738a","ios":"levelo://app?vid=81015be3-05c6-48a1-8fc6-8dafdbd4738a"},"vehicle_type_id":"4","last_reported":1717020444,"current_range_meters":0,"station_id":"ce4bgrh2rcd13ifvqc8g","pricing_plan_id":"cebpf4jnsgd1na2vs0mg"},{"bike_id":"d5d553bc-c168-4111-9392-3a4e6d1afd53","system_id":"levelo_inurba_marseille","lat":43.301939,"lon":5.366286,"is_reserved":false,"is_disabled":false,"rental_uris":{"android":"levelo://app?vid=d5d553bc-c168-4111-9392-3a4e6d1afd53","ios":"levelo://app?vid=d5d553bc-c168-4111-9392-3a4e6d1afd53"},"vehicle_type_id":"4","last_reported":1717020444,"current_range_meters":2000,"station_id":"ce4bgrh2rcd13ifvqc8g","pricing_plan_id":"cebpf4jnsgd1na2vs0mg"},{"bike_id":"fbe7a475-ebb0-4e42-890f-eeb058b417dc","system_id":"levelo_inurba_marseille","lat":43.301939,"lon":5.366286,"is_reserved":false,"is_disabled":false,"rental_uris":{"android":"levelo://app?vid=fbe7a475-ebb0-4e42-890f-eeb058b417dc","ios":"levelo://app?vid=fbe7a475-ebb0-4e42-890f-eeb058b417dc"},"vehicle_type_id":"4","last_reported":1717020444,"current_range_meters":31200,"station_id":"ce4bgrh2rcd13ifvqc8g","pricing_plan_id":"cebpf4jnsgd1na2vs0mg"},{"bike_id":"fa611b53-7256-4b3b-8b8a-530c87f00eaf","system_id":"levelo_inurba_marseille","lat":43.31592,"lon":5.38179,"is_reserved":false,"is_disabled":false,"rental_uris":{"android":"levelo://app?vid=fa611b53-7256-4b3b-8b8a-530c87f00eaf","ios":"levelo://app?vid=fa611b53-7256-4b3b-8b8a-530c87f00eaf"},"vehicle_type_id":"4","last_reported":1717020444,"current_range_meters":5600,"station_id":"","pricing_plan_id":"cebpf4jnsgd1na2vs0mg"},{"bike_id":"c9a836eb-cd76-401e-ab43-0524798b89f0","system_id":"levelo_inurba_marseille","lat":43.30787,"lon":5.38158,"is_reserved":false,"is_disabled":false,"rental_uris":{"android":"levelo://app?vid=c9a836eb-cd76-401e-ab43-0524798b89f0","ios":"levelo://app?vid=c9a836eb-cd76-401e-ab43-0524798b89f0"},"vehicle_type_id":"4","last_reported":1717020444,"current_range_meters":10400,"station_id":"ce4bgt12rcd13ifvqce0","pricing_plan_id":"cebpf4jnsgd1na2vs0mg"},{"bike_id":"463938e7-5bbd-420a-9124-84c936d0d476","system_id":"levelo_inurba_marseille","lat":43.304606,"lon":5.379026,"is_reserved":false,"is_disabled":false,"rental_uris":{"android":"levelo://app?vid=463938e7-5bbd-420a-9124-84c936d0d476","ios":"levelo://app?vid=463938e7-5bbd-420a-9124-84c936d0d476"},"vehicle_type_id":"4","last_reported":1717020444,"current_range_meters":23200,"station_id":"ce4bgup2rcd13ifvqcn0","pricing_plan_id":"cebpf4jnsgd1na2vs0mg"},{"bike_id":"4eff7110-c1ef-45f2-9316-69e4d0267d8d","system_id":"levelo_inurba_marseille","lat":43.304606,"lon":5.379026,"is_reserved":false,"is_disabled":false,"rental_uris":{"android":"levelo://app?vid=4eff7110-c1ef-45f2-9316-69e4d0267d8d","ios":"levelo://app?vid=4eff7110-c1ef-45f2-9316-69e4d0267d8d"},"vehicle_type_id":"4","last_reported":1717020444,"current_range_meters":24000,"station_id":"ce4bgup2rcd13ifvqcn0","pricing_plan_id":"cebpf4jnsgd1na2vs0mg"},{"bike_id":"6db912f4-5677-40ba-aa4c-5bbb7dd335cd","system_id":"levelo_inurba_marseille","lat":43.304606,"lon":5.379026,"is_reserved":false,"is_disabled":false,"rental_uris":{"android":"levelo://app?vid=6db912f4-5677-40ba-aa4c-5bbb7dd335cd","ios":"levelo://app?vid=6db912f4-5677-40ba-aa4c-5bbb7dd335cd"},"vehicle_type_id":"4","last_reported":1717020444,"current_range_meters":22400,"station_id":"ce4bgup2rcd13ifvqcn0","pricing_plan_id":"cebpf4jnsgd1na2vs0mg"},{"bike_id":"69b7ef29-2167-4234-a37c-e01bd5cd43a9","system_id":"levelo_inurba_marseille","lat":43.304606,"lon":5.379026,"is_reserved":false,"is_disabled":false,"rental_uris":{"android":"levelo://app?vid=69b7ef29-2167-4234-a37c-e01bd5cd43a9","ios":"levelo://app?vid=69b7ef29-2167-4234-a37c-e01bd5cd43a9"},"vehicle_type_id":"4","last_reported":1717020444,"current_range_meters":10000,"station_id":"ce4bgup2rcd13ifvqcn0","pricing_plan_id":"cebpf4jnsgd1na2vs0mg"},{"bike_id":"02de25f2-adc3-48f4-9711-96485d1eb96f","system_id":"levelo_inurba_marseille","lat":43.324771,"lon":5.36557,"is_reserved":false,"is_disabled":false,"rental_uris":{"android":"levelo://app?vid=02de25f2-adc3-48f4-9711-96485d1eb96f","ios":"levelo://app?vid=02de25f2-adc3-48f4-9711-96485d1eb96f"},"vehicle_type_id":"4","last_reported":1717020444,"current_range_meters":8800,"station_id":"ce4bhs12rcd13ifvqhvg","pricing_plan_id":"cebpf4jnsgd1na2vs0mg"},{"bike_id":"4d376928-f858-436e-80af-e2da7496b40f","system_id":"levelo_inurba_marseille","lat":43.304606,"lon":5.379026,"is_reserved":false,"is_disabled":false,"rental_uris":{"android":"levelo://app?vid=4d376928-f858-436e-80af-e2da7496b40f","ios":"levelo://app?vid=4d376928-f858-436e-80af-e2da7496b40f"},"vehicle_type_id":"4","last_reported":1717020444,"current_range_meters":7600,"station_id":"ce4bgup2rcd13ifvqcn0","pricing_plan_id":"cebpf4jnsgd1na2vs0mg"},{"bike_id":"8fc02ee2-40f0-4d58-94d8-0e660480e1b1","system_id":"levelo_inurba_marseille","lat":43.304606,"lon":5.379026,"is_reserved":false,"is_disabled":false,"rental_uris":{"android":"levelo://app?vid=8fc02ee2-40f0-4d58-94d8-0e660480e1b1","ios":"levelo://app?vid=8fc02ee2-40f0-4d58-94d8-0e660480e1b1"},"vehicle_type_id":"4","last_reported":1717020444,"current_range_meters":18400,"station_id":"ce4bgup2rcd13ifvqcn0","pricing_plan_id":"cebpf4jnsgd1na2vs0mg"},{"bike_id":"911d2d80-08a0-4009-8d62-e36f7de13d99","system_id":"levelo_inurba_marseille","lat":43.324771,"lon":5.36557,"is_reserved":false,"is_disabled":false,"rental_uris":{"android":"levelo://app?vid=911d2d80-08a0-4009-8d62-e36f7de13d99","ios":"levelo://app?vid=911d2d80-08a0-4009-8d62-e36f7de13d99"},"vehicle_type_id":"4","last_reported":1717020444,"current_range_meters":7600,"station_id":"ce4bhs12rcd13ifvqhvg","pricing_plan_id":"cebpf4jnsgd1na2vs0mg"},{"bike_id":"7c81c983-e291-4e3a-b20a-bc6c4467a283","system_id":"levelo_inurba_marseille","lat":43.324771,"lon":5.36557,"is_reserved":false,"is_disabled":false,"rental_uris":{"android":"levelo://app?vid=7c81c983-e291-4e3a-b20a-bc6c4467a283","ios":"levelo://app?vid=7c81c983-e291-4e3a-b20a-bc6c4467a283"},"vehicle_type_id":"4","last_reported":1717020444,"current_range_meters":18400,"station_id":"ce4bhs12rcd13ifvqhvg","pricing_plan_id":"cebpf4jnsgd1na2vs0mg"},{"bike_id":"2648afd1-d567-443c-8d80-071a446c0247","system_id":"levelo_inurba_marseille","lat":43.324771,"lon":5.36557,"is_reserved":false,"is_disabled":false,"rental_uris":{"android":"levelo://app?vid=2648afd1-d567-443c-8d80-071a446c0247","ios":"levelo://app?vid=2648afd1-d567-443c-8d80-071a446c0247"},"vehicle_type_id":"4","last_reported":1717020444,"current_range_meters":6800,"station_id":"ce4bhs12rcd13ifvqhvg","pricing_plan_id":"cebpf4jnsgd1na2vs0mg"},{"bike_id":"960fc0df-7f23-4d15-b27d-e0262feb00a9","system_id":"levelo_inurba_marseille","lat":43.324771,"lon":5.36557,"is_reserved":false,"is_disabled":false,"rental_uris":{"android":"levelo://app?vid=960fc0df-7f23-4d15-b27d-e0262feb00a9","ios":"levelo://app?vid=960fc0df-7f23-4d15-b27d-e0262feb00a9"},"vehicle_type_id":"4","last_reported":1717020444,"current_range_meters":4000,"station_id":"ce4bhs12rcd13ifvqhvg","pricing_plan_id":"cebpf4jnsgd1na2vs0mg"},{"bike_id":"8313b662-fef5-4217-be51-85222c443209","system_id":"levelo_inurba_marseille","lat":43.324771,"lon":5.36557,"is_reserved":false,"is_disabled":false,"rental_uris":{"android":"levelo://app?vid=8313b662-fef5-4217-be51-85222c443209","ios":"levelo://app?vid=8313b662-fef5-4217-be51-85222c443209"},"vehicle_type_id":"4","last_reported":1717020444,"current_range_meters":27600,"station_id":"ce4bhs12rcd13ifvqhvg","pricing_plan_id":"cebpf4jnsgd1na2vs0mg"},{"bike_id":"96777acf-ab97-4114-9a9b-1347bad319b3","system_id":"levelo_inurba_marseille","lat":43.324771,"lon":5.36557,"is_reserved":false,"is_disabled":false,"rental_uris":{"android":"levelo://app?vid=96777acf-ab97-4114-9a9b-1347bad319b3","ios":"levelo://app?vid=96777acf-ab97-4114-9a9b-1347bad319b3"},"vehicle_type_id":"4","last_reported":1717020444,"current_range_meters":30400,"station_id":"ce4bhs12rcd13ifvqhvg","pricing_plan_id":"cebpf4jnsgd1na2vs0mg"},{"bike_id":"67e4a626-8e06-4448-a3d8-70bee72d318c","system_id":"levelo_inurba_marseille","lat":43.324771,"lon":5.36557,"is_reserved":false,"is_disabled":false,"rental_uris":{"android":"levelo://app?vid=67e4a626-8e06-4448-a3d8-70bee72d318c","ios":"levelo://app?vid=67e4a626-8e06-4448-a3d8-70bee72d318c"},"vehicle_type_id":"4","last_reported":1717020444,"current_range_meters":5600,"station_id":"ce4bhs12rcd13ifvqhvg","pricing_plan_id":"cebpf4jnsgd1na2vs0mg"},{"bike_id":"09a23f3e-71cb-406c-a41d-682846d49308","system_id":"levelo_inurba_marseille","lat":43.324771,"lon":5.36557,"is_reserved":false,"is_disabled":false,"rental_uris":{"android":"levelo://app?vid=09a23f3e-71cb-406c-a41d-682846d49308","ios":"levelo://app?vid=09a23f3e-71cb-406c-a41d-682846d49308"},"vehicle_type_id":"4","last_reported":1717020444,"current_range_meters":31200,"station_id":"ce4bhs12rcd13ifvqhvg","pricing_plan_id":"cebpf4jnsgd1na2vs0mg"},{"bike_id":"b463382a-26e8-477a-a32e-c012e04dfffa","system_id":"levelo_inurba_marseille","lat":43.324771,"lon":5.36557,"is_reserved":false,"is_disabled":false,"rental_uris":{"android":"levelo://app?vid=b463382a-26e8-477a-a32e-c012e04dfffa","ios":"levelo://app?vid=b463382a-26e8-477a-a32e-c012e04dfffa"},"vehicle_type_id":"4","last_reported":1717020444,"current_range_meters":18800,"station_id":"ce4bhs12rcd13ifvqhvg","pricing_plan_id":"cebpf4jnsgd1na2vs0mg"},{"bike_id":"ebbc7a9f-5b4c-406e-8181-f77cd7f28a8b","system_id":"levelo_inurba_marseille","lat":43.310804,"lon":5.38359,"is_reserved":false,"is_disabled":false,"rental_uris":{"android":"levelo://app?vid=ebbc7a9f-5b4c-406e-8181-f77cd7f28a8b","ios":"levelo://app?vid=ebbc7a9f-5b4c-406e-8181-f77cd7f28a8b"},"vehicle_type_id":"4","last_reported":1717020444,"current_range_meters":0,"station_id":"ce4bgv92rcd13ifvqcr0","pricing_plan_id":"cebpf4jnsgd1na2vs0mg"},{"bike_id":"6581b72b-d6e8-4a4a-b691-453e8f4ef05e","system_id":"levelo_inurba_marseille","lat":43.310804,"lon":5.38359,"is_reserved":false,"is_disabled":false,"rental_uris":{"android":"levelo://app?vid=6581b72b-d6e8-4a4a-b691-453e8f4ef05e","ios":"levelo://app?vid=6581b72b-d6e8-4a4a-b691-453e8f4ef05e"},"vehicle_type_id":"4","last_reported":1717020444,"current_range_meters":18400,"station_id":"ce4bgv92rcd13ifvqcr0","pricing_plan_id":"cebpf4jnsgd1na2vs0mg"},{"bike_id":"9ff690cf-6a91-458f-a093-57ab22fa0664","system_id":"levelo_inurba_marseille","lat":43.31075,"lon":5.3836,"is_reserved":false,"is_disabled":false,"rental_uris":{"android":"levelo://app?vid=9ff690cf-6a91-458f-a093-57ab22fa0664","ios":"levelo://app?vid=9ff690cf-6a91-458f-a093-57ab22fa0664"},"vehicle_type_id":"4","last_reported":1717020444,"current_range_meters":0,"station_id":"ce4bgv92rcd13ifvqcr0","pricing_plan_id":"cebpf4jnsgd1na2vs0mg"},{"bike_id":"afe58236-553d-420a-b266-32e43b1cde16","system_id":"levelo_inurba_marseille","lat":43.304606,"lon":5.379026,"is_reserved":false,"is_disabled":false,"rental_uris":{"android":"levelo://app?vid=afe58236-553d-420a-b266-32e43b1cde16","ios":"levelo://app?vid=afe58236-553d-420a-b266-32e43b1cde16"},"vehicle_type_id":"4","last_reported":1717020444,"current_range_meters":6800,"station_id":"ce4bgup2rcd13ifvqcn0","pricing_plan_id":"cebpf4jnsgd1na2vs0mg"},{"bike_id":"4a854149-a1a0-471c-b0df-fdbc2e45869f","system_id":"levelo_inurba_marseille","lat":43.299724,"lon":5.371829,"is_reserved":false,"is_disabled":false,"rental_uris":{"android":"levelo://app?vid=4a854149-a1a0-471c-b0df-fdbc2e45869f","ios":"levelo://app?vid=4a854149-a1a0-471c-b0df-fdbc2e45869f"},"vehicle_type_id":"4","last_reported":1717020444,"current_range_meters":25200,"station_id":"ce4bgr92rcd13ifvqc7g","pricing_plan_id":"cebpf4jnsgd1na2vs0mg"},{"bike_id":"c643a95b-cd58-45ef-86dd-97a3db115390","system_id":"levelo_inurba_marseille","lat":43.302784,"lon":5.377158,"is_reserved":false,"is_disabled":false,"rental_uris":{"android":"levelo://app?vid=c643a95b-cd58-45ef-86dd-97a3db115390","ios":"levelo://app?vid=c643a95b-cd58-45ef-86dd-97a3db115390"},"vehicle_type_id":"4","last_reported":1717020444,"current_range_meters":31200,"station_id":"ce4bguh2rcd13ifvqcj0","pricing_plan_id":"cebpf4jnsgd1na2vs0mg"},{"bike_id":"d63d6c81-96ba-406f-8100-bcd511dfffad","system_id":"levelo_inurba_marseille","lat":43.301429,"lon":5.37413,"is_reserved":false,"is_disabled":false,"rental_uris":{"android":"levelo://app?vid=d63d6c81-96ba-406f-8100-bcd511dfffad","ios":"levelo://app?vid=d63d6c81-96ba-406f-8100-bcd511dfffad"},"vehicle_type_id":"4","last_reported":1717020444,"current_range_meters":8800,"station_id":"ce4bgs92rcd13ifvqcc0","pricing_plan_id":"cebpf4jnsgd1na2vs0mg"},{"bike_id":"ed00f342-e355-456a-bda8-f153b615e49d","system_id":"levelo_inurba_marseille","lat":43.31986,"lon":5.38144,"is_reserved":false,"is_disabled":false,"rental_uris":{"android":"levelo://app?vid=ed00f342-e355-456a-bda8-f153b615e49d","ios":"levelo://app?vid=ed00f342-e355-456a-bda8-f153b615e49d"},"vehicle_type_id":"4","last_reported":1717020444,"current_range_meters":17600,"station_id":"ce4bhr12rcd13ifvqhpg","pricing_plan_id":"cebpf4jnsgd1na2vs0mg"},{"bike_id":"fbc6c10e-6aa8-497e-8826-ce4dec682fbd","system_id":"levelo_inurba_marseille","lat":43.31994,"lon":5.38144,"is_reserved":false,"is_disabled":false,"rental_uris":{"android":"levelo://app?vid=fbc6c10e-6aa8-497e-8826-ce4dec682fbd","ios":"levelo://app?vid=fbc6c10e-6aa8-497e-8826-ce4dec682fbd"},"vehicle_type_id":"4","last_reported":1717020444,"current_range_meters":2400,"station_id":"ce4bhr12rcd13ifvqhpg","pricing_plan_id":"cebpf4jnsgd1na2vs0mg"},{"bike_id":"e92a5dad-522a-41eb-afca-d0e9efa886d9","system_id":"levelo_inurba_marseille","lat":43.31993,"lon":5.381473,"is_reserved":false,"is_disabled":false,"rental_uris":{"android":"levelo://app?vid=e92a5dad-522a-41eb-afca-d0e9efa886d9","ios":"levelo://app?vid=e92a5dad-522a-41eb-afca-d0e9efa886d9"},"vehicle_type_id":"4","last_reported":1717020444,"current_range_meters":15200,"station_id":"ce4bhr12rcd13ifvqhpg","pricing_plan_id":"cebpf4jnsgd1na2vs0mg"},{"bike_id":"b84c56f1-28bf-4cd5-b639-a7c02ace602d","system_id":"levelo_inurba_marseille","lat":43.319992,"lon":5.381508,"is_reserved":false,"is_disabled":false,"rental_uris":{"android":"levelo://app?vid=b84c56f1-28bf-4cd5-b639-a7c02ace602d","ios":"levelo://app?vid=b84c56f1-28bf-4cd5-b639-a7c02ace602d"},"vehicle_type_id":"4","last_reported":1717020444,"current_range_meters":3200,"station_id":"ce4bhr12rcd13ifvqhpg","pricing_plan_id":"cebpf4jnsgd1na2vs0mg"},{"bike_id":"fe9e99b0-90bb-4df3-8a1f-dad5b7afeef0","system_id":"levelo_inurba_marseille","lat":43.319978,"lon":5.381542,"is_reserved":false,"is_disabled":false,"rental_uris":{"android":"levelo://app?vid=fe9e99b0-90bb-4df3-8a1f-dad5b7afeef0","ios":"levelo://app?vid=fe9e99b0-90bb-4df3-8a1f-dad5b7afeef0"},"vehicle_type_id":"4","last_reported":1717020444,"current_range_meters":18000,"station_id":"ce4bhr12rcd13ifvqhpg","pricing_plan_id":"cebpf4jnsgd1na2vs0mg"},{"bike_id":"a330041b-e006-45bc-bd85-8ce53c95527e","system_id":"levelo_inurba_marseille","lat":43.32,"lon":5.38154,"is_reserved":false,"is_disabled":false,"rental_uris":{"android":"levelo://app?vid=a330041b-e006-45bc-bd85-8ce53c95527e","ios":"levelo://app?vid=a330041b-e006-45bc-bd85-8ce53c95527e"},"vehicle_type_id":"4","last_reported":1717020444,"current_range_meters":10000,"station_id":"ce4bhr12rcd13ifvqhpg","pricing_plan_id":"cebpf4jnsgd1na2vs0mg"},{"bike_id":"b33dcd3c-2d00-4ed3-8ce5-d26a5bb10c6c","system_id":"levelo_inurba_marseille","lat":43.313571,"lon":5.384829,"is_reserved":false,"is_disabled":false,"rental_uris":{"android":"levelo://app?vid=b33dcd3c-2d00-4ed3-8ce5-d26a5bb10c6c","ios":"levelo://app?vid=b33dcd3c-2d00-4ed3-8ce5-d26a5bb10c6c"},"vehicle_type_id":"4","last_reported":1717020444,"current_range_meters":23200,"station_id":"ce4bgt92rcd13ifvqcf0","pricing_plan_id":"cebpf4jnsgd1na2vs0mg"},{"bike_id":"8b032d91-e0bc-48f2-baa6-637cf97d066f","system_id":"levelo_inurba_marseille","lat":43.313571,"lon":5.384829,"is_reserved":false,"is_disabled":false,"rental_uris":{"android":"levelo://app?vid=8b032d91-e0bc-48f2-baa6-637cf97d066f","ios":"levelo://app?vid=8b032d91-e0bc-48f2-baa6-637cf97d066f"},"vehicle_type_id":"4","last_reported":1717020444,"current_range_meters":26000,"station_id":"ce4bgt92rcd13ifvqcf0","pricing_plan_id":"cebpf4jnsgd1na2vs0mg"},{"bike_id":"9e1c351f-2788-4bed-b430-b2c95a8364e7","system_id":"levelo_inurba_marseille","lat":43.313659,"lon":5.384932,"is_reserved":false,"is_disabled":false,"rental_uris":{"android":"levelo://app?vid=9e1c351f-2788-4bed-b430-b2c95a8364e7","ios":"levelo://app?vid=9e1c351f-2788-4bed-b430-b2c95a8364e7"},"vehicle_type_id":"4","last_reported":1717020444,"current_range_meters":11600,"station_id":"ce4bgt92rcd13ifvqcf0","pricing_plan_id":"cebpf4jnsgd1na2vs0mg"},{"bike_id":"5d5e162b-aa8d-4b5b-9105-ece187464536","system_id":"levelo_inurba_marseille","lat":43.31366,"lon":5.38494,"is_reserved":false,"is_disabled":false,"rental_uris":{"android":"levelo://app?vid=5d5e162b-aa8d-4b5b-9105-ece187464536","ios":"levelo://app?vid=5d5e162b-aa8d-4b5b-9105-ece187464536"},"vehicle_type_id":"4","last_reported":1717020444,"current_range_meters":2000,"station_id":"ce4bgt92rcd13ifvqcf0","pricing_plan_id":"cebpf4jnsgd1na2vs0mg"},{"bike_id":"bd30dab5-3f69-4896-b871-7ef4fa960ef2","system_id":"levelo_inurba_marseille","lat":43.31358,"lon":5.38499,"is_reserved":false,"is_disabled":false,"rental_uris":{"android":"levelo://app?vid=bd30dab5-3f69-4896-b871-7ef4fa960ef2","ios":"levelo://app?vid=bd30dab5-3f69-4896-b871-7ef4fa960ef2"},"vehicle_type_id":"4","last_reported":1717020444,"current_range_meters":0,"station_id":"ce4bgt92rcd13ifvqcf0","pricing_plan_id":"cebpf4jnsgd1na2vs0mg"},{"bike_id":"5c5519e6-da01-457e-bb1e-68bda0264aa1","system_id":"levelo_inurba_marseille","lat":43.299976,"lon":5.371849,"is_reserved":false,"is_disabled":false,"rental_uris":{"android":"levelo://app?vid=5c5519e6-da01-457e-bb1e-68bda0264aa1","ios":"levelo://app?vid=5c5519e6-da01-457e-bb1e-68bda0264aa1"},"vehicle_type_id":"4","last_reported":1717020444,"current_range_meters":13200,"station_id":"","pricing_plan_id":"cebpf4jnsgd1na2vs0mg"},{"bike_id":"269c77c4-0dd2-464f-a1eb-a15b7405f819","system_id":"levelo_inurba_marseille","lat":43.299724,"lon":5.371829,"is_reserved":false,"is_disabled":false,"rental_uris":{"android":"levelo://app?vid=269c77c4-0dd2-464f-a1eb-a15b7405f819","ios":"levelo://app?vid=269c77c4-0dd2-464f-a1eb-a15b7405f819"},"vehicle_type_id":"4","last_reported":1717020444,"current_range_meters":0,"station_id":"ce4bgr92rcd13ifvqc7g","pricing_plan_id":"cebpf4jnsgd1na2vs0mg"},{"bike_id":"349e552e-2eb0-454c-b5de-4adf3ee659cd","system_id":"levelo_inurba_marseille","lat":43.299724,"lon":5.371829,"is_reserved":false,"is_disabled":false,"rental_uris":{"android":"levelo://app?vid=349e552e-2eb0-454c-b5de-4adf3ee659cd","ios":"levelo://app?vid=349e552e-2eb0-454c-b5de-4adf3ee659cd"},"vehicle_type_id":"4","last_reported":1717020444,"current_range_meters":17200,"station_id":"ce4bgr92rcd13ifvqc7g","pricing_plan_id":"cebpf4jnsgd1na2vs0mg"},{"bike_id":"aae63bc1-8109-4665-b091-6e5790d213d7","system_id":"levelo_inurba_marseille","lat":43.299724,"lon":5.371829,"is_reserved":false,"is_disabled":false,"rental_uris":{"android":"levelo://app?vid=aae63bc1-8109-4665-b091-6e5790d213d7","ios":"levelo://app?vid=aae63bc1-8109-4665-b091-6e5790d213d7"},"vehicle_type_id":"4","last_reported":1717020444,"current_range_meters":24400,"station_id":"ce4bgr92rcd13ifvqc7g","pricing_plan_id":"cebpf4jnsgd1na2vs0mg"},{"bike_id":"6856ca4e-20d5-4c03-8094-d94e5c251d12","system_id":"levelo_inurba_marseille","lat":43.299724,"lon":5.371829,"is_reserved":false,"is_disabled":false,"rental_uris":{"android":"levelo://app?vid=6856ca4e-20d5-4c03-8094-d94e5c251d12","ios":"levelo://app?vid=6856ca4e-20d5-4c03-8094-d94e5c251d12"},"vehicle_type_id":"4","last_reported":1717020444,"current_range_meters":27200,"station_id":"ce4bgr92rcd13ifvqc7g","pricing_plan_id":"cebpf4jnsgd1na2vs0mg"},{"bike_id":"c1e0f30f-a3b0-4d90-accf-ff6bafec69d4","system_id":"levelo_inurba_marseille","lat":43.305364,"lon":5.384119,"is_reserved":false,"is_disabled":false,"rental_uris":{"android":"levelo://app?vid=c1e0f30f-a3b0-4d90-accf-ff6bafec69d4","ios":"levelo://app?vid=c1e0f30f-a3b0-4d90-accf-ff6bafec69d4"},"vehicle_type_id":"4","last_reported":1717020444,"current_range_meters":12000,"station_id":"ce4bgg92rcd13ifvqb30","pricing_plan_id":"cebpf4jnsgd1na2vs0mg"},{"bike_id":"7c0279c4-785e-41cc-9875-11b1aa5697b0","system_id":"levelo_inurba_marseille","lat":43.298433,"lon":5.362774,"is_reserved":false,"is_disabled":false,"rental_uris":{"android":"levelo://app?vid=7c0279c4-785e-41cc-9875-11b1aa5697b0","ios":"levelo://app?vid=7c0279c4-785e-41cc-9875-11b1aa5697b0"},"vehicle_type_id":"4","last_reported":1717020444,"current_range_meters":30400,"station_id":"ce4bgpp2rcd13ifvqc3g","pricing_plan_id":"cebpf4jnsgd1na2vs0mg"},{"bike_id":"060e3c13-a36d-44c6-b527-7252fc4c9a5b","system_id":"levelo_inurba_marseille","lat":43.305364,"lon":5.384119,"is_reserved":false,"is_disabled":false,"rental_uris":{"android":"levelo://app?vid=060e3c13-a36d-44c6-b527-7252fc4c9a5b","ios":"levelo://app?vid=060e3c13-a36d-44c6-b527-7252fc4c9a5b"},"vehicle_type_id":"4","last_reported":1717020444,"current_range_meters":29200,"station_id":"ce4bgg92rcd13ifvqb30","pricing_plan_id":"cebpf4jnsgd1na2vs0mg"},{"bike_id":"e10773e0-e0e2-4e42-b539-4c242d642b7a","system_id":"levelo_inurba_marseille","lat":43.3054,"lon":5.38432,"is_reserved":false,"is_disabled":false,"rental_uris":{"android":"levelo://app?vid=e10773e0-e0e2-4e42-b539-4c242d642b7a","ios":"levelo://app?vid=e10773e0-e0e2-4e42-b539-4c242d642b7a"},"vehicle_type_id":"4","last_reported":1717020444,"current_range_meters":0,"station_id":"ce4bgg92rcd13ifvqb30","pricing_plan_id":"cebpf4jnsgd1na2vs0mg"},{"bike_id":"35bf869c-bd90-4921-aa4f-bb7be5ddbfef","system_id":"levelo_inurba_marseille","lat":43.311707,"lon":5.387053,"is_reserved":false,"is_disabled":false,"rental_uris":{"android":"levelo://app?vid=35bf869c-bd90-4921-aa4f-bb7be5ddbfef","ios":"levelo://app?vid=35bf869c-bd90-4921-aa4f-bb7be5ddbfef"},"vehicle_type_id":"4","last_reported":1717020444,"current_range_meters":31200,"station_id":"ce4bgv12rcd13ifvqcp0","pricing_plan_id":"cebpf4jnsgd1na2vs0mg"},{"bike_id":"ec96eff3-ed96-4f58-8dc3-ebc55fbcd1ce","system_id":"levelo_inurba_marseille","lat":43.311722,"lon":5.387247,"is_reserved":false,"is_disabled":false,"rental_uris":{"android":"levelo://app?vid=ec96eff3-ed96-4f58-8dc3-ebc55fbcd1ce","ios":"levelo://app?vid=ec96eff3-ed96-4f58-8dc3-ebc55fbcd1ce"},"vehicle_type_id":"4","last_reported":1717020444,"current_range_meters":21600,"station_id":"ce4bgv12rcd13ifvqcp0","pricing_plan_id":"cebpf4jnsgd1na2vs0mg"},{"bike_id":"33492ecc-3468-4612-892c-a0b0ee511654","system_id":"levelo_inurba_marseille","lat":43.31163,"lon":5.38705,"is_reserved":false,"is_disabled":false,"rental_uris":{"android":"levelo://app?vid=33492ecc-3468-4612-892c-a0b0ee511654","ios":"levelo://app?vid=33492ecc-3468-4612-892c-a0b0ee511654"},"vehicle_type_id":"4","last_reported":1717020444,"current_range_meters":13600,"station_id":"ce4bgv12rcd13ifvqcp0","pricing_plan_id":"cebpf4jnsgd1na2vs0mg"},{"bike_id":"e441cfd8-786e-4282-94e1-e9f0d1c0809a","system_id":"levelo_inurba_marseille","lat":43.311722,"lon":5.387247,"is_reserved":false,"is_disabled":false,"rental_uris":{"android":"levelo://app?vid=e441cfd8-786e-4282-94e1-e9f0d1c0809a","ios":"levelo://app?vid=e441cfd8-786e-4282-94e1-e9f0d1c0809a"},"vehicle_type_id":"4","last_reported":1717020444,"current_range_meters":10800,"station_id":"ce4bgv12rcd13ifvqcp0","pricing_plan_id":"cebpf4jnsgd1na2vs0mg"},{"bike_id":"57ff869a-184b-4a54-b209-135d2910d052","system_id":"levelo_inurba_marseille","lat":43.299145,"lon":5.374685,"is_reserved":false,"is_disabled":false,"rental_uris":{"android":"levelo://app?vid=57ff869a-184b-4a54-b209-135d2910d052","ios":"levelo://app?vid=57ff869a-184b-4a54-b209-135d2910d052"},"vehicle_type_id":"4","last_reported":1717020444,"current_range_meters":0,"station_id":"ce4bgjh2rcd13ifvqbg0","pricing_plan_id":"cebpf4jnsgd1na2vs0mg"},{"bike_id":"25221348-7923-4c6c-8136-72b715368daf","system_id":"levelo_inurba_marseille","lat":43.311633,"lon":5.387109,"is_reserved":false,"is_disabled":false,"rental_uris":{"android":"levelo://app?vid=25221348-7923-4c6c-8136-72b715368daf","ios":"levelo://app?vid=25221348-7923-4c6c-8136-72b715368daf"},"vehicle_type_id":"4","last_reported":1717020444,"current_range_meters":31200,"station_id":"ce4bgv12rcd13ifvqcp0","pricing_plan_id":"cebpf4jnsgd1na2vs0mg"},{"bike_id":"acd4c4e3-22fd-4d99-a5b1-ca72f789f8b2","system_id":"levelo_inurba_marseille","lat":43.3117,"lon":5.38712,"is_reserved":false,"is_disabled":false,"rental_uris":{"android":"levelo://app?vid=acd4c4e3-22fd-4d99-a5b1-ca72f789f8b2","ios":"levelo://app?vid=acd4c4e3-22fd-4d99-a5b1-ca72f789f8b2"},"vehicle_type_id":"4","last_reported":1717020444,"current_range_meters":1600,"station_id":"ce4bgv12rcd13ifvqcp0","pricing_plan_id":"cebpf4jnsgd1na2vs0mg"},{"bike_id":"543aa1bd-ad46-4ba4-ad40-ece644b9865e","system_id":"levelo_inurba_marseille","lat":43.31172,"lon":5.38716,"is_reserved":false,"is_disabled":false,"rental_uris":{"android":"levelo://app?vid=543aa1bd-ad46-4ba4-ad40-ece644b9865e","ios":"levelo://app?vid=543aa1bd-ad46-4ba4-ad40-ece644b9865e"},"vehicle_type_id":"4","last_reported":1717020444,"current_range_meters":400,"station_id":"ce4bgv12rcd13ifvqcp0","pricing_plan_id":"cebpf4jnsgd1na2vs0mg"},{"bike_id":"7ff992ff-fe22-437e-a779-2c550048b6d2","system_id":"levelo_inurba_marseille","lat":43.31172,"lon":5.38718,"is_reserved":false,"is_disabled":false,"rental_uris":{"android":"levelo://app?vid=7ff992ff-fe22-437e-a779-2c550048b6d2","ios":"levelo://app?vid=7ff992ff-fe22-437e-a779-2c550048b6d2"},"vehicle_type_id":"4","last_reported":1717020444,"current_range_meters":6800,"station_id":"ce4bgv12rcd13ifvqcp0","pricing_plan_id":"cebpf4jnsgd1na2vs0mg"},{"bike_id":"b67d1f20-5fa6-4f4b-a3b9-16680dd17dd5","system_id":"levelo_inurba_marseille","lat":43.311722,"lon":5.387247,"is_reserved":false,"is_disabled":false,"rental_uris":{"android":"levelo://app?vid=b67d1f20-5fa6-4f4b-a3b9-16680dd17dd5","ios":"levelo://app?vid=b67d1f20-5fa6-4f4b-a3b9-16680dd17dd5"},"vehicle_type_id":"4","last_reported":1717020444,"current_range_meters":8400,"station_id":"ce4bgv12rcd13ifvqcp0","pricing_plan_id":"cebpf4jnsgd1na2vs0mg"},{"bike_id":"836a73ac-4a44-4181-a4f1-dd91702d4ff6","system_id":"levelo_inurba_marseille","lat":43.311722,"lon":5.387247,"is_reserved":false,"is_disabled":false,"rental_uris":{"android":"levelo://app?vid=836a73ac-4a44-4181-a4f1-dd91702d4ff6","ios":"levelo://app?vid=836a73ac-4a44-4181-a4f1-dd91702d4ff6"},"vehicle_type_id":"4","last_reported":1717020444,"current_range_meters":29600,"station_id":"ce4bgv12rcd13ifvqcp0","pricing_plan_id":"cebpf4jnsgd1na2vs0mg"},{"bike_id":"03762875-d27f-459a-8fd6-6660b4c8cfdc","system_id":"levelo_inurba_marseille","lat":43.311722,"lon":5.387247,"is_reserved":false,"is_disabled":false,"rental_uris":{"android":"levelo://app?vid=03762875-d27f-459a-8fd6-6660b4c8cfdc","ios":"levelo://app?vid=03762875-d27f-459a-8fd6-6660b4c8cfdc"},"vehicle_type_id":"4","last_reported":1717020444,"current_range_meters":4400,"station_id":"ce4bgv12rcd13ifvqcp0","pricing_plan_id":"cebpf4jnsgd1na2vs0mg"},{"bike_id":"819a7ee0-bf33-4058-83d2-3e76a44d6a08","system_id":"levelo_inurba_marseille","lat":43.311722,"lon":5.387247,"is_reserved":false,"is_disabled":false,"rental_uris":{"android":"levelo://app?vid=819a7ee0-bf33-4058-83d2-3e76a44d6a08","ios":"levelo://app?vid=819a7ee0-bf33-4058-83d2-3e76a44d6a08"},"vehicle_type_id":"4","last_reported":1717020444,"current_range_meters":18800,"station_id":"ce4bgv12rcd13ifvqcp0","pricing_plan_id":"cebpf4jnsgd1na2vs0mg"},{"bike_id":"10fb4334-c940-4455-979b-d3f1ca32e262","system_id":"levelo_inurba_marseille","lat":43.297794,"lon":5.370888,"is_reserved":false,"is_disabled":false,"rental_uris":{"android":"levelo://app?vid=10fb4334-c940-4455-979b-d3f1ca32e262","ios":"levelo://app?vid=10fb4334-c940-4455-979b-d3f1ca32e262"},"vehicle_type_id":"4","last_reported":1717020444,"current_range_meters":29200,"station_id":"ce4bgop2rcd13ifvqc1g","pricing_plan_id":"cebpf4jnsgd1na2vs0mg"},{"bike_id":"593a5668-dbeb-452c-ab81-8b3dc6277a32","system_id":"levelo_inurba_marseille","lat":43.322872,"lon":5.382756,"is_reserved":false,"is_disabled":false,"rental_uris":{"android":"levelo://app?vid=593a5668-dbeb-452c-ab81-8b3dc6277a32","ios":"levelo://app?vid=593a5668-dbeb-452c-ab81-8b3dc6277a32"},"vehicle_type_id":"4","last_reported":1717020444,"current_range_meters":25200,"station_id":"ce4bhr12rcd13ifvqhqg","pricing_plan_id":"cebpf4jnsgd1na2vs0mg"},{"bike_id":"132229a8-35b9-4ee9-87d3-5234ba4e668e","system_id":"levelo_inurba_marseille","lat":43.322872,"lon":5.382756,"is_reserved":false,"is_disabled":false,"rental_uris":{"android":"levelo://app?vid=132229a8-35b9-4ee9-87d3-5234ba4e668e","ios":"levelo://app?vid=132229a8-35b9-4ee9-87d3-5234ba4e668e"},"vehicle_type_id":"4","last_reported":1717020444,"current_range_meters":28800,"station_id":"ce4bhr12rcd13ifvqhqg","pricing_plan_id":"cebpf4jnsgd1na2vs0mg"},{"bike_id":"b697956f-6a10-40f5-8543-a33ed6392cf5","system_id":"levelo_inurba_marseille","lat":43.323124,"lon":5.382905,"is_reserved":false,"is_disabled":false,"rental_uris":{"android":"levelo://app?vid=b697956f-6a10-40f5-8543-a33ed6392cf5","ios":"levelo://app?vid=b697956f-6a10-40f5-8543-a33ed6392cf5"},"vehicle_type_id":"4","last_reported":1717020444,"current_range_meters":8000,"station_id":"ce4bhr12rcd13ifvqhqg","pricing_plan_id":"cebpf4jnsgd1na2vs0mg"},{"bike_id":"333c0fdd-3c0f-42ee-b2e2-6a68101f920a","system_id":"levelo_inurba_marseille","lat":43.298695,"lon":5.376433,"is_reserved":false,"is_disabled":false,"rental_uris":{"android":"levelo://app?vid=333c0fdd-3c0f-42ee-b2e2-6a68101f920a","ios":"levelo://app?vid=333c0fdd-3c0f-42ee-b2e2-6a68101f920a"},"vehicle_type_id":"4","last_reported":1717020444,"current_range_meters":24000,"station_id":"ce4bh3p2rcd13ifvqdq0","pricing_plan_id":"cebpf4jnsgd1na2vs0mg"},{"bike_id":"9f39879b-753c-4692-99b3-bac3590cce5f","system_id":"levelo_inurba_marseille","lat":43.30076,"lon":5.38096,"is_reserved":false,"is_disabled":false,"rental_uris":{"android":"levelo://app?vid=9f39879b-753c-4692-99b3-bac3590cce5f","ios":"levelo://app?vid=9f39879b-753c-4692-99b3-bac3590cce5f"},"vehicle_type_id":"4","last_reported":1717020444,"current_range_meters":7200,"station_id":"ce4bgup2rcd13ifvqcn0","pricing_plan_id":"cebpf4jnsgd1na2vs0mg"},{"bike_id":"158e0c5a-09dd-459e-a88c-d290da9e9a44","system_id":"levelo_inurba_marseille","lat":43.297163,"lon":5.365866,"is_reserved":false,"is_disabled":false,"rental_uris":{"android":"levelo://app?vid=158e0c5a-09dd-459e-a88c-d290da9e9a44","ios":"levelo://app?vid=158e0c5a-09dd-459e-a88c-d290da9e9a44"},"vehicle_type_id":"4","last_reported":1717020444,"current_range_meters":28000,"station_id":"ce4bgn12rcd13ifvqbt0","pricing_plan_id":"cebpf4jnsgd1na2vs0mg"},{"bike_id":"6eb31e96-3932-4f7d-a5d5-d22fc609af9e","system_id":"levelo_inurba_marseille","lat":43.297163,"lon":5.365866,"is_reserved":false,"is_disabled":false,"rental_uris":{"android":"levelo://app?vid=6eb31e96-3932-4f7d-a5d5-d22fc609af9e","ios":"levelo://app?vid=6eb31e96-3932-4f7d-a5d5-d22fc609af9e"},"vehicle_type_id":"4","last_reported":1717020444,"current_range_meters":21600,"station_id":"ce4bgn12rcd13ifvqbt0","pricing_plan_id":"cebpf4jnsgd1na2vs0mg"},{"bike_id":"bbd06c04-145a-431f-8371-af1c02d8c25d","system_id":"levelo_inurba_marseille","lat":43.2968,"lon":5.37291,"is_reserved":false,"is_disabled":false,"rental_uris":{"android":"levelo://app?vid=bbd06c04-145a-431f-8371-af1c02d8c25d","ios":"levelo://app?vid=bbd06c04-145a-431f-8371-af1c02d8c25d"},"vehicle_type_id":"4","last_reported":1717020444,"current_range_meters":26400,"station_id":"ce4bgk12rcd13ifvqbj0","pricing_plan_id":"cebpf4jnsgd1na2vs0mg"},{"bike_id":"43f513c8-5245-4550-a880-74cfd3393e30","system_id":"levelo_inurba_marseille","lat":43.29738,"lon":5.37779,"is_reserved":false,"is_disabled":false,"rental_uris":{"android":"levelo://app?vid=43f513c8-5245-4550-a880-74cfd3393e30","ios":"levelo://app?vid=43f513c8-5245-4550-a880-74cfd3393e30"},"vehicle_type_id":"4","last_reported":1717020444,"current_range_meters":400,"station_id":"","pricing_plan_id":"cebpf4jnsgd1na2vs0mg"},{"bike_id":"1d9e981b-7ae7-4615-8ff7-d200129f4611","system_id":"levelo_inurba_marseille","lat":43.296935,"lon":5.376544,"is_reserved":false,"is_disabled":false,"rental_uris":{"android":"levelo://app?vid=1d9e981b-7ae7-4615-8ff7-d200129f4611","ios":"levelo://app?vid=1d9e981b-7ae7-4615-8ff7-d200129f4611"},"vehicle_type_id":"4","last_reported":1717020444,"current_range_meters":0,"station_id":"ce4bgkh2rcd13ifvqbl0","pricing_plan_id":"cebpf4jnsgd1na2vs0mg"},{"bike_id":"7ab3eefb-dc1a-44eb-8d9e-5b2d45186f18","system_id":"levelo_inurba_marseille","lat":43.298681,"lon":5.397225,"is_reserved":false,"is_disabled":false,"rental_uris":{"android":"levelo://app?vid=7ab3eefb-dc1a-44eb-8d9e-5b2d45186f18","ios":"levelo://app?vid=7ab3eefb-dc1a-44eb-8d9e-5b2d45186f18"},"vehicle_type_id":"4","last_reported":1717020444,"current_range_meters":12400,"station_id":"ce4bh0h2rcd13ifvqd50","pricing_plan_id":"cebpf4jnsgd1na2vs0mg"},{"bike_id":"5e31b305-f7e3-4cc4-a358-caa6799546f5","system_id":"levelo_inurba_marseille","lat":43.309589,"lon":5.390258,"is_reserved":false,"is_disabled":false,"rental_uris":{"android":"levelo://app?vid=5e31b305-f7e3-4cc4-a358-caa6799546f5","ios":"levelo://app?vid=5e31b305-f7e3-4cc4-a358-caa6799546f5"},"vehicle_type_id":"4","last_reported":1717020444,"current_range_meters":16000,"station_id":"ce4bgup2rcd13ifvqco0","pricing_plan_id":"cebpf4jnsgd1na2vs0mg"},{"bike_id":"c4b693d6-9e7b-422a-ad71-8470df2e92df","system_id":"levelo_inurba_marseille","lat":43.31744,"lon":5.39003,"is_reserved":false,"is_disabled":false,"rental_uris":{"android":"levelo://app?vid=c4b693d6-9e7b-422a-ad71-8470df2e92df","ios":"levelo://app?vid=c4b693d6-9e7b-422a-ad71-8470df2e92df"},"vehicle_type_id":"4","last_reported":1717020444,"current_range_meters":7200,"station_id":"ce4bhqp2rcd13ifvqhng","pricing_plan_id":"cebpf4jnsgd1na2vs0mg"},{"bike_id":"e1e2441e-90c4-4b3f-bf13-06f005241384","system_id":"levelo_inurba_marseille","lat":43.309589,"lon":5.390258,"is_reserved":false,"is_disabled":false,"rental_uris":{"android":"levelo://app?vid=e1e2441e-90c4-4b3f-bf13-06f005241384","ios":"levelo://app?vid=e1e2441e-90c4-4b3f-bf13-06f005241384"},"vehicle_type_id":"4","last_reported":1717020444,"current_range_meters":16000,"station_id":"ce4bgup2rcd13ifvqco0","pricing_plan_id":"cebpf4jnsgd1na2vs0mg"},{"bike_id":"229f2084-153c-41d0-91fd-c75ee6f45cc8","system_id":"levelo_inurba_marseille","lat":43.309589,"lon":5.390258,"is_reserved":false,"is_disabled":false,"rental_uris":{"android":"levelo://app?vid=229f2084-153c-41d0-91fd-c75ee6f45cc8","ios":"levelo://app?vid=229f2084-153c-41d0-91fd-c75ee6f45cc8"},"vehicle_type_id":"4","last_reported":1717020444,"current_range_meters":12400,"station_id":"ce4bgup2rcd13ifvqco0","pricing_plan_id":"cebpf4jnsgd1na2vs0mg"},{"bike_id":"daf76555-6de1-455c-b30a-7fe1c1af5c7d","system_id":"levelo_inurba_marseille","lat":43.317637,"lon":5.390098,"is_reserved":false,"is_disabled":false,"rental_uris":{"android":"levelo://app?vid=daf76555-6de1-455c-b30a-7fe1c1af5c7d","ios":"levelo://app?vid=daf76555-6de1-455c-b30a-7fe1c1af5c7d"},"vehicle_type_id":"4","last_reported":1717020444,"current_range_meters":30400,"station_id":"ce4bhqp2rcd13ifvqhng","pricing_plan_id":"cebpf4jnsgd1na2vs0mg"},{"bike_id":"d82694f6-c0b9-41a8-a052-68d90fbb151a","system_id":"levelo_inurba_marseille","lat":43.317557,"lon":5.390173,"is_reserved":false,"is_disabled":false,"rental_uris":{"android":"levelo://app?vid=d82694f6-c0b9-41a8-a052-68d90fbb151a","ios":"levelo://app?vid=d82694f6-c0b9-41a8-a052-68d90fbb151a"},"vehicle_type_id":"4","last_reported":1717020444,"current_range_meters":28000,"station_id":"ce4bhqp2rcd13ifvqhng","pricing_plan_id":"cebpf4jnsgd1na2vs0mg"},{"bike_id":"190d5275-cce2-4901-b5ea-51e61f91e5b1","system_id":"levelo_inurba_marseille","lat":43.304274,"lon":5.388873,"is_reserved":false,"is_disabled":false,"rental_uris":{"android":"levelo://app?vid=190d5275-cce2-4901-b5ea-51e61f91e5b1","ios":"levelo://app?vid=190d5275-cce2-4901-b5ea-51e61f91e5b1"},"vehicle_type_id":"4","last_reported":1717020444,"current_range_meters":26400,"station_id":"ce4bgk12rcd13ifvqbi0","pricing_plan_id":"cebpf4jnsgd1na2vs0mg"},{"bike_id":"e4440660-eca8-4383-bfac-5025c95689a7","system_id":"levelo_inurba_marseille","lat":43.304274,"lon":5.388873,"is_reserved":false,"is_disabled":false,"rental_uris":{"android":"levelo://app?vid=e4440660-eca8-4383-bfac-5025c95689a7","ios":"levelo://app?vid=e4440660-eca8-4383-bfac-5025c95689a7"},"vehicle_type_id":"4","last_reported":1717020444,"current_range_meters":1600,"station_id":"ce4bgk12rcd13ifvqbi0","pricing_plan_id":"cebpf4jnsgd1na2vs0mg"},{"bike_id":"3c8f8818-d791-4e40-8f6d-2d87e82f63f2","system_id":"levelo_inurba_marseille","lat":43.297931,"lon":5.381109,"is_reserved":false,"is_disabled":false,"rental_uris":{"android":"levelo://app?vid=3c8f8818-d791-4e40-8f6d-2d87e82f63f2","ios":"levelo://app?vid=3c8f8818-d791-4e40-8f6d-2d87e82f63f2"},"vehicle_type_id":"4","last_reported":1717020444,"current_range_meters":26000,"station_id":"ce4bgj12rcd13ifvqbc0","pricing_plan_id":"cebpf4jnsgd1na2vs0mg"},{"bike_id":"ec025d4d-a73d-434f-99e7-0cc1f6812fa0","system_id":"levelo_inurba_marseille","lat":43.304278,"lon":5.388868,"is_reserved":false,"is_disabled":false,"rental_uris":{"android":"levelo://app?vid=ec025d4d-a73d-434f-99e7-0cc1f6812fa0","ios":"levelo://app?vid=ec025d4d-a73d-434f-99e7-0cc1f6812fa0"},"vehicle_type_id":"4","last_reported":1717020444,"current_range_meters":12000,"station_id":"ce4bgk12rcd13ifvqbi0","pricing_plan_id":"cebpf4jnsgd1na2vs0mg"},{"bike_id":"8aa173db-8bf4-4c37-b5cd-72c4b4e4b72c","system_id":"levelo_inurba_marseille","lat":43.29989,"lon":5.38472,"is_reserved":false,"is_disabled":false,"rental_uris":{"android":"levelo://app?vid=8aa173db-8bf4-4c37-b5cd-72c4b4e4b72c","ios":"levelo://app?vid=8aa173db-8bf4-4c37-b5cd-72c4b4e4b72c"},"vehicle_type_id":"4","last_reported":1717020444,"current_range_meters":13200,"station_id":"ce4bgj92rcd13ifvqbd0","pricing_plan_id":"cebpf4jnsgd1na2vs0mg"},{"bike_id":"4382fed6-2d11-4883-983d-23cbd7dd2b62","system_id":"levelo_inurba_marseille","lat":43.299784,"lon":5.384864,"is_reserved":false,"is_disabled":false,"rental_uris":{"android":"levelo://app?vid=4382fed6-2d11-4883-983d-23cbd7dd2b62","ios":"levelo://app?vid=4382fed6-2d11-4883-983d-23cbd7dd2b62"},"vehicle_type_id":"4","last_reported":1717020444,"current_range_meters":0,"station_id":"","pricing_plan_id":"cebpf4jnsgd1na2vs0mg"},{"bike_id":"4ba0b001-7145-4f4d-adfa-e5dc0ca7a291","system_id":"levelo_inurba_marseille","lat":43.299655,"lon":5.38482,"is_reserved":false,"is_disabled":false,"rental_uris":{"android":"levelo://app?vid=4ba0b001-7145-4f4d-adfa-e5dc0ca7a291","ios":"levelo://app?vid=4ba0b001-7145-4f4d-adfa-e5dc0ca7a291"},"vehicle_type_id":"4","last_reported":1717020444,"current_range_meters":25200,"station_id":"ce4bgj92rcd13ifvqbd0","pricing_plan_id":"cebpf4jnsgd1na2vs0mg"},{"bike_id":"f6c9d7e8-a59a-4870-bed7-e93c5af706c9","system_id":"levelo_inurba_marseille","lat":43.29965,"lon":5.38485,"is_reserved":false,"is_disabled":false,"rental_uris":{"android":"levelo://app?vid=f6c9d7e8-a59a-4870-bed7-e93c5af706c9","ios":"levelo://app?vid=f6c9d7e8-a59a-4870-bed7-e93c5af706c9"},"vehicle_type_id":"4","last_reported":1717020444,"current_range_meters":0,"station_id":"ce4bgj92rcd13ifvqbd0","pricing_plan_id":"cebpf4jnsgd1na2vs0mg"},{"bike_id":"d20ffd7b-0ebe-41f5-b04a-a606f5cd56aa","system_id":"levelo_inurba_marseille","lat":43.299824,"lon":5.385096,"is_reserved":false,"is_disabled":false,"rental_uris":{"android":"levelo://app?vid=d20ffd7b-0ebe-41f5-b04a-a606f5cd56aa","ios":"levelo://app?vid=d20ffd7b-0ebe-41f5-b04a-a606f5cd56aa"},"vehicle_type_id":"4","last_reported":1717020444,"current_range_meters":800,"station_id":"ce4bgj92rcd13ifvqbd0","pricing_plan_id":"cebpf4jnsgd1na2vs0mg"},{"bike_id":"270bd8e6-ba0c-40f6-9e40-8929a13d6da9","system_id":"levelo_inurba_marseille","lat":43.299707,"lon":5.384859,"is_reserved":false,"is_disabled":false,"rental_uris":{"android":"levelo://app?vid=270bd8e6-ba0c-40f6-9e40-8929a13d6da9","ios":"levelo://app?vid=270bd8e6-ba0c-40f6-9e40-8929a13d6da9"},"vehicle_type_id":"4","last_reported":1717020444,"current_range_meters":10400,"station_id":"ce4bgj92rcd13ifvqbd0","pricing_plan_id":"cebpf4jnsgd1na2vs0mg"},{"bike_id":"040e1044-240a-4d55-9298-c9642ab7529c","system_id":"levelo_inurba_marseille","lat":43.29963,"lon":5.38504,"is_reserved":false,"is_disabled":false,"rental_uris":{"android":"levelo://app?vid=040e1044-240a-4d55-9298-c9642ab7529c","ios":"levelo://app?vid=040e1044-240a-4d55-9298-c9642ab7529c"},"vehicle_type_id":"4","last_reported":1717020444,"current_range_meters":31200,"station_id":"ce4bgj92rcd13ifvqbd0","pricing_plan_id":"cebpf4jnsgd1na2vs0mg"},{"bike_id":"7225989c-b346-46ba-9dab-25c8e92980ee","system_id":"levelo_inurba_marseille","lat":43.299724,"lon":5.384848,"is_reserved":false,"is_disabled":false,"rental_uris":{"android":"levelo://app?vid=7225989c-b346-46ba-9dab-25c8e92980ee","ios":"levelo://app?vid=7225989c-b346-46ba-9dab-25c8e92980ee"},"vehicle_type_id":"4","last_reported":1717020444,"current_range_meters":26800,"station_id":"ce4bgj92rcd13ifvqbd0","pricing_plan_id":"cebpf4jnsgd1na2vs0mg"},{"bike_id":"934939fc-a99c-4d66-aa17-6f916c426a15","system_id":"levelo_inurba_marseille","lat":43.304274,"lon":5.388873,"is_reserved":false,"is_disabled":false,"rental_uris":{"android":"levelo://app?vid=934939fc-a99c-4d66-aa17-6f916c426a15","ios":"levelo://app?vid=934939fc-a99c-4d66-aa17-6f916c426a15"},"vehicle_type_id":"4","last_reported":1717020444,"current_range_meters":28000,"station_id":"ce4bgk12rcd13ifvqbi0","pricing_plan_id":"cebpf4jnsgd1na2vs0mg"},{"bike_id":"82c8b51d-1d7f-43cf-a521-4a3712f5ce5c","system_id":"levelo_inurba_marseille","lat":43.3237,"lon":5.38868,"is_reserved":false,"is_disabled":false,"rental_uris":{"android":"levelo://app?vid=82c8b51d-1d7f-43cf-a521-4a3712f5ce5c","ios":"levelo://app?vid=82c8b51d-1d7f-43cf-a521-4a3712f5ce5c"},"vehicle_type_id":"4","last_reported":1717020444,"current_range_meters":1200,"station_id":"ce4bhqp2rcd13ifvqhog","pricing_plan_id":"cebpf4jnsgd1na2vs0mg"},{"bike_id":"3747a052-9133-4cd2-8254-5adabf7c36bd","system_id":"levelo_inurba_marseille","lat":43.32357,"lon":5.38883,"is_reserved":false,"is_disabled":false,"rental_uris":{"android":"levelo://app?vid=3747a052-9133-4cd2-8254-5adabf7c36bd","ios":"levelo://app?vid=3747a052-9133-4cd2-8254-5adabf7c36bd"},"vehicle_type_id":"4","last_reported":1717020444,"current_range_meters":6400,"station_id":"ce4bhqp2rcd13ifvqhog","pricing_plan_id":"cebpf4jnsgd1na2vs0mg"},{"bike_id":"77dcccd3-2c19-4897-a906-fc1bd4e3a517","system_id":"levelo_inurba_marseille","lat":43.32365,"lon":5.38877,"is_reserved":false,"is_disabled":false,"rental_uris":{"android":"levelo://app?vid=77dcccd3-2c19-4897-a906-fc1bd4e3a517","ios":"levelo://app?vid=77dcccd3-2c19-4897-a906-fc1bd4e3a517"},"vehicle_type_id":"4","last_reported":1717020444,"current_range_meters":31600,"station_id":"ce4bhqp2rcd13ifvqhog","pricing_plan_id":"cebpf4jnsgd1na2vs0mg"},{"bike_id":"24e271a7-906f-464c-86ce-19f33b0766ec","system_id":"levelo_inurba_marseille","lat":43.32362,"lon":5.38882,"is_reserved":false,"is_disabled":false,"rental_uris":{"android":"levelo://app?vid=24e271a7-906f-464c-86ce-19f33b0766ec","ios":"levelo://app?vid=24e271a7-906f-464c-86ce-19f33b0766ec"},"vehicle_type_id":"4","last_reported":1717020444,"current_range_meters":26000,"station_id":"ce4bhqp2rcd13ifvqhog","pricing_plan_id":"cebpf4jnsgd1na2vs0mg"},{"bike_id":"c6be02cf-6a2e-4fad-8a97-127c3478ee0d","system_id":"levelo_inurba_marseille","lat":43.32367,"lon":5.388836,"is_reserved":false,"is_disabled":false,"rental_uris":{"android":"levelo://app?vid=c6be02cf-6a2e-4fad-8a97-127c3478ee0d","ios":"levelo://app?vid=c6be02cf-6a2e-4fad-8a97-127c3478ee0d"},"vehicle_type_id":"4","last_reported":1717020444,"current_range_meters":23600,"station_id":"ce4bhqp2rcd13ifvqhog","pricing_plan_id":"cebpf4jnsgd1na2vs0mg"},{"bike_id":"12557b8b-0863-4580-a96b-9f3812b8e817","system_id":"levelo_inurba_marseille","lat":43.32369,"lon":5.38879,"is_reserved":false,"is_disabled":false,"rental_uris":{"android":"levelo://app?vid=12557b8b-0863-4580-a96b-9f3812b8e817","ios":"levelo://app?vid=12557b8b-0863-4580-a96b-9f3812b8e817"},"vehicle_type_id":"4","last_reported":1717020444,"current_range_meters":4400,"station_id":"ce4bhqp2rcd13ifvqhog","pricing_plan_id":"cebpf4jnsgd1na2vs0mg"},{"bike_id":"06c1e7a6-a542-473f-b426-b8f62b614fbf","system_id":"levelo_inurba_marseille","lat":43.32366,"lon":5.388832,"is_reserved":false,"is_disabled":false,"rental_uris":{"android":"levelo://app?vid=06c1e7a6-a542-473f-b426-b8f62b614fbf","ios":"levelo://app?vid=06c1e7a6-a542-473f-b426-b8f62b614fbf"},"vehicle_type_id":"4","last_reported":1717020444,"current_range_meters":15600,"station_id":"ce4bhqp2rcd13ifvqhog","pricing_plan_id":"cebpf4jnsgd1na2vs0mg"},{"bike_id":"84646260-ea34-40da-abaa-6e498ed183fe","system_id":"levelo_inurba_marseille","lat":43.323743,"lon":5.38876,"is_reserved":false,"is_disabled":false,"rental_uris":{"android":"levelo://app?vid=84646260-ea34-40da-abaa-6e498ed183fe","ios":"levelo://app?vid=84646260-ea34-40da-abaa-6e498ed183fe"},"vehicle_type_id":"4","last_reported":1717020444,"current_range_meters":30400,"station_id":"ce4bhqp2rcd13ifvqhog","pricing_plan_id":"cebpf4jnsgd1na2vs0mg"},{"bike_id":"0bf610ed-8eff-45ed-82a9-8f43ad5d3f2f","system_id":"levelo_inurba_marseille","lat":43.32369,"lon":5.38881,"is_reserved":false,"is_disabled":false,"rental_uris":{"android":"levelo://app?vid=0bf610ed-8eff-45ed-82a9-8f43ad5d3f2f","ios":"levelo://app?vid=0bf610ed-8eff-45ed-82a9-8f43ad5d3f2f"},"vehicle_type_id":"4","last_reported":1717020444,"current_range_meters":23600,"station_id":"ce4bhqp2rcd13ifvqhog","pricing_plan_id":"cebpf4jnsgd1na2vs0mg"},{"bike_id":"902dc84a-a82e-47eb-ad4e-479034353425","system_id":"levelo_inurba_marseille","lat":43.32366,"lon":5.38887,"is_reserved":false,"is_disabled":false,"rental_uris":{"android":"levelo://app?vid=902dc84a-a82e-47eb-ad4e-479034353425","ios":"levelo://app?vid=902dc84a-a82e-47eb-ad4e-479034353425"},"vehicle_type_id":"4","last_reported":1717020444,"current_range_meters":400,"station_id":"ce4bhqp2rcd13ifvqhog","pricing_plan_id":"cebpf4jnsgd1na2vs0mg"},{"bike_id":"45ffb2ae-6db7-4df9-9dd1-07672846cf07","system_id":"levelo_inurba_marseille","lat":43.32365,"lon":5.38889,"is_reserved":false,"is_disabled":false,"rental_uris":{"android":"levelo://app?vid=45ffb2ae-6db7-4df9-9dd1-07672846cf07","ios":"levelo://app?vid=45ffb2ae-6db7-4df9-9dd1-07672846cf07"},"vehicle_type_id":"4","last_reported":1717020444,"current_range_meters":2400,"station_id":"ce4bhqp2rcd13ifvqhog","pricing_plan_id":"cebpf4jnsgd1na2vs0mg"},{"bike_id":"1f4a6c3e-6dda-4497-81bd-a1356035ad5e","system_id":"levelo_inurba_marseille","lat":43.3237,"lon":5.38887,"is_reserved":false,"is_disabled":false,"rental_uris":{"android":"levelo://app?vid=1f4a6c3e-6dda-4497-81bd-a1356035ad5e","ios":"levelo://app?vid=1f4a6c3e-6dda-4497-81bd-a1356035ad5e"},"vehicle_type_id":"4","last_reported":1717020444,"current_range_meters":22400,"station_id":"ce4bhqp2rcd13ifvqhog","pricing_plan_id":"cebpf4jnsgd1na2vs0mg"},{"bike_id":"a346b682-9081-4959-bafb-240698f9021b","system_id":"levelo_inurba_marseille","lat":43.308012,"lon":5.381511,"is_reserved":false,"is_disabled":false,"rental_uris":{"android":"levelo://app?vid=a346b682-9081-4959-bafb-240698f9021b","ios":"levelo://app?vid=a346b682-9081-4959-bafb-240698f9021b"},"vehicle_type_id":"4","last_reported":1717020444,"current_range_meters":0,"station_id":"ce4bgt12rcd13ifvqce0","pricing_plan_id":"cebpf4jnsgd1na2vs0mg"},{"bike_id":"de811cc5-4edd-4344-9756-9814339f1a8b","system_id":"levelo_inurba_marseille","lat":43.293249,"lon":5.371578,"is_reserved":false,"is_disabled":false,"rental_uris":{"android":"levelo://app?vid=de811cc5-4edd-4344-9756-9814339f1a8b","ios":"levelo://app?vid=de811cc5-4edd-4344-9756-9814339f1a8b"},"vehicle_type_id":"4","last_reported":1717020444,"current_range_meters":0,"station_id":"ce4bgh92rcd13ifvqb40","pricing_plan_id":"cebpf4jnsgd1na2vs0mg"},{"bike_id":"39f1bb07-6f90-41ba-8bc6-853e0ed891f2","system_id":"levelo_inurba_marseille","lat":43.293249,"lon":5.371578,"is_reserved":false,"is_disabled":false,"rental_uris":{"android":"levelo://app?vid=39f1bb07-6f90-41ba-8bc6-853e0ed891f2","ios":"levelo://app?vid=39f1bb07-6f90-41ba-8bc6-853e0ed891f2"},"vehicle_type_id":"4","last_reported":1717020444,"current_range_meters":0,"station_id":"ce4bgh92rcd13ifvqb40","pricing_plan_id":"cebpf4jnsgd1na2vs0mg"},{"bike_id":"63a8fb9c-e58f-447f-ae18-af6ef6a1e8ce","system_id":"levelo_inurba_marseille","lat":43.292716,"lon":5.36846,"is_reserved":false,"is_disabled":false,"rental_uris":{"android":"levelo://app?vid=63a8fb9c-e58f-447f-ae18-af6ef6a1e8ce","ios":"levelo://app?vid=63a8fb9c-e58f-447f-ae18-af6ef6a1e8ce"},"vehicle_type_id":"4","last_reported":1717020444,"current_range_meters":0,"station_id":"ce4bhbp2rcd13ifvqesg","pricing_plan_id":"cebpf4jnsgd1na2vs0mg"},{"bike_id":"237e3b5f-9e03-479f-93f1-772210d6cdbd","system_id":"levelo_inurba_marseille","lat":43.305994,"lon":5.393687,"is_reserved":false,"is_disabled":false,"rental_uris":{"android":"levelo://app?vid=237e3b5f-9e03-479f-93f1-772210d6cdbd","ios":"levelo://app?vid=237e3b5f-9e03-479f-93f1-772210d6cdbd"},"vehicle_type_id":"4","last_reported":1717020444,"current_range_meters":8800,"station_id":"ce4bh0p2rcd13ifvqd80","pricing_plan_id":"cebpf4jnsgd1na2vs0mg"},{"bike_id":"98df6e03-395b-4ce1-84e9-a9e8b8d543d6","system_id":"levelo_inurba_marseille","lat":43.305994,"lon":5.393687,"is_reserved":false,"is_disabled":false,"rental_uris":{"android":"levelo://app?vid=98df6e03-395b-4ce1-84e9-a9e8b8d543d6","ios":"levelo://app?vid=98df6e03-395b-4ce1-84e9-a9e8b8d543d6"},"vehicle_type_id":"4","last_reported":1717020444,"current_range_meters":14400,"station_id":"ce4bh0p2rcd13ifvqd80","pricing_plan_id":"cebpf4jnsgd1na2vs0mg"},{"bike_id":"dcfe85bd-d9c4-4956-978d-5a49a7376922","system_id":"levelo_inurba_marseille","lat":43.305994,"lon":5.393687,"is_reserved":false,"is_disabled":false,"rental_uris":{"android":"levelo://app?vid=dcfe85bd-d9c4-4956-978d-5a49a7376922","ios":"levelo://app?vid=dcfe85bd-d9c4-4956-978d-5a49a7376922"},"vehicle_type_id":"4","last_reported":1717020444,"current_range_meters":22400,"station_id":"ce4bh0p2rcd13ifvqd80","pricing_plan_id":"cebpf4jnsgd1na2vs0mg"},{"bike_id":"e2d20694-163d-4dd6-ad89-169b645c7ccc","system_id":"levelo_inurba_marseille","lat":43.305994,"lon":5.393687,"is_reserved":false,"is_disabled":false,"rental_uris":{"android":"levelo://app?vid=e2d20694-163d-4dd6-ad89-169b645c7ccc","ios":"levelo://app?vid=e2d20694-163d-4dd6-ad89-169b645c7ccc"},"vehicle_type_id":"4","last_reported":1717020444,"current_range_meters":20400,"station_id":"ce4bh0p2rcd13ifvqd80","pricing_plan_id":"cebpf4jnsgd1na2vs0mg"},{"bike_id":"da97f0d3-1ed5-48c9-9e84-6a594cf68ba9","system_id":"levelo_inurba_marseille","lat":43.299243,"lon":5.374807,"is_reserved":false,"is_disabled":false,"rental_uris":{"android":"levelo://app?vid=da97f0d3-1ed5-48c9-9e84-6a594cf68ba9","ios":"levelo://app?vid=da97f0d3-1ed5-48c9-9e84-6a594cf68ba9"},"vehicle_type_id":"4","last_reported":1717020444,"current_range_meters":25200,"station_id":"ce4bgjh2rcd13ifvqbg0","pricing_plan_id":"cebpf4jnsgd1na2vs0mg"},{"bike_id":"bbeb4bf8-64e7-473c-bccf-911722e890dd","system_id":"levelo_inurba_marseille","lat":43.30085,"lon":5.390856,"is_reserved":false,"is_disabled":false,"rental_uris":{"android":"levelo://app?vid=bbeb4bf8-64e7-473c-bccf-911722e890dd","ios":"levelo://app?vid=bbeb4bf8-64e7-473c-bccf-911722e890dd"},"vehicle_type_id":"4","last_reported":1717020444,"current_range_meters":5600,"station_id":"ce4bh192rcd13ifvqdb0","pricing_plan_id":"cebpf4jnsgd1na2vs0mg"},{"bike_id":"2b3ce82b-fe61-4e4d-a2da-b50a6c5676eb","system_id":"levelo_inurba_marseille","lat":43.302992,"lon":5.392136,"is_reserved":false,"is_disabled":false,"rental_uris":{"android":"levelo://app?vid=2b3ce82b-fe61-4e4d-a2da-b50a6c5676eb","ios":"levelo://app?vid=2b3ce82b-fe61-4e4d-a2da-b50a6c5676eb"},"vehicle_type_id":"4","last_reported":1717020444,"current_range_meters":9600,"station_id":"ce4bgkh2rcd13ifvqbk0","pricing_plan_id":"cebpf4jnsgd1na2vs0mg"},{"bike_id":"c279b3e8-2c22-4ef6-ba49-d689c3412f18","system_id":"levelo_inurba_marseille","lat":43.30085,"lon":5.390856,"is_reserved":false,"is_disabled":false,"rental_uris":{"android":"levelo://app?vid=c279b3e8-2c22-4ef6-ba49-d689c3412f18","ios":"levelo://app?vid=c279b3e8-2c22-4ef6-ba49-d689c3412f18"},"vehicle_type_id":"4","last_reported":1717020444,"current_range_meters":7200,"station_id":"ce4bh192rcd13ifvqdb0","pricing_plan_id":"cebpf4jnsgd1na2vs0mg"},{"bike_id":"b92c51a2-e594-4353-9da3-200a3151aa2a","system_id":"levelo_inurba_marseille","lat":43.30085,"lon":5.390856,"is_reserved":false,"is_disabled":false,"rental_uris":{"android":"levelo://app?vid=b92c51a2-e594-4353-9da3-200a3151aa2a","ios":"levelo://app?vid=b92c51a2-e594-4353-9da3-200a3151aa2a"},"vehicle_type_id":"4","last_reported":1717020444,"current_range_meters":0,"station_id":"ce4bh192rcd13ifvqdb0","pricing_plan_id":"cebpf4jnsgd1na2vs0mg"},{"bike_id":"68c07590-10fc-40dd-a178-257d70108fd6","system_id":"levelo_inurba_marseille","lat":43.29881,"lon":5.38908,"is_reserved":false,"is_disabled":false,"rental_uris":{"android":"levelo://app?vid=68c07590-10fc-40dd-a178-257d70108fd6","ios":"levelo://app?vid=68c07590-10fc-40dd-a178-257d70108fd6"},"vehicle_type_id":"4","last_reported":1717020444,"current_range_meters":3200,"station_id":"ce4bh392rcd13ifvqdl0","pricing_plan_id":"cebpf4jnsgd1na2vs0mg"},{"bike_id":"a3e4f17e-a7a1-4a42-a555-dc36bc02b5e5","system_id":"levelo_inurba_marseille","lat":43.298764,"lon":5.388973,"is_reserved":false,"is_disabled":false,"rental_uris":{"android":"levelo://app?vid=a3e4f17e-a7a1-4a42-a555-dc36bc02b5e5","ios":"levelo://app?vid=a3e4f17e-a7a1-4a42-a555-dc36bc02b5e5"},"vehicle_type_id":"4","last_reported":1717020444,"current_range_meters":27200,"station_id":"ce4bh392rcd13ifvqdl0","pricing_plan_id":"cebpf4jnsgd1na2vs0mg"},{"bike_id":"5709e373-c674-49fc-9603-277e98ba9988","system_id":"levelo_inurba_marseille","lat":43.298764,"lon":5.388973,"is_reserved":false,"is_disabled":false,"rental_uris":{"android":"levelo://app?vid=5709e373-c674-49fc-9603-277e98ba9988","ios":"levelo://app?vid=5709e373-c674-49fc-9603-277e98ba9988"},"vehicle_type_id":"4","last_reported":1717020444,"current_range_meters":29600,"station_id":"ce4bh392rcd13ifvqdl0","pricing_plan_id":"cebpf4jnsgd1na2vs0mg"},{"bike_id":"88ad6e64-9d92-4450-a6a4-2e1e4ae255bd","system_id":"levelo_inurba_marseille","lat":43.298764,"lon":5.388973,"is_reserved":false,"is_disabled":false,"rental_uris":{"android":"levelo://app?vid=88ad6e64-9d92-4450-a6a4-2e1e4ae255bd","ios":"levelo://app?vid=88ad6e64-9d92-4450-a6a4-2e1e4ae255bd"},"vehicle_type_id":"4","last_reported":1717020444,"current_range_meters":22000,"station_id":"ce4bh392rcd13ifvqdl0","pricing_plan_id":"cebpf4jnsgd1na2vs0mg"},{"bike_id":"b4aa5338-7a25-4cda-ba44-d431b19d0541","system_id":"levelo_inurba_marseille","lat":43.303002,"lon":5.392142,"is_reserved":false,"is_disabled":false,"rental_uris":{"android":"levelo://app?vid=b4aa5338-7a25-4cda-ba44-d431b19d0541","ios":"levelo://app?vid=b4aa5338-7a25-4cda-ba44-d431b19d0541"},"vehicle_type_id":"4","last_reported":1717020444,"current_range_meters":23600,"station_id":"ce4bgkh2rcd13ifvqbk0","pricing_plan_id":"cebpf4jnsgd1na2vs0mg"},{"bike_id":"0af1e660-7a06-45ca-88a9-c4fe4f6f7ccc","system_id":"levelo_inurba_marseille","lat":43.292005,"lon":5.357875,"is_reserved":false,"is_disabled":false,"rental_uris":{"android":"levelo://app?vid=0af1e660-7a06-45ca-88a9-c4fe4f6f7ccc","ios":"levelo://app?vid=0af1e660-7a06-45ca-88a9-c4fe4f6f7ccc"},"vehicle_type_id":"4","last_reported":1717020444,"current_range_meters":32000,"station_id":"ce4bhb12rcd13ifvqel0","pricing_plan_id":"cebpf4jnsgd1na2vs0mg"},{"bike_id":"a6e989c6-a531-443e-97c9-a54d781dc980","system_id":"levelo_inurba_marseille","lat":43.309047,"lon":5.396551,"is_reserved":false,"is_disabled":false,"rental_uris":{"android":"levelo://app?vid=a6e989c6-a531-443e-97c9-a54d781dc980","ios":"levelo://app?vid=a6e989c6-a531-443e-97c9-a54d781dc980"},"vehicle_type_id":"4","last_reported":1717020444,"current_range_meters":11200,"station_id":"ce4bh012rcd13ifvqcv0","pricing_plan_id":"cebpf4jnsgd1na2vs0mg"},{"bike_id":"fa5b0c3b-b93d-44b0-9678-122196721830","system_id":"levelo_inurba_marseille","lat":43.309038,"lon":5.396546,"is_reserved":false,"is_disabled":false,"rental_uris":{"android":"levelo://app?vid=fa5b0c3b-b93d-44b0-9678-122196721830","ios":"levelo://app?vid=fa5b0c3b-b93d-44b0-9678-122196721830"},"vehicle_type_id":"4","last_reported":1717020444,"current_range_meters":20000,"station_id":"ce4bh012rcd13ifvqcv0","pricing_plan_id":"cebpf4jnsgd1na2vs0mg"},{"bike_id":"8e37eda8-3ea5-4f72-a8c8-b7f23ae7e9bf","system_id":"levelo_inurba_marseille","lat":43.309038,"lon":5.396546,"is_reserved":false,"is_disabled":false,"rental_uris":{"android":"levelo://app?vid=8e37eda8-3ea5-4f72-a8c8-b7f23ae7e9bf","ios":"levelo://app?vid=8e37eda8-3ea5-4f72-a8c8-b7f23ae7e9bf"},"vehicle_type_id":"4","last_reported":1717020444,"current_range_meters":20800,"station_id":"ce4bh012rcd13ifvqcv0","pricing_plan_id":"cebpf4jnsgd1na2vs0mg"},{"bike_id":"292a2a54-ba26-412c-8a93-9aa75336f5d0","system_id":"levelo_inurba_marseille","lat":43.309038,"lon":5.396546,"is_reserved":false,"is_disabled":false,"rental_uris":{"android":"levelo://app?vid=292a2a54-ba26-412c-8a93-9aa75336f5d0","ios":"levelo://app?vid=292a2a54-ba26-412c-8a93-9aa75336f5d0"},"vehicle_type_id":"4","last_reported":1717020444,"current_range_meters":7600,"station_id":"ce4bh012rcd13ifvqcv0","pricing_plan_id":"cebpf4jnsgd1na2vs0mg"},{"bike_id":"4d736245-4be6-4711-8d59-f1aec05d4525","system_id":"levelo_inurba_marseille","lat":43.304296,"lon":5.397513,"is_reserved":false,"is_disabled":false,"rental_uris":{"android":"levelo://app?vid=4d736245-4be6-4711-8d59-f1aec05d4525","ios":"levelo://app?vid=4d736245-4be6-4711-8d59-f1aec05d4525"},"vehicle_type_id":"4","last_reported":1717020444,"current_range_meters":19200,"station_id":"ce4bh092rcd13ifvqd20","pricing_plan_id":"cebpf4jnsgd1na2vs0mg"},{"bike_id":"df5e2553-bf95-4a64-a63b-278d2a880bf3","system_id":"levelo_inurba_marseille","lat":43.313291,"lon":5.396838,"is_reserved":false,"is_disabled":false,"rental_uris":{"android":"levelo://app?vid=df5e2553-bf95-4a64-a63b-278d2a880bf3","ios":"levelo://app?vid=df5e2553-bf95-4a64-a63b-278d2a880bf3"},"vehicle_type_id":"4","last_reported":1717020444,"current_range_meters":19200,"station_id":"ce4bgvp2rcd13ifvqcu0","pricing_plan_id":"cebpf4jnsgd1na2vs0mg"},{"bike_id":"aeccb42e-d3f7-47f6-a8ca-d8eb04cb63f3","system_id":"levelo_inurba_marseille","lat":43.313291,"lon":5.396838,"is_reserved":false,"is_disabled":false,"rental_uris":{"android":"levelo://app?vid=aeccb42e-d3f7-47f6-a8ca-d8eb04cb63f3","ios":"levelo://app?vid=aeccb42e-d3f7-47f6-a8ca-d8eb04cb63f3"},"vehicle_type_id":"4","last_reported":1717020444,"current_range_meters":24400,"station_id":"ce4bgvp2rcd13ifvqcu0","pricing_plan_id":"cebpf4jnsgd1na2vs0mg"},{"bike_id":"b8112d86-229f-4886-8e7c-beb728ede2a0","system_id":"levelo_inurba_marseille","lat":43.313291,"lon":5.396838,"is_reserved":false,"is_disabled":false,"rental_uris":{"android":"levelo://app?vid=b8112d86-229f-4886-8e7c-beb728ede2a0","ios":"levelo://app?vid=b8112d86-229f-4886-8e7c-beb728ede2a0"},"vehicle_type_id":"4","last_reported":1717020444,"current_range_meters":19200,"station_id":"ce4bgvp2rcd13ifvqcu0","pricing_plan_id":"cebpf4jnsgd1na2vs0mg"},{"bike_id":"8f60c56a-0fcc-4bd6-ace4-a9d809eb0564","system_id":"levelo_inurba_marseille","lat":43.309038,"lon":5.396546,"is_reserved":false,"is_disabled":false,"rental_uris":{"android":"levelo://app?vid=8f60c56a-0fcc-4bd6-ace4-a9d809eb0564","ios":"levelo://app?vid=8f60c56a-0fcc-4bd6-ace4-a9d809eb0564"},"vehicle_type_id":"4","last_reported":1717020444,"current_range_meters":8000,"station_id":"ce4bh012rcd13ifvqcv0","pricing_plan_id":"cebpf4jnsgd1na2vs0mg"},{"bike_id":"2aa0a494-19cb-49f3-8db9-791dc922ae36","system_id":"levelo_inurba_marseille","lat":43.313291,"lon":5.396838,"is_reserved":false,"is_disabled":false,"rental_uris":{"android":"levelo://app?vid=2aa0a494-19cb-49f3-8db9-791dc922ae36","ios":"levelo://app?vid=2aa0a494-19cb-49f3-8db9-791dc922ae36"},"vehicle_type_id":"4","last_reported":1717020444,"current_range_meters":0,"station_id":"ce4bgvp2rcd13ifvqcu0","pricing_plan_id":"cebpf4jnsgd1na2vs0mg"},{"bike_id":"842d0e3c-37bb-44a9-92dd-77202201b965","system_id":"levelo_inurba_marseille","lat":43.313291,"lon":5.396838,"is_reserved":false,"is_disabled":false,"rental_uris":{"android":"levelo://app?vid=842d0e3c-37bb-44a9-92dd-77202201b965","ios":"levelo://app?vid=842d0e3c-37bb-44a9-92dd-77202201b965"},"vehicle_type_id":"4","last_reported":1717020444,"current_range_meters":9200,"station_id":"ce4bgvp2rcd13ifvqcu0","pricing_plan_id":"cebpf4jnsgd1na2vs0mg"},{"bike_id":"75dc90f0-d57b-4cf2-9cc5-dba8c90bf648","system_id":"levelo_inurba_marseille","lat":43.309047,"lon":5.396551,"is_reserved":false,"is_disabled":false,"rental_uris":{"android":"levelo://app?vid=75dc90f0-d57b-4cf2-9cc5-dba8c90bf648","ios":"levelo://app?vid=75dc90f0-d57b-4cf2-9cc5-dba8c90bf648"},"vehicle_type_id":"4","last_reported":1717020444,"current_range_meters":8800,"station_id":"ce4bh012rcd13ifvqcv0","pricing_plan_id":"cebpf4jnsgd1na2vs0mg"},{"bike_id":"56d376d9-33ba-4c1a-8332-91fc84e5758d","system_id":"levelo_inurba_marseille","lat":43.290624,"lon":5.359245,"is_reserved":false,"is_disabled":false,"rental_uris":{"android":"levelo://app?vid=56d376d9-33ba-4c1a-8332-91fc84e5758d","ios":"levelo://app?vid=56d376d9-33ba-4c1a-8332-91fc84e5758d"},"vehicle_type_id":"4","last_reported":1717020444,"current_range_meters":28800,"station_id":"ce4bha92rcd13ifvqeg0","pricing_plan_id":"cebpf4jnsgd1na2vs0mg"},{"bike_id":"8f689631-53f5-4391-a18f-a0c8316a37bb","system_id":"levelo_inurba_marseille","lat":43.3134,"lon":5.39692,"is_reserved":false,"is_disabled":false,"rental_uris":{"android":"levelo://app?vid=8f689631-53f5-4391-a18f-a0c8316a37bb","ios":"levelo://app?vid=8f689631-53f5-4391-a18f-a0c8316a37bb"},"vehicle_type_id":"4","last_reported":1717020444,"current_range_meters":19200,"station_id":"ce4bgvp2rcd13ifvqcu0","pricing_plan_id":"cebpf4jnsgd1na2vs0mg"},{"bike_id":"af998183-851a-412d-bb0d-e16d7d62f197","system_id":"levelo_inurba_marseille","lat":43.313291,"lon":5.396838,"is_reserved":false,"is_disabled":false,"rental_uris":{"android":"levelo://app?vid=af998183-851a-412d-bb0d-e16d7d62f197","ios":"levelo://app?vid=af998183-851a-412d-bb0d-e16d7d62f197"},"vehicle_type_id":"4","last_reported":1717020444,"current_range_meters":25600,"station_id":"ce4bgvp2rcd13ifvqcu0","pricing_plan_id":"cebpf4jnsgd1na2vs0mg"},{"bike_id":"e58f5587-c44b-4168-bf30-d47248ae79c6","system_id":"levelo_inurba_marseille","lat":43.309038,"lon":5.396546,"is_reserved":false,"is_disabled":false,"rental_uris":{"android":"levelo://app?vid=e58f5587-c44b-4168-bf30-d47248ae79c6","ios":"levelo://app?vid=e58f5587-c44b-4168-bf30-d47248ae79c6"},"vehicle_type_id":"4","last_reported":1717020444,"current_range_meters":24800,"station_id":"ce4bh012rcd13ifvqcv0","pricing_plan_id":"cebpf4jnsgd1na2vs0mg"},{"bike_id":"1ce0c080-80b4-4887-86f6-65cffb2170c3","system_id":"levelo_inurba_marseille","lat":43.313291,"lon":5.396838,"is_reserved":false,"is_disabled":false,"rental_uris":{"android":"levelo://app?vid=1ce0c080-80b4-4887-86f6-65cffb2170c3","ios":"levelo://app?vid=1ce0c080-80b4-4887-86f6-65cffb2170c3"},"vehicle_type_id":"4","last_reported":1717020444,"current_range_meters":13600,"station_id":"ce4bgvp2rcd13ifvqcu0","pricing_plan_id":"cebpf4jnsgd1na2vs0mg"},{"bike_id":"943f453f-06ed-4ea9-b190-beac7b8f8e65","system_id":"levelo_inurba_marseille","lat":43.309047,"lon":5.396551,"is_reserved":false,"is_disabled":false,"rental_uris":{"android":"levelo://app?vid=943f453f-06ed-4ea9-b190-beac7b8f8e65","ios":"levelo://app?vid=943f453f-06ed-4ea9-b190-beac7b8f8e65"},"vehicle_type_id":"4","last_reported":1717020444,"current_range_meters":31200,"station_id":"ce4bh012rcd13ifvqcv0","pricing_plan_id":"cebpf4jnsgd1na2vs0mg"},{"bike_id":"7393c329-b746-4132-84c4-13317052ac3e","system_id":"levelo_inurba_marseille","lat":43.309047,"lon":5.396551,"is_reserved":false,"is_disabled":false,"rental_uris":{"android":"levelo://app?vid=7393c329-b746-4132-84c4-13317052ac3e","ios":"levelo://app?vid=7393c329-b746-4132-84c4-13317052ac3e"},"vehicle_type_id":"4","last_reported":1717020444,"current_range_meters":18400,"station_id":"ce4bh012rcd13ifvqcv0","pricing_plan_id":"cebpf4jnsgd1na2vs0mg"},{"bike_id":"dcf4a83d-d3fe-4172-8570-9915796b1be4","system_id":"levelo_inurba_marseille","lat":43.313291,"lon":5.396838,"is_reserved":false,"is_disabled":false,"rental_uris":{"android":"levelo://app?vid=dcf4a83d-d3fe-4172-8570-9915796b1be4","ios":"levelo://app?vid=dcf4a83d-d3fe-4172-8570-9915796b1be4"},"vehicle_type_id":"4","last_reported":1717020444,"current_range_meters":6800,"station_id":"ce4bgvp2rcd13ifvqcu0","pricing_plan_id":"cebpf4jnsgd1na2vs0mg"},{"bike_id":"ea4faab6-0848-4b07-af19-1606cb447c2c","system_id":"levelo_inurba_marseille","lat":43.31333,"lon":5.39695,"is_reserved":false,"is_disabled":false,"rental_uris":{"android":"levelo://app?vid=ea4faab6-0848-4b07-af19-1606cb447c2c","ios":"levelo://app?vid=ea4faab6-0848-4b07-af19-1606cb447c2c"},"vehicle_type_id":"4","last_reported":1717020444,"current_range_meters":31200,"station_id":"ce4bgvp2rcd13ifvqcu0","pricing_plan_id":"cebpf4jnsgd1na2vs0mg"},{"bike_id":"aa2e3370-3a19-4f26-b45b-9559a3e4ca0a","system_id":"levelo_inurba_marseille","lat":43.313291,"lon":5.396838,"is_reserved":false,"is_disabled":false,"rental_uris":{"android":"levelo://app?vid=aa2e3370-3a19-4f26-b45b-9559a3e4ca0a","ios":"levelo://app?vid=aa2e3370-3a19-4f26-b45b-9559a3e4ca0a"},"vehicle_type_id":"4","last_reported":1717020444,"current_range_meters":31200,"station_id":"ce4bgvp2rcd13ifvqcu0","pricing_plan_id":"cebpf4jnsgd1na2vs0mg"},{"bike_id":"1a6e25df-f183-468f-9680-235f1979f457","system_id":"levelo_inurba_marseille","lat":43.309038,"lon":5.396546,"is_reserved":false,"is_disabled":false,"rental_uris":{"android":"levelo://app?vid=1a6e25df-f183-468f-9680-235f1979f457","ios":"levelo://app?vid=1a6e25df-f183-468f-9680-235f1979f457"},"vehicle_type_id":"4","last_reported":1717020444,"current_range_meters":25600,"station_id":"ce4bh012rcd13ifvqcv0","pricing_plan_id":"cebpf4jnsgd1na2vs0mg"},{"bike_id":"2adb2790-f81c-4eda-a118-96afb149e06e","system_id":"levelo_inurba_marseille","lat":43.309038,"lon":5.396546,"is_reserved":false,"is_disabled":false,"rental_uris":{"android":"levelo://app?vid=2adb2790-f81c-4eda-a118-96afb149e06e","ios":"levelo://app?vid=2adb2790-f81c-4eda-a118-96afb149e06e"},"vehicle_type_id":"4","last_reported":1717020444,"current_range_meters":11600,"station_id":"ce4bh012rcd13ifvqcv0","pricing_plan_id":"cebpf4jnsgd1na2vs0mg"},{"bike_id":"fe7e9425-4062-4208-b26d-d0918fdd6227","system_id":"levelo_inurba_marseille","lat":43.3134,"lon":5.39696,"is_reserved":false,"is_disabled":false,"rental_uris":{"android":"levelo://app?vid=fe7e9425-4062-4208-b26d-d0918fdd6227","ios":"levelo://app?vid=fe7e9425-4062-4208-b26d-d0918fdd6227"},"vehicle_type_id":"4","last_reported":1717020444,"current_range_meters":31200,"station_id":"ce4bgvp2rcd13ifvqcu0","pricing_plan_id":"cebpf4jnsgd1na2vs0mg"},{"bike_id":"a7abff21-e4f6-42e5-ad5a-6cc0ee5a1bf5","system_id":"levelo_inurba_marseille","lat":43.309038,"lon":5.396546,"is_reserved":false,"is_disabled":false,"rental_uris":{"android":"levelo://app?vid=a7abff21-e4f6-42e5-ad5a-6cc0ee5a1bf5","ios":"levelo://app?vid=a7abff21-e4f6-42e5-ad5a-6cc0ee5a1bf5"},"vehicle_type_id":"4","last_reported":1717020444,"current_range_meters":14400,"station_id":"ce4bh012rcd13ifvqcv0","pricing_plan_id":"cebpf4jnsgd1na2vs0mg"},{"bike_id":"13b5b6fa-158e-47ea-a39f-85dbd361048f","system_id":"levelo_inurba_marseille","lat":43.3133,"lon":5.39697,"is_reserved":false,"is_disabled":false,"rental_uris":{"android":"levelo://app?vid=13b5b6fa-158e-47ea-a39f-85dbd361048f","ios":"levelo://app?vid=13b5b6fa-158e-47ea-a39f-85dbd361048f"},"vehicle_type_id":"4","last_reported":1717020444,"current_range_meters":8800,"station_id":"ce4bgvp2rcd13ifvqcu0","pricing_plan_id":"cebpf4jnsgd1na2vs0mg"},{"bike_id":"4d3c82a3-c6c6-4d5c-a61a-301f82f9bcdc","system_id":"levelo_inurba_marseille","lat":43.313291,"lon":5.396838,"is_reserved":false,"is_disabled":false,"rental_uris":{"android":"levelo://app?vid=4d3c82a3-c6c6-4d5c-a61a-301f82f9bcdc","ios":"levelo://app?vid=4d3c82a3-c6c6-4d5c-a61a-301f82f9bcdc"},"vehicle_type_id":"4","last_reported":1717020444,"current_range_meters":28800,"station_id":"ce4bgvp2rcd13ifvqcu0","pricing_plan_id":"cebpf4jnsgd1na2vs0mg"},{"bike_id":"e2bae29a-46cf-4f3e-a616-1abc2550e6dd","system_id":"levelo_inurba_marseille","lat":43.309038,"lon":5.396546,"is_reserved":false,"is_disabled":false,"rental_uris":{"android":"levelo://app?vid=e2bae29a-46cf-4f3e-a616-1abc2550e6dd","ios":"levelo://app?vid=e2bae29a-46cf-4f3e-a616-1abc2550e6dd"},"vehicle_type_id":"4","last_reported":1717020444,"current_range_meters":0,"station_id":"ce4bh012rcd13ifvqcv0","pricing_plan_id":"cebpf4jnsgd1na2vs0mg"},{"bike_id":"143b0f0f-955f-4d22-accf-f00b91415301","system_id":"levelo_inurba_marseille","lat":43.313291,"lon":5.396838,"is_reserved":false,"is_disabled":false,"rental_uris":{"android":"levelo://app?vid=143b0f0f-955f-4d22-accf-f00b91415301","ios":"levelo://app?vid=143b0f0f-955f-4d22-accf-f00b91415301"},"vehicle_type_id":"4","last_reported":1717020444,"current_range_meters":30000,"station_id":"ce4bgvp2rcd13ifvqcu0","pricing_plan_id":"cebpf4jnsgd1na2vs0mg"},{"bike_id":"5725d1c5-1c01-46c8-b049-4d1fda1682b0","system_id":"levelo_inurba_marseille","lat":43.309047,"lon":5.396551,"is_reserved":false,"is_disabled":false,"rental_uris":{"android":"levelo://app?vid=5725d1c5-1c01-46c8-b049-4d1fda1682b0","ios":"levelo://app?vid=5725d1c5-1c01-46c8-b049-4d1fda1682b0"},"vehicle_type_id":"4","last_reported":1717020444,"current_range_meters":10800,"station_id":"ce4bh012rcd13ifvqcv0","pricing_plan_id":"cebpf4jnsgd1na2vs0mg"},{"bike_id":"dbd34cbd-0bfb-4c5d-9559-0e614666fff5","system_id":"levelo_inurba_marseille","lat":43.309047,"lon":5.396551,"is_reserved":false,"is_disabled":false,"rental_uris":{"android":"levelo://app?vid=dbd34cbd-0bfb-4c5d-9559-0e614666fff5","ios":"levelo://app?vid=dbd34cbd-0bfb-4c5d-9559-0e614666fff5"},"vehicle_type_id":"4","last_reported":1717020444,"current_range_meters":22400,"station_id":"ce4bh012rcd13ifvqcv0","pricing_plan_id":"cebpf4jnsgd1na2vs0mg"},{"bike_id":"30eb52ea-ebf3-4dde-9bab-e12ce6df8d4d","system_id":"levelo_inurba_marseille","lat":43.292005,"lon":5.357875,"is_reserved":false,"is_disabled":false,"rental_uris":{"android":"levelo://app?vid=30eb52ea-ebf3-4dde-9bab-e12ce6df8d4d","ios":"levelo://app?vid=30eb52ea-ebf3-4dde-9bab-e12ce6df8d4d"},"vehicle_type_id":"4","last_reported":1717020444,"current_range_meters":2400,"station_id":"ce4bhb12rcd13ifvqel0","pricing_plan_id":"cebpf4jnsgd1na2vs0mg"},{"bike_id":"3a28a861-fb8c-4ab1-9692-32460a0820a6","system_id":"levelo_inurba_marseille","lat":43.309047,"lon":5.396551,"is_reserved":false,"is_disabled":false,"rental_uris":{"android":"levelo://app?vid=3a28a861-fb8c-4ab1-9692-32460a0820a6","ios":"levelo://app?vid=3a28a861-fb8c-4ab1-9692-32460a0820a6"},"vehicle_type_id":"4","last_reported":1717020444,"current_range_meters":4800,"station_id":"ce4bh012rcd13ifvqcv0","pricing_plan_id":"cebpf4jnsgd1na2vs0mg"},{"bike_id":"713dc827-c9a0-4543-82be-8fc584932682","system_id":"levelo_inurba_marseille","lat":43.309038,"lon":5.396546,"is_reserved":false,"is_disabled":false,"rental_uris":{"android":"levelo://app?vid=713dc827-c9a0-4543-82be-8fc584932682","ios":"levelo://app?vid=713dc827-c9a0-4543-82be-8fc584932682"},"vehicle_type_id":"4","last_reported":1717020444,"current_range_meters":2800,"station_id":"ce4bh012rcd13ifvqcv0","pricing_plan_id":"cebpf4jnsgd1na2vs0mg"},{"bike_id":"2ead8a97-5d0a-43d4-a86b-198fe4892c43","system_id":"levelo_inurba_marseille","lat":43.29529,"lon":5.385581,"is_reserved":false,"is_disabled":false,"rental_uris":{"android":"levelo://app?vid=2ead8a97-5d0a-43d4-a86b-198fe4892c43","ios":"levelo://app?vid=2ead8a97-5d0a-43d4-a86b-198fe4892c43"},"vehicle_type_id":"4","last_reported":1717020444,"current_range_meters":6400,"station_id":"ce4bgih2rcd13ifvqba0","pricing_plan_id":"cebpf4jnsgd1na2vs0mg"},{"bike_id":"3af2658c-67b6-4bec-8e4d-2855187bc702","system_id":"levelo_inurba_marseille","lat":43.29529,"lon":5.385581,"is_reserved":false,"is_disabled":false,"rental_uris":{"android":"levelo://app?vid=3af2658c-67b6-4bec-8e4d-2855187bc702","ios":"levelo://app?vid=3af2658c-67b6-4bec-8e4d-2855187bc702"},"vehicle_type_id":"4","last_reported":1717020444,"current_range_meters":5200,"station_id":"ce4bgih2rcd13ifvqba0","pricing_plan_id":"cebpf4jnsgd1na2vs0mg"},{"bike_id":"72750c7a-97c7-4f9f-b0ac-1af17c383d15","system_id":"levelo_inurba_marseille","lat":43.290779,"lon":5.371482,"is_reserved":false,"is_disabled":false,"rental_uris":{"android":"levelo://app?vid=72750c7a-97c7-4f9f-b0ac-1af17c383d15","ios":"levelo://app?vid=72750c7a-97c7-4f9f-b0ac-1af17c383d15"},"vehicle_type_id":"4","last_reported":1717020444,"current_range_meters":25200,"station_id":"ce4bh5p2rcd13ifvqe4g","pricing_plan_id":"cebpf4jnsgd1na2vs0mg"},{"bike_id":"8307821e-1caf-4538-bcdc-ad9763999a23","system_id":"levelo_inurba_marseille","lat":43.290685,"lon":5.371701,"is_reserved":false,"is_disabled":false,"rental_uris":{"android":"levelo://app?vid=8307821e-1caf-4538-bcdc-ad9763999a23","ios":"levelo://app?vid=8307821e-1caf-4538-bcdc-ad9763999a23"},"vehicle_type_id":"4","last_reported":1717020444,"current_range_meters":0,"station_id":"ce4bh5p2rcd13ifvqe4g","pricing_plan_id":"cebpf4jnsgd1na2vs0mg"},{"bike_id":"5732a0a8-f044-4e61-b857-29254cf549c8","system_id":"levelo_inurba_marseille","lat":43.302008,"lon":5.394694,"is_reserved":false,"is_disabled":false,"rental_uris":{"android":"levelo://app?vid=5732a0a8-f044-4e61-b857-29254cf549c8","ios":"levelo://app?vid=5732a0a8-f044-4e61-b857-29254cf549c8"},"vehicle_type_id":"4","last_reported":1717020444,"current_range_meters":0,"station_id":"ce4bh0p2rcd13ifvqd70","pricing_plan_id":"cebpf4jnsgd1na2vs0mg"},{"bike_id":"80755913-25f8-4ac8-a4fc-5ab61ccf818e","system_id":"levelo_inurba_marseille","lat":43.302008,"lon":5.394694,"is_reserved":false,"is_disabled":false,"rental_uris":{"android":"levelo://app?vid=80755913-25f8-4ac8-a4fc-5ab61ccf818e","ios":"levelo://app?vid=80755913-25f8-4ac8-a4fc-5ab61ccf818e"},"vehicle_type_id":"4","last_reported":1717020444,"current_range_meters":10800,"station_id":"ce4bh0p2rcd13ifvqd70","pricing_plan_id":"cebpf4jnsgd1na2vs0mg"},{"bike_id":"cc4f222f-e541-419d-9473-0ab6232dded1","system_id":"levelo_inurba_marseille","lat":43.289184,"lon":5.366408,"is_reserved":false,"is_disabled":false,"rental_uris":{"android":"levelo://app?vid=cc4f222f-e541-419d-9473-0ab6232dded1","ios":"levelo://app?vid=cc4f222f-e541-419d-9473-0ab6232dded1"},"vehicle_type_id":"4","last_reported":1717020444,"current_range_meters":27600,"station_id":"ce4bhap2rcd13ifvqek0","pricing_plan_id":"cebpf4jnsgd1na2vs0mg"},{"bike_id":"6daf76d5-adc8-42ab-8038-ccb5aa44eddb","system_id":"levelo_inurba_marseille","lat":43.295194,"lon":5.39397,"is_reserved":false,"is_disabled":false,"rental_uris":{"android":"levelo://app?vid=6daf76d5-adc8-42ab-8038-ccb5aa44eddb","ios":"levelo://app?vid=6daf76d5-adc8-42ab-8038-ccb5aa44eddb"},"vehicle_type_id":"4","last_reported":1717020444,"current_range_meters":23200,"station_id":"ce4bh292rcd13ifvqdf0","pricing_plan_id":"cebpf4jnsgd1na2vs0mg"},{"bike_id":"daae9bcc-6c83-4103-b878-7977b62a00b7","system_id":"levelo_inurba_marseille","lat":43.290319,"lon":5.375732,"is_reserved":false,"is_disabled":false,"rental_uris":{"android":"levelo://app?vid=daae9bcc-6c83-4103-b878-7977b62a00b7","ios":"levelo://app?vid=daae9bcc-6c83-4103-b878-7977b62a00b7"},"vehicle_type_id":"4","last_reported":1717020444,"current_range_meters":4800,"station_id":"ce4bh692rcd13ifvqe90","pricing_plan_id":"cebpf4jnsgd1na2vs0mg"},