{"last_updated":1748016750,"ttl":60,"version":"2.2","data":{"bikes":[{"bike_id":"c0b9fd4f-e181-46ce-b0bf-f5119973334f","system_id":"levelo_inurba_marseille","lat":43.33771,"lon":5.37424,"is_reserved":false,"is_disabled":true,"rental_uris":{"android":"levelo://app?vid=c0b9fd4f-e181-46ce-b0bf-f5119973334f","ios":"levelo://app?vid=c0b9fd4f-e181-46ce-b0bf-f5119973334f"},"vehicle_type_id":"4","last_reported":1748016751,"current_range_meters":0,"station_id":"","pricing_plan_id":"cebpf4jnsgd1na2vs0mg"},{"bike_id":"d4150556-b601-4cc0-b77e-49c2d38938cf","system_id":"levelo_inurba_marseille","lat":43.288595,"lon":5.455097,"is_reserved":false,"is_disabled":true,"rental_uris":{"android":"levelo://app?vid=d4150556-b601-4cc0-b77e-49c2d38938cf","ios":"levelo://app?vid=d4150556-b601-4cc0-b77e-49c2d38938cf"},"vehicle_type_id":"4","last_reported":1748016751,"current_range_meters":0,"station_id":"","pricing_plan_id":"cebpf4jnsgd1na2vs0mg"},{"bike_id":"e8162579-a5ad-485f-ad83-fec8a2ebe7e1","system_id":"levelo_inurba_marseille","lat":43.26835,"lon":5.391163,"is_reserved":false,"is_disabled":true,"rental_uris":{"android":"levelo://app?vid=e8162579-a5ad-485f-ad83-fec8a2ebe7e1","ios":"levelo://app?vid=e8162579-a5ad-485f-ad83-fec8a2ebe7e1"},"vehicle_type_id":"4","last_reported":1748016751,"current_range_meters":0,"station_id":"","pricing_plan_id":"cebpf4jnsgd1na2vs0mg"},{"bike_id":"c4b55004-c014-4bfa-a092-f7c7649b87ca","system_id":"levelo_inurba_marseille","lat":43.2629,"lon":5.39297,"is_reserved":false,"is_disabled":true,"rental_uris":{"android":"levelo://app?vid=c4b55004-c014-4bfa-a092-f7c7649b87ca","ios":"levelo://app?vid=c4b55004-c014-4bfa-a092-f7c7649b87ca"},"vehicle_type_id":"4","last_reported":1748016751,"current_range_meters":0,"station_id":"","pricing_plan_id":"cebpf4jnsgd1na2vs0mg"},{"bike_id":"a9d86a3e-ff61-4b3c-b1d6-cb137b96f17c","system_id":"levelo_inurba_marseille","lat":43.28892,"lon":5.43075,"is_reserved":false,"is_disabled":true,"rental_uris":{"android":"levelo://app?vid=a9d86a3e-ff61-4b3c-b1d6-cb137b96f17c","ios":"levelo://app?vid=a9d86a3e-ff61-4b3c-b1d6-cb137b96f17c"},"vehicle_type_id":"4","last_reported":1748016751,"current_range_meters":0,"station_id":"","pricing_plan_id":"cebpf4jnsgd1na2vs0mg"},{"bike_id":"15dcdbbd-a41e-43eb-9ed6-26ec15ce7a50","system_id":"levelo_inurba_marseille","lat":43.21414,"lon":5.34119,"is_reserved":false,"is_disabled":true,"rental_uris":{"android":"levelo://app?vid=15dcdbbd-a41e-43eb-9ed6-26ec15ce7a50","ios":"levelo://app?vid=15dcdbbd-a41e-43eb-9ed6-26ec15ce7a50"},"vehicle_type_id":"4","last_reported":1748016751,"current_range_meters":0,"station_id":"","pricing_plan_id":"cebpf4jnsgd1na2vs0mg"},{"bike_id":"e9dd3aa4-b5e7-4480-926d-d7f537719bfa","system_id":"levelo_inurba_marseille","lat":43.230331,"lon":5.401847,"is_reserved":false,"is_disabled":true,"rental_uris":{"android":"levelo://app?vid=e9dd3aa4-b5e7-4480-926d-d7f537719bfa","ios":"levelo://app?vid=e9dd3aa4-b5e7-4480-926d-d7f537719bfa"},"vehicle_type_id":"4","last_reported":1748016751,"current_range_meters":0,"station_id":"","pricing_plan_id":"cebpf4jnsgd1na2vs0mg"},{"bike_id":"baa58b9a-e7e3-4f2c-bc9a-639cd282710e","system_id":"levelo_inurba_marseille","lat":43.29305,"lon":5.37175,"is_reserved":false,"is_disabled":true,"rental_uris":{"android":"levelo://app?vid=baa58b9a-e7e3-4f2c-bc9a-639cd282710e","ios":"levelo://app?vid=baa58b9a-e7e3-4f2c-bc9a-639cd282710e"},"vehicle_type_id":"4","last_reported":1748016751,"current_range_meters":0,"station_id":"ce4bgh92rcd13ifvqb40","pricing_plan_id":"cebpf4jnsgd1na2vs0mg"},{"bike_id":"8218b17b-012d-4d17-a0e2-3b1dd04c141a","system_id":"levelo_inurba_marseille","lat":43.29783,"lon":5.38113,"is_reserved":false,"is_disabled":true,"rental_uris":{"android":"levelo://app?vid=8218b17b-012d-4d17-a0e2-3b1dd04c141a","ios":"levelo://app?vid=8218b17b-012d-4d17-a0e2-3b1dd04c141a"},"vehicle_type_id":"4","last_reported":1748016751,"current_range_meters":0,"station_id":"ce4bgip2rcd13ifvqbb0","pricing_plan_id":"cebpf4jnsgd1na2vs0mg"},{"bike_id":"91a8d056-78a7-409c-af38-004d32565622","system_id":"levelo_inurba_marseille","lat":43.304134,"lon":5.388879,"is_reserved":false,"is_disabled":true,"rental_uris":{"android":"levelo://app?vid=91a8d056-78a7-409c-af38-004d32565622","ios":"levelo://app?vid=91a8d056-78a7-409c-af38-004d32565622"},"vehicle_type_id":"4","last_reported":1748016751,"current_range_meters":0,"station_id":"ce4bgk12rcd13ifvqbi0","pricing_plan_id":"cebpf4jnsgd1na2vs0mg"},{"bike_id":"395403e8-047e-4581-8f8a-b8d96cd43167","system_id":"levelo_inurba_marseille","lat":43.2951,"lon":5.39398,"is_reserved":false,"is_disabled":true,"rental_uris":{"android":"levelo://app?vid=395403e8-047e-4581-8f8a-b8d96cd43167","ios":"levelo://app?vid=395403e8-047e-4581-8f8a-b8d96cd43167"},"vehicle_type_id":"4","last_reported":1748016751,"current_range_meters":0,"station_id":"ce4bh292rcd13ifvqdf0","pricing_plan_id":"cebpf4jnsgd1na2vs0mg"},{"bike_id":"01da2323-2a29-4167-9978-b804aee9f179","system_id":"levelo_inurba_marseille","lat":43.2867,"lon":5.38666,"is_reserved":false,"is_disabled":true,"rental_uris":{"android":"levelo://app?vid=01da2323-2a29-4167-9978-b804aee9f179","ios":"levelo://app?vid=01da2323-2a29-4167-9978-b804aee9f179"},"vehicle_type_id":"4","last_reported":1748016751,"current_range_meters":0,"station_id":"ce4bh492rcd13ifvqdug","pricing_plan_id":"cebpf4jnsgd1na2vs0mg"},{"bike_id":"773e75a3-f010-4286-b841-dd3711af0325","system_id":"levelo_inurba_marseille","lat":43.29196,"lon":5.35801,"is_reserved":false,"is_disabled":true,"rental_uris":{"android":"levelo://app?vid=773e75a3-f010-4286-b841-dd3711af0325","ios":"levelo://app?vid=773e75a3-f010-4286-b841-dd3711af0325"},"vehicle_type_id":"4","last_reported":1748016751,"current_range_meters":0,"station_id":"ce4bhb12rcd13ifvqel0","pricing_plan_id":"cebpf4jnsgd1na2vs0mg"},{"bike_id":"d0c1667c-20f5-413c-b34a-4af00ea1246e","system_id":"levelo_inurba_marseille","lat":43.26034,"lon":5.37548,"is_reserved":false,"is_disabled":true,"rental_uris":{"android":"levelo://app?vid=d0c1667c-20f5-413c-b34a-4af00ea1246e","ios":"levelo://app?vid=d0c1667c-20f5-413c-b34a-4af00ea1246e"},"vehicle_type_id":"4","last_reported":1748016751,"current_range_meters":0,"station_id":"ce4bhgh2rcd13ifvqfa0","pricing_plan_id":"cebpf4jnsgd1na2vs0mg"},{"bike_id":"51682a42-2e94-45e9-8646-a9a03139dc83","system_id":"levelo_inurba_marseille","lat":43.25003,"lon":5.38943,"is_reserved":false,"is_disabled":true,"rental_uris":{"android":"levelo://app?vid=51682a42-2e94-45e9-8646-a9a03139dc83","ios":"levelo://app?vid=51682a42-2e94-45e9-8646-a9a03139dc83"},"vehicle_type_id":"4","last_reported":1748016751,"current_range_meters":0,"station_id":"ce4bhgp2rcd13ifvqfd0","pricing_plan_id":"cebpf4jnsgd1na2vs0mg"},{"bike_id":"32c0a92c-ef27-4c4d-8f24-e0106542916e","system_id":"levelo_inurba_marseille","lat":43.27318,"lon":5.39088,"is_reserved":false,"is_disabled":true,"rental_uris":{"android":"levelo://app?vid=32c0a92c-ef27-4c4d-8f24-e0106542916e","ios":"levelo://app?vid=32c0a92c-ef27-4c4d-8f24-e0106542916e"},"vehicle_type_id":"4","last_reported":1748016751,"current_range_meters":0,"station_id":"ce4bhgp2rcd13ifvqfe0","pricing_plan_id":"cebpf4jnsgd1na2vs0mg"},{"bike_id":"8902fde1-6e3c-4168-8755-d26b58074a05","system_id":"levelo_inurba_marseille","lat":43.24397,"lon":5.37054,"is_reserved":false,"is_disabled":true,"rental_uris":{"android":"levelo://app?vid=8902fde1-6e3c-4168-8755-d26b58074a05","ios":"levelo://app?vid=8902fde1-6e3c-4168-8755-d26b58074a05"},"vehicle_type_id":"4","last_reported":1748016751,"current_range_meters":0,"station_id":"ce4bhhh2rcd13ifvqfk0","pricing_plan_id":"cebpf4jnsgd1na2vs0mg"},{"bike_id":"f9966d97-4921-467c-872d-7d6984ffad14","system_id":"levelo_inurba_marseille","lat":43.25574,"lon":5.38259,"is_reserved":false,"is_disabled":true,"rental_uris":{"android":"levelo://app?vid=f9966d97-4921-467c-872d-7d6984ffad14","ios":"levelo://app?vid=f9966d97-4921-467c-872d-7d6984ffad14"},"vehicle_type_id":"4","last_reported":1748016751,"current_range_meters":0,"station_id":"ce4bhih2rcd13ifvqfs0","pricing_plan_id":"cebpf4jnsgd1na2vs0mg"},{"bike_id":"4b81e971-e774-4c57-8b2d-9dc884fc33bb","system_id":"levelo_inurba_marseille","lat":43.27833,"lon":5.39204,"is_reserved":false,"is_disabled":true,"rental_uris":{"android":"levelo://app?vid=4b81e971-e774-4c57-8b2d-9dc884fc33bb","ios":"levelo://app?vid=4b81e971-e774-4c57-8b2d-9dc884fc33bb"},"vehicle_type_id":"4","last_reported":1748016751,"current_range_meters":0,"station_id":"ce4bhjp2rcd13ifvqga0","pricing_plan_id":"cebpf4jnsgd1na2vs0mg"},{"bike_id":"e72cebc7-2e47-4020-b771-dd0cb3e54421","system_id":"levelo_inurba_marseille","lat":43.24169,"lon":5.39741,"is_reserved":false,"is_disabled":true,"rental_uris":{"android":"levelo://app?vid=e72cebc7-2e47-4020-b771-dd0cb3e54421","ios":"levelo://app?vid=e72cebc7-2e47-4020-b771-dd0cb3e54421"},"vehicle_type_id":"4","last_reported":1748016751,"current_range_meters":0,"station_id":"ce4bhn12rcd13ifvqgpg","pricing_plan_id":"cebpf4jnsgd1na2vs0mg"},{"bike_id":"1b94685f-a9c5-4405-b0b5-fa06db0022f4","system_id":"levelo_inurba_marseille","lat":43.31079,"lon":5.42435,"is_reserved":false,"is_disabled":true,"rental_uris":{"android":"levelo://app?vid=1b94685f-a9c5-4405-b0b5-fa06db0022f4","ios":"levelo://app?vid=1b94685f-a9c5-4405-b0b5-fa06db0022f4"},"vehicle_type_id":"4","last_reported":1748016751,"current_range_meters":0,"station_id":"ce4bhp92rcd13ifvqhag","pricing_plan_id":"cebpf4jnsgd1na2vs0mg"},{"bike_id":"fed22d71-0a64-45c8-97c1-5a4ced8f0302","system_id":"levelo_inurba_marseille","lat":43.21752,"lon":5.34607,"is_reserved":false,"is_disabled":true,"rental_uris":{"android":"levelo://app?vid=fed22d71-0a64-45c8-97c1-5a4ced8f0302","ios":"levelo://app?vid=fed22d71-0a64-45c8-97c1-5a4ced8f0302"},"vehicle_type_id":"4","last_reported":1748016751,"current_range_meters":0,"station_id":"st_cvj6r9ubvosntc0bgbag","pricing_plan_id":"cebpf4jnsgd1na2vs0mg"},{"bike_id":"ac2f3ffd-2cff-4269-80ec-b77c8ace9f9e","system_id":"levelo_inurba_marseille","lat":43.292798,"lon":5.368473,"is_reserved":false,"is_disabled":true,"rental_uris":{"android":"levelo://app?vid=ac2f3ffd-2cff-4269-80ec-b77c8ace9f9e","ios":"levelo://app?vid=ac2f3ffd-2cff-4269-80ec-b77c8ace9f9e"},"vehicle_type_id":"4","last_reported":1748016751,"current_range_meters":400,"station_id":"","pricing_plan_id":"cebpf4jnsgd1na2vs0mg"},{"bike_id":"80ad7bbc-42f0-47af-92b6-87637bf09127","system_id":"levelo_inurba_marseille","lat":43.30557,"lon":5.3653,"is_reserved":false,"is_disabled":true,"rental_uris":{"android":"levelo://app?vid=80ad7bbc-42f0-47af-92b6-87637bf09127","ios":"levelo://app?vid=80ad7bbc-42f0-47af-92b6-87637bf09127"},"vehicle_type_id":"4","last_reported":1748016751,"current_range_meters":400,"station_id":"ce4bgs12rcd13ifvqcag","pricing_plan_id":"cebpf4jnsgd1na2vs0mg"},{"bike_id":"e2898455-9109-4eb0-94ec-a5498552ca38","system_id":"levelo_inurba_marseille","lat":43.30887,"lon":5.39653,"is_reserved":false,"is_disabled":true,"rental_uris":{"android":"levelo://app?vid=e2898455-9109-4eb0-94ec-a5498552ca38","ios":"levelo://app?vid=e2898455-9109-4eb0-94ec-a5498552ca38"},"vehicle_type_id":"4","last_reported":1748016751,"current_range_meters":400,"station_id":"ce4bh012rcd13ifvqcv0","pricing_plan_id":"cebpf4jnsgd1na2vs0mg"},{"bike_id":"2657f876-a8f2-48df-9890-bd8924063616","system_id":"levelo_inurba_marseille","lat":43.29869,"lon":5.38905,"is_reserved":false,"is_disabled":true,"rental_uris":{"android":"levelo://app?vid=2657f876-a8f2-48df-9890-bd8924063616","ios":"levelo://app?vid=2657f876-a8f2-48df-9890-bd8924063616"},"vehicle_type_id":"4","last_reported":1748016751,"current_range_meters":400,"station_id":"ce4bh392rcd13ifvqdl0","pricing_plan_id":"cebpf4jnsgd1na2vs0mg"},{"bike_id":"d000bc4b-3c13-46d4-bd5f-aefa8e5a3986","system_id":"levelo_inurba_marseille","lat":43.29097,"lon":5.3815,"is_reserved":false,"is_disabled":true,"rental_uris":{"android":"levelo://app?vid=d000bc4b-3c13-46d4-bd5f-aefa8e5a3986","ios":"levelo://app?vid=d000bc4b-3c13-46d4-bd5f-aefa8e5a3986"},"vehicle_type_id":"4","last_reported":1748016751,"current_range_meters":400,"station_id":"ce4bh512rcd13ifvqe2g","pricing_plan_id":"cebpf4jnsgd1na2vs0mg"},{"bike_id":"37d081d6-c286-4392-868e-ea236e1ab7a5","system_id":"levelo_inurba_marseille","lat":43.23962,"lon":5.36634,"is_reserved":false,"is_disabled":true,"rental_uris":{"android":"levelo://app?vid=37d081d6-c286-4392-868e-ea236e1ab7a5","ios":"levelo://app?vid=37d081d6-c286-4392-868e-ea236e1ab7a5"},"vehicle_type_id":"4","last_reported":1748016751,"current_range_meters":400,"station_id":"ce4bhi12rcd13ifvqfp0","pricing_plan_id":"cebpf4jnsgd1na2vs0mg"},{"bike_id":"41a19a61-b60f-45d7-9106-190a315a47be","system_id":"levelo_inurba_marseille","lat":43.250868,"lon":5.395213,"is_reserved":false,"is_disabled":true,"rental_uris":{"android":"levelo://app?vid=41a19a61-b60f-45d7-9106-190a315a47be","ios":"levelo://app?vid=41a19a61-b60f-45d7-9106-190a315a47be"},"vehicle_type_id":"4","last_reported":1748016751,"current_range_meters":400,"station_id":"ce4bhm12rcd13ifvqgkg","pricing_plan_id":"cebpf4jnsgd1na2vs0mg"},{"bike_id":"a55dd93e-a5d8-4ee1-8b5c-078aa5432de3","system_id":"levelo_inurba_marseille","lat":43.24179,"lon":5.39733,"is_reserved":false,"is_disabled":true,"rental_uris":{"android":"levelo://app?vid=a55dd93e-a5d8-4ee1-8b5c-078aa5432de3","ios":"levelo://app?vid=a55dd93e-a5d8-4ee1-8b5c-078aa5432de3"},"vehicle_type_id":"4","last_reported":1748016751,"current_range_meters":400,"station_id":"ce4bhn12rcd13ifvqgpg","pricing_plan_id":"cebpf4jnsgd1na2vs0mg"},{"bike_id":"99bf2399-f8c2-4d7d-ba0e-224503c9e665","system_id":"levelo_inurba_marseille","lat":43.28996,"lon":5.37597,"is_reserved":false,"is_disabled":true,"rental_uris":{"android":"levelo://app?vid=99bf2399-f8c2-4d7d-ba0e-224503c9e665","ios":"levelo://app?vid=99bf2399-f8c2-4d7d-ba0e-224503c9e665"},"vehicle_type_id":"4","last_reported":1748016751,"current_range_meters":800,"station_id":"ce4bh692rcd13ifvqe90","pricing_plan_id":"cebpf4jnsgd1na2vs0mg"},{"bike_id":"ea31a452-c193-4f27-9692-b01b32fc863f","system_id":"levelo_inurba_marseille","lat":43.27967,"lon":5.38737,"is_reserved":false,"is_disabled":true,"rental_uris":{"android":"levelo://app?vid=ea31a452-c193-4f27-9692-b01b32fc863f","ios":"levelo://app?vid=ea31a452-c193-4f27-9692-b01b32fc863f"},"vehicle_type_id":"4","last_reported":1748016751,"current_range_meters":800,"station_id":"ce4bhg12rcd13ifvqf80","pricing_plan_id":"cebpf4jnsgd1na2vs0mg"},{"bike_id":"5f101d6f-9e60-4e30-b619-e05cb65c4662","system_id":"levelo_inurba_marseille","lat":43.25501,"lon":5.37663,"is_reserved":false,"is_disabled":true,"rental_uris":{"android":"levelo://app?vid=5f101d6f-9e60-4e30-b619-e05cb65c4662","ios":"levelo://app?vid=5f101d6f-9e60-4e30-b619-e05cb65c4662"},"vehicle_type_id":"4","last_reported":1748016751,"current_range_meters":800,"station_id":"ce4bhh12rcd13ifvqff0","pricing_plan_id":"cebpf4jnsgd1na2vs0mg"},{"bike_id":"43da5f61-6ff8-44a0-91e6-3c33e07e3276","system_id":"levelo_inurba_marseille","lat":43.23963,"lon":5.36628,"is_reserved":false,"is_disabled":true,"rental_uris":{"android":"levelo://app?vid=43da5f61-6ff8-44a0-91e6-3c33e07e3276","ios":"levelo://app?vid=43da5f61-6ff8-44a0-91e6-3c33e07e3276"},"vehicle_type_id":"4","last_reported":1748016751,"current_range_meters":800,"station_id":"ce4bhi12rcd13ifvqfp0","pricing_plan_id":"cebpf4jnsgd1na2vs0mg"},{"bike_id":"c10089a1-a1f6-4df8-9e1c-2a6c3b10c038","system_id":"levelo_inurba_marseille","lat":43.2174,"lon":5.34613,"is_reserved":false,"is_disabled":true,"rental_uris":{"android":"levelo://app?vid=c10089a1-a1f6-4df8-9e1c-2a6c3b10c038","ios":"levelo://app?vid=c10089a1-a1f6-4df8-9e1c-2a6c3b10c038"},"vehicle_type_id":"4","last_reported":1748016751,"current_range_meters":800,"station_id":"st_cvj6r9ubvosntc0bgbag","pricing_plan_id":"cebpf4jnsgd1na2vs0mg"},{"bike_id":"cd9820af-2817-411a-93d0-b84b0411d520","system_id":"levelo_inurba_marseille","lat":43.3065,"lon":5.40092,"is_reserved":false,"is_disabled":true,"rental_uris":{"android":"levelo://app?vid=cd9820af-2817-411a-93d0-b84b0411d520","ios":"levelo://app?vid=cd9820af-2817-411a-93d0-b84b0411d520"},"vehicle_type_id":"4","last_reported":1748016751,"current_range_meters":1200,"station_id":"ce4bh112rcd13ifvqda0","pricing_plan_id":"cebpf4jnsgd1na2vs0mg"},{"bike_id":"5ebda9f8-c780-42de-90da-e984f33f1d92","system_id":"levelo_inurba_marseille","lat":43.29415,"lon":5.38616,"is_reserved":false,"is_disabled":true,"rental_uris":{"android":"levelo://app?vid=5ebda9f8-c780-42de-90da-e984f33f1d92","ios":"levelo://app?vid=5ebda9f8-c780-42de-90da-e984f33f1d92"},"vehicle_type_id":"4","last_reported":1748016751,"current_range_meters":1200,"station_id":"ce4bh2h2rcd13ifvqdh0","pricing_plan_id":"cebpf4jnsgd1na2vs0mg"},{"bike_id":"543d5a31-7193-4272-b2a5-e95513976908","system_id":"levelo_inurba_marseille","lat":43.28976,"lon":5.37828,"is_reserved":false,"is_disabled":true,"rental_uris":{"android":"levelo://app?vid=543d5a31-7193-4272-b2a5-e95513976908","ios":"levelo://app?vid=543d5a31-7193-4272-b2a5-e95513976908"},"vehicle_type_id":"4","last_reported":1748016751,"current_range_meters":1200,"station_id":"ce4bh9p2rcd13ifvqed0","pricing_plan_id":"cebpf4jnsgd1na2vs0mg"},{"bike_id":"f3e82300-7ced-4920-9c92-e20285042260","system_id":"levelo_inurba_marseille","lat":43.33024,"lon":5.39039,"is_reserved":false,"is_disabled":true,"rental_uris":{"android":"levelo://app?vid=f3e82300-7ced-4920-9c92-e20285042260","ios":"levelo://app?vid=f3e82300-7ced-4920-9c92-e20285042260"},"vehicle_type_id":"4","last_reported":1748016751,"current_range_meters":1200,"station_id":"ce4bhr92rcd13ifvqhrg","pricing_plan_id":"cebpf4jnsgd1na2vs0mg"},{"bike_id":"9ad1adad-cea7-4eeb-b8de-e34c290c9dd9","system_id":"levelo_inurba_marseille","lat":43.29929,"lon":5.36549,"is_reserved":false,"is_disabled":true,"rental_uris":{"android":"levelo://app?vid=9ad1adad-cea7-4eeb-b8de-e34c290c9dd9","ios":"levelo://app?vid=9ad1adad-cea7-4eeb-b8de-e34c290c9dd9"},"vehicle_type_id":"4","last_reported":1748016751,"current_range_meters":1600,"station_id":"ce4bgm92rcd13ifvqbr0","pricing_plan_id":"cebpf4jnsgd1na2vs0mg"},{"bike_id":"f7d84acf-ec0c-450f-b267-91a0737d8543","system_id":"levelo_inurba_marseille","lat":43.30795,"lon":5.38154,"is_reserved":false,"is_disabled":true,"rental_uris":{"android":"levelo://app?vid=f7d84acf-ec0c-450f-b267-91a0737d8543","ios":"levelo://app?vid=f7d84acf-ec0c-450f-b267-91a0737d8543"},"vehicle_type_id":"4","last_reported":1748016751,"current_range_meters":1600,"station_id":"ce4bgt12rcd13ifvqce0","pricing_plan_id":"cebpf4jnsgd1na2vs0mg"},{"bike_id":"2bdd92e0-ac2b-4ca6-8ecc-c5e67f8c63dd","system_id":"levelo_inurba_marseille","lat":43.30262,"lon":5.40045,"is_reserved":false,"is_disabled":true,"rental_uris":{"android":"levelo://app?vid=2bdd92e0-ac2b-4ca6-8ecc-c5e67f8c63dd","ios":"levelo://app?vid=2bdd92e0-ac2b-4ca6-8ecc-c5e67f8c63dd"},"vehicle_type_id":"4","last_reported":1748016751,"current_range_meters":1600,"station_id":"ce4bgvh2rcd13ifvqcs0","pricing_plan_id":"cebpf4jnsgd1na2vs0mg"},{"bike_id":"12b6700e-1a6e-40a4-81e7-f75b16227cda","system_id":"levelo_inurba_marseille","lat":43.25086,"lon":5.39519,"is_reserved":false,"is_disabled":true,"rental_uris":{"android":"levelo://app?vid=12b6700e-1a6e-40a4-81e7-f75b16227cda","ios":"levelo://app?vid=12b6700e-1a6e-40a4-81e7-f75b16227cda"},"vehicle_type_id":"4","last_reported":1748016751,"current_range_meters":1600,"station_id":"ce4bhm12rcd13ifvqgkg","pricing_plan_id":"cebpf4jnsgd1na2vs0mg"},{"bike_id":"3e5016d2-8657-45dd-8abd-a5fa8ea3548c","system_id":"levelo_inurba_marseille","lat":43.2418,"lon":5.3973,"is_reserved":false,"is_disabled":true,"rental_uris":{"android":"levelo://app?vid=3e5016d2-8657-45dd-8abd-a5fa8ea3548c","ios":"levelo://app?vid=3e5016d2-8657-45dd-8abd-a5fa8ea3548c"},"vehicle_type_id":"4","last_reported":1748016751,"current_range_meters":1600,"station_id":"ce4bhn12rcd13ifvqgpg","pricing_plan_id":"cebpf4jnsgd1na2vs0mg"},{"bike_id":"903b4684-3e9c-41d7-9422-3f8877e0f3d9","system_id":"levelo_inurba_marseille","lat":43.30421,"lon":5.41276,"is_reserved":false,"is_disabled":true,"rental_uris":{"android":"levelo://app?vid=903b4684-3e9c-41d7-9422-3f8877e0f3d9","ios":"levelo://app?vid=903b4684-3e9c-41d7-9422-3f8877e0f3d9"},"vehicle_type_id":"4","last_reported":1748016751,"current_range_meters":1600,"station_id":"ce4bhop2rcd13ifvqh8g","pricing_plan_id":"cebpf4jnsgd1na2vs0mg"},{"bike_id":"6237efe6-e96f-450b-a659-4a0752e223dd","system_id":"levelo_inurba_marseille","lat":43.26943,"lon":5.40256,"is_reserved":false,"is_disabled":true,"rental_uris":{"android":"levelo://app?vid=6237efe6-e96f-450b-a659-4a0752e223dd","ios":"levelo://app?vid=6237efe6-e96f-450b-a659-4a0752e223dd"},"vehicle_type_id":"4","last_reported":1748016751,"current_range_meters":1600,"station_id":"cjm6bp8fraef2m0cb0m0","pricing_plan_id":"cebpf4jnsgd1na2vs0mg"},{"bike_id":"dea94bae-0219-4b6d-bdb8-7a77b2ca5afd","system_id":"levelo_inurba_marseille","lat":43.26941,"lon":5.40258,"is_reserved":false,"is_disabled":true,"rental_uris":{"android":"levelo://app?vid=dea94bae-0219-4b6d-bdb8-7a77b2ca5afd","ios":"levelo://app?vid=dea94bae-0219-4b6d-bdb8-7a77b2ca5afd"},"vehicle_type_id":"4","last_reported":1748016751,"current_range_meters":1600,"station_id":"cjm6bp8fraef2m0cb0m0","pricing_plan_id":"cebpf4jnsgd1na2vs0mg"},{"bike_id":"094269ee-e0c7-40dc-a70b-7846baf5ad62","system_id":"levelo_inurba_marseille","lat":43.239658,"lon":5.366237,"is_reserved":false,"is_disabled":true,"rental_uris":{"android":"levelo://app?vid=094269ee-e0c7-40dc-a70b-7846baf5ad62","ios":"levelo://app?vid=094269ee-e0c7-40dc-a70b-7846baf5ad62"},"vehicle_type_id":"4","last_reported":1748016751,"current_range_meters":2000,"station_id":"","pricing_plan_id":"cebpf4jnsgd1na2vs0mg"},{"bike_id":"b9fbe606-c08c-4bd0-8e47-74a5d5bb3bc1","system_id":"levelo_inurba_marseille","lat":43.284729,"lon":5.384156,"is_reserved":false,"is_disabled":true,"rental_uris":{"android":"levelo://app?vid=b9fbe606-c08c-4bd0-8e47-74a5d5bb3bc1","ios":"levelo://app?vid=b9fbe606-c08c-4bd0-8e47-74a5d5bb3bc1"},"vehicle_type_id":"4","last_reported":1748016751,"current_range_meters":2000,"station_id":"ce4bh512rcd13ifvqe3g","pricing_plan_id":"cebpf4jnsgd1na2vs0mg"},{"bike_id":"8138aa19-f782-4034-b1cf-d52cb295e7a9","system_id":"levelo_inurba_marseille","lat":43.28022,"lon":5.3694,"is_reserved":false,"is_disabled":true,"rental_uris":{"android":"levelo://app?vid=8138aa19-f782-4034-b1cf-d52cb295e7a9","ios":"levelo://app?vid=8138aa19-f782-4034-b1cf-d52cb295e7a9"},"vehicle_type_id":"4","last_reported":1748016751,"current_range_meters":2000,"station_id":"ce4bha12rcd13ifvqef0","pricing_plan_id":"cebpf4jnsgd1na2vs0mg"},{"bike_id":"02bc823b-9277-409f-a36d-18fb29a0ece1","system_id":"levelo_inurba_marseille","lat":43.27364,"lon":5.36264,"is_reserved":false,"is_disabled":false,"rental_uris":{"android":"levelo://app?vid=02bc823b-9277-409f-a36d-18fb29a0ece1","ios":"levelo://app?vid=02bc823b-9277-409f-a36d-18fb29a0ece1"},"vehicle_type_id":"4","last_reported":1748016751,"current_range_meters":2000,"station_id":"ce4bhbh2rcd13ifvqeo0","pricing_plan_id":"cebpf4jnsgd1na2vs0mg"},{"bike_id":"aa6af39b-ddff-4bc4-9dd8-c2b7d3e4f669","system_id":"levelo_inurba_marseille","lat":43.25582,"lon":5.38239,"is_reserved":false,"is_disabled":true,"rental_uris":{"android":"levelo://app?vid=aa6af39b-ddff-4bc4-9dd8-c2b7d3e4f669","ios":"levelo://app?vid=aa6af39b-ddff-4bc4-9dd8-c2b7d3e4f669"},"vehicle_type_id":"4","last_reported":1748016751,"current_range_meters":2000,"station_id":"ce4bhih2rcd13ifvqfs0","pricing_plan_id":"cebpf4jnsgd1na2vs0mg"},{"bike_id":"23659e50-8ca5-49d7-8e43-30e2dbc414f7","system_id":"levelo_inurba_marseille","lat":43.30325,"lon":5.40431,"is_reserved":false,"is_disabled":false,"rental_uris":{"android":"levelo://app?vid=23659e50-8ca5-49d7-8e43-30e2dbc414f7","ios":"levelo://app?vid=23659e50-8ca5-49d7-8e43-30e2dbc414f7"},"vehicle_type_id":"4","last_reported":1748016751,"current_range_meters":2800,"station_id":"ce4bh012rcd13ifvqd10","pricing_plan_id":"cebpf4jnsgd1na2vs0mg"},{"bike_id":"79033f6e-8a96-424a-b4eb-9b6e7fbb4fa5","system_id":"levelo_inurba_marseille","lat":43.29509,"lon":5.39396,"is_reserved":false,"is_disabled":false,"rental_uris":{"android":"levelo://app?vid=79033f6e-8a96-424a-b4eb-9b6e7fbb4fa5","ios":"levelo://app?vid=79033f6e-8a96-424a-b4eb-9b6e7fbb4fa5"},"vehicle_type_id":"4","last_reported":1748016751,"current_range_meters":2800,"station_id":"ce4bh292rcd13ifvqdf0","pricing_plan_id":"cebpf4jnsgd1na2vs0mg"},{"bike_id":"5ec14d0e-46b9-4858-a749-8034228116ef","system_id":"levelo_inurba_marseille","lat":43.25862,"lon":5.39893,"is_reserved":false,"is_disabled":false,"rental_uris":{"android":"levelo://app?vid=5ec14d0e-46b9-4858-a749-8034228116ef","ios":"levelo://app?vid=5ec14d0e-46b9-4858-a749-8034228116ef"},"vehicle_type_id":"4","last_reported":1748016751,"current_range_meters":2800,"station_id":"ce4bhl92rcd13ifvqghg","pricing_plan_id":"cebpf4jnsgd1na2vs0mg"},{"bike_id":"025730a1-3559-474f-887d-ec599ae24b9f","system_id":"levelo_inurba_marseille","lat":43.26941,"lon":5.40251,"is_reserved":false,"is_disabled":false,"rental_uris":{"android":"levelo://app?vid=025730a1-3559-474f-887d-ec599ae24b9f","ios":"levelo://app?vid=025730a1-3559-474f-887d-ec599ae24b9f"},"vehicle_type_id":"4","last_reported":1748016751,"current_range_meters":2800,"station_id":"cjm6bp8fraef2m0cb0m0","pricing_plan_id":"cebpf4jnsgd1na2vs0mg"},{"bike_id":"54e4b086-1d0d-46a7-b1bc-1ecae5d19ff7","system_id":"levelo_inurba_marseille","lat":43.30535,"lon":5.36792,"is_reserved":false,"is_disabled":false,"rental_uris":{"android":"levelo://app?vid=54e4b086-1d0d-46a7-b1bc-1ecae5d19ff7","ios":"levelo://app?vid=54e4b086-1d0d-46a7-b1bc-1ecae5d19ff7"},"vehicle_type_id":"4","last_reported":1748016751,"current_range_meters":3200,"station_id":"ce4bgrp2rcd13ifvqc9g","pricing_plan_id":"cebpf4jnsgd1na2vs0mg"},{"bike_id":"f41ac6d2-0207-4ecd-8904-709c0a084cd7","system_id":"levelo_inurba_marseille","lat":43.274375,"lon":5.394005,"is_reserved":false,"is_disabled":false,"rental_uris":{"android":"levelo://app?vid=f41ac6d2-0207-4ecd-8904-709c0a084cd7","ios":"levelo://app?vid=f41ac6d2-0207-4ecd-8904-709c0a084cd7"},"vehicle_type_id":"4","last_reported":1748016751,"current_range_meters":3200,"station_id":"ce4bhdp2rcd13ifvqf20","pricing_plan_id":"cebpf4jnsgd1na2vs0mg"},{"bike_id":"d877fc90-a2fd-451a-8240-23d3bc648f43","system_id":"levelo_inurba_marseille","lat":43.23194,"lon":5.355477,"is_reserved":false,"is_disabled":false,"rental_uris":{"android":"levelo://app?vid=d877fc90-a2fd-451a-8240-23d3bc648f43","ios":"levelo://app?vid=d877fc90-a2fd-451a-8240-23d3bc648f43"},"vehicle_type_id":"4","last_reported":1748016751,"current_range_meters":3200,"station_id":"ce4bhu92rcd13ifvqi70","pricing_plan_id":"cebpf4jnsgd1na2vs0mg"},{"bike_id":"c3c7ae58-40dc-49fe-91c8-045c830c98b8","system_id":"levelo_inurba_marseille","lat":43.31938,"lon":5.44966,"is_reserved":false,"is_disabled":false,"rental_uris":{"android":"levelo://app?vid=c3c7ae58-40dc-49fe-91c8-045c830c98b8","ios":"levelo://app?vid=c3c7ae58-40dc-49fe-91c8-045c830c98b8"},"vehicle_type_id":"4","last_reported":1748016751,"current_range_meters":3600,"station_id":"","pricing_plan_id":"cebpf4jnsgd1na2vs0mg"},{"bike_id":"6ab28941-edcc-499b-ad4a-beecd3a7e456","system_id":"levelo_inurba_marseille","lat":43.27937,"lon":5.38698,"is_reserved":false,"is_disabled":false,"rental_uris":{"android":"levelo://app?vid=6ab28941-edcc-499b-ad4a-beecd3a7e456","ios":"levelo://app?vid=6ab28941-edcc-499b-ad4a-beecd3a7e456"},"vehicle_type_id":"4","last_reported":1748016751,"current_range_meters":3600,"station_id":"","pricing_plan_id":"cebpf4jnsgd1na2vs0mg"},{"bike_id":"63b1a1a9-80e3-4295-bfa6-36015ea54ba1","system_id":"levelo_inurba_marseille","lat":43.26223,"lon":5.40474,"is_reserved":false,"is_disabled":false,"rental_uris":{"android":"levelo://app?vid=63b1a1a9-80e3-4295-bfa6-36015ea54ba1","ios":"levelo://app?vid=63b1a1a9-80e3-4295-bfa6-36015ea54ba1"},"vehicle_type_id":"4","last_reported":1748016751,"current_range_meters":3600,"station_id":"ce4bhmh2rcd13ifvqgmg","pricing_plan_id":"cebpf4jnsgd1na2vs0mg"},{"bike_id":"3fe3d6c4-138a-47df-b6b4-e6f19e8f7d46","system_id":"levelo_inurba_marseille","lat":43.21404,"lon":5.34125,"is_reserved":false,"is_disabled":false,"rental_uris":{"android":"levelo://app?vid=3fe3d6c4-138a-47df-b6b4-e6f19e8f7d46","ios":"levelo://app?vid=3fe3d6c4-138a-47df-b6b4-e6f19e8f7d46"},"vehicle_type_id":"4","last_reported":1748016751,"current_range_meters":4000,"station_id":"","pricing_plan_id":"cebpf4jnsgd1na2vs0mg"},{"bike_id":"663fc025-6fc1-4004-895e-f0f1709c8797","system_id":"levelo_inurba_marseille","lat":43.265218,"lon":5.369906,"is_reserved":false,"is_disabled":false,"rental_uris":{"android":"levelo://app?vid=663fc025-6fc1-4004-895e-f0f1709c8797","ios":"levelo://app?vid=663fc025-6fc1-4004-895e-f0f1709c8797"},"vehicle_type_id":"4","last_reported":1748016751,"current_range_meters":4000,"station_id":"","pricing_plan_id":"cebpf4jnsgd1na2vs0mg"},{"bike_id":"44f3f49b-c047-4ca0-a742-47dfa8adbb1d","system_id":"levelo_inurba_marseille","lat":43.3117,"lon":5.38715,"is_reserved":false,"is_disabled":false,"rental_uris":{"android":"levelo://app?vid=44f3f49b-c047-4ca0-a742-47dfa8adbb1d","ios":"levelo://app?vid=44f3f49b-c047-4ca0-a742-47dfa8adbb1d"},"vehicle_type_id":"4","last_reported":1748016751,"current_range_meters":4000,"station_id":"ce4bgv12rcd13ifvqcp0","pricing_plan_id":"cebpf4jnsgd1na2vs0mg"},{"bike_id":"9f581737-8313-4d8d-b39b-77474250f931","system_id":"levelo_inurba_marseille","lat":43.29005,"lon":5.35612,"is_reserved":false,"is_disabled":false,"rental_uris":{"android":"levelo://app?vid=9f581737-8313-4d8d-b39b-77474250f931","ios":"levelo://app?vid=9f581737-8313-4d8d-b39b-77474250f931"},"vehicle_type_id":"4","last_reported":1748016751,"current_range_meters":4000,"station_id":"ce4bhb92rcd13ifvqen0","pricing_plan_id":"cebpf4jnsgd1na2vs0mg"},{"bike_id":"a5623f8f-eccd-4f62-8d07-5867a0724305","system_id":"levelo_inurba_marseille","lat":43.26193,"lon":5.37447,"is_reserved":false,"is_disabled":false,"rental_uris":{"android":"levelo://app?vid=a5623f8f-eccd-4f62-8d07-5867a0724305","ios":"levelo://app?vid=a5623f8f-eccd-4f62-8d07-5867a0724305"},"vehicle_type_id":"4","last_reported":1748016751,"current_range_meters":4000,"station_id":"ce4bhgp2rcd13ifvqfc0","pricing_plan_id":"cebpf4jnsgd1na2vs0mg"},{"bike_id":"373b2af9-2075-4180-adde-605eb96e177e","system_id":"levelo_inurba_marseille","lat":43.26495,"lon":5.39539,"is_reserved":false,"is_disabled":false,"rental_uris":{"android":"levelo://app?vid=373b2af9-2075-4180-adde-605eb96e177e","ios":"levelo://app?vid=373b2af9-2075-4180-adde-605eb96e177e"},"vehicle_type_id":"4","last_reported":1748016751,"current_range_meters":4000,"station_id":"ce4bhi12rcd13ifvqfq0","pricing_plan_id":"cebpf4jnsgd1na2vs0mg"},{"bike_id":"80481db6-5092-4fdb-a834-5b16c330428d","system_id":"levelo_inurba_marseille","lat":43.28152,"lon":5.42641,"is_reserved":false,"is_disabled":false,"rental_uris":{"android":"levelo://app?vid=80481db6-5092-4fdb-a834-5b16c330428d","ios":"levelo://app?vid=80481db6-5092-4fdb-a834-5b16c330428d"},"vehicle_type_id":"4","last_reported":1748016751,"current_range_meters":4000,"station_id":"ce4bhnh2rcd13ifvqgug","pricing_plan_id":"cebpf4jnsgd1na2vs0mg"},{"bike_id":"5dc7fea5-2a02-4c7d-a634-33feda377898","system_id":"levelo_inurba_marseille","lat":43.26917,"lon":5.40282,"is_reserved":false,"is_disabled":false,"rental_uris":{"android":"levelo://app?vid=5dc7fea5-2a02-4c7d-a634-33feda377898","ios":"levelo://app?vid=5dc7fea5-2a02-4c7d-a634-33feda377898"},"vehicle_type_id":"4","last_reported":1748016751,"current_range_meters":4000,"station_id":"cjm6bp8fraef2m0cb0m0","pricing_plan_id":"cebpf4jnsgd1na2vs0mg"},{"bike_id":"ad4d8099-03a6-43ca-966f-189fb83ff678","system_id":"levelo_inurba_marseille","lat":43.31267,"lon":5.37401,"is_reserved":false,"is_disabled":false,"rental_uris":{"android":"levelo://app?vid=ad4d8099-03a6-43ca-966f-189fb83ff678","ios":"levelo://app?vid=ad4d8099-03a6-43ca-966f-189fb83ff678"},"vehicle_type_id":"4","last_reported":1748016751,"current_range_meters":4400,"station_id":"","pricing_plan_id":"cebpf4jnsgd1na2vs0mg"},{"bike_id":"f9fb40c0-1fcd-48cb-8e26-3f2dc0fb2451","system_id":"levelo_inurba_marseille","lat":43.33751,"lon":5.37509,"is_reserved":false,"is_disabled":false,"rental_uris":{"android":"levelo://app?vid=f9fb40c0-1fcd-48cb-8e26-3f2dc0fb2451","ios":"levelo://app?vid=f9fb40c0-1fcd-48cb-8e26-3f2dc0fb2451"},"vehicle_type_id":"4","last_reported":1748016751,"current_range_meters":4400,"station_id":"","pricing_plan_id":"cebpf4jnsgd1na2vs0mg"},{"bike_id":"08dc2002-71b4-4a19-890d-6a4292a7052d","system_id":"levelo_inurba_marseille","lat":43.30339,"lon":5.40419,"is_reserved":false,"is_disabled":false,"rental_uris":{"android":"levelo://app?vid=08dc2002-71b4-4a19-890d-6a4292a7052d","ios":"levelo://app?vid=08dc2002-71b4-4a19-890d-6a4292a7052d"},"vehicle_type_id":"4","last_reported":1748016751,"current_range_meters":4400,"station_id":"ce4bh012rcd13ifvqd10","pricing_plan_id":"cebpf4jnsgd1na2vs0mg"},{"bike_id":"79cf028c-5185-41f0-9cfb-dc1d97b7f8d4","system_id":"levelo_inurba_marseille","lat":43.24174,"lon":5.39738,"is_reserved":false,"is_disabled":false,"rental_uris":{"android":"levelo://app?vid=79cf028c-5185-41f0-9cfb-dc1d97b7f8d4","ios":"levelo://app?vid=79cf028c-5185-41f0-9cfb-dc1d97b7f8d4"},"vehicle_type_id":"4","last_reported":1748016751,"current_range_meters":4400,"station_id":"ce4bhn12rcd13ifvqgpg","pricing_plan_id":"cebpf4jnsgd1na2vs0mg"},{"bike_id":"ffbc956a-0694-4cee-a04f-cbc90c8c5666","system_id":"levelo_inurba_marseille","lat":43.32538,"lon":5.41421,"is_reserved":false,"is_disabled":false,"rental_uris":{"android":"levelo://app?vid=ffbc956a-0694-4cee-a04f-cbc90c8c5666","ios":"levelo://app?vid=ffbc956a-0694-4cee-a04f-cbc90c8c5666"},"vehicle_type_id":"4","last_reported":1748016751,"current_range_meters":4400,"station_id":"ce4bhq12rcd13ifvqhhg","pricing_plan_id":"cebpf4jnsgd1na2vs0mg"},{"bike_id":"4b68900b-1663-4236-aa8c-39c45a53ba19","system_id":"levelo_inurba_marseille","lat":43.29526,"lon":5.37499,"is_reserved":false,"is_disabled":false,"rental_uris":{"android":"levelo://app?vid=4b68900b-1663-4236-aa8c-39c45a53ba19","ios":"levelo://app?vid=4b68900b-1663-4236-aa8c-39c45a53ba19"},"vehicle_type_id":"4","last_reported":1748016751,"current_range_meters":4800,"station_id":"ce4bgkp2rcd13ifvqbmg","pricing_plan_id":"cebpf4jnsgd1na2vs0mg"},{"bike_id":"59f10329-c5ed-4b9e-9c35-ad3f68156a4a","system_id":"levelo_inurba_marseille","lat":43.24806,"lon":5.37461,"is_reserved":false,"is_disabled":false,"rental_uris":{"android":"levelo://app?vid=59f10329-c5ed-4b9e-9c35-ad3f68156a4a","ios":"levelo://app?vid=59f10329-c5ed-4b9e-9c35-ad3f68156a4a"},"vehicle_type_id":"4","last_reported":1748016751,"current_range_meters":4800,"station_id":"ce4bhgh2rcd13ifvqfb0","pricing_plan_id":"cebpf4jnsgd1na2vs0mg"},{"bike_id":"9cfc900a-8da9-4017-b928-d31fa73b24b7","system_id":"levelo_inurba_marseille","lat":43.27997,"lon":5.40016,"is_reserved":false,"is_disabled":false,"rental_uris":{"android":"levelo://app?vid=9cfc900a-8da9-4017-b928-d31fa73b24b7","ios":"levelo://app?vid=9cfc900a-8da9-4017-b928-d31fa73b24b7"},"vehicle_type_id":"4","last_reported":1748016751,"current_range_meters":4800,"station_id":"ce4bho92rcd13ifvqh4g","pricing_plan_id":"cebpf4jnsgd1na2vs0mg"},{"bike_id":"18b5d2c9-75cf-41da-8d77-0ed7751f60bd","system_id":"levelo_inurba_marseille","lat":43.32656,"lon":5.40988,"is_reserved":false,"is_disabled":false,"rental_uris":{"android":"levelo://app?vid=18b5d2c9-75cf-41da-8d77-0ed7751f60bd","ios":"levelo://app?vid=18b5d2c9-75cf-41da-8d77-0ed7751f60bd"},"vehicle_type_id":"4","last_reported":1748016751,"current_range_meters":4800,"station_id":"ce4bhpp2rcd13ifvqhgg","pricing_plan_id":"cebpf4jnsgd1na2vs0mg"},{"bike_id":"404be015-a9c0-4882-a506-ae61789869f0","system_id":"levelo_inurba_marseille","lat":43.297835,"lon":5.393426,"is_reserved":false,"is_disabled":false,"rental_uris":{"android":"levelo://app?vid=404be015-a9c0-4882-a506-ae61789869f0","ios":"levelo://app?vid=404be015-a9c0-4882-a506-ae61789869f0"},"vehicle_type_id":"4","last_reported":1748016751,"current_range_meters":5600,"station_id":"chh1huq6cuj3fo74tm60","pricing_plan_id":"cebpf4jnsgd1na2vs0mg"},{"bike_id":"27653dcd-dec9-4f13-b172-8968c20c1725","system_id":"levelo_inurba_marseille","lat":43.23857,"lon":5.43093,"is_reserved":false,"is_disabled":false,"rental_uris":{"android":"levelo://app?vid=27653dcd-dec9-4f13-b172-8968c20c1725","ios":"levelo://app?vid=27653dcd-dec9-4f13-b172-8968c20c1725"},"vehicle_type_id":"4","last_reported":1748016751,"current_range_meters":6000,"station_id":"","pricing_plan_id":"cebpf4jnsgd1na2vs0mg"},{"bike_id":"151a2a8a-0390-452c-a6bb-fcea168c2582","system_id":"levelo_inurba_marseille","lat":43.30884,"lon":5.39655,"is_reserved":false,"is_disabled":false,"rental_uris":{"android":"levelo://app?vid=151a2a8a-0390-452c-a6bb-fcea168c2582","ios":"levelo://app?vid=151a2a8a-0390-452c-a6bb-fcea168c2582"},"vehicle_type_id":"4","last_reported":1748016751,"current_range_meters":6000,"station_id":"ce4bh012rcd13ifvqcv0","pricing_plan_id":"cebpf4jnsgd1na2vs0mg"},{"bike_id":"0b980cb7-3745-4cd4-8228-9948aced363f","system_id":"levelo_inurba_marseille","lat":43.27203,"lon":5.39185,"is_reserved":false,"is_disabled":false,"rental_uris":{"android":"levelo://app?vid=0b980cb7-3745-4cd4-8228-9948aced363f","ios":"levelo://app?vid=0b980cb7-3745-4cd4-8228-9948aced363f"},"vehicle_type_id":"4","last_reported":1748016751,"current_range_meters":6000,"station_id":"ce4bhhp2rcd13ifvqfm0","pricing_plan_id":"cebpf4jnsgd1na2vs0mg"},{"bike_id":"2beacbd4-9ba8-4aa5-99c8-d3c30bd9fb89","system_id":"levelo_inurba_marseille","lat":43.27998,"lon":5.40035,"is_reserved":false,"is_disabled":false,"rental_uris":{"android":"levelo://app?vid=2beacbd4-9ba8-4aa5-99c8-d3c30bd9fb89","ios":"levelo://app?vid=2beacbd4-9ba8-4aa5-99c8-d3c30bd9fb89"},"vehicle_type_id":"4","last_reported":1748016751,"current_range_meters":6000,"station_id":"ce4bho92rcd13ifvqh4g","pricing_plan_id":"cebpf4jnsgd1na2vs0mg"},{"bike_id":"2695ce94-2939-41cd-83de-8abbf4fd1683","system_id":"levelo_inurba_marseille","lat":43.34139,"lon":5.40904,"is_reserved":false,"is_disabled":false,"rental_uris":{"android":"levelo://app?vid=2695ce94-2939-41cd-83de-8abbf4fd1683","ios":"levelo://app?vid=2695ce94-2939-41cd-83de-8abbf4fd1683"},"vehicle_type_id":"4","last_reported":1748016751,"current_range_meters":6000,"station_id":"ce4bhqh2rcd13ifvqhlg","pricing_plan_id":"cebpf4jnsgd1na2vs0mg"},{"bike_id":"01d48345-e5bb-4a53-84b5-c004e4556c00","system_id":"levelo_inurba_marseille","lat":43.306,"lon":5.37224,"is_reserved":false,"is_disabled":false,"rental_uris":{"android":"levelo://app?vid=01d48345-e5bb-4a53-84b5-c004e4556c00","ios":"levelo://app?vid=01d48345-e5bb-4a53-84b5-c004e4556c00"},"vehicle_type_id":"4","last_reported":1748016751,"current_range_meters":6400,"station_id":"ce4bgqh2rcd13ifvqc4g","pricing_plan_id":"cebpf4jnsgd1na2vs0mg"},{"bike_id":"35ce1c42-db72-44c3-ab0b-bfa306aac8f1","system_id":"levelo_inurba_marseille","lat":43.30796,"lon":5.38158,"is_reserved":false,"is_disabled":false,"rental_uris":{"android":"levelo://app?vid=35ce1c42-db72-44c3-ab0b-bfa306aac8f1","ios":"levelo://app?vid=35ce1c42-db72-44c3-ab0b-bfa306aac8f1"},"vehicle_type_id":"4","last_reported":1748016751,"current_range_meters":6400,"station_id":"ce4bgt12rcd13ifvqce0","pricing_plan_id":"cebpf4jnsgd1na2vs0mg"},{"bike_id":"ffebd037-11f5-4e84-98f5-93dafef18851","system_id":"levelo_inurba_marseille","lat":43.26225,"lon":5.40455,"is_reserved":false,"is_disabled":false,"rental_uris":{"android":"levelo://app?vid=ffebd037-11f5-4e84-98f5-93dafef18851","ios":"levelo://app?vid=ffebd037-11f5-4e84-98f5-93dafef18851"},"vehicle_type_id":"4","last_reported":1748016751,"current_range_meters":6400,"station_id":"ce4bhmh2rcd13ifvqgmg","pricing_plan_id":"cebpf4jnsgd1na2vs0mg"},{"bike_id":"93a344e6-8243-4070-bf43-270634e364fe","system_id":"levelo_inurba_marseille","lat":43.28001,"lon":5.40013,"is_reserved":false,"is_disabled":false,"rental_uris":{"android":"levelo://app?vid=93a344e6-8243-4070-bf43-270634e364fe","ios":"levelo://app?vid=93a344e6-8243-4070-bf43-270634e364fe"},"vehicle_type_id":"4","last_reported":1748016751,"current_range_meters":6400,"station_id":"ce4bho92rcd13ifvqh4g","pricing_plan_id":"cebpf4jnsgd1na2vs0mg"},{"bike_id":"b46d86cc-34fb-4230-ab30-500b91ee952d","system_id":"levelo_inurba_marseille","lat":43.27086,"lon":5.40022,"is_reserved":false,"is_disabled":false,"rental_uris":{"android":"levelo://app?vid=b46d86cc-34fb-4230-ab30-500b91ee952d","ios":"levelo://app?vid=b46d86cc-34fb-4230-ab30-500b91ee952d"},"vehicle_type_id":"4","last_reported":1748016751,"current_range_meters":6800,"station_id":"","pricing_plan_id":"cebpf4jnsgd1na2vs0mg"},{"bike_id":"31110881-d64f-45f8-9810-bbf84a002836","system_id":"levelo_inurba_marseille","lat":43.28341,"lon":5.46135,"is_reserved":false,"is_disabled":false,"rental_uris":{"android":"levelo://app?vid=31110881-d64f-45f8-9810-bbf84a002836","ios":"levelo://app?vid=31110881-d64f-45f8-9810-bbf84a002836"},"vehicle_type_id":"4","last_reported":1748016751,"current_range_meters":6800,"station_id":"","pricing_plan_id":"cebpf4jnsgd1na2vs0mg"},{"bike_id":"d3cc158c-079c-490e-a3d2-039025ded2b3","system_id":"levelo_inurba_marseille","lat":43.30948,"lon":5.39022,"is_reserved":false,"is_disabled":false,"rental_uris":{"android":"levelo://app?vid=d3cc158c-079c-490e-a3d2-039025ded2b3","ios":"levelo://app?vid=d3cc158c-079c-490e-a3d2-039025ded2b3"},"vehicle_type_id":"4","last_reported":1748016751,"current_range_meters":6800,"station_id":"ce4bgup2rcd13ifvqco0","pricing_plan_id":"cebpf4jnsgd1na2vs0mg"},{"bike_id":"23102c0b-7529-4a22-b0c8-27d64df412bc","system_id":"levelo_inurba_marseille","lat":43.31082,"lon":5.38349,"is_reserved":false,"is_disabled":false,"rental_uris":{"android":"levelo://app?vid=23102c0b-7529-4a22-b0c8-27d64df412bc","ios":"levelo://app?vid=23102c0b-7529-4a22-b0c8-27d64df412bc"},"vehicle_type_id":"4","last_reported":1748016751,"current_range_meters":6800,"station_id":"ce4bgv92rcd13ifvqcr0","pricing_plan_id":"cebpf4jnsgd1na2vs0mg"},{"bike_id":"d5803c57-855c-4a8f-91c2-1634d55552bb","system_id":"levelo_inurba_marseille","lat":43.25117,"lon":5.40327,"is_reserved":false,"is_disabled":false,"rental_uris":{"android":"levelo://app?vid=d5803c57-855c-4a8f-91c2-1634d55552bb","ios":"levelo://app?vid=d5803c57-855c-4a8f-91c2-1634d55552bb"},"vehicle_type_id":"4","last_reported":1748016751,"current_range_meters":6800,"station_id":"ce4bhlh2rcd13ifvqgig","pricing_plan_id":"cebpf4jnsgd1na2vs0mg"},{"bike_id":"2ca7a36d-f94a-4a75-8083-db0f9063bb08","system_id":"levelo_inurba_marseille","lat":43.25136,"lon":5.39547,"is_reserved":false,"is_disabled":false,"rental_uris":{"android":"levelo://app?vid=2ca7a36d-f94a-4a75-8083-db0f9063bb08","ios":"levelo://app?vid=2ca7a36d-f94a-4a75-8083-db0f9063bb08"},"vehicle_type_id":"4","last_reported":1748016751,"current_range_meters":6800,"station_id":"ce4bhm12rcd13ifvqgkg","pricing_plan_id":"cebpf4jnsgd1na2vs0mg"},{"bike_id":"5a8b80b8-88dd-4ea2-afa0-df90dbbdc588","system_id":"levelo_inurba_marseille","lat":43.24167,"lon":5.39715,"is_reserved":false,"is_disabled":false,"rental_uris":{"android":"levelo://app?vid=5a8b80b8-88dd-4ea2-afa0-df90dbbdc588","ios":"levelo://app?vid=5a8b80b8-88dd-4ea2-afa0-df90dbbdc588"},"vehicle_type_id":"4","last_reported":1748016751,"current_range_meters":6800,"station_id":"ce4bhn12rcd13ifvqgpg","pricing_plan_id":"cebpf4jnsgd1na2vs0mg"},{"bike_id":"d256c6a4-d35b-4c32-b7db-2bac8ab63b70","system_id":"levelo_inurba_marseille","lat":43.23191,"lon":5.35547,"is_reserved":false,"is_disabled":false,"rental_uris":{"android":"levelo://app?vid=d256c6a4-d35b-4c32-b7db-2bac8ab63b70","ios":"levelo://app?vid=d256c6a4-d35b-4c32-b7db-2bac8ab63b70"},"vehicle_type_id":"4","last_reported":1748016751,"current_range_meters":6800,"station_id":"ce4bhu92rcd13ifvqi70","pricing_plan_id":"cebpf4jnsgd1na2vs0mg"},{"bike_id":"c6453a3a-abe2-4188-af95-7d8b25db4ab4","system_id":"levelo_inurba_marseille","lat":43.22931,"lon":5.35381,"is_reserved":false,"is_disabled":false,"rental_uris":{"android":"levelo://app?vid=c6453a3a-abe2-4188-af95-7d8b25db4ab4","ios":"levelo://app?vid=c6453a3a-abe2-4188-af95-7d8b25db4ab4"},"vehicle_type_id":"4","last_reported":1748016751,"current_range_meters":6800,"station_id":"cpo3532slgdg3j2ikp40","pricing_plan_id":"cebpf4jnsgd1na2vs0mg"},{"bike_id":"950cad50-4e47-43b4-ba8e-d97ac6386634","system_id":"levelo_inurba_marseille","lat":43.255774,"lon":5.382209,"is_reserved":false,"is_disabled":false,"rental_uris":{"android":"levelo://app?vid=950cad50-4e47-43b4-ba8e-d97ac6386634","ios":"levelo://app?vid=950cad50-4e47-43b4-ba8e-d97ac6386634"},"vehicle_type_id":"4","last_reported":1748016751,"current_range_meters":7200,"station_id":"","pricing_plan_id":"cebpf4jnsgd1na2vs0mg"},{"bike_id":"00082076-22b9-4ab7-b889-2b47c842e290","system_id":"levelo_inurba_marseille","lat":43.31117,"lon":5.37757,"is_reserved":false,"is_disabled":false,"rental_uris":{"android":"levelo://app?vid=00082076-22b9-4ab7-b889-2b47c842e290","ios":"levelo://app?vid=00082076-22b9-4ab7-b889-2b47c842e290"},"vehicle_type_id":"4","last_reported":1748016751,"current_range_meters":7200,"station_id":"ce4bgt92rcd13ifvqcg0","pricing_plan_id":"cebpf4jnsgd1na2vs0mg"},{"bike_id":"90c667ab-28e0-43bd-a854-060ba0f89c0a","system_id":"levelo_inurba_marseille","lat":43.25577,"lon":5.38251,"is_reserved":false,"is_disabled":false,"rental_uris":{"android":"levelo://app?vid=90c667ab-28e0-43bd-a854-060ba0f89c0a","ios":"levelo://app?vid=90c667ab-28e0-43bd-a854-060ba0f89c0a"},"vehicle_type_id":"4","last_reported":1748016751,"current_range_meters":7200,"station_id":"ce4bhih2rcd13ifvqfs0","pricing_plan_id":"cebpf4jnsgd1na2vs0mg"},{"bike_id":"7e0b26f6-a1cd-4c61-bfb5-0179abcce75c","system_id":"levelo_inurba_marseille","lat":43.283482,"lon":5.386753,"is_reserved":false,"is_disabled":false,"rental_uris":{"android":"levelo://app?vid=7e0b26f6-a1cd-4c61-bfb5-0179abcce75c","ios":"levelo://app?vid=7e0b26f6-a1cd-4c61-bfb5-0179abcce75c"},"vehicle_type_id":"4","last_reported":1748016751,"current_range_meters":7200,"station_id":"ce4bhoh2rcd13ifvqh5g","pricing_plan_id":"cebpf4jnsgd1na2vs0mg"},{"bike_id":"4e59ae72-b083-4788-93c1-a7e324b89ef1","system_id":"levelo_inurba_marseille","lat":43.291261,"lon":5.382963,"is_reserved":false,"is_disabled":false,"rental_uris":{"android":"levelo://app?vid=4e59ae72-b083-4788-93c1-a7e324b89ef1","ios":"levelo://app?vid=4e59ae72-b083-4788-93c1-a7e324b89ef1"},"vehicle_type_id":"4","last_reported":1748016751,"current_range_meters":8000,"station_id":"","pricing_plan_id":"cebpf4jnsgd1na2vs0mg"},{"bike_id":"7dfdfdc8-9c79-46b6-9a4b-924773b53f29","system_id":"levelo_inurba_marseille","lat":43.2688,"lon":5.39173,"is_reserved":false,"is_disabled":false,"rental_uris":{"android":"levelo://app?vid=7dfdfdc8-9c79-46b6-9a4b-924773b53f29","ios":"levelo://app?vid=7dfdfdc8-9c79-46b6-9a4b-924773b53f29"},"vehicle_type_id":"4","last_reported":1748016751,"current_range_meters":8000,"station_id":"","pricing_plan_id":"cebpf4jnsgd1na2vs0mg"},{"bike_id":"02096acb-52b4-49df-b004-363fc336dc85","system_id":"levelo_inurba_marseille","lat":43.31075,"lon":5.38355,"is_reserved":false,"is_disabled":false,"rental_uris":{"android":"levelo://app?vid=02096acb-52b4-49df-b004-363fc336dc85","ios":"levelo://app?vid=02096acb-52b4-49df-b004-363fc336dc85"},"vehicle_type_id":"4","last_reported":1748016751,"current_range_meters":8000,"station_id":"ce4bgv92rcd13ifvqcr0","pricing_plan_id":"cebpf4jnsgd1na2vs0mg"},{"bike_id":"bcd6d9c7-b73e-46e4-9888-3f1b7603bd97","system_id":"levelo_inurba_marseille","lat":43.29039,"lon":5.37544,"is_reserved":false,"is_disabled":false,"rental_uris":{"android":"levelo://app?vid=bcd6d9c7-b73e-46e4-9888-3f1b7603bd97","ios":"levelo://app?vid=bcd6d9c7-b73e-46e4-9888-3f1b7603bd97"},"vehicle_type_id":"4","last_reported":1748016751,"current_range_meters":8000,"station_id":"ce4bh692rcd13ifvqe90","pricing_plan_id":"cebpf4jnsgd1na2vs0mg"},{"bike_id":"fd0ffa9c-b1e2-4c5e-821f-2048fa845957","system_id":"levelo_inurba_marseille","lat":43.27462,"lon":5.3942,"is_reserved":false,"is_disabled":false,"rental_uris":{"android":"levelo://app?vid=fd0ffa9c-b1e2-4c5e-821f-2048fa845957","ios":"levelo://app?vid=fd0ffa9c-b1e2-4c5e-821f-2048fa845957"},"vehicle_type_id":"4","last_reported":1748016751,"current_range_meters":8000,"station_id":"ce4bhdp2rcd13ifvqf20","pricing_plan_id":"cebpf4jnsgd1na2vs0mg"},{"bike_id":"642cb7b7-e7c4-4185-b975-0e4bd47c9f56","system_id":"levelo_inurba_marseille","lat":43.25581,"lon":5.38221,"is_reserved":false,"is_disabled":false,"rental_uris":{"android":"levelo://app?vid=642cb7b7-e7c4-4185-b975-0e4bd47c9f56","ios":"levelo://app?vid=642cb7b7-e7c4-4185-b975-0e4bd47c9f56"},"vehicle_type_id":"4","last_reported":1748016751,"current_range_meters":8000,"station_id":"ce4bhih2rcd13ifvqfs0","pricing_plan_id":"cebpf4jnsgd1na2vs0mg"},{"bike_id":"e20c23e7-a959-46f5-8695-90cce15f54ce","system_id":"levelo_inurba_marseille","lat":43.26204,"lon":5.37928,"is_reserved":false,"is_disabled":false,"rental_uris":{"android":"levelo://app?vid=e20c23e7-a959-46f5-8695-90cce15f54ce","ios":"levelo://app?vid=e20c23e7-a959-46f5-8695-90cce15f54ce"},"vehicle_type_id":"4","last_reported":1748016751,"current_range_meters":8000,"station_id":"ce4bhjp2rcd13ifvqg90","pricing_plan_id":"cebpf4jnsgd1na2vs0mg"},{"bike_id":"30d49d23-f08a-4506-b918-c39e5ce750b9","system_id":"levelo_inurba_marseille","lat":43.268057,"lon":5.40269,"is_reserved":false,"is_disabled":false,"rental_uris":{"android":"levelo://app?vid=30d49d23-f08a-4506-b918-c39e5ce750b9","ios":"levelo://app?vid=30d49d23-f08a-4506-b918-c39e5ce750b9"},"vehicle_type_id":"4","last_reported":1748016751,"current_range_meters":8000,"station_id":"ce501612rcd8frsf0b60","pricing_plan_id":"cebpf4jnsgd1na2vs0mg"},{"bike_id":"01ddaa1a-eb5e-48a6-afd1-086e21b7bd9f","system_id":"levelo_inurba_marseille","lat":43.29329,"lon":5.41177,"is_reserved":false,"is_disabled":false,"rental_uris":{"android":"levelo://app?vid=01ddaa1a-eb5e-48a6-afd1-086e21b7bd9f","ios":"levelo://app?vid=01ddaa1a-eb5e-48a6-afd1-086e21b7bd9f"},"vehicle_type_id":"4","last_reported":1748016751,"current_range_meters":8400,"station_id":"","pricing_plan_id":"cebpf4jnsgd1na2vs0mg"},{"bike_id":"c6fe135c-b3da-4fed-81ea-905140ca35f1","system_id":"levelo_inurba_marseille","lat":43.295241,"lon":5.374981,"is_reserved":false,"is_disabled":false,"rental_uris":{"android":"levelo://app?vid=c6fe135c-b3da-4fed-81ea-905140ca35f1","ios":"levelo://app?vid=c6fe135c-b3da-4fed-81ea-905140ca35f1"},"vehicle_type_id":"4","last_reported":1748016751,"current_range_meters":8400,"station_id":"ce4bgkp2rcd13ifvqbmg","pricing_plan_id":"cebpf4jnsgd1na2vs0mg"},{"bike_id":"37b1852f-5fd5-404a-a7da-9e4177ed659d","system_id":"levelo_inurba_marseille","lat":43.27208,"lon":5.39177,"is_reserved":false,"is_disabled":false,"rental_uris":{"android":"levelo://app?vid=37b1852f-5fd5-404a-a7da-9e4177ed659d","ios":"levelo://app?vid=37b1852f-5fd5-404a-a7da-9e4177ed659d"},"vehicle_type_id":"4","last_reported":1748016751,"current_range_meters":8400,"station_id":"ce4bhhp2rcd13ifvqfm0","pricing_plan_id":"cebpf4jnsgd1na2vs0mg"},{"bike_id":"9746146c-2867-4753-8b17-b68e1260a567","system_id":"levelo_inurba_marseille","lat":43.25084,"lon":5.3953,"is_reserved":false,"is_disabled":false,"rental_uris":{"android":"levelo://app?vid=9746146c-2867-4753-8b17-b68e1260a567","ios":"levelo://app?vid=9746146c-2867-4753-8b17-b68e1260a567"},"vehicle_type_id":"4","last_reported":1748016751,"current_range_meters":8400,"station_id":"ce4bhm12rcd13ifvqgkg","pricing_plan_id":"cebpf4jnsgd1na2vs0mg"},{"bike_id":"2e71cd52-8786-44c9-ba7f-62441aae2983","system_id":"levelo_inurba_marseille","lat":43.24078,"lon":5.37747,"is_reserved":false,"is_disabled":false,"rental_uris":{"android":"levelo://app?vid=2e71cd52-8786-44c9-ba7f-62441aae2983","ios":"levelo://app?vid=2e71cd52-8786-44c9-ba7f-62441aae2983"},"vehicle_type_id":"4","last_reported":1748016751,"current_range_meters":8400,"station_id":"ce4bhnp2rcd13ifvqgvg","pricing_plan_id":"cebpf4jnsgd1na2vs0mg"},{"bike_id":"9344fe9f-1b42-4291-b728-59eaa355fbf6","system_id":"levelo_inurba_marseille","lat":43.27992,"lon":5.40021,"is_reserved":false,"is_disabled":false,"rental_uris":{"android":"levelo://app?vid=9344fe9f-1b42-4291-b728-59eaa355fbf6","ios":"levelo://app?vid=9344fe9f-1b42-4291-b728-59eaa355fbf6"},"vehicle_type_id":"4","last_reported":1748016751,"current_range_meters":8400,"station_id":"ce4bho92rcd13ifvqh4g","pricing_plan_id":"cebpf4jnsgd1na2vs0mg"},{"bike_id":"c2ea5a9c-8fd7-40ac-8515-427466010d70","system_id":"levelo_inurba_marseille","lat":43.32114,"lon":5.36755,"is_reserved":false,"is_disabled":false,"rental_uris":{"android":"levelo://app?vid=c2ea5a9c-8fd7-40ac-8515-427466010d70","ios":"levelo://app?vid=c2ea5a9c-8fd7-40ac-8515-427466010d70"},"vehicle_type_id":"4","last_reported":1748016751,"current_range_meters":8400,"station_id":"ce4bhrh2rcd13ifvqhug","pricing_plan_id":"cebpf4jnsgd1na2vs0mg"},{"bike_id":"f6a00f80-9779-4cfe-87e7-e11066fad8ec","system_id":"levelo_inurba_marseille","lat":43.289198,"lon":5.384069,"is_reserved":false,"is_disabled":false,"rental_uris":{"android":"levelo://app?vid=f6a00f80-9779-4cfe-87e7-e11066fad8ec","ios":"levelo://app?vid=f6a00f80-9779-4cfe-87e7-e11066fad8ec"},"vehicle_type_id":"4","last_reported":1748016751,"current_range_meters":8800,"station_id":"ce4bh612rcd13ifvqe6g","pricing_plan_id":"cebpf4jnsgd1na2vs0mg"},{"bike_id":"192575ac-dcb1-4f78-a5b2-bfed6aeac741","system_id":"levelo_inurba_marseille","lat":43.27422,"lon":5.39407,"is_reserved":false,"is_disabled":false,"rental_uris":{"android":"levelo://app?vid=192575ac-dcb1-4f78-a5b2-bfed6aeac741","ios":"levelo://app?vid=192575ac-dcb1-4f78-a5b2-bfed6aeac741"},"vehicle_type_id":"4","last_reported":1748016751,"current_range_meters":8800,"station_id":"ce4bhdp2rcd13ifvqf20","pricing_plan_id":"cebpf4jnsgd1na2vs0mg"},{"bike_id":"ad04624c-8795-4dee-8c56-0b1afdb0221f","system_id":"levelo_inurba_marseille","lat":43.25493,"lon":5.37664,"is_reserved":false,"is_disabled":false,"rental_uris":{"android":"levelo://app?vid=ad04624c-8795-4dee-8c56-0b1afdb0221f","ios":"levelo://app?vid=ad04624c-8795-4dee-8c56-0b1afdb0221f"},"vehicle_type_id":"4","last_reported":1748016751,"current_range_meters":8800,"station_id":"ce4bhh12rcd13ifvqff0","pricing_plan_id":"cebpf4jnsgd1na2vs0mg"},{"bike_id":"8f896326-1769-4c06-9503-09065da834ed","system_id":"levelo_inurba_marseille","lat":43.25865,"lon":5.39896,"is_reserved":false,"is_disabled":false,"rental_uris":{"android":"levelo://app?vid=8f896326-1769-4c06-9503-09065da834ed","ios":"levelo://app?vid=8f896326-1769-4c06-9503-09065da834ed"},"vehicle_type_id":"4","last_reported":1748016751,"current_range_meters":8800,"station_id":"ce4bhl92rcd13ifvqghg","pricing_plan_id":"cebpf4jnsgd1na2vs0mg"},{"bike_id":"ce524b7e-0ab7-48f5-a806-f16b8307ee7e","system_id":"levelo_inurba_marseille","lat":43.28152,"lon":5.42646,"is_reserved":false,"is_disabled":false,"rental_uris":{"android":"levelo://app?vid=ce524b7e-0ab7-48f5-a806-f16b8307ee7e","ios":"levelo://app?vid=ce524b7e-0ab7-48f5-a806-f16b8307ee7e"},"vehicle_type_id":"4","last_reported":1748016751,"current_range_meters":8800,"station_id":"ce4bhnh2rcd13ifvqgug","pricing_plan_id":"cebpf4jnsgd1na2vs0mg"},{"bike_id":"d212ad20-625e-4ecb-8914-e8f325b78175","system_id":"levelo_inurba_marseille","lat":43.26935,"lon":5.40255,"is_reserved":false,"is_disabled":false,"rental_uris":{"android":"levelo://app?vid=d212ad20-625e-4ecb-8914-e8f325b78175","ios":"levelo://app?vid=d212ad20-625e-4ecb-8914-e8f325b78175"},"vehicle_type_id":"4","last_reported":1748016751,"current_range_meters":8800,"station_id":"cjm6bp8fraef2m0cb0m0","pricing_plan_id":"cebpf4jnsgd1na2vs0mg"},{"bike_id":"68bfc4cb-61ab-43c3-ab88-17645cafe6e7","system_id":"levelo_inurba_marseille","lat":43.31741,"lon":5.37589,"is_reserved":false,"is_disabled":false,"rental_uris":{"android":"levelo://app?vid=68bfc4cb-61ab-43c3-ab88-17645cafe6e7","ios":"levelo://app?vid=68bfc4cb-61ab-43c3-ab88-17645cafe6e7"},"vehicle_type_id":"4","last_reported":1748016751,"current_range_meters":9200,"station_id":"","pricing_plan_id":"cebpf4jnsgd1na2vs0mg"},{"bike_id":"927e89ba-ae39-4493-bb00-843759fc59ec","system_id":"levelo_inurba_marseille","lat":43.28678,"lon":5.38666,"is_reserved":false,"is_disabled":false,"rental_uris":{"android":"levelo://app?vid=927e89ba-ae39-4493-bb00-843759fc59ec","ios":"levelo://app?vid=927e89ba-ae39-4493-bb00-843759fc59ec"},"vehicle_type_id":"4","last_reported":1748016751,"current_range_meters":9200,"station_id":"ce4bh492rcd13ifvqdug","pricing_plan_id":"cebpf4jnsgd1na2vs0mg"},{"bike_id":"71432bf2-393f-491a-b3b3-712c8446457c","system_id":"levelo_inurba_marseille","lat":43.24387,"lon":5.3706,"is_reserved":false,"is_disabled":false,"rental_uris":{"android":"levelo://app?vid=71432bf2-393f-491a-b3b3-712c8446457c","ios":"levelo://app?vid=71432bf2-393f-491a-b3b3-712c8446457c"},"vehicle_type_id":"4","last_reported":1748016751,"current_range_meters":9200,"station_id":"ce4bhhh2rcd13ifvqfk0","pricing_plan_id":"cebpf4jnsgd1na2vs0mg"},{"bike_id":"767688b4-41f0-42c7-98ac-c1b5ad7cd885","system_id":"levelo_inurba_marseille","lat":43.25574,"lon":5.38239,"is_reserved":false,"is_disabled":false,"rental_uris":{"android":"levelo://app?vid=767688b4-41f0-42c7-98ac-c1b5ad7cd885","ios":"levelo://app?vid=767688b4-41f0-42c7-98ac-c1b5ad7cd885"},"vehicle_type_id":"4","last_reported":1748016751,"current_range_meters":9200,"station_id":"ce4bhih2rcd13ifvqfs0","pricing_plan_id":"cebpf4jnsgd1na2vs0mg"},{"bike_id":"2766414c-d853-4d8d-9b75-ee3030675ac9","system_id":"levelo_inurba_marseille","lat":43.23153,"lon":5.4371,"is_reserved":false,"is_disabled":false,"rental_uris":{"android":"levelo://app?vid=2766414c-d853-4d8d-9b75-ee3030675ac9","ios":"levelo://app?vid=2766414c-d853-4d8d-9b75-ee3030675ac9"},"vehicle_type_id":"4","last_reported":1748016751,"current_range_meters":9200,"station_id":"ce4bhmp2rcd13ifvqgog","pricing_plan_id":"cebpf4jnsgd1na2vs0mg"},{"bike_id":"2d5f7454-a4a6-4e8b-9495-8d6b94c61ba5","system_id":"levelo_inurba_marseille","lat":43.22931,"lon":5.35379,"is_reserved":false,"is_disabled":false,"rental_uris":{"android":"levelo://app?vid=2d5f7454-a4a6-4e8b-9495-8d6b94c61ba5","ios":"levelo://app?vid=2d5f7454-a4a6-4e8b-9495-8d6b94c61ba5"},"vehicle_type_id":"4","last_reported":1748016751,"current_range_meters":9200,"station_id":"cpo3532slgdg3j2ikp40","pricing_plan_id":"cebpf4jnsgd1na2vs0mg"},{"bike_id":"e3e19b90-9823-4b53-b8a7-4c599b3176c2","system_id":"levelo_inurba_marseille","lat":43.25092,"lon":5.40375,"is_reserved":false,"is_disabled":false,"rental_uris":{"android":"levelo://app?vid=e3e19b90-9823-4b53-b8a7-4c599b3176c2","ios":"levelo://app?vid=e3e19b90-9823-4b53-b8a7-4c599b3176c2"},"vehicle_type_id":"4","last_reported":1748016751,"current_range_meters":9600,"station_id":"ce4bhlh2rcd13ifvqgig","pricing_plan_id":"cebpf4jnsgd1na2vs0mg"},{"bike_id":"4b63e35c-d60f-40b7-a046-8ac2772fac2f","system_id":"levelo_inurba_marseille","lat":43.25102,"lon":5.39525,"is_reserved":false,"is_disabled":false,"rental_uris":{"android":"levelo://app?vid=4b63e35c-d60f-40b7-a046-8ac2772fac2f","ios":"levelo://app?vid=4b63e35c-d60f-40b7-a046-8ac2772fac2f"},"vehicle_type_id":"4","last_reported":1748016751,"current_range_meters":9600,"station_id":"ce4bhm12rcd13ifvqgkg","pricing_plan_id":"cebpf4jnsgd1na2vs0mg"},{"bike_id":"780d44ea-9dfa-4892-93ef-998d12415c0d","system_id":"levelo_inurba_marseille","lat":43.26934,"lon":5.40264,"is_reserved":false,"is_disabled":false,"rental_uris":{"android":"levelo://app?vid=780d44ea-9dfa-4892-93ef-998d12415c0d","ios":"levelo://app?vid=780d44ea-9dfa-4892-93ef-998d12415c0d"},"vehicle_type_id":"4","last_reported":1748016751,"current_range_meters":9600,"station_id":"cjm6bp8fraef2m0cb0m0","pricing_plan_id":"cebpf4jnsgd1na2vs0mg"},{"bike_id":"8b602757-04dc-4d0f-b397-fb4704e467e2","system_id":"levelo_inurba_marseille","lat":43.25114,"lon":5.40315,"is_reserved":false,"is_disabled":false,"rental_uris":{"android":"levelo://app?vid=8b602757-04dc-4d0f-b397-fb4704e467e2","ios":"levelo://app?vid=8b602757-04dc-4d0f-b397-fb4704e467e2"},"vehicle_type_id":"4","last_reported":1748016751,"current_range_meters":10000,"station_id":"ce4bhlh2rcd13ifvqgig","pricing_plan_id":"cebpf4jnsgd1na2vs0mg"},{"bike_id":"3da04a3a-16dd-46bd-a906-a6561bf763a8","system_id":"levelo_inurba_marseille","lat":43.32966,"lon":5.39378,"is_reserved":false,"is_disabled":false,"rental_uris":{"android":"levelo://app?vid=3da04a3a-16dd-46bd-a906-a6561bf763a8","ios":"levelo://app?vid=3da04a3a-16dd-46bd-a906-a6561bf763a8"},"vehicle_type_id":"4","last_reported":1748016751,"current_range_meters":10800,"station_id":"","pricing_plan_id":"cebpf4jnsgd1na2vs0mg"},{"bike_id":"1f8f2cf8-e258-4b66-9b66-66da44b9c55c","system_id":"levelo_inurba_marseille","lat":43.30989,"lon":5.40222,"is_reserved":false,"is_disabled":false,"rental_uris":{"android":"levelo://app?vid=1f8f2cf8-e258-4b66-9b66-66da44b9c55c","ios":"levelo://app?vid=1f8f2cf8-e258-4b66-9b66-66da44b9c55c"},"vehicle_type_id":"4","last_reported":1748016751,"current_range_meters":10800,"station_id":"","pricing_plan_id":"cebpf4jnsgd1na2vs0mg"},{"bike_id":"6afcdc58-f5d7-43b9-9f61-5517b0029cf4","system_id":"levelo_inurba_marseille","lat":43.28037,"lon":5.36951,"is_reserved":false,"is_disabled":false,"rental_uris":{"android":"levelo://app?vid=6afcdc58-f5d7-43b9-9f61-5517b0029cf4","ios":"levelo://app?vid=6afcdc58-f5d7-43b9-9f61-5517b0029cf4"},"vehicle_type_id":"4","last_reported":1748016751,"current_range_meters":10800,"station_id":"ce4bha12rcd13ifvqef0","pricing_plan_id":"cebpf4jnsgd1na2vs0mg"},{"bike_id":"cec3ef94-1dd0-4af6-9645-2c0bec8bb708","system_id":"levelo_inurba_marseille","lat":43.28421,"lon":5.34977,"is_reserved":false,"is_disabled":false,"rental_uris":{"android":"levelo://app?vid=cec3ef94-1dd0-4af6-9645-2c0bec8bb708","ios":"levelo://app?vid=cec3ef94-1dd0-4af6-9645-2c0bec8bb708"},"vehicle_type_id":"4","last_reported":1748016751,"current_range_meters":10800,"station_id":"ce4bhbh2rcd13ifvqepg","pricing_plan_id":"cebpf4jnsgd1na2vs0mg"},{"bike_id":"afb9cb9b-9bff-4851-8de3-fa7cf5f47289","system_id":"levelo_inurba_marseille","lat":43.26783,"lon":5.39423,"is_reserved":false,"is_disabled":false,"rental_uris":{"android":"levelo://app?vid=afb9cb9b-9bff-4851-8de3-fa7cf5f47289","ios":"levelo://app?vid=afb9cb9b-9bff-4851-8de3-fa7cf5f47289"},"vehicle_type_id":"4","last_reported":1748016751,"current_range_meters":10800,"station_id":"ce4bhh12rcd13ifvqfg0","pricing_plan_id":"cebpf4jnsgd1na2vs0mg"},{"bike_id":"3af1902c-c1d0-49b2-ab59-6dd7ff411dd2","system_id":"levelo_inurba_marseille","lat":43.25872,"lon":5.39906,"is_reserved":false,"is_disabled":false,"rental_uris":{"android":"levelo://app?vid=3af1902c-c1d0-49b2-ab59-6dd7ff411dd2","ios":"levelo://app?vid=3af1902c-c1d0-49b2-ab59-6dd7ff411dd2"},"vehicle_type_id":"4","last_reported":1748016751,"current_range_meters":10800,"station_id":"ce4bhl92rcd13ifvqghg","pricing_plan_id":"cebpf4jnsgd1na2vs0mg"},{"bike_id":"760429cd-16f5-4a3c-b23e-73c9ce2e5270","system_id":"levelo_inurba_marseille","lat":43.26807,"lon":5.40265,"is_reserved":false,"is_disabled":false,"rental_uris":{"android":"levelo://app?vid=760429cd-16f5-4a3c-b23e-73c9ce2e5270","ios":"levelo://app?vid=760429cd-16f5-4a3c-b23e-73c9ce2e5270"},"vehicle_type_id":"4","last_reported":1748016751,"current_range_meters":10800,"station_id":"ce501612rcd8frsf0b60","pricing_plan_id":"cebpf4jnsgd1na2vs0mg"},{"bike_id":"6039b37e-1a50-4450-8231-4e3883790e0c","system_id":"levelo_inurba_marseille","lat":43.29847,"lon":5.36284,"is_reserved":false,"is_disabled":false,"rental_uris":{"android":"levelo://app?vid=6039b37e-1a50-4450-8231-4e3883790e0c","ios":"levelo://app?vid=6039b37e-1a50-4450-8231-4e3883790e0c"},"vehicle_type_id":"4","last_reported":1748016751,"current_range_meters":11200,"station_id":"ce4bgpp2rcd13ifvqc3g","pricing_plan_id":"cebpf4jnsgd1na2vs0mg"},{"bike_id":"8fb3d020-e972-4c5a-8b3c-2532003681bf","system_id":"levelo_inurba_marseille","lat":43.28636,"lon":5.35108,"is_reserved":false,"is_disabled":false,"rental_uris":{"android":"levelo://app?vid=8fb3d020-e972-4c5a-8b3c-2532003681bf","ios":"levelo://app?vid=8fb3d020-e972-4c5a-8b3c-2532003681bf"},"vehicle_type_id":"4","last_reported":1748016751,"current_range_meters":11200,"station_id":"ce4bhch2rcd13ifvqeug","pricing_plan_id":"cebpf4jnsgd1na2vs0mg"},{"bike_id":"49de7268-0b1b-4af7-8c76-8fb0da81bd1b","system_id":"levelo_inurba_marseille","lat":43.27312,"lon":5.39068,"is_reserved":false,"is_disabled":false,"rental_uris":{"android":"levelo://app?vid=49de7268-0b1b-4af7-8c76-8fb0da81bd1b","ios":"levelo://app?vid=49de7268-0b1b-4af7-8c76-8fb0da81bd1b"},"vehicle_type_id":"4","last_reported":1748016751,"current_range_meters":11200,"station_id":"ce4bhgp2rcd13ifvqfe0","pricing_plan_id":"cebpf4jnsgd1na2vs0mg"},{"bike_id":"14bda1b4-d0d7-4a51-ad87-fb0be158057d","system_id":"levelo_inurba_marseille","lat":43.26497,"lon":5.39538,"is_reserved":false,"is_disabled":false,"rental_uris":{"android":"levelo://app?vid=14bda1b4-d0d7-4a51-ad87-fb0be158057d","ios":"levelo://app?vid=14bda1b4-d0d7-4a51-ad87-fb0be158057d"},"vehicle_type_id":"4","last_reported":1748016751,"current_range_meters":11200,"station_id":"ce4bhi12rcd13ifvqfq0","pricing_plan_id":"cebpf4jnsgd1na2vs0mg"},{"bike_id":"1e164eaf-2ffb-4814-9442-b43f6b5c9f80","system_id":"levelo_inurba_marseille","lat":43.24157,"lon":5.364125,"is_reserved":false,"is_disabled":false,"rental_uris":{"android":"levelo://app?vid=1e164eaf-2ffb-4814-9442-b43f6b5c9f80","ios":"levelo://app?vid=1e164eaf-2ffb-4814-9442-b43f6b5c9f80"},"vehicle_type_id":"4","last_reported":1748016751,"current_range_meters":11200,"station_id":"cpo36qri1sfpv3e86is0","pricing_plan_id":"cebpf4jnsgd1na2vs0mg"},{"bike_id":"a4179126-b4bf-45d1-b6fb-cc7ea73d516a","system_id":"levelo_inurba_marseille","lat":43.29554,"lon":5.37503,"is_reserved":false,"is_disabled":false,"rental_uris":{"android":"levelo://app?vid=a4179126-b4bf-45d1-b6fb-cc7ea73d516a","ios":"levelo://app?vid=a4179126-b4bf-45d1-b6fb-cc7ea73d516a"},"vehicle_type_id":"4","last_reported":1748016751,"current_range_meters":11600,"station_id":"ce4bgkp2rcd13ifvqbmg","pricing_plan_id":"cebpf4jnsgd1na2vs0mg"},{"bike_id":"868cbb19-a526-4d52-82d0-ae920123d8a9","system_id":"levelo_inurba_marseille","lat":43.284196,"lon":5.349802,"is_reserved":false,"is_disabled":false,"rental_uris":{"android":"levelo://app?vid=868cbb19-a526-4d52-82d0-ae920123d8a9","ios":"levelo://app?vid=868cbb19-a526-4d52-82d0-ae920123d8a9"},"vehicle_type_id":"4","last_reported":1748016751,"current_range_meters":11600,"station_id":"ce4bhbh2rcd13ifvqepg","pricing_plan_id":"cebpf4jnsgd1na2vs0mg"},{"bike_id":"b5f3d0c7-9ede-4329-a9b9-096aaf824960","system_id":"levelo_inurba_marseille","lat":43.27207,"lon":5.39186,"is_reserved":false,"is_disabled":false,"rental_uris":{"android":"levelo://app?vid=b5f3d0c7-9ede-4329-a9b9-096aaf824960","ios":"levelo://app?vid=b5f3d0c7-9ede-4329-a9b9-096aaf824960"},"vehicle_type_id":"4","last_reported":1748016751,"current_range_meters":11600,"station_id":"ce4bhhp2rcd13ifvqfm0","pricing_plan_id":"cebpf4jnsgd1na2vs0mg"},{"bike_id":"8c0034cb-0bd0-4c1e-a070-cff72092d237","system_id":"levelo_inurba_marseille","lat":43.27836,"lon":5.39211,"is_reserved":false,"is_disabled":false,"rental_uris":{"android":"levelo://app?vid=8c0034cb-0bd0-4c1e-a070-cff72092d237","ios":"levelo://app?vid=8c0034cb-0bd0-4c1e-a070-cff72092d237"},"vehicle_type_id":"4","last_reported":1748016751,"current_range_meters":11600,"station_id":"ce4bhjp2rcd13ifvqga0","pricing_plan_id":"cebpf4jnsgd1na2vs0mg"},{"bike_id":"b10acc13-4e30-4326-9a0c-2f5b30785370","system_id":"levelo_inurba_marseille","lat":43.280833,"lon":5.396607,"is_reserved":false,"is_disabled":false,"rental_uris":{"android":"levelo://app?vid=b10acc13-4e30-4326-9a0c-2f5b30785370","ios":"levelo://app?vid=b10acc13-4e30-4326-9a0c-2f5b30785370"},"vehicle_type_id":"4","last_reported":1748016751,"current_range_meters":11600,"station_id":"ce4bho12rcd13ifvqh2g","pricing_plan_id":"cebpf4jnsgd1na2vs0mg"},{"bike_id":"2ea50577-1176-467c-8d1f-ce07d6571fb8","system_id":"levelo_inurba_marseille","lat":43.23221,"lon":5.3556,"is_reserved":false,"is_disabled":false,"rental_uris":{"android":"levelo://app?vid=2ea50577-1176-467c-8d1f-ce07d6571fb8","ios":"levelo://app?vid=2ea50577-1176-467c-8d1f-ce07d6571fb8"},"vehicle_type_id":"4","last_reported":1748016751,"current_range_meters":11600,"station_id":"ce4bhu92rcd13ifvqi70","pricing_plan_id":"cebpf4jnsgd1na2vs0mg"},{"bike_id":"937e3123-d8ab-475e-a1eb-af8c96706094","system_id":"levelo_inurba_marseille","lat":43.31169,"lon":5.38719,"is_reserved":false,"is_disabled":false,"rental_uris":{"android":"levelo://app?vid=937e3123-d8ab-475e-a1eb-af8c96706094","ios":"levelo://app?vid=937e3123-d8ab-475e-a1eb-af8c96706094"},"vehicle_type_id":"4","last_reported":1748016751,"current_range_meters":12000,"station_id":"ce4bgv12rcd13ifvqcp0","pricing_plan_id":"cebpf4jnsgd1na2vs0mg"},{"bike_id":"cacf60b0-0f1d-4a30-bcb2-b172f45f20e9","system_id":"levelo_inurba_marseille","lat":43.28613,"lon":5.35116,"is_reserved":false,"is_disabled":false,"rental_uris":{"android":"levelo://app?vid=cacf60b0-0f1d-4a30-bcb2-b172f45f20e9","ios":"levelo://app?vid=cacf60b0-0f1d-4a30-bcb2-b172f45f20e9"},"vehicle_type_id":"4","last_reported":1748016751,"current_range_meters":12000,"station_id":"ce4bhch2rcd13ifvqeug","pricing_plan_id":"cebpf4jnsgd1na2vs0mg"},{"bike_id":"ee210768-bc1e-4abc-b93e-7dc83ee716ea","system_id":"levelo_inurba_marseille","lat":43.26207,"lon":5.37447,"is_reserved":false,"is_disabled":false,"rental_uris":{"android":"levelo://app?vid=ee210768-bc1e-4abc-b93e-7dc83ee716ea","ios":"levelo://app?vid=ee210768-bc1e-4abc-b93e-7dc83ee716ea"},"vehicle_type_id":"4","last_reported":1748016751,"current_range_meters":12000,"station_id":"ce4bhgp2rcd13ifvqfc0","pricing_plan_id":"cebpf4jnsgd1na2vs0mg"},{"bike_id":"fa529a29-8d21-4f13-9783-e1708a99c344","system_id":"levelo_inurba_marseille","lat":43.246516,"lon":5.388955,"is_reserved":false,"is_disabled":false,"rental_uris":{"android":"levelo://app?vid=fa529a29-8d21-4f13-9783-e1708a99c344","ios":"levelo://app?vid=fa529a29-8d21-4f13-9783-e1708a99c344"},"vehicle_type_id":"4","last_reported":1748016751,"current_range_meters":12000,"station_id":"ce4bhlh2rcd13ifvqgig","pricing_plan_id":"cebpf4jnsgd1na2vs0mg"},{"bike_id":"f84e7850-4e38-4a2f-8058-4b5888bcc49b","system_id":"levelo_inurba_marseille","lat":43.32106,"lon":5.36776,"is_reserved":false,"is_disabled":false,"rental_uris":{"android":"levelo://app?vid=f84e7850-4e38-4a2f-8058-4b5888bcc49b","ios":"levelo://app?vid=f84e7850-4e38-4a2f-8058-4b5888bcc49b"},"vehicle_type_id":"4","last_reported":1748016751,"current_range_meters":12000,"station_id":"ce4bhrh2rcd13ifvqhug","pricing_plan_id":"cebpf4jnsgd1na2vs0mg"},{"bike_id":"0bd79e0c-7d96-4387-869c-dab148bb70a7","system_id":"levelo_inurba_marseille","lat":43.27915,"lon":5.39584,"is_reserved":false,"is_disabled":false,"rental_uris":{"android":"levelo://app?vid=0bd79e0c-7d96-4387-869c-dab148bb70a7","ios":"levelo://app?vid=0bd79e0c-7d96-4387-869c-dab148bb70a7"},"vehicle_type_id":"4","last_reported":1748016751,"current_range_meters":12400,"station_id":"ce4bhf92rcd13ifvqf40","pricing_plan_id":"cebpf4jnsgd1na2vs0mg"},{"bike_id":"a0adc815-2b27-4b14-b2ae-a0e92b373d3b","system_id":"levelo_inurba_marseille","lat":43.27557,"lon":5.384346,"is_reserved":false,"is_disabled":false,"rental_uris":{"android":"levelo://app?vid=a0adc815-2b27-4b14-b2ae-a0e92b373d3b","ios":"levelo://app?vid=a0adc815-2b27-4b14-b2ae-a0e92b373d3b"},"vehicle_type_id":"4","last_reported":1748016751,"current_range_meters":12400,"station_id":"ce4bhh92rcd13ifvqfi0","pricing_plan_id":"cebpf4jnsgd1na2vs0mg"},{"bike_id":"e3e228c9-2362-404c-a362-78936fc82552","system_id":"levelo_inurba_marseille","lat":43.32662,"lon":5.409928,"is_reserved":false,"is_disabled":false,"rental_uris":{"android":"levelo://app?vid=e3e228c9-2362-404c-a362-78936fc82552","ios":"levelo://app?vid=e3e228c9-2362-404c-a362-78936fc82552"},"vehicle_type_id":"4","last_reported":1748016751,"current_range_meters":12400,"station_id":"ce4bhpp2rcd13ifvqhgg","pricing_plan_id":"cebpf4jnsgd1na2vs0mg"},{"bike_id":"b2c71905-3c29-4b09-aa95-4b870c550ce7","system_id":"levelo_inurba_marseille","lat":43.33008,"lon":5.3906,"is_reserved":false,"is_disabled":false,"rental_uris":{"android":"levelo://app?vid=b2c71905-3c29-4b09-aa95-4b870c550ce7","ios":"levelo://app?vid=b2c71905-3c29-4b09-aa95-4b870c550ce7"},"vehicle_type_id":"4","last_reported":1748016751,"current_range_meters":12400,"station_id":"ce4bhr92rcd13ifvqhrg","pricing_plan_id":"cebpf4jnsgd1na2vs0mg"},{"bike_id":"6e04d148-6484-4a04-b683-9f003c51b441","system_id":"levelo_inurba_marseille","lat":43.29871,"lon":5.39728,"is_reserved":false,"is_disabled":false,"rental_uris":{"android":"levelo://app?vid=6e04d148-6484-4a04-b683-9f003c51b441","ios":"levelo://app?vid=6e04d148-6484-4a04-b683-9f003c51b441"},"vehicle_type_id":"4","last_reported":1748016751,"current_range_meters":12800,"station_id":"ce4bh0h2rcd13ifvqd50","pricing_plan_id":"cebpf4jnsgd1na2vs0mg"},{"bike_id":"f1f9187d-b724-448d-91da-2e43eb4b354e","system_id":"levelo_inurba_marseille","lat":43.26682,"lon":5.38271,"is_reserved":false,"is_disabled":false,"rental_uris":{"android":"levelo://app?vid=f1f9187d-b724-448d-91da-2e43eb4b354e","ios":"levelo://app?vid=f1f9187d-b724-448d-91da-2e43eb4b354e"},"vehicle_type_id":"4","last_reported":1748016751,"current_range_meters":12800,"station_id":"ce4bhg92rcd13ifvqf90","pricing_plan_id":"cebpf4jnsgd1na2vs0mg"},{"bike_id":"ab41f340-53b6-4ad5-9511-d859c80b7d92","system_id":"levelo_inurba_marseille","lat":43.243904,"lon":5.370595,"is_reserved":false,"is_disabled":false,"rental_uris":{"android":"levelo://app?vid=ab41f340-53b6-4ad5-9511-d859c80b7d92","ios":"levelo://app?vid=ab41f340-53b6-4ad5-9511-d859c80b7d92"},"vehicle_type_id":"4","last_reported":1748016751,"current_range_meters":12800,"station_id":"ce4bhhh2rcd13ifvqfk0","pricing_plan_id":"cebpf4jnsgd1na2vs0mg"},{"bike_id":"bf662ae0-26e4-4bb7-9f9e-d0df53c116b8","system_id":"levelo_inurba_marseille","lat":43.23192,"lon":5.35554,"is_reserved":false,"is_disabled":false,"rental_uris":{"android":"levelo://app?vid=bf662ae0-26e4-4bb7-9f9e-d0df53c116b8","ios":"levelo://app?vid=bf662ae0-26e4-4bb7-9f9e-d0df53c116b8"},"vehicle_type_id":"4","last_reported":1748016751,"current_range_meters":12800,"station_id":"ce4bhu92rcd13ifvqi70","pricing_plan_id":"cebpf4jnsgd1na2vs0mg"},{"bike_id":"d2d1beb4-00f8-4dfb-b8a7-46b06bb8aa62","system_id":"levelo_inurba_marseille","lat":43.27376,"lon":5.36258,"is_reserved":false,"is_disabled":false,"rental_uris":{"android":"levelo://app?vid=d2d1beb4-00f8-4dfb-b8a7-46b06bb8aa62","ios":"levelo://app?vid=d2d1beb4-00f8-4dfb-b8a7-46b06bb8aa62"},"vehicle_type_id":"4","last_reported":1748016751,"current_range_meters":14000,"station_id":"ce4bhbh2rcd13ifvqeo0","pricing_plan_id":"cebpf4jnsgd1na2vs0mg"},{"bike_id":"f9b8de3e-f216-4a97-a31c-9c85d23db479","system_id":"levelo_inurba_marseille","lat":43.286476,"lon":5.351526,"is_reserved":false,"is_disabled":false,"rental_uris":{"android":"levelo://app?vid=f9b8de3e-f216-4a97-a31c-9c85d23db479","ios":"levelo://app?vid=f9b8de3e-f216-4a97-a31c-9c85d23db479"},"vehicle_type_id":"4","last_reported":1748016751,"current_range_meters":14000,"station_id":"ce4bhch2rcd13ifvqeug","pricing_plan_id":"cebpf4jnsgd1na2vs0mg"},{"bike_id":"de700b07-a661-4fe3-9b7c-32e35ca3699c","system_id":"levelo_inurba_marseille","lat":43.26677,"lon":5.38264,"is_reserved":false,"is_disabled":false,"rental_uris":{"android":"levelo://app?vid=de700b07-a661-4fe3-9b7c-32e35ca3699c","ios":"levelo://app?vid=de700b07-a661-4fe3-9b7c-32e35ca3699c"},"vehicle_type_id":"4","last_reported":1748016751,"current_range_meters":14000,"station_id":"ce4bhg92rcd13ifvqf90","pricing_plan_id":"cebpf4jnsgd1na2vs0mg"},{"bike_id":"85d93b1b-c867-4db5-be74-7ff290df1c68","system_id":"levelo_inurba_marseille","lat":43.29097,"lon":5.38142,"is_reserved":false,"is_disabled":false,"rental_uris":{"android":"levelo://app?vid=85d93b1b-c867-4db5-be74-7ff290df1c68","ios":"levelo://app?vid=85d93b1b-c867-4db5-be74-7ff290df1c68"},"vehicle_type_id":"4","last_reported":1748016751,"current_range_meters":14400,"station_id":"ce4bh512rcd13ifvqe2g","pricing_plan_id":"cebpf4jnsgd1na2vs0mg"},{"bike_id":"fcd5a2d9-b8ab-4abc-a64e-ef344d24a27e","system_id":"levelo_inurba_marseille","lat":43.29005,"lon":5.35612,"is_reserved":false,"is_disabled":false,"rental_uris":{"android":"levelo://app?vid=fcd5a2d9-b8ab-4abc-a64e-ef344d24a27e","ios":"levelo://app?vid=fcd5a2d9-b8ab-4abc-a64e-ef344d24a27e"},"vehicle_type_id":"4","last_reported":1748016751,"current_range_meters":14400,"station_id":"ce4bhb92rcd13ifvqen0","pricing_plan_id":"cebpf4jnsgd1na2vs0mg"},{"bike_id":"30150a2d-d8d1-4589-b2c5-dc1881d59a05","system_id":"levelo_inurba_marseille","lat":43.25824,"lon":5.39436,"is_reserved":false,"is_disabled":false,"rental_uris":{"android":"levelo://app?vid=30150a2d-d8d1-4589-b2c5-dc1881d59a05","ios":"levelo://app?vid=30150a2d-d8d1-4589-b2c5-dc1881d59a05"},"vehicle_type_id":"4","last_reported":1748016751,"current_range_meters":14400,"station_id":"ce4bhip2rcd13ifvqft0","pricing_plan_id":"cebpf4jnsgd1na2vs0mg"},{"bike_id":"fc8c72ad-ca61-42c6-ae90-f61b57e45328","system_id":"levelo_inurba_marseille","lat":43.27891,"lon":5.4189,"is_reserved":false,"is_disabled":false,"rental_uris":{"android":"levelo://app?vid=fc8c72ad-ca61-42c6-ae90-f61b57e45328","ios":"levelo://app?vid=fc8c72ad-ca61-42c6-ae90-f61b57e45328"},"vehicle_type_id":"4","last_reported":1748016751,"current_range_meters":14800,"station_id":"","pricing_plan_id":"cebpf4jnsgd1na2vs0mg"},{"bike_id":"c53618c7-8270-4bba-b5be-c7a720c2b4ff","system_id":"levelo_inurba_marseille","lat":43.31322,"lon":5.39697,"is_reserved":false,"is_disabled":false,"rental_uris":{"android":"levelo://app?vid=c53618c7-8270-4bba-b5be-c7a720c2b4ff","ios":"levelo://app?vid=c53618c7-8270-4bba-b5be-c7a720c2b4ff"},"vehicle_type_id":"4","last_reported":1748016751,"current_range_meters":14800,"station_id":"ce4bgvp2rcd13ifvqcu0","pricing_plan_id":"cebpf4jnsgd1na2vs0mg"},{"bike_id":"afdf90c6-5b9d-4aaf-ae57-9e04bcff99b4","system_id":"levelo_inurba_marseille","lat":43.30108,"lon":5.39878,"is_reserved":false,"is_disabled":false,"rental_uris":{"android":"levelo://app?vid=afdf90c6-5b9d-4aaf-ae57-9e04bcff99b4","ios":"levelo://app?vid=afdf90c6-5b9d-4aaf-ae57-9e04bcff99b4"},"vehicle_type_id":"4","last_reported":1748016751,"current_range_meters":14800,"station_id":"ce4bh0h2rcd13ifvqd40","pricing_plan_id":"cebpf4jnsgd1na2vs0mg"},{"bike_id":"9d9c1ee6-2d4c-4498-8633-1d01192b5c8f","system_id":"levelo_inurba_marseille","lat":43.29004,"lon":5.35612,"is_reserved":false,"is_disabled":false,"rental_uris":{"android":"levelo://app?vid=9d9c1ee6-2d4c-4498-8633-1d01192b5c8f","ios":"levelo://app?vid=9d9c1ee6-2d4c-4498-8633-1d01192b5c8f"},"vehicle_type_id":"4","last_reported":1748016751,"current_range_meters":14800,"station_id":"ce4bhb92rcd13ifvqen0","pricing_plan_id":"cebpf4jnsgd1na2vs0mg"},{"bike_id":"c4a8acb9-ef11-434f-b64c-4bd60c58e07a","system_id":"levelo_inurba_marseille","lat":43.28269,"lon":5.35065,"is_reserved":false,"is_disabled":false,"rental_uris":{"android":"levelo://app?vid=c4a8acb9-ef11-434f-b64c-4bd60c58e07a","ios":"levelo://app?vid=c4a8acb9-ef11-434f-b64c-4bd60c58e07a"},"vehicle_type_id":"4","last_reported":1748016751,"current_range_meters":14800,"station_id":"ce4bhbp2rcd13ifvqerg","pricing_plan_id":"cebpf4jnsgd1na2vs0mg"},{"bike_id":"5ac91515-603d-4ebf-9dd1-05798615f15a","system_id":"levelo_inurba_marseille","lat":43.23963,"lon":5.36624,"is_reserved":false,"is_disabled":false,"rental_uris":{"android":"levelo://app?vid=5ac91515-603d-4ebf-9dd1-05798615f15a","ios":"levelo://app?vid=5ac91515-603d-4ebf-9dd1-05798615f15a"},"vehicle_type_id":"4","last_reported":1748016751,"current_range_meters":14800,"station_id":"ce4bhi12rcd13ifvqfp0","pricing_plan_id":"cebpf4jnsgd1na2vs0mg"},{"bike_id":"293d61e5-2bb1-407f-9e33-e203d0ecedbf","system_id":"levelo_inurba_marseille","lat":43.28003,"lon":5.40029,"is_reserved":false,"is_disabled":false,"rental_uris":{"android":"levelo://app?vid=293d61e5-2bb1-407f-9e33-e203d0ecedbf","ios":"levelo://app?vid=293d61e5-2bb1-407f-9e33-e203d0ecedbf"},"vehicle_type_id":"4","last_reported":1748016751,"current_range_meters":14800,"station_id":"ce4bho92rcd13ifvqh4g","pricing_plan_id":"cebpf4jnsgd1na2vs0mg"},{"bike_id":"17010815-2f2a-42dd-a512-f9d0897cd5fa","system_id":"levelo_inurba_marseille","lat":43.28451,"lon":5.39178,"is_reserved":false,"is_disabled":false,"rental_uris":{"android":"levelo://app?vid=17010815-2f2a-42dd-a512-f9d0897cd5fa","ios":"levelo://app?vid=17010815-2f2a-42dd-a512-f9d0897cd5fa"},"vehicle_type_id":"4","last_reported":1748016751,"current_range_meters":14800,"station_id":"ce4bhoh2rcd13ifvqh5g","pricing_plan_id":"cebpf4jnsgd1na2vs0mg"},{"bike_id":"b959a865-fc01-4964-9b1d-7e25b047370d","system_id":"levelo_inurba_marseille","lat":43.23184,"lon":5.35544,"is_reserved":false,"is_disabled":false,"rental_uris":{"android":"levelo://app?vid=b959a865-fc01-4964-9b1d-7e25b047370d","ios":"levelo://app?vid=b959a865-fc01-4964-9b1d-7e25b047370d"},"vehicle_type_id":"4","last_reported":1748016751,"current_range_meters":14800,"station_id":"ce4bhu92rcd13ifvqi70","pricing_plan_id":"cebpf4jnsgd1na2vs0mg"},{"bike_id":"75e91607-f093-41b1-947a-69b62fe724b6","system_id":"levelo_inurba_marseille","lat":43.34719,"lon":5.3447,"is_reserved":false,"is_disabled":false,"rental_uris":{"android":"levelo://app?vid=75e91607-f093-41b1-947a-69b62fe724b6","ios":"levelo://app?vid=75e91607-f093-41b1-947a-69b62fe724b6"},"vehicle_type_id":"4","last_reported":1748016751,"current_range_meters":15200,"station_id":"","pricing_plan_id":"cebpf4jnsgd1na2vs0mg"},{"bike_id":"6e5a158f-7f1d-4312-9977-ede4602769a5","system_id":"levelo_inurba_marseille","lat":43.282144,"lon":5.390581,"is_reserved":false,"is_disabled":false,"rental_uris":{"android":"levelo://app?vid=6e5a158f-7f1d-4312-9977-ede4602769a5","ios":"levelo://app?vid=6e5a158f-7f1d-4312-9977-ede4602769a5"},"vehicle_type_id":"4","last_reported":1748016751,"current_range_meters":15200,"station_id":"","pricing_plan_id":"cebpf4jnsgd1na2vs0mg"},{"bike_id":"8dd14174-53ca-4cab-bd84-2b93ba2955ab","system_id":"levelo_inurba_marseille","lat":43.29567,"lon":5.37535,"is_reserved":false,"is_disabled":false,"rental_uris":{"android":"levelo://app?vid=8dd14174-53ca-4cab-bd84-2b93ba2955ab","ios":"levelo://app?vid=8dd14174-53ca-4cab-bd84-2b93ba2955ab"},"vehicle_type_id":"4","last_reported":1748016751,"current_range_meters":15200,"station_id":"ce4bgh92rcd13ifvqb50","pricing_plan_id":"cebpf4jnsgd1na2vs0mg"},{"bike_id":"8f839138-c30f-4381-8f9e-16672844fdf7","system_id":"levelo_inurba_marseille","lat":43.29,"lon":5.35611,"is_reserved":false,"is_disabled":false,"rental_uris":{"android":"levelo://app?vid=8f839138-c30f-4381-8f9e-16672844fdf7","ios":"levelo://app?vid=8f839138-c30f-4381-8f9e-16672844fdf7"},"vehicle_type_id":"4","last_reported":1748016751,"current_range_meters":15200,"station_id":"ce4bhb92rcd13ifvqen0","pricing_plan_id":"cebpf4jnsgd1na2vs0mg"},{"bike_id":"01c0716b-8957-4246-bdf6-67b363ea8382","system_id":"levelo_inurba_marseille","lat":43.28618,"lon":5.35108,"is_reserved":false,"is_disabled":false,"rental_uris":{"android":"levelo://app?vid=01c0716b-8957-4246-bdf6-67b363ea8382","ios":"levelo://app?vid=01c0716b-8957-4246-bdf6-67b363ea8382"},"vehicle_type_id":"4","last_reported":1748016751,"current_range_meters":15200,"station_id":"ce4bhch2rcd13ifvqeug","pricing_plan_id":"cebpf4jnsgd1na2vs0mg"},{"bike_id":"b9f75934-cbd7-4329-bce3-af1a6e574ec6","system_id":"levelo_inurba_marseille","lat":43.27833,"lon":5.39213,"is_reserved":false,"is_disabled":false,"rental_uris":{"android":"levelo://app?vid=b9f75934-cbd7-4329-bce3-af1a6e574ec6","ios":"levelo://app?vid=b9f75934-cbd7-4329-bce3-af1a6e574ec6"},"vehicle_type_id":"4","last_reported":1748016751,"current_range_meters":15200,"station_id":"ce4bhjp2rcd13ifvqga0","pricing_plan_id":"cebpf4jnsgd1na2vs0mg"},{"bike_id":"8bf531c8-63c9-4599-a836-ffb8cfe6db01","system_id":"levelo_inurba_marseille","lat":43.2416,"lon":5.36389,"is_reserved":false,"is_disabled":false,"rental_uris":{"android":"levelo://app?vid=8bf531c8-63c9-4599-a836-ffb8cfe6db01","ios":"levelo://app?vid=8bf531c8-63c9-4599-a836-ffb8cfe6db01"},"vehicle_type_id":"4","last_reported":1748016751,"current_range_meters":15200,"station_id":"cpo36qri1sfpv3e86is0","pricing_plan_id":"cebpf4jnsgd1na2vs0mg"},{"bike_id":"4f6975d7-3b92-4087-8e1f-db25de378f48","system_id":"levelo_inurba_marseille","lat":43.28412,"lon":5.34993,"is_reserved":false,"is_disabled":false,"rental_uris":{"android":"levelo://app?vid=4f6975d7-3b92-4087-8e1f-db25de378f48","ios":"levelo://app?vid=4f6975d7-3b92-4087-8e1f-db25de378f48"},"vehicle_type_id":"4","last_reported":1748016751,"current_range_meters":16000,"station_id":"ce4bhbh2rcd13ifvqepg","pricing_plan_id":"cebpf4jnsgd1na2vs0mg"},{"bike_id":"853d672a-807f-44d6-a3f8-43f56b8b3db2","system_id":"levelo_inurba_marseille","lat":43.292755,"lon":5.368425,"is_reserved":false,"is_disabled":false,"rental_uris":{"android":"levelo://app?vid=853d672a-807f-44d6-a3f8-43f56b8b3db2","ios":"levelo://app?vid=853d672a-807f-44d6-a3f8-43f56b8b3db2"},"vehicle_type_id":"4","last_reported":1748016751,"current_range_meters":16000,"station_id":"ce4bhbp2rcd13ifvqesg","pricing_plan_id":"cebpf4jnsgd1na2vs0mg"},{"bike_id":"7e49e603-e233-45ee-9c98-97f238649814","system_id":"levelo_inurba_marseille","lat":43.27986,"lon":5.40036,"is_reserved":false,"is_disabled":false,"rental_uris":{"android":"levelo://app?vid=7e49e603-e233-45ee-9c98-97f238649814","ios":"levelo://app?vid=7e49e603-e233-45ee-9c98-97f238649814"},"vehicle_type_id":"4","last_reported":1748016751,"current_range_meters":16000,"station_id":"ce4bho92rcd13ifvqh4g","pricing_plan_id":"cebpf4jnsgd1na2vs0mg"},{"bike_id":"c0b1ba3b-5a5f-4006-92f2-e0b5fde61a71","system_id":"levelo_inurba_marseille","lat":43.26939,"lon":5.40251,"is_reserved":false,"is_disabled":false,"rental_uris":{"android":"levelo://app?vid=c0b1ba3b-5a5f-4006-92f2-e0b5fde61a71","ios":"levelo://app?vid=c0b1ba3b-5a5f-4006-92f2-e0b5fde61a71"},"vehicle_type_id":"4","last_reported":1748016751,"current_range_meters":16000,"station_id":"cjm6bp8fraef2m0cb0m0","pricing_plan_id":"cebpf4jnsgd1na2vs0mg"},{"bike_id":"913f8320-f8e4-48e1-8fd1-306e0de0b645","system_id":"levelo_inurba_marseille","lat":43.28236,"lon":5.39065,"is_reserved":false,"is_disabled":false,"rental_uris":{"android":"levelo://app?vid=913f8320-f8e4-48e1-8fd1-306e0de0b645","ios":"levelo://app?vid=913f8320-f8e4-48e1-8fd1-306e0de0b645"},"vehicle_type_id":"4","last_reported":1748016751,"current_range_meters":16400,"station_id":"","pricing_plan_id":"cebpf4jnsgd1na2vs0mg"},{"bike_id":"d4a24075-3436-4205-bc50-01e9dc17c6ea","system_id":"levelo_inurba_marseille","lat":43.28206,"lon":5.39048,"is_reserved":false,"is_disabled":false,"rental_uris":{"android":"levelo://app?vid=d4a24075-3436-4205-bc50-01e9dc17c6ea","ios":"levelo://app?vid=d4a24075-3436-4205-bc50-01e9dc17c6ea"},"vehicle_type_id":"4","last_reported":1748016751,"current_range_meters":16400,"station_id":"","pricing_plan_id":"cebpf4jnsgd1na2vs0mg"},{"bike_id":"65611c2f-b907-427f-b164-ce54ce5040d1","system_id":"levelo_inurba_marseille","lat":43.29273,"lon":5.37634,"is_reserved":false,"is_disabled":false,"rental_uris":{"android":"levelo://app?vid=65611c2f-b907-427f-b164-ce54ce5040d1","ios":"levelo://app?vid=65611c2f-b907-427f-b164-ce54ce5040d1"},"vehicle_type_id":"4","last_reported":1748016751,"current_range_meters":16400,"station_id":"ce4bgi12rcd13ifvqb80","pricing_plan_id":"cebpf4jnsgd1na2vs0mg"},{"bike_id":"8a8f9b76-b7fa-4749-8ff9-698967bc41a1","system_id":"levelo_inurba_marseille","lat":43.29055,"lon":5.35922,"is_reserved":false,"is_disabled":false,"rental_uris":{"android":"levelo://app?vid=8a8f9b76-b7fa-4749-8ff9-698967bc41a1","ios":"levelo://app?vid=8a8f9b76-b7fa-4749-8ff9-698967bc41a1"},"vehicle_type_id":"4","last_reported":1748016751,"current_range_meters":16400,"station_id":"ce4bha92rcd13ifvqeg0","pricing_plan_id":"cebpf4jnsgd1na2vs0mg"},{"bike_id":"3c18ae99-b883-44be-997c-3453c9fa348d","system_id":"levelo_inurba_marseille","lat":43.28417,"lon":5.34986,"is_reserved":false,"is_disabled":false,"rental_uris":{"android":"levelo://app?vid=3c18ae99-b883-44be-997c-3453c9fa348d","ios":"levelo://app?vid=3c18ae99-b883-44be-997c-3453c9fa348d"},"vehicle_type_id":"4","last_reported":1748016751,"current_range_meters":16400,"station_id":"ce4bhbh2rcd13ifvqepg","pricing_plan_id":"cebpf4jnsgd1na2vs0mg"},{"bike_id":"8933e858-2854-460a-be42-86c4d7d12336","system_id":"levelo_inurba_marseille","lat":43.27575,"lon":5.38443,"is_reserved":false,"is_disabled":false,"rental_uris":{"android":"levelo://app?vid=8933e858-2854-460a-be42-86c4d7d12336","ios":"levelo://app?vid=8933e858-2854-460a-be42-86c4d7d12336"},"vehicle_type_id":"4","last_reported":1748016751,"current_range_meters":16400,"station_id":"ce4bhh92rcd13ifvqfi0","pricing_plan_id":"cebpf4jnsgd1na2vs0mg"},{"bike_id":"d0c57512-9113-4c9c-91f7-236336581cf7","system_id":"levelo_inurba_marseille","lat":43.28713,"lon":5.39957,"is_reserved":false,"is_disabled":false,"rental_uris":{"android":"levelo://app?vid=d0c57512-9113-4c9c-91f7-236336581cf7","ios":"levelo://app?vid=d0c57512-9113-4c9c-91f7-236336581cf7"},"vehicle_type_id":"4","last_reported":1748016751,"current_range_meters":16400,"station_id":"ce4bho92rcd13ifvqh3g","pricing_plan_id":"cebpf4jnsgd1na2vs0mg"},{"bike_id":"6abb9ab4-3976-4e3e-b994-f2f72ee02055","system_id":"levelo_inurba_marseille","lat":43.30161,"lon":5.37288,"is_reserved":false,"is_disabled":false,"rental_uris":{"android":"levelo://app?vid=6abb9ab4-3976-4e3e-b994-f2f72ee02055","ios":"levelo://app?vid=6abb9ab4-3976-4e3e-b994-f2f72ee02055"},"vehicle_type_id":"4","last_reported":1748016751,"current_range_meters":16800,"station_id":"","pricing_plan_id":"cebpf4jnsgd1na2vs0mg"},{"bike_id":"6a12b57e-6a11-42c3-ae68-c7d90b683088","system_id":"levelo_inurba_marseille","lat":43.3014,"lon":5.38783,"is_reserved":false,"is_disabled":false,"rental_uris":{"android":"levelo://app?vid=6a12b57e-6a11-42c3-ae68-c7d90b683088","ios":"levelo://app?vid=6a12b57e-6a11-42c3-ae68-c7d90b683088"},"vehicle_type_id":"4","last_reported":1748016751,"current_range_meters":16800,"station_id":"ce4bghh2rcd13ifvqb60","pricing_plan_id":"cebpf4jnsgd1na2vs0mg"},{"bike_id":"498bd006-2fe9-48f2-a9f4-45be25a3576b","system_id":"levelo_inurba_marseille","lat":43.30594,"lon":5.39357,"is_reserved":false,"is_disabled":false,"rental_uris":{"android":"levelo://app?vid=498bd006-2fe9-48f2-a9f4-45be25a3576b","ios":"levelo://app?vid=498bd006-2fe9-48f2-a9f4-45be25a3576b"},"vehicle_type_id":"4","last_reported":1748016751,"current_range_meters":16800,"station_id":"ce4bh0p2rcd13ifvqd80","pricing_plan_id":"cebpf4jnsgd1na2vs0mg"},{"bike_id":"c2636492-e7a1-4d86-8385-6e4fc7ff84dc","system_id":"levelo_inurba_marseille","lat":43.28948,"lon":5.36632,"is_reserved":false,"is_disabled":false,"rental_uris":{"android":"levelo://app?vid=c2636492-e7a1-4d86-8385-6e4fc7ff84dc","ios":"levelo://app?vid=c2636492-e7a1-4d86-8385-6e4fc7ff84dc"},"vehicle_type_id":"4","last_reported":1748016751,"current_range_meters":16800,"station_id":"ce4bhap2rcd13ifvqek0","pricing_plan_id":"cebpf4jnsgd1na2vs0mg"},{"bike_id":"a26e8e67-a44d-4acc-ae00-3aa026147833","system_id":"levelo_inurba_marseille","lat":43.29187,"lon":5.35794,"is_reserved":false,"is_disabled":false,"rental_uris":{"android":"levelo://app?vid=a26e8e67-a44d-4acc-ae00-3aa026147833","ios":"levelo://app?vid=a26e8e67-a44d-4acc-ae00-3aa026147833"},"vehicle_type_id":"4","last_reported":1748016751,"current_range_meters":16800,"station_id":"ce4bhb12rcd13ifvqel0","pricing_plan_id":"cebpf4jnsgd1na2vs0mg"},{"bike_id":"790aa924-a166-44c4-af46-3fd3ba2e4a55","system_id":"levelo_inurba_marseille","lat":43.288302,"lon":5.392624,"is_reserved":false,"is_disabled":false,"rental_uris":{"android":"levelo://app?vid=790aa924-a166-44c4-af46-3fd3ba2e4a55","ios":"levelo://app?vid=790aa924-a166-44c4-af46-3fd3ba2e4a55"},"vehicle_type_id":"4","last_reported":1748016751,"current_range_meters":16800,"station_id":"ce4bhgp2rcd13ifvqfe0","pricing_plan_id":"cebpf4jnsgd1na2vs0mg"},{"bike_id":"c62db757-8a05-4f94-bc99-78e9db95ca0a","system_id":"levelo_inurba_marseille","lat":43.272002,"lon":5.391704,"is_reserved":false,"is_disabled":false,"rental_uris":{"android":"levelo://app?vid=c62db757-8a05-4f94-bc99-78e9db95ca0a","ios":"levelo://app?vid=c62db757-8a05-4f94-bc99-78e9db95ca0a"},"vehicle_type_id":"4","last_reported":1748016751,"current_range_meters":16800,"station_id":"ce4bhhp2rcd13ifvqfm0","pricing_plan_id":"cebpf4jnsgd1na2vs0mg"},{"bike_id":"a9f1fc12-8234-4e91-bf08-bab1de60458d","system_id":"levelo_inurba_marseille","lat":43.27995,"lon":5.40008,"is_reserved":false,"is_disabled":false,"rental_uris":{"android":"levelo://app?vid=a9f1fc12-8234-4e91-bf08-bab1de60458d","ios":"levelo://app?vid=a9f1fc12-8234-4e91-bf08-bab1de60458d"},"vehicle_type_id":"4","last_reported":1748016751,"current_range_meters":16800,"station_id":"ce4bho92rcd13ifvqh4g","pricing_plan_id":"cebpf4jnsgd1na2vs0mg"},{"bike_id":"d790db8b-c462-45d6-9945-160f8f69c33b","system_id":"levelo_inurba_marseille","lat":43.28448,"lon":5.39205,"is_reserved":false,"is_disabled":false,"rental_uris":{"android":"levelo://app?vid=d790db8b-c462-45d6-9945-160f8f69c33b","ios":"levelo://app?vid=d790db8b-c462-45d6-9945-160f8f69c33b"},"vehicle_type_id":"4","last_reported":1748016751,"current_range_meters":16800,"station_id":"ce4bhoh2rcd13ifvqh5g","pricing_plan_id":"cebpf4jnsgd1na2vs0mg"},{"bike_id":"7fd131a4-6c0b-43b1-b910-144d336812bc","system_id":"levelo_inurba_marseille","lat":43.25103,"lon":5.3951,"is_reserved":false,"is_disabled":false,"rental_uris":{"android":"levelo://app?vid=7fd131a4-6c0b-43b1-b910-144d336812bc","ios":"levelo://app?vid=7fd131a4-6c0b-43b1-b910-144d336812bc"},"vehicle_type_id":"4","last_reported":1748016751,"current_range_meters":17200,"station_id":"ce4bhm12rcd13ifvqgkg","pricing_plan_id":"cebpf4jnsgd1na2vs0mg"},{"bike_id":"8e1f5fe8-e514-4fd5-b4ef-31aae23aea99","system_id":"levelo_inurba_marseille","lat":43.26938,"lon":5.40261,"is_reserved":false,"is_disabled":false,"rental_uris":{"android":"levelo://app?vid=8e1f5fe8-e514-4fd5-b4ef-31aae23aea99","ios":"levelo://app?vid=8e1f5fe8-e514-4fd5-b4ef-31aae23aea99"},"vehicle_type_id":"4","last_reported":1748016751,"current_range_meters":17200,"station_id":"cjm6bp8fraef2m0cb0m0","pricing_plan_id":"cebpf4jnsgd1na2vs0mg"},{"bike_id":"32232c2e-5158-4f56-bdad-c27d240ecf28","system_id":"levelo_inurba_marseille","lat":43.269439,"lon":5.40263,"is_reserved":false,"is_disabled":false,"rental_uris":{"android":"levelo://app?vid=32232c2e-5158-4f56-bdad-c27d240ecf28","ios":"levelo://app?vid=32232c2e-5158-4f56-bdad-c27d240ecf28"},"vehicle_type_id":"4","last_reported":1748016751,"current_range_meters":17200,"station_id":"cjm6bp8fraef2m0cb0m0","pricing_plan_id":"cebpf4jnsgd1na2vs0mg"},{"bike_id":"6d7c935a-591a-4e31-aa91-6b540699765a","system_id":"levelo_inurba_marseille","lat":43.22946,"lon":5.35363,"is_reserved":false,"is_disabled":false,"rental_uris":{"android":"levelo://app?vid=6d7c935a-591a-4e31-aa91-6b540699765a","ios":"levelo://app?vid=6d7c935a-591a-4e31-aa91-6b540699765a"},"vehicle_type_id":"4","last_reported":1748016751,"current_range_meters":17200,"station_id":"cpo3532slgdg3j2ikp40","pricing_plan_id":"cebpf4jnsgd1na2vs0mg"},{"bike_id":"da453a88-f81b-4e0f-9781-5a7f6c1d364c","system_id":"levelo_inurba_marseille","lat":43.337499,"lon":5.374469,"is_reserved":false,"is_disabled":false,"rental_uris":{"android":"levelo://app?vid=da453a88-f81b-4e0f-9781-5a7f6c1d364c","ios":"levelo://app?vid=da453a88-f81b-4e0f-9781-5a7f6c1d364c"},"vehicle_type_id":"4","last_reported":1748016751,"current_range_meters":17600,"station_id":"","pricing_plan_id":"cebpf4jnsgd1na2vs0mg"},{"bike_id":"88ac5a91-56d3-4573-b0f2-5c6bbb7d986b","system_id":"levelo_inurba_marseille","lat":43.26051,"lon":5.39642,"is_reserved":false,"is_disabled":false,"rental_uris":{"android":"levelo://app?vid=88ac5a91-56d3-4573-b0f2-5c6bbb7d986b","ios":"levelo://app?vid=88ac5a91-56d3-4573-b0f2-5c6bbb7d986b"},"vehicle_type_id":"4","last_reported":1748016751,"current_range_meters":17600,"station_id":"","pricing_plan_id":"cebpf4jnsgd1na2vs0mg"},{"bike_id":"cd0bf752-854f-41d0-9814-e0e629a0b56e","system_id":"levelo_inurba_marseille","lat":43.295776,"lon":5.375191,"is_reserved":false,"is_disabled":false,"rental_uris":{"android":"levelo://app?vid=cd0bf752-854f-41d0-9814-e0e629a0b56e","ios":"levelo://app?vid=cd0bf752-854f-41d0-9814-e0e629a0b56e"},"vehicle_type_id":"4","last_reported":1748016751,"current_range_meters":17600,"station_id":"ce4bgh92rcd13ifvqb50","pricing_plan_id":"cebpf4jnsgd1na2vs0mg"},{"bike_id":"0a3d6e60-c4d4-45e7-bbee-78328f2d9cff","system_id":"levelo_inurba_marseille","lat":43.29198,"lon":5.35807,"is_reserved":false,"is_disabled":false,"rental_uris":{"android":"levelo://app?vid=0a3d6e60-c4d4-45e7-bbee-78328f2d9cff","ios":"levelo://app?vid=0a3d6e60-c4d4-45e7-bbee-78328f2d9cff"},"vehicle_type_id":"4","last_reported":1748016751,"current_range_meters":17600,"station_id":"ce4bhb12rcd13ifvqel0","pricing_plan_id":"cebpf4jnsgd1na2vs0mg"},{"bike_id":"08aa6019-5156-438f-ba1b-e1dbef85a98d","system_id":"levelo_inurba_marseille","lat":43.28,"lon":5.40013,"is_reserved":false,"is_disabled":false,"rental_uris":{"android":"levelo://app?vid=08aa6019-5156-438f-ba1b-e1dbef85a98d","ios":"levelo://app?vid=08aa6019-5156-438f-ba1b-e1dbef85a98d"},"vehicle_type_id":"4","last_reported":1748016751,"current_range_meters":17600,"station_id":"ce4bho92rcd13ifvqh4g","pricing_plan_id":"cebpf4jnsgd1na2vs0mg"},{"bike_id":"034ce18b-54c7-419d-bc93-0f5693aec2ed","system_id":"levelo_inurba_marseille","lat":43.229486,"lon":5.354056,"is_reserved":false,"is_disabled":false,"rental_uris":{"android":"levelo://app?vid=034ce18b-54c7-419d-bc93-0f5693aec2ed","ios":"levelo://app?vid=034ce18b-54c7-419d-bc93-0f5693aec2ed"},"vehicle_type_id":"4","last_reported":1748016751,"current_range_meters":17600,"station_id":"cpo3532slgdg3j2ikp40","pricing_plan_id":"cebpf4jnsgd1na2vs0mg"},{"bike_id":"246a303d-65ef-49e6-9e50-2e37cf092749","system_id":"levelo_inurba_marseille","lat":43.25302,"lon":5.39247,"is_reserved":false,"is_disabled":false,"rental_uris":{"android":"levelo://app?vid=246a303d-65ef-49e6-9e50-2e37cf092749","ios":"levelo://app?vid=246a303d-65ef-49e6-9e50-2e37cf092749"},"vehicle_type_id":"4","last_reported":1748016751,"current_range_meters":18000,"station_id":"","pricing_plan_id":"cebpf4jnsgd1na2vs0mg"},{"bike_id":"9f1efc95-83fa-4263-9db6-592dca1f6e71","system_id":"levelo_inurba_marseille","lat":43.301224,"lon":5.387964,"is_reserved":false,"is_disabled":false,"rental_uris":{"android":"levelo://app?vid=9f1efc95-83fa-4263-9db6-592dca1f6e71","ios":"levelo://app?vid=9f1efc95-83fa-4263-9db6-592dca1f6e71"},"vehicle_type_id":"4","last_reported":1748016751,"current_range_meters":18000,"station_id":"ce4bghh2rcd13ifvqb60","pricing_plan_id":"cebpf4jnsgd1na2vs0mg"},{"bike_id":"3fcafdaa-0de4-49ba-af0b-f8e3f2c2e538","system_id":"levelo_inurba_marseille","lat":43.29531,"lon":5.3853,"is_reserved":false,"is_disabled":false,"rental_uris":{"android":"levelo://app?vid=3fcafdaa-0de4-49ba-af0b-f8e3f2c2e538","ios":"levelo://app?vid=3fcafdaa-0de4-49ba-af0b-f8e3f2c2e538"},"vehicle_type_id":"4","last_reported":1748016751,"current_range_meters":18000,"station_id":"ce4bgih2rcd13ifvqba0","pricing_plan_id":"cebpf4jnsgd1na2vs0mg"},{"bike_id":"1640a783-6f3f-45ff-a6ba-85b65b4f5cc3","system_id":"levelo_inurba_marseille","lat":43.27668,"lon":5.38882,"is_reserved":false,"is_disabled":false,"rental_uris":{"android":"levelo://app?vid=1640a783-6f3f-45ff-a6ba-85b65b4f5cc3","ios":"levelo://app?vid=1640a783-6f3f-45ff-a6ba-85b65b4f5cc3"},"vehicle_type_id":"4","last_reported":1748016751,"current_range_meters":18000,"station_id":"ce4bhi12rcd13ifvqfo0","pricing_plan_id":"cebpf4jnsgd1na2vs0mg"},