{"last_updated":1720706849,"ttl":30,"version":"2.2","data":{"bikes":[{"bike_id":"7c013864-3ce0-4c10-9e89-747526980714","system_id":"levelo_inurba_marseille","lat":43.313391,"lon":5.36706,"is_reserved":false,"is_disabled":false,"rental_uris":{"android":"levelo://app?vid=7c013864-3ce0-4c10-9e89-747526980714","ios":"levelo://app?vid=7c013864-3ce0-4c10-9e89-747526980714"},"vehicle_type_id":"4","last_reported":1720706849,"current_range_meters":11200,"station_id":"ce4bgr92rcd13ifvqc6g","pricing_plan_id":"cebpf4jnsgd1na2vs0mg"},{"bike_id":"c7b159b2-5efd-4363-b540-0720c899d1c3","system_id":"levelo_inurba_marseille","lat":43.313488,"lon":5.367141,"is_reserved":false,"is_disabled":false,"rental_uris":{"android":"levelo://app?vid=c7b159b2-5efd-4363-b540-0720c899d1c3","ios":"levelo://app?vid=c7b159b2-5efd-4363-b540-0720c899d1c3"},"vehicle_type_id":"4","last_reported":1720706849,"current_range_meters":18000,"station_id":"ce4bgr92rcd13ifvqc6g","pricing_plan_id":"cebpf4jnsgd1na2vs0mg"},{"bike_id":"ea82ace4-98f6-4e54-bfb4-ae667f5e3acd","system_id":"levelo_inurba_marseille","lat":43.312393,"lon":5.368227,"is_reserved":false,"is_disabled":false,"rental_uris":{"android":"levelo://app?vid=ea82ace4-98f6-4e54-bfb4-ae667f5e3acd","ios":"levelo://app?vid=ea82ace4-98f6-4e54-bfb4-ae667f5e3acd"},"vehicle_type_id":"4","last_reported":1720706849,"current_range_meters":20400,"station_id":"ce4bgl92rcd13ifvqbq0","pricing_plan_id":"cebpf4jnsgd1na2vs0mg"},{"bike_id":"2c732eeb-6005-47b7-90d2-1b465dc0188b","system_id":"levelo_inurba_marseille","lat":43.312239,"lon":5.368562,"is_reserved":false,"is_disabled":false,"rental_uris":{"android":"levelo://app?vid=2c732eeb-6005-47b7-90d2-1b465dc0188b","ios":"levelo://app?vid=2c732eeb-6005-47b7-90d2-1b465dc0188b"},"vehicle_type_id":"4","last_reported":1720706849,"current_range_meters":29600,"station_id":"ce4bgl92rcd13ifvqbq0","pricing_plan_id":"cebpf4jnsgd1na2vs0mg"},{"bike_id":"a906478a-09c4-4025-9964-851b035a6505","system_id":"levelo_inurba_marseille","lat":43.312239,"lon":5.368562,"is_reserved":false,"is_disabled":false,"rental_uris":{"android":"levelo://app?vid=a906478a-09c4-4025-9964-851b035a6505","ios":"levelo://app?vid=a906478a-09c4-4025-9964-851b035a6505"},"vehicle_type_id":"4","last_reported":1720706849,"current_range_meters":31600,"station_id":"ce4bgl92rcd13ifvqbq0","pricing_plan_id":"cebpf4jnsgd1na2vs0mg"},{"bike_id":"b31a7cc2-b711-4b10-9c8b-6a21741327d6","system_id":"levelo_inurba_marseille","lat":43.312239,"lon":5.368562,"is_reserved":false,"is_disabled":false,"rental_uris":{"android":"levelo://app?vid=b31a7cc2-b711-4b10-9c8b-6a21741327d6","ios":"levelo://app?vid=b31a7cc2-b711-4b10-9c8b-6a21741327d6"},"vehicle_type_id":"4","last_reported":1720706849,"current_range_meters":23600,"station_id":"ce4bgl92rcd13ifvqbq0","pricing_plan_id":"cebpf4jnsgd1na2vs0mg"},{"bike_id":"f9f1ddcf-3f9e-410e-875a-bbee19b815ce","system_id":"levelo_inurba_marseille","lat":43.312239,"lon":5.368562,"is_reserved":false,"is_disabled":false,"rental_uris":{"android":"levelo://app?vid=f9f1ddcf-3f9e-410e-875a-bbee19b815ce","ios":"levelo://app?vid=f9f1ddcf-3f9e-410e-875a-bbee19b815ce"},"vehicle_type_id":"4","last_reported":1720706849,"current_range_meters":17200,"station_id":"ce4bgl92rcd13ifvqbq0","pricing_plan_id":"cebpf4jnsgd1na2vs0mg"},{"bike_id":"2b3d9f89-42e9-4782-b875-628fe6790e57","system_id":"levelo_inurba_marseille","lat":43.312239,"lon":5.368562,"is_reserved":false,"is_disabled":false,"rental_uris":{"android":"levelo://app?vid=2b3d9f89-42e9-4782-b875-628fe6790e57","ios":"levelo://app?vid=2b3d9f89-42e9-4782-b875-628fe6790e57"},"vehicle_type_id":"4","last_reported":1720706849,"current_range_meters":13200,"station_id":"ce4bgl92rcd13ifvqbq0","pricing_plan_id":"cebpf4jnsgd1na2vs0mg"},{"bike_id":"b1365ee0-cfc6-4c82-94f1-900ec0678823","system_id":"levelo_inurba_marseille","lat":43.312239,"lon":5.368562,"is_reserved":false,"is_disabled":false,"rental_uris":{"android":"levelo://app?vid=b1365ee0-cfc6-4c82-94f1-900ec0678823","ios":"levelo://app?vid=b1365ee0-cfc6-4c82-94f1-900ec0678823"},"vehicle_type_id":"4","last_reported":1720706849,"current_range_meters":19600,"station_id":"ce4bgl92rcd13ifvqbq0","pricing_plan_id":"cebpf4jnsgd1na2vs0mg"},{"bike_id":"89584521-1578-44f3-8359-2453d4a9f462","system_id":"levelo_inurba_marseille","lat":43.312239,"lon":5.368562,"is_reserved":false,"is_disabled":false,"rental_uris":{"android":"levelo://app?vid=89584521-1578-44f3-8359-2453d4a9f462","ios":"levelo://app?vid=89584521-1578-44f3-8359-2453d4a9f462"},"vehicle_type_id":"4","last_reported":1720706849,"current_range_meters":17600,"station_id":"ce4bgl92rcd13ifvqbq0","pricing_plan_id":"cebpf4jnsgd1na2vs0mg"},{"bike_id":"63c5a15f-6da3-4255-8f55-ee7b6223dde0","system_id":"levelo_inurba_marseille","lat":43.312239,"lon":5.368562,"is_reserved":false,"is_disabled":false,"rental_uris":{"android":"levelo://app?vid=63c5a15f-6da3-4255-8f55-ee7b6223dde0","ios":"levelo://app?vid=63c5a15f-6da3-4255-8f55-ee7b6223dde0"},"vehicle_type_id":"4","last_reported":1720706849,"current_range_meters":15600,"station_id":"ce4bgl92rcd13ifvqbq0","pricing_plan_id":"cebpf4jnsgd1na2vs0mg"},{"bike_id":"a5ad617c-f38b-4094-aefd-f164d04d8131","system_id":"levelo_inurba_marseille","lat":43.312239,"lon":5.368562,"is_reserved":false,"is_disabled":false,"rental_uris":{"android":"levelo://app?vid=a5ad617c-f38b-4094-aefd-f164d04d8131","ios":"levelo://app?vid=a5ad617c-f38b-4094-aefd-f164d04d8131"},"vehicle_type_id":"4","last_reported":1720706849,"current_range_meters":2400,"station_id":"ce4bgl92rcd13ifvqbq0","pricing_plan_id":"cebpf4jnsgd1na2vs0mg"},{"bike_id":"e61e2ab9-6a8f-4b71-bebe-bd5dfcb95172","system_id":"levelo_inurba_marseille","lat":43.312239,"lon":5.368562,"is_reserved":false,"is_disabled":false,"rental_uris":{"android":"levelo://app?vid=e61e2ab9-6a8f-4b71-bebe-bd5dfcb95172","ios":"levelo://app?vid=e61e2ab9-6a8f-4b71-bebe-bd5dfcb95172"},"vehicle_type_id":"4","last_reported":1720706849,"current_range_meters":8400,"station_id":"ce4bgl92rcd13ifvqbq0","pricing_plan_id":"cebpf4jnsgd1na2vs0mg"},{"bike_id":"5e6f2723-a132-4ee3-8792-08d4c9ec9173","system_id":"levelo_inurba_marseille","lat":43.309076,"lon":5.368465,"is_reserved":false,"is_disabled":false,"rental_uris":{"android":"levelo://app?vid=5e6f2723-a132-4ee3-8792-08d4c9ec9173","ios":"levelo://app?vid=5e6f2723-a132-4ee3-8792-08d4c9ec9173"},"vehicle_type_id":"4","last_reported":1720706849,"current_range_meters":21200,"station_id":"ce4bgn92rcd13ifvqbvg","pricing_plan_id":"cebpf4jnsgd1na2vs0mg"},{"bike_id":"1395d7e7-70e9-439e-8ec3-445fdf1c3828","system_id":"levelo_inurba_marseille","lat":43.309076,"lon":5.368465,"is_reserved":false,"is_disabled":false,"rental_uris":{"android":"levelo://app?vid=1395d7e7-70e9-439e-8ec3-445fdf1c3828","ios":"levelo://app?vid=1395d7e7-70e9-439e-8ec3-445fdf1c3828"},"vehicle_type_id":"4","last_reported":1720706849,"current_range_meters":7600,"station_id":"ce4bgn92rcd13ifvqbvg","pricing_plan_id":"cebpf4jnsgd1na2vs0mg"},{"bike_id":"71c6d6b0-86f3-4c7e-9bde-a0135fa64cbf","system_id":"levelo_inurba_marseille","lat":43.309076,"lon":5.368465,"is_reserved":false,"is_disabled":false,"rental_uris":{"android":"levelo://app?vid=71c6d6b0-86f3-4c7e-9bde-a0135fa64cbf","ios":"levelo://app?vid=71c6d6b0-86f3-4c7e-9bde-a0135fa64cbf"},"vehicle_type_id":"4","last_reported":1720706849,"current_range_meters":18800,"station_id":"ce4bgn92rcd13ifvqbvg","pricing_plan_id":"cebpf4jnsgd1na2vs0mg"},{"bike_id":"7623b8a0-e1ab-4389-9357-066e8eb2fde6","system_id":"levelo_inurba_marseille","lat":43.309076,"lon":5.368465,"is_reserved":false,"is_disabled":false,"rental_uris":{"android":"levelo://app?vid=7623b8a0-e1ab-4389-9357-066e8eb2fde6","ios":"levelo://app?vid=7623b8a0-e1ab-4389-9357-066e8eb2fde6"},"vehicle_type_id":"4","last_reported":1720706849,"current_range_meters":30800,"station_id":"ce4bgn92rcd13ifvqbvg","pricing_plan_id":"cebpf4jnsgd1na2vs0mg"},{"bike_id":"a835a5da-4c2d-42db-adc4-88c533f96b64","system_id":"levelo_inurba_marseille","lat":43.309076,"lon":5.368465,"is_reserved":false,"is_disabled":false,"rental_uris":{"android":"levelo://app?vid=a835a5da-4c2d-42db-adc4-88c533f96b64","ios":"levelo://app?vid=a835a5da-4c2d-42db-adc4-88c533f96b64"},"vehicle_type_id":"4","last_reported":1720706849,"current_range_meters":31200,"station_id":"ce4bgn92rcd13ifvqbvg","pricing_plan_id":"cebpf4jnsgd1na2vs0mg"},{"bike_id":"a32a7741-640f-4ea7-8018-ce36e75178c6","system_id":"levelo_inurba_marseille","lat":43.309076,"lon":5.368465,"is_reserved":false,"is_disabled":false,"rental_uris":{"android":"levelo://app?vid=a32a7741-640f-4ea7-8018-ce36e75178c6","ios":"levelo://app?vid=a32a7741-640f-4ea7-8018-ce36e75178c6"},"vehicle_type_id":"4","last_reported":1720706849,"current_range_meters":26400,"station_id":"ce4bgn92rcd13ifvqbvg","pricing_plan_id":"cebpf4jnsgd1na2vs0mg"},{"bike_id":"0eae08cf-46e0-46d0-b68e-7e683b275efc","system_id":"levelo_inurba_marseille","lat":43.309076,"lon":5.368465,"is_reserved":false,"is_disabled":false,"rental_uris":{"android":"levelo://app?vid=0eae08cf-46e0-46d0-b68e-7e683b275efc","ios":"levelo://app?vid=0eae08cf-46e0-46d0-b68e-7e683b275efc"},"vehicle_type_id":"4","last_reported":1720706849,"current_range_meters":19200,"station_id":"ce4bgn92rcd13ifvqbvg","pricing_plan_id":"cebpf4jnsgd1na2vs0mg"},{"bike_id":"79dbc38a-37f6-4633-91ca-f8261740bf8f","system_id":"levelo_inurba_marseille","lat":43.314811,"lon":5.373103,"is_reserved":false,"is_disabled":false,"rental_uris":{"android":"levelo://app?vid=79dbc38a-37f6-4633-91ca-f8261740bf8f","ios":"levelo://app?vid=79dbc38a-37f6-4633-91ca-f8261740bf8f"},"vehicle_type_id":"4","last_reported":1720706849,"current_range_meters":19600,"station_id":"ce4bgt12rcd13ifvqcd0","pricing_plan_id":"cebpf4jnsgd1na2vs0mg"},{"bike_id":"c856e197-2dc7-453c-88ec-5c72a32f6828","system_id":"levelo_inurba_marseille","lat":43.314811,"lon":5.373104,"is_reserved":false,"is_disabled":false,"rental_uris":{"android":"levelo://app?vid=c856e197-2dc7-453c-88ec-5c72a32f6828","ios":"levelo://app?vid=c856e197-2dc7-453c-88ec-5c72a32f6828"},"vehicle_type_id":"4","last_reported":1720706849,"current_range_meters":4400,"station_id":"ce4bgt12rcd13ifvqcd0","pricing_plan_id":"cebpf4jnsgd1na2vs0mg"},{"bike_id":"aeaf6b0a-93b3-4545-a475-ac63e32a1c89","system_id":"levelo_inurba_marseille","lat":43.314811,"lon":5.373104,"is_reserved":false,"is_disabled":false,"rental_uris":{"android":"levelo://app?vid=aeaf6b0a-93b3-4545-a475-ac63e32a1c89","ios":"levelo://app?vid=aeaf6b0a-93b3-4545-a475-ac63e32a1c89"},"vehicle_type_id":"4","last_reported":1720706849,"current_range_meters":5600,"station_id":"ce4bgt12rcd13ifvqcd0","pricing_plan_id":"cebpf4jnsgd1na2vs0mg"},{"bike_id":"9752dde5-d681-4066-8828-0696fd1b19ca","system_id":"levelo_inurba_marseille","lat":43.314811,"lon":5.373104,"is_reserved":false,"is_disabled":false,"rental_uris":{"android":"levelo://app?vid=9752dde5-d681-4066-8828-0696fd1b19ca","ios":"levelo://app?vid=9752dde5-d681-4066-8828-0696fd1b19ca"},"vehicle_type_id":"4","last_reported":1720706849,"current_range_meters":20000,"station_id":"ce4bgt12rcd13ifvqcd0","pricing_plan_id":"cebpf4jnsgd1na2vs0mg"},{"bike_id":"557fc9f2-b0be-41f2-b71e-1f64e5c7eba1","system_id":"levelo_inurba_marseille","lat":43.30895,"lon":5.37199,"is_reserved":false,"is_disabled":false,"rental_uris":{"android":"levelo://app?vid=557fc9f2-b0be-41f2-b71e-1f64e5c7eba1","ios":"levelo://app?vid=557fc9f2-b0be-41f2-b71e-1f64e5c7eba1"},"vehicle_type_id":"4","last_reported":1720706849,"current_range_meters":0,"station_id":"ce4bguh2rcd13ifvqckg","pricing_plan_id":"cebpf4jnsgd1na2vs0mg"},{"bike_id":"f8331835-6498-4b4f-9b42-451d11f4cdac","system_id":"levelo_inurba_marseille","lat":43.308922,"lon":5.372068,"is_reserved":false,"is_disabled":false,"rental_uris":{"android":"levelo://app?vid=f8331835-6498-4b4f-9b42-451d11f4cdac","ios":"levelo://app?vid=f8331835-6498-4b4f-9b42-451d11f4cdac"},"vehicle_type_id":"4","last_reported":1720706849,"current_range_meters":10400,"station_id":"ce4bguh2rcd13ifvqckg","pricing_plan_id":"cebpf4jnsgd1na2vs0mg"},{"bike_id":"e4b5b671-5a16-4eb9-be1f-76b45e7ed5b0","system_id":"levelo_inurba_marseille","lat":43.305712,"lon":5.365641,"is_reserved":false,"is_disabled":false,"rental_uris":{"android":"levelo://app?vid=e4b5b671-5a16-4eb9-be1f-76b45e7ed5b0","ios":"levelo://app?vid=e4b5b671-5a16-4eb9-be1f-76b45e7ed5b0"},"vehicle_type_id":"4","last_reported":1720706849,"current_range_meters":12800,"station_id":"ce4bgs12rcd13ifvqcag","pricing_plan_id":"cebpf4jnsgd1na2vs0mg"},{"bike_id":"5c677bca-cc14-41fe-bd46-317d5948042b","system_id":"levelo_inurba_marseille","lat":43.305712,"lon":5.365641,"is_reserved":false,"is_disabled":false,"rental_uris":{"android":"levelo://app?vid=5c677bca-cc14-41fe-bd46-317d5948042b","ios":"levelo://app?vid=5c677bca-cc14-41fe-bd46-317d5948042b"},"vehicle_type_id":"4","last_reported":1720706849,"current_range_meters":15600,"station_id":"ce4bgs12rcd13ifvqcag","pricing_plan_id":"cebpf4jnsgd1na2vs0mg"},{"bike_id":"05fe214b-e50e-425a-a1c0-de19d843060b","system_id":"levelo_inurba_marseille","lat":43.305712,"lon":5.365641,"is_reserved":false,"is_disabled":false,"rental_uris":{"android":"levelo://app?vid=05fe214b-e50e-425a-a1c0-de19d843060b","ios":"levelo://app?vid=05fe214b-e50e-425a-a1c0-de19d843060b"},"vehicle_type_id":"4","last_reported":1720706849,"current_range_meters":21600,"station_id":"ce4bgs12rcd13ifvqcag","pricing_plan_id":"cebpf4jnsgd1na2vs0mg"},{"bike_id":"088e9938-cb79-47a4-8891-2efee3e8fd4d","system_id":"levelo_inurba_marseille","lat":43.305712,"lon":5.365641,"is_reserved":false,"is_disabled":false,"rental_uris":{"android":"levelo://app?vid=088e9938-cb79-47a4-8891-2efee3e8fd4d","ios":"levelo://app?vid=088e9938-cb79-47a4-8891-2efee3e8fd4d"},"vehicle_type_id":"4","last_reported":1720706849,"current_range_meters":8800,"station_id":"ce4bgs12rcd13ifvqcag","pricing_plan_id":"cebpf4jnsgd1na2vs0mg"},{"bike_id":"ff093256-25dd-4d6d-8e5d-c04d03ba5a3c","system_id":"levelo_inurba_marseille","lat":43.307458,"lon":5.37373,"is_reserved":false,"is_disabled":false,"rental_uris":{"android":"levelo://app?vid=ff093256-25dd-4d6d-8e5d-c04d03ba5a3c","ios":"levelo://app?vid=ff093256-25dd-4d6d-8e5d-c04d03ba5a3c"},"vehicle_type_id":"4","last_reported":1720706849,"current_range_meters":10000,"station_id":"","pricing_plan_id":"cebpf4jnsgd1na2vs0mg"},{"bike_id":"0dca397d-34dc-40a6-9ae7-50752fbd5455","system_id":"levelo_inurba_marseille","lat":43.305712,"lon":5.365641,"is_reserved":false,"is_disabled":false,"rental_uris":{"android":"levelo://app?vid=0dca397d-34dc-40a6-9ae7-50752fbd5455","ios":"levelo://app?vid=0dca397d-34dc-40a6-9ae7-50752fbd5455"},"vehicle_type_id":"4","last_reported":1720706849,"current_range_meters":0,"station_id":"ce4bgs12rcd13ifvqcag","pricing_plan_id":"cebpf4jnsgd1na2vs0mg"},{"bike_id":"e5424c8d-18a5-4982-85cf-7c7ab5605b02","system_id":"levelo_inurba_marseille","lat":43.30549,"lon":5.36716,"is_reserved":false,"is_disabled":false,"rental_uris":{"android":"levelo://app?vid=e5424c8d-18a5-4982-85cf-7c7ab5605b02","ios":"levelo://app?vid=e5424c8d-18a5-4982-85cf-7c7ab5605b02"},"vehicle_type_id":"4","last_reported":1720706849,"current_range_meters":0,"station_id":"ce4bgrp2rcd13ifvqc9g","pricing_plan_id":"cebpf4jnsgd1na2vs0mg"},{"bike_id":"d35c5cb8-5223-446a-b442-27b589ac6d57","system_id":"levelo_inurba_marseille","lat":43.305712,"lon":5.365641,"is_reserved":false,"is_disabled":false,"rental_uris":{"android":"levelo://app?vid=d35c5cb8-5223-446a-b442-27b589ac6d57","ios":"levelo://app?vid=d35c5cb8-5223-446a-b442-27b589ac6d57"},"vehicle_type_id":"4","last_reported":1720706849,"current_range_meters":26400,"station_id":"ce4bgs12rcd13ifvqcag","pricing_plan_id":"cebpf4jnsgd1na2vs0mg"},{"bike_id":"7ec48205-f2f6-4f4c-88c7-36a5f82a8a5a","system_id":"levelo_inurba_marseille","lat":43.305712,"lon":5.365641,"is_reserved":false,"is_disabled":false,"rental_uris":{"android":"levelo://app?vid=7ec48205-f2f6-4f4c-88c7-36a5f82a8a5a","ios":"levelo://app?vid=7ec48205-f2f6-4f4c-88c7-36a5f82a8a5a"},"vehicle_type_id":"4","last_reported":1720706849,"current_range_meters":21200,"station_id":"ce4bgs12rcd13ifvqcag","pricing_plan_id":"cebpf4jnsgd1na2vs0mg"},{"bike_id":"ae9f4337-b816-459c-a291-31270443f99e","system_id":"levelo_inurba_marseille","lat":43.30537,"lon":5.367345,"is_reserved":false,"is_disabled":false,"rental_uris":{"android":"levelo://app?vid=ae9f4337-b816-459c-a291-31270443f99e","ios":"levelo://app?vid=ae9f4337-b816-459c-a291-31270443f99e"},"vehicle_type_id":"4","last_reported":1720706849,"current_range_meters":7600,"station_id":"ce4bgrp2rcd13ifvqc9g","pricing_plan_id":"cebpf4jnsgd1na2vs0mg"},{"bike_id":"3bc1c9d2-44db-4da5-b630-18c8a81a73ef","system_id":"levelo_inurba_marseille","lat":43.305712,"lon":5.365641,"is_reserved":false,"is_disabled":false,"rental_uris":{"android":"levelo://app?vid=3bc1c9d2-44db-4da5-b630-18c8a81a73ef","ios":"levelo://app?vid=3bc1c9d2-44db-4da5-b630-18c8a81a73ef"},"vehicle_type_id":"4","last_reported":1720706849,"current_range_meters":17600,"station_id":"ce4bgs12rcd13ifvqcag","pricing_plan_id":"cebpf4jnsgd1na2vs0mg"},{"bike_id":"55bdf782-c115-40ca-9162-be665e79f773","system_id":"levelo_inurba_marseille","lat":43.30537,"lon":5.367345,"is_reserved":false,"is_disabled":false,"rental_uris":{"android":"levelo://app?vid=55bdf782-c115-40ca-9162-be665e79f773","ios":"levelo://app?vid=55bdf782-c115-40ca-9162-be665e79f773"},"vehicle_type_id":"4","last_reported":1720706849,"current_range_meters":9200,"station_id":"ce4bgrp2rcd13ifvqc9g","pricing_plan_id":"cebpf4jnsgd1na2vs0mg"},{"bike_id":"9ed93c29-1882-454c-b9a7-a55c0835a5bd","system_id":"levelo_inurba_marseille","lat":43.3055,"lon":5.36539,"is_reserved":false,"is_disabled":false,"rental_uris":{"android":"levelo://app?vid=9ed93c29-1882-454c-b9a7-a55c0835a5bd","ios":"levelo://app?vid=9ed93c29-1882-454c-b9a7-a55c0835a5bd"},"vehicle_type_id":"4","last_reported":1720706849,"current_range_meters":25600,"station_id":"ce4bgs12rcd13ifvqcag","pricing_plan_id":"cebpf4jnsgd1na2vs0mg"},{"bike_id":"4641ef7b-999d-4543-8aa7-690cd1559664","system_id":"levelo_inurba_marseille","lat":43.3055,"lon":5.36534,"is_reserved":false,"is_disabled":false,"rental_uris":{"android":"levelo://app?vid=4641ef7b-999d-4543-8aa7-690cd1559664","ios":"levelo://app?vid=4641ef7b-999d-4543-8aa7-690cd1559664"},"vehicle_type_id":"4","last_reported":1720706849,"current_range_meters":26800,"station_id":"ce4bgs12rcd13ifvqcag","pricing_plan_id":"cebpf4jnsgd1na2vs0mg"},{"bike_id":"98e46c78-9d2e-4b49-a7f4-67484fc2c1a9","system_id":"levelo_inurba_marseille","lat":43.30537,"lon":5.367345,"is_reserved":false,"is_disabled":false,"rental_uris":{"android":"levelo://app?vid=98e46c78-9d2e-4b49-a7f4-67484fc2c1a9","ios":"levelo://app?vid=98e46c78-9d2e-4b49-a7f4-67484fc2c1a9"},"vehicle_type_id":"4","last_reported":1720706849,"current_range_meters":4800,"station_id":"ce4bgrp2rcd13ifvqc9g","pricing_plan_id":"cebpf4jnsgd1na2vs0mg"},{"bike_id":"bd0f7f8b-eee7-4115-9b94-25b4df13854e","system_id":"levelo_inurba_marseille","lat":43.305714,"lon":5.365633,"is_reserved":false,"is_disabled":false,"rental_uris":{"android":"levelo://app?vid=bd0f7f8b-eee7-4115-9b94-25b4df13854e","ios":"levelo://app?vid=bd0f7f8b-eee7-4115-9b94-25b4df13854e"},"vehicle_type_id":"4","last_reported":1720706849,"current_range_meters":9200,"station_id":"ce4bgs12rcd13ifvqcag","pricing_plan_id":"cebpf4jnsgd1na2vs0mg"},{"bike_id":"adf6954c-c7a1-486b-a8ce-4125753f88b9","system_id":"levelo_inurba_marseille","lat":43.305714,"lon":5.365633,"is_reserved":false,"is_disabled":false,"rental_uris":{"android":"levelo://app?vid=adf6954c-c7a1-486b-a8ce-4125753f88b9","ios":"levelo://app?vid=adf6954c-c7a1-486b-a8ce-4125753f88b9"},"vehicle_type_id":"4","last_reported":1720706849,"current_range_meters":14400,"station_id":"ce4bgs12rcd13ifvqcag","pricing_plan_id":"cebpf4jnsgd1na2vs0mg"},{"bike_id":"e2008056-4fe1-4905-8482-20922d86010e","system_id":"levelo_inurba_marseille","lat":43.30534,"lon":5.36669,"is_reserved":false,"is_disabled":false,"rental_uris":{"android":"levelo://app?vid=e2008056-4fe1-4905-8482-20922d86010e","ios":"levelo://app?vid=e2008056-4fe1-4905-8482-20922d86010e"},"vehicle_type_id":"4","last_reported":1720706849,"current_range_meters":26400,"station_id":"","pricing_plan_id":"cebpf4jnsgd1na2vs0mg"},{"bike_id":"b6279f13-266b-4bdc-ad57-f6f6379633b0","system_id":"levelo_inurba_marseille","lat":43.30535,"lon":5.36555,"is_reserved":false,"is_disabled":false,"rental_uris":{"android":"levelo://app?vid=b6279f13-266b-4bdc-ad57-f6f6379633b0","ios":"levelo://app?vid=b6279f13-266b-4bdc-ad57-f6f6379633b0"},"vehicle_type_id":"4","last_reported":1720706849,"current_range_meters":0,"station_id":"ce4bgs12rcd13ifvqcag","pricing_plan_id":"cebpf4jnsgd1na2vs0mg"},{"bike_id":"5ac9e4a1-a2e9-47c7-8eaf-a3d279a31c00","system_id":"levelo_inurba_marseille","lat":43.31117,"lon":5.37779,"is_reserved":false,"is_disabled":false,"rental_uris":{"android":"levelo://app?vid=5ac9e4a1-a2e9-47c7-8eaf-a3d279a31c00","ios":"levelo://app?vid=5ac9e4a1-a2e9-47c7-8eaf-a3d279a31c00"},"vehicle_type_id":"4","last_reported":1720706849,"current_range_meters":9600,"station_id":"ce4bgt92rcd13ifvqcg0","pricing_plan_id":"cebpf4jnsgd1na2vs0mg"},{"bike_id":"0fc49e79-d42e-4f65-8902-08fd1268712f","system_id":"levelo_inurba_marseille","lat":43.307945,"lon":5.376487,"is_reserved":false,"is_disabled":false,"rental_uris":{"android":"levelo://app?vid=0fc49e79-d42e-4f65-8902-08fd1268712f","ios":"levelo://app?vid=0fc49e79-d42e-4f65-8902-08fd1268712f"},"vehicle_type_id":"4","last_reported":1720706849,"current_range_meters":11600,"station_id":"ce4bgv92rcd13ifvqcq0","pricing_plan_id":"cebpf4jnsgd1na2vs0mg"},{"bike_id":"32413e25-66cb-4a45-b976-2818a5b912ea","system_id":"levelo_inurba_marseille","lat":43.307945,"lon":5.376487,"is_reserved":false,"is_disabled":false,"rental_uris":{"android":"levelo://app?vid=32413e25-66cb-4a45-b976-2818a5b912ea","ios":"levelo://app?vid=32413e25-66cb-4a45-b976-2818a5b912ea"},"vehicle_type_id":"4","last_reported":1720706849,"current_range_meters":24800,"station_id":"ce4bgv92rcd13ifvqcq0","pricing_plan_id":"cebpf4jnsgd1na2vs0mg"},{"bike_id":"7ec676a9-cd00-4675-9c2c-fc3e26e3a843","system_id":"levelo_inurba_marseille","lat":43.317075,"lon":5.377367,"is_reserved":false,"is_disabled":false,"rental_uris":{"android":"levelo://app?vid=7ec676a9-cd00-4675-9c2c-fc3e26e3a843","ios":"levelo://app?vid=7ec676a9-cd00-4675-9c2c-fc3e26e3a843"},"vehicle_type_id":"4","last_reported":1720706849,"current_range_meters":8400,"station_id":"ce4bgth2rcd13ifvqch0","pricing_plan_id":"cebpf4jnsgd1na2vs0mg"},{"bike_id":"fe1f3e31-58cb-4da1-bbf6-5fc27896e19c","system_id":"levelo_inurba_marseille","lat":43.317075,"lon":5.377367,"is_reserved":false,"is_disabled":false,"rental_uris":{"android":"levelo://app?vid=fe1f3e31-58cb-4da1-bbf6-5fc27896e19c","ios":"levelo://app?vid=fe1f3e31-58cb-4da1-bbf6-5fc27896e19c"},"vehicle_type_id":"4","last_reported":1720706849,"current_range_meters":3200,"station_id":"ce4bgth2rcd13ifvqch0","pricing_plan_id":"cebpf4jnsgd1na2vs0mg"},{"bike_id":"08a61f16-9f47-46f5-acd0-87cc2ef8c61c","system_id":"levelo_inurba_marseille","lat":43.317075,"lon":5.377367,"is_reserved":false,"is_disabled":false,"rental_uris":{"android":"levelo://app?vid=08a61f16-9f47-46f5-acd0-87cc2ef8c61c","ios":"levelo://app?vid=08a61f16-9f47-46f5-acd0-87cc2ef8c61c"},"vehicle_type_id":"4","last_reported":1720706849,"current_range_meters":13600,"station_id":"ce4bgth2rcd13ifvqch0","pricing_plan_id":"cebpf4jnsgd1na2vs0mg"},{"bike_id":"934c1f36-31d6-4683-a20f-ce992c448466","system_id":"levelo_inurba_marseille","lat":43.317045,"lon":5.377528,"is_reserved":false,"is_disabled":false,"rental_uris":{"android":"levelo://app?vid=934c1f36-31d6-4683-a20f-ce992c448466","ios":"levelo://app?vid=934c1f36-31d6-4683-a20f-ce992c448466"},"vehicle_type_id":"4","last_reported":1720706849,"current_range_meters":16400,"station_id":"ce4bgth2rcd13ifvqch0","pricing_plan_id":"cebpf4jnsgd1na2vs0mg"},{"bike_id":"82832d3d-5aa4-4dff-bbff-3a8c6f0e70e1","system_id":"levelo_inurba_marseille","lat":43.303046,"lon":5.368981,"is_reserved":false,"is_disabled":false,"rental_uris":{"android":"levelo://app?vid=82832d3d-5aa4-4dff-bbff-3a8c6f0e70e1","ios":"levelo://app?vid=82832d3d-5aa4-4dff-bbff-3a8c6f0e70e1"},"vehicle_type_id":"4","last_reported":1720706849,"current_range_meters":18000,"station_id":"ce4bgqh2rcd13ifvqc5g","pricing_plan_id":"cebpf4jnsgd1na2vs0mg"},{"bike_id":"50e84d2c-f5b4-46db-a89c-2c3183ffdd49","system_id":"levelo_inurba_marseille","lat":43.303046,"lon":5.368981,"is_reserved":false,"is_disabled":false,"rental_uris":{"android":"levelo://app?vid=50e84d2c-f5b4-46db-a89c-2c3183ffdd49","ios":"levelo://app?vid=50e84d2c-f5b4-46db-a89c-2c3183ffdd49"},"vehicle_type_id":"4","last_reported":1720706849,"current_range_meters":21600,"station_id":"ce4bgqh2rcd13ifvqc5g","pricing_plan_id":"cebpf4jnsgd1na2vs0mg"},{"bike_id":"b4fbc8f2-997e-46c0-9a8d-e9689dada3b2","system_id":"levelo_inurba_marseille","lat":43.303046,"lon":5.368981,"is_reserved":false,"is_disabled":false,"rental_uris":{"android":"levelo://app?vid=b4fbc8f2-997e-46c0-9a8d-e9689dada3b2","ios":"levelo://app?vid=b4fbc8f2-997e-46c0-9a8d-e9689dada3b2"},"vehicle_type_id":"4","last_reported":1720706849,"current_range_meters":16000,"station_id":"ce4bgqh2rcd13ifvqc5g","pricing_plan_id":"cebpf4jnsgd1na2vs0mg"},{"bike_id":"be80e6f2-5f26-4b31-842a-c813d5b37689","system_id":"levelo_inurba_marseille","lat":43.3153,"lon":5.38042,"is_reserved":false,"is_disabled":false,"rental_uris":{"android":"levelo://app?vid=be80e6f2-5f26-4b31-842a-c813d5b37689","ios":"levelo://app?vid=be80e6f2-5f26-4b31-842a-c813d5b37689"},"vehicle_type_id":"4","last_reported":1720706849,"current_range_meters":400,"station_id":"ce4bhsp2rcd13ifvqi50","pricing_plan_id":"cebpf4jnsgd1na2vs0mg"},{"bike_id":"cb6fa826-ba58-489e-985d-c842149ba3b3","system_id":"levelo_inurba_marseille","lat":43.31528,"lon":5.38043,"is_reserved":false,"is_disabled":false,"rental_uris":{"android":"levelo://app?vid=cb6fa826-ba58-489e-985d-c842149ba3b3","ios":"levelo://app?vid=cb6fa826-ba58-489e-985d-c842149ba3b3"},"vehicle_type_id":"4","last_reported":1720706849,"current_range_meters":12000,"station_id":"ce4bhsp2rcd13ifvqi50","pricing_plan_id":"cebpf4jnsgd1na2vs0mg"},{"bike_id":"a12fd13c-4ad9-4e8b-a72a-4c51721868d4","system_id":"levelo_inurba_marseille","lat":43.303317,"lon":5.373212,"is_reserved":false,"is_disabled":false,"rental_uris":{"android":"levelo://app?vid=a12fd13c-4ad9-4e8b-a72a-4c51721868d4","ios":"levelo://app?vid=a12fd13c-4ad9-4e8b-a72a-4c51721868d4"},"vehicle_type_id":"4","last_reported":1720706849,"current_range_meters":22800,"station_id":"","pricing_plan_id":"cebpf4jnsgd1na2vs0mg"},{"bike_id":"9c425441-78ae-4eb1-8f00-b415f2533bfe","system_id":"levelo_inurba_marseille","lat":43.31076,"lon":5.38119,"is_reserved":false,"is_disabled":false,"rental_uris":{"android":"levelo://app?vid=9c425441-78ae-4eb1-8f00-b415f2533bfe","ios":"levelo://app?vid=9c425441-78ae-4eb1-8f00-b415f2533bfe"},"vehicle_type_id":"4","last_reported":1720706849,"current_range_meters":11200,"station_id":"","pricing_plan_id":"cebpf4jnsgd1na2vs0mg"},{"bike_id":"f62dfca0-3a90-479c-84a4-ee718ccf463e","system_id":"levelo_inurba_marseille","lat":43.301939,"lon":5.366286,"is_reserved":false,"is_disabled":false,"rental_uris":{"android":"levelo://app?vid=f62dfca0-3a90-479c-84a4-ee718ccf463e","ios":"levelo://app?vid=f62dfca0-3a90-479c-84a4-ee718ccf463e"},"vehicle_type_id":"4","last_reported":1720706849,"current_range_meters":7200,"station_id":"ce4bgrh2rcd13ifvqc8g","pricing_plan_id":"cebpf4jnsgd1na2vs0mg"},{"bike_id":"9fb398df-27fa-424c-8cca-400006f6e0c8","system_id":"levelo_inurba_marseille","lat":43.301939,"lon":5.366286,"is_reserved":false,"is_disabled":false,"rental_uris":{"android":"levelo://app?vid=9fb398df-27fa-424c-8cca-400006f6e0c8","ios":"levelo://app?vid=9fb398df-27fa-424c-8cca-400006f6e0c8"},"vehicle_type_id":"4","last_reported":1720706849,"current_range_meters":25200,"station_id":"ce4bgrh2rcd13ifvqc8g","pricing_plan_id":"cebpf4jnsgd1na2vs0mg"},{"bike_id":"b778ab23-4b1a-467b-81d8-130faa584ca8","system_id":"levelo_inurba_marseille","lat":43.301939,"lon":5.366286,"is_reserved":false,"is_disabled":false,"rental_uris":{"android":"levelo://app?vid=b778ab23-4b1a-467b-81d8-130faa584ca8","ios":"levelo://app?vid=b778ab23-4b1a-467b-81d8-130faa584ca8"},"vehicle_type_id":"4","last_reported":1720706849,"current_range_meters":24400,"station_id":"ce4bgrh2rcd13ifvqc8g","pricing_plan_id":"cebpf4jnsgd1na2vs0mg"},{"bike_id":"e63012ea-00a8-48b3-9756-0b4e836a61d0","system_id":"levelo_inurba_marseille","lat":43.308012,"lon":5.381511,"is_reserved":false,"is_disabled":false,"rental_uris":{"android":"levelo://app?vid=e63012ea-00a8-48b3-9756-0b4e836a61d0","ios":"levelo://app?vid=e63012ea-00a8-48b3-9756-0b4e836a61d0"},"vehicle_type_id":"4","last_reported":1720706849,"current_range_meters":11600,"station_id":"ce4bgt12rcd13ifvqce0","pricing_plan_id":"cebpf4jnsgd1na2vs0mg"},{"bike_id":"e45c2744-dd35-4ede-8dde-0d39836a53dc","system_id":"levelo_inurba_marseille","lat":43.308012,"lon":5.381511,"is_reserved":false,"is_disabled":false,"rental_uris":{"android":"levelo://app?vid=e45c2744-dd35-4ede-8dde-0d39836a53dc","ios":"levelo://app?vid=e45c2744-dd35-4ede-8dde-0d39836a53dc"},"vehicle_type_id":"4","last_reported":1720706849,"current_range_meters":26800,"station_id":"ce4bgt12rcd13ifvqce0","pricing_plan_id":"cebpf4jnsgd1na2vs0mg"},{"bike_id":"b249b1a1-b170-4d4c-9f15-51afb60bd285","system_id":"levelo_inurba_marseille","lat":43.30458,"lon":5.37904,"is_reserved":false,"is_disabled":false,"rental_uris":{"android":"levelo://app?vid=b249b1a1-b170-4d4c-9f15-51afb60bd285","ios":"levelo://app?vid=b249b1a1-b170-4d4c-9f15-51afb60bd285"},"vehicle_type_id":"4","last_reported":1720706849,"current_range_meters":0,"station_id":"ce4bgup2rcd13ifvqcn0","pricing_plan_id":"cebpf4jnsgd1na2vs0mg"},{"bike_id":"f25b32c5-ffce-4835-bb6d-ffeaba225f09","system_id":"levelo_inurba_marseille","lat":43.324771,"lon":5.36557,"is_reserved":false,"is_disabled":false,"rental_uris":{"android":"levelo://app?vid=f25b32c5-ffce-4835-bb6d-ffeaba225f09","ios":"levelo://app?vid=f25b32c5-ffce-4835-bb6d-ffeaba225f09"},"vehicle_type_id":"4","last_reported":1720706849,"current_range_meters":1200,"station_id":"ce4bhs12rcd13ifvqhvg","pricing_plan_id":"cebpf4jnsgd1na2vs0mg"},{"bike_id":"122627aa-5889-42de-b5ff-45cf3df1a29f","system_id":"levelo_inurba_marseille","lat":43.3248,"lon":5.36576,"is_reserved":false,"is_disabled":false,"rental_uris":{"android":"levelo://app?vid=122627aa-5889-42de-b5ff-45cf3df1a29f","ios":"levelo://app?vid=122627aa-5889-42de-b5ff-45cf3df1a29f"},"vehicle_type_id":"4","last_reported":1720706849,"current_range_meters":11600,"station_id":"ce4bhs12rcd13ifvqhvg","pricing_plan_id":"cebpf4jnsgd1na2vs0mg"},{"bike_id":"d425ad90-a529-4777-99b2-ccf6057c42de","system_id":"levelo_inurba_marseille","lat":43.324771,"lon":5.36557,"is_reserved":false,"is_disabled":false,"rental_uris":{"android":"levelo://app?vid=d425ad90-a529-4777-99b2-ccf6057c42de","ios":"levelo://app?vid=d425ad90-a529-4777-99b2-ccf6057c42de"},"vehicle_type_id":"4","last_reported":1720706849,"current_range_meters":400,"station_id":"ce4bhs12rcd13ifvqhvg","pricing_plan_id":"cebpf4jnsgd1na2vs0mg"},{"bike_id":"c980c8ab-acca-4a90-92d3-2536426ec534","system_id":"levelo_inurba_marseille","lat":43.324771,"lon":5.36557,"is_reserved":false,"is_disabled":false,"rental_uris":{"android":"levelo://app?vid=c980c8ab-acca-4a90-92d3-2536426ec534","ios":"levelo://app?vid=c980c8ab-acca-4a90-92d3-2536426ec534"},"vehicle_type_id":"4","last_reported":1720706849,"current_range_meters":31600,"station_id":"ce4bhs12rcd13ifvqhvg","pricing_plan_id":"cebpf4jnsgd1na2vs0mg"},{"bike_id":"7b8c1ea3-9ae3-4f8a-9be1-3101f37065e5","system_id":"levelo_inurba_marseille","lat":43.324771,"lon":5.36557,"is_reserved":false,"is_disabled":false,"rental_uris":{"android":"levelo://app?vid=7b8c1ea3-9ae3-4f8a-9be1-3101f37065e5","ios":"levelo://app?vid=7b8c1ea3-9ae3-4f8a-9be1-3101f37065e5"},"vehicle_type_id":"4","last_reported":1720706849,"current_range_meters":23200,"station_id":"ce4bhs12rcd13ifvqhvg","pricing_plan_id":"cebpf4jnsgd1na2vs0mg"},{"bike_id":"cda51581-678f-49fe-a31d-316d946d7d99","system_id":"levelo_inurba_marseille","lat":43.324822,"lon":5.36583,"is_reserved":false,"is_disabled":false,"rental_uris":{"android":"levelo://app?vid=cda51581-678f-49fe-a31d-316d946d7d99","ios":"levelo://app?vid=cda51581-678f-49fe-a31d-316d946d7d99"},"vehicle_type_id":"4","last_reported":1720706849,"current_range_meters":6800,"station_id":"ce4bhs12rcd13ifvqhvg","pricing_plan_id":"cebpf4jnsgd1na2vs0mg"},{"bike_id":"c58b9972-705e-4580-82ce-0494af9e6444","system_id":"levelo_inurba_marseille","lat":43.324826,"lon":5.365756,"is_reserved":false,"is_disabled":false,"rental_uris":{"android":"levelo://app?vid=c58b9972-705e-4580-82ce-0494af9e6444","ios":"levelo://app?vid=c58b9972-705e-4580-82ce-0494af9e6444"},"vehicle_type_id":"4","last_reported":1720706849,"current_range_meters":8400,"station_id":"ce4bhs12rcd13ifvqhvg","pricing_plan_id":"cebpf4jnsgd1na2vs0mg"},{"bike_id":"a81febe1-754a-4db1-8cda-89c51e87fe48","system_id":"levelo_inurba_marseille","lat":43.324771,"lon":5.36557,"is_reserved":false,"is_disabled":false,"rental_uris":{"android":"levelo://app?vid=a81febe1-754a-4db1-8cda-89c51e87fe48","ios":"levelo://app?vid=a81febe1-754a-4db1-8cda-89c51e87fe48"},"vehicle_type_id":"4","last_reported":1720706849,"current_range_meters":11200,"station_id":"ce4bhs12rcd13ifvqhvg","pricing_plan_id":"cebpf4jnsgd1na2vs0mg"},{"bike_id":"e366264e-46d1-4e5d-a467-ce2da31ead04","system_id":"levelo_inurba_marseille","lat":43.324771,"lon":5.36557,"is_reserved":false,"is_disabled":false,"rental_uris":{"android":"levelo://app?vid=e366264e-46d1-4e5d-a467-ce2da31ead04","ios":"levelo://app?vid=e366264e-46d1-4e5d-a467-ce2da31ead04"},"vehicle_type_id":"4","last_reported":1720706849,"current_range_meters":31200,"station_id":"ce4bhs12rcd13ifvqhvg","pricing_plan_id":"cebpf4jnsgd1na2vs0mg"},{"bike_id":"ddc267a3-dd12-44eb-8f62-c98107ad77dc","system_id":"levelo_inurba_marseille","lat":43.32484,"lon":5.3658,"is_reserved":false,"is_disabled":false,"rental_uris":{"android":"levelo://app?vid=ddc267a3-dd12-44eb-8f62-c98107ad77dc","ios":"levelo://app?vid=ddc267a3-dd12-44eb-8f62-c98107ad77dc"},"vehicle_type_id":"4","last_reported":1720706849,"current_range_meters":8800,"station_id":"ce4bhs12rcd13ifvqhvg","pricing_plan_id":"cebpf4jnsgd1na2vs0mg"},{"bike_id":"8c3db1b0-97c0-413d-9eb8-141ee8f329af","system_id":"levelo_inurba_marseille","lat":43.324771,"lon":5.36557,"is_reserved":false,"is_disabled":false,"rental_uris":{"android":"levelo://app?vid=8c3db1b0-97c0-413d-9eb8-141ee8f329af","ios":"levelo://app?vid=8c3db1b0-97c0-413d-9eb8-141ee8f329af"},"vehicle_type_id":"4","last_reported":1720706849,"current_range_meters":31600,"station_id":"ce4bhs12rcd13ifvqhvg","pricing_plan_id":"cebpf4jnsgd1na2vs0mg"},{"bike_id":"59e1f12c-cdd8-4bf8-965e-941d5ef040a7","system_id":"levelo_inurba_marseille","lat":43.310804,"lon":5.38359,"is_reserved":false,"is_disabled":false,"rental_uris":{"android":"levelo://app?vid=59e1f12c-cdd8-4bf8-965e-941d5ef040a7","ios":"levelo://app?vid=59e1f12c-cdd8-4bf8-965e-941d5ef040a7"},"vehicle_type_id":"4","last_reported":1720706849,"current_range_meters":800,"station_id":"ce4bgv92rcd13ifvqcr0","pricing_plan_id":"cebpf4jnsgd1na2vs0mg"},{"bike_id":"9b62e8f3-ecc3-467c-bdeb-ce7979fbe868","system_id":"levelo_inurba_marseille","lat":43.310804,"lon":5.38359,"is_reserved":false,"is_disabled":false,"rental_uris":{"android":"levelo://app?vid=9b62e8f3-ecc3-467c-bdeb-ce7979fbe868","ios":"levelo://app?vid=9b62e8f3-ecc3-467c-bdeb-ce7979fbe868"},"vehicle_type_id":"4","last_reported":1720706849,"current_range_meters":10000,"station_id":"ce4bgv92rcd13ifvqcr0","pricing_plan_id":"cebpf4jnsgd1na2vs0mg"},{"bike_id":"3dc332e2-9c7c-46f4-9823-bac5ea5771bb","system_id":"levelo_inurba_marseille","lat":43.310804,"lon":5.38359,"is_reserved":false,"is_disabled":false,"rental_uris":{"android":"levelo://app?vid=3dc332e2-9c7c-46f4-9823-bac5ea5771bb","ios":"levelo://app?vid=3dc332e2-9c7c-46f4-9823-bac5ea5771bb"},"vehicle_type_id":"4","last_reported":1720706849,"current_range_meters":26800,"station_id":"ce4bgv92rcd13ifvqcr0","pricing_plan_id":"cebpf4jnsgd1na2vs0mg"},{"bike_id":"98efde27-50be-4c3e-aa43-f4f0b8ef752b","system_id":"levelo_inurba_marseille","lat":43.310804,"lon":5.38359,"is_reserved":false,"is_disabled":false,"rental_uris":{"android":"levelo://app?vid=98efde27-50be-4c3e-aa43-f4f0b8ef752b","ios":"levelo://app?vid=98efde27-50be-4c3e-aa43-f4f0b8ef752b"},"vehicle_type_id":"4","last_reported":1720706849,"current_range_meters":29200,"station_id":"ce4bgv92rcd13ifvqcr0","pricing_plan_id":"cebpf4jnsgd1na2vs0mg"},{"bike_id":"aae501a0-6066-4069-a8fc-b483dad5f6ed","system_id":"levelo_inurba_marseille","lat":43.310804,"lon":5.38359,"is_reserved":false,"is_disabled":false,"rental_uris":{"android":"levelo://app?vid=aae501a0-6066-4069-a8fc-b483dad5f6ed","ios":"levelo://app?vid=aae501a0-6066-4069-a8fc-b483dad5f6ed"},"vehicle_type_id":"4","last_reported":1720706849,"current_range_meters":18000,"station_id":"ce4bgv92rcd13ifvqcr0","pricing_plan_id":"cebpf4jnsgd1na2vs0mg"},{"bike_id":"b9c46f35-e622-45fa-9cc1-b960644774e7","system_id":"levelo_inurba_marseille","lat":43.310804,"lon":5.38359,"is_reserved":false,"is_disabled":false,"rental_uris":{"android":"levelo://app?vid=b9c46f35-e622-45fa-9cc1-b960644774e7","ios":"levelo://app?vid=b9c46f35-e622-45fa-9cc1-b960644774e7"},"vehicle_type_id":"4","last_reported":1720706849,"current_range_meters":24400,"station_id":"ce4bgv92rcd13ifvqcr0","pricing_plan_id":"cebpf4jnsgd1na2vs0mg"},{"bike_id":"b36b1b3e-3597-4856-ad68-868d7381709d","system_id":"levelo_inurba_marseille","lat":43.310804,"lon":5.38359,"is_reserved":false,"is_disabled":false,"rental_uris":{"android":"levelo://app?vid=b36b1b3e-3597-4856-ad68-868d7381709d","ios":"levelo://app?vid=b36b1b3e-3597-4856-ad68-868d7381709d"},"vehicle_type_id":"4","last_reported":1720706849,"current_range_meters":31200,"station_id":"ce4bgv92rcd13ifvqcr0","pricing_plan_id":"cebpf4jnsgd1na2vs0mg"},{"bike_id":"68c8da0d-4b88-46fe-9f1c-191ac416c294","system_id":"levelo_inurba_marseille","lat":43.301439,"lon":5.374165,"is_reserved":false,"is_disabled":false,"rental_uris":{"android":"levelo://app?vid=68c8da0d-4b88-46fe-9f1c-191ac416c294","ios":"levelo://app?vid=68c8da0d-4b88-46fe-9f1c-191ac416c294"},"vehicle_type_id":"4","last_reported":1720706849,"current_range_meters":22000,"station_id":"ce4bgs92rcd13ifvqcc0","pricing_plan_id":"cebpf4jnsgd1na2vs0mg"},{"bike_id":"7e71c463-2efc-4236-baf8-4b671ea5baab","system_id":"levelo_inurba_marseille","lat":43.30189,"lon":5.375422,"is_reserved":false,"is_disabled":false,"rental_uris":{"android":"levelo://app?vid=7e71c463-2efc-4236-baf8-4b671ea5baab","ios":"levelo://app?vid=7e71c463-2efc-4236-baf8-4b671ea5baab"},"vehicle_type_id":"4","last_reported":1720706849,"current_range_meters":14400,"station_id":"","pricing_plan_id":"cebpf4jnsgd1na2vs0mg"},{"bike_id":"492a288b-a9e0-403f-b232-08ccd9d87230","system_id":"levelo_inurba_marseille","lat":43.302784,"lon":5.377158,"is_reserved":false,"is_disabled":false,"rental_uris":{"android":"levelo://app?vid=492a288b-a9e0-403f-b232-08ccd9d87230","ios":"levelo://app?vid=492a288b-a9e0-403f-b232-08ccd9d87230"},"vehicle_type_id":"4","last_reported":1720706849,"current_range_meters":4400,"station_id":"ce4bguh2rcd13ifvqcj0","pricing_plan_id":"cebpf4jnsgd1na2vs0mg"},{"bike_id":"dca97893-7377-438b-89a3-2ec529af07bf","system_id":"levelo_inurba_marseille","lat":43.301429,"lon":5.37413,"is_reserved":false,"is_disabled":false,"rental_uris":{"android":"levelo://app?vid=dca97893-7377-438b-89a3-2ec529af07bf","ios":"levelo://app?vid=dca97893-7377-438b-89a3-2ec529af07bf"},"vehicle_type_id":"4","last_reported":1720706849,"current_range_meters":0,"station_id":"ce4bgs92rcd13ifvqcc0","pricing_plan_id":"cebpf4jnsgd1na2vs0mg"},{"bike_id":"20143a51-331d-4f1c-b73d-970440c401da","system_id":"levelo_inurba_marseille","lat":43.302784,"lon":5.377158,"is_reserved":false,"is_disabled":false,"rental_uris":{"android":"levelo://app?vid=20143a51-331d-4f1c-b73d-970440c401da","ios":"levelo://app?vid=20143a51-331d-4f1c-b73d-970440c401da"},"vehicle_type_id":"4","last_reported":1720706849,"current_range_meters":21200,"station_id":"ce4bguh2rcd13ifvqcj0","pricing_plan_id":"cebpf4jnsgd1na2vs0mg"},{"bike_id":"864bc876-4dad-4536-912c-d34beb1da744","system_id":"levelo_inurba_marseille","lat":43.301429,"lon":5.37413,"is_reserved":false,"is_disabled":false,"rental_uris":{"android":"levelo://app?vid=864bc876-4dad-4536-912c-d34beb1da744","ios":"levelo://app?vid=864bc876-4dad-4536-912c-d34beb1da744"},"vehicle_type_id":"4","last_reported":1720706849,"current_range_meters":30000,"station_id":"ce4bgs92rcd13ifvqcc0","pricing_plan_id":"cebpf4jnsgd1na2vs0mg"},{"bike_id":"5bc8be37-e36d-4dee-88d4-184d3024f2c6","system_id":"levelo_inurba_marseille","lat":43.31986,"lon":5.38144,"is_reserved":false,"is_disabled":false,"rental_uris":{"android":"levelo://app?vid=5bc8be37-e36d-4dee-88d4-184d3024f2c6","ios":"levelo://app?vid=5bc8be37-e36d-4dee-88d4-184d3024f2c6"},"vehicle_type_id":"4","last_reported":1720706849,"current_range_meters":25200,"station_id":"ce4bhr12rcd13ifvqhpg","pricing_plan_id":"cebpf4jnsgd1na2vs0mg"},{"bike_id":"2d4e1b25-a3e8-4128-a286-74d02337f65f","system_id":"levelo_inurba_marseille","lat":43.31996,"lon":5.38162,"is_reserved":false,"is_disabled":false,"rental_uris":{"android":"levelo://app?vid=2d4e1b25-a3e8-4128-a286-74d02337f65f","ios":"levelo://app?vid=2d4e1b25-a3e8-4128-a286-74d02337f65f"},"vehicle_type_id":"4","last_reported":1720706849,"current_range_meters":20800,"station_id":"ce4bhr12rcd13ifvqhpg","pricing_plan_id":"cebpf4jnsgd1na2vs0mg"},{"bike_id":"2e6e733e-d6d8-47ad-a765-b95663bfc59a","system_id":"levelo_inurba_marseille","lat":43.31993,"lon":5.38167,"is_reserved":false,"is_disabled":false,"rental_uris":{"android":"levelo://app?vid=2e6e733e-d6d8-47ad-a765-b95663bfc59a","ios":"levelo://app?vid=2e6e733e-d6d8-47ad-a765-b95663bfc59a"},"vehicle_type_id":"4","last_reported":1720706849,"current_range_meters":16800,"station_id":"ce4bhr12rcd13ifvqhpg","pricing_plan_id":"cebpf4jnsgd1na2vs0mg"},{"bike_id":"596d99c8-7a44-4609-9965-4920509e0e5c","system_id":"levelo_inurba_marseille","lat":43.313571,"lon":5.384829,"is_reserved":false,"is_disabled":false,"rental_uris":{"android":"levelo://app?vid=596d99c8-7a44-4609-9965-4920509e0e5c","ios":"levelo://app?vid=596d99c8-7a44-4609-9965-4920509e0e5c"},"vehicle_type_id":"4","last_reported":1720706849,"current_range_meters":7600,"station_id":"ce4bgt92rcd13ifvqcf0","pricing_plan_id":"cebpf4jnsgd1na2vs0mg"},{"bike_id":"5be7be2c-0038-4759-bd7d-f8d59eba5462","system_id":"levelo_inurba_marseille","lat":43.313571,"lon":5.384829,"is_reserved":false,"is_disabled":false,"rental_uris":{"android":"levelo://app?vid=5be7be2c-0038-4759-bd7d-f8d59eba5462","ios":"levelo://app?vid=5be7be2c-0038-4759-bd7d-f8d59eba5462"},"vehicle_type_id":"4","last_reported":1720706849,"current_range_meters":28000,"station_id":"ce4bgt92rcd13ifvqcf0","pricing_plan_id":"cebpf4jnsgd1na2vs0mg"},{"bike_id":"53acf555-8c55-400f-bad1-feb0e9e18a41","system_id":"levelo_inurba_marseille","lat":43.299222,"lon":5.365554,"is_reserved":false,"is_disabled":false,"rental_uris":{"android":"levelo://app?vid=53acf555-8c55-400f-bad1-feb0e9e18a41","ios":"levelo://app?vid=53acf555-8c55-400f-bad1-feb0e9e18a41"},"vehicle_type_id":"4","last_reported":1720706849,"current_range_meters":21200,"station_id":"ce4bgm92rcd13ifvqbr0","pricing_plan_id":"cebpf4jnsgd1na2vs0mg"},{"bike_id":"e0c30ecc-4543-470d-9adf-ec82a00a15d2","system_id":"levelo_inurba_marseille","lat":43.298433,"lon":5.362774,"is_reserved":false,"is_disabled":false,"rental_uris":{"android":"levelo://app?vid=e0c30ecc-4543-470d-9adf-ec82a00a15d2","ios":"levelo://app?vid=e0c30ecc-4543-470d-9adf-ec82a00a15d2"},"vehicle_type_id":"4","last_reported":1720706849,"current_range_meters":17200,"station_id":"ce4bgpp2rcd13ifvqc3g","pricing_plan_id":"cebpf4jnsgd1na2vs0mg"},{"bike_id":"2272c322-6105-4761-8c9c-d29aa3ec201c","system_id":"levelo_inurba_marseille","lat":43.298433,"lon":5.362774,"is_reserved":false,"is_disabled":false,"rental_uris":{"android":"levelo://app?vid=2272c322-6105-4761-8c9c-d29aa3ec201c","ios":"levelo://app?vid=2272c322-6105-4761-8c9c-d29aa3ec201c"},"vehicle_type_id":"4","last_reported":1720706849,"current_range_meters":30800,"station_id":"ce4bgpp2rcd13ifvqc3g","pricing_plan_id":"cebpf4jnsgd1na2vs0mg"},{"bike_id":"bf5401da-8f29-4a8c-979f-52ad298b4270","system_id":"levelo_inurba_marseille","lat":43.298433,"lon":5.362774,"is_reserved":false,"is_disabled":false,"rental_uris":{"android":"levelo://app?vid=bf5401da-8f29-4a8c-979f-52ad298b4270","ios":"levelo://app?vid=bf5401da-8f29-4a8c-979f-52ad298b4270"},"vehicle_type_id":"4","last_reported":1720706849,"current_range_meters":31600,"station_id":"ce4bgpp2rcd13ifvqc3g","pricing_plan_id":"cebpf4jnsgd1na2vs0mg"},{"bike_id":"71e0bb05-0286-4375-918a-d30ea565d3da","system_id":"levelo_inurba_marseille","lat":43.29852,"lon":5.36285,"is_reserved":false,"is_disabled":false,"rental_uris":{"android":"levelo://app?vid=71e0bb05-0286-4375-918a-d30ea565d3da","ios":"levelo://app?vid=71e0bb05-0286-4375-918a-d30ea565d3da"},"vehicle_type_id":"4","last_reported":1720706849,"current_range_meters":16400,"station_id":"ce4bgpp2rcd13ifvqc3g","pricing_plan_id":"cebpf4jnsgd1na2vs0mg"},{"bike_id":"08753104-91f4-42c4-b715-b5d8641b7e98","system_id":"levelo_inurba_marseille","lat":43.298433,"lon":5.362774,"is_reserved":false,"is_disabled":false,"rental_uris":{"android":"levelo://app?vid=08753104-91f4-42c4-b715-b5d8641b7e98","ios":"levelo://app?vid=08753104-91f4-42c4-b715-b5d8641b7e98"},"vehicle_type_id":"4","last_reported":1720706849,"current_range_meters":31600,"station_id":"ce4bgpp2rcd13ifvqc3g","pricing_plan_id":"cebpf4jnsgd1na2vs0mg"},{"bike_id":"51455b1e-83ff-45c1-a6b6-aeef378cb207","system_id":"levelo_inurba_marseille","lat":43.298433,"lon":5.362774,"is_reserved":false,"is_disabled":false,"rental_uris":{"android":"levelo://app?vid=51455b1e-83ff-45c1-a6b6-aeef378cb207","ios":"levelo://app?vid=51455b1e-83ff-45c1-a6b6-aeef378cb207"},"vehicle_type_id":"4","last_reported":1720706849,"current_range_meters":31600,"station_id":"ce4bgpp2rcd13ifvqc3g","pricing_plan_id":"cebpf4jnsgd1na2vs0mg"},{"bike_id":"3368fcd2-addd-49df-a723-765ca47c7902","system_id":"levelo_inurba_marseille","lat":43.298433,"lon":5.362774,"is_reserved":false,"is_disabled":false,"rental_uris":{"android":"levelo://app?vid=3368fcd2-addd-49df-a723-765ca47c7902","ios":"levelo://app?vid=3368fcd2-addd-49df-a723-765ca47c7902"},"vehicle_type_id":"4","last_reported":1720706849,"current_range_meters":31600,"station_id":"ce4bgpp2rcd13ifvqc3g","pricing_plan_id":"cebpf4jnsgd1na2vs0mg"},{"bike_id":"3f695ca1-ad5f-4077-9e0f-bd09d272589e","system_id":"levelo_inurba_marseille","lat":43.2985,"lon":5.36273,"is_reserved":false,"is_disabled":false,"rental_uris":{"android":"levelo://app?vid=3f695ca1-ad5f-4077-9e0f-bd09d272589e","ios":"levelo://app?vid=3f695ca1-ad5f-4077-9e0f-bd09d272589e"},"vehicle_type_id":"4","last_reported":1720706849,"current_range_meters":31200,"station_id":"ce4bgpp2rcd13ifvqc3g","pricing_plan_id":"cebpf4jnsgd1na2vs0mg"},{"bike_id":"6dee0e1e-39c5-4e2a-bc01-099ed779d4d5","system_id":"levelo_inurba_marseille","lat":43.298433,"lon":5.362774,"is_reserved":false,"is_disabled":false,"rental_uris":{"android":"levelo://app?vid=6dee0e1e-39c5-4e2a-bc01-099ed779d4d5","ios":"levelo://app?vid=6dee0e1e-39c5-4e2a-bc01-099ed779d4d5"},"vehicle_type_id":"4","last_reported":1720706849,"current_range_meters":23200,"station_id":"ce4bgpp2rcd13ifvqc3g","pricing_plan_id":"cebpf4jnsgd1na2vs0mg"},{"bike_id":"7993835d-461c-4abd-81a3-ad367e3cd0c3","system_id":"levelo_inurba_marseille","lat":43.305364,"lon":5.384119,"is_reserved":false,"is_disabled":false,"rental_uris":{"android":"levelo://app?vid=7993835d-461c-4abd-81a3-ad367e3cd0c3","ios":"levelo://app?vid=7993835d-461c-4abd-81a3-ad367e3cd0c3"},"vehicle_type_id":"4","last_reported":1720706849,"current_range_meters":28800,"station_id":"ce4bgg92rcd13ifvqb30","pricing_plan_id":"cebpf4jnsgd1na2vs0mg"},{"bike_id":"bb5e93f8-f72a-4e13-8d51-1d201ae17cd7","system_id":"levelo_inurba_marseille","lat":43.298433,"lon":5.362774,"is_reserved":false,"is_disabled":false,"rental_uris":{"android":"levelo://app?vid=bb5e93f8-f72a-4e13-8d51-1d201ae17cd7","ios":"levelo://app?vid=bb5e93f8-f72a-4e13-8d51-1d201ae17cd7"},"vehicle_type_id":"4","last_reported":1720706849,"current_range_meters":22400,"station_id":"ce4bgpp2rcd13ifvqc3g","pricing_plan_id":"cebpf4jnsgd1na2vs0mg"},{"bike_id":"5f5e026e-958f-4acb-acea-40c8d0530e25","system_id":"levelo_inurba_marseille","lat":43.298433,"lon":5.362774,"is_reserved":false,"is_disabled":false,"rental_uris":{"android":"levelo://app?vid=5f5e026e-958f-4acb-acea-40c8d0530e25","ios":"levelo://app?vid=5f5e026e-958f-4acb-acea-40c8d0530e25"},"vehicle_type_id":"4","last_reported":1720706849,"current_range_meters":31200,"station_id":"ce4bgpp2rcd13ifvqc3g","pricing_plan_id":"cebpf4jnsgd1na2vs0mg"},{"bike_id":"616de978-0617-4bf8-8245-6aa1dff7563b","system_id":"levelo_inurba_marseille","lat":43.298433,"lon":5.362774,"is_reserved":false,"is_disabled":false,"rental_uris":{"android":"levelo://app?vid=616de978-0617-4bf8-8245-6aa1dff7563b","ios":"levelo://app?vid=616de978-0617-4bf8-8245-6aa1dff7563b"},"vehicle_type_id":"4","last_reported":1720706849,"current_range_meters":19200,"station_id":"ce4bgpp2rcd13ifvqc3g","pricing_plan_id":"cebpf4jnsgd1na2vs0mg"},{"bike_id":"0956d937-1c13-4dbe-9ba6-ef9986271696","system_id":"levelo_inurba_marseille","lat":43.298433,"lon":5.362774,"is_reserved":false,"is_disabled":false,"rental_uris":{"android":"levelo://app?vid=0956d937-1c13-4dbe-9ba6-ef9986271696","ios":"levelo://app?vid=0956d937-1c13-4dbe-9ba6-ef9986271696"},"vehicle_type_id":"4","last_reported":1720706849,"current_range_meters":31200,"station_id":"ce4bgpp2rcd13ifvqc3g","pricing_plan_id":"cebpf4jnsgd1na2vs0mg"},{"bike_id":"59e348f9-3902-49e7-bb56-b502b662c65a","system_id":"levelo_inurba_marseille","lat":43.298433,"lon":5.362774,"is_reserved":false,"is_disabled":false,"rental_uris":{"android":"levelo://app?vid=59e348f9-3902-49e7-bb56-b502b662c65a","ios":"levelo://app?vid=59e348f9-3902-49e7-bb56-b502b662c65a"},"vehicle_type_id":"4","last_reported":1720706849,"current_range_meters":12800,"station_id":"ce4bgpp2rcd13ifvqc3g","pricing_plan_id":"cebpf4jnsgd1na2vs0mg"},{"bike_id":"7986ace4-2961-480f-b946-edbc9570ecc0","system_id":"levelo_inurba_marseille","lat":43.305364,"lon":5.384119,"is_reserved":false,"is_disabled":false,"rental_uris":{"android":"levelo://app?vid=7986ace4-2961-480f-b946-edbc9570ecc0","ios":"levelo://app?vid=7986ace4-2961-480f-b946-edbc9570ecc0"},"vehicle_type_id":"4","last_reported":1720706849,"current_range_meters":4400,"station_id":"ce4bgg92rcd13ifvqb30","pricing_plan_id":"cebpf4jnsgd1na2vs0mg"},{"bike_id":"f9dfb371-a366-421f-8ed9-411f14deb67b","system_id":"levelo_inurba_marseille","lat":43.298433,"lon":5.362774,"is_reserved":false,"is_disabled":false,"rental_uris":{"android":"levelo://app?vid=f9dfb371-a366-421f-8ed9-411f14deb67b","ios":"levelo://app?vid=f9dfb371-a366-421f-8ed9-411f14deb67b"},"vehicle_type_id":"4","last_reported":1720706849,"current_range_meters":0,"station_id":"ce4bgpp2rcd13ifvqc3g","pricing_plan_id":"cebpf4jnsgd1na2vs0mg"},{"bike_id":"f3885905-2cb2-42ac-b9cc-78c84fdd02b4","system_id":"levelo_inurba_marseille","lat":43.311722,"lon":5.387247,"is_reserved":false,"is_disabled":false,"rental_uris":{"android":"levelo://app?vid=f3885905-2cb2-42ac-b9cc-78c84fdd02b4","ios":"levelo://app?vid=f3885905-2cb2-42ac-b9cc-78c84fdd02b4"},"vehicle_type_id":"4","last_reported":1720706849,"current_range_meters":6000,"station_id":"ce4bgv12rcd13ifvqcp0","pricing_plan_id":"cebpf4jnsgd1na2vs0mg"},{"bike_id":"93909663-3c50-4b47-826d-e4b52af52a53","system_id":"levelo_inurba_marseille","lat":43.311722,"lon":5.387247,"is_reserved":false,"is_disabled":false,"rental_uris":{"android":"levelo://app?vid=93909663-3c50-4b47-826d-e4b52af52a53","ios":"levelo://app?vid=93909663-3c50-4b47-826d-e4b52af52a53"},"vehicle_type_id":"4","last_reported":1720706849,"current_range_meters":28000,"station_id":"ce4bgv12rcd13ifvqcp0","pricing_plan_id":"cebpf4jnsgd1na2vs0mg"},{"bike_id":"34272ade-fbe6-4488-9982-41d39aa688de","system_id":"levelo_inurba_marseille","lat":43.311722,"lon":5.387247,"is_reserved":false,"is_disabled":false,"rental_uris":{"android":"levelo://app?vid=34272ade-fbe6-4488-9982-41d39aa688de","ios":"levelo://app?vid=34272ade-fbe6-4488-9982-41d39aa688de"},"vehicle_type_id":"4","last_reported":1720706849,"current_range_meters":12000,"station_id":"ce4bgv12rcd13ifvqcp0","pricing_plan_id":"cebpf4jnsgd1na2vs0mg"},{"bike_id":"f593c609-945e-4af8-a80f-36db59747745","system_id":"levelo_inurba_marseille","lat":43.297774,"lon":5.370875,"is_reserved":false,"is_disabled":false,"rental_uris":{"android":"levelo://app?vid=f593c609-945e-4af8-a80f-36db59747745","ios":"levelo://app?vid=f593c609-945e-4af8-a80f-36db59747745"},"vehicle_type_id":"4","last_reported":1720706849,"current_range_meters":29600,"station_id":"ce4bgop2rcd13ifvqc1g","pricing_plan_id":"cebpf4jnsgd1na2vs0mg"},{"bike_id":"e289f630-d9d1-419a-942e-4766ede953eb","system_id":"levelo_inurba_marseille","lat":43.297774,"lon":5.370875,"is_reserved":false,"is_disabled":false,"rental_uris":{"android":"levelo://app?vid=e289f630-d9d1-419a-942e-4766ede953eb","ios":"levelo://app?vid=e289f630-d9d1-419a-942e-4766ede953eb"},"vehicle_type_id":"4","last_reported":1720706849,"current_range_meters":7600,"station_id":"ce4bgop2rcd13ifvqc1g","pricing_plan_id":"cebpf4jnsgd1na2vs0mg"},{"bike_id":"0e10de8c-8656-480e-9f31-7619667c2864","system_id":"levelo_inurba_marseille","lat":43.297774,"lon":5.370875,"is_reserved":false,"is_disabled":false,"rental_uris":{"android":"levelo://app?vid=0e10de8c-8656-480e-9f31-7619667c2864","ios":"levelo://app?vid=0e10de8c-8656-480e-9f31-7619667c2864"},"vehicle_type_id":"4","last_reported":1720706849,"current_range_meters":28800,"station_id":"ce4bgop2rcd13ifvqc1g","pricing_plan_id":"cebpf4jnsgd1na2vs0mg"},{"bike_id":"a11ff508-8be7-4528-a7bc-62e0299b5a28","system_id":"levelo_inurba_marseille","lat":43.29782,"lon":5.37105,"is_reserved":false,"is_disabled":false,"rental_uris":{"android":"levelo://app?vid=a11ff508-8be7-4528-a7bc-62e0299b5a28","ios":"levelo://app?vid=a11ff508-8be7-4528-a7bc-62e0299b5a28"},"vehicle_type_id":"4","last_reported":1720706849,"current_range_meters":25600,"station_id":"ce4bgop2rcd13ifvqc1g","pricing_plan_id":"cebpf4jnsgd1na2vs0mg"},{"bike_id":"d7073542-17e7-41b9-888f-74fe7e20ac54","system_id":"levelo_inurba_marseille","lat":43.297794,"lon":5.370888,"is_reserved":false,"is_disabled":false,"rental_uris":{"android":"levelo://app?vid=d7073542-17e7-41b9-888f-74fe7e20ac54","ios":"levelo://app?vid=d7073542-17e7-41b9-888f-74fe7e20ac54"},"vehicle_type_id":"4","last_reported":1720706849,"current_range_meters":11200,"station_id":"ce4bgop2rcd13ifvqc1g","pricing_plan_id":"cebpf4jnsgd1na2vs0mg"},{"bike_id":"487568aa-68d0-416a-96fe-5e21ca804092","system_id":"levelo_inurba_marseille","lat":43.322851,"lon":5.382647,"is_reserved":false,"is_disabled":false,"rental_uris":{"android":"levelo://app?vid=487568aa-68d0-416a-96fe-5e21ca804092","ios":"levelo://app?vid=487568aa-68d0-416a-96fe-5e21ca804092"},"vehicle_type_id":"4","last_reported":1720706849,"current_range_meters":29600,"station_id":"ce4bhr12rcd13ifvqhqg","pricing_plan_id":"cebpf4jnsgd1na2vs0mg"},{"bike_id":"022d673e-6608-4fae-8df1-6ca156250aec","system_id":"levelo_inurba_marseille","lat":43.297794,"lon":5.370888,"is_reserved":false,"is_disabled":false,"rental_uris":{"android":"levelo://app?vid=022d673e-6608-4fae-8df1-6ca156250aec","ios":"levelo://app?vid=022d673e-6608-4fae-8df1-6ca156250aec"},"vehicle_type_id":"4","last_reported":1720706849,"current_range_meters":15600,"station_id":"ce4bgop2rcd13ifvqc1g","pricing_plan_id":"cebpf4jnsgd1na2vs0mg"},{"bike_id":"b348c63e-b40f-4ffa-9a4d-c3a67681fd91","system_id":"levelo_inurba_marseille","lat":43.297794,"lon":5.370888,"is_reserved":false,"is_disabled":false,"rental_uris":{"android":"levelo://app?vid=b348c63e-b40f-4ffa-9a4d-c3a67681fd91","ios":"levelo://app?vid=b348c63e-b40f-4ffa-9a4d-c3a67681fd91"},"vehicle_type_id":"4","last_reported":1720706849,"current_range_meters":26000,"station_id":"ce4bgop2rcd13ifvqc1g","pricing_plan_id":"cebpf4jnsgd1na2vs0mg"},{"bike_id":"e36e12dd-7852-4748-80dd-5e7fa000617c","system_id":"levelo_inurba_marseille","lat":43.297774,"lon":5.370875,"is_reserved":false,"is_disabled":false,"rental_uris":{"android":"levelo://app?vid=e36e12dd-7852-4748-80dd-5e7fa000617c","ios":"levelo://app?vid=e36e12dd-7852-4748-80dd-5e7fa000617c"},"vehicle_type_id":"4","last_reported":1720706849,"current_range_meters":800,"station_id":"ce4bgop2rcd13ifvqc1g","pricing_plan_id":"cebpf4jnsgd1na2vs0mg"},{"bike_id":"1221509a-f07e-49bd-9d21-477b40c92946","system_id":"levelo_inurba_marseille","lat":43.297774,"lon":5.370875,"is_reserved":false,"is_disabled":false,"rental_uris":{"android":"levelo://app?vid=1221509a-f07e-49bd-9d21-477b40c92946","ios":"levelo://app?vid=1221509a-f07e-49bd-9d21-477b40c92946"},"vehicle_type_id":"4","last_reported":1720706849,"current_range_meters":28800,"station_id":"ce4bgop2rcd13ifvqc1g","pricing_plan_id":"cebpf4jnsgd1na2vs0mg"},{"bike_id":"4c782cda-e620-474d-bbfd-8687e98e87c2","system_id":"levelo_inurba_marseille","lat":43.297774,"lon":5.370875,"is_reserved":false,"is_disabled":false,"rental_uris":{"android":"levelo://app?vid=4c782cda-e620-474d-bbfd-8687e98e87c2","ios":"levelo://app?vid=4c782cda-e620-474d-bbfd-8687e98e87c2"},"vehicle_type_id":"4","last_reported":1720706849,"current_range_meters":28800,"station_id":"ce4bgop2rcd13ifvqc1g","pricing_plan_id":"cebpf4jnsgd1na2vs0mg"},{"bike_id":"07bbd5f5-5b73-46a5-bbef-81ecd64fbe24","system_id":"levelo_inurba_marseille","lat":43.29715,"lon":5.36873,"is_reserved":false,"is_disabled":false,"rental_uris":{"android":"levelo://app?vid=07bbd5f5-5b73-46a5-bbef-81ecd64fbe24","ios":"levelo://app?vid=07bbd5f5-5b73-46a5-bbef-81ecd64fbe24"},"vehicle_type_id":"4","last_reported":1720706849,"current_range_meters":9200,"station_id":"","pricing_plan_id":"cebpf4jnsgd1na2vs0mg"},{"bike_id":"7bf1c14b-669b-481b-a11f-de1f06f96dce","system_id":"levelo_inurba_marseille","lat":43.297163,"lon":5.365866,"is_reserved":false,"is_disabled":false,"rental_uris":{"android":"levelo://app?vid=7bf1c14b-669b-481b-a11f-de1f06f96dce","ios":"levelo://app?vid=7bf1c14b-669b-481b-a11f-de1f06f96dce"},"vehicle_type_id":"4","last_reported":1720706849,"current_range_meters":20400,"station_id":"ce4bgn12rcd13ifvqbt0","pricing_plan_id":"cebpf4jnsgd1na2vs0mg"},{"bike_id":"6d163f53-9a1d-4d82-a865-ae3cad4b0e55","system_id":"levelo_inurba_marseille","lat":43.297163,"lon":5.365866,"is_reserved":false,"is_disabled":false,"rental_uris":{"android":"levelo://app?vid=6d163f53-9a1d-4d82-a865-ae3cad4b0e55","ios":"levelo://app?vid=6d163f53-9a1d-4d82-a865-ae3cad4b0e55"},"vehicle_type_id":"4","last_reported":1720706849,"current_range_meters":24400,"station_id":"ce4bgn12rcd13ifvqbt0","pricing_plan_id":"cebpf4jnsgd1na2vs0mg"},{"bike_id":"6c594160-f0d0-4f06-8c14-493f32273555","system_id":"levelo_inurba_marseille","lat":43.297163,"lon":5.365866,"is_reserved":false,"is_disabled":false,"rental_uris":{"android":"levelo://app?vid=6c594160-f0d0-4f06-8c14-493f32273555","ios":"levelo://app?vid=6c594160-f0d0-4f06-8c14-493f32273555"},"vehicle_type_id":"4","last_reported":1720706849,"current_range_meters":10000,"station_id":"ce4bgn12rcd13ifvqbt0","pricing_plan_id":"cebpf4jnsgd1na2vs0mg"},{"bike_id":"24b51f3d-8f31-44b9-8348-2db1352d35c0","system_id":"levelo_inurba_marseille","lat":43.327857,"lon":5.359616,"is_reserved":false,"is_disabled":false,"rental_uris":{"android":"levelo://app?vid=24b51f3d-8f31-44b9-8348-2db1352d35c0","ios":"levelo://app?vid=24b51f3d-8f31-44b9-8348-2db1352d35c0"},"vehicle_type_id":"4","last_reported":1720706849,"current_range_meters":28400,"station_id":"","pricing_plan_id":"cebpf4jnsgd1na2vs0mg"},{"bike_id":"3c4478ce-61c9-4e7b-aaef-0b7a69d45ca3","system_id":"levelo_inurba_marseille","lat":43.299028,"lon":5.381509,"is_reserved":false,"is_disabled":false,"rental_uris":{"android":"levelo://app?vid=3c4478ce-61c9-4e7b-aaef-0b7a69d45ca3","ios":"levelo://app?vid=3c4478ce-61c9-4e7b-aaef-0b7a69d45ca3"},"vehicle_type_id":"4","last_reported":1720706849,"current_range_meters":15200,"station_id":"ce4bgj12rcd13ifvqbc0","pricing_plan_id":"cebpf4jnsgd1na2vs0mg"},{"bike_id":"a96d1b20-f039-4ed2-9646-a0430b61a118","system_id":"levelo_inurba_marseille","lat":43.299028,"lon":5.381509,"is_reserved":false,"is_disabled":false,"rental_uris":{"android":"levelo://app?vid=a96d1b20-f039-4ed2-9646-a0430b61a118","ios":"levelo://app?vid=a96d1b20-f039-4ed2-9646-a0430b61a118"},"vehicle_type_id":"4","last_reported":1720706849,"current_range_meters":0,"station_id":"ce4bgj12rcd13ifvqbc0","pricing_plan_id":"cebpf4jnsgd1na2vs0mg"},{"bike_id":"74253aa9-4929-4298-bb6d-1b96fcac9d20","system_id":"levelo_inurba_marseille","lat":43.30974,"lon":5.390323,"is_reserved":false,"is_disabled":false,"rental_uris":{"android":"levelo://app?vid=74253aa9-4929-4298-bb6d-1b96fcac9d20","ios":"levelo://app?vid=74253aa9-4929-4298-bb6d-1b96fcac9d20"},"vehicle_type_id":"4","last_reported":1720706849,"current_range_meters":27200,"station_id":"ce4bgup2rcd13ifvqco0","pricing_plan_id":"cebpf4jnsgd1na2vs0mg"},{"bike_id":"33a98277-bbf8-41fd-9c20-d0b4d4c8c22e","system_id":"levelo_inurba_marseille","lat":43.30945,"lon":5.39025,"is_reserved":false,"is_disabled":false,"rental_uris":{"android":"levelo://app?vid=33a98277-bbf8-41fd-9c20-d0b4d4c8c22e","ios":"levelo://app?vid=33a98277-bbf8-41fd-9c20-d0b4d4c8c22e"},"vehicle_type_id":"4","last_reported":1720706849,"current_range_meters":0,"station_id":"ce4bgup2rcd13ifvqco0","pricing_plan_id":"cebpf4jnsgd1na2vs0mg"},{"bike_id":"88900db6-dca8-4e21-8269-5112f8dd8c62","system_id":"levelo_inurba_marseille","lat":43.30958,"lon":5.39029,"is_reserved":false,"is_disabled":false,"rental_uris":{"android":"levelo://app?vid=88900db6-dca8-4e21-8269-5112f8dd8c62","ios":"levelo://app?vid=88900db6-dca8-4e21-8269-5112f8dd8c62"},"vehicle_type_id":"4","last_reported":1720706849,"current_range_meters":0,"station_id":"ce4bgup2rcd13ifvqco0","pricing_plan_id":"cebpf4jnsgd1na2vs0mg"},{"bike_id":"739674da-e283-4916-93af-bcb531341f7e","system_id":"levelo_inurba_marseille","lat":43.309589,"lon":5.390258,"is_reserved":false,"is_disabled":false,"rental_uris":{"android":"levelo://app?vid=739674da-e283-4916-93af-bcb531341f7e","ios":"levelo://app?vid=739674da-e283-4916-93af-bcb531341f7e"},"vehicle_type_id":"4","last_reported":1720706849,"current_range_meters":31200,"station_id":"ce4bgup2rcd13ifvqco0","pricing_plan_id":"cebpf4jnsgd1na2vs0mg"},{"bike_id":"46fd48c6-2cca-4430-ae4f-2b59605b2b37","system_id":"levelo_inurba_marseille","lat":43.309589,"lon":5.390258,"is_reserved":false,"is_disabled":false,"rental_uris":{"android":"levelo://app?vid=46fd48c6-2cca-4430-ae4f-2b59605b2b37","ios":"levelo://app?vid=46fd48c6-2cca-4430-ae4f-2b59605b2b37"},"vehicle_type_id":"4","last_reported":1720706849,"current_range_meters":29600,"station_id":"ce4bgup2rcd13ifvqco0","pricing_plan_id":"cebpf4jnsgd1na2vs0mg"},{"bike_id":"95bf1136-78c7-400f-8af0-508f11557c35","system_id":"levelo_inurba_marseille","lat":43.317557,"lon":5.390173,"is_reserved":false,"is_disabled":false,"rental_uris":{"android":"levelo://app?vid=95bf1136-78c7-400f-8af0-508f11557c35","ios":"levelo://app?vid=95bf1136-78c7-400f-8af0-508f11557c35"},"vehicle_type_id":"4","last_reported":1720706849,"current_range_meters":13600,"station_id":"ce4bhqp2rcd13ifvqhng","pricing_plan_id":"cebpf4jnsgd1na2vs0mg"},{"bike_id":"55eaf7e7-7ec9-422b-821e-e8922adffd33","system_id":"levelo_inurba_marseille","lat":43.317557,"lon":5.390173,"is_reserved":false,"is_disabled":false,"rental_uris":{"android":"levelo://app?vid=55eaf7e7-7ec9-422b-821e-e8922adffd33","ios":"levelo://app?vid=55eaf7e7-7ec9-422b-821e-e8922adffd33"},"vehicle_type_id":"4","last_reported":1720706849,"current_range_meters":25200,"station_id":"ce4bhqp2rcd13ifvqhng","pricing_plan_id":"cebpf4jnsgd1na2vs0mg"},{"bike_id":"c1fcd5b3-8d4a-4f43-b276-67d4fd2846c0","system_id":"levelo_inurba_marseille","lat":43.298037,"lon":5.381066,"is_reserved":false,"is_disabled":false,"rental_uris":{"android":"levelo://app?vid=c1fcd5b3-8d4a-4f43-b276-67d4fd2846c0","ios":"levelo://app?vid=c1fcd5b3-8d4a-4f43-b276-67d4fd2846c0"},"vehicle_type_id":"4","last_reported":1720706849,"current_range_meters":11200,"station_id":"ce4bgip2rcd13ifvqbb0","pricing_plan_id":"cebpf4jnsgd1na2vs0mg"},{"bike_id":"37c1ee06-7273-4001-9bde-8df3c3741155","system_id":"levelo_inurba_marseille","lat":43.29583,"lon":5.37523,"is_reserved":false,"is_disabled":false,"rental_uris":{"android":"levelo://app?vid=37c1ee06-7273-4001-9bde-8df3c3741155","ios":"levelo://app?vid=37c1ee06-7273-4001-9bde-8df3c3741155"},"vehicle_type_id":"4","last_reported":1720706849,"current_range_meters":0,"station_id":"ce4bgh92rcd13ifvqb50","pricing_plan_id":"cebpf4jnsgd1na2vs0mg"},{"bike_id":"9584aca7-b62e-48fb-81e5-0f3a9dbe171d","system_id":"levelo_inurba_marseille","lat":43.29575,"lon":5.37506,"is_reserved":false,"is_disabled":false,"rental_uris":{"android":"levelo://app?vid=9584aca7-b62e-48fb-81e5-0f3a9dbe171d","ios":"levelo://app?vid=9584aca7-b62e-48fb-81e5-0f3a9dbe171d"},"vehicle_type_id":"4","last_reported":1720706849,"current_range_meters":17200,"station_id":"ce4bgh92rcd13ifvqb50","pricing_plan_id":"cebpf4jnsgd1na2vs0mg"},{"bike_id":"1f56ff0c-f5e7-4af8-b813-90df6e45f302","system_id":"levelo_inurba_marseille","lat":43.304274,"lon":5.388873,"is_reserved":false,"is_disabled":false,"rental_uris":{"android":"levelo://app?vid=1f56ff0c-f5e7-4af8-b813-90df6e45f302","ios":"levelo://app?vid=1f56ff0c-f5e7-4af8-b813-90df6e45f302"},"vehicle_type_id":"4","last_reported":1720706849,"current_range_meters":12000,"station_id":"ce4bgk12rcd13ifvqbi0","pricing_plan_id":"cebpf4jnsgd1na2vs0mg"},{"bike_id":"db89955d-d116-4484-8a79-1e76d835f2d3","system_id":"levelo_inurba_marseille","lat":43.304278,"lon":5.388868,"is_reserved":false,"is_disabled":false,"rental_uris":{"android":"levelo://app?vid=db89955d-d116-4484-8a79-1e76d835f2d3","ios":"levelo://app?vid=db89955d-d116-4484-8a79-1e76d835f2d3"},"vehicle_type_id":"4","last_reported":1720706849,"current_range_meters":0,"station_id":"ce4bgk12rcd13ifvqbi0","pricing_plan_id":"cebpf4jnsgd1na2vs0mg"},{"bike_id":"f0da6995-7365-4efe-9204-2b8813e400be","system_id":"levelo_inurba_marseille","lat":43.29615,"lon":5.3773,"is_reserved":false,"is_disabled":false,"rental_uris":{"android":"levelo://app?vid=f0da6995-7365-4efe-9204-2b8813e400be","ios":"levelo://app?vid=f0da6995-7365-4efe-9204-2b8813e400be"},"vehicle_type_id":"4","last_reported":1720706849,"current_range_meters":0,"station_id":"ce4bgi92rcd13ifvqb90","pricing_plan_id":"cebpf4jnsgd1na2vs0mg"},{"bike_id":"e1442f0e-05a8-4705-a94d-24418e118a6d","system_id":"levelo_inurba_marseille","lat":43.2997,"lon":5.3849,"is_reserved":false,"is_disabled":false,"rental_uris":{"android":"levelo://app?vid=e1442f0e-05a8-4705-a94d-24418e118a6d","ios":"levelo://app?vid=e1442f0e-05a8-4705-a94d-24418e118a6d"},"vehicle_type_id":"4","last_reported":1720706849,"current_range_meters":8800,"station_id":"ce4bgj92rcd13ifvqbd0","pricing_plan_id":"cebpf4jnsgd1na2vs0mg"},{"bike_id":"a30f6a9b-7656-4f1a-99b2-02365f605d37","system_id":"levelo_inurba_marseille","lat":43.299707,"lon":5.384859,"is_reserved":false,"is_disabled":false,"rental_uris":{"android":"levelo://app?vid=a30f6a9b-7656-4f1a-99b2-02365f605d37","ios":"levelo://app?vid=a30f6a9b-7656-4f1a-99b2-02365f605d37"},"vehicle_type_id":"4","last_reported":1720706849,"current_range_meters":5600,"station_id":"ce4bgj92rcd13ifvqbd0","pricing_plan_id":"cebpf4jnsgd1na2vs0mg"},{"bike_id":"8c53f200-eb65-4910-a30d-a59333f219b9","system_id":"levelo_inurba_marseille","lat":43.295279,"lon":5.375048,"is_reserved":false,"is_disabled":false,"rental_uris":{"android":"levelo://app?vid=8c53f200-eb65-4910-a30d-a59333f219b9","ios":"levelo://app?vid=8c53f200-eb65-4910-a30d-a59333f219b9"},"vehicle_type_id":"4","last_reported":1720706849,"current_range_meters":24400,"station_id":"ce4bgkp2rcd13ifvqbmg","pricing_plan_id":"cebpf4jnsgd1na2vs0mg"},{"bike_id":"1f655159-37f5-45ef-bc8b-e851ee99cf61","system_id":"levelo_inurba_marseille","lat":43.301396,"lon":5.387812,"is_reserved":false,"is_disabled":false,"rental_uris":{"android":"levelo://app?vid=1f655159-37f5-45ef-bc8b-e851ee99cf61","ios":"levelo://app?vid=1f655159-37f5-45ef-bc8b-e851ee99cf61"},"vehicle_type_id":"4","last_reported":1720706849,"current_range_meters":1600,"station_id":"ce4bghh2rcd13ifvqb60","pricing_plan_id":"cebpf4jnsgd1na2vs0mg"},{"bike_id":"abb851a1-8f8c-4c86-bb9e-85f94bf530f1","system_id":"levelo_inurba_marseille","lat":43.301396,"lon":5.387812,"is_reserved":false,"is_disabled":false,"rental_uris":{"android":"levelo://app?vid=abb851a1-8f8c-4c86-bb9e-85f94bf530f1","ios":"levelo://app?vid=abb851a1-8f8c-4c86-bb9e-85f94bf530f1"},"vehicle_type_id":"4","last_reported":1720706849,"current_range_meters":24400,"station_id":"ce4bghh2rcd13ifvqb60","pricing_plan_id":"cebpf4jnsgd1na2vs0mg"},{"bike_id":"406569b8-8b33-4b56-bd8e-fbe7d57d7f96","system_id":"levelo_inurba_marseille","lat":43.310623,"lon":5.393129,"is_reserved":false,"is_disabled":false,"rental_uris":{"android":"levelo://app?vid=406569b8-8b33-4b56-bd8e-fbe7d57d7f96","ios":"levelo://app?vid=406569b8-8b33-4b56-bd8e-fbe7d57d7f96"},"vehicle_type_id":"4","last_reported":1720706849,"current_range_meters":8800,"station_id":"","pricing_plan_id":"cebpf4jnsgd1na2vs0mg"},{"bike_id":"df668b63-d6ed-4515-889e-1248cd1dd2e6","system_id":"levelo_inurba_marseille","lat":43.32367,"lon":5.388836,"is_reserved":false,"is_disabled":false,"rental_uris":{"android":"levelo://app?vid=df668b63-d6ed-4515-889e-1248cd1dd2e6","ios":"levelo://app?vid=df668b63-d6ed-4515-889e-1248cd1dd2e6"},"vehicle_type_id":"4","last_reported":1720706849,"current_range_meters":12800,"station_id":"ce4bhqp2rcd13ifvqhog","pricing_plan_id":"cebpf4jnsgd1na2vs0mg"},{"bike_id":"32d5df55-2469-4765-aa3a-40596394fc59","system_id":"levelo_inurba_marseille","lat":43.29601,"lon":5.381084,"is_reserved":false,"is_disabled":false,"rental_uris":{"android":"levelo://app?vid=32d5df55-2469-4765-aa3a-40596394fc59","ios":"levelo://app?vid=32d5df55-2469-4765-aa3a-40596394fc59"},"vehicle_type_id":"4","last_reported":1720706849,"current_range_meters":9200,"station_id":"ce4bgl12rcd13ifvqbo0","pricing_plan_id":"cebpf4jnsgd1na2vs0mg"},{"bike_id":"8aa3fd8e-f130-4e9a-a681-d658c885ec02","system_id":"levelo_inurba_marseille","lat":43.29603,"lon":5.38108,"is_reserved":false,"is_disabled":false,"rental_uris":{"android":"levelo://app?vid=8aa3fd8e-f130-4e9a-a681-d658c885ec02","ios":"levelo://app?vid=8aa3fd8e-f130-4e9a-a681-d658c885ec02"},"vehicle_type_id":"4","last_reported":1720706849,"current_range_meters":16800,"station_id":"ce4bgl12rcd13ifvqbo0","pricing_plan_id":"cebpf4jnsgd1na2vs0mg"},{"bike_id":"71894baf-f49f-4647-a776-25220147ab74","system_id":"levelo_inurba_marseille","lat":43.29602,"lon":5.381084,"is_reserved":false,"is_disabled":false,"rental_uris":{"android":"levelo://app?vid=71894baf-f49f-4647-a776-25220147ab74","ios":"levelo://app?vid=71894baf-f49f-4647-a776-25220147ab74"},"vehicle_type_id":"4","last_reported":1720706849,"current_range_meters":0,"station_id":"ce4bgl12rcd13ifvqbo0","pricing_plan_id":"cebpf4jnsgd1na2vs0mg"},{"bike_id":"cbb755f9-d634-420e-98c0-5ce4f4278fcc","system_id":"levelo_inurba_marseille","lat":43.293259,"lon":5.371586,"is_reserved":false,"is_disabled":false,"rental_uris":{"android":"levelo://app?vid=cbb755f9-d634-420e-98c0-5ce4f4278fcc","ios":"levelo://app?vid=cbb755f9-d634-420e-98c0-5ce4f4278fcc"},"vehicle_type_id":"4","last_reported":1720706849,"current_range_meters":12400,"station_id":"ce4bgh92rcd13ifvqb40","pricing_plan_id":"cebpf4jnsgd1na2vs0mg"},{"bike_id":"d0244b9c-57ef-4ea2-89ac-794fc3e18a2d","system_id":"levelo_inurba_marseille","lat":43.294811,"lon":5.379758,"is_reserved":false,"is_disabled":false,"rental_uris":{"android":"levelo://app?vid=d0244b9c-57ef-4ea2-89ac-794fc3e18a2d","ios":"levelo://app?vid=d0244b9c-57ef-4ea2-89ac-794fc3e18a2d"},"vehicle_type_id":"4","last_reported":1720706849,"current_range_meters":0,"station_id":"","pricing_plan_id":"cebpf4jnsgd1na2vs0mg"},{"bike_id":"2c5cdc10-a89b-47b2-ac18-45d416becc47","system_id":"levelo_inurba_marseille","lat":43.293009,"lon":5.374584,"is_reserved":false,"is_disabled":false,"rental_uris":{"android":"levelo://app?vid=2c5cdc10-a89b-47b2-ac18-45d416becc47","ios":"levelo://app?vid=2c5cdc10-a89b-47b2-ac18-45d416becc47"},"vehicle_type_id":"4","last_reported":1720706849,"current_range_meters":0,"station_id":"ce4bgi12rcd13ifvqb70","pricing_plan_id":"cebpf4jnsgd1na2vs0mg"},{"bike_id":"ed685a1b-dd12-43d4-a3cf-8e27f26a0ae7","system_id":"levelo_inurba_marseille","lat":43.303002,"lon":5.392142,"is_reserved":false,"is_disabled":false,"rental_uris":{"android":"levelo://app?vid=ed685a1b-dd12-43d4-a3cf-8e27f26a0ae7","ios":"levelo://app?vid=ed685a1b-dd12-43d4-a3cf-8e27f26a0ae7"},"vehicle_type_id":"4","last_reported":1720706849,"current_range_meters":30000,"station_id":"ce4bgkh2rcd13ifvqbk0","pricing_plan_id":"cebpf4jnsgd1na2vs0mg"},{"bike_id":"a65a33fc-0401-4220-8d07-26ac2ac5ad89","system_id":"levelo_inurba_marseille","lat":43.312609,"lon":5.401662,"is_reserved":false,"is_disabled":false,"rental_uris":{"android":"levelo://app?vid=a65a33fc-0401-4220-8d07-26ac2ac5ad89","ios":"levelo://app?vid=a65a33fc-0401-4220-8d07-26ac2ac5ad89"},"vehicle_type_id":"4","last_reported":1720706849,"current_range_meters":22400,"station_id":"ce4bh092rcd13ifvqd30","pricing_plan_id":"cebpf4jnsgd1na2vs0mg"},{"bike_id":"487c4e6f-51cb-4edb-b1af-645ecf2f3b2f","system_id":"levelo_inurba_marseille","lat":43.292311,"lon":5.360731,"is_reserved":false,"is_disabled":false,"rental_uris":{"android":"levelo://app?vid=487c4e6f-51cb-4edb-b1af-645ecf2f3b2f","ios":"levelo://app?vid=487c4e6f-51cb-4edb-b1af-645ecf2f3b2f"},"vehicle_type_id":"4","last_reported":1720706849,"current_range_meters":29600,"station_id":"ce4bhbh2rcd13ifvqeqg","pricing_plan_id":"cebpf4jnsgd1na2vs0mg"},{"bike_id":"9591ba25-d184-4752-ada0-54add4e9c659","system_id":"levelo_inurba_marseille","lat":43.29226,"lon":5.36055,"is_reserved":false,"is_disabled":false,"rental_uris":{"android":"levelo://app?vid=9591ba25-d184-4752-ada0-54add4e9c659","ios":"levelo://app?vid=9591ba25-d184-4752-ada0-54add4e9c659"},"vehicle_type_id":"4","last_reported":1720706849,"current_range_meters":13200,"station_id":"","pricing_plan_id":"cebpf4jnsgd1na2vs0mg"},{"bike_id":"6e0d5e02-9a33-4f42-81d2-8355773270e3","system_id":"levelo_inurba_marseille","lat":43.30085,"lon":5.390856,"is_reserved":false,"is_disabled":false,"rental_uris":{"android":"levelo://app?vid=6e0d5e02-9a33-4f42-81d2-8355773270e3","ios":"levelo://app?vid=6e0d5e02-9a33-4f42-81d2-8355773270e3"},"vehicle_type_id":"4","last_reported":1720706849,"current_range_meters":4000,"station_id":"ce4bh192rcd13ifvqdb0","pricing_plan_id":"cebpf4jnsgd1na2vs0mg"},{"bike_id":"06b3a55b-efb8-4469-905b-98965573d0b3","system_id":"levelo_inurba_marseille","lat":43.291675,"lon":5.371583,"is_reserved":false,"is_disabled":false,"rental_uris":{"android":"levelo://app?vid=06b3a55b-efb8-4469-905b-98965573d0b3","ios":"levelo://app?vid=06b3a55b-efb8-4469-905b-98965573d0b3"},"vehicle_type_id":"4","last_reported":1720706849,"current_range_meters":6000,"station_id":"ce4bha92rcd13ifvqeh0","pricing_plan_id":"cebpf4jnsgd1na2vs0mg"},{"bike_id":"263a5182-b688-433f-9af2-7df0027d5d40","system_id":"levelo_inurba_marseille","lat":43.291747,"lon":5.371607,"is_reserved":false,"is_disabled":false,"rental_uris":{"android":"levelo://app?vid=263a5182-b688-433f-9af2-7df0027d5d40","ios":"levelo://app?vid=263a5182-b688-433f-9af2-7df0027d5d40"},"vehicle_type_id":"4","last_reported":1720706849,"current_range_meters":0,"station_id":"ce4bha92rcd13ifvqeh0","pricing_plan_id":"cebpf4jnsgd1na2vs0mg"},{"bike_id":"ab7b4e39-4cd2-4c8f-a905-24c5103de90b","system_id":"levelo_inurba_marseille","lat":43.291675,"lon":5.371583,"is_reserved":false,"is_disabled":false,"rental_uris":{"android":"levelo://app?vid=ab7b4e39-4cd2-4c8f-a905-24c5103de90b","ios":"levelo://app?vid=ab7b4e39-4cd2-4c8f-a905-24c5103de90b"},"vehicle_type_id":"4","last_reported":1720706849,"current_range_meters":24800,"station_id":"ce4bha92rcd13ifvqeh0","pricing_plan_id":"cebpf4jnsgd1na2vs0mg"},{"bike_id":"2a3e6b04-eaec-471b-b20a-cb814401cc60","system_id":"levelo_inurba_marseille","lat":43.29168,"lon":5.371607,"is_reserved":false,"is_disabled":false,"rental_uris":{"android":"levelo://app?vid=2a3e6b04-eaec-471b-b20a-cb814401cc60","ios":"levelo://app?vid=2a3e6b04-eaec-471b-b20a-cb814401cc60"},"vehicle_type_id":"4","last_reported":1720706849,"current_range_meters":23600,"station_id":"ce4bha92rcd13ifvqeh0","pricing_plan_id":"cebpf4jnsgd1na2vs0mg"},{"bike_id":"b566df21-c259-47f5-bed8-46f4e585c353","system_id":"levelo_inurba_marseille","lat":43.29155,"lon":5.37166,"is_reserved":false,"is_disabled":false,"rental_uris":{"android":"levelo://app?vid=b566df21-c259-47f5-bed8-46f4e585c353","ios":"levelo://app?vid=b566df21-c259-47f5-bed8-46f4e585c353"},"vehicle_type_id":"4","last_reported":1720706849,"current_range_meters":2400,"station_id":"ce4bha92rcd13ifvqeh0","pricing_plan_id":"cebpf4jnsgd1na2vs0mg"},{"bike_id":"900b36e7-b176-48dc-baa7-60500b7f48ae","system_id":"levelo_inurba_marseille","lat":43.309038,"lon":5.396546,"is_reserved":false,"is_disabled":false,"rental_uris":{"android":"levelo://app?vid=900b36e7-b176-48dc-baa7-60500b7f48ae","ios":"levelo://app?vid=900b36e7-b176-48dc-baa7-60500b7f48ae"},"vehicle_type_id":"4","last_reported":1720706849,"current_range_meters":11600,"station_id":"ce4bh012rcd13ifvqcv0","pricing_plan_id":"cebpf4jnsgd1na2vs0mg"},{"bike_id":"43687984-5dcf-4747-8335-baa19f6ea81f","system_id":"levelo_inurba_marseille","lat":43.290779,"lon":5.371482,"is_reserved":false,"is_disabled":false,"rental_uris":{"android":"levelo://app?vid=43687984-5dcf-4747-8335-baa19f6ea81f","ios":"levelo://app?vid=43687984-5dcf-4747-8335-baa19f6ea81f"},"vehicle_type_id":"4","last_reported":1720706849,"current_range_meters":22000,"station_id":"ce4bh5p2rcd13ifvqe4g","pricing_plan_id":"cebpf4jnsgd1na2vs0mg"},{"bike_id":"b471313a-bede-49c6-aca5-53d3141125a5","system_id":"levelo_inurba_marseille","lat":43.30206,"lon":5.39457,"is_reserved":false,"is_disabled":false,"rental_uris":{"android":"levelo://app?vid=b471313a-bede-49c6-aca5-53d3141125a5","ios":"levelo://app?vid=b471313a-bede-49c6-aca5-53d3141125a5"},"vehicle_type_id":"4","last_reported":1720706849,"current_range_meters":0,"station_id":"ce4bh0p2rcd13ifvqd70","pricing_plan_id":"cebpf4jnsgd1na2vs0mg"},{"bike_id":"e76c4ff4-bf2b-4868-b5c4-1feae58dcce3","system_id":"levelo_inurba_marseille","lat":43.29056,"lon":5.35919,"is_reserved":false,"is_disabled":false,"rental_uris":{"android":"levelo://app?vid=e76c4ff4-bf2b-4868-b5c4-1feae58dcce3","ios":"levelo://app?vid=e76c4ff4-bf2b-4868-b5c4-1feae58dcce3"},"vehicle_type_id":"4","last_reported":1720706849,"current_range_meters":25200,"station_id":"ce4bha92rcd13ifvqeg0","pricing_plan_id":"cebpf4jnsgd1na2vs0mg"},{"bike_id":"102fc4b8-af82-48d9-afd7-be12d2ff8fb9","system_id":"levelo_inurba_marseille","lat":43.290327,"lon":5.375711,"is_reserved":false,"is_disabled":false,"rental_uris":{"android":"levelo://app?vid=102fc4b8-af82-48d9-afd7-be12d2ff8fb9","ios":"levelo://app?vid=102fc4b8-af82-48d9-afd7-be12d2ff8fb9"},"vehicle_type_id":"4","last_reported":1720706849,"current_range_meters":29600,"station_id":"ce4bh692rcd13ifvqe90","pricing_plan_id":"cebpf4jnsgd1na2vs0mg"},{"bike_id":"351fa8a2-75a5-49fc-aaaf-ff55cac1085c","system_id":"levelo_inurba_marseille","lat":43.289468,"lon":5.363719,"is_reserved":false,"is_disabled":false,"rental_uris":{"android":"levelo://app?vid=351fa8a2-75a5-49fc-aaaf-ff55cac1085c","ios":"levelo://app?vid=351fa8a2-75a5-49fc-aaaf-ff55cac1085c"},"vehicle_type_id":"4","last_reported":1720706849,"current_range_meters":28000,"station_id":"ce4bhc92rcd13ifvqetg","pricing_plan_id":"cebpf4jnsgd1na2vs0mg"},{"bike_id":"de4dfb5a-4fad-4291-a578-f0eb60a1f28f","system_id":"levelo_inurba_marseille","lat":43.304274,"lon":5.397513,"is_reserved":false,"is_disabled":false,"rental_uris":{"android":"levelo://app?vid=de4dfb5a-4fad-4291-a578-f0eb60a1f28f","ios":"levelo://app?vid=de4dfb5a-4fad-4291-a578-f0eb60a1f28f"},"vehicle_type_id":"4","last_reported":1720706849,"current_range_meters":2400,"station_id":"ce4bh092rcd13ifvqd20","pricing_plan_id":"cebpf4jnsgd1na2vs0mg"},{"bike_id":"f66a1f54-2a68-4ffe-8e13-1d0c125407ba","system_id":"levelo_inurba_marseille","lat":43.290104,"lon":5.356111,"is_reserved":false,"is_disabled":false,"rental_uris":{"android":"levelo://app?vid=f66a1f54-2a68-4ffe-8e13-1d0c125407ba","ios":"levelo://app?vid=f66a1f54-2a68-4ffe-8e13-1d0c125407ba"},"vehicle_type_id":"4","last_reported":1720706849,"current_range_meters":0,"station_id":"ce4bhb92rcd13ifvqen0","pricing_plan_id":"cebpf4jnsgd1na2vs0mg"},{"bike_id":"df16a103-7818-4ef1-a4f5-67731dd2d09e","system_id":"levelo_inurba_marseille","lat":43.290104,"lon":5.356111,"is_reserved":false,"is_disabled":false,"rental_uris":{"android":"levelo://app?vid=df16a103-7818-4ef1-a4f5-67731dd2d09e","ios":"levelo://app?vid=df16a103-7818-4ef1-a4f5-67731dd2d09e"},"vehicle_type_id":"4","last_reported":1720706849,"current_range_meters":5200,"station_id":"ce4bhb92rcd13ifvqen0","pricing_plan_id":"cebpf4jnsgd1na2vs0mg"},{"bike_id":"22df0e4e-fd34-4f95-be16-041e492db76c","system_id":"levelo_inurba_marseille","lat":43.290104,"lon":5.356111,"is_reserved":false,"is_disabled":false,"rental_uris":{"android":"levelo://app?vid=22df0e4e-fd34-4f95-be16-041e492db76c","ios":"levelo://app?vid=22df0e4e-fd34-4f95-be16-041e492db76c"},"vehicle_type_id":"4","last_reported":1720706849,"current_range_meters":4400,"station_id":"ce4bhb92rcd13ifvqen0","pricing_plan_id":"cebpf4jnsgd1na2vs0mg"},{"bike_id":"b2145afc-eb75-48f2-9f40-ae9b0c837dbd","system_id":"levelo_inurba_marseille","lat":43.290104,"lon":5.356111,"is_reserved":false,"is_disabled":false,"rental_uris":{"android":"levelo://app?vid=b2145afc-eb75-48f2-9f40-ae9b0c837dbd","ios":"levelo://app?vid=b2145afc-eb75-48f2-9f40-ae9b0c837dbd"},"vehicle_type_id":"4","last_reported":1720706849,"current_range_meters":14000,"station_id":"ce4bhb92rcd13ifvqen0","pricing_plan_id":"cebpf4jnsgd1na2vs0mg"},{"bike_id":"7ce62ceb-5c04-4b5d-aea9-e278d3523cf2","system_id":"levelo_inurba_marseille","lat":43.29003,"lon":5.35609,"is_reserved":false,"is_disabled":false,"rental_uris":{"android":"levelo://app?vid=7ce62ceb-5c04-4b5d-aea9-e278d3523cf2","ios":"levelo://app?vid=7ce62ceb-5c04-4b5d-aea9-e278d3523cf2"},"vehicle_type_id":"4","last_reported":1720706849,"current_range_meters":22800,"station_id":"ce4bhb92rcd13ifvqen0","pricing_plan_id":"cebpf4jnsgd1na2vs0mg"},{"bike_id":"b88b5664-564b-4542-b7fe-71fd9f10498e","system_id":"levelo_inurba_marseille","lat":43.289743,"lon":5.378304,"is_reserved":false,"is_disabled":false,"rental_uris":{"android":"levelo://app?vid=b88b5664-564b-4542-b7fe-71fd9f10498e","ios":"levelo://app?vid=b88b5664-564b-4542-b7fe-71fd9f10498e"},"vehicle_type_id":"4","last_reported":1720706849,"current_range_meters":12000,"station_id":"ce4bh9p2rcd13ifvqed0","pricing_plan_id":"cebpf4jnsgd1na2vs0mg"},{"bike_id":"668e892f-4555-4754-9b2a-0402530805d4","system_id":"levelo_inurba_marseille","lat":43.289743,"lon":5.378304,"is_reserved":false,"is_disabled":false,"rental_uris":{"android":"levelo://app?vid=668e892f-4555-4754-9b2a-0402530805d4","ios":"levelo://app?vid=668e892f-4555-4754-9b2a-0402530805d4"},"vehicle_type_id":"4","last_reported":1720706849,"current_range_meters":14000,"station_id":"ce4bh9p2rcd13ifvqed0","pricing_plan_id":"cebpf4jnsgd1na2vs0mg"},{"bike_id":"721b54be-1151-4efd-827f-51a997bf40af","system_id":"levelo_inurba_marseille","lat":43.289743,"lon":5.378304,"is_reserved":false,"is_disabled":false,"rental_uris":{"android":"levelo://app?vid=721b54be-1151-4efd-827f-51a997bf40af","ios":"levelo://app?vid=721b54be-1151-4efd-827f-51a997bf40af"},"vehicle_type_id":"4","last_reported":1720706849,"current_range_meters":7200,"station_id":"ce4bh9p2rcd13ifvqed0","pricing_plan_id":"cebpf4jnsgd1na2vs0mg"},{"bike_id":"1966a2ca-2219-4a5a-870a-0050d7deea24","system_id":"levelo_inurba_marseille","lat":43.289743,"lon":5.378304,"is_reserved":false,"is_disabled":false,"rental_uris":{"android":"levelo://app?vid=1966a2ca-2219-4a5a-870a-0050d7deea24","ios":"levelo://app?vid=1966a2ca-2219-4a5a-870a-0050d7deea24"},"vehicle_type_id":"4","last_reported":1720706849,"current_range_meters":31200,"station_id":"ce4bh9p2rcd13ifvqed0","pricing_plan_id":"cebpf4jnsgd1na2vs0mg"},{"bike_id":"5ab646fa-6d6c-4099-88dd-f3d9a22647cc","system_id":"levelo_inurba_marseille","lat":43.289743,"lon":5.378304,"is_reserved":false,"is_disabled":false,"rental_uris":{"android":"levelo://app?vid=5ab646fa-6d6c-4099-88dd-f3d9a22647cc","ios":"levelo://app?vid=5ab646fa-6d6c-4099-88dd-f3d9a22647cc"},"vehicle_type_id":"4","last_reported":1720706849,"current_range_meters":4000,"station_id":"ce4bh9p2rcd13ifvqed0","pricing_plan_id":"cebpf4jnsgd1na2vs0mg"},{"bike_id":"573b1bfb-e091-4018-91aa-64476d694f8f","system_id":"levelo_inurba_marseille","lat":43.289741,"lon":5.378306,"is_reserved":false,"is_disabled":false,"rental_uris":{"android":"levelo://app?vid=573b1bfb-e091-4018-91aa-64476d694f8f","ios":"levelo://app?vid=573b1bfb-e091-4018-91aa-64476d694f8f"},"vehicle_type_id":"4","last_reported":1720706849,"current_range_meters":18800,"station_id":"ce4bh9p2rcd13ifvqed0","pricing_plan_id":"cebpf4jnsgd1na2vs0mg"},{"bike_id":"ed442400-61ca-4b30-b807-7cc184662505","system_id":"levelo_inurba_marseille","lat":43.289741,"lon":5.378306,"is_reserved":false,"is_disabled":false,"rental_uris":{"android":"levelo://app?vid=ed442400-61ca-4b30-b807-7cc184662505","ios":"levelo://app?vid=ed442400-61ca-4b30-b807-7cc184662505"},"vehicle_type_id":"4","last_reported":1720706849,"current_range_meters":30400,"station_id":"ce4bh9p2rcd13ifvqed0","pricing_plan_id":"cebpf4jnsgd1na2vs0mg"},{"bike_id":"71e0ce09-6eb4-4341-982b-6f4298635fc6","system_id":"levelo_inurba_marseille","lat":43.330442,"lon":5.389148,"is_reserved":false,"is_disabled":false,"rental_uris":{"android":"levelo://app?vid=71e0ce09-6eb4-4341-982b-6f4298635fc6","ios":"levelo://app?vid=71e0ce09-6eb4-4341-982b-6f4298635fc6"},"vehicle_type_id":"4","last_reported":1720706849,"current_range_meters":1600,"station_id":"ce4bhr92rcd13ifvqhrg","pricing_plan_id":"cebpf4jnsgd1na2vs0mg"},{"bike_id":"70fc4bdd-5771-4d3a-97b0-ab79c9bf3cd3","system_id":"levelo_inurba_marseille","lat":43.330442,"lon":5.389148,"is_reserved":false,"is_disabled":false,"rental_uris":{"android":"levelo://app?vid=70fc4bdd-5771-4d3a-97b0-ab79c9bf3cd3","ios":"levelo://app?vid=70fc4bdd-5771-4d3a-97b0-ab79c9bf3cd3"},"vehicle_type_id":"4","last_reported":1720706849,"current_range_meters":8000,"station_id":"ce4bhr92rcd13ifvqhrg","pricing_plan_id":"cebpf4jnsgd1na2vs0mg"},{"bike_id":"e4b34a76-28c8-4c50-b11b-b84eb2b5bfd0","system_id":"levelo_inurba_marseille","lat":43.33026,"lon":5.39046,"is_reserved":false,"is_disabled":false,"rental_uris":{"android":"levelo://app?vid=e4b34a76-28c8-4c50-b11b-b84eb2b5bfd0","ios":"levelo://app?vid=e4b34a76-28c8-4c50-b11b-b84eb2b5bfd0"},"vehicle_type_id":"4","last_reported":1720706849,"current_range_meters":0,"station_id":"ce4bhr92rcd13ifvqhrg","pricing_plan_id":"cebpf4jnsgd1na2vs0mg"},{"bike_id":"cf90c6a0-5f25-4ea6-bde4-acd8a9dcd5c2","system_id":"levelo_inurba_marseille","lat":43.330442,"lon":5.389148,"is_reserved":false,"is_disabled":false,"rental_uris":{"android":"levelo://app?vid=cf90c6a0-5f25-4ea6-bde4-acd8a9dcd5c2","ios":"levelo://app?vid=cf90c6a0-5f25-4ea6-bde4-acd8a9dcd5c2"},"vehicle_type_id":"4","last_reported":1720706849,"current_range_meters":4800,"station_id":"ce4bhr92rcd13ifvqhrg","pricing_plan_id":"cebpf4jnsgd1na2vs0mg"},{"bike_id":"a88a4efc-a2e7-4dda-8e73-e3e78ef39fbe","system_id":"levelo_inurba_marseille","lat":43.295283,"lon":5.390677,"is_reserved":false,"is_disabled":false,"rental_uris":{"android":"levelo://app?vid=a88a4efc-a2e7-4dda-8e73-e3e78ef39fbe","ios":"levelo://app?vid=a88a4efc-a2e7-4dda-8e73-e3e78ef39fbe"},"vehicle_type_id":"4","last_reported":1720706849,"current_range_meters":12400,"station_id":"","pricing_plan_id":"cebpf4jnsgd1na2vs0mg"},{"bike_id":"3f41c9b4-393b-4d1d-8546-66cb263f6d84","system_id":"levelo_inurba_marseille","lat":43.289741,"lon":5.378306,"is_reserved":false,"is_disabled":false,"rental_uris":{"android":"levelo://app?vid=3f41c9b4-393b-4d1d-8546-66cb263f6d84","ios":"levelo://app?vid=3f41c9b4-393b-4d1d-8546-66cb263f6d84"},"vehicle_type_id":"4","last_reported":1720706849,"current_range_meters":0,"station_id":"ce4bh9p2rcd13ifvqed0","pricing_plan_id":"cebpf4jnsgd1na2vs0mg"},{"bike_id":"a48bfa78-5637-46c8-9fd7-32fb33883ebe","system_id":"levelo_inurba_marseille","lat":43.28856,"lon":5.358371,"is_reserved":false,"is_disabled":false,"rental_uris":{"android":"levelo://app?vid=a48bfa78-5637-46c8-9fd7-32fb33883ebe","ios":"levelo://app?vid=a48bfa78-5637-46c8-9fd7-32fb33883ebe"},"vehicle_type_id":"4","last_reported":1720706849,"current_range_meters":20800,"station_id":"ce4bhb12rcd13ifvqem0","pricing_plan_id":"cebpf4jnsgd1na2vs0mg"},{"bike_id":"72b9e036-3e89-44ec-bd19-21a17241a068","system_id":"levelo_inurba_marseille","lat":43.28856,"lon":5.358371,"is_reserved":false,"is_disabled":false,"rental_uris":{"android":"levelo://app?vid=72b9e036-3e89-44ec-bd19-21a17241a068","ios":"levelo://app?vid=72b9e036-3e89-44ec-bd19-21a17241a068"},"vehicle_type_id":"4","last_reported":1720706849,"current_range_meters":0,"station_id":"ce4bhb12rcd13ifvqem0","pricing_plan_id":"cebpf4jnsgd1na2vs0mg"},{"bike_id":"2e12418b-b3e1-4e7c-bc36-798993765cc9","system_id":"levelo_inurba_marseille","lat":43.28856,"lon":5.358371,"is_reserved":false,"is_disabled":false,"rental_uris":{"android":"levelo://app?vid=2e12418b-b3e1-4e7c-bc36-798993765cc9","ios":"levelo://app?vid=2e12418b-b3e1-4e7c-bc36-798993765cc9"},"vehicle_type_id":"4","last_reported":1720706849,"current_range_meters":800,"station_id":"ce4bhb12rcd13ifvqem0","pricing_plan_id":"cebpf4jnsgd1na2vs0mg"},{"bike_id":"7c1839ac-8cf5-4aca-b3e2-a91973a38cd4","system_id":"levelo_inurba_marseille","lat":43.28856,"lon":5.358371,"is_reserved":false,"is_disabled":false,"rental_uris":{"android":"levelo://app?vid=7c1839ac-8cf5-4aca-b3e2-a91973a38cd4","ios":"levelo://app?vid=7c1839ac-8cf5-4aca-b3e2-a91973a38cd4"},"vehicle_type_id":"4","last_reported":1720706849,"current_range_meters":6000,"station_id":"ce4bhb12rcd13ifvqem0","pricing_plan_id":"cebpf4jnsgd1na2vs0mg"},{"bike_id":"6b47524e-07f5-44a1-9682-b61b8dac40ec","system_id":"levelo_inurba_marseille","lat":43.28856,"lon":5.358371,"is_reserved":false,"is_disabled":false,"rental_uris":{"android":"levelo://app?vid=6b47524e-07f5-44a1-9682-b61b8dac40ec","ios":"levelo://app?vid=6b47524e-07f5-44a1-9682-b61b8dac40ec"},"vehicle_type_id":"4","last_reported":1720706849,"current_range_meters":18400,"station_id":"ce4bhb12rcd13ifvqem0","pricing_plan_id":"cebpf4jnsgd1na2vs0mg"},{"bike_id":"7225a8b1-8a5f-48c3-acde-6c57a132d69a","system_id":"levelo_inurba_marseille","lat":43.28856,"lon":5.358371,"is_reserved":false,"is_disabled":false,"rental_uris":{"android":"levelo://app?vid=7225a8b1-8a5f-48c3-acde-6c57a132d69a","ios":"levelo://app?vid=7225a8b1-8a5f-48c3-acde-6c57a132d69a"},"vehicle_type_id":"4","last_reported":1720706849,"current_range_meters":21200,"station_id":"ce4bhb12rcd13ifvqem0","pricing_plan_id":"cebpf4jnsgd1na2vs0mg"},{"bike_id":"67b770f2-aaeb-4875-97be-da70568bf59a","system_id":"levelo_inurba_marseille","lat":43.337385,"lon":5.374617,"is_reserved":false,"is_disabled":false,"rental_uris":{"android":"levelo://app?vid=67b770f2-aaeb-4875-97be-da70568bf59a","ios":"levelo://app?vid=67b770f2-aaeb-4875-97be-da70568bf59a"},"vehicle_type_id":"4","last_reported":1720706849,"current_range_meters":10400,"station_id":"","pricing_plan_id":"cebpf4jnsgd1na2vs0mg"},{"bike_id":"b41c4ed7-d7fb-4744-9734-2a1a0a2d0349","system_id":"levelo_inurba_marseille","lat":43.312609,"lon":5.401662,"is_reserved":false,"is_disabled":false,"rental_uris":{"android":"levelo://app?vid=b41c4ed7-d7fb-4744-9734-2a1a0a2d0349","ios":"levelo://app?vid=b41c4ed7-d7fb-4744-9734-2a1a0a2d0349"},"vehicle_type_id":"4","last_reported":1720706849,"current_range_meters":20800,"station_id":"ce4bh092rcd13ifvqd30","pricing_plan_id":"cebpf4jnsgd1na2vs0mg"},{"bike_id":"8b0f86ed-92c3-4741-b53a-a4858442a9d5","system_id":"levelo_inurba_marseille","lat":43.309371,"lon":5.401449,"is_reserved":false,"is_disabled":false,"rental_uris":{"android":"levelo://app?vid=8b0f86ed-92c3-4741-b53a-a4858442a9d5","ios":"levelo://app?vid=8b0f86ed-92c3-4741-b53a-a4858442a9d5"},"vehicle_type_id":"4","last_reported":1720706849,"current_range_meters":8000,"station_id":"ce4bgvp2rcd13ifvqct0","pricing_plan_id":"cebpf4jnsgd1na2vs0mg"},{"bike_id":"00507ea1-ccf0-462f-bc61-adaecacbfe51","system_id":"levelo_inurba_marseille","lat":43.33776,"lon":5.37425,"is_reserved":false,"is_disabled":false,"rental_uris":{"android":"levelo://app?vid=00507ea1-ccf0-462f-bc61-adaecacbfe51","ios":"levelo://app?vid=00507ea1-ccf0-462f-bc61-adaecacbfe51"},"vehicle_type_id":"4","last_reported":1720706849,"current_range_meters":26400,"station_id":"","pricing_plan_id":"cebpf4jnsgd1na2vs0mg"},{"bike_id":"5b1b9550-65ec-433c-a44e-28eba43e510b","system_id":"levelo_inurba_marseille","lat":43.33783,"lon":5.37426,"is_reserved":false,"is_disabled":false,"rental_uris":{"android":"levelo://app?vid=5b1b9550-65ec-433c-a44e-28eba43e510b","ios":"levelo://app?vid=5b1b9550-65ec-433c-a44e-28eba43e510b"},"vehicle_type_id":"4","last_reported":1720706849,"current_range_meters":30000,"station_id":"","pricing_plan_id":"cebpf4jnsgd1na2vs0mg"},{"bike_id":"f8145909-3613-4638-94a1-480cd1cb54e9","system_id":"levelo_inurba_marseille","lat":43.28727,"lon":5.36078,"is_reserved":false,"is_disabled":false,"rental_uris":{"android":"levelo://app?vid=f8145909-3613-4638-94a1-480cd1cb54e9","ios":"levelo://app?vid=f8145909-3613-4638-94a1-480cd1cb54e9"},"vehicle_type_id":"4","last_reported":1720706849,"current_range_meters":14000,"station_id":"cki0cbj6b192h4jlfktg","pricing_plan_id":"cebpf4jnsgd1na2vs0mg"},{"bike_id":"49048c59-0c09-4695-ab1d-9a58cbdceb3c","system_id":"levelo_inurba_marseille","lat":43.301117,"lon":5.398795,"is_reserved":false,"is_disabled":false,"rental_uris":{"android":"levelo://app?vid=49048c59-0c09-4695-ab1d-9a58cbdceb3c","ios":"levelo://app?vid=49048c59-0c09-4695-ab1d-9a58cbdceb3c"},"vehicle_type_id":"4","last_reported":1720706849,"current_range_meters":7200,"station_id":"ce4bh0h2rcd13ifvqd40","pricing_plan_id":"cebpf4jnsgd1na2vs0mg"},{"bike_id":"0e9a7e81-3a74-4443-81c9-221f44828a03","system_id":"levelo_inurba_marseille","lat":43.286961,"lon":5.373785,"is_reserved":false,"is_disabled":false,"rental_uris":{"android":"levelo://app?vid=0e9a7e81-3a74-4443-81c9-221f44828a03","ios":"levelo://app?vid=0e9a7e81-3a74-4443-81c9-221f44828a03"},"vehicle_type_id":"4","last_reported":1720706849,"current_range_meters":0,"station_id":"ce4bh3p2rcd13ifvqdq0","pricing_plan_id":"cebpf4jnsgd1na2vs0mg"},{"bike_id":"d61b9b27-4376-4a34-bfb7-0fbee99d1e40","system_id":"levelo_inurba_marseille","lat":43.290336,"lon":5.386425,"is_reserved":false,"is_disabled":false,"rental_uris":{"android":"levelo://app?vid=d61b9b27-4376-4a34-bfb7-0fbee99d1e40","ios":"levelo://app?vid=d61b9b27-4376-4a34-bfb7-0fbee99d1e40"},"vehicle_type_id":"4","last_reported":1720706849,"current_range_meters":0,"station_id":"ce4bh4p2rcd13ifvqe0g","pricing_plan_id":"cebpf4jnsgd1na2vs0mg"},{"bike_id":"0f5e9a6a-c38e-4f3d-bde4-f4b224eea2be","system_id":"levelo_inurba_marseille","lat":43.302759,"lon":5.400793,"is_reserved":false,"is_disabled":false,"rental_uris":{"android":"levelo://app?vid=0f5e9a6a-c38e-4f3d-bde4-f4b224eea2be","ios":"levelo://app?vid=0f5e9a6a-c38e-4f3d-bde4-f4b224eea2be"},"vehicle_type_id":"4","last_reported":1720706849,"current_range_meters":0,"station_id":"ce4bgvh2rcd13ifvqcs0","pricing_plan_id":"cebpf4jnsgd1na2vs0mg"},{"bike_id":"61eece1f-f9c0-4680-a208-d43dbec0e69f","system_id":"levelo_inurba_marseille","lat":43.290336,"lon":5.386425,"is_reserved":false,"is_disabled":false,"rental_uris":{"android":"levelo://app?vid=61eece1f-f9c0-4680-a208-d43dbec0e69f","ios":"levelo://app?vid=61eece1f-f9c0-4680-a208-d43dbec0e69f"},"vehicle_type_id":"4","last_reported":1720706849,"current_range_meters":5600,"station_id":"ce4bh4p2rcd13ifvqe0g","pricing_plan_id":"cebpf4jnsgd1na2vs0mg"},{"bike_id":"10d18be7-fb27-4b1e-901a-cf2c0a89cb97","system_id":"levelo_inurba_marseille","lat":43.286182,"lon":5.364372,"is_reserved":false,"is_disabled":false,"rental_uris":{"android":"levelo://app?vid=10d18be7-fb27-4b1e-901a-cf2c0a89cb97","ios":"levelo://app?vid=10d18be7-fb27-4b1e-901a-cf2c0a89cb97"},"vehicle_type_id":"4","last_reported":1720706849,"current_range_meters":3600,"station_id":"","pricing_plan_id":"cebpf4jnsgd1na2vs0mg"},{"bike_id":"79fdfecf-51f8-4151-9d4c-82dd8616d023","system_id":"levelo_inurba_marseille","lat":43.313297,"lon":5.403635,"is_reserved":false,"is_disabled":false,"rental_uris":{"android":"levelo://app?vid=79fdfecf-51f8-4151-9d4c-82dd8616d023","ios":"levelo://app?vid=79fdfecf-51f8-4151-9d4c-82dd8616d023"},"vehicle_type_id":"4","last_reported":1720706849,"current_range_meters":0,"station_id":"","pricing_plan_id":"cebpf4jnsgd1na2vs0mg"},{"bike_id":"cb828bc2-a1f0-4251-ba94-51795e40126d","system_id":"levelo_inurba_marseille","lat":43.286039,"lon":5.370681,"is_reserved":false,"is_disabled":false,"rental_uris":{"android":"levelo://app?vid=cb828bc2-a1f0-4251-ba94-51795e40126d","ios":"levelo://app?vid=cb828bc2-a1f0-4251-ba94-51795e40126d"},"vehicle_type_id":"4","last_reported":1720706849,"current_range_meters":2800,"station_id":"ce4bht12rcd13ifvqi60","pricing_plan_id":"cebpf4jnsgd1na2vs0mg"},{"bike_id":"f0e0d2a8-688e-4c21-b6b9-6d2707de1c4d","system_id":"levelo_inurba_marseille","lat":43.28721,"lon":5.37942,"is_reserved":false,"is_disabled":false,"rental_uris":{"android":"levelo://app?vid=f0e0d2a8-688e-4c21-b6b9-6d2707de1c4d","ios":"levelo://app?vid=f0e0d2a8-688e-4c21-b6b9-6d2707de1c4d"},"vehicle_type_id":"4","last_reported":1720706849,"current_range_meters":26400,"station_id":"","pricing_plan_id":"cebpf4jnsgd1na2vs0mg"},{"bike_id":"b5633aec-cd5a-4342-808b-ef88e838fb3d","system_id":"levelo_inurba_marseille","lat":43.287184,"lon":5.37937,"is_reserved":false,"is_disabled":false,"rental_uris":{"android":"levelo://app?vid=b5633aec-cd5a-4342-808b-ef88e838fb3d","ios":"levelo://app?vid=b5633aec-cd5a-4342-808b-ef88e838fb3d"},"vehicle_type_id":"4","last_reported":1720706849,"current_range_meters":15600,"station_id":"ce4bh9p2rcd13ifvqec0","pricing_plan_id":"cebpf4jnsgd1na2vs0mg"},{"bike_id":"1e52f798-ab4e-46d4-ba4a-08ec92e713e1","system_id":"levelo_inurba_marseille","lat":43.31825,"lon":5.40394,"is_reserved":false,"is_disabled":false,"rental_uris":{"android":"levelo://app?vid=1e52f798-ab4e-46d4-ba4a-08ec92e713e1","ios":"levelo://app?vid=1e52f798-ab4e-46d4-ba4a-08ec92e713e1"},"vehicle_type_id":"4","last_reported":1720706849,"current_range_meters":11600,"station_id":"","pricing_plan_id":"cebpf4jnsgd1na2vs0mg"},{"bike_id":"9e7f103b-269c-4bce-a5ee-2d776731baa2","system_id":"levelo_inurba_marseille","lat":43.31688,"lon":5.4047,"is_reserved":false,"is_disabled":false,"rental_uris":{"android":"levelo://app?vid=9e7f103b-269c-4bce-a5ee-2d776731baa2","ios":"levelo://app?vid=9e7f103b-269c-4bce-a5ee-2d776731baa2"},"vehicle_type_id":"4","last_reported":1720706849,"current_range_meters":5200,"station_id":"ce4bh012rcd13ifvqd00","pricing_plan_id":"cebpf4jnsgd1na2vs0mg"},{"bike_id":"51dad6aa-6ad2-4aa1-b75e-17c1cf8594ec","system_id":"levelo_inurba_marseille","lat":43.31691,"lon":5.4047,"is_reserved":false,"is_disabled":false,"rental_uris":{"android":"levelo://app?vid=51dad6aa-6ad2-4aa1-b75e-17c1cf8594ec","ios":"levelo://app?vid=51dad6aa-6ad2-4aa1-b75e-17c1cf8594ec"},"vehicle_type_id":"4","last_reported":1720706849,"current_range_meters":8800,"station_id":"ce4bh012rcd13ifvqd00","pricing_plan_id":"cebpf4jnsgd1na2vs0mg"},