{"last_updated":1708193300,"ttl":30,"version":"2.2","data":{"bikes":[{"bike_id":"65dcfacc-528f-4cf5-a81b-dcaf3600277b","system_id":"levelo_inurba_marseille","lat":43.31341,"lon":5.367098,"is_reserved":false,"is_disabled":false,"rental_uris":{"android":"levelo://app?vid=65dcfacc-528f-4cf5-a81b-dcaf3600277b","ios":"levelo://app?vid=65dcfacc-528f-4cf5-a81b-dcaf3600277b"},"vehicle_type_id":"4","last_reported":1708193300,"current_range_meters":16800,"station_id":"ce4bgr92rcd13ifvqc6g","pricing_plan_id":"cebpf4jnsgd1na2vs0mg"},{"bike_id":"555d889d-528e-4192-b982-4e8c8cb7b4b5","system_id":"levelo_inurba_marseille","lat":43.313391,"lon":5.36706,"is_reserved":false,"is_disabled":false,"rental_uris":{"android":"levelo://app?vid=555d889d-528e-4192-b982-4e8c8cb7b4b5","ios":"levelo://app?vid=555d889d-528e-4192-b982-4e8c8cb7b4b5"},"vehicle_type_id":"4","last_reported":1708193300,"current_range_meters":18800,"station_id":"ce4bgr92rcd13ifvqc6g","pricing_plan_id":"cebpf4jnsgd1na2vs0mg"},{"bike_id":"82da3a10-90d6-4f03-80d3-b8a2c4c7662c","system_id":"levelo_inurba_marseille","lat":43.31341,"lon":5.367098,"is_reserved":false,"is_disabled":false,"rental_uris":{"android":"levelo://app?vid=82da3a10-90d6-4f03-80d3-b8a2c4c7662c","ios":"levelo://app?vid=82da3a10-90d6-4f03-80d3-b8a2c4c7662c"},"vehicle_type_id":"4","last_reported":1708193300,"current_range_meters":22400,"station_id":"ce4bgr92rcd13ifvqc6g","pricing_plan_id":"cebpf4jnsgd1na2vs0mg"},{"bike_id":"54e99a41-2654-4dae-b192-4d53f83515fc","system_id":"levelo_inurba_marseille","lat":43.31341,"lon":5.367098,"is_reserved":false,"is_disabled":false,"rental_uris":{"android":"levelo://app?vid=54e99a41-2654-4dae-b192-4d53f83515fc","ios":"levelo://app?vid=54e99a41-2654-4dae-b192-4d53f83515fc"},"vehicle_type_id":"4","last_reported":1708193300,"current_range_meters":14400,"station_id":"ce4bgr92rcd13ifvqc6g","pricing_plan_id":"cebpf4jnsgd1na2vs0mg"},{"bike_id":"733c2819-e3dd-4905-9ce7-3056d47b1a25","system_id":"levelo_inurba_marseille","lat":43.31361,"lon":5.3671,"is_reserved":false,"is_disabled":false,"rental_uris":{"android":"levelo://app?vid=733c2819-e3dd-4905-9ce7-3056d47b1a25","ios":"levelo://app?vid=733c2819-e3dd-4905-9ce7-3056d47b1a25"},"vehicle_type_id":"4","last_reported":1708193300,"current_range_meters":0,"station_id":"ce4bgr92rcd13ifvqc6g","pricing_plan_id":"cebpf4jnsgd1na2vs0mg"},{"bike_id":"499db1b8-1bb9-4429-96b0-6c20ed9b200e","system_id":"levelo_inurba_marseille","lat":43.312239,"lon":5.368562,"is_reserved":false,"is_disabled":false,"rental_uris":{"android":"levelo://app?vid=499db1b8-1bb9-4429-96b0-6c20ed9b200e","ios":"levelo://app?vid=499db1b8-1bb9-4429-96b0-6c20ed9b200e"},"vehicle_type_id":"4","last_reported":1708193300,"current_range_meters":11200,"station_id":"ce4bgl92rcd13ifvqbq0","pricing_plan_id":"cebpf4jnsgd1na2vs0mg"},{"bike_id":"c1487fa7-a8d5-45a2-8628-4bef6239d170","system_id":"levelo_inurba_marseille","lat":43.312239,"lon":5.368562,"is_reserved":false,"is_disabled":false,"rental_uris":{"android":"levelo://app?vid=c1487fa7-a8d5-45a2-8628-4bef6239d170","ios":"levelo://app?vid=c1487fa7-a8d5-45a2-8628-4bef6239d170"},"vehicle_type_id":"4","last_reported":1708193300,"current_range_meters":400,"station_id":"ce4bgl92rcd13ifvqbq0","pricing_plan_id":"cebpf4jnsgd1na2vs0mg"},{"bike_id":"58dda407-ae05-430f-8c3a-d5c1dc385184","system_id":"levelo_inurba_marseille","lat":43.312239,"lon":5.368562,"is_reserved":false,"is_disabled":false,"rental_uris":{"android":"levelo://app?vid=58dda407-ae05-430f-8c3a-d5c1dc385184","ios":"levelo://app?vid=58dda407-ae05-430f-8c3a-d5c1dc385184"},"vehicle_type_id":"4","last_reported":1708193300,"current_range_meters":15600,"station_id":"ce4bgl92rcd13ifvqbq0","pricing_plan_id":"cebpf4jnsgd1na2vs0mg"},{"bike_id":"b7b4c4a1-028e-42ab-911a-7981d3f59209","system_id":"levelo_inurba_marseille","lat":43.312239,"lon":5.368562,"is_reserved":false,"is_disabled":false,"rental_uris":{"android":"levelo://app?vid=b7b4c4a1-028e-42ab-911a-7981d3f59209","ios":"levelo://app?vid=b7b4c4a1-028e-42ab-911a-7981d3f59209"},"vehicle_type_id":"4","last_reported":1708193300,"current_range_meters":31200,"station_id":"ce4bgl92rcd13ifvqbq0","pricing_plan_id":"cebpf4jnsgd1na2vs0mg"},{"bike_id":"07d4415f-1a4a-407a-8012-8d939c250035","system_id":"levelo_inurba_marseille","lat":43.312239,"lon":5.368562,"is_reserved":false,"is_disabled":false,"rental_uris":{"android":"levelo://app?vid=07d4415f-1a4a-407a-8012-8d939c250035","ios":"levelo://app?vid=07d4415f-1a4a-407a-8012-8d939c250035"},"vehicle_type_id":"4","last_reported":1708193300,"current_range_meters":0,"station_id":"ce4bgl92rcd13ifvqbq0","pricing_plan_id":"cebpf4jnsgd1na2vs0mg"},{"bike_id":"74ef5114-b736-4964-a226-1a898063f01f","system_id":"levelo_inurba_marseille","lat":43.309076,"lon":5.368465,"is_reserved":false,"is_disabled":false,"rental_uris":{"android":"levelo://app?vid=74ef5114-b736-4964-a226-1a898063f01f","ios":"levelo://app?vid=74ef5114-b736-4964-a226-1a898063f01f"},"vehicle_type_id":"4","last_reported":1708193300,"current_range_meters":9600,"station_id":"ce4bgn92rcd13ifvqbvg","pricing_plan_id":"cebpf4jnsgd1na2vs0mg"},{"bike_id":"a4cb5244-d03b-40f1-9019-50d00c290f1d","system_id":"levelo_inurba_marseille","lat":43.314811,"lon":5.373103,"is_reserved":false,"is_disabled":false,"rental_uris":{"android":"levelo://app?vid=a4cb5244-d03b-40f1-9019-50d00c290f1d","ios":"levelo://app?vid=a4cb5244-d03b-40f1-9019-50d00c290f1d"},"vehicle_type_id":"4","last_reported":1708193300,"current_range_meters":4800,"station_id":"ce4bgt12rcd13ifvqcd0","pricing_plan_id":"cebpf4jnsgd1na2vs0mg"},{"bike_id":"08578d2c-17eb-497c-bf4a-2705ffab8cf9","system_id":"levelo_inurba_marseille","lat":43.314811,"lon":5.373104,"is_reserved":false,"is_disabled":false,"rental_uris":{"android":"levelo://app?vid=08578d2c-17eb-497c-bf4a-2705ffab8cf9","ios":"levelo://app?vid=08578d2c-17eb-497c-bf4a-2705ffab8cf9"},"vehicle_type_id":"4","last_reported":1708193300,"current_range_meters":15200,"station_id":"ce4bgt12rcd13ifvqcd0","pricing_plan_id":"cebpf4jnsgd1na2vs0mg"},{"bike_id":"54264798-c9ee-4bac-ad99-8dcf14cc6056","system_id":"levelo_inurba_marseille","lat":43.305368,"lon":5.367343,"is_reserved":false,"is_disabled":false,"rental_uris":{"android":"levelo://app?vid=54264798-c9ee-4bac-ad99-8dcf14cc6056","ios":"levelo://app?vid=54264798-c9ee-4bac-ad99-8dcf14cc6056"},"vehicle_type_id":"4","last_reported":1708193300,"current_range_meters":0,"station_id":"ce4bgrp2rcd13ifvqc9g","pricing_plan_id":"cebpf4jnsgd1na2vs0mg"},{"bike_id":"23671d15-a00b-4424-b596-4ef10bd63f5e","system_id":"levelo_inurba_marseille","lat":43.305415,"lon":5.365496,"is_reserved":false,"is_disabled":false,"rental_uris":{"android":"levelo://app?vid=23671d15-a00b-4424-b596-4ef10bd63f5e","ios":"levelo://app?vid=23671d15-a00b-4424-b596-4ef10bd63f5e"},"vehicle_type_id":"4","last_reported":1708193300,"current_range_meters":0,"station_id":"ce4bgs12rcd13ifvqcag","pricing_plan_id":"cebpf4jnsgd1na2vs0mg"},{"bike_id":"82a95e7d-6612-4685-951f-7fafc747fdb5","system_id":"levelo_inurba_marseille","lat":43.305368,"lon":5.367343,"is_reserved":false,"is_disabled":false,"rental_uris":{"android":"levelo://app?vid=82a95e7d-6612-4685-951f-7fafc747fdb5","ios":"levelo://app?vid=82a95e7d-6612-4685-951f-7fafc747fdb5"},"vehicle_type_id":"4","last_reported":1708193300,"current_range_meters":400,"station_id":"ce4bgrp2rcd13ifvqc9g","pricing_plan_id":"cebpf4jnsgd1na2vs0mg"},{"bike_id":"8d2d8548-6db5-4da7-a592-fdef3f6b6faf","system_id":"levelo_inurba_marseille","lat":43.305989,"lon":5.37225,"is_reserved":false,"is_disabled":false,"rental_uris":{"android":"levelo://app?vid=8d2d8548-6db5-4da7-a592-fdef3f6b6faf","ios":"levelo://app?vid=8d2d8548-6db5-4da7-a592-fdef3f6b6faf"},"vehicle_type_id":"4","last_reported":1708193300,"current_range_meters":17600,"station_id":"ce4bgqh2rcd13ifvqc4g","pricing_plan_id":"cebpf4jnsgd1na2vs0mg"},{"bike_id":"7f9fe338-391e-4751-8d20-7c7226da91f4","system_id":"levelo_inurba_marseille","lat":43.305989,"lon":5.37225,"is_reserved":false,"is_disabled":false,"rental_uris":{"android":"levelo://app?vid=7f9fe338-391e-4751-8d20-7c7226da91f4","ios":"levelo://app?vid=7f9fe338-391e-4751-8d20-7c7226da91f4"},"vehicle_type_id":"4","last_reported":1708193300,"current_range_meters":18000,"station_id":"ce4bgqh2rcd13ifvqc4g","pricing_plan_id":"cebpf4jnsgd1na2vs0mg"},{"bike_id":"34b1a397-adcb-461c-ac7f-e3c5edfd9637","system_id":"levelo_inurba_marseille","lat":43.305989,"lon":5.37225,"is_reserved":false,"is_disabled":false,"rental_uris":{"android":"levelo://app?vid=34b1a397-adcb-461c-ac7f-e3c5edfd9637","ios":"levelo://app?vid=34b1a397-adcb-461c-ac7f-e3c5edfd9637"},"vehicle_type_id":"4","last_reported":1708193300,"current_range_meters":16400,"station_id":"ce4bgqh2rcd13ifvqc4g","pricing_plan_id":"cebpf4jnsgd1na2vs0mg"},{"bike_id":"400481a4-4d0f-499e-af9c-6e62ee30cbb4","system_id":"levelo_inurba_marseille","lat":43.305989,"lon":5.37225,"is_reserved":false,"is_disabled":false,"rental_uris":{"android":"levelo://app?vid=400481a4-4d0f-499e-af9c-6e62ee30cbb4","ios":"levelo://app?vid=400481a4-4d0f-499e-af9c-6e62ee30cbb4"},"vehicle_type_id":"4","last_reported":1708193300,"current_range_meters":20800,"station_id":"ce4bgqh2rcd13ifvqc4g","pricing_plan_id":"cebpf4jnsgd1na2vs0mg"},{"bike_id":"8a72b1e0-690d-4bf2-9c75-40846f0c04b0","system_id":"levelo_inurba_marseille","lat":43.305989,"lon":5.37225,"is_reserved":false,"is_disabled":false,"rental_uris":{"android":"levelo://app?vid=8a72b1e0-690d-4bf2-9c75-40846f0c04b0","ios":"levelo://app?vid=8a72b1e0-690d-4bf2-9c75-40846f0c04b0"},"vehicle_type_id":"4","last_reported":1708193300,"current_range_meters":18000,"station_id":"ce4bgqh2rcd13ifvqc4g","pricing_plan_id":"cebpf4jnsgd1na2vs0mg"},{"bike_id":"24bee3cb-e713-4877-af03-70503df5a324","system_id":"levelo_inurba_marseille","lat":43.305989,"lon":5.37225,"is_reserved":false,"is_disabled":false,"rental_uris":{"android":"levelo://app?vid=24bee3cb-e713-4877-af03-70503df5a324","ios":"levelo://app?vid=24bee3cb-e713-4877-af03-70503df5a324"},"vehicle_type_id":"4","last_reported":1708193300,"current_range_meters":18000,"station_id":"ce4bgqh2rcd13ifvqc4g","pricing_plan_id":"cebpf4jnsgd1na2vs0mg"},{"bike_id":"c503ca16-9f2a-4f5d-b9b1-f0c4e7772b78","system_id":"levelo_inurba_marseille","lat":43.311125,"lon":5.377624,"is_reserved":false,"is_disabled":false,"rental_uris":{"android":"levelo://app?vid=c503ca16-9f2a-4f5d-b9b1-f0c4e7772b78","ios":"levelo://app?vid=c503ca16-9f2a-4f5d-b9b1-f0c4e7772b78"},"vehicle_type_id":"4","last_reported":1708193300,"current_range_meters":8000,"station_id":"ce4bgt92rcd13ifvqcg0","pricing_plan_id":"cebpf4jnsgd1na2vs0mg"},{"bike_id":"68b5f965-098e-4bdc-9459-e74e141b5b33","system_id":"levelo_inurba_marseille","lat":43.311125,"lon":5.377624,"is_reserved":false,"is_disabled":false,"rental_uris":{"android":"levelo://app?vid=68b5f965-098e-4bdc-9459-e74e141b5b33","ios":"levelo://app?vid=68b5f965-098e-4bdc-9459-e74e141b5b33"},"vehicle_type_id":"4","last_reported":1708193300,"current_range_meters":9200,"station_id":"ce4bgt92rcd13ifvqcg0","pricing_plan_id":"cebpf4jnsgd1na2vs0mg"},{"bike_id":"7ec5d7fc-b1cf-449d-baad-89c9f3fd565e","system_id":"levelo_inurba_marseille","lat":43.307945,"lon":5.376487,"is_reserved":false,"is_disabled":false,"rental_uris":{"android":"levelo://app?vid=7ec5d7fc-b1cf-449d-baad-89c9f3fd565e","ios":"levelo://app?vid=7ec5d7fc-b1cf-449d-baad-89c9f3fd565e"},"vehicle_type_id":"4","last_reported":1708193300,"current_range_meters":14400,"station_id":"ce4bgv92rcd13ifvqcq0","pricing_plan_id":"cebpf4jnsgd1na2vs0mg"},{"bike_id":"de67263d-84fe-409e-9a69-129305f487df","system_id":"levelo_inurba_marseille","lat":43.317075,"lon":5.377367,"is_reserved":false,"is_disabled":false,"rental_uris":{"android":"levelo://app?vid=de67263d-84fe-409e-9a69-129305f487df","ios":"levelo://app?vid=de67263d-84fe-409e-9a69-129305f487df"},"vehicle_type_id":"4","last_reported":1708193300,"current_range_meters":31200,"station_id":"ce4bgth2rcd13ifvqch0","pricing_plan_id":"cebpf4jnsgd1na2vs0mg"},{"bike_id":"a4bc0bc5-1fb5-4085-beca-2a415bb9950c","system_id":"levelo_inurba_marseille","lat":43.30309,"lon":5.36899,"is_reserved":false,"is_disabled":false,"rental_uris":{"android":"levelo://app?vid=a4bc0bc5-1fb5-4085-beca-2a415bb9950c","ios":"levelo://app?vid=a4bc0bc5-1fb5-4085-beca-2a415bb9950c"},"vehicle_type_id":"4","last_reported":1708193300,"current_range_meters":14000,"station_id":"ce4bgqh2rcd13ifvqc5g","pricing_plan_id":"cebpf4jnsgd1na2vs0mg"},{"bike_id":"a4e0b647-d00e-45df-818f-243630576b69","system_id":"levelo_inurba_marseille","lat":43.303046,"lon":5.368981,"is_reserved":false,"is_disabled":false,"rental_uris":{"android":"levelo://app?vid=a4e0b647-d00e-45df-818f-243630576b69","ios":"levelo://app?vid=a4e0b647-d00e-45df-818f-243630576b69"},"vehicle_type_id":"4","last_reported":1708193300,"current_range_meters":800,"station_id":"ce4bgqh2rcd13ifvqc5g","pricing_plan_id":"cebpf4jnsgd1na2vs0mg"},{"bike_id":"5945e219-1cf0-45e0-9ec9-d9471bad3262","system_id":"levelo_inurba_marseille","lat":43.315293,"lon":5.380349,"is_reserved":false,"is_disabled":false,"rental_uris":{"android":"levelo://app?vid=5945e219-1cf0-45e0-9ec9-d9471bad3262","ios":"levelo://app?vid=5945e219-1cf0-45e0-9ec9-d9471bad3262"},"vehicle_type_id":"4","last_reported":1708193300,"current_range_meters":18800,"station_id":"ce4bhsp2rcd13ifvqi50","pricing_plan_id":"cebpf4jnsgd1na2vs0mg"},{"bike_id":"999a0a8f-2611-4433-98ff-12af97d2740a","system_id":"levelo_inurba_marseille","lat":43.315293,"lon":5.380349,"is_reserved":false,"is_disabled":false,"rental_uris":{"android":"levelo://app?vid=999a0a8f-2611-4433-98ff-12af97d2740a","ios":"levelo://app?vid=999a0a8f-2611-4433-98ff-12af97d2740a"},"vehicle_type_id":"4","last_reported":1708193300,"current_range_meters":20400,"station_id":"ce4bhsp2rcd13ifvqi50","pricing_plan_id":"cebpf4jnsgd1na2vs0mg"},{"bike_id":"cc011084-1c94-4953-a92a-42803ec91860","system_id":"levelo_inurba_marseille","lat":43.32185,"lon":5.37502,"is_reserved":false,"is_disabled":false,"rental_uris":{"android":"levelo://app?vid=cc011084-1c94-4953-a92a-42803ec91860","ios":"levelo://app?vid=cc011084-1c94-4953-a92a-42803ec91860"},"vehicle_type_id":"4","last_reported":1708193300,"current_range_meters":10400,"station_id":"","pricing_plan_id":"cebpf4jnsgd1na2vs0mg"},{"bike_id":"64a26710-d477-4849-a173-d4c3e0d9f429","system_id":"levelo_inurba_marseille","lat":43.308012,"lon":5.381511,"is_reserved":false,"is_disabled":false,"rental_uris":{"android":"levelo://app?vid=64a26710-d477-4849-a173-d4c3e0d9f429","ios":"levelo://app?vid=64a26710-d477-4849-a173-d4c3e0d9f429"},"vehicle_type_id":"4","last_reported":1708193300,"current_range_meters":18000,"station_id":"ce4bgt12rcd13ifvqce0","pricing_plan_id":"cebpf4jnsgd1na2vs0mg"},{"bike_id":"b50ba345-4235-4b4c-828e-eaeb2767aee1","system_id":"levelo_inurba_marseille","lat":43.287154,"lon":5.399979,"is_reserved":false,"is_disabled":false,"rental_uris":{"android":"levelo://app?vid=b50ba345-4235-4b4c-828e-eaeb2767aee1","ios":"levelo://app?vid=b50ba345-4235-4b4c-828e-eaeb2767aee1"},"vehicle_type_id":"4","last_reported":1708193300,"current_range_meters":20800,"station_id":"ce4bho92rcd13ifvqh3g","pricing_plan_id":"cebpf4jnsgd1na2vs0mg"},{"bike_id":"4d566e4c-125e-4e70-a07f-270b4c9cd38b","system_id":"levelo_inurba_marseille","lat":43.324771,"lon":5.36557,"is_reserved":false,"is_disabled":false,"rental_uris":{"android":"levelo://app?vid=4d566e4c-125e-4e70-a07f-270b4c9cd38b","ios":"levelo://app?vid=4d566e4c-125e-4e70-a07f-270b4c9cd38b"},"vehicle_type_id":"4","last_reported":1708193300,"current_range_meters":12400,"station_id":"ce4bhs12rcd13ifvqhvg","pricing_plan_id":"cebpf4jnsgd1na2vs0mg"},{"bike_id":"cff15590-55ad-4da5-bb89-f2b4a922c9ca","system_id":"levelo_inurba_marseille","lat":43.310723,"lon":5.383445,"is_reserved":false,"is_disabled":false,"rental_uris":{"android":"levelo://app?vid=cff15590-55ad-4da5-bb89-f2b4a922c9ca","ios":"levelo://app?vid=cff15590-55ad-4da5-bb89-f2b4a922c9ca"},"vehicle_type_id":"4","last_reported":1708193300,"current_range_meters":0,"station_id":"ce4bgv92rcd13ifvqcr0","pricing_plan_id":"cebpf4jnsgd1na2vs0mg"},{"bike_id":"b58f9322-e72c-44cb-875a-8a661b34e40e","system_id":"levelo_inurba_marseille","lat":43.310804,"lon":5.38359,"is_reserved":false,"is_disabled":false,"rental_uris":{"android":"levelo://app?vid=b58f9322-e72c-44cb-875a-8a661b34e40e","ios":"levelo://app?vid=b58f9322-e72c-44cb-875a-8a661b34e40e"},"vehicle_type_id":"4","last_reported":1708193300,"current_range_meters":0,"station_id":"ce4bgv92rcd13ifvqcr0","pricing_plan_id":"cebpf4jnsgd1na2vs0mg"},{"bike_id":"bac54ab8-50d1-4a17-8d56-2bf8df0d901e","system_id":"levelo_inurba_marseille","lat":43.302784,"lon":5.377158,"is_reserved":false,"is_disabled":false,"rental_uris":{"android":"levelo://app?vid=bac54ab8-50d1-4a17-8d56-2bf8df0d901e","ios":"levelo://app?vid=bac54ab8-50d1-4a17-8d56-2bf8df0d901e"},"vehicle_type_id":"4","last_reported":1708193300,"current_range_meters":8400,"station_id":"ce4bguh2rcd13ifvqcj0","pricing_plan_id":"cebpf4jnsgd1na2vs0mg"},{"bike_id":"66c512bf-acab-4702-ba43-f4af8a53fc57","system_id":"levelo_inurba_marseille","lat":43.324771,"lon":5.36557,"is_reserved":false,"is_disabled":false,"rental_uris":{"android":"levelo://app?vid=66c512bf-acab-4702-ba43-f4af8a53fc57","ios":"levelo://app?vid=66c512bf-acab-4702-ba43-f4af8a53fc57"},"vehicle_type_id":"4","last_reported":1708193300,"current_range_meters":2400,"station_id":"ce4bhs12rcd13ifvqhvg","pricing_plan_id":"cebpf4jnsgd1na2vs0mg"},{"bike_id":"bd4b7dd6-7470-4274-90a8-c4363f149003","system_id":"levelo_inurba_marseille","lat":43.313571,"lon":5.384829,"is_reserved":false,"is_disabled":false,"rental_uris":{"android":"levelo://app?vid=bd4b7dd6-7470-4274-90a8-c4363f149003","ios":"levelo://app?vid=bd4b7dd6-7470-4274-90a8-c4363f149003"},"vehicle_type_id":"4","last_reported":1708193300,"current_range_meters":15200,"station_id":"ce4bgt92rcd13ifvqcf0","pricing_plan_id":"cebpf4jnsgd1na2vs0mg"},{"bike_id":"ad4504ad-6488-4262-a2b0-e65fcf62692c","system_id":"levelo_inurba_marseille","lat":43.301429,"lon":5.37413,"is_reserved":false,"is_disabled":false,"rental_uris":{"android":"levelo://app?vid=ad4504ad-6488-4262-a2b0-e65fcf62692c","ios":"levelo://app?vid=ad4504ad-6488-4262-a2b0-e65fcf62692c"},"vehicle_type_id":"4","last_reported":1708193300,"current_range_meters":18800,"station_id":"ce4bgs92rcd13ifvqcc0","pricing_plan_id":"cebpf4jnsgd1na2vs0mg"},{"bike_id":"16157779-4ae3-46c4-afa7-eb743b6df737","system_id":"levelo_inurba_marseille","lat":43.319935,"lon":5.381699,"is_reserved":false,"is_disabled":false,"rental_uris":{"android":"levelo://app?vid=16157779-4ae3-46c4-afa7-eb743b6df737","ios":"levelo://app?vid=16157779-4ae3-46c4-afa7-eb743b6df737"},"vehicle_type_id":"4","last_reported":1708193300,"current_range_meters":6000,"station_id":"ce4bhr12rcd13ifvqhpg","pricing_plan_id":"cebpf4jnsgd1na2vs0mg"},{"bike_id":"470c7419-98e3-4059-adc8-fb445c6e4847","system_id":"levelo_inurba_marseille","lat":43.313571,"lon":5.384829,"is_reserved":false,"is_disabled":false,"rental_uris":{"android":"levelo://app?vid=470c7419-98e3-4059-adc8-fb445c6e4847","ios":"levelo://app?vid=470c7419-98e3-4059-adc8-fb445c6e4847"},"vehicle_type_id":"4","last_reported":1708193300,"current_range_meters":0,"station_id":"ce4bgt92rcd13ifvqcf0","pricing_plan_id":"cebpf4jnsgd1na2vs0mg"},{"bike_id":"7351b036-da5e-4ccc-94e6-533e1af4474b","system_id":"levelo_inurba_marseille","lat":43.313571,"lon":5.384829,"is_reserved":false,"is_disabled":false,"rental_uris":{"android":"levelo://app?vid=7351b036-da5e-4ccc-94e6-533e1af4474b","ios":"levelo://app?vid=7351b036-da5e-4ccc-94e6-533e1af4474b"},"vehicle_type_id":"4","last_reported":1708193300,"current_range_meters":800,"station_id":"ce4bgt92rcd13ifvqcf0","pricing_plan_id":"cebpf4jnsgd1na2vs0mg"},{"bike_id":"d7122a35-34e0-4200-8fdb-176c8fed4439","system_id":"levelo_inurba_marseille","lat":43.313571,"lon":5.384829,"is_reserved":false,"is_disabled":false,"rental_uris":{"android":"levelo://app?vid=d7122a35-34e0-4200-8fdb-176c8fed4439","ios":"levelo://app?vid=d7122a35-34e0-4200-8fdb-176c8fed4439"},"vehicle_type_id":"4","last_reported":1708193300,"current_range_meters":30800,"station_id":"ce4bgt92rcd13ifvqcf0","pricing_plan_id":"cebpf4jnsgd1na2vs0mg"},{"bike_id":"8ad2f7eb-9f56-42cc-ae45-c63959f806f0","system_id":"levelo_inurba_marseille","lat":43.313571,"lon":5.384829,"is_reserved":false,"is_disabled":false,"rental_uris":{"android":"levelo://app?vid=8ad2f7eb-9f56-42cc-ae45-c63959f806f0","ios":"levelo://app?vid=8ad2f7eb-9f56-42cc-ae45-c63959f806f0"},"vehicle_type_id":"4","last_reported":1708193300,"current_range_meters":20400,"station_id":"ce4bgt92rcd13ifvqcf0","pricing_plan_id":"cebpf4jnsgd1na2vs0mg"},{"bike_id":"1dac90cc-342b-4092-8352-c42a71902b45","system_id":"levelo_inurba_marseille","lat":43.313571,"lon":5.384829,"is_reserved":false,"is_disabled":false,"rental_uris":{"android":"levelo://app?vid=1dac90cc-342b-4092-8352-c42a71902b45","ios":"levelo://app?vid=1dac90cc-342b-4092-8352-c42a71902b45"},"vehicle_type_id":"4","last_reported":1708193300,"current_range_meters":18000,"station_id":"ce4bgt92rcd13ifvqcf0","pricing_plan_id":"cebpf4jnsgd1na2vs0mg"},{"bike_id":"622e0355-0f36-4512-9aa4-3384b16bfea4","system_id":"levelo_inurba_marseille","lat":43.313571,"lon":5.384829,"is_reserved":false,"is_disabled":false,"rental_uris":{"android":"levelo://app?vid=622e0355-0f36-4512-9aa4-3384b16bfea4","ios":"levelo://app?vid=622e0355-0f36-4512-9aa4-3384b16bfea4"},"vehicle_type_id":"4","last_reported":1708193300,"current_range_meters":24400,"station_id":"ce4bgt92rcd13ifvqcf0","pricing_plan_id":"cebpf4jnsgd1na2vs0mg"},{"bike_id":"155337c8-df15-455b-985c-d345b457876e","system_id":"levelo_inurba_marseille","lat":43.313571,"lon":5.384829,"is_reserved":false,"is_disabled":false,"rental_uris":{"android":"levelo://app?vid=155337c8-df15-455b-985c-d345b457876e","ios":"levelo://app?vid=155337c8-df15-455b-985c-d345b457876e"},"vehicle_type_id":"4","last_reported":1708193300,"current_range_meters":2800,"station_id":"ce4bgt92rcd13ifvqcf0","pricing_plan_id":"cebpf4jnsgd1na2vs0mg"},{"bike_id":"c0642782-6130-45ca-a521-103dbdeeab7c","system_id":"levelo_inurba_marseille","lat":43.313571,"lon":5.384829,"is_reserved":false,"is_disabled":false,"rental_uris":{"android":"levelo://app?vid=c0642782-6130-45ca-a521-103dbdeeab7c","ios":"levelo://app?vid=c0642782-6130-45ca-a521-103dbdeeab7c"},"vehicle_type_id":"4","last_reported":1708193300,"current_range_meters":22000,"station_id":"ce4bgt92rcd13ifvqcf0","pricing_plan_id":"cebpf4jnsgd1na2vs0mg"},{"bike_id":"a26c9355-13fd-4a89-ac92-a859584824cf","system_id":"levelo_inurba_marseille","lat":43.29989,"lon":5.37178,"is_reserved":false,"is_disabled":false,"rental_uris":{"android":"levelo://app?vid=a26c9355-13fd-4a89-ac92-a859584824cf","ios":"levelo://app?vid=a26c9355-13fd-4a89-ac92-a859584824cf"},"vehicle_type_id":"4","last_reported":1708193300,"current_range_meters":27600,"station_id":"ce4bgr92rcd13ifvqc7g","pricing_plan_id":"cebpf4jnsgd1na2vs0mg"},{"bike_id":"0245206e-1ca5-477a-9c9c-d8013a14278a","system_id":"levelo_inurba_marseille","lat":43.299724,"lon":5.371829,"is_reserved":false,"is_disabled":false,"rental_uris":{"android":"levelo://app?vid=0245206e-1ca5-477a-9c9c-d8013a14278a","ios":"levelo://app?vid=0245206e-1ca5-477a-9c9c-d8013a14278a"},"vehicle_type_id":"4","last_reported":1708193300,"current_range_meters":31200,"station_id":"ce4bgr92rcd13ifvqc7g","pricing_plan_id":"cebpf4jnsgd1na2vs0mg"},{"bike_id":"9fbf6a88-f2ba-4d59-ad63-713e8df25702","system_id":"levelo_inurba_marseille","lat":43.299222,"lon":5.365554,"is_reserved":false,"is_disabled":false,"rental_uris":{"android":"levelo://app?vid=9fbf6a88-f2ba-4d59-ad63-713e8df25702","ios":"levelo://app?vid=9fbf6a88-f2ba-4d59-ad63-713e8df25702"},"vehicle_type_id":"4","last_reported":1708193300,"current_range_meters":25200,"station_id":"ce4bgm92rcd13ifvqbr0","pricing_plan_id":"cebpf4jnsgd1na2vs0mg"},{"bike_id":"ea84f3a1-3bfa-409f-b689-ce6285c38103","system_id":"levelo_inurba_marseille","lat":43.299724,"lon":5.371829,"is_reserved":false,"is_disabled":false,"rental_uris":{"android":"levelo://app?vid=ea84f3a1-3bfa-409f-b689-ce6285c38103","ios":"levelo://app?vid=ea84f3a1-3bfa-409f-b689-ce6285c38103"},"vehicle_type_id":"4","last_reported":1708193300,"current_range_meters":31200,"station_id":"ce4bgr92rcd13ifvqc7g","pricing_plan_id":"cebpf4jnsgd1na2vs0mg"},{"bike_id":"d10e38aa-d58d-438b-b57f-61fa1d53ecd2","system_id":"levelo_inurba_marseille","lat":43.299693,"lon":5.37168,"is_reserved":false,"is_disabled":false,"rental_uris":{"android":"levelo://app?vid=d10e38aa-d58d-438b-b57f-61fa1d53ecd2","ios":"levelo://app?vid=d10e38aa-d58d-438b-b57f-61fa1d53ecd2"},"vehicle_type_id":"4","last_reported":1708193300,"current_range_meters":0,"station_id":"ce4bgjh2rcd13ifvqbg0","pricing_plan_id":"cebpf4jnsgd1na2vs0mg"},{"bike_id":"f07b8457-9b09-420d-a9d7-97ce2b7d158b","system_id":"levelo_inurba_marseille","lat":43.299222,"lon":5.365554,"is_reserved":false,"is_disabled":false,"rental_uris":{"android":"levelo://app?vid=f07b8457-9b09-420d-a9d7-97ce2b7d158b","ios":"levelo://app?vid=f07b8457-9b09-420d-a9d7-97ce2b7d158b"},"vehicle_type_id":"4","last_reported":1708193300,"current_range_meters":0,"station_id":"ce4bgm92rcd13ifvqbr0","pricing_plan_id":"cebpf4jnsgd1na2vs0mg"},{"bike_id":"04491044-92bf-4325-b3a1-6f8fab8c5b25","system_id":"levelo_inurba_marseille","lat":43.313571,"lon":5.384829,"is_reserved":false,"is_disabled":false,"rental_uris":{"android":"levelo://app?vid=04491044-92bf-4325-b3a1-6f8fab8c5b25","ios":"levelo://app?vid=04491044-92bf-4325-b3a1-6f8fab8c5b25"},"vehicle_type_id":"4","last_reported":1708193300,"current_range_meters":21200,"station_id":"ce4bgt92rcd13ifvqcf0","pricing_plan_id":"cebpf4jnsgd1na2vs0mg"},{"bike_id":"fe6e417e-d7a3-4be7-9821-4917d7ad0fd1","system_id":"levelo_inurba_marseille","lat":43.298433,"lon":5.362774,"is_reserved":false,"is_disabled":false,"rental_uris":{"android":"levelo://app?vid=fe6e417e-d7a3-4be7-9821-4917d7ad0fd1","ios":"levelo://app?vid=fe6e417e-d7a3-4be7-9821-4917d7ad0fd1"},"vehicle_type_id":"4","last_reported":1708193300,"current_range_meters":23200,"station_id":"ce4bgpp2rcd13ifvqc3g","pricing_plan_id":"cebpf4jnsgd1na2vs0mg"},{"bike_id":"39ff4f35-f5cb-46dd-9615-851c0cc2dad2","system_id":"levelo_inurba_marseille","lat":43.305326,"lon":5.3841,"is_reserved":false,"is_disabled":false,"rental_uris":{"android":"levelo://app?vid=39ff4f35-f5cb-46dd-9615-851c0cc2dad2","ios":"levelo://app?vid=39ff4f35-f5cb-46dd-9615-851c0cc2dad2"},"vehicle_type_id":"4","last_reported":1708193300,"current_range_meters":8800,"station_id":"ce4bgg92rcd13ifvqb30","pricing_plan_id":"cebpf4jnsgd1na2vs0mg"},{"bike_id":"d7ff7427-7861-4b71-a154-bfaf7374744b","system_id":"levelo_inurba_marseille","lat":43.298433,"lon":5.362774,"is_reserved":false,"is_disabled":false,"rental_uris":{"android":"levelo://app?vid=d7ff7427-7861-4b71-a154-bfaf7374744b","ios":"levelo://app?vid=d7ff7427-7861-4b71-a154-bfaf7374744b"},"vehicle_type_id":"4","last_reported":1708193300,"current_range_meters":15600,"station_id":"ce4bgpp2rcd13ifvqc3g","pricing_plan_id":"cebpf4jnsgd1na2vs0mg"},{"bike_id":"e649a1de-a839-46bb-8352-c0eda9d170a2","system_id":"levelo_inurba_marseille","lat":43.30239,"lon":5.381,"is_reserved":false,"is_disabled":false,"rental_uris":{"android":"levelo://app?vid=e649a1de-a839-46bb-8352-c0eda9d170a2","ios":"levelo://app?vid=e649a1de-a839-46bb-8352-c0eda9d170a2"},"vehicle_type_id":"4","last_reported":1708193300,"current_range_meters":4000,"station_id":"","pricing_plan_id":"cebpf4jnsgd1na2vs0mg"},{"bike_id":"73a4ad1e-e7fb-485a-9970-749dc85a0d60","system_id":"levelo_inurba_marseille","lat":43.298433,"lon":5.362774,"is_reserved":false,"is_disabled":false,"rental_uris":{"android":"levelo://app?vid=73a4ad1e-e7fb-485a-9970-749dc85a0d60","ios":"levelo://app?vid=73a4ad1e-e7fb-485a-9970-749dc85a0d60"},"vehicle_type_id":"4","last_reported":1708193300,"current_range_meters":6400,"station_id":"ce4bgpp2rcd13ifvqc3g","pricing_plan_id":"cebpf4jnsgd1na2vs0mg"},{"bike_id":"6b224bba-58b2-4aaf-8b3b-1d86bdbee00a","system_id":"levelo_inurba_marseille","lat":43.298433,"lon":5.362774,"is_reserved":false,"is_disabled":false,"rental_uris":{"android":"levelo://app?vid=6b224bba-58b2-4aaf-8b3b-1d86bdbee00a","ios":"levelo://app?vid=6b224bba-58b2-4aaf-8b3b-1d86bdbee00a"},"vehicle_type_id":"4","last_reported":1708193300,"current_range_meters":2000,"station_id":"ce4bgpp2rcd13ifvqc3g","pricing_plan_id":"cebpf4jnsgd1na2vs0mg"},{"bike_id":"d0df1ca4-c341-4159-aeb0-ec3ce10eb916","system_id":"levelo_inurba_marseille","lat":43.298433,"lon":5.362774,"is_reserved":false,"is_disabled":false,"rental_uris":{"android":"levelo://app?vid=d0df1ca4-c341-4159-aeb0-ec3ce10eb916","ios":"levelo://app?vid=d0df1ca4-c341-4159-aeb0-ec3ce10eb916"},"vehicle_type_id":"4","last_reported":1708193300,"current_range_meters":31200,"station_id":"ce4bgpp2rcd13ifvqc3g","pricing_plan_id":"cebpf4jnsgd1na2vs0mg"},{"bike_id":"942b2db3-64b4-4385-bfe9-ba4a02c16bce","system_id":"levelo_inurba_marseille","lat":43.298433,"lon":5.362774,"is_reserved":false,"is_disabled":false,"rental_uris":{"android":"levelo://app?vid=942b2db3-64b4-4385-bfe9-ba4a02c16bce","ios":"levelo://app?vid=942b2db3-64b4-4385-bfe9-ba4a02c16bce"},"vehicle_type_id":"4","last_reported":1708193300,"current_range_meters":23600,"station_id":"ce4bgpp2rcd13ifvqc3g","pricing_plan_id":"cebpf4jnsgd1na2vs0mg"},{"bike_id":"080a2286-1833-427d-8bd8-92d6f90509b1","system_id":"levelo_inurba_marseille","lat":43.305364,"lon":5.384119,"is_reserved":false,"is_disabled":false,"rental_uris":{"android":"levelo://app?vid=080a2286-1833-427d-8bd8-92d6f90509b1","ios":"levelo://app?vid=080a2286-1833-427d-8bd8-92d6f90509b1"},"vehicle_type_id":"4","last_reported":1708193300,"current_range_meters":11600,"station_id":"ce4bgg92rcd13ifvqb30","pricing_plan_id":"cebpf4jnsgd1na2vs0mg"},{"bike_id":"608bf93d-680f-4f32-8ff4-ae87d681cb36","system_id":"levelo_inurba_marseille","lat":43.298433,"lon":5.362774,"is_reserved":false,"is_disabled":false,"rental_uris":{"android":"levelo://app?vid=608bf93d-680f-4f32-8ff4-ae87d681cb36","ios":"levelo://app?vid=608bf93d-680f-4f32-8ff4-ae87d681cb36"},"vehicle_type_id":"4","last_reported":1708193300,"current_range_meters":24800,"station_id":"ce4bgpp2rcd13ifvqc3g","pricing_plan_id":"cebpf4jnsgd1na2vs0mg"},{"bike_id":"c1b87f36-9259-4958-b275-6d9fb03ffed4","system_id":"levelo_inurba_marseille","lat":43.299243,"lon":5.37481,"is_reserved":false,"is_disabled":false,"rental_uris":{"android":"levelo://app?vid=c1b87f36-9259-4958-b275-6d9fb03ffed4","ios":"levelo://app?vid=c1b87f36-9259-4958-b275-6d9fb03ffed4"},"vehicle_type_id":"4","last_reported":1708193300,"current_range_meters":26800,"station_id":"ce4bgjh2rcd13ifvqbg0","pricing_plan_id":"cebpf4jnsgd1na2vs0mg"},{"bike_id":"fa2cbc16-d9b1-4082-8888-42ec2d1f9787","system_id":"levelo_inurba_marseille","lat":43.311722,"lon":5.387247,"is_reserved":false,"is_disabled":false,"rental_uris":{"android":"levelo://app?vid=fa2cbc16-d9b1-4082-8888-42ec2d1f9787","ios":"levelo://app?vid=fa2cbc16-d9b1-4082-8888-42ec2d1f9787"},"vehicle_type_id":"4","last_reported":1708193300,"current_range_meters":12400,"station_id":"ce4bgv12rcd13ifvqcp0","pricing_plan_id":"cebpf4jnsgd1na2vs0mg"},{"bike_id":"c786185f-4c14-4740-ae0a-771ae0465267","system_id":"levelo_inurba_marseille","lat":43.299243,"lon":5.374807,"is_reserved":false,"is_disabled":false,"rental_uris":{"android":"levelo://app?vid=c786185f-4c14-4740-ae0a-771ae0465267","ios":"levelo://app?vid=c786185f-4c14-4740-ae0a-771ae0465267"},"vehicle_type_id":"4","last_reported":1708193300,"current_range_meters":6400,"station_id":"ce4bgjh2rcd13ifvqbg0","pricing_plan_id":"cebpf4jnsgd1na2vs0mg"},{"bike_id":"5c14f925-46da-4665-b25a-95ae104b7bda","system_id":"levelo_inurba_marseille","lat":43.29784,"lon":5.37106,"is_reserved":false,"is_disabled":false,"rental_uris":{"android":"levelo://app?vid=5c14f925-46da-4665-b25a-95ae104b7bda","ios":"levelo://app?vid=5c14f925-46da-4665-b25a-95ae104b7bda"},"vehicle_type_id":"4","last_reported":1708193300,"current_range_meters":17600,"station_id":"ce4bgop2rcd13ifvqc1g","pricing_plan_id":"cebpf4jnsgd1na2vs0mg"},{"bike_id":"af846c9c-ce50-4491-8dd6-b61157af6be7","system_id":"levelo_inurba_marseille","lat":43.297794,"lon":5.370888,"is_reserved":false,"is_disabled":false,"rental_uris":{"android":"levelo://app?vid=af846c9c-ce50-4491-8dd6-b61157af6be7","ios":"levelo://app?vid=af846c9c-ce50-4491-8dd6-b61157af6be7"},"vehicle_type_id":"4","last_reported":1708193300,"current_range_meters":2800,"station_id":"ce4bgop2rcd13ifvqc1g","pricing_plan_id":"cebpf4jnsgd1na2vs0mg"},{"bike_id":"9af28949-3abe-4ee4-a57a-c236655c3362","system_id":"levelo_inurba_marseille","lat":43.322872,"lon":5.382756,"is_reserved":false,"is_disabled":false,"rental_uris":{"android":"levelo://app?vid=9af28949-3abe-4ee4-a57a-c236655c3362","ios":"levelo://app?vid=9af28949-3abe-4ee4-a57a-c236655c3362"},"vehicle_type_id":"4","last_reported":1708193300,"current_range_meters":31600,"station_id":"ce4bhr12rcd13ifvqhqg","pricing_plan_id":"cebpf4jnsgd1na2vs0mg"},{"bike_id":"410a532b-f4d9-44b0-bece-5fd8115e2fc4","system_id":"levelo_inurba_marseille","lat":43.322872,"lon":5.382756,"is_reserved":false,"is_disabled":false,"rental_uris":{"android":"levelo://app?vid=410a532b-f4d9-44b0-bece-5fd8115e2fc4","ios":"levelo://app?vid=410a532b-f4d9-44b0-bece-5fd8115e2fc4"},"vehicle_type_id":"4","last_reported":1708193300,"current_range_meters":23600,"station_id":"ce4bhr12rcd13ifvqhqg","pricing_plan_id":"cebpf4jnsgd1na2vs0mg"},{"bike_id":"70fe7047-25f5-4921-82cd-938fed021886","system_id":"levelo_inurba_marseille","lat":43.322872,"lon":5.382756,"is_reserved":false,"is_disabled":false,"rental_uris":{"android":"levelo://app?vid=70fe7047-25f5-4921-82cd-938fed021886","ios":"levelo://app?vid=70fe7047-25f5-4921-82cd-938fed021886"},"vehicle_type_id":"4","last_reported":1708193300,"current_range_meters":20400,"station_id":"ce4bhr12rcd13ifvqhqg","pricing_plan_id":"cebpf4jnsgd1na2vs0mg"},{"bike_id":"798e1c77-cdb6-49fb-b2e4-2a646e449b0a","system_id":"levelo_inurba_marseille","lat":43.328371,"lon":5.366909,"is_reserved":false,"is_disabled":false,"rental_uris":{"android":"levelo://app?vid=798e1c77-cdb6-49fb-b2e4-2a646e449b0a","ios":"levelo://app?vid=798e1c77-cdb6-49fb-b2e4-2a646e449b0a"},"vehicle_type_id":"4","last_reported":1708193300,"current_range_meters":5600,"station_id":"ce4bhs92rcd13ifvqi0g","pricing_plan_id":"cebpf4jnsgd1na2vs0mg"},{"bike_id":"aadfba98-88f5-4230-8488-f6b7556adf88","system_id":"levelo_inurba_marseille","lat":43.32822,"lon":5.36668,"is_reserved":false,"is_disabled":false,"rental_uris":{"android":"levelo://app?vid=aadfba98-88f5-4230-8488-f6b7556adf88","ios":"levelo://app?vid=aadfba98-88f5-4230-8488-f6b7556adf88"},"vehicle_type_id":"4","last_reported":1708193300,"current_range_meters":0,"station_id":"ce4bhs92rcd13ifvqi0g","pricing_plan_id":"cebpf4jnsgd1na2vs0mg"},{"bike_id":"ec21c626-faeb-41e5-9192-4d2bef3ee4d3","system_id":"levelo_inurba_marseille","lat":43.32824,"lon":5.36673,"is_reserved":false,"is_disabled":false,"rental_uris":{"android":"levelo://app?vid=ec21c626-faeb-41e5-9192-4d2bef3ee4d3","ios":"levelo://app?vid=ec21c626-faeb-41e5-9192-4d2bef3ee4d3"},"vehicle_type_id":"4","last_reported":1708193300,"current_range_meters":0,"station_id":"ce4bhs92rcd13ifvqi0g","pricing_plan_id":"cebpf4jnsgd1na2vs0mg"},{"bike_id":"cc924a54-60e4-4421-b12c-5aa0bb659927","system_id":"levelo_inurba_marseille","lat":43.328245,"lon":5.366795,"is_reserved":false,"is_disabled":false,"rental_uris":{"android":"levelo://app?vid=cc924a54-60e4-4421-b12c-5aa0bb659927","ios":"levelo://app?vid=cc924a54-60e4-4421-b12c-5aa0bb659927"},"vehicle_type_id":"4","last_reported":1708193300,"current_range_meters":2000,"station_id":"ce4bhs92rcd13ifvqi0g","pricing_plan_id":"cebpf4jnsgd1na2vs0mg"},{"bike_id":"4858fa03-d21d-48b2-a63e-a5500b96c079","system_id":"levelo_inurba_marseille","lat":43.32825,"lon":5.36677,"is_reserved":false,"is_disabled":false,"rental_uris":{"android":"levelo://app?vid=4858fa03-d21d-48b2-a63e-a5500b96c079","ios":"levelo://app?vid=4858fa03-d21d-48b2-a63e-a5500b96c079"},"vehicle_type_id":"4","last_reported":1708193300,"current_range_meters":1600,"station_id":"ce4bhs92rcd13ifvqi0g","pricing_plan_id":"cebpf4jnsgd1na2vs0mg"},{"bike_id":"45fe6c6c-2569-4aee-9c18-3f3586004f23","system_id":"levelo_inurba_marseille","lat":43.32825,"lon":5.36677,"is_reserved":false,"is_disabled":false,"rental_uris":{"android":"levelo://app?vid=45fe6c6c-2569-4aee-9c18-3f3586004f23","ios":"levelo://app?vid=45fe6c6c-2569-4aee-9c18-3f3586004f23"},"vehicle_type_id":"4","last_reported":1708193300,"current_range_meters":22000,"station_id":"ce4bhs92rcd13ifvqi0g","pricing_plan_id":"cebpf4jnsgd1na2vs0mg"},{"bike_id":"b354d40e-f748-45df-b8a4-085ee0f39b31","system_id":"levelo_inurba_marseille","lat":43.32825,"lon":5.36674,"is_reserved":false,"is_disabled":false,"rental_uris":{"android":"levelo://app?vid=b354d40e-f748-45df-b8a4-085ee0f39b31","ios":"levelo://app?vid=b354d40e-f748-45df-b8a4-085ee0f39b31"},"vehicle_type_id":"4","last_reported":1708193300,"current_range_meters":11200,"station_id":"ce4bhs92rcd13ifvqi0g","pricing_plan_id":"cebpf4jnsgd1na2vs0mg"},{"bike_id":"d125619a-6ae6-4def-8c67-f1352fae5a27","system_id":"levelo_inurba_marseille","lat":43.328255,"lon":5.366788,"is_reserved":false,"is_disabled":false,"rental_uris":{"android":"levelo://app?vid=d125619a-6ae6-4def-8c67-f1352fae5a27","ios":"levelo://app?vid=d125619a-6ae6-4def-8c67-f1352fae5a27"},"vehicle_type_id":"4","last_reported":1708193300,"current_range_meters":18000,"station_id":"ce4bhs92rcd13ifvqi0g","pricing_plan_id":"cebpf4jnsgd1na2vs0mg"},{"bike_id":"5195dc94-0b55-41c8-9198-580992dd67c5","system_id":"levelo_inurba_marseille","lat":43.32827,"lon":5.36678,"is_reserved":false,"is_disabled":false,"rental_uris":{"android":"levelo://app?vid=5195dc94-0b55-41c8-9198-580992dd67c5","ios":"levelo://app?vid=5195dc94-0b55-41c8-9198-580992dd67c5"},"vehicle_type_id":"4","last_reported":1708193300,"current_range_meters":20400,"station_id":"ce4bhs92rcd13ifvqi0g","pricing_plan_id":"cebpf4jnsgd1na2vs0mg"},{"bike_id":"2459963a-9a41-477a-9f46-310730d184fe","system_id":"levelo_inurba_marseille","lat":43.32828,"lon":5.36688,"is_reserved":false,"is_disabled":false,"rental_uris":{"android":"levelo://app?vid=2459963a-9a41-477a-9f46-310730d184fe","ios":"levelo://app?vid=2459963a-9a41-477a-9f46-310730d184fe"},"vehicle_type_id":"4","last_reported":1708193300,"current_range_meters":17600,"station_id":"ce4bhs92rcd13ifvqi0g","pricing_plan_id":"cebpf4jnsgd1na2vs0mg"},{"bike_id":"3833ec15-b081-4b20-84c5-72daf8aa7006","system_id":"levelo_inurba_marseille","lat":43.328296,"lon":5.366767,"is_reserved":false,"is_disabled":false,"rental_uris":{"android":"levelo://app?vid=3833ec15-b081-4b20-84c5-72daf8aa7006","ios":"levelo://app?vid=3833ec15-b081-4b20-84c5-72daf8aa7006"},"vehicle_type_id":"4","last_reported":1708193300,"current_range_meters":21600,"station_id":"ce4bhs92rcd13ifvqi0g","pricing_plan_id":"cebpf4jnsgd1na2vs0mg"},{"bike_id":"c9ca704a-95d9-467c-ad5a-5403d53c76ed","system_id":"levelo_inurba_marseille","lat":43.328298,"lon":5.366773,"is_reserved":false,"is_disabled":false,"rental_uris":{"android":"levelo://app?vid=c9ca704a-95d9-467c-ad5a-5403d53c76ed","ios":"levelo://app?vid=c9ca704a-95d9-467c-ad5a-5403d53c76ed"},"vehicle_type_id":"4","last_reported":1708193300,"current_range_meters":7200,"station_id":"ce4bhs92rcd13ifvqi0g","pricing_plan_id":"cebpf4jnsgd1na2vs0mg"},{"bike_id":"d059372d-713e-4306-a0dc-ef5b2b5ad059","system_id":"levelo_inurba_marseille","lat":43.3283,"lon":5.36683,"is_reserved":false,"is_disabled":false,"rental_uris":{"android":"levelo://app?vid=d059372d-713e-4306-a0dc-ef5b2b5ad059","ios":"levelo://app?vid=d059372d-713e-4306-a0dc-ef5b2b5ad059"},"vehicle_type_id":"4","last_reported":1708193300,"current_range_meters":22000,"station_id":"ce4bhs92rcd13ifvqi0g","pricing_plan_id":"cebpf4jnsgd1na2vs0mg"},{"bike_id":"3ce3bf05-0e26-4ba4-9a11-4781ff3d0eb6","system_id":"levelo_inurba_marseille","lat":43.32831,"lon":5.3668,"is_reserved":false,"is_disabled":false,"rental_uris":{"android":"levelo://app?vid=3ce3bf05-0e26-4ba4-9a11-4781ff3d0eb6","ios":"levelo://app?vid=3ce3bf05-0e26-4ba4-9a11-4781ff3d0eb6"},"vehicle_type_id":"4","last_reported":1708193300,"current_range_meters":3200,"station_id":"ce4bhs92rcd13ifvqi0g","pricing_plan_id":"cebpf4jnsgd1na2vs0mg"},{"bike_id":"45a7a14e-9b1e-4a1b-ad54-93a32f013a67","system_id":"levelo_inurba_marseille","lat":43.32831,"lon":5.36676,"is_reserved":false,"is_disabled":false,"rental_uris":{"android":"levelo://app?vid=45a7a14e-9b1e-4a1b-ad54-93a32f013a67","ios":"levelo://app?vid=45a7a14e-9b1e-4a1b-ad54-93a32f013a67"},"vehicle_type_id":"4","last_reported":1708193300,"current_range_meters":11600,"station_id":"ce4bhs92rcd13ifvqi0g","pricing_plan_id":"cebpf4jnsgd1na2vs0mg"},{"bike_id":"b1a6d03f-e2ff-45bb-b890-788276a09a82","system_id":"levelo_inurba_marseille","lat":43.328311,"lon":5.366791,"is_reserved":false,"is_disabled":false,"rental_uris":{"android":"levelo://app?vid=b1a6d03f-e2ff-45bb-b890-788276a09a82","ios":"levelo://app?vid=b1a6d03f-e2ff-45bb-b890-788276a09a82"},"vehicle_type_id":"4","last_reported":1708193300,"current_range_meters":28800,"station_id":"ce4bhs92rcd13ifvqi0g","pricing_plan_id":"cebpf4jnsgd1na2vs0mg"},{"bike_id":"fcbb72e3-aeee-4031-b1db-dc05c41736e9","system_id":"levelo_inurba_marseille","lat":43.328315,"lon":5.366875,"is_reserved":false,"is_disabled":false,"rental_uris":{"android":"levelo://app?vid=fcbb72e3-aeee-4031-b1db-dc05c41736e9","ios":"levelo://app?vid=fcbb72e3-aeee-4031-b1db-dc05c41736e9"},"vehicle_type_id":"4","last_reported":1708193300,"current_range_meters":13600,"station_id":"ce4bhs92rcd13ifvqi0g","pricing_plan_id":"cebpf4jnsgd1na2vs0mg"},{"bike_id":"9a9df145-9e54-4492-8621-de0756e6d559","system_id":"levelo_inurba_marseille","lat":43.32832,"lon":5.36682,"is_reserved":false,"is_disabled":false,"rental_uris":{"android":"levelo://app?vid=9a9df145-9e54-4492-8621-de0756e6d559","ios":"levelo://app?vid=9a9df145-9e54-4492-8621-de0756e6d559"},"vehicle_type_id":"4","last_reported":1708193300,"current_range_meters":0,"station_id":"ce4bhs92rcd13ifvqi0g","pricing_plan_id":"cebpf4jnsgd1na2vs0mg"},{"bike_id":"488089ca-f07e-4fab-bdbb-c499f8fbe3b1","system_id":"levelo_inurba_marseille","lat":43.297163,"lon":5.365866,"is_reserved":false,"is_disabled":false,"rental_uris":{"android":"levelo://app?vid=488089ca-f07e-4fab-bdbb-c499f8fbe3b1","ios":"levelo://app?vid=488089ca-f07e-4fab-bdbb-c499f8fbe3b1"},"vehicle_type_id":"4","last_reported":1708193300,"current_range_meters":8000,"station_id":"ce4bgn12rcd13ifvqbt0","pricing_plan_id":"cebpf4jnsgd1na2vs0mg"},{"bike_id":"ce6ab437-629a-4f22-947b-60672ff70fbf","system_id":"levelo_inurba_marseille","lat":43.2968,"lon":5.37291,"is_reserved":false,"is_disabled":false,"rental_uris":{"android":"levelo://app?vid=ce6ab437-629a-4f22-947b-60672ff70fbf","ios":"levelo://app?vid=ce6ab437-629a-4f22-947b-60672ff70fbf"},"vehicle_type_id":"4","last_reported":1708193300,"current_range_meters":5200,"station_id":"ce4bgk12rcd13ifvqbj0","pricing_plan_id":"cebpf4jnsgd1na2vs0mg"},{"bike_id":"de103b31-52d4-4d43-804c-598f593bf6ed","system_id":"levelo_inurba_marseille","lat":43.296935,"lon":5.376544,"is_reserved":false,"is_disabled":false,"rental_uris":{"android":"levelo://app?vid=de103b31-52d4-4d43-804c-598f593bf6ed","ios":"levelo://app?vid=de103b31-52d4-4d43-804c-598f593bf6ed"},"vehicle_type_id":"4","last_reported":1708193300,"current_range_meters":18400,"station_id":"ce4bgkh2rcd13ifvqbl0","pricing_plan_id":"cebpf4jnsgd1na2vs0mg"},{"bike_id":"4e4d685d-9e20-4a65-80ee-3532811c42d0","system_id":"levelo_inurba_marseille","lat":43.296935,"lon":5.376544,"is_reserved":false,"is_disabled":false,"rental_uris":{"android":"levelo://app?vid=4e4d685d-9e20-4a65-80ee-3532811c42d0","ios":"levelo://app?vid=4e4d685d-9e20-4a65-80ee-3532811c42d0"},"vehicle_type_id":"4","last_reported":1708193300,"current_range_meters":12000,"station_id":"ce4bgkh2rcd13ifvqbl0","pricing_plan_id":"cebpf4jnsgd1na2vs0mg"},{"bike_id":"0e34b08f-7059-467f-b683-9bd7bef6425b","system_id":"levelo_inurba_marseille","lat":43.296921,"lon":5.376579,"is_reserved":false,"is_disabled":false,"rental_uris":{"android":"levelo://app?vid=0e34b08f-7059-467f-b683-9bd7bef6425b","ios":"levelo://app?vid=0e34b08f-7059-467f-b683-9bd7bef6425b"},"vehicle_type_id":"4","last_reported":1708193300,"current_range_meters":17200,"station_id":"ce4bgkh2rcd13ifvqbl0","pricing_plan_id":"cebpf4jnsgd1na2vs0mg"},{"bike_id":"3fa7e92a-25db-4177-8f54-bcf7d2f959b1","system_id":"levelo_inurba_marseille","lat":43.309466,"lon":5.390159,"is_reserved":false,"is_disabled":false,"rental_uris":{"android":"levelo://app?vid=3fa7e92a-25db-4177-8f54-bcf7d2f959b1","ios":"levelo://app?vid=3fa7e92a-25db-4177-8f54-bcf7d2f959b1"},"vehicle_type_id":"4","last_reported":1708193300,"current_range_meters":0,"station_id":"ce4bgup2rcd13ifvqco0","pricing_plan_id":"cebpf4jnsgd1na2vs0mg"},{"bike_id":"b3dcb9ba-bf07-48c1-aada-2fbdb761a352","system_id":"levelo_inurba_marseille","lat":43.317557,"lon":5.390173,"is_reserved":false,"is_disabled":false,"rental_uris":{"android":"levelo://app?vid=b3dcb9ba-bf07-48c1-aada-2fbdb761a352","ios":"levelo://app?vid=b3dcb9ba-bf07-48c1-aada-2fbdb761a352"},"vehicle_type_id":"4","last_reported":1708193300,"current_range_meters":31200,"station_id":"ce4bhqp2rcd13ifvqhng","pricing_plan_id":"cebpf4jnsgd1na2vs0mg"},{"bike_id":"ed87d69f-71e3-4a80-a6a0-6a1355afd957","system_id":"levelo_inurba_marseille","lat":43.31759,"lon":5.39014,"is_reserved":false,"is_disabled":false,"rental_uris":{"android":"levelo://app?vid=ed87d69f-71e3-4a80-a6a0-6a1355afd957","ios":"levelo://app?vid=ed87d69f-71e3-4a80-a6a0-6a1355afd957"},"vehicle_type_id":"4","last_reported":1708193300,"current_range_meters":10400,"station_id":"ce4bhqp2rcd13ifvqhng","pricing_plan_id":"cebpf4jnsgd1na2vs0mg"},{"bike_id":"a203661e-355b-42f4-9955-ac4c89f27d54","system_id":"levelo_inurba_marseille","lat":43.317604,"lon":5.390145,"is_reserved":false,"is_disabled":false,"rental_uris":{"android":"levelo://app?vid=a203661e-355b-42f4-9955-ac4c89f27d54","ios":"levelo://app?vid=a203661e-355b-42f4-9955-ac4c89f27d54"},"vehicle_type_id":"4","last_reported":1708193300,"current_range_meters":31200,"station_id":"ce4bhqp2rcd13ifvqhng","pricing_plan_id":"cebpf4jnsgd1na2vs0mg"},{"bike_id":"e71aad95-e785-4fac-9d74-e2b56468f77a","system_id":"levelo_inurba_marseille","lat":43.317557,"lon":5.390173,"is_reserved":false,"is_disabled":false,"rental_uris":{"android":"levelo://app?vid=e71aad95-e785-4fac-9d74-e2b56468f77a","ios":"levelo://app?vid=e71aad95-e785-4fac-9d74-e2b56468f77a"},"vehicle_type_id":"4","last_reported":1708193300,"current_range_meters":20000,"station_id":"ce4bhqp2rcd13ifvqhng","pricing_plan_id":"cebpf4jnsgd1na2vs0mg"},{"bike_id":"d7ff2894-9c5e-41d5-878d-d5d27747d579","system_id":"levelo_inurba_marseille","lat":43.317557,"lon":5.390173,"is_reserved":false,"is_disabled":false,"rental_uris":{"android":"levelo://app?vid=d7ff2894-9c5e-41d5-878d-d5d27747d579","ios":"levelo://app?vid=d7ff2894-9c5e-41d5-878d-d5d27747d579"},"vehicle_type_id":"4","last_reported":1708193300,"current_range_meters":10800,"station_id":"ce4bhqp2rcd13ifvqhng","pricing_plan_id":"cebpf4jnsgd1na2vs0mg"},{"bike_id":"280349c5-d3b4-4d1b-8be2-d8aafb722357","system_id":"levelo_inurba_marseille","lat":43.298037,"lon":5.381066,"is_reserved":false,"is_disabled":false,"rental_uris":{"android":"levelo://app?vid=280349c5-d3b4-4d1b-8be2-d8aafb722357","ios":"levelo://app?vid=280349c5-d3b4-4d1b-8be2-d8aafb722357"},"vehicle_type_id":"4","last_reported":1708193300,"current_range_meters":7600,"station_id":"ce4bgip2rcd13ifvqbb0","pricing_plan_id":"cebpf4jnsgd1na2vs0mg"},{"bike_id":"2d51d6d2-4990-46c9-b3fe-09820a8c211c","system_id":"levelo_inurba_marseille","lat":43.298037,"lon":5.381066,"is_reserved":false,"is_disabled":false,"rental_uris":{"android":"levelo://app?vid=2d51d6d2-4990-46c9-b3fe-09820a8c211c","ios":"levelo://app?vid=2d51d6d2-4990-46c9-b3fe-09820a8c211c"},"vehicle_type_id":"4","last_reported":1708193300,"current_range_meters":28800,"station_id":"ce4bgip2rcd13ifvqbb0","pricing_plan_id":"cebpf4jnsgd1na2vs0mg"},{"bike_id":"4fb841f8-aa3e-4c34-88d1-2fd84d738c8d","system_id":"levelo_inurba_marseille","lat":43.29806,"lon":5.3809,"is_reserved":false,"is_disabled":false,"rental_uris":{"android":"levelo://app?vid=4fb841f8-aa3e-4c34-88d1-2fd84d738c8d","ios":"levelo://app?vid=4fb841f8-aa3e-4c34-88d1-2fd84d738c8d"},"vehicle_type_id":"4","last_reported":1708193300,"current_range_meters":0,"station_id":"ce4bgip2rcd13ifvqbb0","pricing_plan_id":"cebpf4jnsgd1na2vs0mg"},{"bike_id":"e04527cf-767c-4431-adcd-f57c359f1190","system_id":"levelo_inurba_marseille","lat":43.29804,"lon":5.3809,"is_reserved":false,"is_disabled":false,"rental_uris":{"android":"levelo://app?vid=e04527cf-767c-4431-adcd-f57c359f1190","ios":"levelo://app?vid=e04527cf-767c-4431-adcd-f57c359f1190"},"vehicle_type_id":"4","last_reported":1708193300,"current_range_meters":5200,"station_id":"ce4bgip2rcd13ifvqbb0","pricing_plan_id":"cebpf4jnsgd1na2vs0mg"},{"bike_id":"d2b1a75f-1699-4e1e-b245-ec5c8209dd08","system_id":"levelo_inurba_marseille","lat":43.298037,"lon":5.381066,"is_reserved":false,"is_disabled":false,"rental_uris":{"android":"levelo://app?vid=d2b1a75f-1699-4e1e-b245-ec5c8209dd08","ios":"levelo://app?vid=d2b1a75f-1699-4e1e-b245-ec5c8209dd08"},"vehicle_type_id":"4","last_reported":1708193300,"current_range_meters":0,"station_id":"ce4bgip2rcd13ifvqbb0","pricing_plan_id":"cebpf4jnsgd1na2vs0mg"},{"bike_id":"4ae6ddf8-284c-466b-a48a-64d478199889","system_id":"levelo_inurba_marseille","lat":43.298037,"lon":5.381066,"is_reserved":false,"is_disabled":false,"rental_uris":{"android":"levelo://app?vid=4ae6ddf8-284c-466b-a48a-64d478199889","ios":"levelo://app?vid=4ae6ddf8-284c-466b-a48a-64d478199889"},"vehicle_type_id":"4","last_reported":1708193300,"current_range_meters":13200,"station_id":"ce4bgip2rcd13ifvqbb0","pricing_plan_id":"cebpf4jnsgd1na2vs0mg"},{"bike_id":"5ba8b571-e42f-4855-9568-4082d3d986d3","system_id":"levelo_inurba_marseille","lat":43.29797,"lon":5.38086,"is_reserved":false,"is_disabled":false,"rental_uris":{"android":"levelo://app?vid=5ba8b571-e42f-4855-9568-4082d3d986d3","ios":"levelo://app?vid=5ba8b571-e42f-4855-9568-4082d3d986d3"},"vehicle_type_id":"4","last_reported":1708193300,"current_range_meters":0,"station_id":"ce4bgip2rcd13ifvqbb0","pricing_plan_id":"cebpf4jnsgd1na2vs0mg"},{"bike_id":"d5312a58-c9ac-4e67-a922-9d52e17c5d44","system_id":"levelo_inurba_marseille","lat":43.298037,"lon":5.381066,"is_reserved":false,"is_disabled":false,"rental_uris":{"android":"levelo://app?vid=d5312a58-c9ac-4e67-a922-9d52e17c5d44","ios":"levelo://app?vid=d5312a58-c9ac-4e67-a922-9d52e17c5d44"},"vehicle_type_id":"4","last_reported":1708193300,"current_range_meters":10800,"station_id":"ce4bgip2rcd13ifvqbb0","pricing_plan_id":"cebpf4jnsgd1na2vs0mg"},{"bike_id":"2105e6e9-872d-4150-b292-c63b5d890405","system_id":"levelo_inurba_marseille","lat":43.298037,"lon":5.381066,"is_reserved":false,"is_disabled":false,"rental_uris":{"android":"levelo://app?vid=2105e6e9-872d-4150-b292-c63b5d890405","ios":"levelo://app?vid=2105e6e9-872d-4150-b292-c63b5d890405"},"vehicle_type_id":"4","last_reported":1708193300,"current_range_meters":3600,"station_id":"ce4bgip2rcd13ifvqbb0","pricing_plan_id":"cebpf4jnsgd1na2vs0mg"},{"bike_id":"093a3083-dea2-4b2c-a617-0389913c9d22","system_id":"levelo_inurba_marseille","lat":43.29575,"lon":5.37514,"is_reserved":false,"is_disabled":false,"rental_uris":{"android":"levelo://app?vid=093a3083-dea2-4b2c-a617-0389913c9d22","ios":"levelo://app?vid=093a3083-dea2-4b2c-a617-0389913c9d22"},"vehicle_type_id":"4","last_reported":1708193300,"current_range_meters":400,"station_id":"","pricing_plan_id":"cebpf4jnsgd1na2vs0mg"},{"bike_id":"367fcad9-bdff-4370-bb88-d1f42589599a","system_id":"levelo_inurba_marseille","lat":43.295748,"lon":5.37522,"is_reserved":false,"is_disabled":false,"rental_uris":{"android":"levelo://app?vid=367fcad9-bdff-4370-bb88-d1f42589599a","ios":"levelo://app?vid=367fcad9-bdff-4370-bb88-d1f42589599a"},"vehicle_type_id":"4","last_reported":1708193300,"current_range_meters":29200,"station_id":"ce4bgh92rcd13ifvqb50","pricing_plan_id":"cebpf4jnsgd1na2vs0mg"},{"bike_id":"2e49b948-9936-4766-937a-7f2a3736a5ca","system_id":"levelo_inurba_marseille","lat":43.295748,"lon":5.37522,"is_reserved":false,"is_disabled":false,"rental_uris":{"android":"levelo://app?vid=2e49b948-9936-4766-937a-7f2a3736a5ca","ios":"levelo://app?vid=2e49b948-9936-4766-937a-7f2a3736a5ca"},"vehicle_type_id":"4","last_reported":1708193300,"current_range_meters":3200,"station_id":"ce4bgh92rcd13ifvqb50","pricing_plan_id":"cebpf4jnsgd1na2vs0mg"},{"bike_id":"b76638ca-783b-431a-9d77-5415c3cf8924","system_id":"levelo_inurba_marseille","lat":43.295748,"lon":5.37522,"is_reserved":false,"is_disabled":false,"rental_uris":{"android":"levelo://app?vid=b76638ca-783b-431a-9d77-5415c3cf8924","ios":"levelo://app?vid=b76638ca-783b-431a-9d77-5415c3cf8924"},"vehicle_type_id":"4","last_reported":1708193300,"current_range_meters":10800,"station_id":"ce4bgh92rcd13ifvqb50","pricing_plan_id":"cebpf4jnsgd1na2vs0mg"},{"bike_id":"c143ecaa-be85-4f01-8c51-2f171232dcd7","system_id":"levelo_inurba_marseille","lat":43.295748,"lon":5.37522,"is_reserved":false,"is_disabled":false,"rental_uris":{"android":"levelo://app?vid=c143ecaa-be85-4f01-8c51-2f171232dcd7","ios":"levelo://app?vid=c143ecaa-be85-4f01-8c51-2f171232dcd7"},"vehicle_type_id":"4","last_reported":1708193300,"current_range_meters":24000,"station_id":"ce4bgh92rcd13ifvqb50","pricing_plan_id":"cebpf4jnsgd1na2vs0mg"},{"bike_id":"28b8e481-b150-44c6-9d21-8a58b5997ea7","system_id":"levelo_inurba_marseille","lat":43.30431,"lon":5.3889,"is_reserved":false,"is_disabled":false,"rental_uris":{"android":"levelo://app?vid=28b8e481-b150-44c6-9d21-8a58b5997ea7","ios":"levelo://app?vid=28b8e481-b150-44c6-9d21-8a58b5997ea7"},"vehicle_type_id":"4","last_reported":1708193300,"current_range_meters":16800,"station_id":"ce4bgk12rcd13ifvqbi0","pricing_plan_id":"cebpf4jnsgd1na2vs0mg"},{"bike_id":"a7738896-ddec-491d-8072-e701901114ec","system_id":"levelo_inurba_marseille","lat":43.30427,"lon":5.38888,"is_reserved":false,"is_disabled":false,"rental_uris":{"android":"levelo://app?vid=a7738896-ddec-491d-8072-e701901114ec","ios":"levelo://app?vid=a7738896-ddec-491d-8072-e701901114ec"},"vehicle_type_id":"4","last_reported":1708193300,"current_range_meters":15200,"station_id":"","pricing_plan_id":"cebpf4jnsgd1na2vs0mg"},{"bike_id":"727629ad-95ef-4881-a6f1-3caa66f40399","system_id":"levelo_inurba_marseille","lat":43.296277,"lon":5.377108,"is_reserved":false,"is_disabled":false,"rental_uris":{"android":"levelo://app?vid=727629ad-95ef-4881-a6f1-3caa66f40399","ios":"levelo://app?vid=727629ad-95ef-4881-a6f1-3caa66f40399"},"vehicle_type_id":"4","last_reported":1708193300,"current_range_meters":3200,"station_id":"ce4bgi92rcd13ifvqb90","pricing_plan_id":"cebpf4jnsgd1na2vs0mg"},{"bike_id":"1f2ecf2c-ac5a-4469-8284-6a8307f6ca02","system_id":"levelo_inurba_marseille","lat":43.296277,"lon":5.377108,"is_reserved":false,"is_disabled":false,"rental_uris":{"android":"levelo://app?vid=1f2ecf2c-ac5a-4469-8284-6a8307f6ca02","ios":"levelo://app?vid=1f2ecf2c-ac5a-4469-8284-6a8307f6ca02"},"vehicle_type_id":"4","last_reported":1708193300,"current_range_meters":6400,"station_id":"ce4bgi92rcd13ifvqb90","pricing_plan_id":"cebpf4jnsgd1na2vs0mg"},{"bike_id":"1273e223-7df0-4fce-8c0d-423722c4a612","system_id":"levelo_inurba_marseille","lat":43.296175,"lon":5.377355,"is_reserved":false,"is_disabled":false,"rental_uris":{"android":"levelo://app?vid=1273e223-7df0-4fce-8c0d-423722c4a612","ios":"levelo://app?vid=1273e223-7df0-4fce-8c0d-423722c4a612"},"vehicle_type_id":"4","last_reported":1708193300,"current_range_meters":7200,"station_id":"ce4bgi92rcd13ifvqb90","pricing_plan_id":"cebpf4jnsgd1na2vs0mg"},{"bike_id":"f2f773ad-9750-4309-b4ea-fb8dae39ffd3","system_id":"levelo_inurba_marseille","lat":43.299707,"lon":5.384859,"is_reserved":false,"is_disabled":false,"rental_uris":{"android":"levelo://app?vid=f2f773ad-9750-4309-b4ea-fb8dae39ffd3","ios":"levelo://app?vid=f2f773ad-9750-4309-b4ea-fb8dae39ffd3"},"vehicle_type_id":"4","last_reported":1708193300,"current_range_meters":4800,"station_id":"ce4bgj92rcd13ifvqbd0","pricing_plan_id":"cebpf4jnsgd1na2vs0mg"},{"bike_id":"e65edb86-bb78-44db-ae78-e0100aaf5f7b","system_id":"levelo_inurba_marseille","lat":43.29529,"lon":5.375,"is_reserved":false,"is_disabled":false,"rental_uris":{"android":"levelo://app?vid=e65edb86-bb78-44db-ae78-e0100aaf5f7b","ios":"levelo://app?vid=e65edb86-bb78-44db-ae78-e0100aaf5f7b"},"vehicle_type_id":"4","last_reported":1708193300,"current_range_meters":27200,"station_id":"ce4bgkp2rcd13ifvqbmg","pricing_plan_id":"cebpf4jnsgd1na2vs0mg"},{"bike_id":"c952d4b9-4c29-4572-a8ff-df2c6ac2f1e8","system_id":"levelo_inurba_marseille","lat":43.299717,"lon":5.384845,"is_reserved":false,"is_disabled":false,"rental_uris":{"android":"levelo://app?vid=c952d4b9-4c29-4572-a8ff-df2c6ac2f1e8","ios":"levelo://app?vid=c952d4b9-4c29-4572-a8ff-df2c6ac2f1e8"},"vehicle_type_id":"4","last_reported":1708193300,"current_range_meters":19200,"station_id":"ce4bgj92rcd13ifvqbd0","pricing_plan_id":"cebpf4jnsgd1na2vs0mg"},{"bike_id":"3c10812e-8a8b-468f-ab34-8f19d1f5cdf2","system_id":"levelo_inurba_marseille","lat":43.29973,"lon":5.3849,"is_reserved":false,"is_disabled":false,"rental_uris":{"android":"levelo://app?vid=3c10812e-8a8b-468f-ab34-8f19d1f5cdf2","ios":"levelo://app?vid=3c10812e-8a8b-468f-ab34-8f19d1f5cdf2"},"vehicle_type_id":"4","last_reported":1708193300,"current_range_meters":10400,"station_id":"ce4bgj92rcd13ifvqbd0","pricing_plan_id":"cebpf4jnsgd1na2vs0mg"},{"bike_id":"c46d2697-082f-4565-a244-c01a162f19f5","system_id":"levelo_inurba_marseille","lat":43.29971,"lon":5.38489,"is_reserved":false,"is_disabled":false,"rental_uris":{"android":"levelo://app?vid=c46d2697-082f-4565-a244-c01a162f19f5","ios":"levelo://app?vid=c46d2697-082f-4565-a244-c01a162f19f5"},"vehicle_type_id":"4","last_reported":1708193300,"current_range_meters":12000,"station_id":"ce4bgj92rcd13ifvqbd0","pricing_plan_id":"cebpf4jnsgd1na2vs0mg"},{"bike_id":"140ce1c4-326d-438e-8e24-9ff29fef960f","system_id":"levelo_inurba_marseille","lat":43.29967,"lon":5.38485,"is_reserved":false,"is_disabled":false,"rental_uris":{"android":"levelo://app?vid=140ce1c4-326d-438e-8e24-9ff29fef960f","ios":"levelo://app?vid=140ce1c4-326d-438e-8e24-9ff29fef960f"},"vehicle_type_id":"4","last_reported":1708193300,"current_range_meters":18800,"station_id":"ce4bgj92rcd13ifvqbd0","pricing_plan_id":"cebpf4jnsgd1na2vs0mg"},{"bike_id":"cc8e2d19-ae46-479c-9de4-12e0ee00501e","system_id":"levelo_inurba_marseille","lat":43.299703,"lon":5.384944,"is_reserved":false,"is_disabled":false,"rental_uris":{"android":"levelo://app?vid=cc8e2d19-ae46-479c-9de4-12e0ee00501e","ios":"levelo://app?vid=cc8e2d19-ae46-479c-9de4-12e0ee00501e"},"vehicle_type_id":"4","last_reported":1708193300,"current_range_meters":13600,"station_id":"ce4bgj92rcd13ifvqbd0","pricing_plan_id":"cebpf4jnsgd1na2vs0mg"},{"bike_id":"e1cb646e-4865-4fb3-95a4-bb69ac2d7ebb","system_id":"levelo_inurba_marseille","lat":43.299707,"lon":5.384859,"is_reserved":false,"is_disabled":false,"rental_uris":{"android":"levelo://app?vid=e1cb646e-4865-4fb3-95a4-bb69ac2d7ebb","ios":"levelo://app?vid=e1cb646e-4865-4fb3-95a4-bb69ac2d7ebb"},"vehicle_type_id":"4","last_reported":1708193300,"current_range_meters":10000,"station_id":"ce4bgj92rcd13ifvqbd0","pricing_plan_id":"cebpf4jnsgd1na2vs0mg"},{"bike_id":"14552bae-10a0-4faf-bcd0-952303a7117d","system_id":"levelo_inurba_marseille","lat":43.299717,"lon":5.384845,"is_reserved":false,"is_disabled":false,"rental_uris":{"android":"levelo://app?vid=14552bae-10a0-4faf-bcd0-952303a7117d","ios":"levelo://app?vid=14552bae-10a0-4faf-bcd0-952303a7117d"},"vehicle_type_id":"4","last_reported":1708193300,"current_range_meters":0,"station_id":"ce4bgj92rcd13ifvqbd0","pricing_plan_id":"cebpf4jnsgd1na2vs0mg"},{"bike_id":"05394b98-fad3-400b-8d23-1ec24c1dd69e","system_id":"levelo_inurba_marseille","lat":43.29513,"lon":5.37499,"is_reserved":false,"is_disabled":false,"rental_uris":{"android":"levelo://app?vid=05394b98-fad3-400b-8d23-1ec24c1dd69e","ios":"levelo://app?vid=05394b98-fad3-400b-8d23-1ec24c1dd69e"},"vehicle_type_id":"4","last_reported":1708193300,"current_range_meters":1200,"station_id":"ce4bgkp2rcd13ifvqbmg","pricing_plan_id":"cebpf4jnsgd1na2vs0mg"},{"bike_id":"822791dd-a87e-48d9-8182-b0cf3da46db9","system_id":"levelo_inurba_marseille","lat":43.299717,"lon":5.384845,"is_reserved":false,"is_disabled":false,"rental_uris":{"android":"levelo://app?vid=822791dd-a87e-48d9-8182-b0cf3da46db9","ios":"levelo://app?vid=822791dd-a87e-48d9-8182-b0cf3da46db9"},"vehicle_type_id":"4","last_reported":1708193300,"current_range_meters":14000,"station_id":"ce4bgj92rcd13ifvqbd0","pricing_plan_id":"cebpf4jnsgd1na2vs0mg"},{"bike_id":"7c65a84e-8aee-4302-854f-34ab5ac914ee","system_id":"levelo_inurba_marseille","lat":43.299717,"lon":5.384845,"is_reserved":false,"is_disabled":false,"rental_uris":{"android":"levelo://app?vid=7c65a84e-8aee-4302-854f-34ab5ac914ee","ios":"levelo://app?vid=7c65a84e-8aee-4302-854f-34ab5ac914ee"},"vehicle_type_id":"4","last_reported":1708193300,"current_range_meters":4400,"station_id":"ce4bgj92rcd13ifvqbd0","pricing_plan_id":"cebpf4jnsgd1na2vs0mg"},{"bike_id":"1f17d839-a5d2-44b0-b279-2eacd3ef3454","system_id":"levelo_inurba_marseille","lat":43.30144,"lon":5.388325,"is_reserved":false,"is_disabled":false,"rental_uris":{"android":"levelo://app?vid=1f17d839-a5d2-44b0-b279-2eacd3ef3454","ios":"levelo://app?vid=1f17d839-a5d2-44b0-b279-2eacd3ef3454"},"vehicle_type_id":"4","last_reported":1708193300,"current_range_meters":0,"station_id":"","pricing_plan_id":"cebpf4jnsgd1na2vs0mg"},{"bike_id":"13c55455-5afd-4f59-87e0-e5bf20168153","system_id":"levelo_inurba_marseille","lat":43.32367,"lon":5.388836,"is_reserved":false,"is_disabled":false,"rental_uris":{"android":"levelo://app?vid=13c55455-5afd-4f59-87e0-e5bf20168153","ios":"levelo://app?vid=13c55455-5afd-4f59-87e0-e5bf20168153"},"vehicle_type_id":"4","last_reported":1708193300,"current_range_meters":17200,"station_id":"ce4bhqp2rcd13ifvqhog","pricing_plan_id":"cebpf4jnsgd1na2vs0mg"},{"bike_id":"552029bf-ca42-4d0d-83fb-83812017cfd4","system_id":"levelo_inurba_marseille","lat":43.32367,"lon":5.388836,"is_reserved":false,"is_disabled":false,"rental_uris":{"android":"levelo://app?vid=552029bf-ca42-4d0d-83fb-83812017cfd4","ios":"levelo://app?vid=552029bf-ca42-4d0d-83fb-83812017cfd4"},"vehicle_type_id":"4","last_reported":1708193300,"current_range_meters":21200,"station_id":"ce4bhqp2rcd13ifvqhog","pricing_plan_id":"cebpf4jnsgd1na2vs0mg"},{"bike_id":"04bef4fc-f501-41bd-9104-a149c6db62aa","system_id":"levelo_inurba_marseille","lat":43.32367,"lon":5.388836,"is_reserved":false,"is_disabled":false,"rental_uris":{"android":"levelo://app?vid=04bef4fc-f501-41bd-9104-a149c6db62aa","ios":"levelo://app?vid=04bef4fc-f501-41bd-9104-a149c6db62aa"},"vehicle_type_id":"4","last_reported":1708193300,"current_range_meters":10400,"station_id":"ce4bhqp2rcd13ifvqhog","pricing_plan_id":"cebpf4jnsgd1na2vs0mg"},{"bike_id":"e9fb838e-b288-41f7-8b95-04552e228ee4","system_id":"levelo_inurba_marseille","lat":43.32367,"lon":5.388836,"is_reserved":false,"is_disabled":false,"rental_uris":{"android":"levelo://app?vid=e9fb838e-b288-41f7-8b95-04552e228ee4","ios":"levelo://app?vid=e9fb838e-b288-41f7-8b95-04552e228ee4"},"vehicle_type_id":"4","last_reported":1708193300,"current_range_meters":1600,"station_id":"ce4bhqp2rcd13ifvqhog","pricing_plan_id":"cebpf4jnsgd1na2vs0mg"},{"bike_id":"11f16d73-52cf-4b59-8120-4e257d4d363b","system_id":"levelo_inurba_marseille","lat":43.32367,"lon":5.388836,"is_reserved":false,"is_disabled":false,"rental_uris":{"android":"levelo://app?vid=11f16d73-52cf-4b59-8120-4e257d4d363b","ios":"levelo://app?vid=11f16d73-52cf-4b59-8120-4e257d4d363b"},"vehicle_type_id":"4","last_reported":1708193300,"current_range_meters":8000,"station_id":"ce4bhqp2rcd13ifvqhog","pricing_plan_id":"cebpf4jnsgd1na2vs0mg"},{"bike_id":"85b7d3f5-0fa2-43f3-a410-8e41ce1cabfc","system_id":"levelo_inurba_marseille","lat":43.3237,"lon":5.38884,"is_reserved":false,"is_disabled":false,"rental_uris":{"android":"levelo://app?vid=85b7d3f5-0fa2-43f3-a410-8e41ce1cabfc","ios":"levelo://app?vid=85b7d3f5-0fa2-43f3-a410-8e41ce1cabfc"},"vehicle_type_id":"4","last_reported":1708193300,"current_range_meters":7200,"station_id":"ce4bhqp2rcd13ifvqhog","pricing_plan_id":"cebpf4jnsgd1na2vs0mg"},{"bike_id":"6af73b7c-3333-47f9-9c52-fb4e2c063bc2","system_id":"levelo_inurba_marseille","lat":43.32367,"lon":5.388836,"is_reserved":false,"is_disabled":false,"rental_uris":{"android":"levelo://app?vid=6af73b7c-3333-47f9-9c52-fb4e2c063bc2","ios":"levelo://app?vid=6af73b7c-3333-47f9-9c52-fb4e2c063bc2"},"vehicle_type_id":"4","last_reported":1708193300,"current_range_meters":10800,"station_id":"ce4bhqp2rcd13ifvqhog","pricing_plan_id":"cebpf4jnsgd1na2vs0mg"},{"bike_id":"097fbc68-0e12-4cda-a32c-f9f7e74ee0ed","system_id":"levelo_inurba_marseille","lat":43.3237,"lon":5.38886,"is_reserved":false,"is_disabled":false,"rental_uris":{"android":"levelo://app?vid=097fbc68-0e12-4cda-a32c-f9f7e74ee0ed","ios":"levelo://app?vid=097fbc68-0e12-4cda-a32c-f9f7e74ee0ed"},"vehicle_type_id":"4","last_reported":1708193300,"current_range_meters":6000,"station_id":"ce4bhqp2rcd13ifvqhog","pricing_plan_id":"cebpf4jnsgd1na2vs0mg"},{"bike_id":"9d871f50-0327-4348-a9da-d10b72178825","system_id":"levelo_inurba_marseille","lat":43.32369,"lon":5.3889,"is_reserved":false,"is_disabled":false,"rental_uris":{"android":"levelo://app?vid=9d871f50-0327-4348-a9da-d10b72178825","ios":"levelo://app?vid=9d871f50-0327-4348-a9da-d10b72178825"},"vehicle_type_id":"4","last_reported":1708193300,"current_range_meters":23200,"station_id":"ce4bhqp2rcd13ifvqhog","pricing_plan_id":"cebpf4jnsgd1na2vs0mg"},{"bike_id":"4ef093c4-eb50-4133-b0de-a03ac9618958","system_id":"levelo_inurba_marseille","lat":43.29602,"lon":5.381084,"is_reserved":false,"is_disabled":false,"rental_uris":{"android":"levelo://app?vid=4ef093c4-eb50-4133-b0de-a03ac9618958","ios":"levelo://app?vid=4ef093c4-eb50-4133-b0de-a03ac9618958"},"vehicle_type_id":"4","last_reported":1708193300,"current_range_meters":24400,"station_id":"ce4bgl12rcd13ifvqbo0","pricing_plan_id":"cebpf4jnsgd1na2vs0mg"},{"bike_id":"73f03607-57eb-453f-b85d-72a20a984f8c","system_id":"levelo_inurba_marseille","lat":43.29602,"lon":5.381084,"is_reserved":false,"is_disabled":false,"rental_uris":{"android":"levelo://app?vid=73f03607-57eb-453f-b85d-72a20a984f8c","ios":"levelo://app?vid=73f03607-57eb-453f-b85d-72a20a984f8c"},"vehicle_type_id":"4","last_reported":1708193300,"current_range_meters":8000,"station_id":"ce4bgl12rcd13ifvqbo0","pricing_plan_id":"cebpf4jnsgd1na2vs0mg"},{"bike_id":"c3bd6795-9f65-4068-a069-3238261fa124","system_id":"levelo_inurba_marseille","lat":43.29602,"lon":5.381084,"is_reserved":false,"is_disabled":false,"rental_uris":{"android":"levelo://app?vid=c3bd6795-9f65-4068-a069-3238261fa124","ios":"levelo://app?vid=c3bd6795-9f65-4068-a069-3238261fa124"},"vehicle_type_id":"4","last_reported":1708193300,"current_range_meters":1200,"station_id":"ce4bgl12rcd13ifvqbo0","pricing_plan_id":"cebpf4jnsgd1na2vs0mg"},{"bike_id":"dae7c9d4-6fc7-4147-956b-be12210d993a","system_id":"levelo_inurba_marseille","lat":43.29602,"lon":5.381084,"is_reserved":false,"is_disabled":false,"rental_uris":{"android":"levelo://app?vid=dae7c9d4-6fc7-4147-956b-be12210d993a","ios":"levelo://app?vid=dae7c9d4-6fc7-4147-956b-be12210d993a"},"vehicle_type_id":"4","last_reported":1708193300,"current_range_meters":0,"station_id":"ce4bgl12rcd13ifvqbo0","pricing_plan_id":"cebpf4jnsgd1na2vs0mg"},{"bike_id":"90eb848f-80a4-49fe-973f-85c174b661d5","system_id":"levelo_inurba_marseille","lat":43.29602,"lon":5.381084,"is_reserved":false,"is_disabled":false,"rental_uris":{"android":"levelo://app?vid=90eb848f-80a4-49fe-973f-85c174b661d5","ios":"levelo://app?vid=90eb848f-80a4-49fe-973f-85c174b661d5"},"vehicle_type_id":"4","last_reported":1708193300,"current_range_meters":400,"station_id":"ce4bgl12rcd13ifvqbo0","pricing_plan_id":"cebpf4jnsgd1na2vs0mg"},{"bike_id":"2fcfd86e-04b7-482c-b569-a64f6c6c5383","system_id":"levelo_inurba_marseille","lat":43.292749,"lon":5.368402,"is_reserved":false,"is_disabled":false,"rental_uris":{"android":"levelo://app?vid=2fcfd86e-04b7-482c-b569-a64f6c6c5383","ios":"levelo://app?vid=2fcfd86e-04b7-482c-b569-a64f6c6c5383"},"vehicle_type_id":"4","last_reported":1708193300,"current_range_meters":14400,"station_id":"ce4bhbp2rcd13ifvqesg","pricing_plan_id":"cebpf4jnsgd1na2vs0mg"},{"bike_id":"81e1ced9-6a8f-420b-b755-3ebc7770aea0","system_id":"levelo_inurba_marseille","lat":43.292749,"lon":5.368402,"is_reserved":false,"is_disabled":false,"rental_uris":{"android":"levelo://app?vid=81e1ced9-6a8f-420b-b755-3ebc7770aea0","ios":"levelo://app?vid=81e1ced9-6a8f-420b-b755-3ebc7770aea0"},"vehicle_type_id":"4","last_reported":1708193300,"current_range_meters":4400,"station_id":"ce4bhbp2rcd13ifvqesg","pricing_plan_id":"cebpf4jnsgd1na2vs0mg"},{"bike_id":"af01c4ef-1d52-4be5-9f0b-2182415b8e4f","system_id":"levelo_inurba_marseille","lat":43.292749,"lon":5.368402,"is_reserved":false,"is_disabled":false,"rental_uris":{"android":"levelo://app?vid=af01c4ef-1d52-4be5-9f0b-2182415b8e4f","ios":"levelo://app?vid=af01c4ef-1d52-4be5-9f0b-2182415b8e4f"},"vehicle_type_id":"4","last_reported":1708193300,"current_range_meters":0,"station_id":"ce4bhbp2rcd13ifvqesg","pricing_plan_id":"cebpf4jnsgd1na2vs0mg"},{"bike_id":"bbc8480b-12b0-4e73-9a01-7e907eccfb72","system_id":"levelo_inurba_marseille","lat":43.292769,"lon":5.368382,"is_reserved":false,"is_disabled":false,"rental_uris":{"android":"levelo://app?vid=bbc8480b-12b0-4e73-9a01-7e907eccfb72","ios":"levelo://app?vid=bbc8480b-12b0-4e73-9a01-7e907eccfb72"},"vehicle_type_id":"4","last_reported":1708193300,"current_range_meters":20800,"station_id":"","pricing_plan_id":"cebpf4jnsgd1na2vs0mg"},{"bike_id":"912259f8-650a-484a-ab19-e217306fa8b9","system_id":"levelo_inurba_marseille","lat":43.293259,"lon":5.371586,"is_reserved":false,"is_disabled":false,"rental_uris":{"android":"levelo://app?vid=912259f8-650a-484a-ab19-e217306fa8b9","ios":"levelo://app?vid=912259f8-650a-484a-ab19-e217306fa8b9"},"vehicle_type_id":"4","last_reported":1708193300,"current_range_meters":30400,"station_id":"ce4bgh92rcd13ifvqb40","pricing_plan_id":"cebpf4jnsgd1na2vs0mg"},{"bike_id":"d3c0937f-cd1d-4ec1-a61d-2dcf529d7b9d","system_id":"levelo_inurba_marseille","lat":43.293259,"lon":5.371586,"is_reserved":false,"is_disabled":false,"rental_uris":{"android":"levelo://app?vid=d3c0937f-cd1d-4ec1-a61d-2dcf529d7b9d","ios":"levelo://app?vid=d3c0937f-cd1d-4ec1-a61d-2dcf529d7b9d"},"vehicle_type_id":"4","last_reported":1708193300,"current_range_meters":0,"station_id":"ce4bgh92rcd13ifvqb40","pricing_plan_id":"cebpf4jnsgd1na2vs0mg"},{"bike_id":"782b98ae-42a4-46bd-9df2-9cdff5b4340e","system_id":"levelo_inurba_marseille","lat":43.289468,"lon":5.363719,"is_reserved":false,"is_disabled":false,"rental_uris":{"android":"levelo://app?vid=782b98ae-42a4-46bd-9df2-9cdff5b4340e","ios":"levelo://app?vid=782b98ae-42a4-46bd-9df2-9cdff5b4340e"},"vehicle_type_id":"4","last_reported":1708193300,"current_range_meters":18400,"station_id":"ce4bhc92rcd13ifvqetg","pricing_plan_id":"cebpf4jnsgd1na2vs0mg"},{"bike_id":"1d2c708f-3e9a-490e-91a0-4a7e9b6e9e9b","system_id":"levelo_inurba_marseille","lat":43.292749,"lon":5.368402,"is_reserved":false,"is_disabled":false,"rental_uris":{"android":"levelo://app?vid=1d2c708f-3e9a-490e-91a0-4a7e9b6e9e9b","ios":"levelo://app?vid=1d2c708f-3e9a-490e-91a0-4a7e9b6e9e9b"},"vehicle_type_id":"4","last_reported":1708193300,"current_range_meters":25200,"station_id":"ce4bhbp2rcd13ifvqesg","pricing_plan_id":"cebpf4jnsgd1na2vs0mg"},{"bike_id":"186831dd-69f5-4807-bcf4-18162c70f4a8","system_id":"levelo_inurba_marseille","lat":43.292668,"lon":5.368247,"is_reserved":false,"is_disabled":false,"rental_uris":{"android":"levelo://app?vid=186831dd-69f5-4807-bcf4-18162c70f4a8","ios":"levelo://app?vid=186831dd-69f5-4807-bcf4-18162c70f4a8"},"vehicle_type_id":"4","last_reported":1708193300,"current_range_meters":25200,"station_id":"ce4bhbp2rcd13ifvqesg","pricing_plan_id":"cebpf4jnsgd1na2vs0mg"},{"bike_id":"dae9a895-e1c7-42de-809e-aa7941a40398","system_id":"levelo_inurba_marseille","lat":43.29259,"lon":5.36681,"is_reserved":false,"is_disabled":false,"rental_uris":{"android":"levelo://app?vid=dae9a895-e1c7-42de-809e-aa7941a40398","ios":"levelo://app?vid=dae9a895-e1c7-42de-809e-aa7941a40398"},"vehicle_type_id":"4","last_reported":1708193300,"current_range_meters":0,"station_id":"","pricing_plan_id":"cebpf4jnsgd1na2vs0mg"},{"bike_id":"0b5a2c73-3102-4679-bb33-42a2287c0f5f","system_id":"levelo_inurba_marseille","lat":43.293009,"lon":5.374584,"is_reserved":false,"is_disabled":false,"rental_uris":{"android":"levelo://app?vid=0b5a2c73-3102-4679-bb33-42a2287c0f5f","ios":"levelo://app?vid=0b5a2c73-3102-4679-bb33-42a2287c0f5f"},"vehicle_type_id":"4","last_reported":1708193300,"current_range_meters":7600,"station_id":"ce4bgi12rcd13ifvqb70","pricing_plan_id":"cebpf4jnsgd1na2vs0mg"},{"bike_id":"4486d25d-6125-4db4-8bcb-73ab736f5ec2","system_id":"levelo_inurba_marseille","lat":43.293009,"lon":5.374584,"is_reserved":false,"is_disabled":false,"rental_uris":{"android":"levelo://app?vid=4486d25d-6125-4db4-8bcb-73ab736f5ec2","ios":"levelo://app?vid=4486d25d-6125-4db4-8bcb-73ab736f5ec2"},"vehicle_type_id":"4","last_reported":1708193300,"current_range_meters":4000,"station_id":"ce4bgi12rcd13ifvqb70","pricing_plan_id":"cebpf4jnsgd1na2vs0mg"},{"bike_id":"ae0fb0bb-2ba4-48f1-aa38-5dc8ff7e61e5","system_id":"levelo_inurba_marseille","lat":43.293009,"lon":5.374584,"is_reserved":false,"is_disabled":false,"rental_uris":{"android":"levelo://app?vid=ae0fb0bb-2ba4-48f1-aa38-5dc8ff7e61e5","ios":"levelo://app?vid=ae0fb0bb-2ba4-48f1-aa38-5dc8ff7e61e5"},"vehicle_type_id":"4","last_reported":1708193300,"current_range_meters":15200,"station_id":"ce4bgi12rcd13ifvqb70","pricing_plan_id":"cebpf4jnsgd1na2vs0mg"},{"bike_id":"b36a2670-ccf5-4f54-a956-2cfac0eff21a","system_id":"levelo_inurba_marseille","lat":43.305744,"lon":5.393456,"is_reserved":false,"is_disabled":false,"rental_uris":{"android":"levelo://app?vid=b36a2670-ccf5-4f54-a956-2cfac0eff21a","ios":"levelo://app?vid=b36a2670-ccf5-4f54-a956-2cfac0eff21a"},"vehicle_type_id":"4","last_reported":1708193300,"current_range_meters":0,"station_id":"ce4bh0p2rcd13ifvqd80","pricing_plan_id":"cebpf4jnsgd1na2vs0mg"},{"bike_id":"acf81d2a-e7c1-4ae3-9670-a73733ab2b7c","system_id":"levelo_inurba_marseille","lat":43.305994,"lon":5.393687,"is_reserved":false,"is_disabled":false,"rental_uris":{"android":"levelo://app?vid=acf81d2a-e7c1-4ae3-9670-a73733ab2b7c","ios":"levelo://app?vid=acf81d2a-e7c1-4ae3-9670-a73733ab2b7c"},"vehicle_type_id":"4","last_reported":1708193300,"current_range_meters":6400,"station_id":"ce4bh0p2rcd13ifvqd80","pricing_plan_id":"cebpf4jnsgd1na2vs0mg"},{"bike_id":"7118fc4b-0a91-4022-abf2-6d6f35f28364","system_id":"levelo_inurba_marseille","lat":43.30592,"lon":5.39358,"is_reserved":false,"is_disabled":false,"rental_uris":{"android":"levelo://app?vid=7118fc4b-0a91-4022-abf2-6d6f35f28364","ios":"levelo://app?vid=7118fc4b-0a91-4022-abf2-6d6f35f28364"},"vehicle_type_id":"4","last_reported":1708193300,"current_range_meters":1200,"station_id":"ce4bh0p2rcd13ifvqd80","pricing_plan_id":"cebpf4jnsgd1na2vs0mg"},{"bike_id":"98bd448f-e547-4d26-8f8f-e14073c3e877","system_id":"levelo_inurba_marseille","lat":43.30592,"lon":5.39361,"is_reserved":false,"is_disabled":false,"rental_uris":{"android":"levelo://app?vid=98bd448f-e547-4d26-8f8f-e14073c3e877","ios":"levelo://app?vid=98bd448f-e547-4d26-8f8f-e14073c3e877"},"vehicle_type_id":"4","last_reported":1708193300,"current_range_meters":400,"station_id":"ce4bh0p2rcd13ifvqd80","pricing_plan_id":"cebpf4jnsgd1na2vs0mg"},{"bike_id":"a25df67e-6d71-4ba0-bc9c-8cc59aff685a","system_id":"levelo_inurba_marseille","lat":43.305994,"lon":5.393687,"is_reserved":false,"is_disabled":false,"rental_uris":{"android":"levelo://app?vid=a25df67e-6d71-4ba0-bc9c-8cc59aff685a","ios":"levelo://app?vid=a25df67e-6d71-4ba0-bc9c-8cc59aff685a"},"vehicle_type_id":"4","last_reported":1708193300,"current_range_meters":14400,"station_id":"ce4bh0p2rcd13ifvqd80","pricing_plan_id":"cebpf4jnsgd1na2vs0mg"},{"bike_id":"8ae1fdb0-35bc-472d-845e-2a90f5e24809","system_id":"levelo_inurba_marseille","lat":43.302992,"lon":5.392136,"is_reserved":false,"is_disabled":false,"rental_uris":{"android":"levelo://app?vid=8ae1fdb0-35bc-472d-845e-2a90f5e24809","ios":"levelo://app?vid=8ae1fdb0-35bc-472d-845e-2a90f5e24809"},"vehicle_type_id":"4","last_reported":1708193300,"current_range_meters":22000,"station_id":"ce4bgkh2rcd13ifvqbk0","pricing_plan_id":"cebpf4jnsgd1na2vs0mg"},{"bike_id":"c372521a-b05c-47f3-bf10-787c3a41919e","system_id":"levelo_inurba_marseille","lat":43.302992,"lon":5.392136,"is_reserved":false,"is_disabled":false,"rental_uris":{"android":"levelo://app?vid=c372521a-b05c-47f3-bf10-787c3a41919e","ios":"levelo://app?vid=c372521a-b05c-47f3-bf10-787c3a41919e"},"vehicle_type_id":"4","last_reported":1708193300,"current_range_meters":3600,"station_id":"ce4bgkh2rcd13ifvqbk0","pricing_plan_id":"cebpf4jnsgd1na2vs0mg"},{"bike_id":"279b41ff-a67e-4565-963c-db4628617bc3","system_id":"levelo_inurba_marseille","lat":43.302992,"lon":5.392136,"is_reserved":false,"is_disabled":false,"rental_uris":{"android":"levelo://app?vid=279b41ff-a67e-4565-963c-db4628617bc3","ios":"levelo://app?vid=279b41ff-a67e-4565-963c-db4628617bc3"},"vehicle_type_id":"4","last_reported":1708193300,"current_range_meters":11200,"station_id":"ce4bgkh2rcd13ifvqbk0","pricing_plan_id":"cebpf4jnsgd1na2vs0mg"},{"bike_id":"cffa0bf3-78a6-4b02-8d75-b05a5cff89cc","system_id":"levelo_inurba_marseille","lat":43.303002,"lon":5.392142,"is_reserved":false,"is_disabled":false,"rental_uris":{"android":"levelo://app?vid=cffa0bf3-78a6-4b02-8d75-b05a5cff89cc","ios":"levelo://app?vid=cffa0bf3-78a6-4b02-8d75-b05a5cff89cc"},"vehicle_type_id":"4","last_reported":1708193300,"current_range_meters":6000,"station_id":"ce4bgkh2rcd13ifvqbk0","pricing_plan_id":"cebpf4jnsgd1na2vs0mg"},{"bike_id":"32df804d-91f5-4152-98d2-22eb5b969dd4","system_id":"levelo_inurba_marseille","lat":43.303002,"lon":5.392142,"is_reserved":false,"is_disabled":false,"rental_uris":{"android":"levelo://app?vid=32df804d-91f5-4152-98d2-22eb5b969dd4","ios":"levelo://app?vid=32df804d-91f5-4152-98d2-22eb5b969dd4"},"vehicle_type_id":"4","last_reported":1708193300,"current_range_meters":22400,"station_id":"ce4bgkh2rcd13ifvqbk0","pricing_plan_id":"cebpf4jnsgd1na2vs0mg"},{"bike_id":"22ca5746-ad1e-4eb6-85f3-d6a0159c32a4","system_id":"levelo_inurba_marseille","lat":43.302992,"lon":5.392136,"is_reserved":false,"is_disabled":false,"rental_uris":{"android":"levelo://app?vid=22ca5746-ad1e-4eb6-85f3-d6a0159c32a4","ios":"levelo://app?vid=22ca5746-ad1e-4eb6-85f3-d6a0159c32a4"},"vehicle_type_id":"4","last_reported":1708193300,"current_range_meters":30800,"station_id":"ce4bgkh2rcd13ifvqbk0","pricing_plan_id":"cebpf4jnsgd1na2vs0mg"},{"bike_id":"3e46678c-b1da-4a7b-b5bd-99ccb6cd7b1e","system_id":"levelo_inurba_marseille","lat":43.303002,"lon":5.392142,"is_reserved":false,"is_disabled":false,"rental_uris":{"android":"levelo://app?vid=3e46678c-b1da-4a7b-b5bd-99ccb6cd7b1e","ios":"levelo://app?vid=3e46678c-b1da-4a7b-b5bd-99ccb6cd7b1e"},"vehicle_type_id":"4","last_reported":1708193300,"current_range_meters":9600,"station_id":"ce4bgkh2rcd13ifvqbk0","pricing_plan_id":"cebpf4jnsgd1na2vs0mg"},{"bike_id":"d25d2a45-777e-4212-8cce-b9bdaf175844","system_id":"levelo_inurba_marseille","lat":43.2936,"lon":5.37835,"is_reserved":false,"is_disabled":false,"rental_uris":{"android":"levelo://app?vid=d25d2a45-777e-4212-8cce-b9bdaf175844","ios":"levelo://app?vid=d25d2a45-777e-4212-8cce-b9bdaf175844"},"vehicle_type_id":"4","last_reported":1708193300,"current_range_meters":1200,"station_id":"ce4bgjh2rcd13ifvqbf0","pricing_plan_id":"cebpf4jnsgd1na2vs0mg"},{"bike_id":"1b4802b8-f72a-45c0-9986-a81d82dcb5a0","system_id":"levelo_inurba_marseille","lat":43.2936,"lon":5.37835,"is_reserved":false,"is_disabled":false,"rental_uris":{"android":"levelo://app?vid=1b4802b8-f72a-45c0-9986-a81d82dcb5a0","ios":"levelo://app?vid=1b4802b8-f72a-45c0-9986-a81d82dcb5a0"},"vehicle_type_id":"4","last_reported":1708193300,"current_range_meters":400,"station_id":"ce4bgjh2rcd13ifvqbf0","pricing_plan_id":"cebpf4jnsgd1na2vs0mg"},{"bike_id":"cc2f24f4-15b5-4a99-a883-dac40554f31d","system_id":"levelo_inurba_marseille","lat":43.29368,"lon":5.378463,"is_reserved":false,"is_disabled":false,"rental_uris":{"android":"levelo://app?vid=cc2f24f4-15b5-4a99-a883-dac40554f31d","ios":"levelo://app?vid=cc2f24f4-15b5-4a99-a883-dac40554f31d"},"vehicle_type_id":"4","last_reported":1708193300,"current_range_meters":0,"station_id":"ce4bgjh2rcd13ifvqbf0","pricing_plan_id":"cebpf4jnsgd1na2vs0mg"},{"bike_id":"71fae5d9-6815-4cf7-8810-a253acd2bb00","system_id":"levelo_inurba_marseille","lat":43.302992,"lon":5.392136,"is_reserved":false,"is_disabled":false,"rental_uris":{"android":"levelo://app?vid=71fae5d9-6815-4cf7-8810-a253acd2bb00","ios":"levelo://app?vid=71fae5d9-6815-4cf7-8810-a253acd2bb00"},"vehicle_type_id":"4","last_reported":1708193300,"current_range_meters":21200,"station_id":"ce4bgkh2rcd13ifvqbk0","pricing_plan_id":"cebpf4jnsgd1na2vs0mg"},{"bike_id":"f743eaef-1e3a-45a1-9dd2-82be645c6bbb","system_id":"levelo_inurba_marseille","lat":43.2936,"lon":5.37835,"is_reserved":false,"is_disabled":false,"rental_uris":{"android":"levelo://app?vid=f743eaef-1e3a-45a1-9dd2-82be645c6bbb","ios":"levelo://app?vid=f743eaef-1e3a-45a1-9dd2-82be645c6bbb"},"vehicle_type_id":"4","last_reported":1708193300,"current_range_meters":1200,"station_id":"ce4bgjh2rcd13ifvqbf0","pricing_plan_id":"cebpf4jnsgd1na2vs0mg"},{"bike_id":"9810e6b4-39b5-47e6-963b-a10b725020bc","system_id":"levelo_inurba_marseille","lat":43.303002,"lon":5.392142,"is_reserved":false,"is_disabled":false,"rental_uris":{"android":"levelo://app?vid=9810e6b4-39b5-47e6-963b-a10b725020bc","ios":"levelo://app?vid=9810e6b4-39b5-47e6-963b-a10b725020bc"},"vehicle_type_id":"4","last_reported":1708193300,"current_range_meters":29600,"station_id":"ce4bgkh2rcd13ifvqbk0","pricing_plan_id":"cebpf4jnsgd1na2vs0mg"},{"bike_id":"ec5145de-036e-4bc7-a8d5-a7950421cc36","system_id":"levelo_inurba_marseille","lat":43.298764,"lon":5.388973,"is_reserved":false,"is_disabled":false,"rental_uris":{"android":"levelo://app?vid=ec5145de-036e-4bc7-a8d5-a7950421cc36","ios":"levelo://app?vid=ec5145de-036e-4bc7-a8d5-a7950421cc36"},"vehicle_type_id":"4","last_reported":1708193300,"current_range_meters":14400,"station_id":"ce4bh392rcd13ifvqdl0","pricing_plan_id":"cebpf4jnsgd1na2vs0mg"},{"bike_id":"3196dbb4-1e79-4e04-b9d5-68b80cc4989b","system_id":"levelo_inurba_marseille","lat":43.29216,"lon":5.36053,"is_reserved":false,"is_disabled":false,"rental_uris":{"android":"levelo://app?vid=3196dbb4-1e79-4e04-b9d5-68b80cc4989b","ios":"levelo://app?vid=3196dbb4-1e79-4e04-b9d5-68b80cc4989b"},"vehicle_type_id":"4","last_reported":1708193300,"current_range_meters":0,"station_id":"ce4bhbh2rcd13ifvqeqg","pricing_plan_id":"cebpf4jnsgd1na2vs0mg"},{"bike_id":"62272959-a2e3-4fe6-a94f-e791e3bd2a9d","system_id":"levelo_inurba_marseille","lat":43.293009,"lon":5.374584,"is_reserved":false,"is_disabled":false,"rental_uris":{"android":"levelo://app?vid=62272959-a2e3-4fe6-a94f-e791e3bd2a9d","ios":"levelo://app?vid=62272959-a2e3-4fe6-a94f-e791e3bd2a9d"},"vehicle_type_id":"4","last_reported":1708193300,"current_range_meters":4800,"station_id":"ce4bgi12rcd13ifvqb70","pricing_plan_id":"cebpf4jnsgd1na2vs0mg"},{"bike_id":"5891ac4e-1b61-4f05-bccb-975361ac5ee4","system_id":"levelo_inurba_marseille","lat":43.293009,"lon":5.374584,"is_reserved":false,"is_disabled":false,"rental_uris":{"android":"levelo://app?vid=5891ac4e-1b61-4f05-bccb-975361ac5ee4","ios":"levelo://app?vid=5891ac4e-1b61-4f05-bccb-975361ac5ee4"},"vehicle_type_id":"4","last_reported":1708193300,"current_range_meters":2000,"station_id":"ce4bgi12rcd13ifvqb70","pricing_plan_id":"cebpf4jnsgd1na2vs0mg"},{"bike_id":"c1f19015-e3b4-4239-a6c5-cacf7d3b24ee","system_id":"levelo_inurba_marseille","lat":43.291675,"lon":5.371583,"is_reserved":false,"is_disabled":false,"rental_uris":{"android":"levelo://app?vid=c1f19015-e3b4-4239-a6c5-cacf7d3b24ee","ios":"levelo://app?vid=c1f19015-e3b4-4239-a6c5-cacf7d3b24ee"},"vehicle_type_id":"4","last_reported":1708193300,"current_range_meters":2000,"station_id":"ce4bha92rcd13ifvqeh0","pricing_plan_id":"cebpf4jnsgd1na2vs0mg"},{"bike_id":"aadf9e66-5ad4-40c6-8764-0467ec6aedf4","system_id":"levelo_inurba_marseille","lat":43.291671,"lon":5.371575,"is_reserved":false,"is_disabled":false,"rental_uris":{"android":"levelo://app?vid=aadf9e66-5ad4-40c6-8764-0467ec6aedf4","ios":"levelo://app?vid=aadf9e66-5ad4-40c6-8764-0467ec6aedf4"},"vehicle_type_id":"4","last_reported":1708193300,"current_range_meters":16800,"station_id":"ce4bha92rcd13ifvqeh0","pricing_plan_id":"cebpf4jnsgd1na2vs0mg"},{"bike_id":"600d0150-1635-4556-806d-0085d6f1da6c","system_id":"levelo_inurba_marseille","lat":43.317557,"lon":5.390173,"is_reserved":false,"is_disabled":false,"rental_uris":{"android":"levelo://app?vid=600d0150-1635-4556-806d-0085d6f1da6c","ios":"levelo://app?vid=600d0150-1635-4556-806d-0085d6f1da6c"},"vehicle_type_id":"4","last_reported":1708193300,"current_range_meters":9600,"station_id":"ce4bhqp2rcd13ifvqhng","pricing_plan_id":"cebpf4jnsgd1na2vs0mg"},{"bike_id":"1b626dec-7a22-45e3-8d17-c07ccb853cd9","system_id":"levelo_inurba_marseille","lat":43.298764,"lon":5.388973,"is_reserved":false,"is_disabled":false,"rental_uris":{"android":"levelo://app?vid=1b626dec-7a22-45e3-8d17-c07ccb853cd9","ios":"levelo://app?vid=1b626dec-7a22-45e3-8d17-c07ccb853cd9"},"vehicle_type_id":"4","last_reported":1708193300,"current_range_meters":0,"station_id":"ce4bh392rcd13ifvqdl0","pricing_plan_id":"cebpf4jnsgd1na2vs0mg"},{"bike_id":"458b607e-417c-4354-bae4-e1a5b1e470f5","system_id":"levelo_inurba_marseille","lat":43.313291,"lon":5.396838,"is_reserved":false,"is_disabled":false,"rental_uris":{"android":"levelo://app?vid=458b607e-417c-4354-bae4-e1a5b1e470f5","ios":"levelo://app?vid=458b607e-417c-4354-bae4-e1a5b1e470f5"},"vehicle_type_id":"4","last_reported":1708193300,"current_range_meters":3200,"station_id":"ce4bgvp2rcd13ifvqcu0","pricing_plan_id":"cebpf4jnsgd1na2vs0mg"},{"bike_id":"12368a32-957f-4675-a8a1-13ffa95cf081","system_id":"levelo_inurba_marseille","lat":43.313291,"lon":5.396838,"is_reserved":false,"is_disabled":false,"rental_uris":{"android":"levelo://app?vid=12368a32-957f-4675-a8a1-13ffa95cf081","ios":"levelo://app?vid=12368a32-957f-4675-a8a1-13ffa95cf081"},"vehicle_type_id":"4","last_reported":1708193300,"current_range_meters":14000,"station_id":"ce4bgvp2rcd13ifvqcu0","pricing_plan_id":"cebpf4jnsgd1na2vs0mg"},{"bike_id":"1f29bbfa-bcb7-4bbd-8149-9ce0a81cafc7","system_id":"levelo_inurba_marseille","lat":43.291994,"lon":5.357886,"is_reserved":false,"is_disabled":false,"rental_uris":{"android":"levelo://app?vid=1f29bbfa-bcb7-4bbd-8149-9ce0a81cafc7","ios":"levelo://app?vid=1f29bbfa-bcb7-4bbd-8149-9ce0a81cafc7"},"vehicle_type_id":"4","last_reported":1708193300,"current_range_meters":0,"station_id":"ce4bhb12rcd13ifvqel0","pricing_plan_id":"cebpf4jnsgd1na2vs0mg"},{"bike_id":"76249670-e724-41c7-96b1-24dd765bb58c","system_id":"levelo_inurba_marseille","lat":43.309047,"lon":5.396551,"is_reserved":false,"is_disabled":false,"rental_uris":{"android":"levelo://app?vid=76249670-e724-41c7-96b1-24dd765bb58c","ios":"levelo://app?vid=76249670-e724-41c7-96b1-24dd765bb58c"},"vehicle_type_id":"4","last_reported":1708193300,"current_range_meters":12000,"station_id":"ce4bh012rcd13ifvqcv0","pricing_plan_id":"cebpf4jnsgd1na2vs0mg"},{"bike_id":"6cba6bd8-e258-4745-98fc-c4fe87df7583","system_id":"levelo_inurba_marseille","lat":43.309047,"lon":5.396551,"is_reserved":false,"is_disabled":false,"rental_uris":{"android":"levelo://app?vid=6cba6bd8-e258-4745-98fc-c4fe87df7583","ios":"levelo://app?vid=6cba6bd8-e258-4745-98fc-c4fe87df7583"},"vehicle_type_id":"4","last_reported":1708193300,"current_range_meters":4400,"station_id":"ce4bh012rcd13ifvqcv0","pricing_plan_id":"cebpf4jnsgd1na2vs0mg"},{"bike_id":"d9809558-0ded-4f85-8817-4d73c0f13318","system_id":"levelo_inurba_marseille","lat":43.295333,"lon":5.385265,"is_reserved":false,"is_disabled":false,"rental_uris":{"android":"levelo://app?vid=d9809558-0ded-4f85-8817-4d73c0f13318","ios":"levelo://app?vid=d9809558-0ded-4f85-8817-4d73c0f13318"},"vehicle_type_id":"4","last_reported":1708193300,"current_range_meters":20000,"station_id":"ce4bgih2rcd13ifvqba0","pricing_plan_id":"cebpf4jnsgd1na2vs0mg"},{"bike_id":"37eaf7d8-6c94-4999-8c36-0f91b4e570dc","system_id":"levelo_inurba_marseille","lat":43.309047,"lon":5.396551,"is_reserved":false,"is_disabled":false,"rental_uris":{"android":"levelo://app?vid=37eaf7d8-6c94-4999-8c36-0f91b4e570dc","ios":"levelo://app?vid=37eaf7d8-6c94-4999-8c36-0f91b4e570dc"},"vehicle_type_id":"4","last_reported":1708193300,"current_range_meters":13200,"station_id":"ce4bh012rcd13ifvqcv0","pricing_plan_id":"cebpf4jnsgd1na2vs0mg"},{"bike_id":"62980f79-1740-41b3-a811-cdfb1098d4d0","system_id":"levelo_inurba_marseille","lat":43.29529,"lon":5.385581,"is_reserved":false,"is_disabled":false,"rental_uris":{"android":"levelo://app?vid=62980f79-1740-41b3-a811-cdfb1098d4d0","ios":"levelo://app?vid=62980f79-1740-41b3-a811-cdfb1098d4d0"},"vehicle_type_id":"4","last_reported":1708193300,"current_range_meters":27600,"station_id":"ce4bgih2rcd13ifvqba0","pricing_plan_id":"cebpf4jnsgd1na2vs0mg"},{"bike_id":"ba6850ed-a21c-49b0-abe1-d28a44d75614","system_id":"levelo_inurba_marseille","lat":43.29535,"lon":5.38539,"is_reserved":false,"is_disabled":false,"rental_uris":{"android":"levelo://app?vid=ba6850ed-a21c-49b0-abe1-d28a44d75614","ios":"levelo://app?vid=ba6850ed-a21c-49b0-abe1-d28a44d75614"},"vehicle_type_id":"4","last_reported":1708193300,"current_range_meters":4800,"station_id":"ce4bgih2rcd13ifvqba0","pricing_plan_id":"cebpf4jnsgd1na2vs0mg"},{"bike_id":"4118afc0-9f78-41f0-84e3-9f7095b5fddf","system_id":"levelo_inurba_marseille","lat":43.29529,"lon":5.385581,"is_reserved":false,"is_disabled":false,"rental_uris":{"android":"levelo://app?vid=4118afc0-9f78-41f0-84e3-9f7095b5fddf","ios":"levelo://app?vid=4118afc0-9f78-41f0-84e3-9f7095b5fddf"},"vehicle_type_id":"4","last_reported":1708193300,"current_range_meters":24400,"station_id":"ce4bgih2rcd13ifvqba0","pricing_plan_id":"cebpf4jnsgd1na2vs0mg"},{"bike_id":"3fb4fbd7-8bb1-41ad-9ddc-88be852d4572","system_id":"levelo_inurba_marseille","lat":43.295407,"lon":5.385527,"is_reserved":false,"is_disabled":false,"rental_uris":{"android":"levelo://app?vid=3fb4fbd7-8bb1-41ad-9ddc-88be852d4572","ios":"levelo://app?vid=3fb4fbd7-8bb1-41ad-9ddc-88be852d4572"},"vehicle_type_id":"4","last_reported":1708193300,"current_range_meters":4800,"station_id":"ce4bgih2rcd13ifvqba0","pricing_plan_id":"cebpf4jnsgd1na2vs0mg"},{"bike_id":"fb5d4d9e-eae5-4c01-bb73-31f2711f577d","system_id":"levelo_inurba_marseille","lat":43.29529,"lon":5.385581,"is_reserved":false,"is_disabled":false,"rental_uris":{"android":"levelo://app?vid=fb5d4d9e-eae5-4c01-bb73-31f2711f577d","ios":"levelo://app?vid=fb5d4d9e-eae5-4c01-bb73-31f2711f577d"},"vehicle_type_id":"4","last_reported":1708193300,"current_range_meters":14800,"station_id":"ce4bgih2rcd13ifvqba0","pricing_plan_id":"cebpf4jnsgd1na2vs0mg"},{"bike_id":"380c774d-e303-4630-9b6d-b4138ee712b8","system_id":"levelo_inurba_marseille","lat":43.29529,"lon":5.385581,"is_reserved":false,"is_disabled":false,"rental_uris":{"android":"levelo://app?vid=380c774d-e303-4630-9b6d-b4138ee712b8","ios":"levelo://app?vid=380c774d-e303-4630-9b6d-b4138ee712b8"},"vehicle_type_id":"4","last_reported":1708193300,"current_range_meters":25600,"station_id":"ce4bgih2rcd13ifvqba0","pricing_plan_id":"cebpf4jnsgd1na2vs0mg"},{"bike_id":"2852128a-ef8a-4b31-bbb3-4206754baad2","system_id":"levelo_inurba_marseille","lat":43.29534,"lon":5.38548,"is_reserved":false,"is_disabled":false,"rental_uris":{"android":"levelo://app?vid=2852128a-ef8a-4b31-bbb3-4206754baad2","ios":"levelo://app?vid=2852128a-ef8a-4b31-bbb3-4206754baad2"},"vehicle_type_id":"4","last_reported":1708193300,"current_range_meters":8400,"station_id":"ce4bgih2rcd13ifvqba0","pricing_plan_id":"cebpf4jnsgd1na2vs0mg"},{"bike_id":"0f5b3241-2c12-4874-9c50-a7aa2f00f3c3","system_id":"levelo_inurba_marseille","lat":43.29528,"lon":5.38538,"is_reserved":false,"is_disabled":false,"rental_uris":{"android":"levelo://app?vid=0f5b3241-2c12-4874-9c50-a7aa2f00f3c3","ios":"levelo://app?vid=0f5b3241-2c12-4874-9c50-a7aa2f00f3c3"},"vehicle_type_id":"4","last_reported":1708193300,"current_range_meters":27600,"station_id":"ce4bgih2rcd13ifvqba0","pricing_plan_id":"cebpf4jnsgd1na2vs0mg"},{"bike_id":"1e5b1418-5066-4987-97d6-6ea13b0f45c6","system_id":"levelo_inurba_marseille","lat":43.2953,"lon":5.38542,"is_reserved":false,"is_disabled":false,"rental_uris":{"android":"levelo://app?vid=1e5b1418-5066-4987-97d6-6ea13b0f45c6","ios":"levelo://app?vid=1e5b1418-5066-4987-97d6-6ea13b0f45c6"},"vehicle_type_id":"4","last_reported":1708193300,"current_range_meters":13600,"station_id":"ce4bgih2rcd13ifvqba0","pricing_plan_id":"cebpf4jnsgd1na2vs0mg"},{"bike_id":"60e540b3-f1e8-48fa-a3c2-453ed121cf92","system_id":"levelo_inurba_marseille","lat":43.29532,"lon":5.3855,"is_reserved":false,"is_disabled":false,"rental_uris":{"android":"levelo://app?vid=60e540b3-f1e8-48fa-a3c2-453ed121cf92","ios":"levelo://app?vid=60e540b3-f1e8-48fa-a3c2-453ed121cf92"},"vehicle_type_id":"4","last_reported":1708193300,"current_range_meters":20400,"station_id":"ce4bgih2rcd13ifvqba0","pricing_plan_id":"cebpf4jnsgd1na2vs0mg"},{"bike_id":"37fb6991-0dba-450c-b21c-41b466adeca2","system_id":"levelo_inurba_marseille","lat":43.302253,"lon":5.394057,"is_reserved":false,"is_disabled":false,"rental_uris":{"android":"levelo://app?vid=37fb6991-0dba-450c-b21c-41b466adeca2","ios":"levelo://app?vid=37fb6991-0dba-450c-b21c-41b466adeca2"},"vehicle_type_id":"4","last_reported":1708193300,"current_range_meters":14000,"station_id":"","pricing_plan_id":"cebpf4jnsgd1na2vs0mg"},{"bike_id":"ee9a03db-d08f-4349-9692-938fabeab18e","system_id":"levelo_inurba_marseille","lat":43.290779,"lon":5.371482,"is_reserved":false,"is_disabled":false,"rental_uris":{"android":"levelo://app?vid=ee9a03db-d08f-4349-9692-938fabeab18e","ios":"levelo://app?vid=ee9a03db-d08f-4349-9692-938fabeab18e"},"vehicle_type_id":"4","last_reported":1708193300,"current_range_meters":2000,"station_id":"ce4bh5p2rcd13ifvqe4g","pricing_plan_id":"cebpf4jnsgd1na2vs0mg"},{"bike_id":"e1df52b1-0a07-44cc-8977-82624756d229","system_id":"levelo_inurba_marseille","lat":43.302008,"lon":5.394694,"is_reserved":false,"is_disabled":false,"rental_uris":{"android":"levelo://app?vid=e1df52b1-0a07-44cc-8977-82624756d229","ios":"levelo://app?vid=e1df52b1-0a07-44cc-8977-82624756d229"},"vehicle_type_id":"4","last_reported":1708193300,"current_range_meters":20800,"station_id":"ce4bh0p2rcd13ifvqd70","pricing_plan_id":"cebpf4jnsgd1na2vs0mg"},{"bike_id":"20b2e26d-326f-41fa-b126-56df5c923b6a","system_id":"levelo_inurba_marseille","lat":43.302008,"lon":5.394694,"is_reserved":false,"is_disabled":false,"rental_uris":{"android":"levelo://app?vid=20b2e26d-326f-41fa-b126-56df5c923b6a","ios":"levelo://app?vid=20b2e26d-326f-41fa-b126-56df5c923b6a"},"vehicle_type_id":"4","last_reported":1708193300,"current_range_meters":0,"station_id":"ce4bh0p2rcd13ifvqd70","pricing_plan_id":"cebpf4jnsgd1na2vs0mg"},{"bike_id":"2e6597cc-4a17-4720-ab9c-48e373a64c3e","system_id":"levelo_inurba_marseille","lat":43.302008,"lon":5.394694,"is_reserved":false,"is_disabled":false,"rental_uris":{"android":"levelo://app?vid=2e6597cc-4a17-4720-ab9c-48e373a64c3e","ios":"levelo://app?vid=2e6597cc-4a17-4720-ab9c-48e373a64c3e"},"vehicle_type_id":"4","last_reported":1708193300,"current_range_meters":11600,"station_id":"ce4bh0p2rcd13ifvqd70","pricing_plan_id":"cebpf4jnsgd1na2vs0mg"},{"bike_id":"697fe9e7-4ec7-4303-bea0-df5a4637a40c","system_id":"levelo_inurba_marseille","lat":43.290624,"lon":5.359245,"is_reserved":false,"is_disabled":false,"rental_uris":{"android":"levelo://app?vid=697fe9e7-4ec7-4303-bea0-df5a4637a40c","ios":"levelo://app?vid=697fe9e7-4ec7-4303-bea0-df5a4637a40c"},"vehicle_type_id":"4","last_reported":1708193300,"current_range_meters":0,"station_id":"ce4bha92rcd13ifvqeg0","pricing_plan_id":"cebpf4jnsgd1na2vs0mg"},{"bike_id":"d91a0710-2ee1-46ea-8443-32b3f3167dab","system_id":"levelo_inurba_marseille","lat":43.290631,"lon":5.359244,"is_reserved":false,"is_disabled":false,"rental_uris":{"android":"levelo://app?vid=d91a0710-2ee1-46ea-8443-32b3f3167dab","ios":"levelo://app?vid=d91a0710-2ee1-46ea-8443-32b3f3167dab"},"vehicle_type_id":"4","last_reported":1708193300,"current_range_meters":21200,"station_id":"ce4bha92rcd13ifvqeg0","pricing_plan_id":"cebpf4jnsgd1na2vs0mg"},{"bike_id":"cf1d0e20-f8f6-4911-a109-6652bd2f7f86","system_id":"levelo_inurba_marseille","lat":43.294153,"lon":5.386305,"is_reserved":false,"is_disabled":false,"rental_uris":{"android":"levelo://app?vid=cf1d0e20-f8f6-4911-a109-6652bd2f7f86","ios":"levelo://app?vid=cf1d0e20-f8f6-4911-a109-6652bd2f7f86"},"vehicle_type_id":"4","last_reported":1708193300,"current_range_meters":24000,"station_id":"ce4bh2h2rcd13ifvqdh0","pricing_plan_id":"cebpf4jnsgd1na2vs0mg"},{"bike_id":"1c8b08f0-c101-4ef4-bb83-99b90526f882","system_id":"levelo_inurba_marseille","lat":43.294153,"lon":5.386305,"is_reserved":false,"is_disabled":false,"rental_uris":{"android":"levelo://app?vid=1c8b08f0-c101-4ef4-bb83-99b90526f882","ios":"levelo://app?vid=1c8b08f0-c101-4ef4-bb83-99b90526f882"},"vehicle_type_id":"4","last_reported":1708193300,"current_range_meters":800,"station_id":"ce4bh2h2rcd13ifvqdh0","pricing_plan_id":"cebpf4jnsgd1na2vs0mg"},{"bike_id":"43989287-bde0-4761-a933-ca3aec1b2e3b","system_id":"levelo_inurba_marseille","lat":43.29417,"lon":5.38611,"is_reserved":false,"is_disabled":false,"rental_uris":{"android":"levelo://app?vid=43989287-bde0-4761-a933-ca3aec1b2e3b","ios":"levelo://app?vid=43989287-bde0-4761-a933-ca3aec1b2e3b"},"vehicle_type_id":"4","last_reported":1708193300,"current_range_meters":0,"station_id":"ce4bh2h2rcd13ifvqdh0","pricing_plan_id":"cebpf4jnsgd1na2vs0mg"},{"bike_id":"b0c5fa3d-1ff9-4b45-822a-ed7def76ba1b","system_id":"levelo_inurba_marseille","lat":43.29423,"lon":5.38622,"is_reserved":false,"is_disabled":false,"rental_uris":{"android":"levelo://app?vid=b0c5fa3d-1ff9-4b45-822a-ed7def76ba1b","ios":"levelo://app?vid=b0c5fa3d-1ff9-4b45-822a-ed7def76ba1b"},"vehicle_type_id":"4","last_reported":1708193300,"current_range_meters":14800,"station_id":"ce4bh2h2rcd13ifvqdh0","pricing_plan_id":"cebpf4jnsgd1na2vs0mg"},{"bike_id":"ee62b5fe-a0f7-48f8-9074-19508ec4a29c","system_id":"levelo_inurba_marseille","lat":43.29424,"lon":5.38632,"is_reserved":false,"is_disabled":false,"rental_uris":{"android":"levelo://app?vid=ee62b5fe-a0f7-48f8-9074-19508ec4a29c","ios":"levelo://app?vid=ee62b5fe-a0f7-48f8-9074-19508ec4a29c"},"vehicle_type_id":"4","last_reported":1708193300,"current_range_meters":6400,"station_id":"ce4bh2h2rcd13ifvqdh0","pricing_plan_id":"cebpf4jnsgd1na2vs0mg"},{"bike_id":"debe6dfe-34a5-4fbb-bf57-c10f2e71aac4","system_id":"levelo_inurba_marseille","lat":43.29421,"lon":5.38627,"is_reserved":false,"is_disabled":false,"rental_uris":{"android":"levelo://app?vid=debe6dfe-34a5-4fbb-bf57-c10f2e71aac4","ios":"levelo://app?vid=debe6dfe-34a5-4fbb-bf57-c10f2e71aac4"},"vehicle_type_id":"4","last_reported":1708193300,"current_range_meters":20400,"station_id":"ce4bh2h2rcd13ifvqdh0","pricing_plan_id":"cebpf4jnsgd1na2vs0mg"},{"bike_id":"c228b2a0-2ccc-4c53-871d-00152a7bb57f","system_id":"levelo_inurba_marseille","lat":43.29419,"lon":5.38624,"is_reserved":false,"is_disabled":false,"rental_uris":{"android":"levelo://app?vid=c228b2a0-2ccc-4c53-871d-00152a7bb57f","ios":"levelo://app?vid=c228b2a0-2ccc-4c53-871d-00152a7bb57f"},