{"last_updated":1703592755,"ttl":30,"version":"2.2","data":{"bikes":[{"bike_id":"0f979264-d9f4-4766-b4cc-091ef2114246","system_id":"levelo_inurba_marseille","lat":43.31341,"lon":5.367098,"is_reserved":false,"is_disabled":false,"rental_uris":{"android":"levelo://app?vid=0f979264-d9f4-4766-b4cc-091ef2114246","ios":"levelo://app?vid=0f979264-d9f4-4766-b4cc-091ef2114246"},"vehicle_type_id":"4","last_reported":1703592755,"current_range_meters":23200,"station_id":"ce4bgr92rcd13ifvqc6g","pricing_plan_id":"free"},{"bike_id":"0e17039e-5c53-44c0-a6c9-767d501cc2b8","system_id":"levelo_inurba_marseille","lat":43.31341,"lon":5.367098,"is_reserved":false,"is_disabled":false,"rental_uris":{"android":"levelo://app?vid=0e17039e-5c53-44c0-a6c9-767d501cc2b8","ios":"levelo://app?vid=0e17039e-5c53-44c0-a6c9-767d501cc2b8"},"vehicle_type_id":"4","last_reported":1703592755,"current_range_meters":31200,"station_id":"ce4bgr92rcd13ifvqc6g","pricing_plan_id":"free"},{"bike_id":"a5d1be60-fee2-43ad-8a89-98a0c9ca47f3","system_id":"levelo_inurba_marseille","lat":43.31341,"lon":5.367098,"is_reserved":false,"is_disabled":false,"rental_uris":{"android":"levelo://app?vid=a5d1be60-fee2-43ad-8a89-98a0c9ca47f3","ios":"levelo://app?vid=a5d1be60-fee2-43ad-8a89-98a0c9ca47f3"},"vehicle_type_id":"4","last_reported":1703592755,"current_range_meters":30800,"station_id":"ce4bgr92rcd13ifvqc6g","pricing_plan_id":"free"},{"bike_id":"459145f2-149e-4143-9c61-d5c7c7749096","system_id":"levelo_inurba_marseille","lat":43.313391,"lon":5.36706,"is_reserved":false,"is_disabled":false,"rental_uris":{"android":"levelo://app?vid=459145f2-149e-4143-9c61-d5c7c7749096","ios":"levelo://app?vid=459145f2-149e-4143-9c61-d5c7c7749096"},"vehicle_type_id":"4","last_reported":1703592755,"current_range_meters":31200,"station_id":"ce4bgr92rcd13ifvqc6g","pricing_plan_id":"free"},{"bike_id":"ff914119-8f96-4e5f-a4e6-bb0fe2afd7f9","system_id":"levelo_inurba_marseille","lat":43.31352,"lon":5.367188,"is_reserved":false,"is_disabled":false,"rental_uris":{"android":"levelo://app?vid=ff914119-8f96-4e5f-a4e6-bb0fe2afd7f9","ios":"levelo://app?vid=ff914119-8f96-4e5f-a4e6-bb0fe2afd7f9"},"vehicle_type_id":"4","last_reported":1703592755,"current_range_meters":13600,"station_id":"ce4bgr92rcd13ifvqc6g","pricing_plan_id":"free"},{"bike_id":"0ecdb3bf-5da4-43bc-a9da-6dd95e8cecce","system_id":"levelo_inurba_marseille","lat":43.31341,"lon":5.367098,"is_reserved":false,"is_disabled":false,"rental_uris":{"android":"levelo://app?vid=0ecdb3bf-5da4-43bc-a9da-6dd95e8cecce","ios":"levelo://app?vid=0ecdb3bf-5da4-43bc-a9da-6dd95e8cecce"},"vehicle_type_id":"4","last_reported":1703592755,"current_range_meters":26000,"station_id":"ce4bgr92rcd13ifvqc6g","pricing_plan_id":"free"},{"bike_id":"1db23601-7836-405c-9f10-d64b87239e1b","system_id":"levelo_inurba_marseille","lat":43.313391,"lon":5.36706,"is_reserved":false,"is_disabled":false,"rental_uris":{"android":"levelo://app?vid=1db23601-7836-405c-9f10-d64b87239e1b","ios":"levelo://app?vid=1db23601-7836-405c-9f10-d64b87239e1b"},"vehicle_type_id":"4","last_reported":1703592755,"current_range_meters":31200,"station_id":"ce4bgr92rcd13ifvqc6g","pricing_plan_id":"free"},{"bike_id":"fa15e03f-0b04-42ff-b11d-b118fac42a28","system_id":"levelo_inurba_marseille","lat":43.31341,"lon":5.367098,"is_reserved":false,"is_disabled":false,"rental_uris":{"android":"levelo://app?vid=fa15e03f-0b04-42ff-b11d-b118fac42a28","ios":"levelo://app?vid=fa15e03f-0b04-42ff-b11d-b118fac42a28"},"vehicle_type_id":"4","last_reported":1703592755,"current_range_meters":28000,"station_id":"ce4bgr92rcd13ifvqc6g","pricing_plan_id":"free"},{"bike_id":"07cdfec6-9285-4362-b13d-a258bc53dfce","system_id":"levelo_inurba_marseille","lat":43.312239,"lon":5.368562,"is_reserved":false,"is_disabled":false,"rental_uris":{"android":"levelo://app?vid=07cdfec6-9285-4362-b13d-a258bc53dfce","ios":"levelo://app?vid=07cdfec6-9285-4362-b13d-a258bc53dfce"},"vehicle_type_id":"4","last_reported":1703592755,"current_range_meters":14000,"station_id":"ce4bgl92rcd13ifvqbq0","pricing_plan_id":"free"},{"bike_id":"9b576c51-3043-401b-862d-fc83694eaecd","system_id":"levelo_inurba_marseille","lat":43.312239,"lon":5.368562,"is_reserved":false,"is_disabled":false,"rental_uris":{"android":"levelo://app?vid=9b576c51-3043-401b-862d-fc83694eaecd","ios":"levelo://app?vid=9b576c51-3043-401b-862d-fc83694eaecd"},"vehicle_type_id":"4","last_reported":1703592755,"current_range_meters":31600,"station_id":"ce4bgl92rcd13ifvqbq0","pricing_plan_id":"free"},{"bike_id":"61a1391a-a674-4f6d-ba66-d65b48bfa817","system_id":"levelo_inurba_marseille","lat":43.312239,"lon":5.368562,"is_reserved":false,"is_disabled":false,"rental_uris":{"android":"levelo://app?vid=61a1391a-a674-4f6d-ba66-d65b48bfa817","ios":"levelo://app?vid=61a1391a-a674-4f6d-ba66-d65b48bfa817"},"vehicle_type_id":"4","last_reported":1703592755,"current_range_meters":31600,"station_id":"ce4bgl92rcd13ifvqbq0","pricing_plan_id":"free"},{"bike_id":"80829a0b-0540-4cdd-b542-9c77a086e82e","system_id":"levelo_inurba_marseille","lat":43.312239,"lon":5.368562,"is_reserved":false,"is_disabled":false,"rental_uris":{"android":"levelo://app?vid=80829a0b-0540-4cdd-b542-9c77a086e82e","ios":"levelo://app?vid=80829a0b-0540-4cdd-b542-9c77a086e82e"},"vehicle_type_id":"4","last_reported":1703592755,"current_range_meters":16000,"station_id":"ce4bgl92rcd13ifvqbq0","pricing_plan_id":"free"},{"bike_id":"6f84e5e8-e617-458c-9f5f-085134855b78","system_id":"levelo_inurba_marseille","lat":43.314811,"lon":5.373104,"is_reserved":false,"is_disabled":false,"rental_uris":{"android":"levelo://app?vid=6f84e5e8-e617-458c-9f5f-085134855b78","ios":"levelo://app?vid=6f84e5e8-e617-458c-9f5f-085134855b78"},"vehicle_type_id":"4","last_reported":1703592755,"current_range_meters":30000,"station_id":"ce4bgt12rcd13ifvqcd0","pricing_plan_id":"free"},{"bike_id":"98fc8f36-009c-49c0-bde9-eaacf0237add","system_id":"levelo_inurba_marseille","lat":43.31491,"lon":5.374,"is_reserved":false,"is_disabled":false,"rental_uris":{"android":"levelo://app?vid=98fc8f36-009c-49c0-bde9-eaacf0237add","ios":"levelo://app?vid=98fc8f36-009c-49c0-bde9-eaacf0237add"},"vehicle_type_id":"4","last_reported":1703592755,"current_range_meters":26000,"station_id":"","pricing_plan_id":"free"},{"bike_id":"28d0aea3-ba89-4a30-a189-699926df1f53","system_id":"levelo_inurba_marseille","lat":43.305368,"lon":5.367343,"is_reserved":false,"is_disabled":false,"rental_uris":{"android":"levelo://app?vid=28d0aea3-ba89-4a30-a189-699926df1f53","ios":"levelo://app?vid=28d0aea3-ba89-4a30-a189-699926df1f53"},"vehicle_type_id":"4","last_reported":1703592755,"current_range_meters":8800,"station_id":"ce4bgrp2rcd13ifvqc9g","pricing_plan_id":"free"},{"bike_id":"dcf0e77b-82ad-4694-b220-fac9175fe083","system_id":"levelo_inurba_marseille","lat":43.305368,"lon":5.367343,"is_reserved":false,"is_disabled":false,"rental_uris":{"android":"levelo://app?vid=dcf0e77b-82ad-4694-b220-fac9175fe083","ios":"levelo://app?vid=dcf0e77b-82ad-4694-b220-fac9175fe083"},"vehicle_type_id":"4","last_reported":1703592755,"current_range_meters":20000,"station_id":"ce4bgrp2rcd13ifvqc9g","pricing_plan_id":"free"},{"bike_id":"f7514a0c-6076-4682-9449-f25672bb2582","system_id":"levelo_inurba_marseille","lat":43.305368,"lon":5.367343,"is_reserved":false,"is_disabled":false,"rental_uris":{"android":"levelo://app?vid=f7514a0c-6076-4682-9449-f25672bb2582","ios":"levelo://app?vid=f7514a0c-6076-4682-9449-f25672bb2582"},"vehicle_type_id":"4","last_reported":1703592755,"current_range_meters":26400,"station_id":"ce4bgrp2rcd13ifvqc9g","pricing_plan_id":"free"},{"bike_id":"0f2a5da7-f831-4570-bb43-1dc41da9c3f8","system_id":"levelo_inurba_marseille","lat":43.30546,"lon":5.36555,"is_reserved":false,"is_disabled":false,"rental_uris":{"android":"levelo://app?vid=0f2a5da7-f831-4570-bb43-1dc41da9c3f8","ios":"levelo://app?vid=0f2a5da7-f831-4570-bb43-1dc41da9c3f8"},"vehicle_type_id":"4","last_reported":1703592755,"current_range_meters":29200,"station_id":"ce4bgs12rcd13ifvqcag","pricing_plan_id":"free"},{"bike_id":"f13aef1d-af78-4550-9a8c-aa2515b0dbaa","system_id":"levelo_inurba_marseille","lat":43.30542,"lon":5.36549,"is_reserved":false,"is_disabled":false,"rental_uris":{"android":"levelo://app?vid=f13aef1d-af78-4550-9a8c-aa2515b0dbaa","ios":"levelo://app?vid=f13aef1d-af78-4550-9a8c-aa2515b0dbaa"},"vehicle_type_id":"4","last_reported":1703592755,"current_range_meters":24800,"station_id":"ce4bgs12rcd13ifvqcag","pricing_plan_id":"free"},{"bike_id":"639cd281-238a-49d6-9908-8cf198650b20","system_id":"levelo_inurba_marseille","lat":43.30541,"lon":5.36532,"is_reserved":false,"is_disabled":false,"rental_uris":{"android":"levelo://app?vid=639cd281-238a-49d6-9908-8cf198650b20","ios":"levelo://app?vid=639cd281-238a-49d6-9908-8cf198650b20"},"vehicle_type_id":"4","last_reported":1703592755,"current_range_meters":29200,"station_id":"ce4bgs12rcd13ifvqcag","pricing_plan_id":"free"},{"bike_id":"d6de6120-bad9-4792-8893-1e7baec6a7b4","system_id":"levelo_inurba_marseille","lat":43.305404,"lon":5.365252,"is_reserved":false,"is_disabled":false,"rental_uris":{"android":"levelo://app?vid=d6de6120-bad9-4792-8893-1e7baec6a7b4","ios":"levelo://app?vid=d6de6120-bad9-4792-8893-1e7baec6a7b4"},"vehicle_type_id":"4","last_reported":1703592755,"current_range_meters":31200,"station_id":"ce4bgs12rcd13ifvqcag","pricing_plan_id":"free"},{"bike_id":"ed0ee458-d167-4624-8c61-96e3c5ea9645","system_id":"levelo_inurba_marseille","lat":43.305706,"lon":5.365654,"is_reserved":false,"is_disabled":false,"rental_uris":{"android":"levelo://app?vid=ed0ee458-d167-4624-8c61-96e3c5ea9645","ios":"levelo://app?vid=ed0ee458-d167-4624-8c61-96e3c5ea9645"},"vehicle_type_id":"4","last_reported":1703592755,"current_range_meters":2000,"station_id":"ce4bgs12rcd13ifvqcag","pricing_plan_id":"free"},{"bike_id":"ad92a783-8216-4561-8d7f-89ffa9bd34d3","system_id":"levelo_inurba_marseille","lat":43.305706,"lon":5.365654,"is_reserved":false,"is_disabled":false,"rental_uris":{"android":"levelo://app?vid=ad92a783-8216-4561-8d7f-89ffa9bd34d3","ios":"levelo://app?vid=ad92a783-8216-4561-8d7f-89ffa9bd34d3"},"vehicle_type_id":"4","last_reported":1703592755,"current_range_meters":19200,"station_id":"ce4bgs12rcd13ifvqcag","pricing_plan_id":"free"},{"bike_id":"86aa3cc2-a230-43ff-8192-c5d86bbc6da8","system_id":"levelo_inurba_marseille","lat":43.305706,"lon":5.365654,"is_reserved":false,"is_disabled":false,"rental_uris":{"android":"levelo://app?vid=86aa3cc2-a230-43ff-8192-c5d86bbc6da8","ios":"levelo://app?vid=86aa3cc2-a230-43ff-8192-c5d86bbc6da8"},"vehicle_type_id":"4","last_reported":1703592755,"current_range_meters":20400,"station_id":"ce4bgs12rcd13ifvqcag","pricing_plan_id":"free"},{"bike_id":"f78bd481-81ee-4e47-ba4a-37808bca09e7","system_id":"levelo_inurba_marseille","lat":43.305706,"lon":5.365654,"is_reserved":false,"is_disabled":false,"rental_uris":{"android":"levelo://app?vid=f78bd481-81ee-4e47-ba4a-37808bca09e7","ios":"levelo://app?vid=f78bd481-81ee-4e47-ba4a-37808bca09e7"},"vehicle_type_id":"4","last_reported":1703592755,"current_range_meters":27200,"station_id":"ce4bgs12rcd13ifvqcag","pricing_plan_id":"free"},{"bike_id":"7e9f55ad-ccb2-417f-8bc9-cf5770aaa445","system_id":"levelo_inurba_marseille","lat":43.305706,"lon":5.365654,"is_reserved":false,"is_disabled":false,"rental_uris":{"android":"levelo://app?vid=7e9f55ad-ccb2-417f-8bc9-cf5770aaa445","ios":"levelo://app?vid=7e9f55ad-ccb2-417f-8bc9-cf5770aaa445"},"vehicle_type_id":"4","last_reported":1703592755,"current_range_meters":31600,"station_id":"ce4bgs12rcd13ifvqcag","pricing_plan_id":"free"},{"bike_id":"2794fa06-a287-4132-b978-ba3bdb8bb5a5","system_id":"levelo_inurba_marseille","lat":43.305706,"lon":5.365654,"is_reserved":false,"is_disabled":false,"rental_uris":{"android":"levelo://app?vid=2794fa06-a287-4132-b978-ba3bdb8bb5a5","ios":"levelo://app?vid=2794fa06-a287-4132-b978-ba3bdb8bb5a5"},"vehicle_type_id":"4","last_reported":1703592755,"current_range_meters":31200,"station_id":"ce4bgs12rcd13ifvqcag","pricing_plan_id":"free"},{"bike_id":"295776c7-9cc2-4d02-9bf7-2d922acc6ead","system_id":"levelo_inurba_marseille","lat":43.305368,"lon":5.367343,"is_reserved":false,"is_disabled":false,"rental_uris":{"android":"levelo://app?vid=295776c7-9cc2-4d02-9bf7-2d922acc6ead","ios":"levelo://app?vid=295776c7-9cc2-4d02-9bf7-2d922acc6ead"},"vehicle_type_id":"4","last_reported":1703592755,"current_range_meters":23200,"station_id":"ce4bgrp2rcd13ifvqc9g","pricing_plan_id":"free"},{"bike_id":"1e54f021-063b-4c86-a73d-ef50e0f7ef2d","system_id":"levelo_inurba_marseille","lat":43.305706,"lon":5.365654,"is_reserved":false,"is_disabled":false,"rental_uris":{"android":"levelo://app?vid=1e54f021-063b-4c86-a73d-ef50e0f7ef2d","ios":"levelo://app?vid=1e54f021-063b-4c86-a73d-ef50e0f7ef2d"},"vehicle_type_id":"4","last_reported":1703592755,"current_range_meters":30800,"station_id":"ce4bgs12rcd13ifvqcag","pricing_plan_id":"free"},{"bike_id":"8a5a65b7-888e-4cfd-9956-5762ca0fdc86","system_id":"levelo_inurba_marseille","lat":43.305706,"lon":5.365654,"is_reserved":false,"is_disabled":false,"rental_uris":{"android":"levelo://app?vid=8a5a65b7-888e-4cfd-9956-5762ca0fdc86","ios":"levelo://app?vid=8a5a65b7-888e-4cfd-9956-5762ca0fdc86"},"vehicle_type_id":"4","last_reported":1703592755,"current_range_meters":29600,"station_id":"ce4bgs12rcd13ifvqcag","pricing_plan_id":"free"},{"bike_id":"fb878298-d0ac-4871-a27d-df5a82e6836e","system_id":"levelo_inurba_marseille","lat":43.305989,"lon":5.37225,"is_reserved":false,"is_disabled":false,"rental_uris":{"android":"levelo://app?vid=fb878298-d0ac-4871-a27d-df5a82e6836e","ios":"levelo://app?vid=fb878298-d0ac-4871-a27d-df5a82e6836e"},"vehicle_type_id":"4","last_reported":1703592755,"current_range_meters":14800,"station_id":"ce4bgqh2rcd13ifvqc4g","pricing_plan_id":"free"},{"bike_id":"988c8d7f-bb79-4a6c-b63c-0e5007b7494b","system_id":"levelo_inurba_marseille","lat":43.31116,"lon":5.37765,"is_reserved":false,"is_disabled":false,"rental_uris":{"android":"levelo://app?vid=988c8d7f-bb79-4a6c-b63c-0e5007b7494b","ios":"levelo://app?vid=988c8d7f-bb79-4a6c-b63c-0e5007b7494b"},"vehicle_type_id":"4","last_reported":1703592755,"current_range_meters":9600,"station_id":"ce4bgt92rcd13ifvqcg0","pricing_plan_id":"free"},{"bike_id":"de31b41f-43a8-454b-b3e5-bb6f7d6021a4","system_id":"levelo_inurba_marseille","lat":43.31118,"lon":5.37766,"is_reserved":false,"is_disabled":false,"rental_uris":{"android":"levelo://app?vid=de31b41f-43a8-454b-b3e5-bb6f7d6021a4","ios":"levelo://app?vid=de31b41f-43a8-454b-b3e5-bb6f7d6021a4"},"vehicle_type_id":"4","last_reported":1703592755,"current_range_meters":18400,"station_id":"ce4bgt92rcd13ifvqcg0","pricing_plan_id":"free"},{"bike_id":"5a73aab7-09b4-48d6-b54c-5aaa4ec3dcc0","system_id":"levelo_inurba_marseille","lat":43.311131,"lon":5.377651,"is_reserved":false,"is_disabled":false,"rental_uris":{"android":"levelo://app?vid=5a73aab7-09b4-48d6-b54c-5aaa4ec3dcc0","ios":"levelo://app?vid=5a73aab7-09b4-48d6-b54c-5aaa4ec3dcc0"},"vehicle_type_id":"4","last_reported":1703592755,"current_range_meters":7200,"station_id":"ce4bgt92rcd13ifvqcg0","pricing_plan_id":"free"},{"bike_id":"693bab79-617b-49b0-a20f-464e84378b4a","system_id":"levelo_inurba_marseille","lat":43.311196,"lon":5.377723,"is_reserved":false,"is_disabled":false,"rental_uris":{"android":"levelo://app?vid=693bab79-617b-49b0-a20f-464e84378b4a","ios":"levelo://app?vid=693bab79-617b-49b0-a20f-464e84378b4a"},"vehicle_type_id":"4","last_reported":1703592755,"current_range_meters":7600,"station_id":"ce4bgt92rcd13ifvqcg0","pricing_plan_id":"free"},{"bike_id":"ee954a6a-a6c1-4186-a1d3-88b49413f38a","system_id":"levelo_inurba_marseille","lat":43.311125,"lon":5.377624,"is_reserved":false,"is_disabled":false,"rental_uris":{"android":"levelo://app?vid=ee954a6a-a6c1-4186-a1d3-88b49413f38a","ios":"levelo://app?vid=ee954a6a-a6c1-4186-a1d3-88b49413f38a"},"vehicle_type_id":"4","last_reported":1703592755,"current_range_meters":25600,"station_id":"ce4bgt92rcd13ifvqcg0","pricing_plan_id":"free"},{"bike_id":"36c4061c-c567-431e-87f1-6a753cd4db92","system_id":"levelo_inurba_marseille","lat":43.303046,"lon":5.368981,"is_reserved":false,"is_disabled":false,"rental_uris":{"android":"levelo://app?vid=36c4061c-c567-431e-87f1-6a753cd4db92","ios":"levelo://app?vid=36c4061c-c567-431e-87f1-6a753cd4db92"},"vehicle_type_id":"4","last_reported":1703592755,"current_range_meters":28800,"station_id":"ce4bgqh2rcd13ifvqc5g","pricing_plan_id":"free"},{"bike_id":"2c21b2f6-c661-4586-bc44-4f6e58a798da","system_id":"levelo_inurba_marseille","lat":43.30304,"lon":5.368987,"is_reserved":false,"is_disabled":false,"rental_uris":{"android":"levelo://app?vid=2c21b2f6-c661-4586-bc44-4f6e58a798da","ios":"levelo://app?vid=2c21b2f6-c661-4586-bc44-4f6e58a798da"},"vehicle_type_id":"4","last_reported":1703592755,"current_range_meters":30000,"station_id":"ce4bgqh2rcd13ifvqc5g","pricing_plan_id":"free"},{"bike_id":"0e248e90-c6e3-4fca-8b14-3fbbd568d31d","system_id":"levelo_inurba_marseille","lat":43.30304,"lon":5.368987,"is_reserved":false,"is_disabled":false,"rental_uris":{"android":"levelo://app?vid=0e248e90-c6e3-4fca-8b14-3fbbd568d31d","ios":"levelo://app?vid=0e248e90-c6e3-4fca-8b14-3fbbd568d31d"},"vehicle_type_id":"4","last_reported":1703592755,"current_range_meters":29600,"station_id":"ce4bgqh2rcd13ifvqc5g","pricing_plan_id":"free"},{"bike_id":"9bf43bc4-05b5-459f-ac48-7b3ba0f26bcd","system_id":"levelo_inurba_marseille","lat":43.308012,"lon":5.381511,"is_reserved":false,"is_disabled":false,"rental_uris":{"android":"levelo://app?vid=9bf43bc4-05b5-459f-ac48-7b3ba0f26bcd","ios":"levelo://app?vid=9bf43bc4-05b5-459f-ac48-7b3ba0f26bcd"},"vehicle_type_id":"4","last_reported":1703592755,"current_range_meters":4800,"station_id":"ce4bgt12rcd13ifvqce0","pricing_plan_id":"free"},{"bike_id":"e6019c28-bda0-401e-9ad9-c1ecabadcb27","system_id":"levelo_inurba_marseille","lat":43.308012,"lon":5.381511,"is_reserved":false,"is_disabled":false,"rental_uris":{"android":"levelo://app?vid=e6019c28-bda0-401e-9ad9-c1ecabadcb27","ios":"levelo://app?vid=e6019c28-bda0-401e-9ad9-c1ecabadcb27"},"vehicle_type_id":"4","last_reported":1703592755,"current_range_meters":25200,"station_id":"ce4bgt12rcd13ifvqce0","pricing_plan_id":"free"},{"bike_id":"0de54a4e-b82f-42c9-8772-3e9ae0a33f28","system_id":"levelo_inurba_marseille","lat":43.308012,"lon":5.381511,"is_reserved":false,"is_disabled":false,"rental_uris":{"android":"levelo://app?vid=0de54a4e-b82f-42c9-8772-3e9ae0a33f28","ios":"levelo://app?vid=0de54a4e-b82f-42c9-8772-3e9ae0a33f28"},"vehicle_type_id":"4","last_reported":1703592755,"current_range_meters":29200,"station_id":"ce4bgt12rcd13ifvqce0","pricing_plan_id":"free"},{"bike_id":"30e29ec3-df5e-47a8-965d-983d0feb73ff","system_id":"levelo_inurba_marseille","lat":43.308012,"lon":5.381511,"is_reserved":false,"is_disabled":false,"rental_uris":{"android":"levelo://app?vid=30e29ec3-df5e-47a8-965d-983d0feb73ff","ios":"levelo://app?vid=30e29ec3-df5e-47a8-965d-983d0feb73ff"},"vehicle_type_id":"4","last_reported":1703592755,"current_range_meters":22800,"station_id":"ce4bgt12rcd13ifvqce0","pricing_plan_id":"free"},{"bike_id":"a3b91050-7445-489a-b0cf-9557e4b4d2d6","system_id":"levelo_inurba_marseille","lat":43.304606,"lon":5.379026,"is_reserved":false,"is_disabled":false,"rental_uris":{"android":"levelo://app?vid=a3b91050-7445-489a-b0cf-9557e4b4d2d6","ios":"levelo://app?vid=a3b91050-7445-489a-b0cf-9557e4b4d2d6"},"vehicle_type_id":"4","last_reported":1703592755,"current_range_meters":17200,"station_id":"ce4bgup2rcd13ifvqcn0","pricing_plan_id":"free"},{"bike_id":"00f60888-b585-4812-ba81-edd97e74b09a","system_id":"levelo_inurba_marseille","lat":43.304606,"lon":5.379026,"is_reserved":false,"is_disabled":false,"rental_uris":{"android":"levelo://app?vid=00f60888-b585-4812-ba81-edd97e74b09a","ios":"levelo://app?vid=00f60888-b585-4812-ba81-edd97e74b09a"},"vehicle_type_id":"4","last_reported":1703592755,"current_range_meters":9200,"station_id":"ce4bgup2rcd13ifvqcn0","pricing_plan_id":"free"},{"bike_id":"0d3a5545-bb93-4ae7-a05b-ef201e9776e2","system_id":"levelo_inurba_marseille","lat":43.304606,"lon":5.379026,"is_reserved":false,"is_disabled":false,"rental_uris":{"android":"levelo://app?vid=0d3a5545-bb93-4ae7-a05b-ef201e9776e2","ios":"levelo://app?vid=0d3a5545-bb93-4ae7-a05b-ef201e9776e2"},"vehicle_type_id":"4","last_reported":1703592755,"current_range_meters":16800,"station_id":"ce4bgup2rcd13ifvqcn0","pricing_plan_id":"free"},{"bike_id":"600baf87-b6ba-4176-87d8-c2033b99c81d","system_id":"levelo_inurba_marseille","lat":43.304606,"lon":5.379026,"is_reserved":false,"is_disabled":false,"rental_uris":{"android":"levelo://app?vid=600baf87-b6ba-4176-87d8-c2033b99c81d","ios":"levelo://app?vid=600baf87-b6ba-4176-87d8-c2033b99c81d"},"vehicle_type_id":"4","last_reported":1703592755,"current_range_meters":22000,"station_id":"ce4bgup2rcd13ifvqcn0","pricing_plan_id":"free"},{"bike_id":"f5c0e4d6-16bd-47eb-ba92-aa201d0984ce","system_id":"levelo_inurba_marseille","lat":43.32481,"lon":5.365635,"is_reserved":false,"is_disabled":false,"rental_uris":{"android":"levelo://app?vid=f5c0e4d6-16bd-47eb-ba92-aa201d0984ce","ios":"levelo://app?vid=f5c0e4d6-16bd-47eb-ba92-aa201d0984ce"},"vehicle_type_id":"4","last_reported":1703592755,"current_range_meters":29600,"station_id":"ce4bhs12rcd13ifvqhvg","pricing_plan_id":"free"},{"bike_id":"f5d96c3b-c605-4a6d-8ef9-fcc24b70a15d","system_id":"levelo_inurba_marseille","lat":43.302784,"lon":5.377158,"is_reserved":false,"is_disabled":false,"rental_uris":{"android":"levelo://app?vid=f5d96c3b-c605-4a6d-8ef9-fcc24b70a15d","ios":"levelo://app?vid=f5d96c3b-c605-4a6d-8ef9-fcc24b70a15d"},"vehicle_type_id":"4","last_reported":1703592755,"current_range_meters":29200,"station_id":"ce4bguh2rcd13ifvqcj0","pricing_plan_id":"free"},{"bike_id":"0adc796d-5772-4240-ad80-b90682bbeb1d","system_id":"levelo_inurba_marseille","lat":43.302784,"lon":5.377158,"is_reserved":false,"is_disabled":false,"rental_uris":{"android":"levelo://app?vid=0adc796d-5772-4240-ad80-b90682bbeb1d","ios":"levelo://app?vid=0adc796d-5772-4240-ad80-b90682bbeb1d"},"vehicle_type_id":"4","last_reported":1703592755,"current_range_meters":27600,"station_id":"ce4bguh2rcd13ifvqcj0","pricing_plan_id":"free"},{"bike_id":"b9944e25-bfa8-494a-acfe-c5fbdff81ba1","system_id":"levelo_inurba_marseille","lat":43.302784,"lon":5.377158,"is_reserved":false,"is_disabled":false,"rental_uris":{"android":"levelo://app?vid=b9944e25-bfa8-494a-acfe-c5fbdff81ba1","ios":"levelo://app?vid=b9944e25-bfa8-494a-acfe-c5fbdff81ba1"},"vehicle_type_id":"4","last_reported":1703592755,"current_range_meters":29200,"station_id":"ce4bguh2rcd13ifvqcj0","pricing_plan_id":"free"},{"bike_id":"673afe24-13ca-4117-906e-0ada444292f1","system_id":"levelo_inurba_marseille","lat":43.324771,"lon":5.36557,"is_reserved":false,"is_disabled":false,"rental_uris":{"android":"levelo://app?vid=673afe24-13ca-4117-906e-0ada444292f1","ios":"levelo://app?vid=673afe24-13ca-4117-906e-0ada444292f1"},"vehicle_type_id":"4","last_reported":1703592755,"current_range_meters":22000,"station_id":"ce4bhs12rcd13ifvqhvg","pricing_plan_id":"free"},{"bike_id":"df2a46eb-ba09-4579-bda6-aae685ea12de","system_id":"levelo_inurba_marseille","lat":43.30143,"lon":5.37413,"is_reserved":false,"is_disabled":false,"rental_uris":{"android":"levelo://app?vid=df2a46eb-ba09-4579-bda6-aae685ea12de","ios":"levelo://app?vid=df2a46eb-ba09-4579-bda6-aae685ea12de"},"vehicle_type_id":"4","last_reported":1703592755,"current_range_meters":17200,"station_id":"ce4bgs92rcd13ifvqcc0","pricing_plan_id":"free"},{"bike_id":"db888e2c-229e-41f1-95db-65ee0aca4b79","system_id":"levelo_inurba_marseille","lat":43.30143,"lon":5.37413,"is_reserved":false,"is_disabled":false,"rental_uris":{"android":"levelo://app?vid=db888e2c-229e-41f1-95db-65ee0aca4b79","ios":"levelo://app?vid=db888e2c-229e-41f1-95db-65ee0aca4b79"},"vehicle_type_id":"4","last_reported":1703592755,"current_range_meters":31200,"station_id":"ce4bgs92rcd13ifvqcc0","pricing_plan_id":"free"},{"bike_id":"0f2f937d-76fd-40c6-b60d-f8845eb7f120","system_id":"levelo_inurba_marseille","lat":43.30143,"lon":5.37413,"is_reserved":false,"is_disabled":false,"rental_uris":{"android":"levelo://app?vid=0f2f937d-76fd-40c6-b60d-f8845eb7f120","ios":"levelo://app?vid=0f2f937d-76fd-40c6-b60d-f8845eb7f120"},"vehicle_type_id":"4","last_reported":1703592755,"current_range_meters":13600,"station_id":"ce4bgs92rcd13ifvqcc0","pricing_plan_id":"free"},{"bike_id":"70b0ad2a-6533-4324-9176-53aa3f1f6a7a","system_id":"levelo_inurba_marseille","lat":43.32,"lon":5.3814,"is_reserved":false,"is_disabled":false,"rental_uris":{"android":"levelo://app?vid=70b0ad2a-6533-4324-9176-53aa3f1f6a7a","ios":"levelo://app?vid=70b0ad2a-6533-4324-9176-53aa3f1f6a7a"},"vehicle_type_id":"4","last_reported":1703592755,"current_range_meters":3200,"station_id":"ce4bhr12rcd13ifvqhpg","pricing_plan_id":"free"},{"bike_id":"98d9adc7-7e96-4973-9a29-d11d19a8ad12","system_id":"levelo_inurba_marseille","lat":43.299724,"lon":5.371829,"is_reserved":false,"is_disabled":false,"rental_uris":{"android":"levelo://app?vid=98d9adc7-7e96-4973-9a29-d11d19a8ad12","ios":"levelo://app?vid=98d9adc7-7e96-4973-9a29-d11d19a8ad12"},"vehicle_type_id":"4","last_reported":1703592755,"current_range_meters":20400,"station_id":"ce4bgr92rcd13ifvqc7g","pricing_plan_id":"free"},{"bike_id":"6229263c-108d-4bd5-9b30-eff981ca1f5e","system_id":"levelo_inurba_marseille","lat":43.29935,"lon":5.36547,"is_reserved":false,"is_disabled":false,"rental_uris":{"android":"levelo://app?vid=6229263c-108d-4bd5-9b30-eff981ca1f5e","ios":"levelo://app?vid=6229263c-108d-4bd5-9b30-eff981ca1f5e"},"vehicle_type_id":"4","last_reported":1703592755,"current_range_meters":20800,"station_id":"ce4bgm92rcd13ifvqbr0","pricing_plan_id":"free"},{"bike_id":"d59c2576-2237-438c-8f18-e93650959ad7","system_id":"levelo_inurba_marseille","lat":43.299724,"lon":5.371829,"is_reserved":false,"is_disabled":false,"rental_uris":{"android":"levelo://app?vid=d59c2576-2237-438c-8f18-e93650959ad7","ios":"levelo://app?vid=d59c2576-2237-438c-8f18-e93650959ad7"},"vehicle_type_id":"4","last_reported":1703592755,"current_range_meters":30800,"station_id":"ce4bgr92rcd13ifvqc7g","pricing_plan_id":"free"},{"bike_id":"4c3ed2b4-809d-4edd-a900-686bd5a03584","system_id":"levelo_inurba_marseille","lat":43.299222,"lon":5.365554,"is_reserved":false,"is_disabled":false,"rental_uris":{"android":"levelo://app?vid=4c3ed2b4-809d-4edd-a900-686bd5a03584","ios":"levelo://app?vid=4c3ed2b4-809d-4edd-a900-686bd5a03584"},"vehicle_type_id":"4","last_reported":1703592755,"current_range_meters":10800,"station_id":"ce4bgm92rcd13ifvqbr0","pricing_plan_id":"free"},{"bike_id":"242173a6-86a9-4a69-9d62-18818bc143a1","system_id":"levelo_inurba_marseille","lat":43.299724,"lon":5.371829,"is_reserved":false,"is_disabled":false,"rental_uris":{"android":"levelo://app?vid=242173a6-86a9-4a69-9d62-18818bc143a1","ios":"levelo://app?vid=242173a6-86a9-4a69-9d62-18818bc143a1"},"vehicle_type_id":"4","last_reported":1703592755,"current_range_meters":27200,"station_id":"ce4bgr92rcd13ifvqc7g","pricing_plan_id":"free"},{"bike_id":"c4be67dc-d5a8-4d18-986c-9cbc140fea47","system_id":"levelo_inurba_marseille","lat":43.299724,"lon":5.371829,"is_reserved":false,"is_disabled":false,"rental_uris":{"android":"levelo://app?vid=c4be67dc-d5a8-4d18-986c-9cbc140fea47","ios":"levelo://app?vid=c4be67dc-d5a8-4d18-986c-9cbc140fea47"},"vehicle_type_id":"4","last_reported":1703592755,"current_range_meters":31600,"station_id":"ce4bgr92rcd13ifvqc7g","pricing_plan_id":"free"},{"bike_id":"0b027942-0182-4d86-990d-704fbc027420","system_id":"levelo_inurba_marseille","lat":43.298433,"lon":5.362774,"is_reserved":false,"is_disabled":false,"rental_uris":{"android":"levelo://app?vid=0b027942-0182-4d86-990d-704fbc027420","ios":"levelo://app?vid=0b027942-0182-4d86-990d-704fbc027420"},"vehicle_type_id":"4","last_reported":1703592755,"current_range_meters":31600,"station_id":"ce4bgpp2rcd13ifvqc3g","pricing_plan_id":"free"},{"bike_id":"4fdc7eae-3c03-40f8-8d94-810f5386fefd","system_id":"levelo_inurba_marseille","lat":43.298433,"lon":5.362774,"is_reserved":false,"is_disabled":false,"rental_uris":{"android":"levelo://app?vid=4fdc7eae-3c03-40f8-8d94-810f5386fefd","ios":"levelo://app?vid=4fdc7eae-3c03-40f8-8d94-810f5386fefd"},"vehicle_type_id":"4","last_reported":1703592755,"current_range_meters":22800,"station_id":"ce4bgpp2rcd13ifvqc3g","pricing_plan_id":"free"},{"bike_id":"7e84003f-7a56-4d49-87de-5e93a687029e","system_id":"levelo_inurba_marseille","lat":43.298433,"lon":5.362774,"is_reserved":false,"is_disabled":false,"rental_uris":{"android":"levelo://app?vid=7e84003f-7a56-4d49-87de-5e93a687029e","ios":"levelo://app?vid=7e84003f-7a56-4d49-87de-5e93a687029e"},"vehicle_type_id":"4","last_reported":1703592755,"current_range_meters":24400,"station_id":"ce4bgpp2rcd13ifvqc3g","pricing_plan_id":"free"},{"bike_id":"eb9abf2c-1715-493d-a3e0-80a1d2745767","system_id":"levelo_inurba_marseille","lat":43.305364,"lon":5.384119,"is_reserved":false,"is_disabled":false,"rental_uris":{"android":"levelo://app?vid=eb9abf2c-1715-493d-a3e0-80a1d2745767","ios":"levelo://app?vid=eb9abf2c-1715-493d-a3e0-80a1d2745767"},"vehicle_type_id":"4","last_reported":1703592755,"current_range_meters":25600,"station_id":"ce4bgg92rcd13ifvqb30","pricing_plan_id":"free"},{"bike_id":"3540d652-83ee-4e54-82bb-c4527c65e1e6","system_id":"levelo_inurba_marseille","lat":43.299243,"lon":5.374807,"is_reserved":false,"is_disabled":false,"rental_uris":{"android":"levelo://app?vid=3540d652-83ee-4e54-82bb-c4527c65e1e6","ios":"levelo://app?vid=3540d652-83ee-4e54-82bb-c4527c65e1e6"},"vehicle_type_id":"4","last_reported":1703592755,"current_range_meters":22000,"station_id":"ce4bgjh2rcd13ifvqbg0","pricing_plan_id":"free"},{"bike_id":"c4a555cb-6200-4058-801b-d5629a5ff790","system_id":"levelo_inurba_marseille","lat":43.305364,"lon":5.384119,"is_reserved":false,"is_disabled":false,"rental_uris":{"android":"levelo://app?vid=c4a555cb-6200-4058-801b-d5629a5ff790","ios":"levelo://app?vid=c4a555cb-6200-4058-801b-d5629a5ff790"},"vehicle_type_id":"4","last_reported":1703592755,"current_range_meters":28400,"station_id":"ce4bgg92rcd13ifvqb30","pricing_plan_id":"free"},{"bike_id":"ffa18e00-56e1-42d2-b5e3-5555b04a51b4","system_id":"levelo_inurba_marseille","lat":43.29843,"lon":5.36263,"is_reserved":false,"is_disabled":false,"rental_uris":{"android":"levelo://app?vid=ffa18e00-56e1-42d2-b5e3-5555b04a51b4","ios":"levelo://app?vid=ffa18e00-56e1-42d2-b5e3-5555b04a51b4"},"vehicle_type_id":"4","last_reported":1703592755,"current_range_meters":31200,"station_id":"ce4bgpp2rcd13ifvqc3g","pricing_plan_id":"free"},{"bike_id":"755e31db-0c7e-4e3e-9d1d-38bd7d5b4038","system_id":"levelo_inurba_marseille","lat":43.298433,"lon":5.362774,"is_reserved":false,"is_disabled":false,"rental_uris":{"android":"levelo://app?vid=755e31db-0c7e-4e3e-9d1d-38bd7d5b4038","ios":"levelo://app?vid=755e31db-0c7e-4e3e-9d1d-38bd7d5b4038"},"vehicle_type_id":"4","last_reported":1703592755,"current_range_meters":31600,"station_id":"ce4bgpp2rcd13ifvqc3g","pricing_plan_id":"free"},{"bike_id":"6c62ef82-e859-43d5-87dc-a88497758ab5","system_id":"levelo_inurba_marseille","lat":43.2984,"lon":5.36265,"is_reserved":false,"is_disabled":false,"rental_uris":{"android":"levelo://app?vid=6c62ef82-e859-43d5-87dc-a88497758ab5","ios":"levelo://app?vid=6c62ef82-e859-43d5-87dc-a88497758ab5"},"vehicle_type_id":"4","last_reported":1703592755,"current_range_meters":27600,"station_id":"ce4bgpp2rcd13ifvqc3g","pricing_plan_id":"free"},{"bike_id":"8b414ef6-e648-4831-9810-a223151100af","system_id":"levelo_inurba_marseille","lat":43.29836,"lon":5.36264,"is_reserved":false,"is_disabled":false,"rental_uris":{"android":"levelo://app?vid=8b414ef6-e648-4831-9810-a223151100af","ios":"levelo://app?vid=8b414ef6-e648-4831-9810-a223151100af"},"vehicle_type_id":"4","last_reported":1703592755,"current_range_meters":31200,"station_id":"ce4bgpp2rcd13ifvqc3g","pricing_plan_id":"free"},{"bike_id":"c17127a1-5834-401d-a635-16f5d0d3625b","system_id":"levelo_inurba_marseille","lat":43.298366,"lon":5.362602,"is_reserved":false,"is_disabled":false,"rental_uris":{"android":"levelo://app?vid=c17127a1-5834-401d-a635-16f5d0d3625b","ios":"levelo://app?vid=c17127a1-5834-401d-a635-16f5d0d3625b"},"vehicle_type_id":"4","last_reported":1703592755,"current_range_meters":26400,"station_id":"ce4bgpp2rcd13ifvqc3g","pricing_plan_id":"free"},{"bike_id":"6b851782-af4a-469a-90d1-befb1e03d233","system_id":"levelo_inurba_marseille","lat":43.298433,"lon":5.362774,"is_reserved":false,"is_disabled":false,"rental_uris":{"android":"levelo://app?vid=6b851782-af4a-469a-90d1-befb1e03d233","ios":"levelo://app?vid=6b851782-af4a-469a-90d1-befb1e03d233"},"vehicle_type_id":"4","last_reported":1703592755,"current_range_meters":27600,"station_id":"ce4bgpp2rcd13ifvqc3g","pricing_plan_id":"free"},{"bike_id":"702ba885-cbd7-4ae9-af14-d89902cde706","system_id":"levelo_inurba_marseille","lat":43.297774,"lon":5.370875,"is_reserved":false,"is_disabled":false,"rental_uris":{"android":"levelo://app?vid=702ba885-cbd7-4ae9-af14-d89902cde706","ios":"levelo://app?vid=702ba885-cbd7-4ae9-af14-d89902cde706"},"vehicle_type_id":"4","last_reported":1703592755,"current_range_meters":20800,"station_id":"ce4bgop2rcd13ifvqc1g","pricing_plan_id":"free"},{"bike_id":"51714c4a-3132-4951-88ec-80e85fa125e8","system_id":"levelo_inurba_marseille","lat":43.328249,"lon":5.36685,"is_reserved":false,"is_disabled":false,"rental_uris":{"android":"levelo://app?vid=51714c4a-3132-4951-88ec-80e85fa125e8","ios":"levelo://app?vid=51714c4a-3132-4951-88ec-80e85fa125e8"},"vehicle_type_id":"4","last_reported":1703592755,"current_range_meters":6000,"station_id":"ce4bhs92rcd13ifvqi0g","pricing_plan_id":"free"},{"bike_id":"5c89eee7-6e83-42b4-bd81-efdcf68f6666","system_id":"levelo_inurba_marseille","lat":43.32826,"lon":5.36684,"is_reserved":false,"is_disabled":false,"rental_uris":{"android":"levelo://app?vid=5c89eee7-6e83-42b4-bd81-efdcf68f6666","ios":"levelo://app?vid=5c89eee7-6e83-42b4-bd81-efdcf68f6666"},"vehicle_type_id":"4","last_reported":1703592755,"current_range_meters":28800,"station_id":"ce4bhs92rcd13ifvqi0g","pricing_plan_id":"free"},{"bike_id":"a448ca86-2b35-41e1-89c4-32a99bab0563","system_id":"levelo_inurba_marseille","lat":43.328371,"lon":5.366909,"is_reserved":false,"is_disabled":false,"rental_uris":{"android":"levelo://app?vid=a448ca86-2b35-41e1-89c4-32a99bab0563","ios":"levelo://app?vid=a448ca86-2b35-41e1-89c4-32a99bab0563"},"vehicle_type_id":"4","last_reported":1703592755,"current_range_meters":8000,"station_id":"ce4bhs92rcd13ifvqi0g","pricing_plan_id":"free"},{"bike_id":"904f83aa-e9ab-401d-84c1-9edfed82b884","system_id":"levelo_inurba_marseille","lat":43.328371,"lon":5.366909,"is_reserved":false,"is_disabled":false,"rental_uris":{"android":"levelo://app?vid=904f83aa-e9ab-401d-84c1-9edfed82b884","ios":"levelo://app?vid=904f83aa-e9ab-401d-84c1-9edfed82b884"},"vehicle_type_id":"4","last_reported":1703592755,"current_range_meters":19600,"station_id":"ce4bhs92rcd13ifvqi0g","pricing_plan_id":"free"},{"bike_id":"6f67326a-1664-406f-9978-902e013e2357","system_id":"levelo_inurba_marseille","lat":43.328371,"lon":5.366909,"is_reserved":false,"is_disabled":false,"rental_uris":{"android":"levelo://app?vid=6f67326a-1664-406f-9978-902e013e2357","ios":"levelo://app?vid=6f67326a-1664-406f-9978-902e013e2357"},"vehicle_type_id":"4","last_reported":1703592755,"current_range_meters":11200,"station_id":"ce4bhs92rcd13ifvqi0g","pricing_plan_id":"free"},{"bike_id":"de708f00-7118-4d7c-9021-d7dcbd798473","system_id":"levelo_inurba_marseille","lat":43.328371,"lon":5.366909,"is_reserved":false,"is_disabled":false,"rental_uris":{"android":"levelo://app?vid=de708f00-7118-4d7c-9021-d7dcbd798473","ios":"levelo://app?vid=de708f00-7118-4d7c-9021-d7dcbd798473"},"vehicle_type_id":"4","last_reported":1703592755,"current_range_meters":25200,"station_id":"ce4bhs92rcd13ifvqi0g","pricing_plan_id":"free"},{"bike_id":"6f1b7b06-1f77-4b88-bf73-5d81f3ee7e07","system_id":"levelo_inurba_marseille","lat":43.2968,"lon":5.37291,"is_reserved":false,"is_disabled":false,"rental_uris":{"android":"levelo://app?vid=6f1b7b06-1f77-4b88-bf73-5d81f3ee7e07","ios":"levelo://app?vid=6f1b7b06-1f77-4b88-bf73-5d81f3ee7e07"},"vehicle_type_id":"4","last_reported":1703592755,"current_range_meters":30000,"station_id":"ce4bgk12rcd13ifvqbj0","pricing_plan_id":"free"},{"bike_id":"921b424d-ad0d-4c7a-9d74-66e3a49bfa19","system_id":"levelo_inurba_marseille","lat":43.32934,"lon":5.36612,"is_reserved":false,"is_disabled":false,"rental_uris":{"android":"levelo://app?vid=921b424d-ad0d-4c7a-9d74-66e3a49bfa19","ios":"levelo://app?vid=921b424d-ad0d-4c7a-9d74-66e3a49bfa19"},"vehicle_type_id":"4","last_reported":1703592755,"current_range_meters":21200,"station_id":"","pricing_plan_id":"free"},{"bike_id":"2d65d3a4-2232-4603-939e-4c4b7110917b","system_id":"levelo_inurba_marseille","lat":43.296131,"lon":5.370791,"is_reserved":false,"is_disabled":false,"rental_uris":{"android":"levelo://app?vid=2d65d3a4-2232-4603-939e-4c4b7110917b","ios":"levelo://app?vid=2d65d3a4-2232-4603-939e-4c4b7110917b"},"vehicle_type_id":"4","last_reported":1703592755,"current_range_meters":800,"station_id":"ce4bgnh2rcd13ifvqc0g","pricing_plan_id":"free"},{"bike_id":"168ff66e-d3f0-4405-8a42-4e492b51d94f","system_id":"levelo_inurba_marseille","lat":43.29583,"lon":5.3676,"is_reserved":false,"is_disabled":false,"rental_uris":{"android":"levelo://app?vid=168ff66e-d3f0-4405-8a42-4e492b51d94f","ios":"levelo://app?vid=168ff66e-d3f0-4405-8a42-4e492b51d94f"},"vehicle_type_id":"4","last_reported":1703592755,"current_range_meters":9200,"station_id":"ce4bgph2rcd13ifvqc2g","pricing_plan_id":"free"},{"bike_id":"c08afaae-b21e-415d-b6a3-64d15a6e0919","system_id":"levelo_inurba_marseille","lat":43.295806,"lon":5.367391,"is_reserved":false,"is_disabled":false,"rental_uris":{"android":"levelo://app?vid=c08afaae-b21e-415d-b6a3-64d15a6e0919","ios":"levelo://app?vid=c08afaae-b21e-415d-b6a3-64d15a6e0919"},"vehicle_type_id":"4","last_reported":1703592755,"current_range_meters":23600,"station_id":"ce4bh3p2rcd13ifvqdq0","pricing_plan_id":"free"},{"bike_id":"06e957bd-df49-4d32-abc4-2e72cf631ab7","system_id":"levelo_inurba_marseille","lat":43.29573,"lon":5.367355,"is_reserved":false,"is_disabled":false,"rental_uris":{"android":"levelo://app?vid=06e957bd-df49-4d32-abc4-2e72cf631ab7","ios":"levelo://app?vid=06e957bd-df49-4d32-abc4-2e72cf631ab7"},"vehicle_type_id":"4","last_reported":1703592755,"current_range_meters":28400,"station_id":"ce4bgph2rcd13ifvqc2g","pricing_plan_id":"free"},{"bike_id":"65fc67d3-72e8-42d4-8ee1-2fd73f73254b","system_id":"levelo_inurba_marseille","lat":43.29573,"lon":5.367355,"is_reserved":false,"is_disabled":false,"rental_uris":{"android":"levelo://app?vid=65fc67d3-72e8-42d4-8ee1-2fd73f73254b","ios":"levelo://app?vid=65fc67d3-72e8-42d4-8ee1-2fd73f73254b"},"vehicle_type_id":"4","last_reported":1703592755,"current_range_meters":22800,"station_id":"ce4bgph2rcd13ifvqc2g","pricing_plan_id":"free"},{"bike_id":"8beb582a-00c8-4e62-966b-a4bcdf0aa12c","system_id":"levelo_inurba_marseille","lat":43.296921,"lon":5.376579,"is_reserved":false,"is_disabled":false,"rental_uris":{"android":"levelo://app?vid=8beb582a-00c8-4e62-966b-a4bcdf0aa12c","ios":"levelo://app?vid=8beb582a-00c8-4e62-966b-a4bcdf0aa12c"},"vehicle_type_id":"4","last_reported":1703592755,"current_range_meters":13200,"station_id":"ce4bgkh2rcd13ifvqbl0","pricing_plan_id":"free"},{"bike_id":"82d2b1bc-3076-46d3-870d-67cdfd465ecc","system_id":"levelo_inurba_marseille","lat":43.297237,"lon":5.37662,"is_reserved":false,"is_disabled":false,"rental_uris":{"android":"levelo://app?vid=82d2b1bc-3076-46d3-870d-67cdfd465ecc","ios":"levelo://app?vid=82d2b1bc-3076-46d3-870d-67cdfd465ecc"},"vehicle_type_id":"4","last_reported":1703592755,"current_range_meters":29200,"station_id":"ce4bgkh2rcd13ifvqbl0","pricing_plan_id":"free"},{"bike_id":"1ddbd0f3-15fe-4f8a-8117-19b409d39702","system_id":"levelo_inurba_marseille","lat":43.296935,"lon":5.376544,"is_reserved":false,"is_disabled":false,"rental_uris":{"android":"levelo://app?vid=1ddbd0f3-15fe-4f8a-8117-19b409d39702","ios":"levelo://app?vid=1ddbd0f3-15fe-4f8a-8117-19b409d39702"},"vehicle_type_id":"4","last_reported":1703592755,"current_range_meters":26800,"station_id":"ce4bgkh2rcd13ifvqbl0","pricing_plan_id":"free"},{"bike_id":"49c5dd0a-cf5f-45f2-9e04-dcb0c21c18f6","system_id":"levelo_inurba_marseille","lat":43.296921,"lon":5.376579,"is_reserved":false,"is_disabled":false,"rental_uris":{"android":"levelo://app?vid=49c5dd0a-cf5f-45f2-9e04-dcb0c21c18f6","ios":"levelo://app?vid=49c5dd0a-cf5f-45f2-9e04-dcb0c21c18f6"},"vehicle_type_id":"4","last_reported":1703592755,"current_range_meters":28400,"station_id":"ce4bgkh2rcd13ifvqbl0","pricing_plan_id":"free"},{"bike_id":"ad81ca80-e686-48f3-8140-2f97e3fafe20","system_id":"levelo_inurba_marseille","lat":43.296935,"lon":5.376544,"is_reserved":false,"is_disabled":false,"rental_uris":{"android":"levelo://app?vid=ad81ca80-e686-48f3-8140-2f97e3fafe20","ios":"levelo://app?vid=ad81ca80-e686-48f3-8140-2f97e3fafe20"},"vehicle_type_id":"4","last_reported":1703592755,"current_range_meters":30000,"station_id":"ce4bgkh2rcd13ifvqbl0","pricing_plan_id":"free"},{"bike_id":"b3efd706-6e81-4c49-8468-0d279a9fc160","system_id":"levelo_inurba_marseille","lat":43.296935,"lon":5.376544,"is_reserved":false,"is_disabled":false,"rental_uris":{"android":"levelo://app?vid=b3efd706-6e81-4c49-8468-0d279a9fc160","ios":"levelo://app?vid=b3efd706-6e81-4c49-8468-0d279a9fc160"},"vehicle_type_id":"4","last_reported":1703592755,"current_range_meters":21600,"station_id":"ce4bgkh2rcd13ifvqbl0","pricing_plan_id":"free"},{"bike_id":"786c4fdd-3fd2-4758-8e34-6d54b3336e81","system_id":"levelo_inurba_marseille","lat":43.309589,"lon":5.390258,"is_reserved":false,"is_disabled":false,"rental_uris":{"android":"levelo://app?vid=786c4fdd-3fd2-4758-8e34-6d54b3336e81","ios":"levelo://app?vid=786c4fdd-3fd2-4758-8e34-6d54b3336e81"},"vehicle_type_id":"4","last_reported":1703592755,"current_range_meters":24000,"station_id":"ce4bgup2rcd13ifvqco0","pricing_plan_id":"free"},{"bike_id":"45393e5c-cf2f-4c9d-be0f-383884b22086","system_id":"levelo_inurba_marseille","lat":43.304274,"lon":5.388873,"is_reserved":false,"is_disabled":false,"rental_uris":{"android":"levelo://app?vid=45393e5c-cf2f-4c9d-be0f-383884b22086","ios":"levelo://app?vid=45393e5c-cf2f-4c9d-be0f-383884b22086"},"vehicle_type_id":"4","last_reported":1703592755,"current_range_meters":25600,"station_id":"ce4bgk12rcd13ifvqbi0","pricing_plan_id":"free"},{"bike_id":"ede05243-a40e-451b-891a-e0f9232c2965","system_id":"levelo_inurba_marseille","lat":43.299707,"lon":5.384859,"is_reserved":false,"is_disabled":false,"rental_uris":{"android":"levelo://app?vid=ede05243-a40e-451b-891a-e0f9232c2965","ios":"levelo://app?vid=ede05243-a40e-451b-891a-e0f9232c2965"},"vehicle_type_id":"4","last_reported":1703592755,"current_range_meters":30000,"station_id":"ce4bgj92rcd13ifvqbd0","pricing_plan_id":"free"},{"bike_id":"ba88d1e0-808f-4d49-b6ae-d2edaa3a17fb","system_id":"levelo_inurba_marseille","lat":43.295279,"lon":5.375048,"is_reserved":false,"is_disabled":false,"rental_uris":{"android":"levelo://app?vid=ba88d1e0-808f-4d49-b6ae-d2edaa3a17fb","ios":"levelo://app?vid=ba88d1e0-808f-4d49-b6ae-d2edaa3a17fb"},"vehicle_type_id":"4","last_reported":1703592755,"current_range_meters":21600,"station_id":"ce4bgkp2rcd13ifvqbmg","pricing_plan_id":"free"},{"bike_id":"88bbc3ca-e3e0-4c30-b704-2586398b5d16","system_id":"levelo_inurba_marseille","lat":43.299717,"lon":5.384845,"is_reserved":false,"is_disabled":false,"rental_uris":{"android":"levelo://app?vid=88bbc3ca-e3e0-4c30-b704-2586398b5d16","ios":"levelo://app?vid=88bbc3ca-e3e0-4c30-b704-2586398b5d16"},"vehicle_type_id":"4","last_reported":1703592755,"current_range_meters":22400,"station_id":"ce4bgj92rcd13ifvqbd0","pricing_plan_id":"free"},{"bike_id":"e0f74817-3071-444d-9d77-cd26f5d66ea5","system_id":"levelo_inurba_marseille","lat":43.293259,"lon":5.371586,"is_reserved":false,"is_disabled":false,"rental_uris":{"android":"levelo://app?vid=e0f74817-3071-444d-9d77-cd26f5d66ea5","ios":"levelo://app?vid=e0f74817-3071-444d-9d77-cd26f5d66ea5"},"vehicle_type_id":"4","last_reported":1703592755,"current_range_meters":30800,"station_id":"ce4bgh92rcd13ifvqb40","pricing_plan_id":"free"},{"bike_id":"66090169-56d0-4327-ac4a-5a0739ff15e9","system_id":"levelo_inurba_marseille","lat":43.29267,"lon":5.36843,"is_reserved":false,"is_disabled":false,"rental_uris":{"android":"levelo://app?vid=66090169-56d0-4327-ac4a-5a0739ff15e9","ios":"levelo://app?vid=66090169-56d0-4327-ac4a-5a0739ff15e9"},"vehicle_type_id":"4","last_reported":1703592755,"current_range_meters":11200,"station_id":"ce4bhbp2rcd13ifvqesg","pricing_plan_id":"free"},{"bike_id":"2293a425-b9a3-40b2-bb13-63f4fa997a78","system_id":"levelo_inurba_marseille","lat":43.292749,"lon":5.368402,"is_reserved":false,"is_disabled":false,"rental_uris":{"android":"levelo://app?vid=2293a425-b9a3-40b2-bb13-63f4fa997a78","ios":"levelo://app?vid=2293a425-b9a3-40b2-bb13-63f4fa997a78"},"vehicle_type_id":"4","last_reported":1703592755,"current_range_meters":26800,"station_id":"ce4bhbp2rcd13ifvqesg","pricing_plan_id":"free"},{"bike_id":"3d7d1176-b94c-4d2a-a758-235d88ebbaf8","system_id":"levelo_inurba_marseille","lat":43.293009,"lon":5.374584,"is_reserved":false,"is_disabled":false,"rental_uris":{"android":"levelo://app?vid=3d7d1176-b94c-4d2a-a758-235d88ebbaf8","ios":"levelo://app?vid=3d7d1176-b94c-4d2a-a758-235d88ebbaf8"},"vehicle_type_id":"4","last_reported":1703592755,"current_range_meters":28400,"station_id":"ce4bgi12rcd13ifvqb70","pricing_plan_id":"free"},{"bike_id":"f0284f71-4b6f-47ff-8910-1085c67068b8","system_id":"levelo_inurba_marseille","lat":43.305994,"lon":5.393687,"is_reserved":false,"is_disabled":false,"rental_uris":{"android":"levelo://app?vid=f0284f71-4b6f-47ff-8910-1085c67068b8","ios":"levelo://app?vid=f0284f71-4b6f-47ff-8910-1085c67068b8"},"vehicle_type_id":"4","last_reported":1703592755,"current_range_meters":24800,"station_id":"ce4bh0p2rcd13ifvqd80","pricing_plan_id":"free"},{"bike_id":"4822c688-e268-41d7-ba0a-c9217b626de4","system_id":"levelo_inurba_marseille","lat":43.303002,"lon":5.392142,"is_reserved":false,"is_disabled":false,"rental_uris":{"android":"levelo://app?vid=4822c688-e268-41d7-ba0a-c9217b626de4","ios":"levelo://app?vid=4822c688-e268-41d7-ba0a-c9217b626de4"},"vehicle_type_id":"4","last_reported":1703592755,"current_range_meters":20800,"station_id":"ce4bgkh2rcd13ifvqbk0","pricing_plan_id":"free"},{"bike_id":"2ecc1c9f-0c64-4c1f-8e19-2e20b55b80e8","system_id":"levelo_inurba_marseille","lat":43.302992,"lon":5.392136,"is_reserved":false,"is_disabled":false,"rental_uris":{"android":"levelo://app?vid=2ecc1c9f-0c64-4c1f-8e19-2e20b55b80e8","ios":"levelo://app?vid=2ecc1c9f-0c64-4c1f-8e19-2e20b55b80e8"},"vehicle_type_id":"4","last_reported":1703592755,"current_range_meters":23600,"station_id":"ce4bgkh2rcd13ifvqbk0","pricing_plan_id":"free"},{"bike_id":"70f03b7f-9c80-4452-b912-d79249799889","system_id":"levelo_inurba_marseille","lat":43.2936,"lon":5.37835,"is_reserved":false,"is_disabled":false,"rental_uris":{"android":"levelo://app?vid=70f03b7f-9c80-4452-b912-d79249799889","ios":"levelo://app?vid=70f03b7f-9c80-4452-b912-d79249799889"},"vehicle_type_id":"4","last_reported":1703592755,"current_range_meters":30400,"station_id":"ce4bgjh2rcd13ifvqbf0","pricing_plan_id":"free"},{"bike_id":"012b6df4-42c9-434e-8863-fe7d6aac966c","system_id":"levelo_inurba_marseille","lat":43.302992,"lon":5.392136,"is_reserved":false,"is_disabled":false,"rental_uris":{"android":"levelo://app?vid=012b6df4-42c9-434e-8863-fe7d6aac966c","ios":"levelo://app?vid=012b6df4-42c9-434e-8863-fe7d6aac966c"},"vehicle_type_id":"4","last_reported":1703592755,"current_range_meters":17600,"station_id":"ce4bgkh2rcd13ifvqbk0","pricing_plan_id":"free"},{"bike_id":"2a1ccd29-f676-496e-84aa-b8c228d67153","system_id":"levelo_inurba_marseille","lat":43.2936,"lon":5.37835,"is_reserved":false,"is_disabled":false,"rental_uris":{"android":"levelo://app?vid=2a1ccd29-f676-496e-84aa-b8c228d67153","ios":"levelo://app?vid=2a1ccd29-f676-496e-84aa-b8c228d67153"},"vehicle_type_id":"4","last_reported":1703592755,"current_range_meters":29600,"station_id":"ce4bgjh2rcd13ifvqbf0","pricing_plan_id":"free"},{"bike_id":"f8ad87fb-faf9-4310-8434-bc415fdf4816","system_id":"levelo_inurba_marseille","lat":43.2987,"lon":5.38901,"is_reserved":false,"is_disabled":false,"rental_uris":{"android":"levelo://app?vid=f8ad87fb-faf9-4310-8434-bc415fdf4816","ios":"levelo://app?vid=f8ad87fb-faf9-4310-8434-bc415fdf4816"},"vehicle_type_id":"4","last_reported":1703592755,"current_range_meters":22800,"station_id":"","pricing_plan_id":"free"},{"bike_id":"99b74e2b-0102-4b35-aacc-086f13a32b3a","system_id":"levelo_inurba_marseille","lat":43.291675,"lon":5.371583,"is_reserved":false,"is_disabled":false,"rental_uris":{"android":"levelo://app?vid=99b74e2b-0102-4b35-aacc-086f13a32b3a","ios":"levelo://app?vid=99b74e2b-0102-4b35-aacc-086f13a32b3a"},"vehicle_type_id":"4","last_reported":1703592755,"current_range_meters":23600,"station_id":"ce4bha92rcd13ifvqeh0","pricing_plan_id":"free"},{"bike_id":"25031812-165b-449e-b3ee-efaecb66cc68","system_id":"levelo_inurba_marseille","lat":43.291671,"lon":5.371575,"is_reserved":false,"is_disabled":false,"rental_uris":{"android":"levelo://app?vid=25031812-165b-449e-b3ee-efaecb66cc68","ios":"levelo://app?vid=25031812-165b-449e-b3ee-efaecb66cc68"},"vehicle_type_id":"4","last_reported":1703592755,"current_range_meters":27600,"station_id":"ce4bha92rcd13ifvqeh0","pricing_plan_id":"free"},{"bike_id":"62fdae33-15f0-4734-bd35-a7e2eb1bb95b","system_id":"levelo_inurba_marseille","lat":43.291994,"lon":5.357886,"is_reserved":false,"is_disabled":false,"rental_uris":{"android":"levelo://app?vid=62fdae33-15f0-4734-bd35-a7e2eb1bb95b","ios":"levelo://app?vid=62fdae33-15f0-4734-bd35-a7e2eb1bb95b"},"vehicle_type_id":"4","last_reported":1703592755,"current_range_meters":27200,"station_id":"ce4bhb12rcd13ifvqel0","pricing_plan_id":"free"},{"bike_id":"900a7d5a-884a-44c7-948a-75135b7c6ab9","system_id":"levelo_inurba_marseille","lat":43.291994,"lon":5.357886,"is_reserved":false,"is_disabled":false,"rental_uris":{"android":"levelo://app?vid=900a7d5a-884a-44c7-948a-75135b7c6ab9","ios":"levelo://app?vid=900a7d5a-884a-44c7-948a-75135b7c6ab9"},"vehicle_type_id":"4","last_reported":1703592755,"current_range_meters":21200,"station_id":"ce4bhb12rcd13ifvqel0","pricing_plan_id":"free"},{"bike_id":"ed238374-9335-438f-80df-c5336487543d","system_id":"levelo_inurba_marseille","lat":43.290779,"lon":5.371482,"is_reserved":false,"is_disabled":false,"rental_uris":{"android":"levelo://app?vid=ed238374-9335-438f-80df-c5336487543d","ios":"levelo://app?vid=ed238374-9335-438f-80df-c5336487543d"},"vehicle_type_id":"4","last_reported":1703592755,"current_range_meters":16800,"station_id":"ce4bh5p2rcd13ifvqe4g","pricing_plan_id":"free"},{"bike_id":"7a67efc7-df21-4497-ac59-8031770851e6","system_id":"levelo_inurba_marseille","lat":43.302008,"lon":5.394694,"is_reserved":false,"is_disabled":false,"rental_uris":{"android":"levelo://app?vid=7a67efc7-df21-4497-ac59-8031770851e6","ios":"levelo://app?vid=7a67efc7-df21-4497-ac59-8031770851e6"},"vehicle_type_id":"4","last_reported":1703592755,"current_range_meters":29200,"station_id":"ce4bh0p2rcd13ifvqd70","pricing_plan_id":"free"},{"bike_id":"c6846449-12d5-410a-91a3-5f7b9ee0ad36","system_id":"levelo_inurba_marseille","lat":43.290327,"lon":5.375711,"is_reserved":false,"is_disabled":false,"rental_uris":{"android":"levelo://app?vid=c6846449-12d5-410a-91a3-5f7b9ee0ad36","ios":"levelo://app?vid=c6846449-12d5-410a-91a3-5f7b9ee0ad36"},"vehicle_type_id":"4","last_reported":1703592755,"current_range_meters":0,"station_id":"ce4bh692rcd13ifvqe90","pricing_plan_id":"free"},{"bike_id":"76049ef6-1968-4a25-9c29-78748799f664","system_id":"levelo_inurba_marseille","lat":43.289184,"lon":5.366408,"is_reserved":false,"is_disabled":false,"rental_uris":{"android":"levelo://app?vid=76049ef6-1968-4a25-9c29-78748799f664","ios":"levelo://app?vid=76049ef6-1968-4a25-9c29-78748799f664"},"vehicle_type_id":"4","last_reported":1703592755,"current_range_meters":15200,"station_id":"ce4bhap2rcd13ifvqek0","pricing_plan_id":"free"},{"bike_id":"91247206-f20a-481d-a2d0-818b8d85ca6c","system_id":"levelo_inurba_marseille","lat":43.294153,"lon":5.386305,"is_reserved":false,"is_disabled":false,"rental_uris":{"android":"levelo://app?vid=91247206-f20a-481d-a2d0-818b8d85ca6c","ios":"levelo://app?vid=91247206-f20a-481d-a2d0-818b8d85ca6c"},"vehicle_type_id":"4","last_reported":1703592755,"current_range_meters":25600,"station_id":"ce4bh2h2rcd13ifvqdh0","pricing_plan_id":"free"},{"bike_id":"a657fca5-d0fe-49c8-a6eb-9cd962571071","system_id":"levelo_inurba_marseille","lat":43.294153,"lon":5.386305,"is_reserved":false,"is_disabled":false,"rental_uris":{"android":"levelo://app?vid=a657fca5-d0fe-49c8-a6eb-9cd962571071","ios":"levelo://app?vid=a657fca5-d0fe-49c8-a6eb-9cd962571071"},"vehicle_type_id":"4","last_reported":1703592755,"current_range_meters":18400,"station_id":"ce4bh2h2rcd13ifvqdh0","pricing_plan_id":"free"},{"bike_id":"f79511c1-5dfa-4452-afe4-7e7f56d5e339","system_id":"levelo_inurba_marseille","lat":43.289184,"lon":5.366408,"is_reserved":false,"is_disabled":false,"rental_uris":{"android":"levelo://app?vid=f79511c1-5dfa-4452-afe4-7e7f56d5e339","ios":"levelo://app?vid=f79511c1-5dfa-4452-afe4-7e7f56d5e339"},"vehicle_type_id":"4","last_reported":1703592755,"current_range_meters":24800,"station_id":"ce4bhap2rcd13ifvqek0","pricing_plan_id":"free"},{"bike_id":"16dd70c7-4a62-4c79-9e98-25a373d8eb20","system_id":"levelo_inurba_marseille","lat":43.290104,"lon":5.356111,"is_reserved":false,"is_disabled":false,"rental_uris":{"android":"levelo://app?vid=16dd70c7-4a62-4c79-9e98-25a373d8eb20","ios":"levelo://app?vid=16dd70c7-4a62-4c79-9e98-25a373d8eb20"},"vehicle_type_id":"4","last_reported":1703592755,"current_range_meters":28800,"station_id":"ce4bhb92rcd13ifvqen0","pricing_plan_id":"free"},{"bike_id":"b7790625-0a71-4502-8bf1-0161fd3d6986","system_id":"levelo_inurba_marseille","lat":43.290104,"lon":5.356111,"is_reserved":false,"is_disabled":false,"rental_uris":{"android":"levelo://app?vid=b7790625-0a71-4502-8bf1-0161fd3d6986","ios":"levelo://app?vid=b7790625-0a71-4502-8bf1-0161fd3d6986"},"vehicle_type_id":"4","last_reported":1703592755,"current_range_meters":29200,"station_id":"ce4bhb92rcd13ifvqen0","pricing_plan_id":"free"},{"bike_id":"45ea73cd-49d6-4be7-808d-9d6cdb73365f","system_id":"levelo_inurba_marseille","lat":43.290104,"lon":5.356111,"is_reserved":false,"is_disabled":false,"rental_uris":{"android":"levelo://app?vid=45ea73cd-49d6-4be7-808d-9d6cdb73365f","ios":"levelo://app?vid=45ea73cd-49d6-4be7-808d-9d6cdb73365f"},"vehicle_type_id":"4","last_reported":1703592755,"current_range_meters":21600,"station_id":"ce4bhb92rcd13ifvqen0","pricing_plan_id":"free"},{"bike_id":"3740a2b8-8c56-41c3-bab3-6e7f2b77c46f","system_id":"levelo_inurba_marseille","lat":43.295169,"lon":5.390426,"is_reserved":false,"is_disabled":false,"rental_uris":{"android":"levelo://app?vid=3740a2b8-8c56-41c3-bab3-6e7f2b77c46f","ios":"levelo://app?vid=3740a2b8-8c56-41c3-bab3-6e7f2b77c46f"},"vehicle_type_id":"4","last_reported":1703592755,"current_range_meters":13200,"station_id":"ce4bh3p2rcd13ifvqdp0","pricing_plan_id":"free"},{"bike_id":"7244b12c-a4ed-4fcc-a53c-0222ae84e7e2","system_id":"levelo_inurba_marseille","lat":43.330473,"lon":5.390065,"is_reserved":false,"is_disabled":false,"rental_uris":{"android":"levelo://app?vid=7244b12c-a4ed-4fcc-a53c-0222ae84e7e2","ios":"levelo://app?vid=7244b12c-a4ed-4fcc-a53c-0222ae84e7e2"},"vehicle_type_id":"4","last_reported":1703592755,"current_range_meters":28000,"station_id":"","pricing_plan_id":"free"},{"bike_id":"7f4ab314-dcc7-4253-b939-ccae4e1b5b6c","system_id":"levelo_inurba_marseille","lat":43.2901,"lon":5.381269,"is_reserved":false,"is_disabled":false,"rental_uris":{"android":"levelo://app?vid=7f4ab314-dcc7-4253-b939-ccae4e1b5b6c","ios":"levelo://app?vid=7f4ab314-dcc7-4253-b939-ccae4e1b5b6c"},"vehicle_type_id":"4","last_reported":1703592755,"current_range_meters":22400,"station_id":"ce4bh4p2rcd13ifvqe1g","pricing_plan_id":"free"},{"bike_id":"7a543b19-90cd-4a87-b80d-37f423d89307","system_id":"levelo_inurba_marseille","lat":43.33045,"lon":5.39131,"is_reserved":false,"is_disabled":false,"rental_uris":{"android":"levelo://app?vid=7a543b19-90cd-4a87-b80d-37f423d89307","ios":"levelo://app?vid=7a543b19-90cd-4a87-b80d-37f423d89307"},"vehicle_type_id":"4","last_reported":1703592755,"current_range_meters":8800,"station_id":"","pricing_plan_id":"free"},{"bike_id":"4696fe4b-069a-4d8b-aaeb-46ccccd132b6","system_id":"levelo_inurba_marseille","lat":43.312609,"lon":5.401662,"is_reserved":false,"is_disabled":false,"rental_uris":{"android":"levelo://app?vid=4696fe4b-069a-4d8b-aaeb-46ccccd132b6","ios":"levelo://app?vid=4696fe4b-069a-4d8b-aaeb-46ccccd132b6"},"vehicle_type_id":"4","last_reported":1703592755,"current_range_meters":10400,"station_id":"ce4bh092rcd13ifvqd30","pricing_plan_id":"free"},{"bike_id":"85590026-3268-484a-8aa8-1569355ddd91","system_id":"levelo_inurba_marseille","lat":43.33751,"lon":5.37459,"is_reserved":false,"is_disabled":false,"rental_uris":{"android":"levelo://app?vid=85590026-3268-484a-8aa8-1569355ddd91","ios":"levelo://app?vid=85590026-3268-484a-8aa8-1569355ddd91"},"vehicle_type_id":"4","last_reported":1703592755,"current_range_meters":28400,"station_id":"","pricing_plan_id":"free"},{"bike_id":"f157565a-728a-4521-a384-027fc8ea8758","system_id":"levelo_inurba_marseille","lat":43.33758,"lon":5.37456,"is_reserved":false,"is_disabled":false,"rental_uris":{"android":"levelo://app?vid=f157565a-728a-4521-a384-027fc8ea8758","ios":"levelo://app?vid=f157565a-728a-4521-a384-027fc8ea8758"},"vehicle_type_id":"4","last_reported":1703592755,"current_range_meters":30800,"station_id":"","pricing_plan_id":"free"},{"bike_id":"d179eb05-7da3-48de-ad3d-9a127c9ecd2d","system_id":"levelo_inurba_marseille","lat":43.33766,"lon":5.37445,"is_reserved":false,"is_disabled":false,"rental_uris":{"android":"levelo://app?vid=d179eb05-7da3-48de-ad3d-9a127c9ecd2d","ios":"levelo://app?vid=d179eb05-7da3-48de-ad3d-9a127c9ecd2d"},"vehicle_type_id":"4","last_reported":1703592755,"current_range_meters":30400,"station_id":"","pricing_plan_id":"free"},{"bike_id":"6ae9acee-ecbe-4064-8df7-b5dfae7faebb","system_id":"levelo_inurba_marseille","lat":43.301117,"lon":5.398795,"is_reserved":false,"is_disabled":false,"rental_uris":{"android":"levelo://app?vid=6ae9acee-ecbe-4064-8df7-b5dfae7faebb","ios":"levelo://app?vid=6ae9acee-ecbe-4064-8df7-b5dfae7faebb"},"vehicle_type_id":"4","last_reported":1703592755,"current_range_meters":24400,"station_id":"ce4bh0h2rcd13ifvqd40","pricing_plan_id":"free"},{"bike_id":"51806623-2611-4842-abb1-1cbb0ed2570c","system_id":"levelo_inurba_marseille","lat":43.298681,"lon":5.397225,"is_reserved":false,"is_disabled":false,"rental_uris":{"android":"levelo://app?vid=51806623-2611-4842-abb1-1cbb0ed2570c","ios":"levelo://app?vid=51806623-2611-4842-abb1-1cbb0ed2570c"},"vehicle_type_id":"4","last_reported":1703592755,"current_range_meters":27600,"station_id":"ce4bh0h2rcd13ifvqd50","pricing_plan_id":"free"},{"bike_id":"50a80fe9-88b4-48ac-8015-2547001da2e1","system_id":"levelo_inurba_marseille","lat":43.298681,"lon":5.397225,"is_reserved":false,"is_disabled":false,"rental_uris":{"android":"levelo://app?vid=50a80fe9-88b4-48ac-8015-2547001da2e1","ios":"levelo://app?vid=50a80fe9-88b4-48ac-8015-2547001da2e1"},"vehicle_type_id":"4","last_reported":1703592755,"current_range_meters":27600,"station_id":"ce4bh0h2rcd13ifvqd50","pricing_plan_id":"free"},{"bike_id":"ca5762b8-1df6-4f04-822b-8d364e16ba26","system_id":"levelo_inurba_marseille","lat":43.298681,"lon":5.397225,"is_reserved":false,"is_disabled":false,"rental_uris":{"android":"levelo://app?vid=ca5762b8-1df6-4f04-822b-8d364e16ba26","ios":"levelo://app?vid=ca5762b8-1df6-4f04-822b-8d364e16ba26"},"vehicle_type_id":"4","last_reported":1703592755,"current_range_meters":28400,"station_id":"ce4bh0h2rcd13ifvqd50","pricing_plan_id":"free"},{"bike_id":"ee438aba-24b9-4839-9635-702b9af38974","system_id":"levelo_inurba_marseille","lat":43.286591,"lon":5.363346,"is_reserved":false,"is_disabled":false,"rental_uris":{"android":"levelo://app?vid=ee438aba-24b9-4839-9635-702b9af38974","ios":"levelo://app?vid=ee438aba-24b9-4839-9635-702b9af38974"},"vehicle_type_id":"4","last_reported":1703592755,"current_range_meters":29200,"station_id":"ce4bhah2rcd13ifvqej0","pricing_plan_id":"free"},{"bike_id":"dfc0d39d-1d6e-4c89-b6b9-799b6c2d5ade","system_id":"levelo_inurba_marseille","lat":43.28929,"lon":5.38398,"is_reserved":false,"is_disabled":false,"rental_uris":{"android":"levelo://app?vid=dfc0d39d-1d6e-4c89-b6b9-799b6c2d5ade","ios":"levelo://app?vid=dfc0d39d-1d6e-4c89-b6b9-799b6c2d5ade"},"vehicle_type_id":"4","last_reported":1703592755,"current_range_meters":31200,"station_id":"ce4bh612rcd13ifvqe6g","pricing_plan_id":"free"},{"bike_id":"18a5f46a-0554-41f2-a4c2-dba24b08d849","system_id":"levelo_inurba_marseille","lat":43.289307,"lon":5.38406,"is_reserved":false,"is_disabled":false,"rental_uris":{"android":"levelo://app?vid=18a5f46a-0554-41f2-a4c2-dba24b08d849","ios":"levelo://app?vid=18a5f46a-0554-41f2-a4c2-dba24b08d849"},"vehicle_type_id":"4","last_reported":1703592755,"current_range_meters":30400,"station_id":"ce4bh612rcd13ifvqe6g","pricing_plan_id":"free"},{"bike_id":"5bf5d8a5-5ec5-4279-a304-83df41013d42","system_id":"levelo_inurba_marseille","lat":43.289307,"lon":5.38406,"is_reserved":false,"is_disabled":false,"rental_uris":{"android":"levelo://app?vid=5bf5d8a5-5ec5-4279-a304-83df41013d42","ios":"levelo://app?vid=5bf5d8a5-5ec5-4279-a304-83df41013d42"},"vehicle_type_id":"4","last_reported":1703592755,"current_range_meters":28800,"station_id":"ce4bh612rcd13ifvqe6g","pricing_plan_id":"free"},{"bike_id":"c149d778-947c-420d-9762-2cb00d457dbb","system_id":"levelo_inurba_marseille","lat":43.302759,"lon":5.400793,"is_reserved":false,"is_disabled":false,"rental_uris":{"android":"levelo://app?vid=c149d778-947c-420d-9762-2cb00d457dbb","ios":"levelo://app?vid=c149d778-947c-420d-9762-2cb00d457dbb"},"vehicle_type_id":"4","last_reported":1703592755,"current_range_meters":13200,"station_id":"ce4bgvh2rcd13ifvqcs0","pricing_plan_id":"free"},{"bike_id":"c4491d0c-74af-4d88-864d-4c53251d5027","system_id":"levelo_inurba_marseille","lat":43.286039,"lon":5.370679,"is_reserved":false,"is_disabled":false,"rental_uris":{"android":"levelo://app?vid=c4491d0c-74af-4d88-864d-4c53251d5027","ios":"levelo://app?vid=c4491d0c-74af-4d88-864d-4c53251d5027"},"vehicle_type_id":"4","last_reported":1703592755,"current_range_meters":27600,"station_id":"ce4bht12rcd13ifvqi60","pricing_plan_id":"free"},{"bike_id":"b8ae8959-d827-4ceb-8ce0-3e03906d250d","system_id":"levelo_inurba_marseille","lat":43.28605,"lon":5.37068,"is_reserved":false,"is_disabled":false,"rental_uris":{"android":"levelo://app?vid=b8ae8959-d827-4ceb-8ce0-3e03906d250d","ios":"levelo://app?vid=b8ae8959-d827-4ceb-8ce0-3e03906d250d"},"vehicle_type_id":"4","last_reported":1703592755,"current_range_meters":27200,"station_id":"ce4bht12rcd13ifvqi60","pricing_plan_id":"free"},{"bike_id":"e42f2d48-1eac-4ea9-97da-9a200b97c493","system_id":"levelo_inurba_marseille","lat":43.28604,"lon":5.37065,"is_reserved":false,"is_disabled":false,"rental_uris":{"android":"levelo://app?vid=e42f2d48-1eac-4ea9-97da-9a200b97c493","ios":"levelo://app?vid=e42f2d48-1eac-4ea9-97da-9a200b97c493"},"vehicle_type_id":"4","last_reported":1703592755,"current_range_meters":24800,"station_id":"ce4bht12rcd13ifvqi60","pricing_plan_id":"free"},{"bike_id":"0ade99fb-20fc-423b-a697-58876a6bf0b1","system_id":"levelo_inurba_marseille","lat":43.28699,"lon":5.379445,"is_reserved":false,"is_disabled":false,"rental_uris":{"android":"levelo://app?vid=0ade99fb-20fc-423b-a697-58876a6bf0b1","ios":"levelo://app?vid=0ade99fb-20fc-423b-a697-58876a6bf0b1"},"vehicle_type_id":"4","last_reported":1703592755,"current_range_meters":18000,"station_id":"ce4bh9p2rcd13ifvqec0","pricing_plan_id":"free"},{"bike_id":"4685a6e9-b2ad-4397-8cd0-63d6e0eebed0","system_id":"levelo_inurba_marseille","lat":43.316821,"lon":5.404737,"is_reserved":false,"is_disabled":false,"rental_uris":{"android":"levelo://app?vid=4685a6e9-b2ad-4397-8cd0-63d6e0eebed0","ios":"levelo://app?vid=4685a6e9-b2ad-4397-8cd0-63d6e0eebed0"},"vehicle_type_id":"4","last_reported":1703592755,"current_range_meters":2000,"station_id":"ce4bh012rcd13ifvqd00","pricing_plan_id":"free"},{"bike_id":"fcb2927b-41c2-46f0-a085-ab2a10a8a5ee","system_id":"levelo_inurba_marseille","lat":43.292,"lon":5.39322,"is_reserved":false,"is_disabled":false,"rental_uris":{"android":"levelo://app?vid=fcb2927b-41c2-46f0-a085-ab2a10a8a5ee","ios":"levelo://app?vid=fcb2927b-41c2-46f0-a085-ab2a10a8a5ee"},"vehicle_type_id":"4","last_reported":1703592755,"current_range_meters":20000,"station_id":"ce4bh192rcd13ifvqdd0","pricing_plan_id":"free"},{"bike_id":"f16a6b9b-cf18-402f-b580-9f5494b3a1fa","system_id":"levelo_inurba_marseille","lat":43.29196,"lon":5.39319,"is_reserved":false,"is_disabled":false,"rental_uris":{"android":"levelo://app?vid=f16a6b9b-cf18-402f-b580-9f5494b3a1fa","ios":"levelo://app?vid=f16a6b9b-cf18-402f-b580-9f5494b3a1fa"},"vehicle_type_id":"4","last_reported":1703592755,"current_range_meters":25600,"station_id":"ce4bh192rcd13ifvqdd0","pricing_plan_id":"free"},{"bike_id":"f7ed3370-523c-4c2f-845c-836ae642af5e","system_id":"levelo_inurba_marseille","lat":43.292,"lon":5.39333,"is_reserved":false,"is_disabled":false,"rental_uris":{"android":"levelo://app?vid=f7ed3370-523c-4c2f-845c-836ae642af5e","ios":"levelo://app?vid=f7ed3370-523c-4c2f-845c-836ae642af5e"},"vehicle_type_id":"4","last_reported":1703592755,"current_range_meters":27200,"station_id":"ce4bh192rcd13ifvqdd0","pricing_plan_id":"free"},{"bike_id":"e2adfa7c-882e-48a1-9ee4-b36e6186ebbf","system_id":"levelo_inurba_marseille","lat":43.330912,"lon":5.396935,"is_reserved":false,"is_disabled":false,"rental_uris":{"android":"levelo://app?vid=e2adfa7c-882e-48a1-9ee4-b36e6186ebbf","ios":"levelo://app?vid=e2adfa7c-882e-48a1-9ee4-b36e6186ebbf"},"vehicle_type_id":"4","last_reported":1703592755,"current_range_meters":3200,"station_id":"","pricing_plan_id":"free"},{"bike_id":"93cb29df-2cc8-4d79-905f-ca19bd9d4090","system_id":"levelo_inurba_marseille","lat":43.285856,"lon":5.350771,"is_reserved":false,"is_disabled":false,"rental_uris":{"android":"levelo://app?vid=93cb29df-2cc8-4d79-905f-ca19bd9d4090","ios":"levelo://app?vid=93cb29df-2cc8-4d79-905f-ca19bd9d4090"},"vehicle_type_id":"4","last_reported":1703592755,"current_range_meters":24400,"station_id":"ce4bhch2rcd13ifvqeug","pricing_plan_id":"free"},{"bike_id":"c2a4e9fa-d127-4873-a166-c6085deebf8d","system_id":"levelo_inurba_marseille","lat":43.319179,"lon":5.407725,"is_reserved":false,"is_disabled":false,"rental_uris":{"android":"levelo://app?vid=c2a4e9fa-d127-4873-a166-c6085deebf8d","ios":"levelo://app?vid=c2a4e9fa-d127-4873-a166-c6085deebf8d"},"vehicle_type_id":"4","last_reported":1703592755,"current_range_meters":31600,"station_id":"ce4bhq12rcd13ifvqhig","pricing_plan_id":"free"},{"bike_id":"c8e4841c-10ff-4802-9b08-54b764c03bb3","system_id":"levelo_inurba_marseille","lat":43.319179,"lon":5.407725,"is_reserved":false,"is_disabled":false,"rental_uris":{"android":"levelo://app?vid=c8e4841c-10ff-4802-9b08-54b764c03bb3","ios":"levelo://app?vid=c8e4841c-10ff-4802-9b08-54b764c03bb3"},"vehicle_type_id":"4","last_reported":1703592755,"current_range_meters":31200,"station_id":"ce4bhq12rcd13ifvqhig","pricing_plan_id":"free"},{"bike_id":"ff6ebe2d-10e0-4bee-8d5b-0d34d0573673","system_id":"levelo_inurba_marseille","lat":43.33715,"lon":5.39161,"is_reserved":false,"is_disabled":false,"rental_uris":{"android":"levelo://app?vid=ff6ebe2d-10e0-4bee-8d5b-0d34d0573673","ios":"levelo://app?vid=ff6ebe2d-10e0-4bee-8d5b-0d34d0573673"},"vehicle_type_id":"4","last_reported":1703592755,"current_range_meters":18000,"station_id":"ce4bhr92rcd13ifvqhsg","pricing_plan_id":"free"},{"bike_id":"32358c1c-e30e-473f-9e3b-ee56f5e3d31c","system_id":"levelo_inurba_marseille","lat":43.323464,"lon":5.406297,"is_reserved":false,"is_disabled":false,"rental_uris":{"android":"levelo://app?vid=32358c1c-e30e-473f-9e3b-ee56f5e3d31c","ios":"levelo://app?vid=32358c1c-e30e-473f-9e3b-ee56f5e3d31c"},"vehicle_type_id":"4","last_reported":1703592755,"current_range_meters":28000,"station_id":"ce4bhq92rcd13ifvqhjg","pricing_plan_id":"free"},{"bike_id":"2aab3532-1c3d-4b34-92b8-84b98edc2e54","system_id":"levelo_inurba_marseille","lat":43.28476,"lon":5.3842,"is_reserved":false,"is_disabled":false,"rental_uris":{"android":"levelo://app?vid=2aab3532-1c3d-4b34-92b8-84b98edc2e54","ios":"levelo://app?vid=2aab3532-1c3d-4b34-92b8-84b98edc2e54"},"vehicle_type_id":"4","last_reported":1703592755,"current_range_meters":25600,"station_id":"ce4bh512rcd13ifvqe3g","pricing_plan_id":"free"},{"bike_id":"0c42fa24-df28-4a31-9078-869414e2a519","system_id":"levelo_inurba_marseille","lat":43.29795,"lon":5.404086,"is_reserved":false,"is_disabled":false,"rental_uris":{"android":"levelo://app?vid=0c42fa24-df28-4a31-9078-869414e2a519","ios":"levelo://app?vid=0c42fa24-df28-4a31-9078-869414e2a519"},"vehicle_type_id":"4","last_reported":1703592755,"current_range_meters":30000,"station_id":"ce4bh112rcd13ifvqd90","pricing_plan_id":"free"},{"bike_id":"9195a4b1-21c4-44cc-a045-c88e4cfadb9f","system_id":"levelo_inurba_marseille","lat":43.288501,"lon":5.393087,"is_reserved":false,"is_disabled":false,"rental_uris":{"android":"levelo://app?vid=9195a4b1-21c4-44cc-a045-c88e4cfadb9f","ios":"levelo://app?vid=9195a4b1-21c4-44cc-a045-c88e4cfadb9f"},"vehicle_type_id":"4","last_reported":1703592755,"current_range_meters":16000,"station_id":"ce4bh2p2rcd13ifvqdi0","pricing_plan_id":"free"},{"bike_id":"6e444fb2-8ea1-466f-b923-06d42a5253c1","system_id":"levelo_inurba_marseille","lat":43.288501,"lon":5.393087,"is_reserved":false,"is_disabled":false,"rental_uris":{"android":"levelo://app?vid=6e444fb2-8ea1-466f-b923-06d42a5253c1","ios":"levelo://app?vid=6e444fb2-8ea1-466f-b923-06d42a5253c1"},"vehicle_type_id":"4","last_reported":1703592755,"current_range_meters":24000,"station_id":"ce4bh2p2rcd13ifvqdi0","pricing_plan_id":"free"},{"bike_id":"0eda1752-b43a-4615-91cf-2104d6ee6173","system_id":"levelo_inurba_marseille","lat":43.283494,"lon":5.380945,"is_reserved":false,"is_disabled":false,"rental_uris":{"android":"levelo://app?vid=0eda1752-b43a-4615-91cf-2104d6ee6173","ios":"levelo://app?vid=0eda1752-b43a-4615-91cf-2104d6ee6173"},"vehicle_type_id":"4","last_reported":1703592755,"current_range_meters":30800,"station_id":"ce4bh412rcd13ifvqdr0","pricing_plan_id":"free"},{"bike_id":"b5c0479c-8e77-4c6d-a8f3-335b2d53ee85","system_id":"levelo_inurba_marseille","lat":43.288501,"lon":5.393087,"is_reserved":false,"is_disabled":false,"rental_uris":{"android":"levelo://app?vid=b5c0479c-8e77-4c6d-a8f3-335b2d53ee85","ios":"levelo://app?vid=b5c0479c-8e77-4c6d-a8f3-335b2d53ee85"},"vehicle_type_id":"4","last_reported":1703592755,"current_range_meters":13200,"station_id":"ce4bh2p2rcd13ifvqdi0","pricing_plan_id":"free"},{"bike_id":"e485450b-2736-4f4c-b94b-0da5a69b88aa","system_id":"levelo_inurba_marseille","lat":43.33385,"lon":5.39822,"is_reserved":false,"is_disabled":false,"rental_uris":{"android":"levelo://app?vid=e485450b-2736-4f4c-b94b-0da5a69b88aa","ios":"levelo://app?vid=e485450b-2736-4f4c-b94b-0da5a69b88aa"},"vehicle_type_id":"4","last_reported":1703592755,"current_range_meters":22800,"station_id":"","pricing_plan_id":"free"},{"bike_id":"e919166a-c9c2-4ce8-bcac-4e5439317925","system_id":"levelo_inurba_marseille","lat":43.289363,"lon":5.396322,"is_reserved":false,"is_disabled":false,"rental_uris":{"android":"levelo://app?vid=e919166a-c9c2-4ce8-bcac-4e5439317925","ios":"levelo://app?vid=e919166a-c9c2-4ce8-bcac-4e5439317925"},"vehicle_type_id":"4","last_reported":1703592755,"current_range_meters":19600,"station_id":"ce4bh3h2rcd13ifvqdn0","pricing_plan_id":"free"},{"bike_id":"b8ea60c7-15e4-4335-a9ed-35afb03889dc","system_id":"levelo_inurba_marseille","lat":43.289363,"lon":5.396322,"is_reserved":false,"is_disabled":false,"rental_uris":{"android":"levelo://app?vid=b8ea60c7-15e4-4335-a9ed-35afb03889dc","ios":"levelo://app?vid=b8ea60c7-15e4-4335-a9ed-35afb03889dc"},"vehicle_type_id":"4","last_reported":1703592755,"current_range_meters":30400,"station_id":"ce4bh3h2rcd13ifvqdn0","pricing_plan_id":"free"},{"bike_id":"4f4efd0b-813b-41a8-92c9-720b68b7d4e1","system_id":"levelo_inurba_marseille","lat":43.289363,"lon":5.396322,"is_reserved":false,"is_disabled":false,"rental_uris":{"android":"levelo://app?vid=4f4efd0b-813b-41a8-92c9-720b68b7d4e1","ios":"levelo://app?vid=4f4efd0b-813b-41a8-92c9-720b68b7d4e1"},"vehicle_type_id":"4","last_reported":1703592755,"current_range_meters":30400,"station_id":"ce4bh3h2rcd13ifvqdn0","pricing_plan_id":"free"},{"bike_id":"626aa55a-21ec-4f00-9c0a-153bf1d6c38e","system_id":"levelo_inurba_marseille","lat":43.292724,"lon":5.401131,"is_reserved":false,"is_disabled":false,"rental_uris":{"android":"levelo://app?vid=626aa55a-21ec-4f00-9c0a-153bf1d6c38e","ios":"levelo://app?vid=626aa55a-21ec-4f00-9c0a-153bf1d6c38e"},"vehicle_type_id":"4","last_reported":1703592755,"current_range_meters":27600,"station_id":"ce4bh312rcd13ifvqdk0","pricing_plan_id":"free"},{"bike_id":"d03955f4-3aec-46ba-8ee0-2cefed34dab6","system_id":"levelo_inurba_marseille","lat":43.283502,"lon":5.386471,"is_reserved":false,"is_disabled":false,"rental_uris":{"android":"levelo://app?vid=d03955f4-3aec-46ba-8ee0-2cefed34dab6","ios":"levelo://app?vid=d03955f4-3aec-46ba-8ee0-2cefed34dab6"},"vehicle_type_id":"4","last_reported":1703592755,"current_range_meters":29600,"station_id":"ce4bh492rcd13ifvqdvg","pricing_plan_id":"free"},{"bike_id":"d7897a46-8820-4e59-95c3-ebd1feac516a","system_id":"levelo_inurba_marseille","lat":43.283502,"lon":5.386471,"is_reserved":false,"is_disabled":false,"rental_uris":{"android":"levelo://app?vid=d7897a46-8820-4e59-95c3-ebd1feac516a","ios":"levelo://app?vid=d7897a46-8820-4e59-95c3-ebd1feac516a"},"vehicle_type_id":"4","last_reported":1703592755,"current_range_meters":30000,"station_id":"ce4bh492rcd13ifvqdvg","pricing_plan_id":"free"},{"bike_id":"d9456755-88d2-4516-a2c1-891a546c885a","system_id":"levelo_inurba_marseille","lat":43.28039,"lon":5.369297,"is_reserved":false,"is_disabled":false,"rental_uris":{"android":"levelo://app?vid=d9456755-88d2-4516-a2c1-891a546c885a","ios":"levelo://app?vid=d9456755-88d2-4516-a2c1-891a546c885a"},"vehicle_type_id":"4","last_reported":1703592755,"current_range_meters":19200,"station_id":"ce4bha12rcd13ifvqef0","pricing_plan_id":"free"},{"bike_id":"e616b786-e4c0-4d73-9d4b-4bcba879a3ed","system_id":"levelo_inurba_marseille","lat":43.28573,"lon":5.394992,"is_reserved":false,"is_disabled":false,"rental_uris":{"android":"levelo://app?vid=e616b786-e4c0-4d73-9d4b-4bcba879a3ed","ios":"levelo://app?vid=e616b786-e4c0-4d73-9d4b-4bcba879a3ed"},"vehicle_type_id":"4","last_reported":1703592755,"current_range_meters":29200,"station_id":"ce4bh292rcd13ifvqdg0","pricing_plan_id":"free"},{"bike_id":"3f64d92d-bd78-4747-8a6e-ff5758299350","system_id":"levelo_inurba_marseille","lat":43.326605,"lon":5.409903,"is_reserved":false,"is_disabled":false,"rental_uris":{"android":"levelo://app?vid=3f64d92d-bd78-4747-8a6e-ff5758299350","ios":"levelo://app?vid=3f64d92d-bd78-4747-8a6e-ff5758299350"},"vehicle_type_id":"4","last_reported":1703592755,"current_range_meters":27600,"station_id":"ce4bhpp2rcd13ifvqhgg","pricing_plan_id":"free"},{"bike_id":"2bdcaedd-84dc-416d-b027-f2cb44459874","system_id":"levelo_inurba_marseille","lat":43.326605,"lon":5.409903,"is_reserved":false,"is_disabled":false,"rental_uris":{"android":"levelo://app?vid=2bdcaedd-84dc-416d-b027-f2cb44459874","ios":"levelo://app?vid=2bdcaedd-84dc-416d-b027-f2cb44459874"},"vehicle_type_id":"4","last_reported":1703592755,"current_range_meters":28800,"station_id":"ce4bhpp2rcd13ifvqhgg","pricing_plan_id":"free"},{"bike_id":"bc1f7b15-1c1c-41f9-9939-342701df6c92","system_id":"levelo_inurba_marseille","lat":43.279087,"lon":5.380114,"is_reserved":false,"is_disabled":false,"rental_uris":{"android":"levelo://app?vid=bc1f7b15-1c1c-41f9-9939-342701df6c92","ios":"levelo://app?vid=bc1f7b15-1c1c-41f9-9939-342701df6c92"},"vehicle_type_id":"4","last_reported":1703592755,"current_range_meters":31200,"station_id":"ce4bhf92rcd13ifvqf50","pricing_plan_id":"free"},{"bike_id":"17d98868-06c3-4fb5-a01d-d5719d738ee7","system_id":"levelo_inurba_marseille","lat":43.279087,"lon":5.380114,"is_reserved":false,"is_disabled":false,"rental_uris":{"android":"levelo://app?vid=17d98868-06c3-4fb5-a01d-d5719d738ee7","ios":"levelo://app?vid=17d98868-06c3-4fb5-a01d-d5719d738ee7"},"vehicle_type_id":"4","last_reported":1703592755,"current_range_meters":18800,"station_id":"ce4bhf92rcd13ifvqf50","pricing_plan_id":"free"},{"bike_id":"ef3c430b-e154-4d1d-9a61-5863c261726e","system_id":"levelo_inurba_marseille","lat":43.287154,"lon":5.399979,"is_reserved":false,"is_disabled":false,"rental_uris":{"android":"levelo://app?vid=ef3c430b-e154-4d1d-9a61-5863c261726e","ios":"levelo://app?vid=ef3c430b-e154-4d1d-9a61-5863c261726e"},"vehicle_type_id":"4","last_reported":1703592755,"current_range_meters":12400,"station_id":"ce4bho92rcd13ifvqh3g","pricing_plan_id":"free"},{"bike_id":"1f49b234-69ed-438e-8d08-179a4fc9c8c6","system_id":"levelo_inurba_marseille","lat":43.320045,"lon":5.415046,"is_reserved":false,"is_disabled":false,"rental_uris":{"android":"levelo://app?vid=1f49b234-69ed-438e-8d08-179a4fc9c8c6","ios":"levelo://app?vid=1f49b234-69ed-438e-8d08-179a4fc9c8c6"},"vehicle_type_id":"4","last_reported":1703592755,"current_range_meters":30400,"station_id":"ce4bhq92rcd13ifvqhkg","pricing_plan_id":"free"},{"bike_id":"0f9ba54f-2d34-4815-a7a3-85ee9d8e32a4","system_id":"levelo_inurba_marseille","lat":43.320045,"lon":5.415048,"is_reserved":false,"is_disabled":false,"rental_uris":{"android":"levelo://app?vid=0f9ba54f-2d34-4815-a7a3-85ee9d8e32a4","ios":"levelo://app?vid=0f9ba54f-2d34-4815-a7a3-85ee9d8e32a4"},"vehicle_type_id":"4","last_reported":1703592755,"current_range_meters":27600,"station_id":"ce4bhq92rcd13ifvqhkg","pricing_plan_id":"free"},{"bike_id":"c432b35c-7fa8-43ce-a6ba-986f342358b5","system_id":"levelo_inurba_marseille","lat":43.279742,"lon":5.38744,"is_reserved":false,"is_disabled":false,"rental_uris":{"android":"levelo://app?vid=c432b35c-7fa8-43ce-a6ba-986f342358b5","ios":"levelo://app?vid=c432b35c-7fa8-43ce-a6ba-986f342358b5"},"vehicle_type_id":"4","last_reported":1703592755,"current_range_meters":1200,"station_id":"ce4bhg12rcd13ifvqf80","pricing_plan_id":"free"},{"bike_id":"a72105cb-29af-445f-8298-81b3d055b04d","system_id":"levelo_inurba_marseille","lat":43.279742,"lon":5.38744,"is_reserved":false,"is_disabled":false,"rental_uris":{"android":"levelo://app?vid=a72105cb-29af-445f-8298-81b3d055b04d","ios":"levelo://app?vid=a72105cb-29af-445f-8298-81b3d055b04d"},"vehicle_type_id":"4","last_reported":1703592755,"current_range_meters":22400,"station_id":"ce4bhg12rcd13ifvqf80","pricing_plan_id":"free"},{"bike_id":"624002f1-8ff6-46d2-a6b1-301b3c32382e","system_id":"levelo_inurba_marseille","lat":43.292571,"lon":5.409107,"is_reserved":false,"is_disabled":false,"rental_uris":{"android":"levelo://app?vid=624002f1-8ff6-46d2-a6b1-301b3c32382e","ios":"levelo://app?vid=624002f1-8ff6-46d2-a6b1-301b3c32382e"},"vehicle_type_id":"4","last_reported":1703592755,"current_range_meters":17200,"station_id":"ce4bh192rcd13ifvqdc0","pricing_plan_id":"free"},{"bike_id":"2316e8ee-f386-464a-852e-eabe92d886b0","system_id":"levelo_inurba_marseille","lat":43.27618,"lon":5.361009,"is_reserved":false,"is_disabled":false,"rental_uris":{"android":"levelo://app?vid=2316e8ee-f386-464a-852e-eabe92d886b0","ios":"levelo://app?vid=2316e8ee-f386-464a-852e-eabe92d886b0"},"vehicle_type_id":"4","last_reported":1703592755,"current_range_meters":22000,"station_id":"ce4bgj92rcd13ifvqbe0","pricing_plan_id":"free"},{"bike_id":"918de661-f57e-4317-8f41-4202b0d4f7c6","system_id":"levelo_inurba_marseille","lat":43.325233,"lon":5.414318,"is_reserved":false,"is_disabled":false,"rental_uris":{"android":"levelo://app?vid=918de661-f57e-4317-8f41-4202b0d4f7c6","ios":"levelo://app?vid=918de661-f57e-4317-8f41-4202b0d4f7c6"},"vehicle_type_id":"4","last_reported":1703592755,"current_range_meters":30400,"station_id":"ce4bhq12rcd13ifvqhhg","pricing_plan_id":"free"},{"bike_id":"c7ceffd7-15f8-4a1a-a814-cd1193a51445","system_id":"levelo_inurba_marseille","lat":43.303837,"lon":5.418724,"is_reserved":false,"is_disabled":false,"rental_uris":{"android":"levelo://app?vid=c7ceffd7-15f8-4a1a-a814-cd1193a51445","ios":"levelo://app?vid=c7ceffd7-15f8-4a1a-a814-cd1193a51445"},"vehicle_type_id":"4","last_reported":1703592755,"current_range_meters":31600,"station_id":"ce4bhop2rcd13ifvqh7g","pricing_plan_id":"free"},{"bike_id":"f069e1ac-cffd-4c40-b676-82534a24f373","system_id":"levelo_inurba_marseille","lat":43.303837,"lon":5.418724,"is_reserved":false,"is_disabled":false,"rental_uris":{"android":"levelo://app?vid=f069e1ac-cffd-4c40-b676-82534a24f373","ios":"levelo://app?vid=f069e1ac-cffd-4c40-b676-82534a24f373"},"vehicle_type_id":"4","last_reported":1703592755,"current_range_meters":28800,"station_id":"ce4bhop2rcd13ifvqh7g","pricing_plan_id":"free"},{"bike_id":"41e82814-0a16-4411-8470-a07347a4c7d8","system_id":"levelo_inurba_marseille","lat":43.278401,"lon":5.392152,"is_reserved":false,"is_disabled":false,"rental_uris":{"android":"levelo://app?vid=41e82814-0a16-4411-8470-a07347a4c7d8","ios":"levelo://app?vid=41e82814-0a16-4411-8470-a07347a4c7d8"},"vehicle_type_id":"4","last_reported":1703592755,"current_range_meters":9200,"station_id":"ce4bhjp2rcd13ifvqga0","pricing_plan_id":"free"},{"bike_id":"e924da40-7846-42b7-a84e-0317e074b38b","system_id":"levelo_inurba_marseille","lat":43.273613,"lon":5.362705,"is_reserved":false,"is_disabled":false,"rental_uris":{"android":"levelo://app?vid=e924da40-7846-42b7-a84e-0317e074b38b","ios":"levelo://app?vid=e924da40-7846-42b7-a84e-0317e074b38b"},"vehicle_type_id":"4","last_reported":1703592755,"current_range_meters":26800,"station_id":"ce4bhbh2rcd13ifvqeo0","pricing_plan_id":"free"},{"bike_id":"65431dc2-7219-4fc5-9aca-fdf25e4e1084","system_id":"levelo_inurba_marseille","lat":43.273613,"lon":5.362705,"is_reserved":false,"is_disabled":false,"rental_uris":{"android":"levelo://app?vid=65431dc2-7219-4fc5-9aca-fdf25e4e1084","ios":"levelo://app?vid=65431dc2-7219-4fc5-9aca-fdf25e4e1084"},"vehicle_type_id":"4","last_reported":1703592755,"current_range_meters":22000,"station_id":"ce4bhbh2rcd13ifvqeo0","pricing_plan_id":"free"},{"bike_id":"1b227829-f00a-47a8-a334-0c3ce8f714c9","system_id":"levelo_inurba_marseille","lat":43.273609,"lon":5.362708,"is_reserved":false,"is_disabled":false,"rental_uris":{"android":"levelo://app?vid=1b227829-f00a-47a8-a334-0c3ce8f714c9","ios":"levelo://app?vid=1b227829-f00a-47a8-a334-0c3ce8f714c9"},"vehicle_type_id":"4","last_reported":1703592755,"current_range_meters":26800,"station_id":"ce4bhbh2rcd13ifvqeo0","pricing_plan_id":"free"},{"bike_id":"661e5204-49a3-43a0-9ad1-00af902ce948","system_id":"levelo_inurba_marseille","lat":43.275625,"lon":5.384392,"is_reserved":false,"is_disabled":false,"rental_uris":{"android":"levelo://app?vid=661e5204-49a3-43a0-9ad1-00af902ce948","ios":"levelo://app?vid=661e5204-49a3-43a0-9ad1-00af902ce948"},"vehicle_type_id":"4","last_reported":1703592755,"current_range_meters":9600,"station_id":"ce4bhh92rcd13ifvqfi0","pricing_plan_id":"free"},{"bike_id":"96219706-eade-41a5-9039-1c8472f61054","system_id":"levelo_inurba_marseille","lat":43.336134,"lon":5.410341,"is_reserved":false,"is_disabled":false,"rental_uris":{"android":"levelo://app?vid=96219706-eade-41a5-9039-1c8472f61054","ios":"levelo://app?vid=96219706-eade-41a5-9039-1c8472f61054"},"vehicle_type_id":"4","last_reported":1703592755,"current_range_meters":29600,"station_id":"ce4bhqh2rcd13ifvqhmg","pricing_plan_id":"free"},{"bike_id":"124e65a3-2ead-49d0-b68d-0fc0caf39aa0","system_id":"levelo_inurba_marseille","lat":43.275625,"lon":5.384392,"is_reserved":false,"is_disabled":false,"rental_uris":{"android":"levelo://app?vid=124e65a3-2ead-49d0-b68d-0fc0caf39aa0","ios":"levelo://app?vid=124e65a3-2ead-49d0-b68d-0fc0caf39aa0"},"vehicle_type_id":"4","last_reported":1703592755,"current_range_meters":19200,"station_id":"ce4bhh92rcd13ifvqfi0","pricing_plan_id":"free"},{"bike_id":"7ce30daf-cbfe-4153-9586-63e249e70b2e","system_id":"levelo_inurba_marseille","lat":43.27561,"lon":5.384228,"is_reserved":false,"is_disabled":false,"rental_uris":{"android":"levelo://app?vid=7ce30daf-cbfe-4153-9586-63e249e70b2e","ios":"levelo://app?vid=7ce30daf-cbfe-4153-9586-63e249e70b2e"},"vehicle_type_id":"4","last_reported":1703592755,"current_range_meters":24400,"station_id":"ce4bhh92rcd13ifvqfi0","pricing_plan_id":"free"},{"bike_id":"5bba02f9-40cc-4519-8c06-a065d830c292","system_id":"levelo_inurba_marseille","lat":43.275625,"lon":5.384392,"is_reserved":false,"is_disabled":false,"rental_uris":{"android":"levelo://app?vid=5bba02f9-40cc-4519-8c06-a065d830c292","ios":"levelo://app?vid=5bba02f9-40cc-4519-8c06-a065d830c292"},"vehicle_type_id":"4","last_reported":1703592755,"current_range_meters":27600,"station_id":"ce4bhh92rcd13ifvqfi0","pricing_plan_id":"free"},{"bike_id":"3b82a756-0a56-4ce7-9bfa-3fb30ced9e12","system_id":"levelo_inurba_marseille","lat":43.336134,"lon":5.410341,"is_reserved":false,"is_disabled":false,"rental_uris":{"android":"levelo://app?vid=3b82a756-0a56-4ce7-9bfa-3fb30ced9e12","ios":"levelo://app?vid=3b82a756-0a56-4ce7-9bfa-3fb30ced9e12"},"vehicle_type_id":"4","last_reported":1703592755,"current_range_meters":25600,"station_id":"ce4bhqh2rcd13ifvqhmg","pricing_plan_id":"free"},{"bike_id":"e0c1bc75-037c-4b31-b7e1-a7afd8cf7ff6","system_id":"levelo_inurba_marseille","lat":43.279975,"lon":5.40009,"is_reserved":false,"is_disabled":false,"rental_uris":{"android":"levelo://app?vid=e0c1bc75-037c-4b31-b7e1-a7afd8cf7ff6","ios":"levelo://app?vid=e0c1bc75-037c-4b31-b7e1-a7afd8cf7ff6"},"vehicle_type_id":"4","last_reported":1703592755,"current_range_meters":24800,"station_id":"ce4bho92rcd13ifvqh4g","pricing_plan_id":"free"},{"bike_id":"136cb9da-15ee-40e3-bc2c-40c9c9d6a86d","system_id":"levelo_inurba_marseille","lat":43.317121,"lon":5.423936,"is_reserved":false,"is_disabled":false,"rental_uris":{"android":"levelo://app?vid=136cb9da-15ee-40e3-bc2c-40c9c9d6a86d","ios":"levelo://app?vid=136cb9da-15ee-40e3-bc2c-40c9c9d6a86d"},"vehicle_type_id":"4","last_reported":1703592755,"current_range_meters":30800,"station_id":"ce4bhp92rcd13ifvqhbg","pricing_plan_id":"free"},{"bike_id":"a31403d3-3f52-46c5-bf04-84e097645452","system_id":"levelo_inurba_marseille","lat":43.317121,"lon":5.423936,"is_reserved":false,"is_disabled":false,"rental_uris":{"android":"levelo://app?vid=a31403d3-3f52-46c5-bf04-84e097645452","ios":"levelo://app?vid=a31403d3-3f52-46c5-bf04-84e097645452"},"vehicle_type_id":"4","last_reported":1703592755,"current_range_meters":28400,"station_id":"ce4bhp92rcd13ifvqhbg","pricing_plan_id":"free"},{"bike_id":"f556d316-c44a-4d50-a77d-683f4af0ce62","system_id":"levelo_inurba_marseille","lat":43.273129,"lon":5.390725,"is_reserved":false,"is_disabled":false,"rental_uris":{"android":"levelo://app?vid=f556d316-c44a-4d50-a77d-683f4af0ce62","ios":"levelo://app?vid=f556d316-c44a-4d50-a77d-683f4af0ce62"},"vehicle_type_id":"4","last_reported":1703592755,"current_range_meters":8800,"station_id":"ce4bhgp2rcd13ifvqfe0","pricing_plan_id":"free"},{"bike_id":"d34a21e9-75d4-4403-8c2a-13dda26f4543","system_id":"levelo_inurba_marseille","lat":43.274103,"lon":5.394016,"is_reserved":false,"is_disabled":false,"rental_uris":{"android":"levelo://app?vid=d34a21e9-75d4-4403-8c2a-13dda26f4543","ios":"levelo://app?vid=d34a21e9-75d4-4403-8c2a-13dda26f4543"},"vehicle_type_id":"4","last_reported":1703592755,"current_range_meters":31600,"station_id":"ce4bhdp2rcd13ifvqf20","pricing_plan_id":"free"},{"bike_id":"38be4c01-1ecf-434e-aaf9-87236f21b137","system_id":"levelo_inurba_marseille","lat":43.273242,"lon":5.390969,"is_reserved":false,"is_disabled":false,"rental_uris":{"android":"levelo://app?vid=38be4c01-1ecf-434e-aaf9-87236f21b137","ios":"levelo://app?vid=38be4c01-1ecf-434e-aaf9-87236f21b137"},"vehicle_type_id":"4","last_reported":1703592755,"current_range_meters":28800,"station_id":"ce4bhgp2rcd13ifvqfe0","pricing_plan_id":"free"},{"bike_id":"0ba5278f-fff4-4ae0-aaa9-b70917234f52","system_id":"levelo_inurba_marseille","lat":43.2732,"lon":5.39088,"is_reserved":false,"is_disabled":false,"rental_uris":{"android":"levelo://app?vid=0ba5278f-fff4-4ae0-aaa9-b70917234f52","ios":"levelo://app?vid=0ba5278f-fff4-4ae0-aaa9-b70917234f52"},"vehicle_type_id":"4","last_reported":1703592755,"current_range_meters":31200,"station_id":"ce4bhgp2rcd13ifvqfe0","pricing_plan_id":"free"},{"bike_id":"1d15b6fb-4c0e-4446-a794-4d1a49148511","system_id":"levelo_inurba_marseille","lat":43.274103,"lon":5.394016,"is_reserved":false,"is_disabled":false,"rental_uris":{"android":"levelo://app?vid=1d15b6fb-4c0e-4446-a794-4d1a49148511","ios":"levelo://app?vid=1d15b6fb-4c0e-4446-a794-4d1a49148511"},"vehicle_type_id":"4","last_reported":1703592755,"current_range_meters":13200,"station_id":"ce4bhdp2rcd13ifvqf20","pricing_plan_id":"free"},{"bike_id":"1c1ad0a5-6c3a-434e-a0c3-306aac6496d8","system_id":"levelo_inurba_marseille","lat":43.27319,"lon":5.391,"is_reserved":false,"is_disabled":false,"rental_uris":{"android":"levelo://app?vid=1c1ad0a5-6c3a-434e-a0c3-306aac6496d8","ios":"levelo://app?vid=1c1ad0a5-6c3a-434e-a0c3-306aac6496d8"},"vehicle_type_id":"4","last_reported":1703592755,"current_range_meters":26000,"station_id":"ce4bhgp2rcd13ifvqfe0","pricing_plan_id":"free"},{"bike_id":"d1e397f3-b139-4ced-98a7-ebc706af9675","system_id":"levelo_inurba_marseille","lat":43.304096,"lon":5.425385,"is_reserved":false,"is_disabled":false,"rental_uris":{"android":"levelo://app?vid=d1e397f3-b139-4ced-98a7-ebc706af9675","ios":"levelo://app?vid=d1e397f3-b139-4ced-98a7-ebc706af9675"},"vehicle_type_id":"4","last_reported":1703592755,"current_range_meters":1600,"station_id":"ce4bhoh2rcd13ifvqh6g","pricing_plan_id":"free"},{"bike_id":"f6133491-ff83-415f-8a7d-195abfef63a4","system_id":"levelo_inurba_marseille","lat":43.304096,"lon":5.425385,"is_reserved":false,"is_disabled":false,"rental_uris":{"android":"levelo://app?vid=f6133491-ff83-415f-8a7d-195abfef63a4","ios":"levelo://app?vid=f6133491-ff83-415f-8a7d-195abfef63a4"},"vehicle_type_id":"4","last_reported":1703592755,"current_range_meters":28800,"station_id":"ce4bhoh2rcd13ifvqh6g","pricing_plan_id":"free"},{"bike_id":"f0480aff-1f9b-4adf-898b-b9e54070d8ae","system_id":"levelo_inurba_marseille","lat":43.304096,"lon":5.425385,"is_reserved":false,"is_disabled":false,"rental_uris":{"android":"levelo://app?vid=f0480aff-1f9b-4adf-898b-b9e54070d8ae","ios":"levelo://app?vid=f0480aff-1f9b-4adf-898b-b9e54070d8ae"},"vehicle_type_id":"4","last_reported":1703592755,"current_range_meters":24400,"station_id":"ce4bhoh2rcd13ifvqh6g","pricing_plan_id":"free"},{"bike_id":"41382738-9e52-4dc6-a61d-5eed9f020555","system_id":"levelo_inurba_marseille","lat":43.304096,"lon":5.425385,"is_reserved":false,"is_disabled":false,"rental_uris":{"android":"levelo://app?vid=41382738-9e52-4dc6-a61d-5eed9f020555","ios":"levelo://app?vid=41382738-9e52-4dc6-a61d-5eed9f020555"},"vehicle_type_id":"4","last_reported":1703592755,"current_range_meters":18400,"station_id":"ce4bhoh2rcd13ifvqh6g","pricing_plan_id":"free"},{"bike_id":"eef3edf4-0beb-4236-ac69-9bc3264db711","system_id":"levelo_inurba_marseille","lat":43.304096,"lon":5.425385,"is_reserved":false,"is_disabled":false,"rental_uris":{"android":"levelo://app?vid=eef3edf4-0beb-4236-ac69-9bc3264db711","ios":"levelo://app?vid=eef3edf4-0beb-4236-ac69-9bc3264db711"},"vehicle_type_id":"4","last_reported":1703592755,"current_range_meters":19600,"station_id":"ce4bhoh2rcd13ifvqh6g","pricing_plan_id":"free"},{"bike_id":"e192df68-2c2b-482d-b6fd-3b8920434290","system_id":"levelo_inurba_marseille","lat":43.295523,"lon":5.422926,"is_reserved":false,"is_disabled":false,"rental_uris":{"android":"levelo://app?vid=e192df68-2c2b-482d-b6fd-3b8920434290","ios":"levelo://app?vid=e192df68-2c2b-482d-b6fd-3b8920434290"},"vehicle_type_id":"4","last_reported":1703592755,"current_range_meters":31600,"station_id":"ce4bhph2rcd13ifvqhdg","pricing_plan_id":"free"},{"bike_id":"5b8be4a2-9e7a-457f-b482-e2479c2a3178","system_id":"levelo_inurba_marseille","lat":43.295511,"lon":5.422926,"is_reserved":false,"is_disabled":false,"rental_uris":{"android":"levelo://app?vid=5b8be4a2-9e7a-457f-b482-e2479c2a3178","ios":"levelo://app?vid=5b8be4a2-9e7a-457f-b482-e2479c2a3178"},"vehicle_type_id":"4","last_reported":1703592755,"current_range_meters":31600,"station_id":"ce4bhph2rcd13ifvqhdg","pricing_plan_id":"free"},{"bike_id":"cb6b2288-2fd3-4282-94eb-683acd48348a","system_id":"levelo_inurba_marseille","lat":43.295511,"lon":5.422926,"is_reserved":false,"is_disabled":false,"rental_uris":{"android":"levelo://app?vid=cb6b2288-2fd3-4282-94eb-683acd48348a","ios":"levelo://app?vid=cb6b2288-2fd3-4282-94eb-683acd48348a"},"vehicle_type_id":"4","last_reported":1703592755,"current_range_meters":28800,"station_id":"ce4bhph2rcd13ifvqhdg","pricing_plan_id":"free"},{"bike_id":"71515108-b0b9-4c99-bbc5-9ac366a2c43a","system_id":"levelo_inurba_marseille","lat":43.295511,"lon":5.422926,"is_reserved":false,"is_disabled":false,"rental_uris":{"android":"levelo://app?vid=71515108-b0b9-4c99-bbc5-9ac366a2c43a","ios":"levelo://app?vid=71515108-b0b9-4c99-bbc5-9ac366a2c43a"},"vehicle_type_id":"4","last_reported":1703592755,"current_range_meters":27600,"station_id":"ce4bhph2rcd13ifvqhdg","pricing_plan_id":"free"},{"bike_id":"868b673e-625f-474f-906e-73930218c3d9","system_id":"levelo_inurba_marseille","lat":43.272124,"lon":5.391768,"is_reserved":false,"is_disabled":false,"rental_uris":{"android":"levelo://app?vid=868b673e-625f-474f-906e-73930218c3d9","ios":"levelo://app?vid=868b673e-625f-474f-906e-73930218c3d9"},"vehicle_type_id":"4","last_reported":1703592755,"current_range_meters":30400,"station_id":"ce4bhhp2rcd13ifvqfm0","pricing_plan_id":"free"},{"bike_id":"639fc575-1784-4b4c-b89a-c58c9d704cfb","system_id":"levelo_inurba_marseille","lat":43.272124,"lon":5.391768,"is_reserved":false,"is_disabled":false,"rental_uris":{"android":"levelo://app?vid=639fc575-1784-4b4c-b89a-c58c9d704cfb","ios":"levelo://app?vid=639fc575-1784-4b4c-b89a-c58c9d704cfb"},"vehicle_type_id":"4","last_reported":1703592755,"current_range_meters":30000,"station_id":"ce4bhhp2rcd13ifvqfm0","pricing_plan_id":"free"},{"bike_id":"00694ff4-8b97-4904-a65f-4250d1b44135","system_id":"levelo_inurba_marseille","lat":43.278128,"lon":5.407195,"is_reserved":false,"is_disabled":false,"rental_uris":{"android":"levelo://app?vid=00694ff4-8b97-4904-a65f-4250d1b44135","ios":"levelo://app?vid=00694ff4-8b97-4904-a65f-4250d1b44135"},"vehicle_type_id":"4","last_reported":1703592755,"current_range_meters":24000,"station_id":"ce4bhnh2rcd13ifvqgtg","pricing_plan_id":"free"},{"bike_id":"a117ece1-1adf-4f1c-a204-4da5b73064b7","system_id":"levelo_inurba_marseille","lat":43.27816,"lon":5.40722,"is_reserved":false,"is_disabled":false,"rental_uris":{"android":"levelo://app?vid=a117ece1-1adf-4f1c-a204-4da5b73064b7","ios":"levelo://app?vid=a117ece1-1adf-4f1c-a204-4da5b73064b7"},"vehicle_type_id":"4","last_reported":1703592755,"current_range_meters":26400,"station_id":"ce4bhnh2rcd13ifvqgtg","pricing_plan_id":"free"},{"bike_id":"c9a6e312-654c-4a17-a51c-41efec67785d","system_id":"levelo_inurba_marseille","lat":43.269467,"lon":5.386439,"is_reserved":false,"is_disabled":false,"rental_uris":{"android":"levelo://app?vid=c9a6e312-654c-4a17-a51c-41efec67785d","ios":"levelo://app?vid=c9a6e312-654c-4a17-a51c-41efec67785d"},"vehicle_type_id":"4","last_reported":1703592755,"current_range_meters":23600,"station_id":"ce4bhh92rcd13ifvqfh0","pricing_plan_id":"free"},{"bike_id":"2bcf1142-ed97-4c5e-82a3-c388e97d44f3","system_id":"levelo_inurba_marseille","lat":43.269467,"lon":5.386439,"is_reserved":false,"is_disabled":false,"rental_uris":{"android":"levelo://app?vid=2bcf1142-ed97-4c5e-82a3-c388e97d44f3","ios":"levelo://app?vid=2bcf1142-ed97-4c5e-82a3-c388e97d44f3"},"vehicle_type_id":"4","last_reported":1703592755,"current_range_meters":28800,"station_id":"ce4bhh92rcd13ifvqfh0","pricing_plan_id":"free"},{"bike_id":"c7fb6ccc-d6c5-4cfa-9b9c-63a70b087bcf","system_id":"levelo_inurba_marseille","lat":43.279465,"lon":5.410561,"is_reserved":false,"is_disabled":false,"rental_uris":{"android":"levelo://app?vid=c7fb6ccc-d6c5-4cfa-9b9c-63a70b087bcf","ios":"levelo://app?vid=c7fb6ccc-d6c5-4cfa-9b9c-63a70b087bcf"},"vehicle_type_id":"4","last_reported":1703592755,"current_range_meters":19600,"station_id":"ce4bhnp2rcd13ifvqh0g","pricing_plan_id":"free"},{"bike_id":"9607d6dd-984b-402e-b5fd-47416a971713","system_id":"levelo_inurba_marseille","lat":43.269467,"lon":5.386439,"is_reserved":false,"is_disabled":false,"rental_uris":{"android":"levelo://app?vid=9607d6dd-984b-402e-b5fd-47416a971713","ios":"levelo://app?vid=9607d6dd-984b-402e-b5fd-47416a971713"},"vehicle_type_id":"4","last_reported":1703592755,"current_range_meters":9600,"station_id":"ce4bhh92rcd13ifvqfh0","pricing_plan_id":"free"},{"bike_id":"448b7257-3956-4299-8d4d-fd1cf6d454bc","system_id":"levelo_inurba_marseille","lat":43.269319,"lon":5.389397,"is_reserved":false,"is_disabled":false,"rental_uris":{"android":"levelo://app?vid=448b7257-3956-4299-8d4d-fd1cf6d454bc","ios":"levelo://app?vid=448b7257-3956-4299-8d4d-fd1cf6d454bc"},"vehicle_type_id":"4","last_reported":1703592755,"current_range_meters":28000,"station_id":"ce4bhhh2rcd13ifvqfl0","pricing_plan_id":"free"},{"bike_id":"afa74cc4-a0aa-4972-a1ed-4aaef63d8930","system_id":"levelo_inurba_marseille","lat":43.26681,"lon":5.382694,"is_reserved":false,"is_disabled":false,"rental_uris":{"android":"levelo://app?vid=afa74cc4-a0aa-4972-a1ed-4aaef63d8930","ios":"levelo://app?vid=afa74cc4-a0aa-4972-a1ed-4aaef63d8930"},"vehicle_type_id":"4","last_reported":1703592755,"current_range_meters":31600,"station_id":"ce4bhg92rcd13ifvqf90","pricing_plan_id":"free"},{"bike_id":"713d4859-639d-4790-8166-79005b3748aa","system_id":"levelo_inurba_marseille","lat":43.26681,"lon":5.382694,"is_reserved":false,"is_disabled":false,"rental_uris":{"android":"levelo://app?vid=713d4859-639d-4790-8166-79005b3748aa","ios":"levelo://app?vid=713d4859-639d-4790-8166-79005b3748aa"},"vehicle_type_id":"4","last_reported":1703592755,"current_range_meters":31600,"station_id":"ce4bhg92rcd13ifvqf90","pricing_plan_id":"free"},{"bike_id":"e228c82f-cebd-4f9c-8b1e-cab3967975e3","system_id":"levelo_inurba_marseille","lat":43.308051,"lon":5.43527,"is_reserved":false,"is_disabled":false,"rental_uris":{"android":"levelo://app?vid=e228c82f-cebd-4f9c-8b1e-cab3967975e3","ios":"levelo://app?vid=e228c82f-cebd-4f9c-8b1e-cab3967975e3"},"vehicle_type_id":"4","last_reported":1703592755,"current_range_meters":31600,"station_id":"ce4bhph2rcd13ifvqheg","pricing_plan_id":"free"},{"bike_id":"16aadf90-1f8d-4c0d-8615-10f6cd8ac2ac","system_id":"levelo_inurba_marseille","lat":43.308051,"lon":5.43527,"is_reserved":false,"is_disabled":false,"rental_uris":{"android":"levelo://app?vid=16aadf90-1f8d-4c0d-8615-10f6cd8ac2ac","ios":"levelo://app?vid=16aadf90-1f8d-4c0d-8615-10f6cd8ac2ac"},"vehicle_type_id":"4","last_reported":1703592755,"current_range_meters":30400,"station_id":"ce4bhph2rcd13ifvqheg","pricing_plan_id":"free"},{"bike_id":"6f875aa0-a808-4107-8db6-4a09c5042568","system_id":"levelo_inurba_marseille","lat":43.26949,"lon":5.40262,"is_reserved":false,"is_disabled":false,"rental_uris":{"android":"levelo://app?vid=6f875aa0-a808-4107-8db6-4a09c5042568","ios":"levelo://app?vid=6f875aa0-a808-4107-8db6-4a09c5042568"},"vehicle_type_id":"4","last_reported":1703592755,"current_range_meters":6800,"station_id":"cjm6bp8fraef2m0cb0m0","pricing_plan_id":"free"},