{"last_updated":1693591671,"ttl":30,"version":"2.2","data":{"bikes":[{"bike_id":"05b24b4a-2658-4934-bd63-ca11de8518d0","system_id":"levelo_inurba_marseille","lat":43.309076,"lon":5.368465,"is_reserved":false,"is_disabled":false,"rental_uris":{"android":"levelo://app?vid=05b24b4a-2658-4934-bd63-ca11de8518d0","ios":"levelo://app?vid=05b24b4a-2658-4934-bd63-ca11de8518d0"},"vehicle_type_id":"4","last_reported":1693591671,"current_range_meters":29600,"station_id":"ce4bgn92rcd13ifvqbvg","pricing_plan_id":"free"},{"bike_id":"d2be997d-44d2-40a5-bb20-02aeaaf65fa5","system_id":"levelo_inurba_marseille","lat":43.314811,"lon":5.373104,"is_reserved":false,"is_disabled":false,"rental_uris":{"android":"levelo://app?vid=d2be997d-44d2-40a5-bb20-02aeaaf65fa5","ios":"levelo://app?vid=d2be997d-44d2-40a5-bb20-02aeaaf65fa5"},"vehicle_type_id":"4","last_reported":1693591671,"current_range_meters":31200,"station_id":"ce4bgt12rcd13ifvqcd0","pricing_plan_id":"free"},{"bike_id":"b50c15d4-2762-4324-a110-f4e6ac2d1885","system_id":"levelo_inurba_marseille","lat":43.314811,"lon":5.373103,"is_reserved":false,"is_disabled":false,"rental_uris":{"android":"levelo://app?vid=b50c15d4-2762-4324-a110-f4e6ac2d1885","ios":"levelo://app?vid=b50c15d4-2762-4324-a110-f4e6ac2d1885"},"vehicle_type_id":"4","last_reported":1693591671,"current_range_meters":23600,"station_id":"ce4bgt12rcd13ifvqcd0","pricing_plan_id":"free"},{"bike_id":"07ba2a63-301b-4def-a923-7d4c323a1200","system_id":"levelo_inurba_marseille","lat":43.314811,"lon":5.373103,"is_reserved":false,"is_disabled":false,"rental_uris":{"android":"levelo://app?vid=07ba2a63-301b-4def-a923-7d4c323a1200","ios":"levelo://app?vid=07ba2a63-301b-4def-a923-7d4c323a1200"},"vehicle_type_id":"4","last_reported":1693591671,"current_range_meters":16800,"station_id":"ce4bgt12rcd13ifvqcd0","pricing_plan_id":"free"},{"bike_id":"ddef36a8-5ec4-4835-8c6c-d1f2fe2bc266","system_id":"levelo_inurba_marseille","lat":43.315293,"lon":5.380349,"is_reserved":false,"is_disabled":false,"rental_uris":{"android":"levelo://app?vid=ddef36a8-5ec4-4835-8c6c-d1f2fe2bc266","ios":"levelo://app?vid=ddef36a8-5ec4-4835-8c6c-d1f2fe2bc266"},"vehicle_type_id":"4","last_reported":1693591671,"current_range_meters":30000,"station_id":"ce4bhsp2rcd13ifvqi50","pricing_plan_id":"free"},{"bike_id":"4d0037ec-9537-4700-9f8e-fb7c7d93b216","system_id":"levelo_inurba_marseille","lat":43.305368,"lon":5.367343,"is_reserved":false,"is_disabled":false,"rental_uris":{"android":"levelo://app?vid=4d0037ec-9537-4700-9f8e-fb7c7d93b216","ios":"levelo://app?vid=4d0037ec-9537-4700-9f8e-fb7c7d93b216"},"vehicle_type_id":"4","last_reported":1693591671,"current_range_meters":0,"station_id":"ce4bgrp2rcd13ifvqc9g","pricing_plan_id":"free"},{"bike_id":"21236af1-a49a-45d6-9fb4-59015617b7d4","system_id":"levelo_inurba_marseille","lat":43.305368,"lon":5.367343,"is_reserved":false,"is_disabled":false,"rental_uris":{"android":"levelo://app?vid=21236af1-a49a-45d6-9fb4-59015617b7d4","ios":"levelo://app?vid=21236af1-a49a-45d6-9fb4-59015617b7d4"},"vehicle_type_id":"4","last_reported":1693591671,"current_range_meters":9200,"station_id":"ce4bgrp2rcd13ifvqc9g","pricing_plan_id":"free"},{"bike_id":"0fe14439-f5fb-4611-be00-cccecea170c2","system_id":"levelo_inurba_marseille","lat":43.305989,"lon":5.37225,"is_reserved":false,"is_disabled":false,"rental_uris":{"android":"levelo://app?vid=0fe14439-f5fb-4611-be00-cccecea170c2","ios":"levelo://app?vid=0fe14439-f5fb-4611-be00-cccecea170c2"},"vehicle_type_id":"4","last_reported":1693591671,"current_range_meters":28000,"station_id":"ce4bgqh2rcd13ifvqc4g","pricing_plan_id":"free"},{"bike_id":"952e109c-2e41-497e-a57c-0b1d260eeb73","system_id":"levelo_inurba_marseille","lat":43.305989,"lon":5.37225,"is_reserved":false,"is_disabled":false,"rental_uris":{"android":"levelo://app?vid=952e109c-2e41-497e-a57c-0b1d260eeb73","ios":"levelo://app?vid=952e109c-2e41-497e-a57c-0b1d260eeb73"},"vehicle_type_id":"4","last_reported":1693591671,"current_range_meters":30800,"station_id":"ce4bgqh2rcd13ifvqc4g","pricing_plan_id":"free"},{"bike_id":"478e5943-5bdf-46ce-b102-8c9dcf2b43b7","system_id":"levelo_inurba_marseille","lat":43.32033,"lon":5.37116,"is_reserved":false,"is_disabled":false,"rental_uris":{"android":"levelo://app?vid=478e5943-5bdf-46ce-b102-8c9dcf2b43b7","ios":"levelo://app?vid=478e5943-5bdf-46ce-b102-8c9dcf2b43b7"},"vehicle_type_id":"4","last_reported":1693591671,"current_range_meters":11600,"station_id":"","pricing_plan_id":"free"},{"bike_id":"b1637fee-f770-43c1-8fbb-27221feb94a8","system_id":"levelo_inurba_marseille","lat":43.30894,"lon":5.37707,"is_reserved":false,"is_disabled":false,"rental_uris":{"android":"levelo://app?vid=b1637fee-f770-43c1-8fbb-27221feb94a8","ios":"levelo://app?vid=b1637fee-f770-43c1-8fbb-27221feb94a8"},"vehicle_type_id":"4","last_reported":1693591671,"current_range_meters":20000,"station_id":"","pricing_plan_id":"free"},{"bike_id":"ce04bffc-032e-4965-8488-822ed3741e29","system_id":"levelo_inurba_marseille","lat":43.317075,"lon":5.377367,"is_reserved":false,"is_disabled":false,"rental_uris":{"android":"levelo://app?vid=ce04bffc-032e-4965-8488-822ed3741e29","ios":"levelo://app?vid=ce04bffc-032e-4965-8488-822ed3741e29"},"vehicle_type_id":"4","last_reported":1693591671,"current_range_meters":20400,"station_id":"ce4bgth2rcd13ifvqch0","pricing_plan_id":"free"},{"bike_id":"cd2430b5-d827-457f-a12a-f29afa394529","system_id":"levelo_inurba_marseille","lat":43.317075,"lon":5.377367,"is_reserved":false,"is_disabled":false,"rental_uris":{"android":"levelo://app?vid=cd2430b5-d827-457f-a12a-f29afa394529","ios":"levelo://app?vid=cd2430b5-d827-457f-a12a-f29afa394529"},"vehicle_type_id":"4","last_reported":1693591671,"current_range_meters":21200,"station_id":"ce4bgth2rcd13ifvqch0","pricing_plan_id":"free"},{"bike_id":"18631c9a-3749-48e0-9aa2-0539ad196b81","system_id":"levelo_inurba_marseille","lat":43.317075,"lon":5.377367,"is_reserved":false,"is_disabled":false,"rental_uris":{"android":"levelo://app?vid=18631c9a-3749-48e0-9aa2-0539ad196b81","ios":"levelo://app?vid=18631c9a-3749-48e0-9aa2-0539ad196b81"},"vehicle_type_id":"4","last_reported":1693591671,"current_range_meters":28800,"station_id":"ce4bgth2rcd13ifvqch0","pricing_plan_id":"free"},{"bike_id":"9dbfb0b2-a7cf-4105-b5e7-5cc01e87f170","system_id":"levelo_inurba_marseille","lat":43.315293,"lon":5.380349,"is_reserved":false,"is_disabled":false,"rental_uris":{"android":"levelo://app?vid=9dbfb0b2-a7cf-4105-b5e7-5cc01e87f170","ios":"levelo://app?vid=9dbfb0b2-a7cf-4105-b5e7-5cc01e87f170"},"vehicle_type_id":"4","last_reported":1693591671,"current_range_meters":29600,"station_id":"ce4bhsp2rcd13ifvqi50","pricing_plan_id":"free"},{"bike_id":"85d850f2-5d10-49d9-9efc-e7c2ebedc0c7","system_id":"levelo_inurba_marseille","lat":43.303046,"lon":5.368981,"is_reserved":false,"is_disabled":false,"rental_uris":{"android":"levelo://app?vid=85d850f2-5d10-49d9-9efc-e7c2ebedc0c7","ios":"levelo://app?vid=85d850f2-5d10-49d9-9efc-e7c2ebedc0c7"},"vehicle_type_id":"4","last_reported":1693591671,"current_range_meters":12000,"station_id":"ce4bgqh2rcd13ifvqc5g","pricing_plan_id":"free"},{"bike_id":"650acb05-3dba-4c08-88a9-a8161975cc56","system_id":"levelo_inurba_marseille","lat":43.303046,"lon":5.368981,"is_reserved":false,"is_disabled":false,"rental_uris":{"android":"levelo://app?vid=650acb05-3dba-4c08-88a9-a8161975cc56","ios":"levelo://app?vid=650acb05-3dba-4c08-88a9-a8161975cc56"},"vehicle_type_id":"4","last_reported":1693591671,"current_range_meters":22400,"station_id":"ce4bgqh2rcd13ifvqc5g","pricing_plan_id":"free"},{"bike_id":"43b568c4-0a54-4952-a936-5b6a254c6c37","system_id":"levelo_inurba_marseille","lat":43.303046,"lon":5.368981,"is_reserved":false,"is_disabled":false,"rental_uris":{"android":"levelo://app?vid=43b568c4-0a54-4952-a936-5b6a254c6c37","ios":"levelo://app?vid=43b568c4-0a54-4952-a936-5b6a254c6c37"},"vehicle_type_id":"4","last_reported":1693591671,"current_range_meters":17600,"station_id":"ce4bgqh2rcd13ifvqc5g","pricing_plan_id":"free"},{"bike_id":"2bd134b1-96de-42aa-95f7-3807397c6722","system_id":"levelo_inurba_marseille","lat":43.31537,"lon":5.38024,"is_reserved":false,"is_disabled":false,"rental_uris":{"android":"levelo://app?vid=2bd134b1-96de-42aa-95f7-3807397c6722","ios":"levelo://app?vid=2bd134b1-96de-42aa-95f7-3807397c6722"},"vehicle_type_id":"4","last_reported":1693591671,"current_range_meters":10800,"station_id":"ce4bhsp2rcd13ifvqi50","pricing_plan_id":"free"},{"bike_id":"4083ed69-f0b3-4029-80e3-bc66e057c0ae","system_id":"levelo_inurba_marseille","lat":43.315293,"lon":5.380349,"is_reserved":false,"is_disabled":false,"rental_uris":{"android":"levelo://app?vid=4083ed69-f0b3-4029-80e3-bc66e057c0ae","ios":"levelo://app?vid=4083ed69-f0b3-4029-80e3-bc66e057c0ae"},"vehicle_type_id":"4","last_reported":1693591671,"current_range_meters":18400,"station_id":"ce4bhsp2rcd13ifvqi50","pricing_plan_id":"free"},{"bike_id":"d912424f-a2e1-4c1f-93df-740ce513d6e8","system_id":"levelo_inurba_marseille","lat":43.30176,"lon":5.36589,"is_reserved":false,"is_disabled":false,"rental_uris":{"android":"levelo://app?vid=d912424f-a2e1-4c1f-93df-740ce513d6e8","ios":"levelo://app?vid=d912424f-a2e1-4c1f-93df-740ce513d6e8"},"vehicle_type_id":"4","last_reported":1693591671,"current_range_meters":6400,"station_id":"ce4bgrh2rcd13ifvqc8g","pricing_plan_id":"free"},{"bike_id":"865ae673-929e-4b86-bf2d-6280c3fc06ab","system_id":"levelo_inurba_marseille","lat":43.30797,"lon":5.38153,"is_reserved":false,"is_disabled":false,"rental_uris":{"android":"levelo://app?vid=865ae673-929e-4b86-bf2d-6280c3fc06ab","ios":"levelo://app?vid=865ae673-929e-4b86-bf2d-6280c3fc06ab"},"vehicle_type_id":"4","last_reported":1693591671,"current_range_meters":17600,"station_id":"ce4bgt12rcd13ifvqce0","pricing_plan_id":"free"},{"bike_id":"0dfee88a-bb99-444d-9941-6276b43f1018","system_id":"levelo_inurba_marseille","lat":43.304606,"lon":5.379026,"is_reserved":false,"is_disabled":false,"rental_uris":{"android":"levelo://app?vid=0dfee88a-bb99-444d-9941-6276b43f1018","ios":"levelo://app?vid=0dfee88a-bb99-444d-9941-6276b43f1018"},"vehicle_type_id":"4","last_reported":1693591671,"current_range_meters":19200,"station_id":"ce4bgup2rcd13ifvqcn0","pricing_plan_id":"free"},{"bike_id":"9bea51f9-ea43-4b31-8db7-dddbb2670e77","system_id":"levelo_inurba_marseille","lat":43.304606,"lon":5.379026,"is_reserved":false,"is_disabled":false,"rental_uris":{"android":"levelo://app?vid=9bea51f9-ea43-4b31-8db7-dddbb2670e77","ios":"levelo://app?vid=9bea51f9-ea43-4b31-8db7-dddbb2670e77"},"vehicle_type_id":"4","last_reported":1693591671,"current_range_meters":30800,"station_id":"ce4bgup2rcd13ifvqcn0","pricing_plan_id":"free"},{"bike_id":"483cd1a7-c898-4258-96c3-e9562d5d7e56","system_id":"levelo_inurba_marseille","lat":43.304606,"lon":5.379026,"is_reserved":false,"is_disabled":false,"rental_uris":{"android":"levelo://app?vid=483cd1a7-c898-4258-96c3-e9562d5d7e56","ios":"levelo://app?vid=483cd1a7-c898-4258-96c3-e9562d5d7e56"},"vehicle_type_id":"4","last_reported":1693591671,"current_range_meters":2000,"station_id":"ce4bgup2rcd13ifvqcn0","pricing_plan_id":"free"},{"bike_id":"db03de9c-812f-4d0d-9a49-126cdb6b9670","system_id":"levelo_inurba_marseille","lat":43.304606,"lon":5.379026,"is_reserved":false,"is_disabled":false,"rental_uris":{"android":"levelo://app?vid=db03de9c-812f-4d0d-9a49-126cdb6b9670","ios":"levelo://app?vid=db03de9c-812f-4d0d-9a49-126cdb6b9670"},"vehicle_type_id":"4","last_reported":1693591671,"current_range_meters":2800,"station_id":"ce4bgup2rcd13ifvqcn0","pricing_plan_id":"free"},{"bike_id":"3dd70f83-372e-4cae-a1ab-40b573826257","system_id":"levelo_inurba_marseille","lat":43.304606,"lon":5.379026,"is_reserved":false,"is_disabled":false,"rental_uris":{"android":"levelo://app?vid=3dd70f83-372e-4cae-a1ab-40b573826257","ios":"levelo://app?vid=3dd70f83-372e-4cae-a1ab-40b573826257"},"vehicle_type_id":"4","last_reported":1693591671,"current_range_meters":6800,"station_id":"ce4bgup2rcd13ifvqcn0","pricing_plan_id":"free"},{"bike_id":"04535898-e535-4f69-978e-b016dea4112b","system_id":"levelo_inurba_marseille","lat":43.304606,"lon":5.379026,"is_reserved":false,"is_disabled":false,"rental_uris":{"android":"levelo://app?vid=04535898-e535-4f69-978e-b016dea4112b","ios":"levelo://app?vid=04535898-e535-4f69-978e-b016dea4112b"},"vehicle_type_id":"4","last_reported":1693591671,"current_range_meters":3200,"station_id":"ce4bgup2rcd13ifvqcn0","pricing_plan_id":"free"},{"bike_id":"7d891d53-e774-459a-be39-5113941e461e","system_id":"levelo_inurba_marseille","lat":43.304606,"lon":5.379026,"is_reserved":false,"is_disabled":false,"rental_uris":{"android":"levelo://app?vid=7d891d53-e774-459a-be39-5113941e461e","ios":"levelo://app?vid=7d891d53-e774-459a-be39-5113941e461e"},"vehicle_type_id":"4","last_reported":1693591671,"current_range_meters":24400,"station_id":"ce4bgup2rcd13ifvqcn0","pricing_plan_id":"free"},{"bike_id":"b90a79a1-4c58-4264-a48f-07b8998afc65","system_id":"levelo_inurba_marseille","lat":43.304606,"lon":5.379026,"is_reserved":false,"is_disabled":false,"rental_uris":{"android":"levelo://app?vid=b90a79a1-4c58-4264-a48f-07b8998afc65","ios":"levelo://app?vid=b90a79a1-4c58-4264-a48f-07b8998afc65"},"vehicle_type_id":"4","last_reported":1693591671,"current_range_meters":24800,"station_id":"ce4bgup2rcd13ifvqcn0","pricing_plan_id":"free"},{"bike_id":"04236a68-30bb-43d7-a5bf-68f185a7367f","system_id":"levelo_inurba_marseille","lat":43.302784,"lon":5.377158,"is_reserved":false,"is_disabled":false,"rental_uris":{"android":"levelo://app?vid=04236a68-30bb-43d7-a5bf-68f185a7367f","ios":"levelo://app?vid=04236a68-30bb-43d7-a5bf-68f185a7367f"},"vehicle_type_id":"4","last_reported":1693591671,"current_range_meters":28400,"station_id":"ce4bguh2rcd13ifvqcj0","pricing_plan_id":"free"},{"bike_id":"e17561f6-e89e-4ba1-a33a-115af593bdc7","system_id":"levelo_inurba_marseille","lat":43.302784,"lon":5.377158,"is_reserved":false,"is_disabled":false,"rental_uris":{"android":"levelo://app?vid=e17561f6-e89e-4ba1-a33a-115af593bdc7","ios":"levelo://app?vid=e17561f6-e89e-4ba1-a33a-115af593bdc7"},"vehicle_type_id":"4","last_reported":1693591671,"current_range_meters":19200,"station_id":"ce4bguh2rcd13ifvqcj0","pricing_plan_id":"free"},{"bike_id":"d13e2fc0-5196-41d3-8d49-bf9314309b08","system_id":"levelo_inurba_marseille","lat":43.31989,"lon":5.38138,"is_reserved":false,"is_disabled":false,"rental_uris":{"android":"levelo://app?vid=d13e2fc0-5196-41d3-8d49-bf9314309b08","ios":"levelo://app?vid=d13e2fc0-5196-41d3-8d49-bf9314309b08"},"vehicle_type_id":"4","last_reported":1693591671,"current_range_meters":31200,"station_id":"ce4bhr12rcd13ifvqhpg","pricing_plan_id":"free"},{"bike_id":"1e0f211e-028a-46cb-9a0d-9899ac904750","system_id":"levelo_inurba_marseille","lat":43.319935,"lon":5.381699,"is_reserved":false,"is_disabled":false,"rental_uris":{"android":"levelo://app?vid=1e0f211e-028a-46cb-9a0d-9899ac904750","ios":"levelo://app?vid=1e0f211e-028a-46cb-9a0d-9899ac904750"},"vehicle_type_id":"4","last_reported":1693591671,"current_range_meters":29200,"station_id":"ce4bhr12rcd13ifvqhpg","pricing_plan_id":"free"},{"bike_id":"cc28612f-b913-4e07-81a1-e8a4df49747b","system_id":"levelo_inurba_marseille","lat":43.319935,"lon":5.381699,"is_reserved":false,"is_disabled":false,"rental_uris":{"android":"levelo://app?vid=cc28612f-b913-4e07-81a1-e8a4df49747b","ios":"levelo://app?vid=cc28612f-b913-4e07-81a1-e8a4df49747b"},"vehicle_type_id":"4","last_reported":1693591671,"current_range_meters":17200,"station_id":"ce4bhr12rcd13ifvqhpg","pricing_plan_id":"free"},{"bike_id":"c0aa06d4-ea1c-42f1-82e3-b4b98c641344","system_id":"levelo_inurba_marseille","lat":43.319935,"lon":5.381699,"is_reserved":false,"is_disabled":false,"rental_uris":{"android":"levelo://app?vid=c0aa06d4-ea1c-42f1-82e3-b4b98c641344","ios":"levelo://app?vid=c0aa06d4-ea1c-42f1-82e3-b4b98c641344"},"vehicle_type_id":"4","last_reported":1693591671,"current_range_meters":23600,"station_id":"ce4bhr12rcd13ifvqhpg","pricing_plan_id":"free"},{"bike_id":"3ce12e8d-2187-433e-90ea-725012bee47a","system_id":"levelo_inurba_marseille","lat":43.319935,"lon":5.381699,"is_reserved":false,"is_disabled":false,"rental_uris":{"android":"levelo://app?vid=3ce12e8d-2187-433e-90ea-725012bee47a","ios":"levelo://app?vid=3ce12e8d-2187-433e-90ea-725012bee47a"},"vehicle_type_id":"4","last_reported":1693591671,"current_range_meters":26800,"station_id":"ce4bhr12rcd13ifvqhpg","pricing_plan_id":"free"},{"bike_id":"77cc4a87-903a-4ac8-836f-05d771ccc1e4","system_id":"levelo_inurba_marseille","lat":43.31995,"lon":5.38153,"is_reserved":false,"is_disabled":false,"rental_uris":{"android":"levelo://app?vid=77cc4a87-903a-4ac8-836f-05d771ccc1e4","ios":"levelo://app?vid=77cc4a87-903a-4ac8-836f-05d771ccc1e4"},"vehicle_type_id":"4","last_reported":1693591671,"current_range_meters":27200,"station_id":"ce4bhr12rcd13ifvqhpg","pricing_plan_id":"free"},{"bike_id":"b6abff1c-f097-4297-b7f5-e905b62cd8ab","system_id":"levelo_inurba_marseille","lat":43.319935,"lon":5.381699,"is_reserved":false,"is_disabled":false,"rental_uris":{"android":"levelo://app?vid=b6abff1c-f097-4297-b7f5-e905b62cd8ab","ios":"levelo://app?vid=b6abff1c-f097-4297-b7f5-e905b62cd8ab"},"vehicle_type_id":"4","last_reported":1693591671,"current_range_meters":19200,"station_id":"ce4bhr12rcd13ifvqhpg","pricing_plan_id":"free"},{"bike_id":"dd413ac5-3b4c-4e50-9e44-9ae3af6e8752","system_id":"levelo_inurba_marseille","lat":43.32004,"lon":5.38156,"is_reserved":false,"is_disabled":false,"rental_uris":{"android":"levelo://app?vid=dd413ac5-3b4c-4e50-9e44-9ae3af6e8752","ios":"levelo://app?vid=dd413ac5-3b4c-4e50-9e44-9ae3af6e8752"},"vehicle_type_id":"4","last_reported":1693591671,"current_range_meters":26800,"station_id":"ce4bhr12rcd13ifvqhpg","pricing_plan_id":"free"},{"bike_id":"1f8d8dec-b1be-4367-9aae-64350cf84449","system_id":"levelo_inurba_marseille","lat":43.313571,"lon":5.384829,"is_reserved":false,"is_disabled":false,"rental_uris":{"android":"levelo://app?vid=1f8d8dec-b1be-4367-9aae-64350cf84449","ios":"levelo://app?vid=1f8d8dec-b1be-4367-9aae-64350cf84449"},"vehicle_type_id":"4","last_reported":1693591671,"current_range_meters":10400,"station_id":"ce4bgt92rcd13ifvqcf0","pricing_plan_id":"free"},{"bike_id":"04d94ebb-b105-44e5-b338-d9f33bd94996","system_id":"levelo_inurba_marseille","lat":43.313571,"lon":5.384829,"is_reserved":false,"is_disabled":false,"rental_uris":{"android":"levelo://app?vid=04d94ebb-b105-44e5-b338-d9f33bd94996","ios":"levelo://app?vid=04d94ebb-b105-44e5-b338-d9f33bd94996"},"vehicle_type_id":"4","last_reported":1693591671,"current_range_meters":17600,"station_id":"ce4bgt92rcd13ifvqcf0","pricing_plan_id":"free"},{"bike_id":"4ae58d25-f777-459d-8748-105368245b55","system_id":"levelo_inurba_marseille","lat":43.313571,"lon":5.384829,"is_reserved":false,"is_disabled":false,"rental_uris":{"android":"levelo://app?vid=4ae58d25-f777-459d-8748-105368245b55","ios":"levelo://app?vid=4ae58d25-f777-459d-8748-105368245b55"},"vehicle_type_id":"4","last_reported":1693591671,"current_range_meters":5600,"station_id":"ce4bgt92rcd13ifvqcf0","pricing_plan_id":"free"},{"bike_id":"dcc24acb-344d-4e2f-aaa3-d67124d2dc66","system_id":"levelo_inurba_marseille","lat":43.29938,"lon":5.36546,"is_reserved":false,"is_disabled":false,"rental_uris":{"android":"levelo://app?vid=dcc24acb-344d-4e2f-aaa3-d67124d2dc66","ios":"levelo://app?vid=dcc24acb-344d-4e2f-aaa3-d67124d2dc66"},"vehicle_type_id":"4","last_reported":1693591671,"current_range_meters":26400,"station_id":"ce4bgm92rcd13ifvqbr0","pricing_plan_id":"free"},{"bike_id":"b1ba111a-d4c8-4fae-9e2a-743f293b9fc3","system_id":"levelo_inurba_marseille","lat":43.29935,"lon":5.36548,"is_reserved":false,"is_disabled":false,"rental_uris":{"android":"levelo://app?vid=b1ba111a-d4c8-4fae-9e2a-743f293b9fc3","ios":"levelo://app?vid=b1ba111a-d4c8-4fae-9e2a-743f293b9fc3"},"vehicle_type_id":"4","last_reported":1693591671,"current_range_meters":0,"station_id":"ce4bgm92rcd13ifvqbr0","pricing_plan_id":"free"},{"bike_id":"5baea0ff-a5f2-4b39-82a0-05eae2e5754f","system_id":"levelo_inurba_marseille","lat":43.29933,"lon":5.36546,"is_reserved":false,"is_disabled":false,"rental_uris":{"android":"levelo://app?vid=5baea0ff-a5f2-4b39-82a0-05eae2e5754f","ios":"levelo://app?vid=5baea0ff-a5f2-4b39-82a0-05eae2e5754f"},"vehicle_type_id":"4","last_reported":1693591671,"current_range_meters":15200,"station_id":"ce4bgm92rcd13ifvqbr0","pricing_plan_id":"free"},{"bike_id":"9333af82-5204-4e53-b520-946ea0f7380c","system_id":"levelo_inurba_marseille","lat":43.29932,"lon":5.36548,"is_reserved":false,"is_disabled":false,"rental_uris":{"android":"levelo://app?vid=9333af82-5204-4e53-b520-946ea0f7380c","ios":"levelo://app?vid=9333af82-5204-4e53-b520-946ea0f7380c"},"vehicle_type_id":"4","last_reported":1693591671,"current_range_meters":27200,"station_id":"ce4bgm92rcd13ifvqbr0","pricing_plan_id":"free"},{"bike_id":"3e0b75ee-d432-4718-95e1-78dd8bd6c13e","system_id":"levelo_inurba_marseille","lat":43.299731,"lon":5.371796,"is_reserved":false,"is_disabled":false,"rental_uris":{"android":"levelo://app?vid=3e0b75ee-d432-4718-95e1-78dd8bd6c13e","ios":"levelo://app?vid=3e0b75ee-d432-4718-95e1-78dd8bd6c13e"},"vehicle_type_id":"4","last_reported":1693591671,"current_range_meters":0,"station_id":"ce4bgr92rcd13ifvqc7g","pricing_plan_id":"free"},{"bike_id":"391466ff-41f1-4f60-b9a6-5c5013c3bb71","system_id":"levelo_inurba_marseille","lat":43.29927,"lon":5.36551,"is_reserved":false,"is_disabled":false,"rental_uris":{"android":"levelo://app?vid=391466ff-41f1-4f60-b9a6-5c5013c3bb71","ios":"levelo://app?vid=391466ff-41f1-4f60-b9a6-5c5013c3bb71"},"vehicle_type_id":"4","last_reported":1693591671,"current_range_meters":2800,"station_id":"ce4bgm92rcd13ifvqbr0","pricing_plan_id":"free"},{"bike_id":"421a4452-4719-4d30-b974-62d9a8509ad3","system_id":"levelo_inurba_marseille","lat":43.29849,"lon":5.36283,"is_reserved":false,"is_disabled":false,"rental_uris":{"android":"levelo://app?vid=421a4452-4719-4d30-b974-62d9a8509ad3","ios":"levelo://app?vid=421a4452-4719-4d30-b974-62d9a8509ad3"},"vehicle_type_id":"4","last_reported":1693591671,"current_range_meters":0,"station_id":"ce4bgpp2rcd13ifvqc3g","pricing_plan_id":"free"},{"bike_id":"f7bdb664-a550-4de8-8162-e63cbb2478fb","system_id":"levelo_inurba_marseille","lat":43.298433,"lon":5.362774,"is_reserved":false,"is_disabled":false,"rental_uris":{"android":"levelo://app?vid=f7bdb664-a550-4de8-8162-e63cbb2478fb","ios":"levelo://app?vid=f7bdb664-a550-4de8-8162-e63cbb2478fb"},"vehicle_type_id":"4","last_reported":1693591671,"current_range_meters":9600,"station_id":"ce4bgpp2rcd13ifvqc3g","pricing_plan_id":"free"},{"bike_id":"24cb9d96-5ead-4caf-808e-5a5facd8c971","system_id":"levelo_inurba_marseille","lat":43.298433,"lon":5.362774,"is_reserved":false,"is_disabled":false,"rental_uris":{"android":"levelo://app?vid=24cb9d96-5ead-4caf-808e-5a5facd8c971","ios":"levelo://app?vid=24cb9d96-5ead-4caf-808e-5a5facd8c971"},"vehicle_type_id":"4","last_reported":1693591671,"current_range_meters":12800,"station_id":"ce4bgpp2rcd13ifvqc3g","pricing_plan_id":"free"},{"bike_id":"8af7303c-9dc3-4932-997d-4f40d83c944d","system_id":"levelo_inurba_marseille","lat":43.298433,"lon":5.362774,"is_reserved":false,"is_disabled":false,"rental_uris":{"android":"levelo://app?vid=8af7303c-9dc3-4932-997d-4f40d83c944d","ios":"levelo://app?vid=8af7303c-9dc3-4932-997d-4f40d83c944d"},"vehicle_type_id":"4","last_reported":1693591671,"current_range_meters":11200,"station_id":"ce4bgpp2rcd13ifvqc3g","pricing_plan_id":"free"},{"bike_id":"a9c94d30-67b4-44e0-9541-c929e52d8010","system_id":"levelo_inurba_marseille","lat":43.298433,"lon":5.362774,"is_reserved":false,"is_disabled":false,"rental_uris":{"android":"levelo://app?vid=a9c94d30-67b4-44e0-9541-c929e52d8010","ios":"levelo://app?vid=a9c94d30-67b4-44e0-9541-c929e52d8010"},"vehicle_type_id":"4","last_reported":1693591671,"current_range_meters":20400,"station_id":"ce4bgpp2rcd13ifvqc3g","pricing_plan_id":"free"},{"bike_id":"e92ac027-57fa-4dd1-b7a6-45d018dbce1a","system_id":"levelo_inurba_marseille","lat":43.299243,"lon":5.37481,"is_reserved":false,"is_disabled":false,"rental_uris":{"android":"levelo://app?vid=e92ac027-57fa-4dd1-b7a6-45d018dbce1a","ios":"levelo://app?vid=e92ac027-57fa-4dd1-b7a6-45d018dbce1a"},"vehicle_type_id":"4","last_reported":1693591671,"current_range_meters":16800,"station_id":"ce4bgjh2rcd13ifvqbg0","pricing_plan_id":"free"},{"bike_id":"b2e8338d-3ca9-42f1-ab8c-a3b85a421810","system_id":"levelo_inurba_marseille","lat":43.311722,"lon":5.387247,"is_reserved":false,"is_disabled":false,"rental_uris":{"android":"levelo://app?vid=b2e8338d-3ca9-42f1-ab8c-a3b85a421810","ios":"levelo://app?vid=b2e8338d-3ca9-42f1-ab8c-a3b85a421810"},"vehicle_type_id":"4","last_reported":1693591671,"current_range_meters":21600,"station_id":"ce4bgv12rcd13ifvqcp0","pricing_plan_id":"free"},{"bike_id":"e0526c2a-b8b4-4c55-859a-528d7cd23abc","system_id":"levelo_inurba_marseille","lat":43.311722,"lon":5.387247,"is_reserved":false,"is_disabled":false,"rental_uris":{"android":"levelo://app?vid=e0526c2a-b8b4-4c55-859a-528d7cd23abc","ios":"levelo://app?vid=e0526c2a-b8b4-4c55-859a-528d7cd23abc"},"vehicle_type_id":"4","last_reported":1693591671,"current_range_meters":800,"station_id":"ce4bgv12rcd13ifvqcp0","pricing_plan_id":"free"},{"bike_id":"57a58b3d-2892-4327-a546-2b893862691b","system_id":"levelo_inurba_marseille","lat":43.298433,"lon":5.362774,"is_reserved":false,"is_disabled":false,"rental_uris":{"android":"levelo://app?vid=57a58b3d-2892-4327-a546-2b893862691b","ios":"levelo://app?vid=57a58b3d-2892-4327-a546-2b893862691b"},"vehicle_type_id":"4","last_reported":1693591671,"current_range_meters":7600,"station_id":"ce4bgpp2rcd13ifvqc3g","pricing_plan_id":"free"},{"bike_id":"836ee4b7-ecc3-4a0d-8603-b32b6febec90","system_id":"levelo_inurba_marseille","lat":43.311722,"lon":5.387247,"is_reserved":false,"is_disabled":false,"rental_uris":{"android":"levelo://app?vid=836ee4b7-ecc3-4a0d-8603-b32b6febec90","ios":"levelo://app?vid=836ee4b7-ecc3-4a0d-8603-b32b6febec90"},"vehicle_type_id":"4","last_reported":1693591671,"current_range_meters":3200,"station_id":"ce4bgv12rcd13ifvqcp0","pricing_plan_id":"free"},{"bike_id":"2f9e2def-2173-4eb4-a460-9a385f59debe","system_id":"levelo_inurba_marseille","lat":43.299243,"lon":5.37481,"is_reserved":false,"is_disabled":false,"rental_uris":{"android":"levelo://app?vid=2f9e2def-2173-4eb4-a460-9a385f59debe","ios":"levelo://app?vid=2f9e2def-2173-4eb4-a460-9a385f59debe"},"vehicle_type_id":"4","last_reported":1693591671,"current_range_meters":31600,"station_id":"ce4bgjh2rcd13ifvqbg0","pricing_plan_id":"free"},{"bike_id":"924d6452-f7f7-4baa-af9a-49926af70474","system_id":"levelo_inurba_marseille","lat":43.297794,"lon":5.370888,"is_reserved":false,"is_disabled":false,"rental_uris":{"android":"levelo://app?vid=924d6452-f7f7-4baa-af9a-49926af70474","ios":"levelo://app?vid=924d6452-f7f7-4baa-af9a-49926af70474"},"vehicle_type_id":"4","last_reported":1693591671,"current_range_meters":28400,"station_id":"ce4bgop2rcd13ifvqc1g","pricing_plan_id":"free"},{"bike_id":"8143ebd5-c5c5-467f-a353-1c0066f90341","system_id":"levelo_inurba_marseille","lat":43.29779,"lon":5.3709,"is_reserved":false,"is_disabled":false,"rental_uris":{"android":"levelo://app?vid=8143ebd5-c5c5-467f-a353-1c0066f90341","ios":"levelo://app?vid=8143ebd5-c5c5-467f-a353-1c0066f90341"},"vehicle_type_id":"4","last_reported":1693591671,"current_range_meters":31200,"station_id":"ce4bgop2rcd13ifvqc1g","pricing_plan_id":"free"},{"bike_id":"88c4a93e-f84a-4492-9ca8-7095f26ad20a","system_id":"levelo_inurba_marseille","lat":43.32283,"lon":5.38265,"is_reserved":false,"is_disabled":false,"rental_uris":{"android":"levelo://app?vid=88c4a93e-f84a-4492-9ca8-7095f26ad20a","ios":"levelo://app?vid=88c4a93e-f84a-4492-9ca8-7095f26ad20a"},"vehicle_type_id":"4","last_reported":1693591671,"current_range_meters":14400,"station_id":"ce4bhr12rcd13ifvqhqg","pricing_plan_id":"free"},{"bike_id":"bc8f34a2-0447-439b-8108-9a4250aef71a","system_id":"levelo_inurba_marseille","lat":43.322872,"lon":5.382756,"is_reserved":false,"is_disabled":false,"rental_uris":{"android":"levelo://app?vid=bc8f34a2-0447-439b-8108-9a4250aef71a","ios":"levelo://app?vid=bc8f34a2-0447-439b-8108-9a4250aef71a"},"vehicle_type_id":"4","last_reported":1693591671,"current_range_meters":30000,"station_id":"ce4bhr12rcd13ifvqhqg","pricing_plan_id":"free"},{"bike_id":"3d2a691c-74eb-4958-aebd-9ebc95f3d8a8","system_id":"levelo_inurba_marseille","lat":43.32286,"lon":5.38272,"is_reserved":false,"is_disabled":false,"rental_uris":{"android":"levelo://app?vid=3d2a691c-74eb-4958-aebd-9ebc95f3d8a8","ios":"levelo://app?vid=3d2a691c-74eb-4958-aebd-9ebc95f3d8a8"},"vehicle_type_id":"4","last_reported":1693591671,"current_range_meters":14000,"station_id":"ce4bhr12rcd13ifvqhqg","pricing_plan_id":"free"},{"bike_id":"c29114e8-dc25-4be3-832f-1611beb9061c","system_id":"levelo_inurba_marseille","lat":43.32288,"lon":5.38271,"is_reserved":false,"is_disabled":false,"rental_uris":{"android":"levelo://app?vid=c29114e8-dc25-4be3-832f-1611beb9061c","ios":"levelo://app?vid=c29114e8-dc25-4be3-832f-1611beb9061c"},"vehicle_type_id":"4","last_reported":1693591671,"current_range_meters":26400,"station_id":"ce4bhr12rcd13ifvqhqg","pricing_plan_id":"free"},{"bike_id":"05d41f66-0b8a-4dd9-8e9e-34536d67860b","system_id":"levelo_inurba_marseille","lat":43.32287,"lon":5.38274,"is_reserved":false,"is_disabled":false,"rental_uris":{"android":"levelo://app?vid=05d41f66-0b8a-4dd9-8e9e-34536d67860b","ios":"levelo://app?vid=05d41f66-0b8a-4dd9-8e9e-34536d67860b"},"vehicle_type_id":"4","last_reported":1693591671,"current_range_meters":29600,"station_id":"ce4bhr12rcd13ifvqhqg","pricing_plan_id":"free"},{"bike_id":"509ae45e-3683-4f5e-b0e3-062a9c43c9bf","system_id":"levelo_inurba_marseille","lat":43.3283,"lon":5.3668,"is_reserved":false,"is_disabled":false,"rental_uris":{"android":"levelo://app?vid=509ae45e-3683-4f5e-b0e3-062a9c43c9bf","ios":"levelo://app?vid=509ae45e-3683-4f5e-b0e3-062a9c43c9bf"},"vehicle_type_id":"4","last_reported":1693591671,"current_range_meters":2400,"station_id":"ce4bhs92rcd13ifvqi0g","pricing_plan_id":"free"},{"bike_id":"bd0bd295-6ecc-40c4-a4d0-89f645593756","system_id":"levelo_inurba_marseille","lat":43.297163,"lon":5.365866,"is_reserved":false,"is_disabled":false,"rental_uris":{"android":"levelo://app?vid=bd0bd295-6ecc-40c4-a4d0-89f645593756","ios":"levelo://app?vid=bd0bd295-6ecc-40c4-a4d0-89f645593756"},"vehicle_type_id":"4","last_reported":1693591671,"current_range_meters":21200,"station_id":"ce4bgn12rcd13ifvqbt0","pricing_plan_id":"free"},{"bike_id":"dd789220-e7b5-42c1-b9dc-dc4243148021","system_id":"levelo_inurba_marseille","lat":43.297163,"lon":5.365866,"is_reserved":false,"is_disabled":false,"rental_uris":{"android":"levelo://app?vid=dd789220-e7b5-42c1-b9dc-dc4243148021","ios":"levelo://app?vid=dd789220-e7b5-42c1-b9dc-dc4243148021"},"vehicle_type_id":"4","last_reported":1693591671,"current_range_meters":31200,"station_id":"ce4bgn12rcd13ifvqbt0","pricing_plan_id":"free"},{"bike_id":"06ca0788-b293-460b-8895-d61bb1299aa4","system_id":"levelo_inurba_marseille","lat":43.317557,"lon":5.390173,"is_reserved":false,"is_disabled":false,"rental_uris":{"android":"levelo://app?vid=06ca0788-b293-460b-8895-d61bb1299aa4","ios":"levelo://app?vid=06ca0788-b293-460b-8895-d61bb1299aa4"},"vehicle_type_id":"4","last_reported":1693591671,"current_range_meters":24400,"station_id":"ce4bhqp2rcd13ifvqhng","pricing_plan_id":"free"},{"bike_id":"53a82922-5278-49ec-b298-7accdb491d79","system_id":"levelo_inurba_marseille","lat":43.2968,"lon":5.37291,"is_reserved":false,"is_disabled":false,"rental_uris":{"android":"levelo://app?vid=53a82922-5278-49ec-b298-7accdb491d79","ios":"levelo://app?vid=53a82922-5278-49ec-b298-7accdb491d79"},"vehicle_type_id":"4","last_reported":1693591671,"current_range_meters":18000,"station_id":"ce4bgk12rcd13ifvqbj0","pricing_plan_id":"free"},{"bike_id":"10d32cd1-8307-45ca-ad3e-2653e5514234","system_id":"levelo_inurba_marseille","lat":43.2964,"lon":5.37123,"is_reserved":false,"is_disabled":false,"rental_uris":{"android":"levelo://app?vid=10d32cd1-8307-45ca-ad3e-2653e5514234","ios":"levelo://app?vid=10d32cd1-8307-45ca-ad3e-2653e5514234"},"vehicle_type_id":"4","last_reported":1693591671,"current_range_meters":0,"station_id":"","pricing_plan_id":"free"},{"bike_id":"d3139180-8ba9-4c91-b6e4-8baae3c22113","system_id":"levelo_inurba_marseille","lat":43.296131,"lon":5.370773,"is_reserved":false,"is_disabled":false,"rental_uris":{"android":"levelo://app?vid=d3139180-8ba9-4c91-b6e4-8baae3c22113","ios":"levelo://app?vid=d3139180-8ba9-4c91-b6e4-8baae3c22113"},"vehicle_type_id":"4","last_reported":1693591671,"current_range_meters":31600,"station_id":"ce4bgnh2rcd13ifvqc0g","pricing_plan_id":"free"},{"bike_id":"65d934c8-ea94-404c-b991-a012f59c0b64","system_id":"levelo_inurba_marseille","lat":43.29625,"lon":5.37163,"is_reserved":false,"is_disabled":false,"rental_uris":{"android":"levelo://app?vid=65d934c8-ea94-404c-b991-a012f59c0b64","ios":"levelo://app?vid=65d934c8-ea94-404c-b991-a012f59c0b64"},"vehicle_type_id":"4","last_reported":1693591671,"current_range_meters":26400,"station_id":"","pricing_plan_id":"free"},{"bike_id":"126d58b0-300e-4361-9984-47bfd67e9392","system_id":"levelo_inurba_marseille","lat":43.299028,"lon":5.381509,"is_reserved":false,"is_disabled":false,"rental_uris":{"android":"levelo://app?vid=126d58b0-300e-4361-9984-47bfd67e9392","ios":"levelo://app?vid=126d58b0-300e-4361-9984-47bfd67e9392"},"vehicle_type_id":"4","last_reported":1693591671,"current_range_meters":2800,"station_id":"ce4bgj12rcd13ifvqbc0","pricing_plan_id":"free"},{"bike_id":"60bace38-3281-4fe5-9843-1e8e25d12b5b","system_id":"levelo_inurba_marseille","lat":43.299028,"lon":5.381509,"is_reserved":false,"is_disabled":false,"rental_uris":{"android":"levelo://app?vid=60bace38-3281-4fe5-9843-1e8e25d12b5b","ios":"levelo://app?vid=60bace38-3281-4fe5-9843-1e8e25d12b5b"},"vehicle_type_id":"4","last_reported":1693591671,"current_range_meters":7600,"station_id":"ce4bgj12rcd13ifvqbc0","pricing_plan_id":"free"},{"bike_id":"ded5d898-cfff-4883-a857-b3afbb9cd2f6","system_id":"levelo_inurba_marseille","lat":43.299028,"lon":5.381509,"is_reserved":false,"is_disabled":false,"rental_uris":{"android":"levelo://app?vid=ded5d898-cfff-4883-a857-b3afbb9cd2f6","ios":"levelo://app?vid=ded5d898-cfff-4883-a857-b3afbb9cd2f6"},"vehicle_type_id":"4","last_reported":1693591671,"current_range_meters":3200,"station_id":"ce4bgj12rcd13ifvqbc0","pricing_plan_id":"free"},{"bike_id":"88dbf378-ec90-4519-a400-42ff6fe9ab28","system_id":"levelo_inurba_marseille","lat":43.309589,"lon":5.390258,"is_reserved":false,"is_disabled":false,"rental_uris":{"android":"levelo://app?vid=88dbf378-ec90-4519-a400-42ff6fe9ab28","ios":"levelo://app?vid=88dbf378-ec90-4519-a400-42ff6fe9ab28"},"vehicle_type_id":"4","last_reported":1693591671,"current_range_meters":0,"station_id":"ce4bgup2rcd13ifvqco0","pricing_plan_id":"free"},{"bike_id":"bd8ee5b0-8919-468c-b648-85a911512627","system_id":"levelo_inurba_marseille","lat":43.309589,"lon":5.390258,"is_reserved":false,"is_disabled":false,"rental_uris":{"android":"levelo://app?vid=bd8ee5b0-8919-468c-b648-85a911512627","ios":"levelo://app?vid=bd8ee5b0-8919-468c-b648-85a911512627"},"vehicle_type_id":"4","last_reported":1693591671,"current_range_meters":22800,"station_id":"ce4bgup2rcd13ifvqco0","pricing_plan_id":"free"},{"bike_id":"f6ea6111-1c1d-4406-bfba-1a8e4ee66ba9","system_id":"levelo_inurba_marseille","lat":43.299028,"lon":5.381509,"is_reserved":false,"is_disabled":false,"rental_uris":{"android":"levelo://app?vid=f6ea6111-1c1d-4406-bfba-1a8e4ee66ba9","ios":"levelo://app?vid=f6ea6111-1c1d-4406-bfba-1a8e4ee66ba9"},"vehicle_type_id":"4","last_reported":1693591671,"current_range_meters":800,"station_id":"ce4bgj12rcd13ifvqbc0","pricing_plan_id":"free"},{"bike_id":"ca425522-56a2-4cc8-8f07-5e7e4c0b5846","system_id":"levelo_inurba_marseille","lat":43.309572,"lon":5.390313,"is_reserved":false,"is_disabled":false,"rental_uris":{"android":"levelo://app?vid=ca425522-56a2-4cc8-8f07-5e7e4c0b5846","ios":"levelo://app?vid=ca425522-56a2-4cc8-8f07-5e7e4c0b5846"},"vehicle_type_id":"4","last_reported":1693591671,"current_range_meters":16400,"station_id":"ce4bgup2rcd13ifvqco0","pricing_plan_id":"free"},{"bike_id":"9ee7b5b4-9d8d-42ac-b8f4-92526e4653aa","system_id":"levelo_inurba_marseille","lat":43.30953,"lon":5.39032,"is_reserved":false,"is_disabled":false,"rental_uris":{"android":"levelo://app?vid=9ee7b5b4-9d8d-42ac-b8f4-92526e4653aa","ios":"levelo://app?vid=9ee7b5b4-9d8d-42ac-b8f4-92526e4653aa"},"vehicle_type_id":"4","last_reported":1693591671,"current_range_meters":31200,"station_id":"ce4bgup2rcd13ifvqco0","pricing_plan_id":"free"},{"bike_id":"7d481d78-7da7-4cd0-9141-1ef971372069","system_id":"levelo_inurba_marseille","lat":43.309589,"lon":5.390258,"is_reserved":false,"is_disabled":false,"rental_uris":{"android":"levelo://app?vid=7d481d78-7da7-4cd0-9141-1ef971372069","ios":"levelo://app?vid=7d481d78-7da7-4cd0-9141-1ef971372069"},"vehicle_type_id":"4","last_reported":1693591671,"current_range_meters":14800,"station_id":"ce4bgup2rcd13ifvqco0","pricing_plan_id":"free"},{"bike_id":"74603b1d-5a06-445b-bae1-cbfb427aa90e","system_id":"levelo_inurba_marseille","lat":43.309589,"lon":5.390258,"is_reserved":false,"is_disabled":false,"rental_uris":{"android":"levelo://app?vid=74603b1d-5a06-445b-bae1-cbfb427aa90e","ios":"levelo://app?vid=74603b1d-5a06-445b-bae1-cbfb427aa90e"},"vehicle_type_id":"4","last_reported":1693591671,"current_range_meters":31600,"station_id":"ce4bgup2rcd13ifvqco0","pricing_plan_id":"free"},{"bike_id":"588ba0bb-cd97-4057-a1a6-440ce5c30f14","system_id":"levelo_inurba_marseille","lat":43.309589,"lon":5.390258,"is_reserved":false,"is_disabled":false,"rental_uris":{"android":"levelo://app?vid=588ba0bb-cd97-4057-a1a6-440ce5c30f14","ios":"levelo://app?vid=588ba0bb-cd97-4057-a1a6-440ce5c30f14"},"vehicle_type_id":"4","last_reported":1693591671,"current_range_meters":17600,"station_id":"ce4bgup2rcd13ifvqco0","pricing_plan_id":"free"},{"bike_id":"af51b089-c834-4333-a5ab-6860ea370ca5","system_id":"levelo_inurba_marseille","lat":43.309589,"lon":5.390258,"is_reserved":false,"is_disabled":false,"rental_uris":{"android":"levelo://app?vid=af51b089-c834-4333-a5ab-6860ea370ca5","ios":"levelo://app?vid=af51b089-c834-4333-a5ab-6860ea370ca5"},"vehicle_type_id":"4","last_reported":1693591671,"current_range_meters":8800,"station_id":"ce4bgup2rcd13ifvqco0","pricing_plan_id":"free"},{"bike_id":"2c93ce6f-c5e1-4ec9-9941-ebb7469bb8f2","system_id":"levelo_inurba_marseille","lat":43.31763,"lon":5.39005,"is_reserved":false,"is_disabled":false,"rental_uris":{"android":"levelo://app?vid=2c93ce6f-c5e1-4ec9-9941-ebb7469bb8f2","ios":"levelo://app?vid=2c93ce6f-c5e1-4ec9-9941-ebb7469bb8f2"},"vehicle_type_id":"4","last_reported":1693591671,"current_range_meters":19200,"station_id":"ce4bhqp2rcd13ifvqhng","pricing_plan_id":"free"},{"bike_id":"1b5b4211-83a3-483e-9cdf-2b196fba5adb","system_id":"levelo_inurba_marseille","lat":43.317557,"lon":5.390173,"is_reserved":false,"is_disabled":false,"rental_uris":{"android":"levelo://app?vid=1b5b4211-83a3-483e-9cdf-2b196fba5adb","ios":"levelo://app?vid=1b5b4211-83a3-483e-9cdf-2b196fba5adb"},"vehicle_type_id":"4","last_reported":1693591671,"current_range_meters":18800,"station_id":"ce4bhqp2rcd13ifvqhng","pricing_plan_id":"free"},{"bike_id":"60c26bea-b6ea-44c2-8838-59b00d1bf8b2","system_id":"levelo_inurba_marseille","lat":43.317557,"lon":5.390173,"is_reserved":false,"is_disabled":false,"rental_uris":{"android":"levelo://app?vid=60c26bea-b6ea-44c2-8838-59b00d1bf8b2","ios":"levelo://app?vid=60c26bea-b6ea-44c2-8838-59b00d1bf8b2"},"vehicle_type_id":"4","last_reported":1693591671,"current_range_meters":31200,"station_id":"ce4bhqp2rcd13ifvqhng","pricing_plan_id":"free"},{"bike_id":"88d9d596-f438-4684-ae9f-d2d3fa8d2d69","system_id":"levelo_inurba_marseille","lat":43.317557,"lon":5.390173,"is_reserved":false,"is_disabled":false,"rental_uris":{"android":"levelo://app?vid=88d9d596-f438-4684-ae9f-d2d3fa8d2d69","ios":"levelo://app?vid=88d9d596-f438-4684-ae9f-d2d3fa8d2d69"},"vehicle_type_id":"4","last_reported":1693591671,"current_range_meters":28800,"station_id":"ce4bhqp2rcd13ifvqhng","pricing_plan_id":"free"},{"bike_id":"93a3695c-51b1-411c-a1c4-cdb271a31bf2","system_id":"levelo_inurba_marseille","lat":43.31757,"lon":5.3902,"is_reserved":false,"is_disabled":false,"rental_uris":{"android":"levelo://app?vid=93a3695c-51b1-411c-a1c4-cdb271a31bf2","ios":"levelo://app?vid=93a3695c-51b1-411c-a1c4-cdb271a31bf2"},"vehicle_type_id":"4","last_reported":1693591671,"current_range_meters":8000,"station_id":"ce4bhqp2rcd13ifvqhng","pricing_plan_id":"free"},{"bike_id":"86d37462-6f2c-4ee1-b5e1-16f3e9285866","system_id":"levelo_inurba_marseille","lat":43.31755,"lon":5.39023,"is_reserved":false,"is_disabled":false,"rental_uris":{"android":"levelo://app?vid=86d37462-6f2c-4ee1-b5e1-16f3e9285866","ios":"levelo://app?vid=86d37462-6f2c-4ee1-b5e1-16f3e9285866"},"vehicle_type_id":"4","last_reported":1693591671,"current_range_meters":19600,"station_id":"ce4bhqp2rcd13ifvqhng","pricing_plan_id":"free"},{"bike_id":"2d38d843-9501-4a8b-8d1e-e53e054245cc","system_id":"levelo_inurba_marseille","lat":43.29702,"lon":5.37811,"is_reserved":false,"is_disabled":false,"rental_uris":{"android":"levelo://app?vid=2d38d843-9501-4a8b-8d1e-e53e054245cc","ios":"levelo://app?vid=2d38d843-9501-4a8b-8d1e-e53e054245cc"},"vehicle_type_id":"4","last_reported":1693591671,"current_range_meters":31200,"station_id":"","pricing_plan_id":"free"},{"bike_id":"dfdd69e0-3e27-4e8a-ac92-8ca629d30a05","system_id":"levelo_inurba_marseille","lat":43.298037,"lon":5.381066,"is_reserved":false,"is_disabled":false,"rental_uris":{"android":"levelo://app?vid=dfdd69e0-3e27-4e8a-ac92-8ca629d30a05","ios":"levelo://app?vid=dfdd69e0-3e27-4e8a-ac92-8ca629d30a05"},"vehicle_type_id":"4","last_reported":1693591671,"current_range_meters":19600,"station_id":"ce4bgip2rcd13ifvqbb0","pricing_plan_id":"free"},{"bike_id":"6b7d11fd-b288-4d66-9c78-1a953ed8de6c","system_id":"levelo_inurba_marseille","lat":43.298037,"lon":5.381066,"is_reserved":false,"is_disabled":false,"rental_uris":{"android":"levelo://app?vid=6b7d11fd-b288-4d66-9c78-1a953ed8de6c","ios":"levelo://app?vid=6b7d11fd-b288-4d66-9c78-1a953ed8de6c"},"vehicle_type_id":"4","last_reported":1693591671,"current_range_meters":2400,"station_id":"ce4bgip2rcd13ifvqbb0","pricing_plan_id":"free"},{"bike_id":"eba149d4-0948-4f01-8389-25ad62756d5a","system_id":"levelo_inurba_marseille","lat":43.298037,"lon":5.381066,"is_reserved":false,"is_disabled":false,"rental_uris":{"android":"levelo://app?vid=eba149d4-0948-4f01-8389-25ad62756d5a","ios":"levelo://app?vid=eba149d4-0948-4f01-8389-25ad62756d5a"},"vehicle_type_id":"4","last_reported":1693591671,"current_range_meters":18400,"station_id":"ce4bgip2rcd13ifvqbb0","pricing_plan_id":"free"},{"bike_id":"cb22f326-0c91-4af2-945b-0560c3f9070c","system_id":"levelo_inurba_marseille","lat":43.29788,"lon":5.38102,"is_reserved":false,"is_disabled":false,"rental_uris":{"android":"levelo://app?vid=cb22f326-0c91-4af2-945b-0560c3f9070c","ios":"levelo://app?vid=cb22f326-0c91-4af2-945b-0560c3f9070c"},"vehicle_type_id":"4","last_reported":1693591671,"current_range_meters":21600,"station_id":"ce4bgip2rcd13ifvqbb0","pricing_plan_id":"free"},{"bike_id":"27bb4ac8-e1fc-4db3-bbc8-bd60b721af27","system_id":"levelo_inurba_marseille","lat":43.295748,"lon":5.37522,"is_reserved":false,"is_disabled":false,"rental_uris":{"android":"levelo://app?vid=27bb4ac8-e1fc-4db3-bbc8-bd60b721af27","ios":"levelo://app?vid=27bb4ac8-e1fc-4db3-bbc8-bd60b721af27"},"vehicle_type_id":"4","last_reported":1693591671,"current_range_meters":24000,"station_id":"ce4bgh92rcd13ifvqb50","pricing_plan_id":"free"},{"bike_id":"d08e0d1e-c48b-4115-b6d4-a477a61de450","system_id":"levelo_inurba_marseille","lat":43.29983,"lon":5.38479,"is_reserved":false,"is_disabled":false,"rental_uris":{"android":"levelo://app?vid=d08e0d1e-c48b-4115-b6d4-a477a61de450","ios":"levelo://app?vid=d08e0d1e-c48b-4115-b6d4-a477a61de450"},"vehicle_type_id":"4","last_reported":1693591671,"current_range_meters":3200,"station_id":"ce4bgj92rcd13ifvqbd0","pricing_plan_id":"free"},{"bike_id":"cc9551b9-4a34-4268-8a22-5bbaef625f33","system_id":"levelo_inurba_marseille","lat":43.295279,"lon":5.375048,"is_reserved":false,"is_disabled":false,"rental_uris":{"android":"levelo://app?vid=cc9551b9-4a34-4268-8a22-5bbaef625f33","ios":"levelo://app?vid=cc9551b9-4a34-4268-8a22-5bbaef625f33"},"vehicle_type_id":"4","last_reported":1693591671,"current_range_meters":12800,"station_id":"ce4bgkp2rcd13ifvqbmg","pricing_plan_id":"free"},{"bike_id":"3a2c8041-c345-4a65-a5eb-b1abe9723f8d","system_id":"levelo_inurba_marseille","lat":43.299727,"lon":5.384875,"is_reserved":false,"is_disabled":false,"rental_uris":{"android":"levelo://app?vid=3a2c8041-c345-4a65-a5eb-b1abe9723f8d","ios":"levelo://app?vid=3a2c8041-c345-4a65-a5eb-b1abe9723f8d"},"vehicle_type_id":"4","last_reported":1693591671,"current_range_meters":14000,"station_id":"ce4bgj92rcd13ifvqbd0","pricing_plan_id":"free"},{"bike_id":"d34f70d6-4967-4b6f-b011-87b316708a8b","system_id":"levelo_inurba_marseille","lat":43.299678,"lon":5.3849,"is_reserved":false,"is_disabled":false,"rental_uris":{"android":"levelo://app?vid=d34f70d6-4967-4b6f-b011-87b316708a8b","ios":"levelo://app?vid=d34f70d6-4967-4b6f-b011-87b316708a8b"},"vehicle_type_id":"4","last_reported":1693591671,"current_range_meters":21600,"station_id":"","pricing_plan_id":"free"},{"bike_id":"9180c84f-0f25-4355-8dec-d34711128242","system_id":"levelo_inurba_marseille","lat":43.32364,"lon":5.38878,"is_reserved":false,"is_disabled":false,"rental_uris":{"android":"levelo://app?vid=9180c84f-0f25-4355-8dec-d34711128242","ios":"levelo://app?vid=9180c84f-0f25-4355-8dec-d34711128242"},"vehicle_type_id":"4","last_reported":1693591671,"current_range_meters":24400,"station_id":"ce4bhqp2rcd13ifvqhog","pricing_plan_id":"free"},{"bike_id":"8181e861-4f28-43e6-b352-b668aa565979","system_id":"levelo_inurba_marseille","lat":43.32366,"lon":5.38878,"is_reserved":false,"is_disabled":false,"rental_uris":{"android":"levelo://app?vid=8181e861-4f28-43e6-b352-b668aa565979","ios":"levelo://app?vid=8181e861-4f28-43e6-b352-b668aa565979"},"vehicle_type_id":"4","last_reported":1693591671,"current_range_meters":30000,"station_id":"ce4bhqp2rcd13ifvqhog","pricing_plan_id":"free"},{"bike_id":"06edc62d-4336-4e5a-9dcf-00fb1209f18a","system_id":"levelo_inurba_marseille","lat":43.32367,"lon":5.388836,"is_reserved":false,"is_disabled":false,"rental_uris":{"android":"levelo://app?vid=06edc62d-4336-4e5a-9dcf-00fb1209f18a","ios":"levelo://app?vid=06edc62d-4336-4e5a-9dcf-00fb1209f18a"},"vehicle_type_id":"4","last_reported":1693591671,"current_range_meters":31200,"station_id":"ce4bhqp2rcd13ifvqhog","pricing_plan_id":"free"},{"bike_id":"75dd2d9b-e11c-4209-90bf-8c81a9698c47","system_id":"levelo_inurba_marseille","lat":43.32365,"lon":5.38882,"is_reserved":false,"is_disabled":false,"rental_uris":{"android":"levelo://app?vid=75dd2d9b-e11c-4209-90bf-8c81a9698c47","ios":"levelo://app?vid=75dd2d9b-e11c-4209-90bf-8c81a9698c47"},"vehicle_type_id":"4","last_reported":1693591671,"current_range_meters":30000,"station_id":"ce4bhqp2rcd13ifvqhog","pricing_plan_id":"free"},{"bike_id":"04bd86b5-0561-4cf7-b54e-88dfd8a933b3","system_id":"levelo_inurba_marseille","lat":43.32367,"lon":5.388836,"is_reserved":false,"is_disabled":false,"rental_uris":{"android":"levelo://app?vid=04bd86b5-0561-4cf7-b54e-88dfd8a933b3","ios":"levelo://app?vid=04bd86b5-0561-4cf7-b54e-88dfd8a933b3"},"vehicle_type_id":"4","last_reported":1693591671,"current_range_meters":30000,"station_id":"ce4bhqp2rcd13ifvqhog","pricing_plan_id":"free"},{"bike_id":"ff25b2c0-9288-4710-aefe-153e38ec535b","system_id":"levelo_inurba_marseille","lat":43.32368,"lon":5.38883,"is_reserved":false,"is_disabled":false,"rental_uris":{"android":"levelo://app?vid=ff25b2c0-9288-4710-aefe-153e38ec535b","ios":"levelo://app?vid=ff25b2c0-9288-4710-aefe-153e38ec535b"},"vehicle_type_id":"4","last_reported":1693591671,"current_range_meters":21200,"station_id":"ce4bhqp2rcd13ifvqhog","pricing_plan_id":"free"},{"bike_id":"899db4cf-53c9-490f-9588-c2dabe0e6d13","system_id":"levelo_inurba_marseille","lat":43.3237,"lon":5.38882,"is_reserved":false,"is_disabled":false,"rental_uris":{"android":"levelo://app?vid=899db4cf-53c9-490f-9588-c2dabe0e6d13","ios":"levelo://app?vid=899db4cf-53c9-490f-9588-c2dabe0e6d13"},"vehicle_type_id":"4","last_reported":1693591671,"current_range_meters":6000,"station_id":"ce4bhqp2rcd13ifvqhog","pricing_plan_id":"free"},{"bike_id":"876ce5e0-73f5-42bd-9c96-22152541381a","system_id":"levelo_inurba_marseille","lat":43.29601,"lon":5.381084,"is_reserved":false,"is_disabled":false,"rental_uris":{"android":"levelo://app?vid=876ce5e0-73f5-42bd-9c96-22152541381a","ios":"levelo://app?vid=876ce5e0-73f5-42bd-9c96-22152541381a"},"vehicle_type_id":"4","last_reported":1693591671,"current_range_meters":5200,"station_id":"ce4bgl12rcd13ifvqbo0","pricing_plan_id":"free"},{"bike_id":"11bc524c-a082-48ac-86f5-9bd8ceea3835","system_id":"levelo_inurba_marseille","lat":43.30569,"lon":5.39211,"is_reserved":false,"is_disabled":false,"rental_uris":{"android":"levelo://app?vid=11bc524c-a082-48ac-86f5-9bd8ceea3835","ios":"levelo://app?vid=11bc524c-a082-48ac-86f5-9bd8ceea3835"},"vehicle_type_id":"4","last_reported":1693591671,"current_range_meters":24800,"station_id":"","pricing_plan_id":"free"},{"bike_id":"d8f36452-ca4b-42ac-be3a-3ed82334c48f","system_id":"levelo_inurba_marseille","lat":43.29309,"lon":5.37175,"is_reserved":false,"is_disabled":false,"rental_uris":{"android":"levelo://app?vid=d8f36452-ca4b-42ac-be3a-3ed82334c48f","ios":"levelo://app?vid=d8f36452-ca4b-42ac-be3a-3ed82334c48f"},"vehicle_type_id":"4","last_reported":1693591671,"current_range_meters":0,"station_id":"ce4bgh92rcd13ifvqb40","pricing_plan_id":"free"},{"bike_id":"af378848-4ab5-4a0c-a75c-c290cd6c3483","system_id":"levelo_inurba_marseille","lat":43.32459,"lon":5.38946,"is_reserved":false,"is_disabled":false,"rental_uris":{"android":"levelo://app?vid=af378848-4ab5-4a0c-a75c-c290cd6c3483","ios":"levelo://app?vid=af378848-4ab5-4a0c-a75c-c290cd6c3483"},"vehicle_type_id":"4","last_reported":1693591671,"current_range_meters":2400,"station_id":"","pricing_plan_id":"free"},{"bike_id":"a9b394da-a743-4fb2-b9a8-1059d46b3d16","system_id":"levelo_inurba_marseille","lat":43.30597,"lon":5.39356,"is_reserved":false,"is_disabled":false,"rental_uris":{"android":"levelo://app?vid=a9b394da-a743-4fb2-b9a8-1059d46b3d16","ios":"levelo://app?vid=a9b394da-a743-4fb2-b9a8-1059d46b3d16"},"vehicle_type_id":"4","last_reported":1693591671,"current_range_meters":22400,"station_id":"ce4bh0p2rcd13ifvqd80","pricing_plan_id":"free"},{"bike_id":"1a46e7ea-7f35-42c8-91dd-4593bf935492","system_id":"levelo_inurba_marseille","lat":43.305994,"lon":5.393687,"is_reserved":false,"is_disabled":false,"rental_uris":{"android":"levelo://app?vid=1a46e7ea-7f35-42c8-91dd-4593bf935492","ios":"levelo://app?vid=1a46e7ea-7f35-42c8-91dd-4593bf935492"},"vehicle_type_id":"4","last_reported":1693591671,"current_range_meters":0,"station_id":"ce4bh0p2rcd13ifvqd80","pricing_plan_id":"free"},{"bike_id":"faee2ea5-ba9d-490f-a3f9-208910a18478","system_id":"levelo_inurba_marseille","lat":43.293009,"lon":5.374584,"is_reserved":false,"is_disabled":false,"rental_uris":{"android":"levelo://app?vid=faee2ea5-ba9d-490f-a3f9-208910a18478","ios":"levelo://app?vid=faee2ea5-ba9d-490f-a3f9-208910a18478"},"vehicle_type_id":"4","last_reported":1693591671,"current_range_meters":10000,"station_id":"ce4bgi12rcd13ifvqb70","pricing_plan_id":"free"},{"bike_id":"4320d3de-a847-4639-be31-81cb5ff16a33","system_id":"levelo_inurba_marseille","lat":43.305994,"lon":5.393687,"is_reserved":false,"is_disabled":false,"rental_uris":{"android":"levelo://app?vid=4320d3de-a847-4639-be31-81cb5ff16a33","ios":"levelo://app?vid=4320d3de-a847-4639-be31-81cb5ff16a33"},"vehicle_type_id":"4","last_reported":1693591671,"current_range_meters":2000,"station_id":"ce4bh0p2rcd13ifvqd80","pricing_plan_id":"free"},{"bike_id":"16cde7e3-93b4-4c42-9ab7-52f116dcc38e","system_id":"levelo_inurba_marseille","lat":43.305994,"lon":5.393687,"is_reserved":false,"is_disabled":false,"rental_uris":{"android":"levelo://app?vid=16cde7e3-93b4-4c42-9ab7-52f116dcc38e","ios":"levelo://app?vid=16cde7e3-93b4-4c42-9ab7-52f116dcc38e"},"vehicle_type_id":"4","last_reported":1693591671,"current_range_meters":11200,"station_id":"ce4bh0p2rcd13ifvqd80","pricing_plan_id":"free"},{"bike_id":"d465d55e-4d87-4013-8b0f-7fc34a5e1a27","system_id":"levelo_inurba_marseille","lat":43.30588,"lon":5.39359,"is_reserved":false,"is_disabled":false,"rental_uris":{"android":"levelo://app?vid=d465d55e-4d87-4013-8b0f-7fc34a5e1a27","ios":"levelo://app?vid=d465d55e-4d87-4013-8b0f-7fc34a5e1a27"},"vehicle_type_id":"4","last_reported":1693591671,"current_range_meters":9200,"station_id":"","pricing_plan_id":"free"},{"bike_id":"0724f352-a262-45b7-9b71-9a09ff17d945","system_id":"levelo_inurba_marseille","lat":43.30297,"lon":5.392,"is_reserved":false,"is_disabled":false,"rental_uris":{"android":"levelo://app?vid=0724f352-a262-45b7-9b71-9a09ff17d945","ios":"levelo://app?vid=0724f352-a262-45b7-9b71-9a09ff17d945"},"vehicle_type_id":"4","last_reported":1693591671,"current_range_meters":26400,"station_id":"ce4bgkh2rcd13ifvqbk0","pricing_plan_id":"free"},{"bike_id":"38fef587-7cc5-4800-b069-87b8f296a10a","system_id":"levelo_inurba_marseille","lat":43.30299,"lon":5.39202,"is_reserved":false,"is_disabled":false,"rental_uris":{"android":"levelo://app?vid=38fef587-7cc5-4800-b069-87b8f296a10a","ios":"levelo://app?vid=38fef587-7cc5-4800-b069-87b8f296a10a"},"vehicle_type_id":"4","last_reported":1693591671,"current_range_meters":23600,"station_id":"ce4bgkh2rcd13ifvqbk0","pricing_plan_id":"free"},{"bike_id":"59d4a7cc-c4d8-47e1-a63f-2e26b5d209c3","system_id":"levelo_inurba_marseille","lat":43.2936,"lon":5.37835,"is_reserved":false,"is_disabled":false,"rental_uris":{"android":"levelo://app?vid=59d4a7cc-c4d8-47e1-a63f-2e26b5d209c3","ios":"levelo://app?vid=59d4a7cc-c4d8-47e1-a63f-2e26b5d209c3"},"vehicle_type_id":"4","last_reported":1693591671,"current_range_meters":30800,"station_id":"ce4bgjh2rcd13ifvqbf0","pricing_plan_id":"free"},{"bike_id":"75d458b6-33eb-4a9d-b632-e4ee54d77752","system_id":"levelo_inurba_marseille","lat":43.292311,"lon":5.360731,"is_reserved":false,"is_disabled":false,"rental_uris":{"android":"levelo://app?vid=75d458b6-33eb-4a9d-b632-e4ee54d77752","ios":"levelo://app?vid=75d458b6-33eb-4a9d-b632-e4ee54d77752"},"vehicle_type_id":"4","last_reported":1693591671,"current_range_meters":14400,"station_id":"ce4bhbh2rcd13ifvqeqg","pricing_plan_id":"free"},{"bike_id":"1cea725f-262a-40dc-9e21-60d3c4faca04","system_id":"levelo_inurba_marseille","lat":43.292311,"lon":5.360731,"is_reserved":false,"is_disabled":false,"rental_uris":{"android":"levelo://app?vid=1cea725f-262a-40dc-9e21-60d3c4faca04","ios":"levelo://app?vid=1cea725f-262a-40dc-9e21-60d3c4faca04"},"vehicle_type_id":"4","last_reported":1693591671,"current_range_meters":12400,"station_id":"ce4bhbh2rcd13ifvqeqg","pricing_plan_id":"free"},{"bike_id":"64e97b80-5aec-4b04-9c61-63532c8f265b","system_id":"levelo_inurba_marseille","lat":43.292311,"lon":5.360731,"is_reserved":false,"is_disabled":false,"rental_uris":{"android":"levelo://app?vid=64e97b80-5aec-4b04-9c61-63532c8f265b","ios":"levelo://app?vid=64e97b80-5aec-4b04-9c61-63532c8f265b"},"vehicle_type_id":"4","last_reported":1693591671,"current_range_meters":12000,"station_id":"ce4bhbh2rcd13ifvqeqg","pricing_plan_id":"free"},{"bike_id":"32b78b99-e67b-4491-ace7-d76a2e76cc76","system_id":"levelo_inurba_marseille","lat":43.30085,"lon":5.390856,"is_reserved":false,"is_disabled":false,"rental_uris":{"android":"levelo://app?vid=32b78b99-e67b-4491-ace7-d76a2e76cc76","ios":"levelo://app?vid=32b78b99-e67b-4491-ace7-d76a2e76cc76"},"vehicle_type_id":"4","last_reported":1693591671,"current_range_meters":0,"station_id":"ce4bh192rcd13ifvqdb0","pricing_plan_id":"free"},{"bike_id":"2634f360-2ba3-416d-9592-6e8350f2f8cc","system_id":"levelo_inurba_marseille","lat":43.300852,"lon":5.390859,"is_reserved":false,"is_disabled":false,"rental_uris":{"android":"levelo://app?vid=2634f360-2ba3-416d-9592-6e8350f2f8cc","ios":"levelo://app?vid=2634f360-2ba3-416d-9592-6e8350f2f8cc"},"vehicle_type_id":"4","last_reported":1693591671,"current_range_meters":10800,"station_id":"ce4bh192rcd13ifvqdb0","pricing_plan_id":"free"},{"bike_id":"28254310-08c6-437d-97f9-29852b41f668","system_id":"levelo_inurba_marseille","lat":43.300852,"lon":5.390859,"is_reserved":false,"is_disabled":false,"rental_uris":{"android":"levelo://app?vid=28254310-08c6-437d-97f9-29852b41f668","ios":"levelo://app?vid=28254310-08c6-437d-97f9-29852b41f668"},"vehicle_type_id":"4","last_reported":1693591671,"current_range_meters":16000,"station_id":"ce4bh192rcd13ifvqdb0","pricing_plan_id":"free"},{"bike_id":"3450457f-00c9-4fba-8d2e-e6e2dcfce8a0","system_id":"levelo_inurba_marseille","lat":43.298764,"lon":5.388973,"is_reserved":false,"is_disabled":false,"rental_uris":{"android":"levelo://app?vid=3450457f-00c9-4fba-8d2e-e6e2dcfce8a0","ios":"levelo://app?vid=3450457f-00c9-4fba-8d2e-e6e2dcfce8a0"},"vehicle_type_id":"4","last_reported":1693591671,"current_range_meters":19600,"station_id":"ce4bh392rcd13ifvqdl0","pricing_plan_id":"free"},{"bike_id":"7a538f10-1e8f-46eb-8cd3-eee1dfb0ff5c","system_id":"levelo_inurba_marseille","lat":43.298764,"lon":5.388973,"is_reserved":false,"is_disabled":false,"rental_uris":{"android":"levelo://app?vid=7a538f10-1e8f-46eb-8cd3-eee1dfb0ff5c","ios":"levelo://app?vid=7a538f10-1e8f-46eb-8cd3-eee1dfb0ff5c"},"vehicle_type_id":"4","last_reported":1693591671,"current_range_meters":800,"station_id":"ce4bh392rcd13ifvqdl0","pricing_plan_id":"free"},{"bike_id":"c7a6b14b-4a1c-4551-ab7b-f5ff0f27f288","system_id":"levelo_inurba_marseille","lat":43.291671,"lon":5.371575,"is_reserved":false,"is_disabled":false,"rental_uris":{"android":"levelo://app?vid=c7a6b14b-4a1c-4551-ab7b-f5ff0f27f288","ios":"levelo://app?vid=c7a6b14b-4a1c-4551-ab7b-f5ff0f27f288"},"vehicle_type_id":"4","last_reported":1693591671,"current_range_meters":7600,"station_id":"ce4bha92rcd13ifvqeh0","pricing_plan_id":"free"},{"bike_id":"dcd2630c-45fc-43ab-ba04-3a41dac07ccf","system_id":"levelo_inurba_marseille","lat":43.291671,"lon":5.371575,"is_reserved":false,"is_disabled":false,"rental_uris":{"android":"levelo://app?vid=dcd2630c-45fc-43ab-ba04-3a41dac07ccf","ios":"levelo://app?vid=dcd2630c-45fc-43ab-ba04-3a41dac07ccf"},"vehicle_type_id":"4","last_reported":1693591671,"current_range_meters":7200,"station_id":"ce4bha92rcd13ifvqeh0","pricing_plan_id":"free"},{"bike_id":"b127cb02-a67f-4944-955b-2653cb69db42","system_id":"levelo_inurba_marseille","lat":43.29142,"lon":5.36689,"is_reserved":false,"is_disabled":false,"rental_uris":{"android":"levelo://app?vid=b127cb02-a67f-4944-955b-2653cb69db42","ios":"levelo://app?vid=b127cb02-a67f-4944-955b-2653cb69db42"},"vehicle_type_id":"4","last_reported":1693591671,"current_range_meters":24800,"station_id":"ce4bhc92rcd13ifvqetg","pricing_plan_id":"free"},{"bike_id":"64282e33-847e-4488-9d86-46da7969b358","system_id":"levelo_inurba_marseille","lat":43.291969,"lon":5.357992,"is_reserved":false,"is_disabled":false,"rental_uris":{"android":"levelo://app?vid=64282e33-847e-4488-9d86-46da7969b358","ios":"levelo://app?vid=64282e33-847e-4488-9d86-46da7969b358"},"vehicle_type_id":"4","last_reported":1693591671,"current_range_meters":1200,"station_id":"ce4bhb12rcd13ifvqel0","pricing_plan_id":"free"},{"bike_id":"ee7b75ff-b1b7-4965-a139-7fd200d2a06e","system_id":"levelo_inurba_marseille","lat":43.313291,"lon":5.396838,"is_reserved":false,"is_disabled":false,"rental_uris":{"android":"levelo://app?vid=ee7b75ff-b1b7-4965-a139-7fd200d2a06e","ios":"levelo://app?vid=ee7b75ff-b1b7-4965-a139-7fd200d2a06e"},"vehicle_type_id":"4","last_reported":1693591671,"current_range_meters":7200,"station_id":"ce4bgvp2rcd13ifvqcu0","pricing_plan_id":"free"},{"bike_id":"4ea1a311-8446-4a02-b2d6-885752b3a95d","system_id":"levelo_inurba_marseille","lat":43.313291,"lon":5.396838,"is_reserved":false,"is_disabled":false,"rental_uris":{"android":"levelo://app?vid=4ea1a311-8446-4a02-b2d6-885752b3a95d","ios":"levelo://app?vid=4ea1a311-8446-4a02-b2d6-885752b3a95d"},"vehicle_type_id":"4","last_reported":1693591671,"current_range_meters":8800,"station_id":"ce4bgvp2rcd13ifvqcu0","pricing_plan_id":"free"},{"bike_id":"a22868a3-ca46-43ed-816f-702cef0a8647","system_id":"levelo_inurba_marseille","lat":43.291994,"lon":5.357886,"is_reserved":false,"is_disabled":false,"rental_uris":{"android":"levelo://app?vid=a22868a3-ca46-43ed-816f-702cef0a8647","ios":"levelo://app?vid=a22868a3-ca46-43ed-816f-702cef0a8647"},"vehicle_type_id":"4","last_reported":1693591671,"current_range_meters":22400,"station_id":"ce4bhb12rcd13ifvqel0","pricing_plan_id":"free"},{"bike_id":"32cee025-e4e2-4ee5-add5-474dd716fc04","system_id":"levelo_inurba_marseille","lat":43.31323,"lon":5.39689,"is_reserved":false,"is_disabled":false,"rental_uris":{"android":"levelo://app?vid=32cee025-e4e2-4ee5-add5-474dd716fc04","ios":"levelo://app?vid=32cee025-e4e2-4ee5-add5-474dd716fc04"},"vehicle_type_id":"4","last_reported":1693591671,"current_range_meters":0,"station_id":"ce4bgvp2rcd13ifvqcu0","pricing_plan_id":"free"},{"bike_id":"00518cde-cb4f-457e-b442-4fac0f7c3295","system_id":"levelo_inurba_marseille","lat":43.291917,"lon":5.358003,"is_reserved":false,"is_disabled":false,"rental_uris":{"android":"levelo://app?vid=00518cde-cb4f-457e-b442-4fac0f7c3295","ios":"levelo://app?vid=00518cde-cb4f-457e-b442-4fac0f7c3295"},"vehicle_type_id":"4","last_reported":1693591671,"current_range_meters":17600,"station_id":"ce4bhb12rcd13ifvqel0","pricing_plan_id":"free"},{"bike_id":"b028bb1f-8158-4ebe-99ce-a94bd735a93a","system_id":"levelo_inurba_marseille","lat":43.31324,"lon":5.3969,"is_reserved":false,"is_disabled":false,"rental_uris":{"android":"levelo://app?vid=b028bb1f-8158-4ebe-99ce-a94bd735a93a","ios":"levelo://app?vid=b028bb1f-8158-4ebe-99ce-a94bd735a93a"},"vehicle_type_id":"4","last_reported":1693591671,"current_range_meters":18800,"station_id":"ce4bgvp2rcd13ifvqcu0","pricing_plan_id":"free"},{"bike_id":"2d071a18-5574-4b5a-9ca3-038b5a7f8932","system_id":"levelo_inurba_marseille","lat":43.3133,"lon":5.3969,"is_reserved":false,"is_disabled":false,"rental_uris":{"android":"levelo://app?vid=2d071a18-5574-4b5a-9ca3-038b5a7f8932","ios":"levelo://app?vid=2d071a18-5574-4b5a-9ca3-038b5a7f8932"},"vehicle_type_id":"4","last_reported":1693591671,"current_range_meters":14400,"station_id":"ce4bgvp2rcd13ifvqcu0","pricing_plan_id":"free"},{"bike_id":"e51f1919-a428-40f3-9819-66613e8b13a9","system_id":"levelo_inurba_marseille","lat":43.3132,"lon":5.39692,"is_reserved":false,"is_disabled":false,"rental_uris":{"android":"levelo://app?vid=e51f1919-a428-40f3-9819-66613e8b13a9","ios":"levelo://app?vid=e51f1919-a428-40f3-9819-66613e8b13a9"},"vehicle_type_id":"4","last_reported":1693591671,"current_range_meters":6400,"station_id":"ce4bgvp2rcd13ifvqcu0","pricing_plan_id":"free"},{"bike_id":"b338f2f2-cdd8-4fe6-98fe-d81223ed8e55","system_id":"levelo_inurba_marseille","lat":43.313291,"lon":5.396838,"is_reserved":false,"is_disabled":false,"rental_uris":{"android":"levelo://app?vid=b338f2f2-cdd8-4fe6-98fe-d81223ed8e55","ios":"levelo://app?vid=b338f2f2-cdd8-4fe6-98fe-d81223ed8e55"},"vehicle_type_id":"4","last_reported":1693591671,"current_range_meters":3600,"station_id":"ce4bgvp2rcd13ifvqcu0","pricing_plan_id":"free"},{"bike_id":"73c2e0c0-a939-4bc3-943a-e52094180bff","system_id":"levelo_inurba_marseille","lat":43.29185,"lon":5.35797,"is_reserved":false,"is_disabled":false,"rental_uris":{"android":"levelo://app?vid=73c2e0c0-a939-4bc3-943a-e52094180bff","ios":"levelo://app?vid=73c2e0c0-a939-4bc3-943a-e52094180bff"},"vehicle_type_id":"4","last_reported":1693591671,"current_range_meters":22000,"station_id":"ce4bhb12rcd13ifvqel0","pricing_plan_id":"free"},{"bike_id":"14a390cb-a82e-4477-99c3-d5c9e8e25412","system_id":"levelo_inurba_marseille","lat":43.309241,"lon":5.396627,"is_reserved":false,"is_disabled":false,"rental_uris":{"android":"levelo://app?vid=14a390cb-a82e-4477-99c3-d5c9e8e25412","ios":"levelo://app?vid=14a390cb-a82e-4477-99c3-d5c9e8e25412"},"vehicle_type_id":"4","last_reported":1693591671,"current_range_meters":14800,"station_id":"ce4bh012rcd13ifvqcv0","pricing_plan_id":"free"},{"bike_id":"45861cee-b931-44af-af50-8f2d61c46b8a","system_id":"levelo_inurba_marseille","lat":43.29534,"lon":5.38526,"is_reserved":false,"is_disabled":false,"rental_uris":{"android":"levelo://app?vid=45861cee-b931-44af-af50-8f2d61c46b8a","ios":"levelo://app?vid=45861cee-b931-44af-af50-8f2d61c46b8a"},"vehicle_type_id":"4","last_reported":1693591671,"current_range_meters":4800,"station_id":"ce4bgih2rcd13ifvqba0","pricing_plan_id":"free"},{"bike_id":"6313d583-ccb4-4590-8c82-118d85837393","system_id":"levelo_inurba_marseille","lat":43.29529,"lon":5.385581,"is_reserved":false,"is_disabled":false,"rental_uris":{"android":"levelo://app?vid=6313d583-ccb4-4590-8c82-118d85837393","ios":"levelo://app?vid=6313d583-ccb4-4590-8c82-118d85837393"},"vehicle_type_id":"4","last_reported":1693591671,"current_range_meters":19200,"station_id":"ce4bgih2rcd13ifvqba0","pricing_plan_id":"free"},{"bike_id":"75f4aa15-0ede-4062-ba97-9b7064292a77","system_id":"levelo_inurba_marseille","lat":43.29533,"lon":5.38537,"is_reserved":false,"is_disabled":false,"rental_uris":{"android":"levelo://app?vid=75f4aa15-0ede-4062-ba97-9b7064292a77","ios":"levelo://app?vid=75f4aa15-0ede-4062-ba97-9b7064292a77"},"vehicle_type_id":"4","last_reported":1693591671,"current_range_meters":2000,"station_id":"ce4bgih2rcd13ifvqba0","pricing_plan_id":"free"},{"bike_id":"0cf8e47b-f710-43bc-ac49-9ad52bd51144","system_id":"levelo_inurba_marseille","lat":43.29529,"lon":5.38531,"is_reserved":false,"is_disabled":false,"rental_uris":{"android":"levelo://app?vid=0cf8e47b-f710-43bc-ac49-9ad52bd51144","ios":"levelo://app?vid=0cf8e47b-f710-43bc-ac49-9ad52bd51144"},"vehicle_type_id":"4","last_reported":1693591671,"current_range_meters":30000,"station_id":"ce4bgih2rcd13ifvqba0","pricing_plan_id":"free"},{"bike_id":"2f27a86b-e95c-4949-b8cd-4b97cbd29a8f","system_id":"levelo_inurba_marseille","lat":43.29529,"lon":5.385581,"is_reserved":false,"is_disabled":false,"rental_uris":{"android":"levelo://app?vid=2f27a86b-e95c-4949-b8cd-4b97cbd29a8f","ios":"levelo://app?vid=2f27a86b-e95c-4949-b8cd-4b97cbd29a8f"},"vehicle_type_id":"4","last_reported":1693591671,"current_range_meters":14000,"station_id":"ce4bgih2rcd13ifvqba0","pricing_plan_id":"free"},{"bike_id":"80dda61e-aceb-4dc8-9ed7-0407ba89efb7","system_id":"levelo_inurba_marseille","lat":43.29529,"lon":5.385581,"is_reserved":false,"is_disabled":false,"rental_uris":{"android":"levelo://app?vid=80dda61e-aceb-4dc8-9ed7-0407ba89efb7","ios":"levelo://app?vid=80dda61e-aceb-4dc8-9ed7-0407ba89efb7"},"vehicle_type_id":"4","last_reported":1693591671,"current_range_meters":6000,"station_id":"ce4bgih2rcd13ifvqba0","pricing_plan_id":"free"},{"bike_id":"8ffb09d4-cce7-4f7c-86da-7770cff9f559","system_id":"levelo_inurba_marseille","lat":43.29529,"lon":5.385581,"is_reserved":false,"is_disabled":false,"rental_uris":{"android":"levelo://app?vid=8ffb09d4-cce7-4f7c-86da-7770cff9f559","ios":"levelo://app?vid=8ffb09d4-cce7-4f7c-86da-7770cff9f559"},"vehicle_type_id":"4","last_reported":1693591671,"current_range_meters":8000,"station_id":"ce4bgih2rcd13ifvqba0","pricing_plan_id":"free"},{"bike_id":"0d962e12-b732-4464-bc89-f40845207671","system_id":"levelo_inurba_marseille","lat":43.33221,"lon":5.38114,"is_reserved":false,"is_disabled":false,"rental_uris":{"android":"levelo://app?vid=0d962e12-b732-4464-bc89-f40845207671","ios":"levelo://app?vid=0d962e12-b732-4464-bc89-f40845207671"},"vehicle_type_id":"4","last_reported":1693591671,"current_range_meters":10000,"station_id":"","pricing_plan_id":"free"},{"bike_id":"43ebcefa-7afa-4ffd-9f4d-762481a6a87f","system_id":"levelo_inurba_marseille","lat":43.290779,"lon":5.371482,"is_reserved":false,"is_disabled":false,"rental_uris":{"android":"levelo://app?vid=43ebcefa-7afa-4ffd-9f4d-762481a6a87f","ios":"levelo://app?vid=43ebcefa-7afa-4ffd-9f4d-762481a6a87f"},"vehicle_type_id":"4","last_reported":1693591671,"current_range_meters":5200,"station_id":"ce4bh5p2rcd13ifvqe4g","pricing_plan_id":"free"},{"bike_id":"05bf879c-acfe-435c-b601-beb38fe74966","system_id":"levelo_inurba_marseille","lat":43.29422,"lon":5.38617,"is_reserved":false,"is_disabled":false,"rental_uris":{"android":"levelo://app?vid=05bf879c-acfe-435c-b601-beb38fe74966","ios":"levelo://app?vid=05bf879c-acfe-435c-b601-beb38fe74966"},"vehicle_type_id":"4","last_reported":1693591671,"current_range_meters":16400,"station_id":"ce4bh2h2rcd13ifvqdh0","pricing_plan_id":"free"},{"bike_id":"68c34268-bf16-43ef-b787-d2f05887b80f","system_id":"levelo_inurba_marseille","lat":43.294252,"lon":5.386258,"is_reserved":false,"is_disabled":false,"rental_uris":{"android":"levelo://app?vid=68c34268-bf16-43ef-b787-d2f05887b80f","ios":"levelo://app?vid=68c34268-bf16-43ef-b787-d2f05887b80f"},"vehicle_type_id":"4","last_reported":1693591671,"current_range_meters":3200,"station_id":"ce4bh2h2rcd13ifvqdh0","pricing_plan_id":"free"},{"bike_id":"a01aa977-139e-4653-93ad-d980c243b664","system_id":"levelo_inurba_marseille","lat":43.294153,"lon":5.386305,"is_reserved":false,"is_disabled":false,"rental_uris":{"android":"levelo://app?vid=a01aa977-139e-4653-93ad-d980c243b664","ios":"levelo://app?vid=a01aa977-139e-4653-93ad-d980c243b664"},"vehicle_type_id":"4","last_reported":1693591671,"current_range_meters":800,"station_id":"ce4bh2h2rcd13ifvqdh0","pricing_plan_id":"free"},{"bike_id":"1f8f3004-cd75-4e2a-b1cd-d0210032cedd","system_id":"levelo_inurba_marseille","lat":43.2942,"lon":5.38625,"is_reserved":false,"is_disabled":false,"rental_uris":{"android":"levelo://app?vid=1f8f3004-cd75-4e2a-b1cd-d0210032cedd","ios":"levelo://app?vid=1f8f3004-cd75-4e2a-b1cd-d0210032cedd"},"vehicle_type_id":"4","last_reported":1693591671,"current_range_meters":7600,"station_id":"ce4bh2h2rcd13ifvqdh0","pricing_plan_id":"free"},{"bike_id":"d3702b4d-afe5-48ed-97a8-712719ad9160","system_id":"levelo_inurba_marseille","lat":43.29416,"lon":5.38619,"is_reserved":false,"is_disabled":false,"rental_uris":{"android":"levelo://app?vid=d3702b4d-afe5-48ed-97a8-712719ad9160","ios":"levelo://app?vid=d3702b4d-afe5-48ed-97a8-712719ad9160"},"vehicle_type_id":"4","last_reported":1693591671,"current_range_meters":25200,"station_id":"ce4bh2h2rcd13ifvqdh0","pricing_plan_id":"free"},{"bike_id":"58a501c1-0ca1-4fbc-afa5-b85fd6541329","system_id":"levelo_inurba_marseille","lat":43.29417,"lon":5.38621,"is_reserved":false,"is_disabled":false,"rental_uris":{"android":"levelo://app?vid=58a501c1-0ca1-4fbc-afa5-b85fd6541329","ios":"levelo://app?vid=58a501c1-0ca1-4fbc-afa5-b85fd6541329"},"vehicle_type_id":"4","last_reported":1693591671,"current_range_meters":30400,"station_id":"ce4bh2h2rcd13ifvqdh0","pricing_plan_id":"free"},{"bike_id":"cf0646a9-eeb4-4de5-b197-ee3a34295cbe","system_id":"levelo_inurba_marseille","lat":43.294153,"lon":5.386305,"is_reserved":false,"is_disabled":false,"rental_uris":{"android":"levelo://app?vid=cf0646a9-eeb4-4de5-b197-ee3a34295cbe","ios":"levelo://app?vid=cf0646a9-eeb4-4de5-b197-ee3a34295cbe"},"vehicle_type_id":"4","last_reported":1693591671,"current_range_meters":31200,"station_id":"ce4bh2h2rcd13ifvqdh0","pricing_plan_id":"free"},{"bike_id":"26ba1ce3-a0ec-44cb-ba65-274e3c8def95","system_id":"levelo_inurba_marseille","lat":43.29416,"lon":5.38625,"is_reserved":false,"is_disabled":false,"rental_uris":{"android":"levelo://app?vid=26ba1ce3-a0ec-44cb-ba65-274e3c8def95","ios":"levelo://app?vid=26ba1ce3-a0ec-44cb-ba65-274e3c8def95"},"vehicle_type_id":"4","last_reported":1693591671,"current_range_meters":26400,"station_id":"ce4bh2h2rcd13ifvqdh0","pricing_plan_id":"free"},{"bike_id":"bcacf829-299f-461b-ab6b-faff43b418f5","system_id":"levelo_inurba_marseille","lat":43.29415,"lon":5.38624,"is_reserved":false,"is_disabled":false,"rental_uris":{"android":"levelo://app?vid=bcacf829-299f-461b-ab6b-faff43b418f5","ios":"levelo://app?vid=bcacf829-299f-461b-ab6b-faff43b418f5"},"vehicle_type_id":"4","last_reported":1693591671,"current_range_meters":1600,"station_id":"ce4bh2h2rcd13ifvqdh0","pricing_plan_id":"free"},{"bike_id":"adde2fe5-f8a3-4a16-9a32-e7e59e60312e","system_id":"levelo_inurba_marseille","lat":43.29417,"lon":5.38632,"is_reserved":false,"is_disabled":false,"rental_uris":{"android":"levelo://app?vid=adde2fe5-f8a3-4a16-9a32-e7e59e60312e","ios":"levelo://app?vid=adde2fe5-f8a3-4a16-9a32-e7e59e60312e"},"vehicle_type_id":"4","last_reported":1693591671,"current_range_meters":19200,"station_id":"ce4bh2h2rcd13ifvqdh0","pricing_plan_id":"free"},{"bike_id":"c7b60e5a-d395-4b79-acf0-dab40657bd75","system_id":"levelo_inurba_marseille","lat":43.289184,"lon":5.366408,"is_reserved":false,"is_disabled":false,"rental_uris":{"android":"levelo://app?vid=c7b60e5a-d395-4b79-acf0-dab40657bd75","ios":"levelo://app?vid=c7b60e5a-d395-4b79-acf0-dab40657bd75"},"vehicle_type_id":"4","last_reported":1693591671,"current_range_meters":9600,"station_id":"ce4bhap2rcd13ifvqek0","pricing_plan_id":"free"},{"bike_id":"56c9e8fc-f529-4115-b74f-b1aa508fed5d","system_id":"levelo_inurba_marseille","lat":43.29412,"lon":5.3863,"is_reserved":false,"is_disabled":false,"rental_uris":{"android":"levelo://app?vid=56c9e8fc-f529-4115-b74f-b1aa508fed5d","ios":"levelo://app?vid=56c9e8fc-f529-4115-b74f-b1aa508fed5d"},"vehicle_type_id":"4","last_reported":1693591671,"current_range_meters":29200,"station_id":"ce4bh2h2rcd13ifvqdh0","pricing_plan_id":"free"},{"bike_id":"6898eece-d8a0-4229-864d-ea44e84db71a","system_id":"levelo_inurba_marseille","lat":43.2941,"lon":5.38628,"is_reserved":false,"is_disabled":false,"rental_uris":{"android":"levelo://app?vid=6898eece-d8a0-4229-864d-ea44e84db71a","ios":"levelo://app?vid=6898eece-d8a0-4229-864d-ea44e84db71a"},"vehicle_type_id":"4","last_reported":1693591671,"current_range_meters":26800,"station_id":"ce4bh2h2rcd13ifvqdh0","pricing_plan_id":"free"},{"bike_id":"2f93318d-a393-4e93-88c9-60d3ec241b0e","system_id":"levelo_inurba_marseille","lat":43.289184,"lon":5.366408,"is_reserved":false,"is_disabled":false,"rental_uris":{"android":"levelo://app?vid=2f93318d-a393-4e93-88c9-60d3ec241b0e","ios":"levelo://app?vid=2f93318d-a393-4e93-88c9-60d3ec241b0e"},"vehicle_type_id":"4","last_reported":1693591671,"current_range_meters":31600,"station_id":"ce4bhap2rcd13ifvqek0","pricing_plan_id":"free"},{"bike_id":"0e5b390e-8b0e-4f77-b5e0-faa7c38e78f7","system_id":"levelo_inurba_marseille","lat":43.292797,"lon":5.384428,"is_reserved":false,"is_disabled":false,"rental_uris":{"android":"levelo://app?vid=0e5b390e-8b0e-4f77-b5e0-faa7c38e78f7","ios":"levelo://app?vid=0e5b390e-8b0e-4f77-b5e0-faa7c38e78f7"},"vehicle_type_id":"4","last_reported":1693591671,"current_range_meters":8800,"station_id":"","pricing_plan_id":"free"},{"bike_id":"6da74a4d-48a2-4d0d-8852-698b67965a75","system_id":"levelo_inurba_marseille","lat":43.292644,"lon":5.384257,"is_reserved":false,"is_disabled":false,"rental_uris":{"android":"levelo://app?vid=6da74a4d-48a2-4d0d-8852-698b67965a75","ios":"levelo://app?vid=6da74a4d-48a2-4d0d-8852-698b67965a75"},"vehicle_type_id":"4","last_reported":1693591671,"current_range_meters":12800,"station_id":"ce4bh692rcd13ifvqea0","pricing_plan_id":"free"},{"bike_id":"80bbf23f-1850-4b0f-be74-71055f2a015c","system_id":"levelo_inurba_marseille","lat":43.292644,"lon":5.384257,"is_reserved":false,"is_disabled":false,"rental_uris":{"android":"levelo://app?vid=80bbf23f-1850-4b0f-be74-71055f2a015c","ios":"levelo://app?vid=80bbf23f-1850-4b0f-be74-71055f2a015c"},"vehicle_type_id":"4","last_reported":1693591671,"current_range_meters":9200,"station_id":"ce4bh692rcd13ifvqea0","pricing_plan_id":"free"},{"bike_id":"7b09e44d-a192-471e-9f16-f97bb0e60996","system_id":"levelo_inurba_marseille","lat":43.292642,"lon":5.384254,"is_reserved":false,"is_disabled":false,"rental_uris":{"android":"levelo://app?vid=7b09e44d-a192-471e-9f16-f97bb0e60996","ios":"levelo://app?vid=7b09e44d-a192-471e-9f16-f97bb0e60996"},"vehicle_type_id":"4","last_reported":1693591671,"current_range_meters":31200,"station_id":"ce4bh692rcd13ifvqea0","pricing_plan_id":"free"},{"bike_id":"dc14ed53-0af7-42cc-ab12-e486e52d9a8a","system_id":"levelo_inurba_marseille","lat":43.29266,"lon":5.38438,"is_reserved":false,"is_disabled":false,"rental_uris":{"android":"levelo://app?vid=dc14ed53-0af7-42cc-ab12-e486e52d9a8a","ios":"levelo://app?vid=dc14ed53-0af7-42cc-ab12-e486e52d9a8a"},"vehicle_type_id":"4","last_reported":1693591671,"current_range_meters":26800,"station_id":"ce4bh692rcd13ifvqea0","pricing_plan_id":"free"},{"bike_id":"52d923b8-7fe5-423a-bd66-cbd261fabc6c","system_id":"levelo_inurba_marseille","lat":43.292642,"lon":5.384254,"is_reserved":false,"is_disabled":false,"rental_uris":{"android":"levelo://app?vid=52d923b8-7fe5-423a-bd66-cbd261fabc6c","ios":"levelo://app?vid=52d923b8-7fe5-423a-bd66-cbd261fabc6c"},"vehicle_type_id":"4","last_reported":1693591671,"current_range_meters":4400,"station_id":"ce4bh692rcd13ifvqea0","pricing_plan_id":"free"},{"bike_id":"378bcb72-f095-4a47-9ecd-21b6b7b081ef","system_id":"levelo_inurba_marseille","lat":43.292642,"lon":5.384254,"is_reserved":false,"is_disabled":false,"rental_uris":{"android":"levelo://app?vid=378bcb72-f095-4a47-9ecd-21b6b7b081ef","ios":"levelo://app?vid=378bcb72-f095-4a47-9ecd-21b6b7b081ef"},"vehicle_type_id":"4","last_reported":1693591671,"current_range_meters":1600,"station_id":"ce4bh692rcd13ifvqea0","pricing_plan_id":"free"},{"bike_id":"272525c8-b682-4cfd-afb3-83b0c85ed659","system_id":"levelo_inurba_marseille","lat":43.292644,"lon":5.384257,"is_reserved":false,"is_disabled":false,"rental_uris":{"android":"levelo://app?vid=272525c8-b682-4cfd-afb3-83b0c85ed659","ios":"levelo://app?vid=272525c8-b682-4cfd-afb3-83b0c85ed659"},"vehicle_type_id":"4","last_reported":1693591671,"current_range_meters":1600,"station_id":"ce4bh692rcd13ifvqea0","pricing_plan_id":"free"},{"bike_id":"f9b77ea9-9717-414d-af08-87a131c96627","system_id":"levelo_inurba_marseille","lat":43.292642,"lon":5.384254,"is_reserved":false,"is_disabled":false,"rental_uris":{"android":"levelo://app?vid=f9b77ea9-9717-414d-af08-87a131c96627","ios":"levelo://app?vid=f9b77ea9-9717-414d-af08-87a131c96627"},"vehicle_type_id":"4","last_reported":1693591671,"current_range_meters":7600,"station_id":"ce4bh692rcd13ifvqea0","pricing_plan_id":"free"},{"bike_id":"aa497e54-979a-49a3-8c47-8be33d5be275","system_id":"levelo_inurba_marseille","lat":43.292642,"lon":5.384254,"is_reserved":false,"is_disabled":false,"rental_uris":{"android":"levelo://app?vid=aa497e54-979a-49a3-8c47-8be33d5be275","ios":"levelo://app?vid=aa497e54-979a-49a3-8c47-8be33d5be275"},"vehicle_type_id":"4","last_reported":1693591671,"current_range_meters":20000,"station_id":"ce4bh692rcd13ifvqea0","pricing_plan_id":"free"},{"bike_id":"8e65bb73-43f5-4756-b101-0f2e5871f554","system_id":"levelo_inurba_marseille","lat":43.292642,"lon":5.384254,"is_reserved":false,"is_disabled":false,"rental_uris":{"android":"levelo://app?vid=8e65bb73-43f5-4756-b101-0f2e5871f554","ios":"levelo://app?vid=8e65bb73-43f5-4756-b101-0f2e5871f554"},"vehicle_type_id":"4","last_reported":1693591671,"current_range_meters":14400,"station_id":"ce4bh692rcd13ifvqea0","pricing_plan_id":"free"},{"bike_id":"511e8e5e-69b7-463c-a905-4fa4227b6fe2","system_id":"levelo_inurba_marseille","lat":43.292642,"lon":5.384254,"is_reserved":false,"is_disabled":false,"rental_uris":{"android":"levelo://app?vid=511e8e5e-69b7-463c-a905-4fa4227b6fe2","ios":"levelo://app?vid=511e8e5e-69b7-463c-a905-4fa4227b6fe2"},"vehicle_type_id":"4","last_reported":1693591671,"current_range_meters":7200,"station_id":"ce4bh692rcd13ifvqea0","pricing_plan_id":"free"},{"bike_id":"afef8a81-214b-4702-8354-14445cf04fb9","system_id":"levelo_inurba_marseille","lat":43.29258,"lon":5.38441,"is_reserved":false,"is_disabled":false,"rental_uris":{"android":"levelo://app?vid=afef8a81-214b-4702-8354-14445cf04fb9","ios":"levelo://app?vid=afef8a81-214b-4702-8354-14445cf04fb9"},"vehicle_type_id":"4","last_reported":1693591671,"current_range_meters":27200,"station_id":"ce4bh692rcd13ifvqea0","pricing_plan_id":"free"},{"bike_id":"66ee89c8-960e-4724-afc0-dddbc2e6ffa9","system_id":"levelo_inurba_marseille","lat":43.292642,"lon":5.384254,"is_reserved":false,"is_disabled":false,"rental_uris":{"android":"levelo://app?vid=66ee89c8-960e-4724-afc0-dddbc2e6ffa9","ios":"levelo://app?vid=66ee89c8-960e-4724-afc0-dddbc2e6ffa9"},"vehicle_type_id":"4","last_reported":1693591671,"current_range_meters":12800,"station_id":"ce4bh692rcd13ifvqea0","pricing_plan_id":"free"},{"bike_id":"f9924013-99b8-4b54-abf8-e4258d476f6b","system_id":"levelo_inurba_marseille","lat":43.292642,"lon":5.384254,"is_reserved":false,"is_disabled":false,"rental_uris":{"android":"levelo://app?vid=f9924013-99b8-4b54-abf8-e4258d476f6b","ios":"levelo://app?vid=f9924013-99b8-4b54-abf8-e4258d476f6b"},"vehicle_type_id":"4","last_reported":1693591671,"current_range_meters":13200,"station_id":"ce4bh692rcd13ifvqea0","pricing_plan_id":"free"},{"bike_id":"90151cde-bce7-43af-a1bb-23133c4d7802","system_id":"levelo_inurba_marseille","lat":43.29011,"lon":5.35634,"is_reserved":false,"is_disabled":false,"rental_uris":{"android":"levelo://app?vid=90151cde-bce7-43af-a1bb-23133c4d7802","ios":"levelo://app?vid=90151cde-bce7-43af-a1bb-23133c4d7802"},"vehicle_type_id":"4","last_reported":1693591671,"current_range_meters":19600,"station_id":"ce4bhb92rcd13ifvqen0","pricing_plan_id":"free"},{"bike_id":"f0e3f9e5-297f-421a-9e0e-a1fc3d7153e7","system_id":"levelo_inurba_marseille","lat":43.33042,"lon":5.38912,"is_reserved":false,"is_disabled":false,"rental_uris":{"android":"levelo://app?vid=f0e3f9e5-297f-421a-9e0e-a1fc3d7153e7","ios":"levelo://app?vid=f0e3f9e5-297f-421a-9e0e-a1fc3d7153e7"},"vehicle_type_id":"4","last_reported":1693591671,"current_range_meters":10000,"station_id":"ce4bhr92rcd13ifvqhrg","pricing_plan_id":"free"},{"bike_id":"c1b0850d-0a53-4da0-9f6b-a9a94f67666e","system_id":"levelo_inurba_marseille","lat":43.33045,"lon":5.38909,"is_reserved":false,"is_disabled":false,"rental_uris":{"android":"levelo://app?vid=c1b0850d-0a53-4da0-9f6b-a9a94f67666e","ios":"levelo://app?vid=c1b0850d-0a53-4da0-9f6b-a9a94f67666e"},"vehicle_type_id":"4","last_reported":1693591671,"current_range_meters":24800,"station_id":"ce4bhr92rcd13ifvqhrg","pricing_plan_id":"free"},{"bike_id":"276df892-9a2a-40a9-929d-29c6fe2dac65","system_id":"levelo_inurba_marseille","lat":43.33045,"lon":5.3891,"is_reserved":false,"is_disabled":false,"rental_uris":{"android":"levelo://app?vid=276df892-9a2a-40a9-929d-29c6fe2dac65","ios":"levelo://app?vid=276df892-9a2a-40a9-929d-29c6fe2dac65"},"vehicle_type_id":"4","last_reported":1693591671,"current_range_meters":26000,"station_id":"ce4bhr92rcd13ifvqhrg","pricing_plan_id":"free"},{"bike_id":"978b0ff4-c9df-43ed-a4e7-ec9b1854c595","system_id":"levelo_inurba_marseille","lat":43.33047,"lon":5.38909,"is_reserved":false,"is_disabled":false,"rental_uris":{"android":"levelo://app?vid=978b0ff4-c9df-43ed-a4e7-ec9b1854c595","ios":"levelo://app?vid=978b0ff4-c9df-43ed-a4e7-ec9b1854c595"},"vehicle_type_id":"4","last_reported":1693591671,"current_range_meters":20400,"station_id":"ce4bhr92rcd13ifvqhrg","pricing_plan_id":"free"},{"bike_id":"d346ead7-ea15-4af0-898b-f25c067a214a","system_id":"levelo_inurba_marseille","lat":43.33042,"lon":5.38917,"is_reserved":false,"is_disabled":false,"rental_uris":{"android":"levelo://app?vid=d346ead7-ea15-4af0-898b-f25c067a214a","ios":"levelo://app?vid=d346ead7-ea15-4af0-898b-f25c067a214a"},"vehicle_type_id":"4","last_reported":1693591671,"current_range_meters":19200,"station_id":"ce4bhr92rcd13ifvqhrg","pricing_plan_id":"free"},{"bike_id":"8077604d-b9d4-4aae-b42f-6a79c8cc4721","system_id":"levelo_inurba_marseille","lat":43.33044,"lon":5.38914,"is_reserved":false,"is_disabled":false,"rental_uris":{"android":"levelo://app?vid=8077604d-b9d4-4aae-b42f-6a79c8cc4721","ios":"levelo://app?vid=8077604d-b9d4-4aae-b42f-6a79c8cc4721"},"vehicle_type_id":"4","last_reported":1693591671,"current_range_meters":28400,"station_id":"ce4bhr92rcd13ifvqhrg","pricing_plan_id":"free"},{"bike_id":"97bd55a4-42e4-4fe4-b814-e15741181f07","system_id":"levelo_inurba_marseille","lat":43.33045,"lon":5.38914,"is_reserved":false,"is_disabled":false,"rental_uris":{"android":"levelo://app?vid=97bd55a4-42e4-4fe4-b814-e15741181f07","ios":"levelo://app?vid=97bd55a4-42e4-4fe4-b814-e15741181f07"},"vehicle_type_id":"4","last_reported":1693591671,"current_range_meters":5200,"station_id":"ce4bhr92rcd13ifvqhrg","pricing_plan_id":"free"},{"bike_id":"7415cb28-5bb8-4e61-80fa-a959db9672df","system_id":"levelo_inurba_marseille","lat":43.290081,"lon":5.356143,"is_reserved":false,"is_disabled":false,"rental_uris":{"android":"levelo://app?vid=7415cb28-5bb8-4e61-80fa-a959db9672df","ios":"levelo://app?vid=7415cb28-5bb8-4e61-80fa-a959db9672df"},"vehicle_type_id":"4","last_reported":1693591671,"current_range_meters":22400,"station_id":"ce4bhb92rcd13ifvqen0","pricing_plan_id":"free"},{"bike_id":"77b6a5af-33b4-421e-b7ab-c40a7072eb87","system_id":"levelo_inurba_marseille","lat":43.29009,"lon":5.35609,"is_reserved":false,"is_disabled":false,"rental_uris":{"android":"levelo://app?vid=77b6a5af-33b4-421e-b7ab-c40a7072eb87","ios":"levelo://app?vid=77b6a5af-33b4-421e-b7ab-c40a7072eb87"},"vehicle_type_id":"4","last_reported":1693591671,"current_range_meters":12000,"station_id":"ce4bhb92rcd13ifvqen0","pricing_plan_id":"free"},{"bike_id":"a6800ee6-0764-482e-a9a5-1937ca5e2ac2","system_id":"levelo_inurba_marseille","lat":43.330455,"lon":5.389162,"is_reserved":false,"is_disabled":false,"rental_uris":{"android":"levelo://app?vid=a6800ee6-0764-482e-a9a5-1937ca5e2ac2","ios":"levelo://app?vid=a6800ee6-0764-482e-a9a5-1937ca5e2ac2"},"vehicle_type_id":"4","last_reported":1693591671,"current_range_meters":13200,"station_id":"ce4bhr92rcd13ifvqhrg","pricing_plan_id":"free"},{"bike_id":"10a8b87c-9464-45fb-affc-beff0fff9410","system_id":"levelo_inurba_marseille","lat":43.33047,"lon":5.38914,"is_reserved":false,"is_disabled":false,"rental_uris":{"android":"levelo://app?vid=10a8b87c-9464-45fb-affc-beff0fff9410","ios":"levelo://app?vid=10a8b87c-9464-45fb-affc-beff0fff9410"},"vehicle_type_id":"4","last_reported":1693591671,"current_range_meters":3600,"station_id":"ce4bhr92rcd13ifvqhrg","pricing_plan_id":"free"},{"bike_id":"2cdba739-ebc5-413a-8a24-35edd08d69ea","system_id":"levelo_inurba_marseille","lat":43.33048,"lon":5.38913,"is_reserved":false,"is_disabled":false,"rental_uris":{"android":"levelo://app?vid=2cdba739-ebc5-413a-8a24-35edd08d69ea","ios":"levelo://app?vid=2cdba739-ebc5-413a-8a24-35edd08d69ea"},"vehicle_type_id":"4","last_reported":1693591671,"current_range_meters":20400,"station_id":"ce4bhr92rcd13ifvqhrg","pricing_plan_id":"free"},{"bike_id":"1895038e-acdb-4d35-aa35-e1291f23a30a","system_id":"levelo_inurba_marseille","lat":43.29006,"lon":5.35614,"is_reserved":false,"is_disabled":false,"rental_uris":{"android":"levelo://app?vid=1895038e-acdb-4d35-aa35-e1291f23a30a","ios":"levelo://app?vid=1895038e-acdb-4d35-aa35-e1291f23a30a"},"vehicle_type_id":"4","last_reported":1693591671,"current_range_meters":31200,"station_id":"ce4bhb92rcd13ifvqen0","pricing_plan_id":"free"},{"bike_id":"de49d3b5-e4d9-4ef6-8105-e1420d85cd7d","system_id":"levelo_inurba_marseille","lat":43.29006,"lon":5.35609,"is_reserved":false,"is_disabled":false,"rental_uris":{"android":"levelo://app?vid=de49d3b5-e4d9-4ef6-8105-e1420d85cd7d","ios":"levelo://app?vid=de49d3b5-e4d9-4ef6-8105-e1420d85cd7d"},"vehicle_type_id":"4","last_reported":1693591671,"current_range_meters":8800,"station_id":"ce4bhb92rcd13ifvqen0","pricing_plan_id":"free"},{"bike_id":"54822f2a-edf9-4f9e-9580-28b516053809","system_id":"levelo_inurba_marseille","lat":43.29004,"lon":5.35609,"is_reserved":false,"is_disabled":false,"rental_uris":{"android":"levelo://app?vid=54822f2a-edf9-4f9e-9580-28b516053809","ios":"levelo://app?vid=54822f2a-edf9-4f9e-9580-28b516053809"},"vehicle_type_id":"4","last_reported":1693591671,"current_range_meters":21200,"station_id":"ce4bhb92rcd13ifvqen0","pricing_plan_id":"free"},{"bike_id":"028b16b4-c861-455c-93e2-214442c48086","system_id":"levelo_inurba_marseille","lat":43.29004,"lon":5.35607,"is_reserved":false,"is_disabled":false,"rental_uris":{"android":"levelo://app?vid=028b16b4-c861-455c-93e2-214442c48086","ios":"levelo://app?vid=028b16b4-c861-455c-93e2-214442c48086"},"vehicle_type_id":"4","last_reported":1693591671,"current_range_meters":30800,"station_id":"ce4bhb92rcd13ifvqen0","pricing_plan_id":"free"},{"bike_id":"924e9474-74ce-4c3f-b59f-a88fb0eb5ec2","system_id":"levelo_inurba_marseille","lat":43.295169,"lon":5.390426,"is_reserved":false,"is_disabled":false,"rental_uris":{"android":"levelo://app?vid=924e9474-74ce-4c3f-b59f-a88fb0eb5ec2","ios":"levelo://app?vid=924e9474-74ce-4c3f-b59f-a88fb0eb5ec2"},"vehicle_type_id":"4","last_reported":1693591671,"current_range_meters":20000,"station_id":"ce4bh3p2rcd13ifvqdp0","pricing_plan_id":"free"},{"bike_id":"44d46e23-57ed-4cb3-b526-79b8a79f714b","system_id":"levelo_inurba_marseille","lat":43.295169,"lon":5.390426,"is_reserved":false,"is_disabled":false,"rental_uris":{"android":"levelo://app?vid=44d46e23-57ed-4cb3-b526-79b8a79f714b","ios":"levelo://app?vid=44d46e23-57ed-4cb3-b526-79b8a79f714b"},"vehicle_type_id":"4","last_reported":1693591671,"current_range_meters":5600,"station_id":"ce4bh3p2rcd13ifvqdp0","pricing_plan_id":"free"},{"bike_id":"2c5861c7-cf03-4872-b74d-58cd65d6c326","system_id":"levelo_inurba_marseille","lat":43.312609,"lon":5.401662,"is_reserved":false,"is_disabled":false,"rental_uris":{"android":"levelo://app?vid=2c5861c7-cf03-4872-b74d-58cd65d6c326","ios":"levelo://app?vid=2c5861c7-cf03-4872-b74d-58cd65d6c326"},"vehicle_type_id":"4","last_reported":1693591671,"current_range_meters":28800,"station_id":"ce4bh092rcd13ifvqd30","pricing_plan_id":"free"},{"bike_id":"5e0b65a3-4830-4efe-8df2-f90e6871cc74","system_id":"levelo_inurba_marseille","lat":43.30643,"lon":5.40065,"is_reserved":false,"is_disabled":false,"rental_uris":{"android":"levelo://app?vid=5e0b65a3-4830-4efe-8df2-f90e6871cc74","ios":"levelo://app?vid=5e0b65a3-4830-4efe-8df2-f90e6871cc74"},"vehicle_type_id":"4","last_reported":1693591671,"current_range_meters":29200,"station_id":"ce4bh112rcd13ifvqda0","pricing_plan_id":"free"},{"bike_id":"312c84a7-7ace-4b6c-9bac-64a1313be538","system_id":"levelo_inurba_marseille","lat":43.33755,"lon":5.37456,"is_reserved":false,"is_disabled":false,"rental_uris":{"android":"levelo://app?vid=312c84a7-7ace-4b6c-9bac-64a1313be538","ios":"levelo://app?vid=312c84a7-7ace-4b6c-9bac-64a1313be538"},"vehicle_type_id":"4","last_reported":1693591671,"current_range_meters":28000,"station_id":"","pricing_plan_id":"free"},{"bike_id":"9ee58e68-c916-4695-a741-736020dc746a","system_id":"levelo_inurba_marseille","lat":43.33782,"lon":5.37425,"is_reserved":false,"is_disabled":false,"rental_uris":{"android":"levelo://app?vid=9ee58e68-c916-4695-a741-736020dc746a","ios":"levelo://app?vid=9ee58e68-c916-4695-a741-736020dc746a"},"vehicle_type_id":"4","last_reported":1693591671,"current_range_meters":10800,"station_id":"","pricing_plan_id":"free"},{"bike_id":"02b37a80-d2d4-45cd-911b-bdf502170e10","system_id":"levelo_inurba_marseille","lat":43.301117,"lon":5.398795,"is_reserved":false,"is_disabled":false,"rental_uris":{"android":"levelo://app?vid=02b37a80-d2d4-45cd-911b-bdf502170e10","ios":"levelo://app?vid=02b37a80-d2d4-45cd-911b-bdf502170e10"},"vehicle_type_id":"4","last_reported":1693591671,"current_range_meters":26400,"station_id":"ce4bh0h2rcd13ifvqd40","pricing_plan_id":"free"},{"bike_id":"60ba7574-8eab-400a-b536-a01ce83b3ad1","system_id":"levelo_inurba_marseille","lat":43.286591,"lon":5.363346,"is_reserved":false,"is_disabled":false,"rental_uris":{"android":"levelo://app?vid=60ba7574-8eab-400a-b536-a01ce83b3ad1","ios":"levelo://app?vid=60ba7574-8eab-400a-b536-a01ce83b3ad1"},"vehicle_type_id":"4","last_reported":1693591671,"current_range_meters":400,"station_id":"ce4bhah2rcd13ifvqej0","pricing_plan_id":"free"},{"bike_id":"fd6f47e2-490f-4ce0-9465-f41562ecb9f4","system_id":"levelo_inurba_marseille","lat":43.295196,"lon":5.39397,"is_reserved":false,"is_disabled":false,"rental_uris":{"android":"levelo://app?vid=fd6f47e2-490f-4ce0-9465-f41562ecb9f4","ios":"levelo://app?vid=fd6f47e2-490f-4ce0-9465-f41562ecb9f4"},"vehicle_type_id":"4","last_reported":1693591671,"current_range_meters":26800,"station_id":"ce4bh292rcd13ifvqdf0","pricing_plan_id":"free"},{"bike_id":"2365150f-73ab-4507-aea4-76016e6109c8","system_id":"levelo_inurba_marseille","lat":43.28667,"lon":5.36341,"is_reserved":false,"is_disabled":false,"rental_uris":{"android":"levelo://app?vid=2365150f-73ab-4507-aea4-76016e6109c8","ios":"levelo://app?vid=2365150f-73ab-4507-aea4-76016e6109c8"},"vehicle_type_id":"4","last_reported":1693591671,"current_range_meters":29600,"station_id":"ce4bhah2rcd13ifvqej0","pricing_plan_id":"free"},{"bike_id":"a2b00cc5-db5d-4b5d-b95e-f68aa4acf9f2","system_id":"levelo_inurba_marseille","lat":43.287,"lon":5.37387,"is_reserved":false,"is_disabled":false,"rental_uris":{"android":"levelo://app?vid=a2b00cc5-db5d-4b5d-b95e-f68aa4acf9f2","ios":"levelo://app?vid=a2b00cc5-db5d-4b5d-b95e-f68aa4acf9f2"},"vehicle_type_id":"4","last_reported":1693591671,"current_range_meters":0,"station_id":"ce4bh3p2rcd13ifvqdq0","pricing_plan_id":"free"},{"bike_id":"75199276-b705-4ad7-b6a9-49aeaa84628a","system_id":"levelo_inurba_marseille","lat":43.286591,"lon":5.363346,"is_reserved":false,"is_disabled":false,"rental_uris":{"android":"levelo://app?vid=75199276-b705-4ad7-b6a9-49aeaa84628a","ios":"levelo://app?vid=75199276-b705-4ad7-b6a9-49aeaa84628a"},"vehicle_type_id":"4","last_reported":1693591671,"current_range_meters":29600,"station_id":"ce4bhah2rcd13ifvqej0","pricing_plan_id":"free"},{"bike_id":"16e6f8c8-cffb-4a14-866d-d79fad105b50","system_id":"levelo_inurba_marseille","lat":43.295196,"lon":5.39397,"is_reserved":false,"is_disabled":false,"rental_uris":{"android":"levelo://app?vid=16e6f8c8-cffb-4a14-866d-d79fad105b50","ios":"levelo://app?vid=16e6f8c8-cffb-4a14-866d-d79fad105b50"},"vehicle_type_id":"4","last_reported":1693591671,"current_range_meters":13200,"station_id":"ce4bh292rcd13ifvqdf0","pricing_plan_id":"free"},{"bike_id":"d98d64bd-bfa8-4112-a8f0-bf9ae0ac94de","system_id":"levelo_inurba_marseille","lat":43.295196,"lon":5.39397,"is_reserved":false,"is_disabled":false,"rental_uris":{"android":"levelo://app?vid=d98d64bd-bfa8-4112-a8f0-bf9ae0ac94de","ios":"levelo://app?vid=d98d64bd-bfa8-4112-a8f0-bf9ae0ac94de"},"vehicle_type_id":"4","last_reported":1693591671,"current_range_meters":2000,"station_id":"ce4bh292rcd13ifvqdf0","pricing_plan_id":"free"},{"bike_id":"7a0cea66-7ed1-440e-8a1c-a18afc60c25e","system_id":"levelo_inurba_marseille","lat":43.29031,"lon":5.38637,"is_reserved":false,"is_disabled":false,"rental_uris":{"android":"levelo://app?vid=7a0cea66-7ed1-440e-8a1c-a18afc60c25e","ios":"levelo://app?vid=7a0cea66-7ed1-440e-8a1c-a18afc60c25e"},"vehicle_type_id":"4","last_reported":1693591671,"current_range_meters":0,"station_id":"ce4bh4p2rcd13ifvqe0g","pricing_plan_id":"free"},{"bike_id":"a8af8415-1aa9-4f1e-9104-efbb22a30331","system_id":"levelo_inurba_marseille","lat":43.295713,"lon":5.399639,"is_reserved":false,"is_disabled":false,"rental_uris":{"android":"levelo://app?vid=a8af8415-1aa9-4f1e-9104-efbb22a30331","ios":"levelo://app?vid=a8af8415-1aa9-4f1e-9104-efbb22a30331"},"vehicle_type_id":"4","last_reported":1693591671,"current_range_meters":5600,"station_id":"ce4bh312rcd13ifvqdj0","pricing_plan_id":"free"},{"bike_id":"2ed5646c-add8-4322-a5c7-06bd263765c8","system_id":"levelo_inurba_marseille","lat":43.287184,"lon":5.37937,"is_reserved":false,"is_disabled":false,"rental_uris":{"android":"levelo://app?vid=2ed5646c-add8-4322-a5c7-06bd263765c8","ios":"levelo://app?vid=2ed5646c-add8-4322-a5c7-06bd263765c8"},"vehicle_type_id":"4","last_reported":1693591671,"current_range_meters":13200,"station_id":"ce4bh9p2rcd13ifvqec0","pricing_plan_id":"free"},{"bike_id":"b984fe8c-987c-4cae-bdd5-6d2698c4bd9b","system_id":"levelo_inurba_marseille","lat":43.28726,"lon":5.37935,"is_reserved":false,"is_disabled":false,"rental_uris":{"android":"levelo://app?vid=b984fe8c-987c-4cae-bdd5-6d2698c4bd9b","ios":"levelo://app?vid=b984fe8c-987c-4cae-bdd5-6d2698c4bd9b"},"vehicle_type_id":"4","last_reported":1693591671,"current_range_meters":0,"station_id":"ce4bh9p2rcd13ifvqec0","pricing_plan_id":"free"},{"bike_id":"cef2c05e-2b98-4864-8480-8a712419d6b1","system_id":"levelo_inurba_marseille","lat":43.316517,"lon":5.404375,"is_reserved":false,"is_disabled":false,"rental_uris":{"android":"levelo://app?vid=cef2c05e-2b98-4864-8480-8a712419d6b1","ios":"levelo://app?vid=cef2c05e-2b98-4864-8480-8a712419d6b1"},"vehicle_type_id":"4","last_reported":1693591671,"current_range_meters":19200,"station_id":"ce4bh012rcd13ifvqd00","pricing_plan_id":"free"},{"bike_id":"cf00376f-314f-4f2a-9451-bd9b2d6dc507","system_id":"levelo_inurba_marseille","lat":43.31645,"lon":5.40434,"is_reserved":false,"is_disabled":false,"rental_uris":{"android":"levelo://app?vid=cf00376f-314f-4f2a-9451-bd9b2d6dc507","ios":"levelo://app?vid=cf00376f-314f-4f2a-9451-bd9b2d6dc507"},"vehicle_type_id":"4","last_reported":1693591671,"current_range_meters":24800,"station_id":"ce4bh012rcd13ifvqd00","pricing_plan_id":"free"},{"bike_id":"f04ea742-2d16-48ae-a96f-b8e8082f5199","system_id":"levelo_inurba_marseille","lat":43.316534,"lon":5.404369,"is_reserved":false,"is_disabled":false,"rental_uris":{"android":"levelo://app?vid=f04ea742-2d16-48ae-a96f-b8e8082f5199","ios":"levelo://app?vid=f04ea742-2d16-48ae-a96f-b8e8082f5199"},"vehicle_type_id":"4","last_reported":1693591671,"current_range_meters":27200,"station_id":"ce4bh012rcd13ifvqd00","pricing_plan_id":"free"},{"bike_id":"419cdeff-0149-4332-a77c-2b95f4095bfb","system_id":"levelo_inurba_marseille","lat":43.291994,"lon":5.392907,"is_reserved":false,"is_disabled":false,"rental_uris":{"android":"levelo://app?vid=419cdeff-0149-4332-a77c-2b95f4095bfb","ios":"levelo://app?vid=419cdeff-0149-4332-a77c-2b95f4095bfb"},"vehicle_type_id":"4","last_reported":1693591671,"current_range_meters":16800,"station_id":"ce4bh192rcd13ifvqdd0","pricing_plan_id":"free"},{"bike_id":"46a186cc-bfd0-4931-8da7-c1b120cb53c0","system_id":"levelo_inurba_marseille","lat":43.291994,"lon":5.392907,"is_reserved":false,"is_disabled":false,"rental_uris":{"android":"levelo://app?vid=46a186cc-bfd0-4931-8da7-c1b120cb53c0","ios":"levelo://app?vid=46a186cc-bfd0-4931-8da7-c1b120cb53c0"},"vehicle_type_id":"4","last_reported":1693591671,"current_range_meters":18000,"station_id":"ce4bh192rcd13ifvqdd0","pricing_plan_id":"free"},{"bike_id":"f3cfa96c-c737-4afa-b761-d829fae6c28d","system_id":"levelo_inurba_marseille","lat":43.291994,"lon":5.392907,"is_reserved":false,"is_disabled":false,"rental_uris":{"android":"levelo://app?vid=f3cfa96c-c737-4afa-b761-d829fae6c28d","ios":"levelo://app?vid=f3cfa96c-c737-4afa-b761-d829fae6c28d"},"vehicle_type_id":"4","last_reported":1693591671,"current_range_meters":20800,"station_id":"ce4bh192rcd13ifvqdd0","pricing_plan_id":"free"},{"bike_id":"81c9bc0e-b57e-4cef-bbe8-aeb66f89a06a","system_id":"levelo_inurba_marseille","lat":43.284538,"lon":5.358657,"is_reserved":false,"is_disabled":false,"rental_uris":{"android":"levelo://app?vid=81c9bc0e-b57e-4cef-bbe8-aeb66f89a06a","ios":"levelo://app?vid=81c9bc0e-b57e-4cef-bbe8-aeb66f89a06a"},"vehicle_type_id":"4","last_reported":1693591671,"current_range_meters":14400,"station_id":"ce4bhah2rcd13ifvqei0","pricing_plan_id":"free"},{"bike_id":"c762bc98-1984-4da0-9902-348b9a8fc5de","system_id":"levelo_inurba_marseille","lat":43.28457,"lon":5.35885,"is_reserved":false,"is_disabled":false,"rental_uris":{"android":"levelo://app?vid=c762bc98-1984-4da0-9902-348b9a8fc5de","ios":"levelo://app?vid=c762bc98-1984-4da0-9902-348b9a8fc5de"},