{"last_updated":1745320135,"ttl":60,"version":"2.2","data":{"bikes":[{"bike_id":"eea97258-4a8a-478d-970d-ed5e4bd3c92c","system_id":"levelo_inurba_marseille","lat":43.32065,"lon":5.41012,"is_reserved":false,"is_disabled":false,"rental_uris":{"android":"levelo://app?vid=eea97258-4a8a-478d-970d-ed5e4bd3c92c","ios":"levelo://app?vid=eea97258-4a8a-478d-970d-ed5e4bd3c92c"},"vehicle_type_id":"4","last_reported":1745320135,"current_range_meters":2800,"station_id":"","pricing_plan_id":"cebpf4jnsgd1na2vs0mg"},{"bike_id":"2b82b0af-48dd-49f1-8953-b568e4166a23","system_id":"levelo_inurba_marseille","lat":43.2688,"lon":5.386,"is_reserved":false,"is_disabled":true,"rental_uris":{"android":"levelo://app?vid=2b82b0af-48dd-49f1-8953-b568e4166a23","ios":"levelo://app?vid=2b82b0af-48dd-49f1-8953-b568e4166a23"},"vehicle_type_id":"4","last_reported":1745320135,"current_range_meters":2800,"station_id":"","pricing_plan_id":"cebpf4jnsgd1na2vs0mg"},{"bike_id":"cdfeb60c-53d0-4633-b4bb-c32ac36e86ff","system_id":"levelo_inurba_marseille","lat":43.32366,"lon":5.42065,"is_reserved":false,"is_disabled":false,"rental_uris":{"android":"levelo://app?vid=cdfeb60c-53d0-4633-b4bb-c32ac36e86ff","ios":"levelo://app?vid=cdfeb60c-53d0-4633-b4bb-c32ac36e86ff"},"vehicle_type_id":"4","last_reported":1745320135,"current_range_meters":2800,"station_id":"","pricing_plan_id":"cebpf4jnsgd1na2vs0mg"},{"bike_id":"043f5f18-6f78-4148-87ce-38086af1526a","system_id":"levelo_inurba_marseille","lat":43.28465,"lon":5.3843,"is_reserved":false,"is_disabled":false,"rental_uris":{"android":"levelo://app?vid=043f5f18-6f78-4148-87ce-38086af1526a","ios":"levelo://app?vid=043f5f18-6f78-4148-87ce-38086af1526a"},"vehicle_type_id":"4","last_reported":1745320135,"current_range_meters":2000,"station_id":"ce4bh512rcd13ifvqe3g","pricing_plan_id":"cebpf4jnsgd1na2vs0mg"},{"bike_id":"dc0e1316-8ee0-46af-8d72-498345fd74bc","system_id":"levelo_inurba_marseille","lat":43.26583,"lon":5.39034,"is_reserved":false,"is_disabled":false,"rental_uris":{"android":"levelo://app?vid=dc0e1316-8ee0-46af-8d72-498345fd74bc","ios":"levelo://app?vid=dc0e1316-8ee0-46af-8d72-498345fd74bc"},"vehicle_type_id":"4","last_reported":1745320135,"current_range_meters":2800,"station_id":"ce4bhe12rcd13ifvqf30","pricing_plan_id":"cebpf4jnsgd1na2vs0mg"},{"bike_id":"22bbe99b-1245-4eb5-b575-0fccd7e1b605","system_id":"levelo_inurba_marseille","lat":43.30323,"lon":5.40432,"is_reserved":false,"is_disabled":false,"rental_uris":{"android":"levelo://app?vid=22bbe99b-1245-4eb5-b575-0fccd7e1b605","ios":"levelo://app?vid=22bbe99b-1245-4eb5-b575-0fccd7e1b605"},"vehicle_type_id":"4","last_reported":1745320135,"current_range_meters":4800,"station_id":"ce4bh012rcd13ifvqd10","pricing_plan_id":"cebpf4jnsgd1na2vs0mg"},{"bike_id":"afcf9a1e-0a1b-425e-8676-509c93040b99","system_id":"levelo_inurba_marseille","lat":43.27495,"lon":5.424653,"is_reserved":false,"is_disabled":true,"rental_uris":{"android":"levelo://app?vid=afcf9a1e-0a1b-425e-8676-509c93040b99","ios":"levelo://app?vid=afcf9a1e-0a1b-425e-8676-509c93040b99"},"vehicle_type_id":"4","last_reported":1745320135,"current_range_meters":3600,"station_id":"ce4bhn92rcd13ifvqgrg","pricing_plan_id":"cebpf4jnsgd1na2vs0mg"},{"bike_id":"f9d12095-164c-44d6-8a4a-a72f6cec38c0","system_id":"levelo_inurba_marseille","lat":43.280376,"lon":5.369403,"is_reserved":false,"is_disabled":false,"rental_uris":{"android":"levelo://app?vid=f9d12095-164c-44d6-8a4a-a72f6cec38c0","ios":"levelo://app?vid=f9d12095-164c-44d6-8a4a-a72f6cec38c0"},"vehicle_type_id":"4","last_reported":1745320135,"current_range_meters":3600,"station_id":"ce4bha12rcd13ifvqef0","pricing_plan_id":"cebpf4jnsgd1na2vs0mg"},{"bike_id":"908d86c6-a410-4b45-bbd2-6749031b23b6","system_id":"levelo_inurba_marseille","lat":43.29593,"lon":5.38116,"is_reserved":false,"is_disabled":false,"rental_uris":{"android":"levelo://app?vid=908d86c6-a410-4b45-bbd2-6749031b23b6","ios":"levelo://app?vid=908d86c6-a410-4b45-bbd2-6749031b23b6"},"vehicle_type_id":"4","last_reported":1745320135,"current_range_meters":3200,"station_id":"ce4bgl12rcd13ifvqbo0","pricing_plan_id":"cebpf4jnsgd1na2vs0mg"},{"bike_id":"e381a5c4-c4aa-4901-aa52-1afc291716f4","system_id":"levelo_inurba_marseille","lat":43.28362,"lon":5.38652,"is_reserved":false,"is_disabled":false,"rental_uris":{"android":"levelo://app?vid=e381a5c4-c4aa-4901-aa52-1afc291716f4","ios":"levelo://app?vid=e381a5c4-c4aa-4901-aa52-1afc291716f4"},"vehicle_type_id":"4","last_reported":1745320135,"current_range_meters":4000,"station_id":"ce4bh492rcd13ifvqdvg","pricing_plan_id":"cebpf4jnsgd1na2vs0mg"},{"bike_id":"14759cd8-6be4-40cd-8d1f-607aca8a9e7c","system_id":"levelo_inurba_marseille","lat":43.297047,"lon":5.36608,"is_reserved":false,"is_disabled":false,"rental_uris":{"android":"levelo://app?vid=14759cd8-6be4-40cd-8d1f-607aca8a9e7c","ios":"levelo://app?vid=14759cd8-6be4-40cd-8d1f-607aca8a9e7c"},"vehicle_type_id":"4","last_reported":1745320135,"current_range_meters":4800,"station_id":"ce4bgh92rcd13ifvqb50","pricing_plan_id":"cebpf4jnsgd1na2vs0mg"},{"bike_id":"b052ef0c-d0c2-401c-ba89-42f7f5e25ea3","system_id":"levelo_inurba_marseille","lat":43.31534,"lon":5.36952,"is_reserved":false,"is_disabled":false,"rental_uris":{"android":"levelo://app?vid=b052ef0c-d0c2-401c-ba89-42f7f5e25ea3","ios":"levelo://app?vid=b052ef0c-d0c2-401c-ba89-42f7f5e25ea3"},"vehicle_type_id":"4","last_reported":1745320135,"current_range_meters":4800,"station_id":"ce4bgr92rcd13ifvqc6g","pricing_plan_id":"cebpf4jnsgd1na2vs0mg"},{"bike_id":"08adba7b-eac3-4cfc-9923-2ccf0cc4ffef","system_id":"levelo_inurba_marseille","lat":43.24637,"lon":5.41369,"is_reserved":false,"is_disabled":false,"rental_uris":{"android":"levelo://app?vid=08adba7b-eac3-4cfc-9923-2ccf0cc4ffef","ios":"levelo://app?vid=08adba7b-eac3-4cfc-9923-2ccf0cc4ffef"},"vehicle_type_id":"4","last_reported":1745320135,"current_range_meters":5600,"station_id":"","pricing_plan_id":"cebpf4jnsgd1na2vs0mg"},{"bike_id":"1735428b-8ee4-4554-8561-e47451b3a8ec","system_id":"levelo_inurba_marseille","lat":43.3096,"lon":5.39043,"is_reserved":false,"is_disabled":false,"rental_uris":{"android":"levelo://app?vid=1735428b-8ee4-4554-8561-e47451b3a8ec","ios":"levelo://app?vid=1735428b-8ee4-4554-8561-e47451b3a8ec"},"vehicle_type_id":"4","last_reported":1745320135,"current_range_meters":5600,"station_id":"ce4bgup2rcd13ifvqco0","pricing_plan_id":"cebpf4jnsgd1na2vs0mg"},{"bike_id":"aa3de543-5a4d-416d-9dde-a999c016ee61","system_id":"levelo_inurba_marseille","lat":43.26942,"lon":5.40256,"is_reserved":false,"is_disabled":false,"rental_uris":{"android":"levelo://app?vid=aa3de543-5a4d-416d-9dde-a999c016ee61","ios":"levelo://app?vid=aa3de543-5a4d-416d-9dde-a999c016ee61"},"vehicle_type_id":"4","last_reported":1745320135,"current_range_meters":5600,"station_id":"cjm6bp8fraef2m0cb0m0","pricing_plan_id":"cebpf4jnsgd1na2vs0mg"},{"bike_id":"73290035-f671-4bc1-ac85-b854c82d85d8","system_id":"levelo_inurba_marseille","lat":43.28728,"lon":5.37932,"is_reserved":false,"is_disabled":false,"rental_uris":{"android":"levelo://app?vid=73290035-f671-4bc1-ac85-b854c82d85d8","ios":"levelo://app?vid=73290035-f671-4bc1-ac85-b854c82d85d8"},"vehicle_type_id":"4","last_reported":1745320135,"current_range_meters":5600,"station_id":"ce4bh9p2rcd13ifvqec0","pricing_plan_id":"cebpf4jnsgd1na2vs0mg"},{"bike_id":"14814e23-e7ca-4cbd-ab62-fe28199760a7","system_id":"levelo_inurba_marseille","lat":43.31245,"lon":5.36852,"is_reserved":false,"is_disabled":false,"rental_uris":{"android":"levelo://app?vid=14814e23-e7ca-4cbd-ab62-fe28199760a7","ios":"levelo://app?vid=14814e23-e7ca-4cbd-ab62-fe28199760a7"},"vehicle_type_id":"4","last_reported":1745320135,"current_range_meters":6000,"station_id":"ce4bgl92rcd13ifvqbq0","pricing_plan_id":"cebpf4jnsgd1na2vs0mg"},{"bike_id":"8191ed41-91df-46bd-b915-08b78567edfd","system_id":"levelo_inurba_marseille","lat":43.30143,"lon":5.38783,"is_reserved":false,"is_disabled":false,"rental_uris":{"android":"levelo://app?vid=8191ed41-91df-46bd-b915-08b78567edfd","ios":"levelo://app?vid=8191ed41-91df-46bd-b915-08b78567edfd"},"vehicle_type_id":"4","last_reported":1745320135,"current_range_meters":4400,"station_id":"ce4bghh2rcd13ifvqb60","pricing_plan_id":"cebpf4jnsgd1na2vs0mg"},{"bike_id":"50dab2f3-0957-4870-a919-dbe633d8d7aa","system_id":"levelo_inurba_marseille","lat":43.270529,"lon":5.402551,"is_reserved":false,"is_disabled":false,"rental_uris":{"android":"levelo://app?vid=50dab2f3-0957-4870-a919-dbe633d8d7aa","ios":"levelo://app?vid=50dab2f3-0957-4870-a919-dbe633d8d7aa"},"vehicle_type_id":"4","last_reported":1745320135,"current_range_meters":6400,"station_id":"ce4bhkp2rcd13ifvqgd0","pricing_plan_id":"cebpf4jnsgd1na2vs0mg"},{"bike_id":"4b2f10e7-05d0-4d75-b52b-5461f64821e9","system_id":"levelo_inurba_marseille","lat":43.29035,"lon":5.37567,"is_reserved":false,"is_disabled":false,"rental_uris":{"android":"levelo://app?vid=4b2f10e7-05d0-4d75-b52b-5461f64821e9","ios":"levelo://app?vid=4b2f10e7-05d0-4d75-b52b-5461f64821e9"},"vehicle_type_id":"4","last_reported":1745320135,"current_range_meters":5600,"station_id":"ce4bh692rcd13ifvqe90","pricing_plan_id":"cebpf4jnsgd1na2vs0mg"},{"bike_id":"0a144b4a-fc6a-4a53-a602-5298d59f38f0","system_id":"levelo_inurba_marseille","lat":43.32047,"lon":5.41527,"is_reserved":false,"is_disabled":false,"rental_uris":{"android":"levelo://app?vid=0a144b4a-fc6a-4a53-a602-5298d59f38f0","ios":"levelo://app?vid=0a144b4a-fc6a-4a53-a602-5298d59f38f0"},"vehicle_type_id":"4","last_reported":1745320135,"current_range_meters":6400,"station_id":"ce4bhq92rcd13ifvqhkg","pricing_plan_id":"cebpf4jnsgd1na2vs0mg"},{"bike_id":"f98bcad6-534d-4647-9654-acf13ee2a765","system_id":"levelo_inurba_marseille","lat":43.30899,"lon":5.37204,"is_reserved":false,"is_disabled":false,"rental_uris":{"android":"levelo://app?vid=f98bcad6-534d-4647-9654-acf13ee2a765","ios":"levelo://app?vid=f98bcad6-534d-4647-9654-acf13ee2a765"},"vehicle_type_id":"4","last_reported":1745320135,"current_range_meters":6800,"station_id":"ce4bguh2rcd13ifvqckg","pricing_plan_id":"cebpf4jnsgd1na2vs0mg"},{"bike_id":"e1743966-9138-4d25-b902-9596b7b8672a","system_id":"levelo_inurba_marseille","lat":43.301,"lon":5.3908,"is_reserved":false,"is_disabled":true,"rental_uris":{"android":"levelo://app?vid=e1743966-9138-4d25-b902-9596b7b8672a","ios":"levelo://app?vid=e1743966-9138-4d25-b902-9596b7b8672a"},"vehicle_type_id":"4","last_reported":1745320135,"current_range_meters":7200,"station_id":"ce4bh192rcd13ifvqdb0","pricing_plan_id":"cebpf4jnsgd1na2vs0mg"},{"bike_id":"bc5791d9-5e4e-4d70-bc7f-fe08bf1352ff","system_id":"levelo_inurba_marseille","lat":43.28488,"lon":5.38425,"is_reserved":false,"is_disabled":false,"rental_uris":{"android":"levelo://app?vid=bc5791d9-5e4e-4d70-bc7f-fe08bf1352ff","ios":"levelo://app?vid=bc5791d9-5e4e-4d70-bc7f-fe08bf1352ff"},"vehicle_type_id":"4","last_reported":1745320135,"current_range_meters":8000,"station_id":"ce4bh512rcd13ifvqe3g","pricing_plan_id":"cebpf4jnsgd1na2vs0mg"},{"bike_id":"80349d4c-4a0e-48a3-a927-7fee52468c5c","system_id":"levelo_inurba_marseille","lat":43.32354,"lon":5.36732,"is_reserved":false,"is_disabled":false,"rental_uris":{"android":"levelo://app?vid=80349d4c-4a0e-48a3-a927-7fee52468c5c","ios":"levelo://app?vid=80349d4c-4a0e-48a3-a927-7fee52468c5c"},"vehicle_type_id":"4","last_reported":1745320135,"current_range_meters":8000,"station_id":"ce4bhsh2rcd13ifvqi2g","pricing_plan_id":"cebpf4jnsgd1na2vs0mg"},{"bike_id":"49a70bb9-d277-4686-b810-afae698caaa7","system_id":"levelo_inurba_marseille","lat":43.28973,"lon":5.37841,"is_reserved":false,"is_disabled":false,"rental_uris":{"android":"levelo://app?vid=49a70bb9-d277-4686-b810-afae698caaa7","ios":"levelo://app?vid=49a70bb9-d277-4686-b810-afae698caaa7"},"vehicle_type_id":"4","last_reported":1745320135,"current_range_meters":8000,"station_id":"ce4bh9p2rcd13ifvqed0","pricing_plan_id":"cebpf4jnsgd1na2vs0mg"},{"bike_id":"4daf293c-27fa-4fd3-9732-b781377f0dd2","system_id":"levelo_inurba_marseille","lat":43.31528,"lon":5.38049,"is_reserved":false,"is_disabled":true,"rental_uris":{"android":"levelo://app?vid=4daf293c-27fa-4fd3-9732-b781377f0dd2","ios":"levelo://app?vid=4daf293c-27fa-4fd3-9732-b781377f0dd2"},"vehicle_type_id":"4","last_reported":1745320135,"current_range_meters":8000,"station_id":"ce4bhsp2rcd13ifvqi50","pricing_plan_id":"cebpf4jnsgd1na2vs0mg"},{"bike_id":"458fe65a-417e-411f-a538-364fdce905af","system_id":"levelo_inurba_marseille","lat":43.29797,"lon":5.40391,"is_reserved":false,"is_disabled":false,"rental_uris":{"android":"levelo://app?vid=458fe65a-417e-411f-a538-364fdce905af","ios":"levelo://app?vid=458fe65a-417e-411f-a538-364fdce905af"},"vehicle_type_id":"4","last_reported":1745320135,"current_range_meters":8000,"station_id":"ce4bh112rcd13ifvqd90","pricing_plan_id":"cebpf4jnsgd1na2vs0mg"},{"bike_id":"22ad8cd8-448d-4f6e-b2fe-740f8d592dd7","system_id":"levelo_inurba_marseille","lat":43.33795,"lon":5.37402,"is_reserved":false,"is_disabled":false,"rental_uris":{"android":"levelo://app?vid=22ad8cd8-448d-4f6e-b2fe-740f8d592dd7","ios":"levelo://app?vid=22ad8cd8-448d-4f6e-b2fe-740f8d592dd7"},"vehicle_type_id":"4","last_reported":1745320135,"current_range_meters":8400,"station_id":"","pricing_plan_id":"cebpf4jnsgd1na2vs0mg"},{"bike_id":"f84aeb92-bc88-468c-8e91-798d331a8e11","system_id":"levelo_inurba_marseille","lat":43.32457,"lon":5.366,"is_reserved":false,"is_disabled":false,"rental_uris":{"android":"levelo://app?vid=f84aeb92-bc88-468c-8e91-798d331a8e11","ios":"levelo://app?vid=f84aeb92-bc88-468c-8e91-798d331a8e11"},"vehicle_type_id":"4","last_reported":1745320135,"current_range_meters":8400,"station_id":"ce4bhs12rcd13ifvqhvg","pricing_plan_id":"cebpf4jnsgd1na2vs0mg"},{"bike_id":"1c755526-7610-4241-9257-348acde561d3","system_id":"levelo_inurba_marseille","lat":43.2486,"lon":5.38204,"is_reserved":false,"is_disabled":false,"rental_uris":{"android":"levelo://app?vid=1c755526-7610-4241-9257-348acde561d3","ios":"levelo://app?vid=1c755526-7610-4241-9257-348acde561d3"},"vehicle_type_id":"4","last_reported":1745320135,"current_range_meters":8400,"station_id":"","pricing_plan_id":"cebpf4jnsgd1na2vs0mg"},{"bike_id":"1921eb70-2b45-426f-b007-08fadc46d6e0","system_id":"levelo_inurba_marseille","lat":43.29979,"lon":5.3718,"is_reserved":false,"is_disabled":false,"rental_uris":{"android":"levelo://app?vid=1921eb70-2b45-426f-b007-08fadc46d6e0","ios":"levelo://app?vid=1921eb70-2b45-426f-b007-08fadc46d6e0"},"vehicle_type_id":"4","last_reported":1745320135,"current_range_meters":8000,"station_id":"ce4bgr92rcd13ifvqc7g","pricing_plan_id":"cebpf4jnsgd1na2vs0mg"},{"bike_id":"4307bba7-8687-4de7-b58d-d693757553de","system_id":"levelo_inurba_marseille","lat":43.25858,"lon":5.39896,"is_reserved":false,"is_disabled":false,"rental_uris":{"android":"levelo://app?vid=4307bba7-8687-4de7-b58d-d693757553de","ios":"levelo://app?vid=4307bba7-8687-4de7-b58d-d693757553de"},"vehicle_type_id":"4","last_reported":1745320135,"current_range_meters":8400,"station_id":"ce4bhl92rcd13ifvqghg","pricing_plan_id":"cebpf4jnsgd1na2vs0mg"},{"bike_id":"73df79b5-977a-4d48-a3ce-5618816d2de5","system_id":"levelo_inurba_marseille","lat":43.211937,"lon":5.350711,"is_reserved":false,"is_disabled":false,"rental_uris":{"android":"levelo://app?vid=73df79b5-977a-4d48-a3ce-5618816d2de5","ios":"levelo://app?vid=73df79b5-977a-4d48-a3ce-5618816d2de5"},"vehicle_type_id":"4","last_reported":1745320135,"current_range_meters":8400,"station_id":"st_cvj6sg6p6f1abm77japg","pricing_plan_id":"cebpf4jnsgd1na2vs0mg"},{"bike_id":"cc292602-9b73-4880-bdff-7031a047fea9","system_id":"levelo_inurba_marseille","lat":43.29708,"lon":5.37692,"is_reserved":false,"is_disabled":false,"rental_uris":{"android":"levelo://app?vid=cc292602-9b73-4880-bdff-7031a047fea9","ios":"levelo://app?vid=cc292602-9b73-4880-bdff-7031a047fea9"},"vehicle_type_id":"4","last_reported":1745320135,"current_range_meters":8400,"station_id":"ce4bgkh2rcd13ifvqbl0","pricing_plan_id":"cebpf4jnsgd1na2vs0mg"},{"bike_id":"7ca2acd8-f337-48b6-908a-0b58bccc4014","system_id":"levelo_inurba_marseille","lat":43.28987,"lon":5.37826,"is_reserved":false,"is_disabled":false,"rental_uris":{"android":"levelo://app?vid=7ca2acd8-f337-48b6-908a-0b58bccc4014","ios":"levelo://app?vid=7ca2acd8-f337-48b6-908a-0b58bccc4014"},"vehicle_type_id":"4","last_reported":1745320135,"current_range_meters":14400,"station_id":"ce4bh9p2rcd13ifvqed0","pricing_plan_id":"cebpf4jnsgd1na2vs0mg"},{"bike_id":"cb177e2f-9ad1-4b29-9bab-627ac33e9744","system_id":"levelo_inurba_marseille","lat":43.23963,"lon":5.36628,"is_reserved":false,"is_disabled":false,"rental_uris":{"android":"levelo://app?vid=cb177e2f-9ad1-4b29-9bab-627ac33e9744","ios":"levelo://app?vid=cb177e2f-9ad1-4b29-9bab-627ac33e9744"},"vehicle_type_id":"4","last_reported":1745320135,"current_range_meters":8800,"station_id":"ce4bhi12rcd13ifvqfp0","pricing_plan_id":"cebpf4jnsgd1na2vs0mg"},{"bike_id":"6efbea2d-5eb1-4a4a-8c84-47a375f78190","system_id":"levelo_inurba_marseille","lat":43.29866,"lon":5.38916,"is_reserved":false,"is_disabled":true,"rental_uris":{"android":"levelo://app?vid=6efbea2d-5eb1-4a4a-8c84-47a375f78190","ios":"levelo://app?vid=6efbea2d-5eb1-4a4a-8c84-47a375f78190"},"vehicle_type_id":"4","last_reported":1745320135,"current_range_meters":8800,"station_id":"ce4bh392rcd13ifvqdl0","pricing_plan_id":"cebpf4jnsgd1na2vs0mg"},{"bike_id":"83e5fbcb-27c0-4b87-9d75-d260a7718079","system_id":"levelo_inurba_marseille","lat":43.2884,"lon":5.39311,"is_reserved":false,"is_disabled":false,"rental_uris":{"android":"levelo://app?vid=83e5fbcb-27c0-4b87-9d75-d260a7718079","ios":"levelo://app?vid=83e5fbcb-27c0-4b87-9d75-d260a7718079"},"vehicle_type_id":"4","last_reported":1745320135,"current_range_meters":8800,"station_id":"ce4bh2p2rcd13ifvqdi0","pricing_plan_id":"cebpf4jnsgd1na2vs0mg"},{"bike_id":"5e7de3f9-aa04-474e-91d0-4230b6406eba","system_id":"levelo_inurba_marseille","lat":43.21191,"lon":5.35071,"is_reserved":false,"is_disabled":false,"rental_uris":{"android":"levelo://app?vid=5e7de3f9-aa04-474e-91d0-4230b6406eba","ios":"levelo://app?vid=5e7de3f9-aa04-474e-91d0-4230b6406eba"},"vehicle_type_id":"4","last_reported":1745320135,"current_range_meters":9200,"station_id":"st_cvj6sg6p6f1abm77japg","pricing_plan_id":"cebpf4jnsgd1na2vs0mg"},{"bike_id":"1d401654-324c-4582-8029-666bedcebabe","system_id":"levelo_inurba_marseille","lat":43.30594,"lon":5.39359,"is_reserved":false,"is_disabled":false,"rental_uris":{"android":"levelo://app?vid=1d401654-324c-4582-8029-666bedcebabe","ios":"levelo://app?vid=1d401654-324c-4582-8029-666bedcebabe"},"vehicle_type_id":"4","last_reported":1745320135,"current_range_meters":9200,"station_id":"ce4bh0p2rcd13ifvqd80","pricing_plan_id":"cebpf4jnsgd1na2vs0mg"},{"bike_id":"cc87667a-a822-4e61-a404-b9ad6c737b13","system_id":"levelo_inurba_marseille","lat":43.29966,"lon":5.41321,"is_reserved":false,"is_disabled":false,"rental_uris":{"android":"levelo://app?vid=cc87667a-a822-4e61-a404-b9ad6c737b13","ios":"levelo://app?vid=cc87667a-a822-4e61-a404-b9ad6c737b13"},"vehicle_type_id":"4","last_reported":1745320135,"current_range_meters":9200,"station_id":"ce4bhp12rcd13ifvqh9g","pricing_plan_id":"cebpf4jnsgd1na2vs0mg"},{"bike_id":"7ec71919-eb1e-4aa1-9b29-5ae167aa25dd","system_id":"levelo_inurba_marseille","lat":43.3151,"lon":5.36319,"is_reserved":false,"is_disabled":false,"rental_uris":{"android":"levelo://app?vid=7ec71919-eb1e-4aa1-9b29-5ae167aa25dd","ios":"levelo://app?vid=7ec71919-eb1e-4aa1-9b29-5ae167aa25dd"},"vehicle_type_id":"4","last_reported":1745320135,"current_range_meters":9200,"station_id":"","pricing_plan_id":"cebpf4jnsgd1na2vs0mg"},{"bike_id":"d42785a2-d92b-4ab9-8109-ec0a54b82779","system_id":"levelo_inurba_marseille","lat":43.277928,"lon":5.40687,"is_reserved":false,"is_disabled":false,"rental_uris":{"android":"levelo://app?vid=d42785a2-d92b-4ab9-8109-ec0a54b82779","ios":"levelo://app?vid=d42785a2-d92b-4ab9-8109-ec0a54b82779"},"vehicle_type_id":"4","last_reported":1745320135,"current_range_meters":8800,"station_id":"ce4bhnh2rcd13ifvqgtg","pricing_plan_id":"cebpf4jnsgd1na2vs0mg"},{"bike_id":"2dc4e79a-33a8-48b0-bf03-f6328f1dc1f6","system_id":"levelo_inurba_marseille","lat":43.32326,"lon":5.38911,"is_reserved":false,"is_disabled":true,"rental_uris":{"android":"levelo://app?vid=2dc4e79a-33a8-48b0-bf03-f6328f1dc1f6","ios":"levelo://app?vid=2dc4e79a-33a8-48b0-bf03-f6328f1dc1f6"},"vehicle_type_id":"4","last_reported":1745320135,"current_range_meters":10000,"station_id":"","pricing_plan_id":"cebpf4jnsgd1na2vs0mg"},{"bike_id":"9ee703a1-2e67-4e41-927d-36c27bfcb8c5","system_id":"levelo_inurba_marseille","lat":43.24074,"lon":5.37762,"is_reserved":false,"is_disabled":false,"rental_uris":{"android":"levelo://app?vid=9ee703a1-2e67-4e41-927d-36c27bfcb8c5","ios":"levelo://app?vid=9ee703a1-2e67-4e41-927d-36c27bfcb8c5"},"vehicle_type_id":"4","last_reported":1745320135,"current_range_meters":10000,"station_id":"ce4bhnp2rcd13ifvqgvg","pricing_plan_id":"cebpf4jnsgd1na2vs0mg"},{"bike_id":"ced8be7e-e0cc-4925-b93e-ca9b95e7ab27","system_id":"levelo_inurba_marseille","lat":43.28577,"lon":5.39493,"is_reserved":false,"is_disabled":false,"rental_uris":{"android":"levelo://app?vid=ced8be7e-e0cc-4925-b93e-ca9b95e7ab27","ios":"levelo://app?vid=ced8be7e-e0cc-4925-b93e-ca9b95e7ab27"},"vehicle_type_id":"4","last_reported":1745320135,"current_range_meters":10000,"station_id":"ce4bh292rcd13ifvqdg0","pricing_plan_id":"cebpf4jnsgd1na2vs0mg"},{"bike_id":"efd378fb-dbf4-4361-a1fd-e862cfa5c91f","system_id":"levelo_inurba_marseille","lat":43.325434,"lon":5.41435,"is_reserved":false,"is_disabled":false,"rental_uris":{"android":"levelo://app?vid=efd378fb-dbf4-4361-a1fd-e862cfa5c91f","ios":"levelo://app?vid=efd378fb-dbf4-4361-a1fd-e862cfa5c91f"},"vehicle_type_id":"4","last_reported":1745320135,"current_range_meters":10800,"station_id":"ce4bhq12rcd13ifvqhhg","pricing_plan_id":"cebpf4jnsgd1na2vs0mg"},{"bike_id":"8780115f-2f38-4bc3-be26-db0e5d5da435","system_id":"levelo_inurba_marseille","lat":43.31235,"lon":5.36875,"is_reserved":false,"is_disabled":false,"rental_uris":{"android":"levelo://app?vid=8780115f-2f38-4bc3-be26-db0e5d5da435","ios":"levelo://app?vid=8780115f-2f38-4bc3-be26-db0e5d5da435"},"vehicle_type_id":"4","last_reported":1745320135,"current_range_meters":10800,"station_id":"ce4bgl92rcd13ifvqbq0","pricing_plan_id":"cebpf4jnsgd1na2vs0mg"},{"bike_id":"358b09b8-8e61-479c-b3d4-2c31bc3ad0cf","system_id":"levelo_inurba_marseille","lat":43.29094,"lon":5.38137,"is_reserved":false,"is_disabled":false,"rental_uris":{"android":"levelo://app?vid=358b09b8-8e61-479c-b3d4-2c31bc3ad0cf","ios":"levelo://app?vid=358b09b8-8e61-479c-b3d4-2c31bc3ad0cf"},"vehicle_type_id":"4","last_reported":1745320135,"current_range_meters":10800,"station_id":"ce4bh512rcd13ifvqe2g","pricing_plan_id":"cebpf4jnsgd1na2vs0mg"},{"bike_id":"1aabe5c9-09ca-44d1-bb3a-8c93e9abfee7","system_id":"levelo_inurba_marseille","lat":43.32364,"lon":5.36766,"is_reserved":false,"is_disabled":false,"rental_uris":{"android":"levelo://app?vid=1aabe5c9-09ca-44d1-bb3a-8c93e9abfee7","ios":"levelo://app?vid=1aabe5c9-09ca-44d1-bb3a-8c93e9abfee7"},"vehicle_type_id":"4","last_reported":1745320135,"current_range_meters":10800,"station_id":"ce4bhsh2rcd13ifvqi2g","pricing_plan_id":"cebpf4jnsgd1na2vs0mg"},{"bike_id":"67b1c6d8-8a5e-499b-9198-8c426a28ca39","system_id":"levelo_inurba_marseille","lat":43.30375,"lon":5.42487,"is_reserved":false,"is_disabled":false,"rental_uris":{"android":"levelo://app?vid=67b1c6d8-8a5e-499b-9198-8c426a28ca39","ios":"levelo://app?vid=67b1c6d8-8a5e-499b-9198-8c426a28ca39"},"vehicle_type_id":"4","last_reported":1745320135,"current_range_meters":10800,"station_id":"ce4bhoh2rcd13ifvqh6g","pricing_plan_id":"cebpf4jnsgd1na2vs0mg"},{"bike_id":"122bc2fe-96d7-4b3f-a8c6-233c19b0e703","system_id":"levelo_inurba_marseille","lat":43.30371,"lon":5.42486,"is_reserved":false,"is_disabled":false,"rental_uris":{"android":"levelo://app?vid=122bc2fe-96d7-4b3f-a8c6-233c19b0e703","ios":"levelo://app?vid=122bc2fe-96d7-4b3f-a8c6-233c19b0e703"},"vehicle_type_id":"4","last_reported":1745320135,"current_range_meters":10800,"station_id":"ce4bhoh2rcd13ifvqh6g","pricing_plan_id":"cebpf4jnsgd1na2vs0mg"},{"bike_id":"6aa7aef5-61c0-4d2a-87f1-d5b94f51607e","system_id":"levelo_inurba_marseille","lat":43.28566,"lon":5.39477,"is_reserved":false,"is_disabled":false,"rental_uris":{"android":"levelo://app?vid=6aa7aef5-61c0-4d2a-87f1-d5b94f51607e","ios":"levelo://app?vid=6aa7aef5-61c0-4d2a-87f1-d5b94f51607e"},"vehicle_type_id":"4","last_reported":1745320135,"current_range_meters":10800,"station_id":"ce4bh292rcd13ifvqdg0","pricing_plan_id":"cebpf4jnsgd1na2vs0mg"},{"bike_id":"278e31b6-7d14-411d-af61-77aed9c67da0","system_id":"levelo_inurba_marseille","lat":43.25082,"lon":5.3952,"is_reserved":false,"is_disabled":false,"rental_uris":{"android":"levelo://app?vid=278e31b6-7d14-411d-af61-77aed9c67da0","ios":"levelo://app?vid=278e31b6-7d14-411d-af61-77aed9c67da0"},"vehicle_type_id":"4","last_reported":1745320135,"current_range_meters":10800,"station_id":"ce4bhm12rcd13ifvqgkg","pricing_plan_id":"cebpf4jnsgd1na2vs0mg"},{"bike_id":"e2bb2a30-7d4f-4df9-bb40-fe3acd9cc45c","system_id":"levelo_inurba_marseille","lat":43.29067,"lon":5.37158,"is_reserved":false,"is_disabled":false,"rental_uris":{"android":"levelo://app?vid=e2bb2a30-7d4f-4df9-bb40-fe3acd9cc45c","ios":"levelo://app?vid=e2bb2a30-7d4f-4df9-bb40-fe3acd9cc45c"},"vehicle_type_id":"4","last_reported":1745320135,"current_range_meters":11200,"station_id":"ce4bh5p2rcd13ifvqe4g","pricing_plan_id":"cebpf4jnsgd1na2vs0mg"},{"bike_id":"7143538b-1f4a-43d1-802f-1c9dd8e2f591","system_id":"levelo_inurba_marseille","lat":43.28453,"lon":5.39216,"is_reserved":false,"is_disabled":false,"rental_uris":{"android":"levelo://app?vid=7143538b-1f4a-43d1-802f-1c9dd8e2f591","ios":"levelo://app?vid=7143538b-1f4a-43d1-802f-1c9dd8e2f591"},"vehicle_type_id":"4","last_reported":1745320135,"current_range_meters":11600,"station_id":"ce4bhoh2rcd13ifvqh5g","pricing_plan_id":"cebpf4jnsgd1na2vs0mg"},{"bike_id":"95ea3da7-dc3f-4489-bda5-b15037f66b56","system_id":"levelo_inurba_marseille","lat":43.28702,"lon":5.39996,"is_reserved":false,"is_disabled":false,"rental_uris":{"android":"levelo://app?vid=95ea3da7-dc3f-4489-bda5-b15037f66b56","ios":"levelo://app?vid=95ea3da7-dc3f-4489-bda5-b15037f66b56"},"vehicle_type_id":"4","last_reported":1745320135,"current_range_meters":12000,"station_id":"ce4bho92rcd13ifvqh3g","pricing_plan_id":"cebpf4jnsgd1na2vs0mg"},{"bike_id":"81c04faa-4976-4d76-9033-87e3858f4131","system_id":"levelo_inurba_marseille","lat":43.30247,"lon":5.40066,"is_reserved":false,"is_disabled":false,"rental_uris":{"android":"levelo://app?vid=81c04faa-4976-4d76-9033-87e3858f4131","ios":"levelo://app?vid=81c04faa-4976-4d76-9033-87e3858f4131"},"vehicle_type_id":"4","last_reported":1745320135,"current_range_meters":12000,"station_id":"ce4bgvh2rcd13ifvqcs0","pricing_plan_id":"cebpf4jnsgd1na2vs0mg"},{"bike_id":"c9c990d9-7e0f-4121-ac03-8d2939e8b7c2","system_id":"levelo_inurba_marseille","lat":43.255837,"lon":5.382309,"is_reserved":false,"is_disabled":false,"rental_uris":{"android":"levelo://app?vid=c9c990d9-7e0f-4121-ac03-8d2939e8b7c2","ios":"levelo://app?vid=c9c990d9-7e0f-4121-ac03-8d2939e8b7c2"},"vehicle_type_id":"4","last_reported":1745320135,"current_range_meters":11600,"station_id":"ce4bhih2rcd13ifvqfs0","pricing_plan_id":"cebpf4jnsgd1na2vs0mg"},{"bike_id":"f79c69a9-f9b9-42c7-9676-3328208e42e8","system_id":"levelo_inurba_marseille","lat":43.29921,"lon":5.37456,"is_reserved":false,"is_disabled":false,"rental_uris":{"android":"levelo://app?vid=f79c69a9-f9b9-42c7-9676-3328208e42e8","ios":"levelo://app?vid=f79c69a9-f9b9-42c7-9676-3328208e42e8"},"vehicle_type_id":"4","last_reported":1745320135,"current_range_meters":11600,"station_id":"ce4bgjh2rcd13ifvqbg0","pricing_plan_id":"cebpf4jnsgd1na2vs0mg"},{"bike_id":"1012c0b1-b294-4c4f-b36a-76c023c88def","system_id":"levelo_inurba_marseille","lat":43.29061,"lon":5.35938,"is_reserved":false,"is_disabled":false,"rental_uris":{"android":"levelo://app?vid=1012c0b1-b294-4c4f-b36a-76c023c88def","ios":"levelo://app?vid=1012c0b1-b294-4c4f-b36a-76c023c88def"},"vehicle_type_id":"4","last_reported":1745320135,"current_range_meters":12400,"station_id":"ce4bha92rcd13ifvqeg0","pricing_plan_id":"cebpf4jnsgd1na2vs0mg"},{"bike_id":"47768a28-4fff-4fc1-b4c4-b5ec8d452deb","system_id":"levelo_inurba_marseille","lat":43.29609,"lon":5.38085,"is_reserved":false,"is_disabled":true,"rental_uris":{"android":"levelo://app?vid=47768a28-4fff-4fc1-b4c4-b5ec8d452deb","ios":"levelo://app?vid=47768a28-4fff-4fc1-b4c4-b5ec8d452deb"},"vehicle_type_id":"4","last_reported":1745320135,"current_range_meters":12400,"station_id":"ce4bgl12rcd13ifvqbo0","pricing_plan_id":"cebpf4jnsgd1na2vs0mg"},{"bike_id":"9d760c68-97e8-41c4-87cf-d203007912d3","system_id":"levelo_inurba_marseille","lat":43.21195,"lon":5.35074,"is_reserved":false,"is_disabled":false,"rental_uris":{"android":"levelo://app?vid=9d760c68-97e8-41c4-87cf-d203007912d3","ios":"levelo://app?vid=9d760c68-97e8-41c4-87cf-d203007912d3"},"vehicle_type_id":"4","last_reported":1745320135,"current_range_meters":12400,"station_id":"st_cvj6sg6p6f1abm77japg","pricing_plan_id":"cebpf4jnsgd1na2vs0mg"},{"bike_id":"84d53afc-570e-4710-be21-8912352f92df","system_id":"levelo_inurba_marseille","lat":43.3093,"lon":5.36832,"is_reserved":false,"is_disabled":false,"rental_uris":{"android":"levelo://app?vid=84d53afc-570e-4710-be21-8912352f92df","ios":"levelo://app?vid=84d53afc-570e-4710-be21-8912352f92df"},"vehicle_type_id":"4","last_reported":1745320135,"current_range_meters":12400,"station_id":"ce4bgn92rcd13ifvqbvg","pricing_plan_id":"cebpf4jnsgd1na2vs0mg"},{"bike_id":"3281f2cc-590f-4292-a196-8f16756842ce","system_id":"levelo_inurba_marseille","lat":43.29166,"lon":5.37159,"is_reserved":false,"is_disabled":false,"rental_uris":{"android":"levelo://app?vid=3281f2cc-590f-4292-a196-8f16756842ce","ios":"levelo://app?vid=3281f2cc-590f-4292-a196-8f16756842ce"},"vehicle_type_id":"4","last_reported":1745320135,"current_range_meters":12800,"station_id":"ce4bha92rcd13ifvqeh0","pricing_plan_id":"cebpf4jnsgd1na2vs0mg"},{"bike_id":"355af883-0cdc-4d6a-848e-a103b1e4c9a1","system_id":"levelo_inurba_marseille","lat":43.30543,"lon":5.38425,"is_reserved":false,"is_disabled":false,"rental_uris":{"android":"levelo://app?vid=355af883-0cdc-4d6a-848e-a103b1e4c9a1","ios":"levelo://app?vid=355af883-0cdc-4d6a-848e-a103b1e4c9a1"},"vehicle_type_id":"4","last_reported":1745320135,"current_range_meters":12400,"station_id":"ce4bgg92rcd13ifvqb30","pricing_plan_id":"cebpf4jnsgd1na2vs0mg"},{"bike_id":"12505a0a-b14f-4f59-9be1-55ce43130db1","system_id":"levelo_inurba_marseille","lat":43.29612,"lon":5.38092,"is_reserved":false,"is_disabled":true,"rental_uris":{"android":"levelo://app?vid=12505a0a-b14f-4f59-9be1-55ce43130db1","ios":"levelo://app?vid=12505a0a-b14f-4f59-9be1-55ce43130db1"},"vehicle_type_id":"4","last_reported":1745320135,"current_range_meters":12800,"station_id":"ce4bgl12rcd13ifvqbo0","pricing_plan_id":"cebpf4jnsgd1na2vs0mg"},{"bike_id":"9d169bb2-0c31-49c0-bcf1-13dc34c50044","system_id":"levelo_inurba_marseille","lat":43.23155,"lon":5.43719,"is_reserved":false,"is_disabled":false,"rental_uris":{"android":"levelo://app?vid=9d169bb2-0c31-49c0-bcf1-13dc34c50044","ios":"levelo://app?vid=9d169bb2-0c31-49c0-bcf1-13dc34c50044"},"vehicle_type_id":"4","last_reported":1745320135,"current_range_meters":12800,"station_id":"ce4bhmp2rcd13ifvqgog","pricing_plan_id":"cebpf4jnsgd1na2vs0mg"},{"bike_id":"c49b4688-19da-4723-9871-d077bf4cbab3","system_id":"levelo_inurba_marseille","lat":43.298111,"lon":5.398831,"is_reserved":false,"is_disabled":false,"rental_uris":{"android":"levelo://app?vid=c49b4688-19da-4723-9871-d077bf4cbab3","ios":"levelo://app?vid=c49b4688-19da-4723-9871-d077bf4cbab3"},"vehicle_type_id":"4","last_reported":1745320135,"current_range_meters":13600,"station_id":"ce4bh192rcd13ifvqdd0","pricing_plan_id":"cebpf4jnsgd1na2vs0mg"},{"bike_id":"41cd4d50-3bdd-4fa7-b5d1-d715f5a540e6","system_id":"levelo_inurba_marseille","lat":43.32351,"lon":5.3676,"is_reserved":false,"is_disabled":false,"rental_uris":{"android":"levelo://app?vid=41cd4d50-3bdd-4fa7-b5d1-d715f5a540e6","ios":"levelo://app?vid=41cd4d50-3bdd-4fa7-b5d1-d715f5a540e6"},"vehicle_type_id":"4","last_reported":1745320135,"current_range_meters":13600,"station_id":"ce4bhsh2rcd13ifvqi2g","pricing_plan_id":"cebpf4jnsgd1na2vs0mg"},{"bike_id":"083b295e-5c57-4048-81e8-6f953ab51fa7","system_id":"levelo_inurba_marseille","lat":43.30949,"lon":5.39031,"is_reserved":false,"is_disabled":false,"rental_uris":{"android":"levelo://app?vid=083b295e-5c57-4048-81e8-6f953ab51fa7","ios":"levelo://app?vid=083b295e-5c57-4048-81e8-6f953ab51fa7"},"vehicle_type_id":"4","last_reported":1745320135,"current_range_meters":13600,"station_id":"ce4bgup2rcd13ifvqco0","pricing_plan_id":"cebpf4jnsgd1na2vs0mg"},{"bike_id":"f25d8672-7640-4033-8cc4-f80944c4dd44","system_id":"levelo_inurba_marseille","lat":43.27237,"lon":5.40106,"is_reserved":false,"is_disabled":false,"rental_uris":{"android":"levelo://app?vid=f25d8672-7640-4033-8cc4-f80944c4dd44","ios":"levelo://app?vid=f25d8672-7640-4033-8cc4-f80944c4dd44"},"vehicle_type_id":"4","last_reported":1745320135,"current_range_meters":14000,"station_id":"","pricing_plan_id":"cebpf4jnsgd1na2vs0mg"},{"bike_id":"a756bae3-49c1-4d6c-89e8-fcb7b0e7d2e2","system_id":"levelo_inurba_marseille","lat":43.29039,"lon":5.35915,"is_reserved":false,"is_disabled":true,"rental_uris":{"android":"levelo://app?vid=a756bae3-49c1-4d6c-89e8-fcb7b0e7d2e2","ios":"levelo://app?vid=a756bae3-49c1-4d6c-89e8-fcb7b0e7d2e2"},"vehicle_type_id":"4","last_reported":1745320135,"current_range_meters":14000,"station_id":"ce4bha92rcd13ifvqeg0","pricing_plan_id":"cebpf4jnsgd1na2vs0mg"},{"bike_id":"1f68086a-de6d-4af9-8540-6c143d9a7894","system_id":"levelo_inurba_marseille","lat":43.29913,"lon":5.37492,"is_reserved":false,"is_disabled":false,"rental_uris":{"android":"levelo://app?vid=1f68086a-de6d-4af9-8540-6c143d9a7894","ios":"levelo://app?vid=1f68086a-de6d-4af9-8540-6c143d9a7894"},"vehicle_type_id":"4","last_reported":1745320135,"current_range_meters":13600,"station_id":"ce4bgjh2rcd13ifvqbg0","pricing_plan_id":"cebpf4jnsgd1na2vs0mg"},{"bike_id":"040610f2-c7f6-4447-91be-9cfe1938d7e8","system_id":"levelo_inurba_marseille","lat":43.336054,"lon":5.410354,"is_reserved":false,"is_disabled":false,"rental_uris":{"android":"levelo://app?vid=040610f2-c7f6-4447-91be-9cfe1938d7e8","ios":"levelo://app?vid=040610f2-c7f6-4447-91be-9cfe1938d7e8"},"vehicle_type_id":"4","last_reported":1745320135,"current_range_meters":14000,"station_id":"","pricing_plan_id":"cebpf4jnsgd1na2vs0mg"},{"bike_id":"71b97e0a-4770-45bf-b46a-ce28eb35185c","system_id":"levelo_inurba_marseille","lat":43.28671,"lon":5.38655,"is_reserved":false,"is_disabled":false,"rental_uris":{"android":"levelo://app?vid=71b97e0a-4770-45bf-b46a-ce28eb35185c","ios":"levelo://app?vid=71b97e0a-4770-45bf-b46a-ce28eb35185c"},"vehicle_type_id":"4","last_reported":1745320135,"current_range_meters":14000,"station_id":"ce4bh492rcd13ifvqdug","pricing_plan_id":"cebpf4jnsgd1na2vs0mg"},{"bike_id":"6547c174-aec2-438b-a54f-5c868a27039c","system_id":"levelo_inurba_marseille","lat":43.25118,"lon":5.40313,"is_reserved":false,"is_disabled":false,"rental_uris":{"android":"levelo://app?vid=6547c174-aec2-438b-a54f-5c868a27039c","ios":"levelo://app?vid=6547c174-aec2-438b-a54f-5c868a27039c"},"vehicle_type_id":"4","last_reported":1745320135,"current_range_meters":14000,"station_id":"ce4bhlh2rcd13ifvqgig","pricing_plan_id":"cebpf4jnsgd1na2vs0mg"},{"bike_id":"21230c30-4b28-4685-ad62-fe77baefbcd8","system_id":"levelo_inurba_marseille","lat":43.29269,"lon":5.38446,"is_reserved":false,"is_disabled":false,"rental_uris":{"android":"levelo://app?vid=21230c30-4b28-4685-ad62-fe77baefbcd8","ios":"levelo://app?vid=21230c30-4b28-4685-ad62-fe77baefbcd8"},"vehicle_type_id":"4","last_reported":1745320135,"current_range_meters":14400,"station_id":"ce4bh692rcd13ifvqea0","pricing_plan_id":"cebpf4jnsgd1na2vs0mg"},{"bike_id":"f5f27296-1bb5-4032-9b09-81cf393d8b95","system_id":"levelo_inurba_marseille","lat":43.30296,"lon":5.400045,"is_reserved":false,"is_disabled":false,"rental_uris":{"android":"levelo://app?vid=f5f27296-1bb5-4032-9b09-81cf393d8b95","ios":"levelo://app?vid=f5f27296-1bb5-4032-9b09-81cf393d8b95"},"vehicle_type_id":"4","last_reported":1745320135,"current_range_meters":15200,"station_id":"ce4bgvh2rcd13ifvqcs0","pricing_plan_id":"cebpf4jnsgd1na2vs0mg"},{"bike_id":"013b0bba-3a8e-4176-aec5-9b030be1a006","system_id":"levelo_inurba_marseille","lat":43.31731,"lon":5.37776,"is_reserved":false,"is_disabled":false,"rental_uris":{"android":"levelo://app?vid=013b0bba-3a8e-4176-aec5-9b030be1a006","ios":"levelo://app?vid=013b0bba-3a8e-4176-aec5-9b030be1a006"},"vehicle_type_id":"4","last_reported":1745320135,"current_range_meters":14400,"station_id":"ce4bgth2rcd13ifvqch0","pricing_plan_id":"cebpf4jnsgd1na2vs0mg"},{"bike_id":"32dbb47c-df66-4ee1-92b6-35954fb7a759","system_id":"levelo_inurba_marseille","lat":43.29414,"lon":5.38623,"is_reserved":false,"is_disabled":false,"rental_uris":{"android":"levelo://app?vid=32dbb47c-df66-4ee1-92b6-35954fb7a759","ios":"levelo://app?vid=32dbb47c-df66-4ee1-92b6-35954fb7a759"},"vehicle_type_id":"4","last_reported":1745320135,"current_range_meters":14000,"station_id":"ce4bh2h2rcd13ifvqdh0","pricing_plan_id":"cebpf4jnsgd1na2vs0mg"},{"bike_id":"023130d7-098b-4ab9-ab02-56d4c1e32b0e","system_id":"levelo_inurba_marseille","lat":43.28353,"lon":5.38106,"is_reserved":false,"is_disabled":false,"rental_uris":{"android":"levelo://app?vid=023130d7-098b-4ab9-ab02-56d4c1e32b0e","ios":"levelo://app?vid=023130d7-098b-4ab9-ab02-56d4c1e32b0e"},"vehicle_type_id":"4","last_reported":1745320135,"current_range_meters":14800,"station_id":"ce4bh412rcd13ifvqdr0","pricing_plan_id":"cebpf4jnsgd1na2vs0mg"},{"bike_id":"e1383678-e753-4dc9-b346-65517f56c8a0","system_id":"levelo_inurba_marseille","lat":43.313241,"lon":5.367681,"is_reserved":false,"is_disabled":false,"rental_uris":{"android":"levelo://app?vid=e1383678-e753-4dc9-b346-65517f56c8a0","ios":"levelo://app?vid=e1383678-e753-4dc9-b346-65517f56c8a0"},"vehicle_type_id":"4","last_reported":1745320135,"current_range_meters":14800,"station_id":"ce4bgr92rcd13ifvqc6g","pricing_plan_id":"cebpf4jnsgd1na2vs0mg"},{"bike_id":"d4403b44-1cc1-4c05-a9ac-9a218146c50e","system_id":"levelo_inurba_marseille","lat":43.27498,"lon":5.42449,"is_reserved":false,"is_disabled":false,"rental_uris":{"android":"levelo://app?vid=d4403b44-1cc1-4c05-a9ac-9a218146c50e","ios":"levelo://app?vid=d4403b44-1cc1-4c05-a9ac-9a218146c50e"},"vehicle_type_id":"4","last_reported":1745320135,"current_range_meters":14800,"station_id":"ce4bhn92rcd13ifvqgrg","pricing_plan_id":"cebpf4jnsgd1na2vs0mg"},{"bike_id":"703d36b4-a767-42f2-b169-c9f7ab3e9960","system_id":"levelo_inurba_marseille","lat":43.23162,"lon":5.4371,"is_reserved":false,"is_disabled":false,"rental_uris":{"android":"levelo://app?vid=703d36b4-a767-42f2-b169-c9f7ab3e9960","ios":"levelo://app?vid=703d36b4-a767-42f2-b169-c9f7ab3e9960"},"vehicle_type_id":"4","last_reported":1745320135,"current_range_meters":15200,"station_id":"ce4bhmp2rcd13ifvqgog","pricing_plan_id":"cebpf4jnsgd1na2vs0mg"},{"bike_id":"d5fa6a7e-ae6f-48cd-8dc8-6ec1473fc099","system_id":"levelo_inurba_marseille","lat":43.3135,"lon":5.36718,"is_reserved":false,"is_disabled":true,"rental_uris":{"android":"levelo://app?vid=d5fa6a7e-ae6f-48cd-8dc8-6ec1473fc099","ios":"levelo://app?vid=d5fa6a7e-ae6f-48cd-8dc8-6ec1473fc099"},"vehicle_type_id":"4","last_reported":1745320135,"current_range_meters":15200,"station_id":"","pricing_plan_id":"cebpf4jnsgd1na2vs0mg"},{"bike_id":"4a4b6a2a-a743-457f-b22b-4d81872534cd","system_id":"levelo_inurba_marseille","lat":43.31493,"lon":5.37311,"is_reserved":false,"is_disabled":false,"rental_uris":{"android":"levelo://app?vid=4a4b6a2a-a743-457f-b22b-4d81872534cd","ios":"levelo://app?vid=4a4b6a2a-a743-457f-b22b-4d81872534cd"},"vehicle_type_id":"4","last_reported":1745320135,"current_range_meters":15200,"station_id":"ce4bgt12rcd13ifvqcd0","pricing_plan_id":"cebpf4jnsgd1na2vs0mg"},{"bike_id":"bfae20da-3f72-4ccb-98fb-8aabd3108edc","system_id":"levelo_inurba_marseille","lat":43.32491,"lon":5.36568,"is_reserved":false,"is_disabled":false,"rental_uris":{"android":"levelo://app?vid=bfae20da-3f72-4ccb-98fb-8aabd3108edc","ios":"levelo://app?vid=bfae20da-3f72-4ccb-98fb-8aabd3108edc"},"vehicle_type_id":"4","last_reported":1745320135,"current_range_meters":16000,"station_id":"ce4bhs12rcd13ifvqhvg","pricing_plan_id":"cebpf4jnsgd1na2vs0mg"},{"bike_id":"5383d5bc-de53-40e1-9f16-cf4a2b425015","system_id":"levelo_inurba_marseille","lat":43.31692,"lon":5.40476,"is_reserved":false,"is_disabled":false,"rental_uris":{"android":"levelo://app?vid=5383d5bc-de53-40e1-9f16-cf4a2b425015","ios":"levelo://app?vid=5383d5bc-de53-40e1-9f16-cf4a2b425015"},"vehicle_type_id":"4","last_reported":1745320135,"current_range_meters":16000,"station_id":"ce4bh012rcd13ifvqd00","pricing_plan_id":"cebpf4jnsgd1na2vs0mg"},{"bike_id":"5e0e9572-034b-47e8-9470-b148939fffa9","system_id":"levelo_inurba_marseille","lat":43.3148,"lon":5.37308,"is_reserved":false,"is_disabled":false,"rental_uris":{"android":"levelo://app?vid=5e0e9572-034b-47e8-9470-b148939fffa9","ios":"levelo://app?vid=5e0e9572-034b-47e8-9470-b148939fffa9"},"vehicle_type_id":"4","last_reported":1745320135,"current_range_meters":16000,"station_id":"ce4bgt12rcd13ifvqcd0","pricing_plan_id":"cebpf4jnsgd1na2vs0mg"},{"bike_id":"ea2cb81e-76fa-46a7-9509-cd9afea9de6c","system_id":"levelo_inurba_marseille","lat":43.23195,"lon":5.39985,"is_reserved":false,"is_disabled":false,"rental_uris":{"android":"levelo://app?vid=ea2cb81e-76fa-46a7-9509-cd9afea9de6c","ios":"levelo://app?vid=ea2cb81e-76fa-46a7-9509-cd9afea9de6c"},"vehicle_type_id":"4","last_reported":1745320135,"current_range_meters":16400,"station_id":"ce4bhn12rcd13ifvqgqg","pricing_plan_id":"cebpf4jnsgd1na2vs0mg"},{"bike_id":"f03343c7-8833-4aca-8b22-25c53bb0368e","system_id":"levelo_inurba_marseille","lat":43.30308,"lon":5.39214,"is_reserved":false,"is_disabled":false,"rental_uris":{"android":"levelo://app?vid=f03343c7-8833-4aca-8b22-25c53bb0368e","ios":"levelo://app?vid=f03343c7-8833-4aca-8b22-25c53bb0368e"},"vehicle_type_id":"4","last_reported":1745320135,"current_range_meters":16400,"station_id":"ce4bgkh2rcd13ifvqbk0","pricing_plan_id":"cebpf4jnsgd1na2vs0mg"},{"bike_id":"d300e6f3-afac-4403-b005-32462d0e8b98","system_id":"levelo_inurba_marseille","lat":43.28971,"lon":5.37839,"is_reserved":false,"is_disabled":false,"rental_uris":{"android":"levelo://app?vid=d300e6f3-afac-4403-b005-32462d0e8b98","ios":"levelo://app?vid=d300e6f3-afac-4403-b005-32462d0e8b98"},"vehicle_type_id":"4","last_reported":1745320135,"current_range_meters":16400,"station_id":"ce4bh9p2rcd13ifvqed0","pricing_plan_id":"cebpf4jnsgd1na2vs0mg"},{"bike_id":"194f8dff-79f0-456b-a8af-866beb9a0f65","system_id":"levelo_inurba_marseille","lat":43.30805,"lon":5.3815,"is_reserved":false,"is_disabled":false,"rental_uris":{"android":"levelo://app?vid=194f8dff-79f0-456b-a8af-866beb9a0f65","ios":"levelo://app?vid=194f8dff-79f0-456b-a8af-866beb9a0f65"},"vehicle_type_id":"4","last_reported":1745320135,"current_range_meters":16000,"station_id":"ce4bgt12rcd13ifvqce0","pricing_plan_id":"cebpf4jnsgd1na2vs0mg"},{"bike_id":"7a9392ed-17cc-425e-aa61-b2e8fba19ed3","system_id":"levelo_inurba_marseille","lat":43.30612,"lon":5.37216,"is_reserved":false,"is_disabled":false,"rental_uris":{"android":"levelo://app?vid=7a9392ed-17cc-425e-aa61-b2e8fba19ed3","ios":"levelo://app?vid=7a9392ed-17cc-425e-aa61-b2e8fba19ed3"},"vehicle_type_id":"4","last_reported":1745320135,"current_range_meters":16800,"station_id":"ce4bgqh2rcd13ifvqc4g","pricing_plan_id":"cebpf4jnsgd1na2vs0mg"},{"bike_id":"eddf388e-8873-45ba-ad33-881fd27c608c","system_id":"levelo_inurba_marseille","lat":43.29296,"lon":5.37448,"is_reserved":false,"is_disabled":true,"rental_uris":{"android":"levelo://app?vid=eddf388e-8873-45ba-ad33-881fd27c608c","ios":"levelo://app?vid=eddf388e-8873-45ba-ad33-881fd27c608c"},"vehicle_type_id":"4","last_reported":1745320135,"current_range_meters":16800,"station_id":"ce4bgi12rcd13ifvqb70","pricing_plan_id":"cebpf4jnsgd1na2vs0mg"},{"bike_id":"bcbf295f-e810-492e-b860-585eb03b6e63","system_id":"levelo_inurba_marseille","lat":43.30084,"lon":5.39087,"is_reserved":false,"is_disabled":true,"rental_uris":{"android":"levelo://app?vid=bcbf295f-e810-492e-b860-585eb03b6e63","ios":"levelo://app?vid=bcbf295f-e810-492e-b860-585eb03b6e63"},"vehicle_type_id":"4","last_reported":1745320135,"current_range_meters":16800,"station_id":"ce4bh192rcd13ifvqdb0","pricing_plan_id":"cebpf4jnsgd1na2vs0mg"},{"bike_id":"3ca8e96f-58b1-4242-a9e1-72c4627cc3ef","system_id":"levelo_inurba_marseille","lat":43.27972,"lon":5.41008,"is_reserved":false,"is_disabled":false,"rental_uris":{"android":"levelo://app?vid=3ca8e96f-58b1-4242-a9e1-72c4627cc3ef","ios":"levelo://app?vid=3ca8e96f-58b1-4242-a9e1-72c4627cc3ef"},"vehicle_type_id":"4","last_reported":1745320135,"current_range_meters":16800,"station_id":"ce4bhnp2rcd13ifvqh0g","pricing_plan_id":"cebpf4jnsgd1na2vs0mg"},{"bike_id":"7f6c5fc8-196b-4afd-9f5d-5398837a0dcc","system_id":"levelo_inurba_marseille","lat":43.2605,"lon":5.41717,"is_reserved":false,"is_disabled":false,"rental_uris":{"android":"levelo://app?vid=7f6c5fc8-196b-4afd-9f5d-5398837a0dcc","ios":"levelo://app?vid=7f6c5fc8-196b-4afd-9f5d-5398837a0dcc"},"vehicle_type_id":"4","last_reported":1745320135,"current_range_meters":17200,"station_id":"","pricing_plan_id":"cebpf4jnsgd1na2vs0mg"},{"bike_id":"6fdfd6d1-a96c-4b8f-b8d7-2e2af8c87b3c","system_id":"levelo_inurba_marseille","lat":43.33609,"lon":5.4103,"is_reserved":false,"is_disabled":false,"rental_uris":{"android":"levelo://app?vid=6fdfd6d1-a96c-4b8f-b8d7-2e2af8c87b3c","ios":"levelo://app?vid=6fdfd6d1-a96c-4b8f-b8d7-2e2af8c87b3c"},"vehicle_type_id":"4","last_reported":1745320135,"current_range_meters":17200,"station_id":"ce4bhqh2rcd13ifvqhmg","pricing_plan_id":"cebpf4jnsgd1na2vs0mg"},{"bike_id":"abd226a8-d003-4133-b9d2-b7c952b7ead1","system_id":"levelo_inurba_marseille","lat":43.23058,"lon":5.35496,"is_reserved":false,"is_disabled":false,"rental_uris":{"android":"levelo://app?vid=abd226a8-d003-4133-b9d2-b7c952b7ead1","ios":"levelo://app?vid=abd226a8-d003-4133-b9d2-b7c952b7ead1"},"vehicle_type_id":"4","last_reported":1745320135,"current_range_meters":17200,"station_id":"cpo3342slgdg3j2ifvpg","pricing_plan_id":"cebpf4jnsgd1na2vs0mg"},{"bike_id":"22d8cab4-15f3-437c-9e72-c0f37cb868ac","system_id":"levelo_inurba_marseille","lat":43.28476,"lon":5.38424,"is_reserved":false,"is_disabled":false,"rental_uris":{"android":"levelo://app?vid=22d8cab4-15f3-437c-9e72-c0f37cb868ac","ios":"levelo://app?vid=22d8cab4-15f3-437c-9e72-c0f37cb868ac"},"vehicle_type_id":"4","last_reported":1745320135,"current_range_meters":17200,"station_id":"ce4bh512rcd13ifvqe3g","pricing_plan_id":"cebpf4jnsgd1na2vs0mg"},{"bike_id":"2fe98687-f9a5-48bc-8222-a9c35ae5a620","system_id":"levelo_inurba_marseille","lat":43.29597,"lon":5.38101,"is_reserved":false,"is_disabled":false,"rental_uris":{"android":"levelo://app?vid=2fe98687-f9a5-48bc-8222-a9c35ae5a620","ios":"levelo://app?vid=2fe98687-f9a5-48bc-8222-a9c35ae5a620"},"vehicle_type_id":"4","last_reported":1745320135,"current_range_meters":17200,"station_id":"ce4bgl12rcd13ifvqbo0","pricing_plan_id":"cebpf4jnsgd1na2vs0mg"},{"bike_id":"dc56c1f5-ee79-44ed-8716-9059e3f5c486","system_id":"levelo_inurba_marseille","lat":43.284714,"lon":5.384176,"is_reserved":false,"is_disabled":false,"rental_uris":{"android":"levelo://app?vid=dc56c1f5-ee79-44ed-8716-9059e3f5c486","ios":"levelo://app?vid=dc56c1f5-ee79-44ed-8716-9059e3f5c486"},"vehicle_type_id":"4","last_reported":1745320135,"current_range_meters":16800,"station_id":"ce4bh512rcd13ifvqe3g","pricing_plan_id":"cebpf4jnsgd1na2vs0mg"},{"bike_id":"584387b4-187d-4f80-b338-fcdc107989ef","system_id":"levelo_inurba_marseille","lat":43.24729,"lon":5.41249,"is_reserved":false,"is_disabled":false,"rental_uris":{"android":"levelo://app?vid=584387b4-187d-4f80-b338-fcdc107989ef","ios":"levelo://app?vid=584387b4-187d-4f80-b338-fcdc107989ef"},"vehicle_type_id":"4","last_reported":1745320135,"current_range_meters":17200,"station_id":"","pricing_plan_id":"cebpf4jnsgd1na2vs0mg"},{"bike_id":"1d917504-d08a-4f98-98c4-f2a7e4b4c735","system_id":"levelo_inurba_marseille","lat":43.30923,"lon":5.36876,"is_reserved":false,"is_disabled":false,"rental_uris":{"android":"levelo://app?vid=1d917504-d08a-4f98-98c4-f2a7e4b4c735","ios":"levelo://app?vid=1d917504-d08a-4f98-98c4-f2a7e4b4c735"},"vehicle_type_id":"4","last_reported":1745320135,"current_range_meters":17600,"station_id":"ce4bgn92rcd13ifvqbvg","pricing_plan_id":"cebpf4jnsgd1na2vs0mg"},{"bike_id":"d537047b-714e-43ea-abf7-2082c80edc52","system_id":"levelo_inurba_marseille","lat":43.28725,"lon":5.36096,"is_reserved":false,"is_disabled":false,"rental_uris":{"android":"levelo://app?vid=d537047b-714e-43ea-abf7-2082c80edc52","ios":"levelo://app?vid=d537047b-714e-43ea-abf7-2082c80edc52"},"vehicle_type_id":"4","last_reported":1745320135,"current_range_meters":17600,"station_id":"cki0cbj6b192h4jlfktg","pricing_plan_id":"cebpf4jnsgd1na2vs0mg"},{"bike_id":"01e7386b-7e74-449b-a681-58cd408d8406","system_id":"levelo_inurba_marseille","lat":43.28942,"lon":5.36639,"is_reserved":false,"is_disabled":false,"rental_uris":{"android":"levelo://app?vid=01e7386b-7e74-449b-a681-58cd408d8406","ios":"levelo://app?vid=01e7386b-7e74-449b-a681-58cd408d8406"},"vehicle_type_id":"4","last_reported":1745320135,"current_range_meters":17600,"station_id":"ce4bhap2rcd13ifvqek0","pricing_plan_id":"cebpf4jnsgd1na2vs0mg"},{"bike_id":"7b2dc864-a4e9-468c-9cee-f3075a20977d","system_id":"levelo_inurba_marseille","lat":43.31454,"lon":5.374,"is_reserved":false,"is_disabled":false,"rental_uris":{"android":"levelo://app?vid=7b2dc864-a4e9-468c-9cee-f3075a20977d","ios":"levelo://app?vid=7b2dc864-a4e9-468c-9cee-f3075a20977d"},"vehicle_type_id":"4","last_reported":1745320135,"current_range_meters":17600,"station_id":"","pricing_plan_id":"cebpf4jnsgd1na2vs0mg"},{"bike_id":"66973c84-3acf-4ea4-9689-a7ada18d906c","system_id":"levelo_inurba_marseille","lat":43.30604,"lon":5.39363,"is_reserved":false,"is_disabled":false,"rental_uris":{"android":"levelo://app?vid=66973c84-3acf-4ea4-9689-a7ada18d906c","ios":"levelo://app?vid=66973c84-3acf-4ea4-9689-a7ada18d906c"},"vehicle_type_id":"4","last_reported":1745320135,"current_range_meters":18000,"station_id":"ce4bh0p2rcd13ifvqd80","pricing_plan_id":"cebpf4jnsgd1na2vs0mg"},{"bike_id":"98176d01-c4bf-4fdf-83d6-6aa3ea2e2a6a","system_id":"levelo_inurba_marseille","lat":43.314538,"lon":5.370493,"is_reserved":false,"is_disabled":false,"rental_uris":{"android":"levelo://app?vid=98176d01-c4bf-4fdf-83d6-6aa3ea2e2a6a","ios":"levelo://app?vid=98176d01-c4bf-4fdf-83d6-6aa3ea2e2a6a"},"vehicle_type_id":"4","last_reported":1745320135,"current_range_meters":18000,"station_id":"","pricing_plan_id":"cebpf4jnsgd1na2vs0mg"},{"bike_id":"3bc2baa3-1c41-4779-844b-6fcc4d4f1ad4","system_id":"levelo_inurba_marseille","lat":43.28616,"lon":5.351,"is_reserved":false,"is_disabled":false,"rental_uris":{"android":"levelo://app?vid=3bc2baa3-1c41-4779-844b-6fcc4d4f1ad4","ios":"levelo://app?vid=3bc2baa3-1c41-4779-844b-6fcc4d4f1ad4"},"vehicle_type_id":"4","last_reported":1745320135,"current_range_meters":18000,"station_id":"ce4bhch2rcd13ifvqeug","pricing_plan_id":"cebpf4jnsgd1na2vs0mg"},{"bike_id":"d7b758e5-2721-48da-b47d-5eb48f9bcb36","system_id":"levelo_inurba_marseille","lat":43.3136,"lon":5.3849,"is_reserved":false,"is_disabled":false,"rental_uris":{"android":"levelo://app?vid=d7b758e5-2721-48da-b47d-5eb48f9bcb36","ios":"levelo://app?vid=d7b758e5-2721-48da-b47d-5eb48f9bcb36"},"vehicle_type_id":"4","last_reported":1745320135,"current_range_meters":18000,"station_id":"ce4bgt92rcd13ifvqcf0","pricing_plan_id":"cebpf4jnsgd1na2vs0mg"},{"bike_id":"2f7aa600-ad4a-40b4-abaa-c716bc6fa732","system_id":"levelo_inurba_marseille","lat":43.2408,"lon":5.37748,"is_reserved":false,"is_disabled":false,"rental_uris":{"android":"levelo://app?vid=2f7aa600-ad4a-40b4-abaa-c716bc6fa732","ios":"levelo://app?vid=2f7aa600-ad4a-40b4-abaa-c716bc6fa732"},"vehicle_type_id":"4","last_reported":1745320135,"current_range_meters":19600,"station_id":"ce4bhnp2rcd13ifvqgvg","pricing_plan_id":"cebpf4jnsgd1na2vs0mg"},{"bike_id":"1b903b38-38de-4714-9a2c-59836acfa168","system_id":"levelo_inurba_marseille","lat":43.31718,"lon":5.43667,"is_reserved":false,"is_disabled":true,"rental_uris":{"android":"levelo://app?vid=1b903b38-38de-4714-9a2c-59836acfa168","ios":"levelo://app?vid=1b903b38-38de-4714-9a2c-59836acfa168"},"vehicle_type_id":"4","last_reported":1745320135,"current_range_meters":18000,"station_id":"ce4bhp92rcd13ifvqhcg","pricing_plan_id":"cebpf4jnsgd1na2vs0mg"},{"bike_id":"6913cec3-aa98-49eb-b6fc-98a0535089d8","system_id":"levelo_inurba_marseille","lat":43.29582,"lon":5.39995,"is_reserved":false,"is_disabled":false,"rental_uris":{"android":"levelo://app?vid=6913cec3-aa98-49eb-b6fc-98a0535089d8","ios":"levelo://app?vid=6913cec3-aa98-49eb-b6fc-98a0535089d8"},"vehicle_type_id":"4","last_reported":1745320135,"current_range_meters":18000,"station_id":"ce4bh312rcd13ifvqdj0","pricing_plan_id":"cebpf4jnsgd1na2vs0mg"},{"bike_id":"34eb58a3-e7a7-4340-ae55-6aa620c192f9","system_id":"levelo_inurba_marseille","lat":43.26833,"lon":5.38509,"is_reserved":false,"is_disabled":false,"rental_uris":{"android":"levelo://app?vid=34eb58a3-e7a7-4340-ae55-6aa620c192f9","ios":"levelo://app?vid=34eb58a3-e7a7-4340-ae55-6aa620c192f9"},"vehicle_type_id":"4","last_reported":1745320135,"current_range_meters":18000,"station_id":"ce4bh412rcd13ifvqdr0","pricing_plan_id":"cebpf4jnsgd1na2vs0mg"},{"bike_id":"cb15f50a-d5cb-4017-b40b-b28b66eacf43","system_id":"levelo_inurba_marseille","lat":43.31228,"lon":5.36862,"is_reserved":false,"is_disabled":false,"rental_uris":{"android":"levelo://app?vid=cb15f50a-d5cb-4017-b40b-b28b66eacf43","ios":"levelo://app?vid=cb15f50a-d5cb-4017-b40b-b28b66eacf43"},"vehicle_type_id":"4","last_reported":1745320135,"current_range_meters":18800,"station_id":"ce4bgl92rcd13ifvqbq0","pricing_plan_id":"cebpf4jnsgd1na2vs0mg"},{"bike_id":"f85e70b3-c5c5-4298-b24c-ed25bbf6a57f","system_id":"levelo_inurba_marseille","lat":43.29963,"lon":5.38494,"is_reserved":false,"is_disabled":false,"rental_uris":{"android":"levelo://app?vid=f85e70b3-c5c5-4298-b24c-ed25bbf6a57f","ios":"levelo://app?vid=f85e70b3-c5c5-4298-b24c-ed25bbf6a57f"},"vehicle_type_id":"4","last_reported":1745320135,"current_range_meters":18800,"station_id":"ce4bgj92rcd13ifvqbd0","pricing_plan_id":"cebpf4jnsgd1na2vs0mg"},{"bike_id":"7be4e621-9e1a-46c7-9e33-567547fdd6b2","system_id":"levelo_inurba_marseille","lat":43.31494,"lon":5.37309,"is_reserved":false,"is_disabled":false,"rental_uris":{"android":"levelo://app?vid=7be4e621-9e1a-46c7-9e33-567547fdd6b2","ios":"levelo://app?vid=7be4e621-9e1a-46c7-9e33-567547fdd6b2"},"vehicle_type_id":"4","last_reported":1745320135,"current_range_meters":18800,"station_id":"ce4bgt12rcd13ifvqcd0","pricing_plan_id":"cebpf4jnsgd1na2vs0mg"},{"bike_id":"2b4c99a8-9f0e-4e8d-bf39-2ace93ff3d9d","system_id":"levelo_inurba_marseille","lat":43.22927,"lon":5.35374,"is_reserved":false,"is_disabled":true,"rental_uris":{"android":"levelo://app?vid=2b4c99a8-9f0e-4e8d-bf39-2ace93ff3d9d","ios":"levelo://app?vid=2b4c99a8-9f0e-4e8d-bf39-2ace93ff3d9d"},"vehicle_type_id":"4","last_reported":1745320135,"current_range_meters":18800,"station_id":"cpo3532slgdg3j2ikp40","pricing_plan_id":"cebpf4jnsgd1na2vs0mg"},{"bike_id":"d26aecca-5b94-4bac-9927-82be229216f1","system_id":"levelo_inurba_marseille","lat":43.321019,"lon":5.36769,"is_reserved":false,"is_disabled":false,"rental_uris":{"android":"levelo://app?vid=d26aecca-5b94-4bac-9927-82be229216f1","ios":"levelo://app?vid=d26aecca-5b94-4bac-9927-82be229216f1"},"vehicle_type_id":"4","last_reported":1745320135,"current_range_meters":18800,"station_id":"ce4bhrh2rcd13ifvqhug","pricing_plan_id":"cebpf4jnsgd1na2vs0mg"},{"bike_id":"ce62d3bd-84bf-488e-85db-c61ff999d11a","system_id":"levelo_inurba_marseille","lat":43.32039,"lon":5.41563,"is_reserved":false,"is_disabled":false,"rental_uris":{"android":"levelo://app?vid=ce62d3bd-84bf-488e-85db-c61ff999d11a","ios":"levelo://app?vid=ce62d3bd-84bf-488e-85db-c61ff999d11a"},"vehicle_type_id":"4","last_reported":1745320135,"current_range_meters":18000,"station_id":"ce4bhq92rcd13ifvqhkg","pricing_plan_id":"cebpf4jnsgd1na2vs0mg"},{"bike_id":"f9edd094-c59c-4d80-96b2-7f66d5afbeb7","system_id":"levelo_inurba_marseille","lat":43.25739,"lon":5.41096,"is_reserved":false,"is_disabled":false,"rental_uris":{"android":"levelo://app?vid=f9edd094-c59c-4d80-96b2-7f66d5afbeb7","ios":"levelo://app?vid=f9edd094-c59c-4d80-96b2-7f66d5afbeb7"},"vehicle_type_id":"4","last_reported":1745320135,"current_range_meters":18800,"station_id":"ce4bhkp2rcd13ifvqgd0","pricing_plan_id":"cebpf4jnsgd1na2vs0mg"},{"bike_id":"bb344c59-ff54-4a12-bd9b-127cf496cde0","system_id":"levelo_inurba_marseille","lat":43.27808,"lon":5.40716,"is_reserved":false,"is_disabled":false,"rental_uris":{"android":"levelo://app?vid=bb344c59-ff54-4a12-bd9b-127cf496cde0","ios":"levelo://app?vid=bb344c59-ff54-4a12-bd9b-127cf496cde0"},"vehicle_type_id":"4","last_reported":1745320135,"current_range_meters":18800,"station_id":"ce4bhnh2rcd13ifvqgtg","pricing_plan_id":"cebpf4jnsgd1na2vs0mg"},{"bike_id":"a2c96add-a11a-4fe2-b1e8-6e70a9e83396","system_id":"levelo_inurba_marseille","lat":43.28446,"lon":5.39197,"is_reserved":false,"is_disabled":false,"rental_uris":{"android":"levelo://app?vid=a2c96add-a11a-4fe2-b1e8-6e70a9e83396","ios":"levelo://app?vid=a2c96add-a11a-4fe2-b1e8-6e70a9e83396"},"vehicle_type_id":"4","last_reported":1745320135,"current_range_meters":19200,"station_id":"ce4bhoh2rcd13ifvqh5g","pricing_plan_id":"cebpf4jnsgd1na2vs0mg"},{"bike_id":"427f805e-cfba-4025-b510-ca1d8419f957","system_id":"levelo_inurba_marseille","lat":43.31493,"lon":5.3731,"is_reserved":false,"is_disabled":false,"rental_uris":{"android":"levelo://app?vid=427f805e-cfba-4025-b510-ca1d8419f957","ios":"levelo://app?vid=427f805e-cfba-4025-b510-ca1d8419f957"},"vehicle_type_id":"4","last_reported":1745320135,"current_range_meters":19200,"station_id":"ce4bgt12rcd13ifvqcd0","pricing_plan_id":"cebpf4jnsgd1na2vs0mg"},{"bike_id":"87067016-ec97-4782-b713-5b88fbe49091","system_id":"levelo_inurba_marseille","lat":43.309481,"lon":5.390314,"is_reserved":false,"is_disabled":false,"rental_uris":{"android":"levelo://app?vid=87067016-ec97-4782-b713-5b88fbe49091","ios":"levelo://app?vid=87067016-ec97-4782-b713-5b88fbe49091"},"vehicle_type_id":"4","last_reported":1745320135,"current_range_meters":19200,"station_id":"ce4bgup2rcd13ifvqco0","pricing_plan_id":"cebpf4jnsgd1na2vs0mg"},{"bike_id":"e240dd03-732d-4e13-85db-d11a7d4d444c","system_id":"levelo_inurba_marseille","lat":43.304657,"lon":5.379081,"is_reserved":false,"is_disabled":false,"rental_uris":{"android":"levelo://app?vid=e240dd03-732d-4e13-85db-d11a7d4d444c","ios":"levelo://app?vid=e240dd03-732d-4e13-85db-d11a7d4d444c"},"vehicle_type_id":"4","last_reported":1745320135,"current_range_meters":19200,"station_id":"ce4bgkh2rcd13ifvqbl0","pricing_plan_id":"cebpf4jnsgd1na2vs0mg"},{"bike_id":"84cc6382-570a-48e1-95cf-2056bb88a115","system_id":"levelo_inurba_marseille","lat":43.3275,"lon":5.39226,"is_reserved":false,"is_disabled":false,"rental_uris":{"android":"levelo://app?vid=84cc6382-570a-48e1-95cf-2056bb88a115","ios":"levelo://app?vid=84cc6382-570a-48e1-95cf-2056bb88a115"},"vehicle_type_id":"4","last_reported":1745320135,"current_range_meters":19200,"station_id":"","pricing_plan_id":"cebpf4jnsgd1na2vs0mg"},{"bike_id":"3b823fab-22a8-4c02-9ac2-9d77227daa1a","system_id":"levelo_inurba_marseille","lat":43.25932,"lon":5.40907,"is_reserved":false,"is_disabled":false,"rental_uris":{"android":"levelo://app?vid=3b823fab-22a8-4c02-9ac2-9d77227daa1a","ios":"levelo://app?vid=3b823fab-22a8-4c02-9ac2-9d77227daa1a"},"vehicle_type_id":"4","last_reported":1745320135,"current_range_meters":19200,"station_id":"ce4bhm92rcd13ifvqglg","pricing_plan_id":"cebpf4jnsgd1na2vs0mg"},{"bike_id":"a1835b16-9e05-4b53-baf5-10eeb04320bb","system_id":"levelo_inurba_marseille","lat":43.28703,"lon":5.37393,"is_reserved":false,"is_disabled":true,"rental_uris":{"android":"levelo://app?vid=a1835b16-9e05-4b53-baf5-10eeb04320bb","ios":"levelo://app?vid=a1835b16-9e05-4b53-baf5-10eeb04320bb"},"vehicle_type_id":"4","last_reported":1745320135,"current_range_meters":19600,"station_id":"ce4bh3p2rcd13ifvqdq0","pricing_plan_id":"cebpf4jnsgd1na2vs0mg"},{"bike_id":"5292f775-aa53-42a8-a3e0-c63e6f16af9d","system_id":"levelo_inurba_marseille","lat":43.31512,"lon":5.37272,"is_reserved":false,"is_disabled":false,"rental_uris":{"android":"levelo://app?vid=5292f775-aa53-42a8-a3e0-c63e6f16af9d","ios":"levelo://app?vid=5292f775-aa53-42a8-a3e0-c63e6f16af9d"},"vehicle_type_id":"4","last_reported":1745320135,"current_range_meters":19600,"station_id":"ce4bgt12rcd13ifvqcd0","pricing_plan_id":"cebpf4jnsgd1na2vs0mg"},{"bike_id":"c83e935b-fd87-47b2-a778-ed3e19aa9378","system_id":"levelo_inurba_marseille","lat":43.30286,"lon":5.37692,"is_reserved":false,"is_disabled":false,"rental_uris":{"android":"levelo://app?vid=c83e935b-fd87-47b2-a778-ed3e19aa9378","ios":"levelo://app?vid=c83e935b-fd87-47b2-a778-ed3e19aa9378"},"vehicle_type_id":"4","last_reported":1745320135,"current_range_meters":19600,"station_id":"ce4bguh2rcd13ifvqcj0","pricing_plan_id":"cebpf4jnsgd1na2vs0mg"},{"bike_id":"bf88210e-63eb-4c31-8bad-a977a3a988fb","system_id":"levelo_inurba_marseille","lat":43.30463,"lon":5.37907,"is_reserved":false,"is_disabled":false,"rental_uris":{"android":"levelo://app?vid=bf88210e-63eb-4c31-8bad-a977a3a988fb","ios":"levelo://app?vid=bf88210e-63eb-4c31-8bad-a977a3a988fb"},"vehicle_type_id":"4","last_reported":1745320135,"current_range_meters":19600,"station_id":"ce4bgup2rcd13ifvqcn0","pricing_plan_id":"cebpf4jnsgd1na2vs0mg"},{"bike_id":"1c86c1a3-2ae0-43f2-98b2-bbf4f09bcf2d","system_id":"levelo_inurba_marseille","lat":43.28482,"lon":5.38549,"is_reserved":false,"is_disabled":false,"rental_uris":{"android":"levelo://app?vid=1c86c1a3-2ae0-43f2-98b2-bbf4f09bcf2d","ios":"levelo://app?vid=1c86c1a3-2ae0-43f2-98b2-bbf4f09bcf2d"},"vehicle_type_id":"4","last_reported":1745320135,"current_range_meters":19600,"station_id":"ce4bh8p2rcd13ifvqeb0","pricing_plan_id":"cebpf4jnsgd1na2vs0mg"},{"bike_id":"3c6c9be7-afa0-4c4e-bc5e-bfda169f585c","system_id":"levelo_inurba_marseille","lat":43.2781,"lon":5.40719,"is_reserved":false,"is_disabled":false,"rental_uris":{"android":"levelo://app?vid=3c6c9be7-afa0-4c4e-bc5e-bfda169f585c","ios":"levelo://app?vid=3c6c9be7-afa0-4c4e-bc5e-bfda169f585c"},"vehicle_type_id":"4","last_reported":1745320135,"current_range_meters":19600,"station_id":"ce4bhnh2rcd13ifvqgtg","pricing_plan_id":"cebpf4jnsgd1na2vs0mg"},{"bike_id":"7f420013-0055-40e6-87de-97d531f236c6","system_id":"levelo_inurba_marseille","lat":43.309345,"lon":5.368155,"is_reserved":false,"is_disabled":false,"rental_uris":{"android":"levelo://app?vid=7f420013-0055-40e6-87de-97d531f236c6","ios":"levelo://app?vid=7f420013-0055-40e6-87de-97d531f236c6"},"vehicle_type_id":"4","last_reported":1745320135,"current_range_meters":20000,"station_id":"ce4bgn92rcd13ifvqbvg","pricing_plan_id":"cebpf4jnsgd1na2vs0mg"},{"bike_id":"cf222b1e-934a-47bb-84c3-451cae378f41","system_id":"levelo_inurba_marseille","lat":43.31496,"lon":5.37313,"is_reserved":false,"is_disabled":false,"rental_uris":{"android":"levelo://app?vid=cf222b1e-934a-47bb-84c3-451cae378f41","ios":"levelo://app?vid=cf222b1e-934a-47bb-84c3-451cae378f41"},"vehicle_type_id":"4","last_reported":1745320135,"current_range_meters":20000,"station_id":"ce4bgt12rcd13ifvqcd0","pricing_plan_id":"cebpf4jnsgd1na2vs0mg"},{"bike_id":"4696fabb-cae8-474a-a920-537e9f5a3e4f","system_id":"levelo_inurba_marseille","lat":43.30539,"lon":5.36559,"is_reserved":false,"is_disabled":false,"rental_uris":{"android":"levelo://app?vid=4696fabb-cae8-474a-a920-537e9f5a3e4f","ios":"levelo://app?vid=4696fabb-cae8-474a-a920-537e9f5a3e4f"},"vehicle_type_id":"4","last_reported":1745320135,"current_range_meters":19200,"station_id":"ce4bgs12rcd13ifvqcag","pricing_plan_id":"cebpf4jnsgd1na2vs0mg"},{"bike_id":"6382d094-23f2-4d1e-9fc5-0b03894a7c4d","system_id":"levelo_inurba_marseille","lat":43.30414,"lon":5.39753,"is_reserved":false,"is_disabled":true,"rental_uris":{"android":"levelo://app?vid=6382d094-23f2-4d1e-9fc5-0b03894a7c4d","ios":"levelo://app?vid=6382d094-23f2-4d1e-9fc5-0b03894a7c4d"},"vehicle_type_id":"4","last_reported":1745320135,"current_range_meters":20000,"station_id":"ce4bh092rcd13ifvqd20","pricing_plan_id":"cebpf4jnsgd1na2vs0mg"},{"bike_id":"20ede925-27e6-407f-8bf5-4c244f8341b4","system_id":"levelo_inurba_marseille","lat":43.24164,"lon":5.3645,"is_reserved":false,"is_disabled":false,"rental_uris":{"android":"levelo://app?vid=20ede925-27e6-407f-8bf5-4c244f8341b4","ios":"levelo://app?vid=20ede925-27e6-407f-8bf5-4c244f8341b4"},"vehicle_type_id":"4","last_reported":1745320135,"current_range_meters":20400,"station_id":"cpo36qri1sfpv3e86is0","pricing_plan_id":"cebpf4jnsgd1na2vs0mg"},{"bike_id":"e7a535f8-ed78-40de-8cdc-f8a1d2d90b31","system_id":"levelo_inurba_marseille","lat":43.24804,"lon":5.37455,"is_reserved":false,"is_disabled":true,"rental_uris":{"android":"levelo://app?vid=e7a535f8-ed78-40de-8cdc-f8a1d2d90b31","ios":"levelo://app?vid=e7a535f8-ed78-40de-8cdc-f8a1d2d90b31"},"vehicle_type_id":"4","last_reported":1745320135,"current_range_meters":20400,"station_id":"ce4bhgh2rcd13ifvqfb0","pricing_plan_id":"cebpf4jnsgd1na2vs0mg"},{"bike_id":"5d6ce0cf-9f03-41a4-849f-504bf29dfe65","system_id":"levelo_inurba_marseille","lat":43.21749,"lon":5.34606,"is_reserved":false,"is_disabled":false,"rental_uris":{"android":"levelo://app?vid=5d6ce0cf-9f03-41a4-849f-504bf29dfe65","ios":"levelo://app?vid=5d6ce0cf-9f03-41a4-849f-504bf29dfe65"},"vehicle_type_id":"4","last_reported":1745320135,"current_range_meters":20400,"station_id":"st_cvj6r9ubvosntc0bgbag","pricing_plan_id":"cebpf4jnsgd1na2vs0mg"},{"bike_id":"78fc267e-97be-4261-b58f-a8e7afa67601","system_id":"levelo_inurba_marseille","lat":43.27997,"lon":5.41653,"is_reserved":false,"is_disabled":false,"rental_uris":{"android":"levelo://app?vid=78fc267e-97be-4261-b58f-a8e7afa67601","ios":"levelo://app?vid=78fc267e-97be-4261-b58f-a8e7afa67601"},"vehicle_type_id":"4","last_reported":1745320135,"current_range_meters":20400,"station_id":"ce4bho12rcd13ifvqh1g","pricing_plan_id":"cebpf4jnsgd1na2vs0mg"},{"bike_id":"b5d609bf-0c9b-49e3-9426-ce02cb8383b8","system_id":"levelo_inurba_marseille","lat":43.341397,"lon":5.409207,"is_reserved":false,"is_disabled":true,"rental_uris":{"android":"levelo://app?vid=b5d609bf-0c9b-49e3-9426-ce02cb8383b8","ios":"levelo://app?vid=b5d609bf-0c9b-49e3-9426-ce02cb8383b8"},"vehicle_type_id":"4","last_reported":1745320135,"current_range_meters":20800,"station_id":"ce4bhqh2rcd13ifvqhlg","pricing_plan_id":"cebpf4jnsgd1na2vs0mg"},{"bike_id":"46374c49-3adc-4c5a-8966-e00f056c0d57","system_id":"levelo_inurba_marseille","lat":43.27846,"lon":5.35442,"is_reserved":false,"is_disabled":false,"rental_uris":{"android":"levelo://app?vid=46374c49-3adc-4c5a-8966-e00f056c0d57","ios":"levelo://app?vid=46374c49-3adc-4c5a-8966-e00f056c0d57"},"vehicle_type_id":"4","last_reported":1745320135,"current_range_meters":20800,"station_id":"","pricing_plan_id":"cebpf4jnsgd1na2vs0mg"},{"bike_id":"08895724-e046-4e0c-b2de-4cbc4bdf316d","system_id":"levelo_inurba_marseille","lat":43.23955,"lon":5.36651,"is_reserved":false,"is_disabled":false,"rental_uris":{"android":"levelo://app?vid=08895724-e046-4e0c-b2de-4cbc4bdf316d","ios":"levelo://app?vid=08895724-e046-4e0c-b2de-4cbc4bdf316d"},"vehicle_type_id":"4","last_reported":1745320135,"current_range_meters":20800,"station_id":"ce4bhi12rcd13ifvqfp0","pricing_plan_id":"cebpf4jnsgd1na2vs0mg"},{"bike_id":"214395fd-857a-4a0e-809e-ea5d97671a18","system_id":"levelo_inurba_marseille","lat":43.21192,"lon":5.35073,"is_reserved":false,"is_disabled":false,"rental_uris":{"android":"levelo://app?vid=214395fd-857a-4a0e-809e-ea5d97671a18","ios":"levelo://app?vid=214395fd-857a-4a0e-809e-ea5d97671a18"},"vehicle_type_id":"4","last_reported":1745320135,"current_range_meters":21600,"station_id":"st_cvj6sg6p6f1abm77japg","pricing_plan_id":"cebpf4jnsgd1na2vs0mg"},{"bike_id":"b51b94c8-757f-433b-877f-2ca0e5a37cd1","system_id":"levelo_inurba_marseille","lat":43.30917,"lon":5.37216,"is_reserved":false,"is_disabled":false,"rental_uris":{"android":"levelo://app?vid=b51b94c8-757f-433b-877f-2ca0e5a37cd1","ios":"levelo://app?vid=b51b94c8-757f-433b-877f-2ca0e5a37cd1"},"vehicle_type_id":"4","last_reported":1745320135,"current_range_meters":20800,"station_id":"ce4bguh2rcd13ifvqckg","pricing_plan_id":"cebpf4jnsgd1na2vs0mg"},{"bike_id":"f9dd9794-b14b-4ca6-8acc-42487c6877aa","system_id":"levelo_inurba_marseille","lat":43.21196,"lon":5.35075,"is_reserved":false,"is_disabled":false,"rental_uris":{"android":"levelo://app?vid=f9dd9794-b14b-4ca6-8acc-42487c6877aa","ios":"levelo://app?vid=f9dd9794-b14b-4ca6-8acc-42487c6877aa"},"vehicle_type_id":"4","last_reported":1745320135,"current_range_meters":20800,"station_id":"st_cvj6sg6p6f1abm77japg","pricing_plan_id":"cebpf4jnsgd1na2vs0mg"},{"bike_id":"2616987d-ab0a-44f9-9d75-1338598187d7","system_id":"levelo_inurba_marseille","lat":43.30464,"lon":5.37905,"is_reserved":false,"is_disabled":false,"rental_uris":{"android":"levelo://app?vid=2616987d-ab0a-44f9-9d75-1338598187d7","ios":"levelo://app?vid=2616987d-ab0a-44f9-9d75-1338598187d7"},"vehicle_type_id":"4","last_reported":1745320135,"current_range_meters":20800,"station_id":"ce4bgup2rcd13ifvqcn0","pricing_plan_id":"cebpf4jnsgd1na2vs0mg"},{"bike_id":"34852179-f4c2-4e75-9479-989895fa6c8a","system_id":"levelo_inurba_marseille","lat":43.250033,"lon":5.389197,"is_reserved":false,"is_disabled":false,"rental_uris":{"android":"levelo://app?vid=34852179-f4c2-4e75-9479-989895fa6c8a","ios":"levelo://app?vid=34852179-f4c2-4e75-9479-989895fa6c8a"},"vehicle_type_id":"4","last_reported":1745320135,"current_range_meters":20800,"station_id":"ce4bhgp2rcd13ifvqfd0","pricing_plan_id":"cebpf4jnsgd1na2vs0mg"},{"bike_id":"e88ac660-9c99-4f88-8e33-276c294ef543","system_id":"levelo_inurba_marseille","lat":43.231891,"lon":5.399916,"is_reserved":false,"is_disabled":false,"rental_uris":{"android":"levelo://app?vid=e88ac660-9c99-4f88-8e33-276c294ef543","ios":"levelo://app?vid=e88ac660-9c99-4f88-8e33-276c294ef543"},"vehicle_type_id":"4","last_reported":1745320135,"current_range_meters":20800,"station_id":"ce4bhn12rcd13ifvqgqg","pricing_plan_id":"cebpf4jnsgd1na2vs0mg"},{"bike_id":"a96100ce-ed14-4c51-bbc3-b20d76cac533","system_id":"levelo_inurba_marseille","lat":43.24546,"lon":5.39521,"is_reserved":false,"is_disabled":false,"rental_uris":{"android":"levelo://app?vid=a96100ce-ed14-4c51-bbc3-b20d76cac533","ios":"levelo://app?vid=a96100ce-ed14-4c51-bbc3-b20d76cac533"},"vehicle_type_id":"4","last_reported":1745320135,"current_range_meters":20800,"station_id":"ce4bhlp2rcd13ifvqgjg","pricing_plan_id":"cebpf4jnsgd1na2vs0mg"},{"bike_id":"1936b8b4-5a66-4f1b-8f89-49aa88a91b4a","system_id":"levelo_inurba_marseille","lat":43.26953,"lon":5.38863,"is_reserved":false,"is_disabled":false,"rental_uris":{"android":"levelo://app?vid=1936b8b4-5a66-4f1b-8f89-49aa88a91b4a","ios":"levelo://app?vid=1936b8b4-5a66-4f1b-8f89-49aa88a91b4a"},"vehicle_type_id":"4","last_reported":1745320135,"current_range_meters":20800,"station_id":"","pricing_plan_id":"cebpf4jnsgd1na2vs0mg"},{"bike_id":"72afc45d-b5ae-4600-9103-5752ae895e78","system_id":"levelo_inurba_marseille","lat":43.28975,"lon":5.37837,"is_reserved":false,"is_disabled":false,"rental_uris":{"android":"levelo://app?vid=72afc45d-b5ae-4600-9103-5752ae895e78","ios":"levelo://app?vid=72afc45d-b5ae-4600-9103-5752ae895e78"},"vehicle_type_id":"4","last_reported":1745320135,"current_range_meters":20400,"station_id":"ce4bh9p2rcd13ifvqed0","pricing_plan_id":"cebpf4jnsgd1na2vs0mg"},{"bike_id":"c51bb776-c3bf-4304-ae11-58970b889edf","system_id":"levelo_inurba_marseille","lat":43.26803,"lon":5.40267,"is_reserved":false,"is_disabled":false,"rental_uris":{"android":"levelo://app?vid=c51bb776-c3bf-4304-ae11-58970b889edf","ios":"levelo://app?vid=c51bb776-c3bf-4304-ae11-58970b889edf"},"vehicle_type_id":"4","last_reported":1745320135,"current_range_meters":21600,"station_id":"ce501612rcd8frsf0b60","pricing_plan_id":"cebpf4jnsgd1na2vs0mg"},{"bike_id":"05343811-d7fd-4ca1-b75d-f9dd8ac561c1","system_id":"levelo_inurba_marseille","lat":43.240694,"lon":5.377642,"is_reserved":false,"is_disabled":false,"rental_uris":{"android":"levelo://app?vid=05343811-d7fd-4ca1-b75d-f9dd8ac561c1","ios":"levelo://app?vid=05343811-d7fd-4ca1-b75d-f9dd8ac561c1"},"vehicle_type_id":"4","last_reported":1745320135,"current_range_meters":21600,"station_id":"ce4bhih2rcd13ifvqfr0","pricing_plan_id":"cebpf4jnsgd1na2vs0mg"},{"bike_id":"cc5cc79c-903b-44b9-a1f1-b89193114c6f","system_id":"levelo_inurba_marseille","lat":43.28479,"lon":5.38413,"is_reserved":false,"is_disabled":false,"rental_uris":{"android":"levelo://app?vid=cc5cc79c-903b-44b9-a1f1-b89193114c6f","ios":"levelo://app?vid=cc5cc79c-903b-44b9-a1f1-b89193114c6f"},"vehicle_type_id":"4","last_reported":1745320135,"current_range_meters":21600,"station_id":"ce4bhmp2rcd13ifvqgog","pricing_plan_id":"cebpf4jnsgd1na2vs0mg"},{"bike_id":"057ecee1-8707-4c50-b9f5-50ccc6147b4e","system_id":"levelo_inurba_marseille","lat":43.32366,"lon":5.38886,"is_reserved":false,"is_disabled":false,"rental_uris":{"android":"levelo://app?vid=057ecee1-8707-4c50-b9f5-50ccc6147b4e","ios":"levelo://app?vid=057ecee1-8707-4c50-b9f5-50ccc6147b4e"},"vehicle_type_id":"4","last_reported":1745320135,"current_range_meters":21600,"station_id":"ce4bhqp2rcd13ifvqhog","pricing_plan_id":"cebpf4jnsgd1na2vs0mg"},{"bike_id":"8928c1a3-8d73-4134-ac3d-92e79e6abfed","system_id":"levelo_inurba_marseille","lat":43.30467,"lon":5.37905,"is_reserved":false,"is_disabled":false,"rental_uris":{"android":"levelo://app?vid=8928c1a3-8d73-4134-ac3d-92e79e6abfed","ios":"levelo://app?vid=8928c1a3-8d73-4134-ac3d-92e79e6abfed"},"vehicle_type_id":"4","last_reported":1745320135,"current_range_meters":21600,"station_id":"ce4bgup2rcd13ifvqcn0","pricing_plan_id":"cebpf4jnsgd1na2vs0mg"},{"bike_id":"7685cf5d-f065-40cc-8acb-b9666dbd13ec","system_id":"levelo_inurba_marseille","lat":43.28349,"lon":5.3809,"is_reserved":false,"is_disabled":false,"rental_uris":{"android":"levelo://app?vid=7685cf5d-f065-40cc-8acb-b9666dbd13ec","ios":"levelo://app?vid=7685cf5d-f065-40cc-8acb-b9666dbd13ec"},"vehicle_type_id":"4","last_reported":1745320135,"current_range_meters":22000,"station_id":"ce4bh412rcd13ifvqdr0","pricing_plan_id":"cebpf4jnsgd1na2vs0mg"},{"bike_id":"b3933923-c76c-433e-a4a5-5d0ad8438145","system_id":"levelo_inurba_marseille","lat":43.30532,"lon":5.38405,"is_reserved":false,"is_disabled":false,"rental_uris":{"android":"levelo://app?vid=b3933923-c76c-433e-a4a5-5d0ad8438145","ios":"levelo://app?vid=b3933923-c76c-433e-a4a5-5d0ad8438145"},"vehicle_type_id":"4","last_reported":1745320135,"current_range_meters":22000,"station_id":"ce4bgg92rcd13ifvqb30","pricing_plan_id":"cebpf4jnsgd1na2vs0mg"},{"bike_id":"72230011-10be-4bc5-b812-e255d2e856f3","system_id":"levelo_inurba_marseille","lat":43.27369,"lon":5.36255,"is_reserved":false,"is_disabled":false,"rental_uris":{"android":"levelo://app?vid=72230011-10be-4bc5-b812-e255d2e856f3","ios":"levelo://app?vid=72230011-10be-4bc5-b812-e255d2e856f3"},"vehicle_type_id":"4","last_reported":1745320135,"current_range_meters":22000,"station_id":"","pricing_plan_id":"cebpf4jnsgd1na2vs0mg"},{"bike_id":"8893bb8f-fbdb-4d0d-932d-b0dc71fee152","system_id":"levelo_inurba_marseille","lat":43.27499,"lon":5.42454,"is_reserved":false,"is_disabled":true,"rental_uris":{"android":"levelo://app?vid=8893bb8f-fbdb-4d0d-932d-b0dc71fee152","ios":"levelo://app?vid=8893bb8f-fbdb-4d0d-932d-b0dc71fee152"},"vehicle_type_id":"4","last_reported":1745320135,"current_range_meters":22000,"station_id":"ce4bhn92rcd13ifvqgrg","pricing_plan_id":"cebpf4jnsgd1na2vs0mg"},{"bike_id":"8f5260d3-d144-46b4-9a0d-6f26e16ce215","system_id":"levelo_inurba_marseille","lat":43.29885,"lon":5.43657,"is_reserved":false,"is_disabled":false,"rental_uris":{"android":"levelo://app?vid=8f5260d3-d144-46b4-9a0d-6f26e16ce215","ios":"levelo://app?vid=8f5260d3-d144-46b4-9a0d-6f26e16ce215"},"vehicle_type_id":"4","last_reported":1745320135,"current_range_meters":21600,"station_id":"ce4bhpp2rcd13ifvqhfg","pricing_plan_id":"cebpf4jnsgd1na2vs0mg"},{"bike_id":"9c318c01-3bc2-472d-b94d-6b4485e89fb1","system_id":"levelo_inurba_marseille","lat":43.29235,"lon":5.36083,"is_reserved":false,"is_disabled":false,"rental_uris":{"android":"levelo://app?vid=9c318c01-3bc2-472d-b94d-6b4485e89fb1","ios":"levelo://app?vid=9c318c01-3bc2-472d-b94d-6b4485e89fb1"},"vehicle_type_id":"4","last_reported":1745320135,"current_range_meters":21600,"station_id":"ce4bhbh2rcd13ifvqeqg","pricing_plan_id":"cebpf4jnsgd1na2vs0mg"},{"bike_id":"2f270179-9634-4f4d-a1fa-a04d741e1174","system_id":"levelo_inurba_marseille","lat":43.28573,"lon":5.39477,"is_reserved":false,"is_disabled":false,"rental_uris":{"android":"levelo://app?vid=2f270179-9634-4f4d-a1fa-a04d741e1174","ios":"levelo://app?vid=2f270179-9634-4f4d-a1fa-a04d741e1174"},"vehicle_type_id":"4","last_reported":1745320135,"current_range_meters":21600,"station_id":"ce4bh292rcd13ifvqdg0","pricing_plan_id":"cebpf4jnsgd1na2vs0mg"},{"bike_id":"06e0bcc9-ed28-4c26-a6e9-2713c37e868b","system_id":"levelo_inurba_marseille","lat":43.25933,"lon":5.40868,"is_reserved":false,"is_disabled":false,"rental_uris":{"android":"levelo://app?vid=06e0bcc9-ed28-4c26-a6e9-2713c37e868b","ios":"levelo://app?vid=06e0bcc9-ed28-4c26-a6e9-2713c37e868b"},"vehicle_type_id":"4","last_reported":1745320135,"current_range_meters":22000,"station_id":"ce4bhm92rcd13ifvqglg","pricing_plan_id":"cebpf4jnsgd1na2vs0mg"},{"bike_id":"b0132c17-6cb3-4ca2-8fdb-70ec5b168dd9","system_id":"levelo_inurba_marseille","lat":43.2953,"lon":5.38549,"is_reserved":false,"is_disabled":false,"rental_uris":{"android":"levelo://app?vid=b0132c17-6cb3-4ca2-8fdb-70ec5b168dd9","ios":"levelo://app?vid=b0132c17-6cb3-4ca2-8fdb-70ec5b168dd9"},"vehicle_type_id":"4","last_reported":1745320135,"current_range_meters":21600,"station_id":"ce4bgih2rcd13ifvqba0","pricing_plan_id":"cebpf4jnsgd1na2vs0mg"},{"bike_id":"54b69f93-48c7-4f72-ab23-ccb97e0d151e","system_id":"levelo_inurba_marseille","lat":43.302438,"lon":5.400474,"is_reserved":false,"is_disabled":false,"rental_uris":{"android":"levelo://app?vid=54b69f93-48c7-4f72-ab23-ccb97e0d151e","ios":"levelo://app?vid=54b69f93-48c7-4f72-ab23-ccb97e0d151e"},"vehicle_type_id":"4","last_reported":1745320135,"current_range_meters":22400,"station_id":"ce4bgvh2rcd13ifvqcs0","pricing_plan_id":"cebpf4jnsgd1na2vs0mg"},{"bike_id":"34b5d9dd-02d5-4b34-ad8e-dab2006da801","system_id":"levelo_inurba_marseille","lat":43.31089,"lon":5.42433,"is_reserved":false,"is_disabled":false,"rental_uris":{"android":"levelo://app?vid=34b5d9dd-02d5-4b34-ad8e-dab2006da801","ios":"levelo://app?vid=34b5d9dd-02d5-4b34-ad8e-dab2006da801"},"vehicle_type_id":"4","last_reported":1745320135,"current_range_meters":22000,"station_id":"ce4bhp92rcd13ifvqhag","pricing_plan_id":"cebpf4jnsgd1na2vs0mg"},{"bike_id":"355aff8c-c63e-4e62-b762-e0bbccfdc381","system_id":"levelo_inurba_marseille","lat":43.30606,"lon":5.37216,"is_reserved":false,"is_disabled":false,"rental_uris":{"android":"levelo://app?vid=355aff8c-c63e-4e62-b762-e0bbccfdc381","ios":"levelo://app?vid=355aff8c-c63e-4e62-b762-e0bbccfdc381"},"vehicle_type_id":"4","last_reported":1745320135,"current_range_meters":22400,"station_id":"ce4bgqh2rcd13ifvqc4g","pricing_plan_id":"cebpf4jnsgd1na2vs0mg"},{"bike_id":"36c078e8-06ee-4b6f-a720-e2b8d5b2efaf","system_id":"levelo_inurba_marseille","lat":43.29278,"lon":5.36836,"is_reserved":false,"is_disabled":false,"rental_uris":{"android":"levelo://app?vid=36c078e8-06ee-4b6f-a720-e2b8d5b2efaf","ios":"levelo://app?vid=36c078e8-06ee-4b6f-a720-e2b8d5b2efaf"},"vehicle_type_id":"4","last_reported":1745320135,"current_range_meters":22400,"station_id":"ce4bhbp2rcd13ifvqesg","pricing_plan_id":"cebpf4jnsgd1na2vs0mg"},{"bike_id":"08a9b7a9-08bd-48cc-a4b9-dbd4fabd502b","system_id":"levelo_inurba_marseille","lat":43.311707,"lon":5.38717,"is_reserved":false,"is_disabled":false,"rental_uris":{"android":"levelo://app?vid=08a9b7a9-08bd-48cc-a4b9-dbd4fabd502b","ios":"levelo://app?vid=08a9b7a9-08bd-48cc-a4b9-dbd4fabd502b"},"vehicle_type_id":"4","last_reported":1745320135,"current_range_meters":22400,"station_id":"ce4bgs12rcd13ifvqcag","pricing_plan_id":"cebpf4jnsgd1na2vs0mg"},{"bike_id":"0c1f2eb5-2bcc-4d10-a5cc-3ea9acf84b29","system_id":"levelo_inurba_marseille","lat":43.299494,"lon":5.386921,"is_reserved":false,"is_disabled":false,"rental_uris":{"android":"levelo://app?vid=0c1f2eb5-2bcc-4d10-a5cc-3ea9acf84b29","ios":"levelo://app?vid=0c1f2eb5-2bcc-4d10-a5cc-3ea9acf84b29"},"vehicle_type_id":"4","last_reported":1745320135,"current_range_meters":22400,"station_id":"ce4bgj92rcd13ifvqbd0","pricing_plan_id":"cebpf4jnsgd1na2vs0mg"},{"bike_id":"225460a5-a5c2-41cb-9a18-49d2fb784f99","system_id":"levelo_inurba_marseille","lat":43.28348,"lon":5.38121,"is_reserved":false,"is_disabled":false,"rental_uris":{"android":"levelo://app?vid=225460a5-a5c2-41cb-9a18-49d2fb784f99","ios":"levelo://app?vid=225460a5-a5c2-41cb-9a18-49d2fb784f99"},"vehicle_type_id":"4","last_reported":1745320135,"current_range_meters":22400,"station_id":"ce4bh412rcd13ifvqdr0","pricing_plan_id":"cebpf4jnsgd1na2vs0mg"},{"bike_id":"b0f7c99e-9fc5-4cd3-a40b-9030936d2935","system_id":"levelo_inurba_marseille","lat":43.3125,"lon":5.36844,"is_reserved":false,"is_disabled":false,"rental_uris":{"android":"levelo://app?vid=b0f7c99e-9fc5-4cd3-a40b-9030936d2935","ios":"levelo://app?vid=b0f7c99e-9fc5-4cd3-a40b-9030936d2935"},"vehicle_type_id":"4","last_reported":1745320135,"current_range_meters":22400,"station_id":"ce4bgl92rcd13ifvqbq0","pricing_plan_id":"cebpf4jnsgd1na2vs0mg"},{"bike_id":"818b5346-6aff-4980-a011-a1c6316658f1","system_id":"levelo_inurba_marseille","lat":43.29516,"lon":5.37514,"is_reserved":false,"is_disabled":false,"rental_uris":{"android":"levelo://app?vid=818b5346-6aff-4980-a011-a1c6316658f1","ios":"levelo://app?vid=818b5346-6aff-4980-a011-a1c6316658f1"},"vehicle_type_id":"4","last_reported":1745320135,"current_range_meters":22800,"station_id":"ce4bgkp2rcd13ifvqbmg","pricing_plan_id":"cebpf4jnsgd1na2vs0mg"},{"bike_id":"1ad101bf-5058-4a65-a6e2-56753f3fc7e8","system_id":"levelo_inurba_marseille","lat":43.32536,"lon":5.41432,"is_reserved":false,"is_disabled":false,"rental_uris":{"android":"levelo://app?vid=1ad101bf-5058-4a65-a6e2-56753f3fc7e8","ios":"levelo://app?vid=1ad101bf-5058-4a65-a6e2-56753f3fc7e8"},"vehicle_type_id":"4","last_reported":1745320135,"current_range_meters":22800,"station_id":"ce4bhq12rcd13ifvqhhg","pricing_plan_id":"cebpf4jnsgd1na2vs0mg"},{"bike_id":"9181a354-49fa-45e3-b5c1-b7dca6746d38","system_id":"levelo_inurba_marseille","lat":43.25919,"lon":5.40885,"is_reserved":false,"is_disabled":false,"rental_uris":{"android":"levelo://app?vid=9181a354-49fa-45e3-b5c1-b7dca6746d38","ios":"levelo://app?vid=9181a354-49fa-45e3-b5c1-b7dca6746d38"},"vehicle_type_id":"4","last_reported":1745320135,"current_range_meters":22800,"station_id":"ce4bhm92rcd13ifvqglg","pricing_plan_id":"cebpf4jnsgd1na2vs0mg"},{"bike_id":"4e21fb31-1d8f-40ab-aab1-11c7e0f3f59b","system_id":"levelo_inurba_marseille","lat":43.27062,"lon":5.40262,"is_reserved":false,"is_disabled":false,"rental_uris":{"android":"levelo://app?vid=4e21fb31-1d8f-40ab-aab1-11c7e0f3f59b","ios":"levelo://app?vid=4e21fb31-1d8f-40ab-aab1-11c7e0f3f59b"},"vehicle_type_id":"4","last_reported":1745320135,"current_range_meters":22800,"station_id":"ce4bhk92rcd13ifvqgc0","pricing_plan_id":"cebpf4jnsgd1na2vs0mg"},{"bike_id":"22dda939-b530-49af-837f-c70a9fe56061","system_id":"levelo_inurba_marseille","lat":43.25821,"lon":5.39431,"is_reserved":false,"is_disabled":false,"rental_uris":{"android":"levelo://app?vid=22dda939-b530-49af-837f-c70a9fe56061","ios":"levelo://app?vid=22dda939-b530-49af-837f-c70a9fe56061"},"vehicle_type_id":"4","last_reported":1745320135,"current_range_meters":22800,"station_id":"ce4bhip2rcd13ifvqft0","pricing_plan_id":"cebpf4jnsgd1na2vs0mg"},{"bike_id":"05e0b9f0-c654-4a11-94b7-a3c914bb2e2b","system_id":"levelo_inurba_marseille","lat":43.27084,"lon":5.4227,"is_reserved":false,"is_disabled":false,"rental_uris":{"android":"levelo://app?vid=05e0b9f0-c654-4a11-94b7-a3c914bb2e2b","ios":"levelo://app?vid=05e0b9f0-c654-4a11-94b7-a3c914bb2e2b"},"vehicle_type_id":"4","last_reported":1745320135,"current_range_meters":22800,"station_id":"ce4bhk92rcd13ifvqgb0","pricing_plan_id":"cebpf4jnsgd1na2vs0mg"},{"bike_id":"74f8a141-9d34-4dce-9416-bcc73538203a","system_id":"levelo_inurba_marseille","lat":43.324819,"lon":5.36568,"is_reserved":false,"is_disabled":false,"rental_uris":{"android":"levelo://app?vid=74f8a141-9d34-4dce-9416-bcc73538203a","ios":"levelo://app?vid=74f8a141-9d34-4dce-9416-bcc73538203a"},"vehicle_type_id":"4","last_reported":1745320135,"current_range_meters":22800,"station_id":"ce4bhs12rcd13ifvqhvg","pricing_plan_id":"cebpf4jnsgd1na2vs0mg"},{"bike_id":"f1917200-15c7-4e06-8a6f-689987457fde","system_id":"levelo_inurba_marseille","lat":43.29088,"lon":5.371538,"is_reserved":false,"is_disabled":false,"rental_uris":{"android":"levelo://app?vid=f1917200-15c7-4e06-8a6f-689987457fde","ios":"levelo://app?vid=f1917200-15c7-4e06-8a6f-689987457fde"},"vehicle_type_id":"4","last_reported":1745320135,"current_range_meters":23200,"station_id":"ce4bh5p2rcd13ifvqe4g","pricing_plan_id":"cebpf4jnsgd1na2vs0mg"},{"bike_id":"792d7bb8-2b2f-4709-a3de-a5967da9726c","system_id":"levelo_inurba_marseille","lat":43.32537,"lon":5.41429,"is_reserved":false,"is_disabled":false,"rental_uris":{"android":"levelo://app?vid=792d7bb8-2b2f-4709-a3de-a5967da9726c","ios":"levelo://app?vid=792d7bb8-2b2f-4709-a3de-a5967da9726c"},"vehicle_type_id":"4","last_reported":1745320135,"current_range_meters":23200,"station_id":"ce4bhq12rcd13ifvqhhg","pricing_plan_id":"cebpf4jnsgd1na2vs0mg"},{"bike_id":"ac1db382-ef8a-4e6d-872b-99760272d17d","system_id":"levelo_inurba_marseille","lat":43.28109,"lon":5.37868,"is_reserved":false,"is_disabled":true,"rental_uris":{"android":"levelo://app?vid=ac1db382-ef8a-4e6d-872b-99760272d17d","ios":"levelo://app?vid=ac1db382-ef8a-4e6d-872b-99760272d17d"},"vehicle_type_id":"4","last_reported":1745320135,"current_range_meters":23200,"station_id":"ce4bha12rcd13ifvqee0","pricing_plan_id":"cebpf4jnsgd1na2vs0mg"},{"bike_id":"8605c514-b875-4571-9338-87ed049d5488","system_id":"levelo_inurba_marseille","lat":43.25582,"lon":5.3823,"is_reserved":false,"is_disabled":false,"rental_uris":{"android":"levelo://app?vid=8605c514-b875-4571-9338-87ed049d5488","ios":"levelo://app?vid=8605c514-b875-4571-9338-87ed049d5488"},"vehicle_type_id":"4","last_reported":1745320135,"current_range_meters":23200,"station_id":"ce4bhih2rcd13ifvqfs0","pricing_plan_id":"cebpf4jnsgd1na2vs0mg"},{"bike_id":"32c2cde8-4a7c-43ba-99f0-8af98ca74de0","system_id":"levelo_inurba_marseille","lat":43.31173,"lon":5.38722,"is_reserved":false,"is_disabled":false,"rental_uris":{"android":"levelo://app?vid=32c2cde8-4a7c-43ba-99f0-8af98ca74de0","ios":"levelo://app?vid=32c2cde8-4a7c-43ba-99f0-8af98ca74de0"},"vehicle_type_id":"4","last_reported":1745320135,"current_range_meters":24400,"station_id":"ce4bgv12rcd13ifvqcp0","pricing_plan_id":"cebpf4jnsgd1na2vs0mg"},{"bike_id":"522ce710-d094-4f39-ac0c-3f6f980c8a2f","system_id":"levelo_inurba_marseille","lat":43.24083,"lon":5.37754,"is_reserved":false,"is_disabled":false,"rental_uris":{"android":"levelo://app?vid=522ce710-d094-4f39-ac0c-3f6f980c8a2f","ios":"levelo://app?vid=522ce710-d094-4f39-ac0c-3f6f980c8a2f"},"vehicle_type_id":"4","last_reported":1745320135,"current_range_meters":23200,"station_id":"ce4bhnp2rcd13ifvqgvg","pricing_plan_id":"cebpf4jnsgd1na2vs0mg"},{"bike_id":"192d51cc-116a-4926-aa4a-e1515bcb8248","system_id":"levelo_inurba_marseille","lat":43.29973,"lon":5.3851,"is_reserved":false,"is_disabled":true,"rental_uris":{"android":"levelo://app?vid=192d51cc-116a-4926-aa4a-e1515bcb8248","ios":"levelo://app?vid=192d51cc-116a-4926-aa4a-e1515bcb8248"},"vehicle_type_id":"4","last_reported":1745320135,"current_range_meters":23200,"station_id":"ce4bgj92rcd13ifvqbd0","pricing_plan_id":"cebpf4jnsgd1na2vs0mg"},{"bike_id":"e5b63ec8-1b7f-4514-ad49-7c8e49282af6","system_id":"levelo_inurba_marseille","lat":43.24069,"lon":5.37765,"is_reserved":false,"is_disabled":false,"rental_uris":{"android":"levelo://app?vid=e5b63ec8-1b7f-4514-ad49-7c8e49282af6","ios":"levelo://app?vid=e5b63ec8-1b7f-4514-ad49-7c8e49282af6"},"vehicle_type_id":"4","last_reported":1745320135,"current_range_meters":23200,"station_id":"ce4bhnp2rcd13ifvqgvg","pricing_plan_id":"cebpf4jnsgd1na2vs0mg"},{"bike_id":"e0b35a2c-01a7-409f-977e-ad20738cb598","system_id":"levelo_inurba_marseille","lat":43.2997,"lon":5.3849,"is_reserved":false,"is_disabled":false,"rental_uris":{"android":"levelo://app?vid=e0b35a2c-01a7-409f-977e-ad20738cb598","ios":"levelo://app?vid=e0b35a2c-01a7-409f-977e-ad20738cb598"},"vehicle_type_id":"4","last_reported":1745320135,"current_range_meters":22800,"station_id":"ce4bgj92rcd13ifvqbd0","pricing_plan_id":"cebpf4jnsgd1na2vs0mg"},{"bike_id":"c47a05ba-2aa1-4125-a5e3-282e2aa06a73","system_id":"levelo_inurba_marseille","lat":43.25082,"lon":5.39523,"is_reserved":false,"is_disabled":false,"rental_uris":{"android":"levelo://app?vid=c47a05ba-2aa1-4125-a5e3-282e2aa06a73","ios":"levelo://app?vid=c47a05ba-2aa1-4125-a5e3-282e2aa06a73"},"vehicle_type_id":"4","last_reported":1745320135,"current_range_meters":23200,"station_id":"ce4bhm12rcd13ifvqgkg","pricing_plan_id":"cebpf4jnsgd1na2vs0mg"},{"bike_id":"94adc9ea-afdd-4e72-b4d5-291da8530aa9","system_id":"levelo_inurba_marseille","lat":43.24547,"lon":5.39524,"is_reserved":false,"is_disabled":false,"rental_uris":{"android":"levelo://app?vid=94adc9ea-afdd-4e72-b4d5-291da8530aa9","ios":"levelo://app?vid=94adc9ea-afdd-4e72-b4d5-291da8530aa9"},"vehicle_type_id":"4","last_reported":1745320135,"current_range_meters":23200,"station_id":"ce4bhlp2rcd13ifvqgjg","pricing_plan_id":"cebpf4jnsgd1na2vs0mg"},{"bike_id":"5630f52d-0448-4fa0-94dd-5eaa69c05d03","system_id":"levelo_inurba_marseille","lat":43.27065,"lon":5.42276,"is_reserved":false,"is_disabled":false,"rental_uris":{"android":"levelo://app?vid=5630f52d-0448-4fa0-94dd-5eaa69c05d03","ios":"levelo://app?vid=5630f52d-0448-4fa0-94dd-5eaa69c05d03"},"vehicle_type_id":"4","last_reported":1745320135,"current_range_meters":24000,"station_id":"ce4bhk92rcd13ifvqgb0","pricing_plan_id":"cebpf4jnsgd1na2vs0mg"},{"bike_id":"f36a1b47-dae5-4431-be56-a96011990504","system_id":"levelo_inurba_marseille","lat":43.29026,"lon":5.38129,"is_reserved":false,"is_disabled":false,"rental_uris":{"android":"levelo://app?vid=f36a1b47-dae5-4431-be56-a96011990504","ios":"levelo://app?vid=f36a1b47-dae5-4431-be56-a96011990504"},"vehicle_type_id":"4","last_reported":1745320135,"current_range_meters":23200,"station_id":"ce4bh4p2rcd13ifvqe1g","pricing_plan_id":"cebpf4jnsgd1na2vs0mg"},{"bike_id":"095ad8a3-1df5-4a52-93e2-806407bf81ed","system_id":"levelo_inurba_marseille","lat":43.28613,"lon":5.3514,"is_reserved":false,"is_disabled":false,"rental_uris":{"android":"levelo://app?vid=095ad8a3-1df5-4a52-93e2-806407bf81ed","ios":"levelo://app?vid=095ad8a3-1df5-4a52-93e2-806407bf81ed"},"vehicle_type_id":"4","last_reported":1745320135,"current_range_meters":24000,"station_id":"ce4bhch2rcd13ifvqeug","pricing_plan_id":"cebpf4jnsgd1na2vs0mg"},{"bike_id":"9e3a88c0-a233-453f-9560-4f910d12ed52","system_id":"levelo_inurba_marseille","lat":43.29528,"lon":5.38536,"is_reserved":false,"is_disabled":false,"rental_uris":{"android":"levelo://app?vid=9e3a88c0-a233-453f-9560-4f910d12ed52","ios":"levelo://app?vid=9e3a88c0-a233-453f-9560-4f910d12ed52"},"vehicle_type_id":"4","last_reported":1745320135,"current_range_meters":24000,"station_id":"ce4bgih2rcd13ifvqba0","pricing_plan_id":"cebpf4jnsgd1na2vs0mg"},{"bike_id":"290416fe-396d-4f43-88fa-1f6591d71492","system_id":"levelo_inurba_marseille","lat":43.292669,"lon":5.384303,"is_reserved":false,"is_disabled":false,"rental_uris":{"android":"levelo://app?vid=290416fe-396d-4f43-88fa-1f6591d71492","ios":"levelo://app?vid=290416fe-396d-4f43-88fa-1f6591d71492"},"vehicle_type_id":"4","last_reported":1745320135,"current_range_meters":24000,"station_id":"ce4bh692rcd13ifvqea0","pricing_plan_id":"cebpf4jnsgd1na2vs0mg"},{"bike_id":"c6dee0a6-2734-4cc1-814b-cf21527c5e3d","system_id":"levelo_inurba_marseille","lat":43.28975,"lon":5.37849,"is_reserved":false,"is_disabled":false,"rental_uris":{"android":"levelo://app?vid=c6dee0a6-2734-4cc1-814b-cf21527c5e3d","ios":"levelo://app?vid=c6dee0a6-2734-4cc1-814b-cf21527c5e3d"},"vehicle_type_id":"4","last_reported":1745320135,"current_range_meters":24000,"station_id":"ce4bh9p2rcd13ifvqed0","pricing_plan_id":"cebpf4jnsgd1na2vs0mg"},{"bike_id":"3b53c5fd-ed14-4cd3-8d91-27c0043664ec","system_id":"levelo_inurba_marseille","lat":43.28365,"lon":5.38646,"is_reserved":false,"is_disabled":false,"rental_uris":{"android":"levelo://app?vid=3b53c5fd-ed14-4cd3-8d91-27c0043664ec","ios":"levelo://app?vid=3b53c5fd-ed14-4cd3-8d91-27c0043664ec"},"vehicle_type_id":"4","last_reported":1745320135,"current_range_meters":24000,"station_id":"ce4bh492rcd13ifvqdvg","pricing_plan_id":"cebpf4jnsgd1na2vs0mg"},{"bike_id":"d5701eac-28cc-4251-8e98-fdb7283efe93","system_id":"levelo_inurba_marseille","lat":43.305915,"lon":5.393631,"is_reserved":false,"is_disabled":false,"rental_uris":{"android":"levelo://app?vid=d5701eac-28cc-4251-8e98-fdb7283efe93","ios":"levelo://app?vid=d5701eac-28cc-4251-8e98-fdb7283efe93"},"vehicle_type_id":"4","last_reported":1745320135,"current_range_meters":24400,"station_id":"ce4bh192rcd13ifvqdd0","pricing_plan_id":"cebpf4jnsgd1na2vs0mg"},{"bike_id":"1e3dde68-7550-48ba-b2a4-50c9c0f39f11","system_id":"levelo_inurba_marseille","lat":43.29908,"lon":5.38164,"is_reserved":false,"is_disabled":false,"rental_uris":{"android":"levelo://app?vid=1e3dde68-7550-48ba-b2a4-50c9c0f39f11","ios":"levelo://app?vid=1e3dde68-7550-48ba-b2a4-50c9c0f39f11"},"vehicle_type_id":"4","last_reported":1745320135,"current_range_meters":24400,"station_id":"ce4bgj12rcd13ifvqbc0","pricing_plan_id":"cebpf4jnsgd1na2vs0mg"},{"bike_id":"2728b9e9-408a-4867-a123-8fb361394738","system_id":"levelo_inurba_marseille","lat":43.31478,"lon":5.373,"is_reserved":false,"is_disabled":false,"rental_uris":{"android":"levelo://app?vid=2728b9e9-408a-4867-a123-8fb361394738","ios":"levelo://app?vid=2728b9e9-408a-4867-a123-8fb361394738"},"vehicle_type_id":"4","last_reported":1745320135,"current_range_meters":24400,"station_id":"ce4bgt12rcd13ifvqcd0","pricing_plan_id":"cebpf4jnsgd1na2vs0mg"},{"bike_id":"bc270640-2a96-4c56-a07b-9499f1bfe591","system_id":"levelo_inurba_marseille","lat":43.230652,"lon":5.354886,"is_reserved":false,"is_disabled":false,"rental_uris":{"android":"levelo://app?vid=bc270640-2a96-4c56-a07b-9499f1bfe591","ios":"levelo://app?vid=bc270640-2a96-4c56-a07b-9499f1bfe591"},"vehicle_type_id":"4","last_reported":1745320135,"current_range_meters":24400,"station_id":"cpo3342slgdg3j2ifvpg","pricing_plan_id":"cebpf4jnsgd1na2vs0mg"},{"bike_id":"54b9b622-a3d4-4632-b925-39f63620a0bd","system_id":"levelo_inurba_marseille","lat":43.304743,"lon":5.379485,"is_reserved":false,"is_disabled":false,"rental_uris":{"android":"levelo://app?vid=54b9b622-a3d4-4632-b925-39f63620a0bd","ios":"levelo://app?vid=54b9b622-a3d4-4632-b925-39f63620a0bd"},"vehicle_type_id":"4","last_reported":1745320135,"current_range_meters":24000,"station_id":"ce4bhnh2rcd13ifvqgtg","pricing_plan_id":"cebpf4jnsgd1na2vs0mg"},{"bike_id":"106bd907-72ad-48fa-9210-d314dbdf3a65","system_id":"levelo_inurba_marseille","lat":43.31294,"lon":5.36786,"is_reserved":false,"is_disabled":false,"rental_uris":{"android":"levelo://app?vid=106bd907-72ad-48fa-9210-d314dbdf3a65","ios":"levelo://app?vid=106bd907-72ad-48fa-9210-d314dbdf3a65"},"vehicle_type_id":"4","last_reported":1745320135,"current_range_meters":24400,"station_id":"ce4bgr92rcd13ifvqc6g","pricing_plan_id":"cebpf4jnsgd1na2vs0mg"},{"bike_id":"cbaad35e-584c-4fb7-bc5e-0da69a346889","system_id":"levelo_inurba_marseille","lat":43.2847,"lon":5.38431,"is_reserved":false,"is_disabled":false,"rental_uris":{"android":"levelo://app?vid=cbaad35e-584c-4fb7-bc5e-0da69a346889","ios":"levelo://app?vid=cbaad35e-584c-4fb7-bc5e-0da69a346889"},"vehicle_type_id":"4","last_reported":1745320135,"current_range_meters":24400,"station_id":"ce4bh512rcd13ifvqe3g","pricing_plan_id":"cebpf4jnsgd1na2vs0mg"},{"bike_id":"39738be9-6f5f-450a-8f39-92c55e8adcfc","system_id":"levelo_inurba_marseille","lat":43.30964,"lon":5.39059,"is_reserved":false,"is_disabled":false,"rental_uris":{"android":"levelo://app?vid=39738be9-6f5f-450a-8f39-92c55e8adcfc","ios":"levelo://app?vid=39738be9-6f5f-450a-8f39-92c55e8adcfc"},"vehicle_type_id":"4","last_reported":1745320135,"current_range_meters":24400,"station_id":"ce4bgup2rcd13ifvqco0","pricing_plan_id":"cebpf4jnsgd1na2vs0mg"},{"bike_id":"fa418b6e-f5c4-4866-ab2d-01d854cb6bdf","system_id":"levelo_inurba_marseille","lat":43.31116,"lon":5.3776,"is_reserved":false,"is_disabled":false,"rental_uris":{"android":"levelo://app?vid=fa418b6e-f5c4-4866-ab2d-01d854cb6bdf","ios":"levelo://app?vid=fa418b6e-f5c4-4866-ab2d-01d854cb6bdf"},"vehicle_type_id":"4","last_reported":1745320135,"current_range_meters":24400,"station_id":"ce4bgt92rcd13ifvqcg0","pricing_plan_id":"cebpf4jnsgd1na2vs0mg"},{"bike_id":"3809a8ee-6e1f-41d3-b1d8-6856b2e241be","system_id":"levelo_inurba_marseille","lat":43.27911,"lon":5.39582,"is_reserved":false,"is_disabled":false,"rental_uris":{"android":"levelo://app?vid=3809a8ee-6e1f-41d3-b1d8-6856b2e241be","ios":"levelo://app?vid=3809a8ee-6e1f-41d3-b1d8-6856b2e241be"},"vehicle_type_id":"4","last_reported":1745320135,"current_range_meters":24400,"station_id":"ce4bhf92rcd13ifvqf40","pricing_plan_id":"cebpf4jnsgd1na2vs0mg"},{"bike_id":"2f8e3607-4113-484d-a492-d4b0cfa60e37","system_id":"levelo_inurba_marseille","lat":43.33792,"lon":5.37446,"is_reserved":false,"is_disabled":false,"rental_uris":{"android":"levelo://app?vid=2f8e3607-4113-484d-a492-d4b0cfa60e37","ios":"levelo://app?vid=2f8e3607-4113-484d-a492-d4b0cfa60e37"},"vehicle_type_id":"4","last_reported":1745320135,"current_range_meters":24800,"station_id":"","pricing_plan_id":"cebpf4jnsgd1na2vs0mg"},{"bike_id":"b3d78285-b293-4fe5-a684-16a2f7c70b57","system_id":"levelo_inurba_marseille","lat":43.28337,"lon":5.38108,"is_reserved":false,"is_disabled":false,"rental_uris":{"android":"levelo://app?vid=b3d78285-b293-4fe5-a684-16a2f7c70b57","ios":"levelo://app?vid=b3d78285-b293-4fe5-a684-16a2f7c70b57"},"vehicle_type_id":"4","last_reported":1745320135,"current_range_meters":24800,"station_id":"ce4bh412rcd13ifvqdr0","pricing_plan_id":"cebpf4jnsgd1na2vs0mg"},{"bike_id":"397c1afb-c727-4564-b177-f2f4cbc6ff5e","system_id":"levelo_inurba_marseille","lat":43.236,"lon":5.4036,"is_reserved":false,"is_disabled":false,"rental_uris":{"android":"levelo://app?vid=397c1afb-c727-4564-b177-f2f4cbc6ff5e","ios":"levelo://app?vid=397c1afb-c727-4564-b177-f2f4cbc6ff5e"},"vehicle_type_id":"4","last_reported":1745320135,"current_range_meters":24800,"station_id":"","pricing_plan_id":"cebpf4jnsgd1na2vs0mg"},{"bike_id":"447f7629-ff29-4fd2-823f-b598233ae4a8","system_id":"levelo_inurba_marseille","lat":43.30806,"lon":5.38156,"is_reserved":false,"is_disabled":false,"rental_uris":{"android":"levelo://app?vid=447f7629-ff29-4fd2-823f-b598233ae4a8","ios":"levelo://app?vid=447f7629-ff29-4fd2-823f-b598233ae4a8"},"vehicle_type_id":"4","last_reported":1745320135,"current_range_meters":24400,"station_id":"ce4bgt12rcd13ifvqce0","pricing_plan_id":"cebpf4jnsgd1na2vs0mg"},{"bike_id":"c9325668-7af5-45cc-9ab6-f9cdddd6de92","system_id":"levelo_inurba_marseille","lat":43.29305,"lon":5.37458,"is_reserved":false,"is_disabled":false,"rental_uris":{"android":"levelo://app?vid=c9325668-7af5-45cc-9ab6-f9cdddd6de92","ios":"levelo://app?vid=c9325668-7af5-45cc-9ab6-f9cdddd6de92"},