{"last_updated":1751526699,"ttl":60,"version":"2.2","data":{"bikes":[{"bike_id":"3da29fb8-fc97-44c6-b9ac-31dd456b2fd4","system_id":"levelo_inurba_marseille","lat":43.33771,"lon":5.37424,"is_reserved":false,"is_disabled":true,"rental_uris":{"android":"levelo://app?vid=3da29fb8-fc97-44c6-b9ac-31dd456b2fd4","ios":"levelo://app?vid=3da29fb8-fc97-44c6-b9ac-31dd456b2fd4"},"vehicle_type_id":"4","last_reported":1751526699,"current_range_meters":0,"station_id":"","pricing_plan_id":"cebpf4jnsgd1na2vs0mg"},{"bike_id":"01861ad8-a8d7-4be6-816e-651927c87584","system_id":"levelo_inurba_marseille","lat":43.33751,"lon":5.37456,"is_reserved":false,"is_disabled":true,"rental_uris":{"android":"levelo://app?vid=01861ad8-a8d7-4be6-816e-651927c87584","ios":"levelo://app?vid=01861ad8-a8d7-4be6-816e-651927c87584"},"vehicle_type_id":"4","last_reported":1751526699,"current_range_meters":0,"station_id":"","pricing_plan_id":"cebpf4jnsgd1na2vs0mg"},{"bike_id":"942c1066-b367-4e59-b0ad-f0a160b51d6f","system_id":"levelo_inurba_marseille","lat":43.26556,"lon":5.39493,"is_reserved":false,"is_disabled":true,"rental_uris":{"android":"levelo://app?vid=942c1066-b367-4e59-b0ad-f0a160b51d6f","ios":"levelo://app?vid=942c1066-b367-4e59-b0ad-f0a160b51d6f"},"vehicle_type_id":"4","last_reported":1751526699,"current_range_meters":0,"station_id":"","pricing_plan_id":"cebpf4jnsgd1na2vs0mg"},{"bike_id":"10be7a19-7bb3-4be8-8e03-f074498ccbe9","system_id":"levelo_inurba_marseille","lat":43.21788,"lon":5.34602,"is_reserved":false,"is_disabled":true,"rental_uris":{"android":"levelo://app?vid=10be7a19-7bb3-4be8-8e03-f074498ccbe9","ios":"levelo://app?vid=10be7a19-7bb3-4be8-8e03-f074498ccbe9"},"vehicle_type_id":"4","last_reported":1751526699,"current_range_meters":0,"station_id":"","pricing_plan_id":"cebpf4jnsgd1na2vs0mg"},{"bike_id":"6e5b5a4d-1ee5-4068-9613-fb44ab4d8a9a","system_id":"levelo_inurba_marseille","lat":43.34846,"lon":5.34684,"is_reserved":false,"is_disabled":true,"rental_uris":{"android":"levelo://app?vid=6e5b5a4d-1ee5-4068-9613-fb44ab4d8a9a","ios":"levelo://app?vid=6e5b5a4d-1ee5-4068-9613-fb44ab4d8a9a"},"vehicle_type_id":"4","last_reported":1751526699,"current_range_meters":0,"station_id":"","pricing_plan_id":"cebpf4jnsgd1na2vs0mg"},{"bike_id":"587134f9-eec0-4e19-b8e5-3edd40396854","system_id":"levelo_inurba_marseille","lat":43.29017,"lon":5.35753,"is_reserved":false,"is_disabled":true,"rental_uris":{"android":"levelo://app?vid=587134f9-eec0-4e19-b8e5-3edd40396854","ios":"levelo://app?vid=587134f9-eec0-4e19-b8e5-3edd40396854"},"vehicle_type_id":"4","last_reported":1751526699,"current_range_meters":0,"station_id":"","pricing_plan_id":"cebpf4jnsgd1na2vs0mg"},{"bike_id":"88ba2eb8-6abc-42f0-a2b7-fafab863863b","system_id":"levelo_inurba_marseille","lat":43.26128,"lon":5.37346,"is_reserved":false,"is_disabled":true,"rental_uris":{"android":"levelo://app?vid=88ba2eb8-6abc-42f0-a2b7-fafab863863b","ios":"levelo://app?vid=88ba2eb8-6abc-42f0-a2b7-fafab863863b"},"vehicle_type_id":"4","last_reported":1751526699,"current_range_meters":0,"station_id":"","pricing_plan_id":"cebpf4jnsgd1na2vs0mg"},{"bike_id":"258f6878-4c66-40f9-968f-b2a23dbca841","system_id":"levelo_inurba_marseille","lat":43.29528,"lon":5.38539,"is_reserved":false,"is_disabled":true,"rental_uris":{"android":"levelo://app?vid=258f6878-4c66-40f9-968f-b2a23dbca841","ios":"levelo://app?vid=258f6878-4c66-40f9-968f-b2a23dbca841"},"vehicle_type_id":"4","last_reported":1751526699,"current_range_meters":0,"station_id":"ce4bgih2rcd13ifvqba0","pricing_plan_id":"cebpf4jnsgd1na2vs0mg"},{"bike_id":"752aeeda-7ad4-49d8-b60f-de6aac12dde9","system_id":"levelo_inurba_marseille","lat":43.303,"lon":5.39214,"is_reserved":false,"is_disabled":true,"rental_uris":{"android":"levelo://app?vid=752aeeda-7ad4-49d8-b60f-de6aac12dde9","ios":"levelo://app?vid=752aeeda-7ad4-49d8-b60f-de6aac12dde9"},"vehicle_type_id":"4","last_reported":1751526699,"current_range_meters":0,"station_id":"ce4bgkh2rcd13ifvqbk0","pricing_plan_id":"cebpf4jnsgd1na2vs0mg"},{"bike_id":"2ad041ce-fc89-4a23-96be-905a4262f81e","system_id":"levelo_inurba_marseille","lat":43.25504,"lon":5.376532,"is_reserved":false,"is_disabled":true,"rental_uris":{"android":"levelo://app?vid=2ad041ce-fc89-4a23-96be-905a4262f81e","ios":"levelo://app?vid=2ad041ce-fc89-4a23-96be-905a4262f81e"},"vehicle_type_id":"4","last_reported":1751526699,"current_range_meters":0,"station_id":"ce4bhh12rcd13ifvqff0","pricing_plan_id":"cebpf4jnsgd1na2vs0mg"},{"bike_id":"539ed013-9e80-448a-999f-a7819f54786a","system_id":"levelo_inurba_marseille","lat":43.26205,"lon":5.37928,"is_reserved":false,"is_disabled":true,"rental_uris":{"android":"levelo://app?vid=539ed013-9e80-448a-999f-a7819f54786a","ios":"levelo://app?vid=539ed013-9e80-448a-999f-a7819f54786a"},"vehicle_type_id":"4","last_reported":1751526699,"current_range_meters":0,"station_id":"ce4bhjp2rcd13ifvqg90","pricing_plan_id":"cebpf4jnsgd1na2vs0mg"},{"bike_id":"45a36d42-3f75-4451-929c-2980bab85fb7","system_id":"levelo_inurba_marseille","lat":43.23145,"lon":5.4372,"is_reserved":false,"is_disabled":true,"rental_uris":{"android":"levelo://app?vid=45a36d42-3f75-4451-929c-2980bab85fb7","ios":"levelo://app?vid=45a36d42-3f75-4451-929c-2980bab85fb7"},"vehicle_type_id":"4","last_reported":1751526699,"current_range_meters":0,"station_id":"ce4bhmp2rcd13ifvqgog","pricing_plan_id":"cebpf4jnsgd1na2vs0mg"},{"bike_id":"dab40e6e-5149-47cc-8c3e-988aa5ffa98a","system_id":"levelo_inurba_marseille","lat":43.28439,"lon":5.39209,"is_reserved":false,"is_disabled":true,"rental_uris":{"android":"levelo://app?vid=dab40e6e-5149-47cc-8c3e-988aa5ffa98a","ios":"levelo://app?vid=dab40e6e-5149-47cc-8c3e-988aa5ffa98a"},"vehicle_type_id":"4","last_reported":1751526699,"current_range_meters":0,"station_id":"ce4bhoh2rcd13ifvqh5g","pricing_plan_id":"cebpf4jnsgd1na2vs0mg"},{"bike_id":"cbab8e8e-76d8-4b25-9f75-190c476c076a","system_id":"levelo_inurba_marseille","lat":43.3359,"lon":5.40996,"is_reserved":false,"is_disabled":true,"rental_uris":{"android":"levelo://app?vid=cbab8e8e-76d8-4b25-9f75-190c476c076a","ios":"levelo://app?vid=cbab8e8e-76d8-4b25-9f75-190c476c076a"},"vehicle_type_id":"4","last_reported":1751526699,"current_range_meters":0,"station_id":"ce4bhqh2rcd13ifvqhmg","pricing_plan_id":"cebpf4jnsgd1na2vs0mg"},{"bike_id":"a556d3ac-7fcc-4b7a-b616-81d46cf079ce","system_id":"levelo_inurba_marseille","lat":43.3372,"lon":5.39184,"is_reserved":false,"is_disabled":true,"rental_uris":{"android":"levelo://app?vid=a556d3ac-7fcc-4b7a-b616-81d46cf079ce","ios":"levelo://app?vid=a556d3ac-7fcc-4b7a-b616-81d46cf079ce"},"vehicle_type_id":"4","last_reported":1751526699,"current_range_meters":0,"station_id":"ce4bhr92rcd13ifvqhsg","pricing_plan_id":"cebpf4jnsgd1na2vs0mg"},{"bike_id":"be4771a0-f822-40f0-a95c-2aaca1d3fb3c","system_id":"levelo_inurba_marseille","lat":43.21757,"lon":5.34608,"is_reserved":false,"is_disabled":true,"rental_uris":{"android":"levelo://app?vid=be4771a0-f822-40f0-a95c-2aaca1d3fb3c","ios":"levelo://app?vid=be4771a0-f822-40f0-a95c-2aaca1d3fb3c"},"vehicle_type_id":"4","last_reported":1751526699,"current_range_meters":0,"station_id":"st_cvj6r9ubvosntc0bgbag","pricing_plan_id":"cebpf4jnsgd1na2vs0mg"},{"bike_id":"c56317b0-af3c-425f-96b7-0eae8849f5e0","system_id":"levelo_inurba_marseille","lat":43.29552,"lon":5.37489,"is_reserved":false,"is_disabled":true,"rental_uris":{"android":"levelo://app?vid=c56317b0-af3c-425f-96b7-0eae8849f5e0","ios":"levelo://app?vid=c56317b0-af3c-425f-96b7-0eae8849f5e0"},"vehicle_type_id":"4","last_reported":1751526699,"current_range_meters":400,"station_id":"ce4bgkp2rcd13ifvqbmg","pricing_plan_id":"cebpf4jnsgd1na2vs0mg"},{"bike_id":"8e365e3c-559a-4ba6-a6c5-4c159e2434fc","system_id":"levelo_inurba_marseille","lat":43.21737,"lon":5.34607,"is_reserved":false,"is_disabled":true,"rental_uris":{"android":"levelo://app?vid=8e365e3c-559a-4ba6-a6c5-4c159e2434fc","ios":"levelo://app?vid=8e365e3c-559a-4ba6-a6c5-4c159e2434fc"},"vehicle_type_id":"4","last_reported":1751526699,"current_range_meters":800,"station_id":"","pricing_plan_id":"cebpf4jnsgd1na2vs0mg"},{"bike_id":"3d5d1fb8-c901-40f9-8324-bf66d0c41ae9","system_id":"levelo_inurba_marseille","lat":43.29621,"lon":5.37169,"is_reserved":false,"is_disabled":true,"rental_uris":{"android":"levelo://app?vid=3d5d1fb8-c901-40f9-8324-bf66d0c41ae9","ios":"levelo://app?vid=3d5d1fb8-c901-40f9-8324-bf66d0c41ae9"},"vehicle_type_id":"4","last_reported":1751526699,"current_range_meters":1200,"station_id":"ce4bgnh2rcd13ifvqc0g","pricing_plan_id":"cebpf4jnsgd1na2vs0mg"},{"bike_id":"5589fc1b-f3a4-4643-bb01-bd77a2639115","system_id":"levelo_inurba_marseille","lat":43.30462,"lon":5.37918,"is_reserved":false,"is_disabled":true,"rental_uris":{"android":"levelo://app?vid=5589fc1b-f3a4-4643-bb01-bd77a2639115","ios":"levelo://app?vid=5589fc1b-f3a4-4643-bb01-bd77a2639115"},"vehicle_type_id":"4","last_reported":1751526699,"current_range_meters":1200,"station_id":"ce4bgup2rcd13ifvqcn0","pricing_plan_id":"cebpf4jnsgd1na2vs0mg"},{"bike_id":"61326ae9-2b6b-4359-a617-a54adf737e3a","system_id":"levelo_inurba_marseille","lat":43.243906,"lon":5.370918,"is_reserved":false,"is_disabled":true,"rental_uris":{"android":"levelo://app?vid=61326ae9-2b6b-4359-a617-a54adf737e3a","ios":"levelo://app?vid=61326ae9-2b6b-4359-a617-a54adf737e3a"},"vehicle_type_id":"4","last_reported":1751526699,"current_range_meters":1200,"station_id":"ce4bhhh2rcd13ifvqfk0","pricing_plan_id":"cebpf4jnsgd1na2vs0mg"},{"bike_id":"ec05e37a-ed41-4976-86f7-99aafa4e4c35","system_id":"levelo_inurba_marseille","lat":43.28088,"lon":5.3966,"is_reserved":false,"is_disabled":true,"rental_uris":{"android":"levelo://app?vid=ec05e37a-ed41-4976-86f7-99aafa4e4c35","ios":"levelo://app?vid=ec05e37a-ed41-4976-86f7-99aafa4e4c35"},"vehicle_type_id":"4","last_reported":1751526699,"current_range_meters":1200,"station_id":"ce4bho12rcd13ifvqh2g","pricing_plan_id":"cebpf4jnsgd1na2vs0mg"},{"bike_id":"2da545cd-0049-4224-9c8e-7eaad906a5ef","system_id":"levelo_inurba_marseille","lat":43.324773,"lon":5.365637,"is_reserved":false,"is_disabled":true,"rental_uris":{"android":"levelo://app?vid=2da545cd-0049-4224-9c8e-7eaad906a5ef","ios":"levelo://app?vid=2da545cd-0049-4224-9c8e-7eaad906a5ef"},"vehicle_type_id":"4","last_reported":1751526699,"current_range_meters":1200,"station_id":"ce4bhs12rcd13ifvqhvg","pricing_plan_id":"cebpf4jnsgd1na2vs0mg"},{"bike_id":"eb6298f3-da23-4583-904d-84a7d9251bb0","system_id":"levelo_inurba_marseille","lat":43.2964,"lon":5.40607,"is_reserved":false,"is_disabled":true,"rental_uris":{"android":"levelo://app?vid=eb6298f3-da23-4583-904d-84a7d9251bb0","ios":"levelo://app?vid=eb6298f3-da23-4583-904d-84a7d9251bb0"},"vehicle_type_id":"4","last_reported":1751526699,"current_range_meters":1600,"station_id":"ce4bh0h2rcd13ifvqd60","pricing_plan_id":"cebpf4jnsgd1na2vs0mg"},{"bike_id":"c077b828-a2a6-46af-afee-b8f1e5503f43","system_id":"levelo_inurba_marseille","lat":43.23188,"lon":5.35549,"is_reserved":false,"is_disabled":true,"rental_uris":{"android":"levelo://app?vid=c077b828-a2a6-46af-afee-b8f1e5503f43","ios":"levelo://app?vid=c077b828-a2a6-46af-afee-b8f1e5503f43"},"vehicle_type_id":"4","last_reported":1751526699,"current_range_meters":1600,"station_id":"ce4bhu92rcd13ifvqi70","pricing_plan_id":"cebpf4jnsgd1na2vs0mg"},{"bike_id":"e6de70d5-fa81-4852-bfe2-d268705d29de","system_id":"levelo_inurba_marseille","lat":43.29972,"lon":5.38488,"is_reserved":false,"is_disabled":true,"rental_uris":{"android":"levelo://app?vid=e6de70d5-fa81-4852-bfe2-d268705d29de","ios":"levelo://app?vid=e6de70d5-fa81-4852-bfe2-d268705d29de"},"vehicle_type_id":"4","last_reported":1751526699,"current_range_meters":2000,"station_id":"ce4bgj92rcd13ifvqbd0","pricing_plan_id":"cebpf4jnsgd1na2vs0mg"},{"bike_id":"74aafd7f-7395-4195-b26c-9ed9a8ef0eb0","system_id":"levelo_inurba_marseille","lat":43.29002,"lon":5.35614,"is_reserved":false,"is_disabled":true,"rental_uris":{"android":"levelo://app?vid=74aafd7f-7395-4195-b26c-9ed9a8ef0eb0","ios":"levelo://app?vid=74aafd7f-7395-4195-b26c-9ed9a8ef0eb0"},"vehicle_type_id":"4","last_reported":1751526699,"current_range_meters":2000,"station_id":"ce4bhb92rcd13ifvqen0","pricing_plan_id":"cebpf4jnsgd1na2vs0mg"},{"bike_id":"c3ad5189-d652-438e-b937-26ef8f65dfd8","system_id":"levelo_inurba_marseille","lat":43.24167,"lon":5.39715,"is_reserved":false,"is_disabled":true,"rental_uris":{"android":"levelo://app?vid=c3ad5189-d652-438e-b937-26ef8f65dfd8","ios":"levelo://app?vid=c3ad5189-d652-438e-b937-26ef8f65dfd8"},"vehicle_type_id":"4","last_reported":1751526699,"current_range_meters":2000,"station_id":"ce4bhn12rcd13ifvqgpg","pricing_plan_id":"cebpf4jnsgd1na2vs0mg"},{"bike_id":"c1ae8ee2-36db-4d91-a662-3f942f47d0a6","system_id":"levelo_inurba_marseille","lat":43.31986,"lon":5.38157,"is_reserved":false,"is_disabled":true,"rental_uris":{"android":"levelo://app?vid=c1ae8ee2-36db-4d91-a662-3f942f47d0a6","ios":"levelo://app?vid=c1ae8ee2-36db-4d91-a662-3f942f47d0a6"},"vehicle_type_id":"4","last_reported":1751526699,"current_range_meters":2000,"station_id":"ce4bhr12rcd13ifvqhpg","pricing_plan_id":"cebpf4jnsgd1na2vs0mg"},{"bike_id":"75d0a17c-d0c5-45e5-9632-3722a87e82d5","system_id":"levelo_inurba_marseille","lat":43.32111,"lon":5.36773,"is_reserved":false,"is_disabled":true,"rental_uris":{"android":"levelo://app?vid=75d0a17c-d0c5-45e5-9632-3722a87e82d5","ios":"levelo://app?vid=75d0a17c-d0c5-45e5-9632-3722a87e82d5"},"vehicle_type_id":"4","last_reported":1751526699,"current_range_meters":2000,"station_id":"ce4bhrh2rcd13ifvqhug","pricing_plan_id":"cebpf4jnsgd1na2vs0mg"},{"bike_id":"b857d25b-5c7b-4aa4-80bd-7573c2b737ef","system_id":"levelo_inurba_marseille","lat":43.30539,"lon":5.38426,"is_reserved":false,"is_disabled":false,"rental_uris":{"android":"levelo://app?vid=b857d25b-5c7b-4aa4-80bd-7573c2b737ef","ios":"levelo://app?vid=b857d25b-5c7b-4aa4-80bd-7573c2b737ef"},"vehicle_type_id":"4","last_reported":1751526699,"current_range_meters":2800,"station_id":"ce4bgg92rcd13ifvqb30","pricing_plan_id":"cebpf4jnsgd1na2vs0mg"},{"bike_id":"02eca79c-04a3-400a-b326-30cac7bdedda","system_id":"levelo_inurba_marseille","lat":43.33024,"lon":5.39037,"is_reserved":false,"is_disabled":false,"rental_uris":{"android":"levelo://app?vid=02eca79c-04a3-400a-b326-30cac7bdedda","ios":"levelo://app?vid=02eca79c-04a3-400a-b326-30cac7bdedda"},"vehicle_type_id":"4","last_reported":1751526699,"current_range_meters":2800,"station_id":"ce4bhr92rcd13ifvqhrg","pricing_plan_id":"cebpf4jnsgd1na2vs0mg"},{"bike_id":"e4c73119-da42-47b4-bcf8-5375554ab6ea","system_id":"levelo_inurba_marseille","lat":43.23193,"lon":5.35559,"is_reserved":false,"is_disabled":false,"rental_uris":{"android":"levelo://app?vid=e4c73119-da42-47b4-bcf8-5375554ab6ea","ios":"levelo://app?vid=e4c73119-da42-47b4-bcf8-5375554ab6ea"},"vehicle_type_id":"4","last_reported":1751526699,"current_range_meters":3200,"station_id":"ce4bhu92rcd13ifvqi70","pricing_plan_id":"cebpf4jnsgd1na2vs0mg"},{"bike_id":"7b6c54fa-9513-4f96-8c39-2e4b6bdc706a","system_id":"levelo_inurba_marseille","lat":43.26228,"lon":5.3744,"is_reserved":false,"is_disabled":false,"rental_uris":{"android":"levelo://app?vid=7b6c54fa-9513-4f96-8c39-2e4b6bdc706a","ios":"levelo://app?vid=7b6c54fa-9513-4f96-8c39-2e4b6bdc706a"},"vehicle_type_id":"4","last_reported":1751526699,"current_range_meters":3600,"station_id":"","pricing_plan_id":"cebpf4jnsgd1na2vs0mg"},{"bike_id":"357f84ef-3a98-44a2-a9aa-5ee58646c420","system_id":"levelo_inurba_marseille","lat":43.30534,"lon":5.36706,"is_reserved":false,"is_disabled":false,"rental_uris":{"android":"levelo://app?vid=357f84ef-3a98-44a2-a9aa-5ee58646c420","ios":"levelo://app?vid=357f84ef-3a98-44a2-a9aa-5ee58646c420"},"vehicle_type_id":"4","last_reported":1751526699,"current_range_meters":3600,"station_id":"ce4bgrp2rcd13ifvqc9g","pricing_plan_id":"cebpf4jnsgd1na2vs0mg"},{"bike_id":"db445cda-b7ba-4b65-bd72-29aab8729fa0","system_id":"levelo_inurba_marseille","lat":43.28268,"lon":5.35069,"is_reserved":false,"is_disabled":false,"rental_uris":{"android":"levelo://app?vid=db445cda-b7ba-4b65-bd72-29aab8729fa0","ios":"levelo://app?vid=db445cda-b7ba-4b65-bd72-29aab8729fa0"},"vehicle_type_id":"4","last_reported":1751526699,"current_range_meters":3600,"station_id":"ce4bhbp2rcd13ifvqerg","pricing_plan_id":"cebpf4jnsgd1na2vs0mg"},{"bike_id":"112700dd-d826-46f1-9002-8748d600a244","system_id":"levelo_inurba_marseille","lat":43.29362,"lon":5.37838,"is_reserved":false,"is_disabled":false,"rental_uris":{"android":"levelo://app?vid=112700dd-d826-46f1-9002-8748d600a244","ios":"levelo://app?vid=112700dd-d826-46f1-9002-8748d600a244"},"vehicle_type_id":"4","last_reported":1751526699,"current_range_meters":4000,"station_id":"ce4bgjh2rcd13ifvqbf0","pricing_plan_id":"cebpf4jnsgd1na2vs0mg"},{"bike_id":"dccccb3e-4d2c-4c22-92bc-5906bbf05f48","system_id":"levelo_inurba_marseille","lat":43.25937,"lon":5.40906,"is_reserved":false,"is_disabled":false,"rental_uris":{"android":"levelo://app?vid=dccccb3e-4d2c-4c22-92bc-5906bbf05f48","ios":"levelo://app?vid=dccccb3e-4d2c-4c22-92bc-5906bbf05f48"},"vehicle_type_id":"4","last_reported":1751526699,"current_range_meters":4000,"station_id":"ce4bhm92rcd13ifvqglg","pricing_plan_id":"cebpf4jnsgd1na2vs0mg"},{"bike_id":"e46d9a19-c9ef-4cbe-a17d-20b19a855119","system_id":"levelo_inurba_marseille","lat":43.24166,"lon":5.36393,"is_reserved":false,"is_disabled":false,"rental_uris":{"android":"levelo://app?vid=e46d9a19-c9ef-4cbe-a17d-20b19a855119","ios":"levelo://app?vid=e46d9a19-c9ef-4cbe-a17d-20b19a855119"},"vehicle_type_id":"4","last_reported":1751526699,"current_range_meters":4000,"station_id":"cpo36qri1sfpv3e86is0","pricing_plan_id":"cebpf4jnsgd1na2vs0mg"},{"bike_id":"ea89177c-1fb8-4dbf-be14-bad2f914aa1a","system_id":"levelo_inurba_marseille","lat":43.29789,"lon":5.38081,"is_reserved":false,"is_disabled":false,"rental_uris":{"android":"levelo://app?vid=ea89177c-1fb8-4dbf-be14-bad2f914aa1a","ios":"levelo://app?vid=ea89177c-1fb8-4dbf-be14-bad2f914aa1a"},"vehicle_type_id":"4","last_reported":1751526699,"current_range_meters":4800,"station_id":"ce4bgip2rcd13ifvqbb0","pricing_plan_id":"cebpf4jnsgd1na2vs0mg"},{"bike_id":"1f6ce902-d1ff-46a3-9260-b3dda8339657","system_id":"levelo_inurba_marseille","lat":43.31234,"lon":5.36845,"is_reserved":false,"is_disabled":false,"rental_uris":{"android":"levelo://app?vid=1f6ce902-d1ff-46a3-9260-b3dda8339657","ios":"levelo://app?vid=1f6ce902-d1ff-46a3-9260-b3dda8339657"},"vehicle_type_id":"4","last_reported":1751526699,"current_range_meters":4800,"station_id":"ce4bgl92rcd13ifvqbq0","pricing_plan_id":"cebpf4jnsgd1na2vs0mg"},{"bike_id":"3171c720-c684-4a95-8c6a-ab128f5d1044","system_id":"levelo_inurba_marseille","lat":43.31358,"lon":5.36715,"is_reserved":false,"is_disabled":false,"rental_uris":{"android":"levelo://app?vid=3171c720-c684-4a95-8c6a-ab128f5d1044","ios":"levelo://app?vid=3171c720-c684-4a95-8c6a-ab128f5d1044"},"vehicle_type_id":"4","last_reported":1751526699,"current_range_meters":4800,"station_id":"ce4bgr92rcd13ifvqc6g","pricing_plan_id":"cebpf4jnsgd1na2vs0mg"},{"bike_id":"a05f8122-8404-4be2-9dae-19f02c8cdd04","system_id":"levelo_inurba_marseille","lat":43.310716,"lon":5.383565,"is_reserved":false,"is_disabled":false,"rental_uris":{"android":"levelo://app?vid=a05f8122-8404-4be2-9dae-19f02c8cdd04","ios":"levelo://app?vid=a05f8122-8404-4be2-9dae-19f02c8cdd04"},"vehicle_type_id":"4","last_reported":1751526699,"current_range_meters":4800,"station_id":"ce4bgv92rcd13ifvqcr0","pricing_plan_id":"cebpf4jnsgd1na2vs0mg"},{"bike_id":"3e6b451a-a154-429d-b193-bf6fb9a3578a","system_id":"levelo_inurba_marseille","lat":43.296064,"lon":5.380829,"is_reserved":false,"is_disabled":false,"rental_uris":{"android":"levelo://app?vid=3e6b451a-a154-429d-b193-bf6fb9a3578a","ios":"levelo://app?vid=3e6b451a-a154-429d-b193-bf6fb9a3578a"},"vehicle_type_id":"4","last_reported":1751526699,"current_range_meters":5600,"station_id":"ce4bgl12rcd13ifvqbo0","pricing_plan_id":"cebpf4jnsgd1na2vs0mg"},{"bike_id":"4e0ceeee-cc6c-4d5b-9838-93c57bc1c3b0","system_id":"levelo_inurba_marseille","lat":43.31223,"lon":5.36891,"is_reserved":false,"is_disabled":false,"rental_uris":{"android":"levelo://app?vid=4e0ceeee-cc6c-4d5b-9838-93c57bc1c3b0","ios":"levelo://app?vid=4e0ceeee-cc6c-4d5b-9838-93c57bc1c3b0"},"vehicle_type_id":"4","last_reported":1751526699,"current_range_meters":5600,"station_id":"ce4bgl92rcd13ifvqbq0","pricing_plan_id":"cebpf4jnsgd1na2vs0mg"},{"bike_id":"4b5a3d63-7a0d-46c6-80b6-35b6a381ae07","system_id":"levelo_inurba_marseille","lat":43.31159,"lon":5.38724,"is_reserved":false,"is_disabled":false,"rental_uris":{"android":"levelo://app?vid=4b5a3d63-7a0d-46c6-80b6-35b6a381ae07","ios":"levelo://app?vid=4b5a3d63-7a0d-46c6-80b6-35b6a381ae07"},"vehicle_type_id":"4","last_reported":1751526699,"current_range_meters":5600,"station_id":"ce4bgv12rcd13ifvqcp0","pricing_plan_id":"cebpf4jnsgd1na2vs0mg"},{"bike_id":"f01bc8f1-adbd-4ce7-b1a0-7a0fa10b7efb","system_id":"levelo_inurba_marseille","lat":43.33044,"lon":5.390557,"is_reserved":false,"is_disabled":false,"rental_uris":{"android":"levelo://app?vid=f01bc8f1-adbd-4ce7-b1a0-7a0fa10b7efb","ios":"levelo://app?vid=f01bc8f1-adbd-4ce7-b1a0-7a0fa10b7efb"},"vehicle_type_id":"4","last_reported":1751526699,"current_range_meters":5600,"station_id":"ce4bhr92rcd13ifvqhrg","pricing_plan_id":"cebpf4jnsgd1na2vs0mg"},{"bike_id":"cf118203-dfba-4a72-8f47-668c562e2473","system_id":"levelo_inurba_marseille","lat":43.3135,"lon":5.3671,"is_reserved":false,"is_disabled":false,"rental_uris":{"android":"levelo://app?vid=cf118203-dfba-4a72-8f47-668c562e2473","ios":"levelo://app?vid=cf118203-dfba-4a72-8f47-668c562e2473"},"vehicle_type_id":"4","last_reported":1751526699,"current_range_meters":6000,"station_id":"ce4bgr92rcd13ifvqc6g","pricing_plan_id":"cebpf4jnsgd1na2vs0mg"},{"bike_id":"196be67c-08a0-41d5-8471-375cf3c84ccc","system_id":"levelo_inurba_marseille","lat":43.3136,"lon":5.36712,"is_reserved":false,"is_disabled":false,"rental_uris":{"android":"levelo://app?vid=196be67c-08a0-41d5-8471-375cf3c84ccc","ios":"levelo://app?vid=196be67c-08a0-41d5-8471-375cf3c84ccc"},"vehicle_type_id":"4","last_reported":1751526699,"current_range_meters":6000,"station_id":"ce4bgr92rcd13ifvqc6g","pricing_plan_id":"cebpf4jnsgd1na2vs0mg"},{"bike_id":"9610e57b-e24c-4c16-838c-092b893b30dc","system_id":"levelo_inurba_marseille","lat":43.21756,"lon":5.34612,"is_reserved":false,"is_disabled":false,"rental_uris":{"android":"levelo://app?vid=9610e57b-e24c-4c16-838c-092b893b30dc","ios":"levelo://app?vid=9610e57b-e24c-4c16-838c-092b893b30dc"},"vehicle_type_id":"4","last_reported":1751526699,"current_range_meters":6000,"station_id":"st_cvj6r9ubvosntc0bgbag","pricing_plan_id":"cebpf4jnsgd1na2vs0mg"},{"bike_id":"8becf1b9-b72c-4763-a062-bbd587ae45bf","system_id":"levelo_inurba_marseille","lat":43.32621,"lon":5.42547,"is_reserved":false,"is_disabled":false,"rental_uris":{"android":"levelo://app?vid=8becf1b9-b72c-4763-a062-bbd587ae45bf","ios":"levelo://app?vid=8becf1b9-b72c-4763-a062-bbd587ae45bf"},"vehicle_type_id":"4","last_reported":1751526699,"current_range_meters":6400,"station_id":"","pricing_plan_id":"cebpf4jnsgd1na2vs0mg"},{"bike_id":"67eac50a-b8f2-4996-9685-42cf162dfccf","system_id":"levelo_inurba_marseille","lat":43.23193,"lon":5.40013,"is_reserved":false,"is_disabled":false,"rental_uris":{"android":"levelo://app?vid=67eac50a-b8f2-4996-9685-42cf162dfccf","ios":"levelo://app?vid=67eac50a-b8f2-4996-9685-42cf162dfccf"},"vehicle_type_id":"4","last_reported":1751526699,"current_range_meters":6400,"station_id":"ce4bhn12rcd13ifvqgqg","pricing_plan_id":"cebpf4jnsgd1na2vs0mg"},{"bike_id":"fb6d56c1-1a5b-4621-966b-146b174fc47b","system_id":"levelo_inurba_marseille","lat":43.304237,"lon":5.41283,"is_reserved":false,"is_disabled":false,"rental_uris":{"android":"levelo://app?vid=fb6d56c1-1a5b-4621-966b-146b174fc47b","ios":"levelo://app?vid=fb6d56c1-1a5b-4621-966b-146b174fc47b"},"vehicle_type_id":"4","last_reported":1751526699,"current_range_meters":6400,"station_id":"ce4bhop2rcd13ifvqh8g","pricing_plan_id":"cebpf4jnsgd1na2vs0mg"},{"bike_id":"cba5b54b-79c5-4b17-abe0-2f4e94c57b41","system_id":"levelo_inurba_marseille","lat":43.28069,"lon":5.34772,"is_reserved":false,"is_disabled":false,"rental_uris":{"android":"levelo://app?vid=cba5b54b-79c5-4b17-abe0-2f4e94c57b41","ios":"levelo://app?vid=cba5b54b-79c5-4b17-abe0-2f4e94c57b41"},"vehicle_type_id":"4","last_reported":1751526699,"current_range_meters":6800,"station_id":"","pricing_plan_id":"cebpf4jnsgd1na2vs0mg"},{"bike_id":"71a8e3a0-105e-4516-b682-7162963496b5","system_id":"levelo_inurba_marseille","lat":43.32476,"lon":5.36571,"is_reserved":false,"is_disabled":false,"rental_uris":{"android":"levelo://app?vid=71a8e3a0-105e-4516-b682-7162963496b5","ios":"levelo://app?vid=71a8e3a0-105e-4516-b682-7162963496b5"},"vehicle_type_id":"4","last_reported":1751526699,"current_range_meters":6800,"station_id":"ce4bhs12rcd13ifvqhvg","pricing_plan_id":"cebpf4jnsgd1na2vs0mg"},{"bike_id":"88f0d88a-1dec-4977-a19a-71293da7fba4","system_id":"levelo_inurba_marseille","lat":43.32345,"lon":5.36726,"is_reserved":false,"is_disabled":false,"rental_uris":{"android":"levelo://app?vid=88f0d88a-1dec-4977-a19a-71293da7fba4","ios":"levelo://app?vid=88f0d88a-1dec-4977-a19a-71293da7fba4"},"vehicle_type_id":"4","last_reported":1751526699,"current_range_meters":7200,"station_id":"ce4bhsh2rcd13ifvqi2g","pricing_plan_id":"cebpf4jnsgd1na2vs0mg"},{"bike_id":"3fbceb20-d877-411e-a90d-f13a05e02fc6","system_id":"levelo_inurba_marseille","lat":43.30342,"lon":5.37927,"is_reserved":false,"is_disabled":false,"rental_uris":{"android":"levelo://app?vid=3fbceb20-d877-411e-a90d-f13a05e02fc6","ios":"levelo://app?vid=3fbceb20-d877-411e-a90d-f13a05e02fc6"},"vehicle_type_id":"4","last_reported":1751526699,"current_range_meters":8000,"station_id":"","pricing_plan_id":"cebpf4jnsgd1na2vs0mg"},{"bike_id":"75dd0bf9-db35-4082-a082-cead67ece129","system_id":"levelo_inurba_marseille","lat":43.28444,"lon":5.39208,"is_reserved":false,"is_disabled":false,"rental_uris":{"android":"levelo://app?vid=75dd0bf9-db35-4082-a082-cead67ece129","ios":"levelo://app?vid=75dd0bf9-db35-4082-a082-cead67ece129"},"vehicle_type_id":"4","last_reported":1751526699,"current_range_meters":8000,"station_id":"ce4bhoh2rcd13ifvqh5g","pricing_plan_id":"cebpf4jnsgd1na2vs0mg"},{"bike_id":"ca97ac62-9c40-446d-9859-35893eee5d5d","system_id":"levelo_inurba_marseille","lat":43.33608,"lon":5.41032,"is_reserved":false,"is_disabled":false,"rental_uris":{"android":"levelo://app?vid=ca97ac62-9c40-446d-9859-35893eee5d5d","ios":"levelo://app?vid=ca97ac62-9c40-446d-9859-35893eee5d5d"},"vehicle_type_id":"4","last_reported":1751526699,"current_range_meters":8000,"station_id":"ce4bhqh2rcd13ifvqhmg","pricing_plan_id":"cebpf4jnsgd1na2vs0mg"},{"bike_id":"bebae45e-84ae-460e-b0ae-ec2e34adfe83","system_id":"levelo_inurba_marseille","lat":43.32478,"lon":5.36564,"is_reserved":false,"is_disabled":false,"rental_uris":{"android":"levelo://app?vid=bebae45e-84ae-460e-b0ae-ec2e34adfe83","ios":"levelo://app?vid=bebae45e-84ae-460e-b0ae-ec2e34adfe83"},"vehicle_type_id":"4","last_reported":1751526699,"current_range_meters":8000,"station_id":"ce4bhs12rcd13ifvqhvg","pricing_plan_id":"cebpf4jnsgd1na2vs0mg"},{"bike_id":"2b74ab37-c4a3-43ff-b433-ed49c6230ed9","system_id":"levelo_inurba_marseille","lat":43.30583,"lon":5.36706,"is_reserved":false,"is_disabled":false,"rental_uris":{"android":"levelo://app?vid=2b74ab37-c4a3-43ff-b433-ed49c6230ed9","ios":"levelo://app?vid=2b74ab37-c4a3-43ff-b433-ed49c6230ed9"},"vehicle_type_id":"4","last_reported":1751526699,"current_range_meters":8400,"station_id":"","pricing_plan_id":"cebpf4jnsgd1na2vs0mg"},{"bike_id":"23bf0f22-f8e1-4a60-a9fb-fbff9c1421bf","system_id":"levelo_inurba_marseille","lat":43.26689,"lon":5.38282,"is_reserved":false,"is_disabled":false,"rental_uris":{"android":"levelo://app?vid=23bf0f22-f8e1-4a60-a9fb-fbff9c1421bf","ios":"levelo://app?vid=23bf0f22-f8e1-4a60-a9fb-fbff9c1421bf"},"vehicle_type_id":"4","last_reported":1751526699,"current_range_meters":8400,"station_id":"ce4bhg92rcd13ifvqf90","pricing_plan_id":"cebpf4jnsgd1na2vs0mg"},{"bike_id":"9dd19cef-2068-44d7-b56c-b27ca151e9a6","system_id":"levelo_inurba_marseille","lat":43.2415,"lon":5.3973,"is_reserved":false,"is_disabled":false,"rental_uris":{"android":"levelo://app?vid=9dd19cef-2068-44d7-b56c-b27ca151e9a6","ios":"levelo://app?vid=9dd19cef-2068-44d7-b56c-b27ca151e9a6"},"vehicle_type_id":"4","last_reported":1751526699,"current_range_meters":8400,"station_id":"ce4bhn12rcd13ifvqgpg","pricing_plan_id":"cebpf4jnsgd1na2vs0mg"},{"bike_id":"56202d73-6c3a-42ab-b202-983682520d27","system_id":"levelo_inurba_marseille","lat":43.295537,"lon":5.422767,"is_reserved":false,"is_disabled":false,"rental_uris":{"android":"levelo://app?vid=56202d73-6c3a-42ab-b202-983682520d27","ios":"levelo://app?vid=56202d73-6c3a-42ab-b202-983682520d27"},"vehicle_type_id":"4","last_reported":1751526699,"current_range_meters":8400,"station_id":"ce4bhph2rcd13ifvqhdg","pricing_plan_id":"cebpf4jnsgd1na2vs0mg"},{"bike_id":"99c01276-33a5-45a7-b325-33368be4a458","system_id":"levelo_inurba_marseille","lat":43.31223,"lon":5.36872,"is_reserved":false,"is_disabled":false,"rental_uris":{"android":"levelo://app?vid=99c01276-33a5-45a7-b325-33368be4a458","ios":"levelo://app?vid=99c01276-33a5-45a7-b325-33368be4a458"},"vehicle_type_id":"4","last_reported":1751526699,"current_range_meters":8800,"station_id":"ce4bgl92rcd13ifvqbq0","pricing_plan_id":"cebpf4jnsgd1na2vs0mg"},{"bike_id":"ade2dfa0-7b12-4ade-b198-400f1b7d23ab","system_id":"levelo_inurba_marseille","lat":43.29039,"lon":5.39978,"is_reserved":false,"is_disabled":false,"rental_uris":{"android":"levelo://app?vid=ade2dfa0-7b12-4ade-b198-400f1b7d23ab","ios":"levelo://app?vid=ade2dfa0-7b12-4ade-b198-400f1b7d23ab"},"vehicle_type_id":"4","last_reported":1751526699,"current_range_meters":8800,"station_id":"ce4bh392rcd13ifvqdm0","pricing_plan_id":"cebpf4jnsgd1na2vs0mg"},{"bike_id":"9a691d36-9925-4b95-92bf-16c7ba5163b7","system_id":"levelo_inurba_marseille","lat":43.290019,"lon":5.356088,"is_reserved":false,"is_disabled":false,"rental_uris":{"android":"levelo://app?vid=9a691d36-9925-4b95-92bf-16c7ba5163b7","ios":"levelo://app?vid=9a691d36-9925-4b95-92bf-16c7ba5163b7"},"vehicle_type_id":"4","last_reported":1751526699,"current_range_meters":8800,"station_id":"ce4bhb92rcd13ifvqen0","pricing_plan_id":"cebpf4jnsgd1na2vs0mg"},{"bike_id":"8510c4ce-f651-4afc-af3f-205cd74d89fd","system_id":"levelo_inurba_marseille","lat":43.25824,"lon":5.39438,"is_reserved":false,"is_disabled":false,"rental_uris":{"android":"levelo://app?vid=8510c4ce-f651-4afc-af3f-205cd74d89fd","ios":"levelo://app?vid=8510c4ce-f651-4afc-af3f-205cd74d89fd"},"vehicle_type_id":"4","last_reported":1751526699,"current_range_meters":8800,"station_id":"ce4bhip2rcd13ifvqft0","pricing_plan_id":"cebpf4jnsgd1na2vs0mg"},{"bike_id":"7f136af0-850e-4211-969d-f558f213f531","system_id":"levelo_inurba_marseille","lat":43.2872,"lon":5.39996,"is_reserved":false,"is_disabled":false,"rental_uris":{"android":"levelo://app?vid=7f136af0-850e-4211-969d-f558f213f531","ios":"levelo://app?vid=7f136af0-850e-4211-969d-f558f213f531"},"vehicle_type_id":"4","last_reported":1751526699,"current_range_meters":8800,"station_id":"ce4bho92rcd13ifvqh3g","pricing_plan_id":"cebpf4jnsgd1na2vs0mg"},{"bike_id":"a62a0ef6-babe-44d3-9278-a9bccd58a7db","system_id":"levelo_inurba_marseille","lat":43.29574,"lon":5.42256,"is_reserved":false,"is_disabled":false,"rental_uris":{"android":"levelo://app?vid=a62a0ef6-babe-44d3-9278-a9bccd58a7db","ios":"levelo://app?vid=a62a0ef6-babe-44d3-9278-a9bccd58a7db"},"vehicle_type_id":"4","last_reported":1751526699,"current_range_meters":8800,"station_id":"ce4bhph2rcd13ifvqhdg","pricing_plan_id":"cebpf4jnsgd1na2vs0mg"},{"bike_id":"edd0dadd-87f4-4c2e-bcb9-48eff12407b8","system_id":"levelo_inurba_marseille","lat":43.32474,"lon":5.36585,"is_reserved":false,"is_disabled":false,"rental_uris":{"android":"levelo://app?vid=edd0dadd-87f4-4c2e-bcb9-48eff12407b8","ios":"levelo://app?vid=edd0dadd-87f4-4c2e-bcb9-48eff12407b8"},"vehicle_type_id":"4","last_reported":1751526699,"current_range_meters":8800,"station_id":"ce4bhs12rcd13ifvqhvg","pricing_plan_id":"cebpf4jnsgd1na2vs0mg"},{"bike_id":"8ad00ccc-3ccb-493b-a2b4-49cd4dd94c33","system_id":"levelo_inurba_marseille","lat":43.21758,"lon":5.34587,"is_reserved":false,"is_disabled":false,"rental_uris":{"android":"levelo://app?vid=8ad00ccc-3ccb-493b-a2b4-49cd4dd94c33","ios":"levelo://app?vid=8ad00ccc-3ccb-493b-a2b4-49cd4dd94c33"},"vehicle_type_id":"4","last_reported":1751526699,"current_range_meters":8800,"station_id":"st_cvj6r9ubvosntc0bgbag","pricing_plan_id":"cebpf4jnsgd1na2vs0mg"},{"bike_id":"eb6f172f-68c2-4fbc-b984-276818caa76a","system_id":"levelo_inurba_marseille","lat":43.293226,"lon":5.439024,"is_reserved":false,"is_disabled":false,"rental_uris":{"android":"levelo://app?vid=eb6f172f-68c2-4fbc-b984-276818caa76a","ios":"levelo://app?vid=eb6f172f-68c2-4fbc-b984-276818caa76a"},"vehicle_type_id":"4","last_reported":1751526699,"current_range_meters":9200,"station_id":"","pricing_plan_id":"cebpf4jnsgd1na2vs0mg"},{"bike_id":"f03e6590-07d6-4c5d-b956-c0a063641957","system_id":"levelo_inurba_marseille","lat":43.28998,"lon":5.40101,"is_reserved":false,"is_disabled":false,"rental_uris":{"android":"levelo://app?vid=f03e6590-07d6-4c5d-b956-c0a063641957","ios":"levelo://app?vid=f03e6590-07d6-4c5d-b956-c0a063641957"},"vehicle_type_id":"4","last_reported":1751526699,"current_range_meters":9200,"station_id":"","pricing_plan_id":"cebpf4jnsgd1na2vs0mg"},{"bike_id":"211947ea-c317-430d-abf9-115b7f7da0dc","system_id":"levelo_inurba_marseille","lat":43.30264,"lon":5.37707,"is_reserved":false,"is_disabled":false,"rental_uris":{"android":"levelo://app?vid=211947ea-c317-430d-abf9-115b7f7da0dc","ios":"levelo://app?vid=211947ea-c317-430d-abf9-115b7f7da0dc"},"vehicle_type_id":"4","last_reported":1751526699,"current_range_meters":9200,"station_id":"ce4bguh2rcd13ifvqcj0","pricing_plan_id":"cebpf4jnsgd1na2vs0mg"},{"bike_id":"ba524998-16ed-4684-bb8f-3ef642874cbf","system_id":"levelo_inurba_marseille","lat":43.30476,"lon":5.37921,"is_reserved":false,"is_disabled":false,"rental_uris":{"android":"levelo://app?vid=ba524998-16ed-4684-bb8f-3ef642874cbf","ios":"levelo://app?vid=ba524998-16ed-4684-bb8f-3ef642874cbf"},"vehicle_type_id":"4","last_reported":1751526699,"current_range_meters":9200,"station_id":"ce4bgup2rcd13ifvqcn0","pricing_plan_id":"cebpf4jnsgd1na2vs0mg"},{"bike_id":"506ccada-1d06-4e71-a897-62b69fcf8970","system_id":"levelo_inurba_marseille","lat":43.30472,"lon":5.37909,"is_reserved":false,"is_disabled":false,"rental_uris":{"android":"levelo://app?vid=506ccada-1d06-4e71-a897-62b69fcf8970","ios":"levelo://app?vid=506ccada-1d06-4e71-a897-62b69fcf8970"},"vehicle_type_id":"4","last_reported":1751526699,"current_range_meters":9200,"station_id":"ce4bgup2rcd13ifvqcn0","pricing_plan_id":"cebpf4jnsgd1na2vs0mg"},{"bike_id":"d8435e90-b498-4fa7-b100-a9f087558195","system_id":"levelo_inurba_marseille","lat":43.291,"lon":5.3812,"is_reserved":false,"is_disabled":false,"rental_uris":{"android":"levelo://app?vid=d8435e90-b498-4fa7-b100-a9f087558195","ios":"levelo://app?vid=d8435e90-b498-4fa7-b100-a9f087558195"},"vehicle_type_id":"4","last_reported":1751526699,"current_range_meters":9200,"station_id":"ce4bh512rcd13ifvqe2g","pricing_plan_id":"cebpf4jnsgd1na2vs0mg"},{"bike_id":"d1e83e19-43a3-4e18-adbe-ced724ee2807","system_id":"levelo_inurba_marseille","lat":43.33606,"lon":5.41028,"is_reserved":false,"is_disabled":false,"rental_uris":{"android":"levelo://app?vid=d1e83e19-43a3-4e18-adbe-ced724ee2807","ios":"levelo://app?vid=d1e83e19-43a3-4e18-adbe-ced724ee2807"},"vehicle_type_id":"4","last_reported":1751526699,"current_range_meters":9200,"station_id":"ce4bhqh2rcd13ifvqhmg","pricing_plan_id":"cebpf4jnsgd1na2vs0mg"},{"bike_id":"5853748e-5d71-4325-a917-ea83463f8a5b","system_id":"levelo_inurba_marseille","lat":43.30131,"lon":5.3742,"is_reserved":false,"is_disabled":false,"rental_uris":{"android":"levelo://app?vid=5853748e-5d71-4325-a917-ea83463f8a5b","ios":"levelo://app?vid=5853748e-5d71-4325-a917-ea83463f8a5b"},"vehicle_type_id":"4","last_reported":1751526699,"current_range_meters":9600,"station_id":"ce4bgs92rcd13ifvqcc0","pricing_plan_id":"cebpf4jnsgd1na2vs0mg"},{"bike_id":"cd342e61-31c5-4e53-9265-04131dafd3e7","system_id":"levelo_inurba_marseille","lat":43.24182,"lon":5.39713,"is_reserved":false,"is_disabled":false,"rental_uris":{"android":"levelo://app?vid=cd342e61-31c5-4e53-9265-04131dafd3e7","ios":"levelo://app?vid=cd342e61-31c5-4e53-9265-04131dafd3e7"},"vehicle_type_id":"4","last_reported":1751526699,"current_range_meters":9600,"station_id":"ce4bhn12rcd13ifvqgpg","pricing_plan_id":"cebpf4jnsgd1na2vs0mg"},{"bike_id":"9d06beda-1bc5-4b5e-a97e-4c40320ce321","system_id":"levelo_inurba_marseille","lat":43.33618,"lon":5.41016,"is_reserved":false,"is_disabled":false,"rental_uris":{"android":"levelo://app?vid=9d06beda-1bc5-4b5e-a97e-4c40320ce321","ios":"levelo://app?vid=9d06beda-1bc5-4b5e-a97e-4c40320ce321"},"vehicle_type_id":"4","last_reported":1751526699,"current_range_meters":9600,"station_id":"ce4bhqh2rcd13ifvqhmg","pricing_plan_id":"cebpf4jnsgd1na2vs0mg"},{"bike_id":"b28aa0a0-791c-4a08-9a16-c7bf6ea0ed5a","system_id":"levelo_inurba_marseille","lat":43.22502,"lon":5.34776,"is_reserved":false,"is_disabled":false,"rental_uris":{"android":"levelo://app?vid=b28aa0a0-791c-4a08-9a16-c7bf6ea0ed5a","ios":"levelo://app?vid=b28aa0a0-791c-4a08-9a16-c7bf6ea0ed5a"},"vehicle_type_id":"4","last_reported":1751526699,"current_range_meters":9600,"station_id":"st_cvj5dfep6f1abm77gieg","pricing_plan_id":"cebpf4jnsgd1na2vs0mg"},{"bike_id":"d747e402-022e-4034-85df-4dd8bda8fba0","system_id":"levelo_inurba_marseille","lat":43.26778,"lon":5.3942,"is_reserved":false,"is_disabled":false,"rental_uris":{"android":"levelo://app?vid=d747e402-022e-4034-85df-4dd8bda8fba0","ios":"levelo://app?vid=d747e402-022e-4034-85df-4dd8bda8fba0"},"vehicle_type_id":"4","last_reported":1751526699,"current_range_meters":10000,"station_id":"ce4bhh12rcd13ifvqfg0","pricing_plan_id":"cebpf4jnsgd1na2vs0mg"},{"bike_id":"ae698825-2b59-4495-8ad5-6cc2b8bb90e6","system_id":"levelo_inurba_marseille","lat":43.27184,"lon":5.40983,"is_reserved":false,"is_disabled":false,"rental_uris":{"android":"levelo://app?vid=ae698825-2b59-4495-8ad5-6cc2b8bb90e6","ios":"levelo://app?vid=ae698825-2b59-4495-8ad5-6cc2b8bb90e6"},"vehicle_type_id":"4","last_reported":1751526699,"current_range_meters":10000,"station_id":"ce4bhl12rcd13ifvqgf0","pricing_plan_id":"cebpf4jnsgd1na2vs0mg"},{"bike_id":"7204e01e-85a1-4d6f-bcaa-0095368ffbb8","system_id":"levelo_inurba_marseille","lat":43.24178,"lon":5.39729,"is_reserved":false,"is_disabled":false,"rental_uris":{"android":"levelo://app?vid=7204e01e-85a1-4d6f-bcaa-0095368ffbb8","ios":"levelo://app?vid=7204e01e-85a1-4d6f-bcaa-0095368ffbb8"},"vehicle_type_id":"4","last_reported":1751526699,"current_range_meters":10000,"station_id":"ce4bhn12rcd13ifvqgpg","pricing_plan_id":"cebpf4jnsgd1na2vs0mg"},{"bike_id":"89494d6e-e11a-438f-8875-5fc51e937fc2","system_id":"levelo_inurba_marseille","lat":43.30369,"lon":5.418817,"is_reserved":false,"is_disabled":false,"rental_uris":{"android":"levelo://app?vid=89494d6e-e11a-438f-8875-5fc51e937fc2","ios":"levelo://app?vid=89494d6e-e11a-438f-8875-5fc51e937fc2"},"vehicle_type_id":"4","last_reported":1751526699,"current_range_meters":10000,"station_id":"ce4bhop2rcd13ifvqh7g","pricing_plan_id":"cebpf4jnsgd1na2vs0mg"},{"bike_id":"f5469626-344e-4334-9049-486e9f34a090","system_id":"levelo_inurba_marseille","lat":43.32108,"lon":5.36812,"is_reserved":false,"is_disabled":false,"rental_uris":{"android":"levelo://app?vid=f5469626-344e-4334-9049-486e9f34a090","ios":"levelo://app?vid=f5469626-344e-4334-9049-486e9f34a090"},"vehicle_type_id":"4","last_reported":1751526699,"current_range_meters":10000,"station_id":"ce4bhrh2rcd13ifvqhug","pricing_plan_id":"cebpf4jnsgd1na2vs0mg"},{"bike_id":"f189ccfe-0801-4cb8-826f-747e5958a962","system_id":"levelo_inurba_marseille","lat":43.28842,"lon":5.39394,"is_reserved":false,"is_disabled":false,"rental_uris":{"android":"levelo://app?vid=f189ccfe-0801-4cb8-826f-747e5958a962","ios":"levelo://app?vid=f189ccfe-0801-4cb8-826f-747e5958a962"},"vehicle_type_id":"4","last_reported":1751526699,"current_range_meters":10800,"station_id":"","pricing_plan_id":"cebpf4jnsgd1na2vs0mg"},{"bike_id":"7e62b058-a7ed-4634-80f1-04d3de596de7","system_id":"levelo_inurba_marseille","lat":43.298478,"lon":5.368125,"is_reserved":false,"is_disabled":false,"rental_uris":{"android":"levelo://app?vid=7e62b058-a7ed-4634-80f1-04d3de596de7","ios":"levelo://app?vid=7e62b058-a7ed-4634-80f1-04d3de596de7"},"vehicle_type_id":"4","last_reported":1751526699,"current_range_meters":10800,"station_id":"","pricing_plan_id":"cebpf4jnsgd1na2vs0mg"},{"bike_id":"bf00a211-3496-4df0-8e4e-99767047ca09","system_id":"levelo_inurba_marseille","lat":43.2996,"lon":5.37609,"is_reserved":false,"is_disabled":false,"rental_uris":{"android":"levelo://app?vid=bf00a211-3496-4df0-8e4e-99767047ca09","ios":"levelo://app?vid=bf00a211-3496-4df0-8e4e-99767047ca09"},"vehicle_type_id":"4","last_reported":1751526699,"current_range_meters":10800,"station_id":"","pricing_plan_id":"cebpf4jnsgd1na2vs0mg"},{"bike_id":"e26ba497-efc7-4420-b8c5-9fa5e27f2ce4","system_id":"levelo_inurba_marseille","lat":43.313541,"lon":5.370614,"is_reserved":false,"is_disabled":false,"rental_uris":{"android":"levelo://app?vid=e26ba497-efc7-4420-b8c5-9fa5e27f2ce4","ios":"levelo://app?vid=e26ba497-efc7-4420-b8c5-9fa5e27f2ce4"},"vehicle_type_id":"4","last_reported":1751526699,"current_range_meters":10800,"station_id":"","pricing_plan_id":"cebpf4jnsgd1na2vs0mg"},{"bike_id":"55a705ab-4f00-4efd-8900-7dada69a5474","system_id":"levelo_inurba_marseille","lat":43.30901,"lon":5.37195,"is_reserved":false,"is_disabled":false,"rental_uris":{"android":"levelo://app?vid=55a705ab-4f00-4efd-8900-7dada69a5474","ios":"levelo://app?vid=55a705ab-4f00-4efd-8900-7dada69a5474"},"vehicle_type_id":"4","last_reported":1751526699,"current_range_meters":10800,"station_id":"ce4bguh2rcd13ifvqckg","pricing_plan_id":"cebpf4jnsgd1na2vs0mg"},{"bike_id":"9b95cd64-909b-4116-aa7b-fde3d46b8bec","system_id":"levelo_inurba_marseille","lat":43.28567,"lon":5.3951,"is_reserved":false,"is_disabled":false,"rental_uris":{"android":"levelo://app?vid=9b95cd64-909b-4116-aa7b-fde3d46b8bec","ios":"levelo://app?vid=9b95cd64-909b-4116-aa7b-fde3d46b8bec"},"vehicle_type_id":"4","last_reported":1751526699,"current_range_meters":10800,"station_id":"ce4bh292rcd13ifvqdg0","pricing_plan_id":"cebpf4jnsgd1na2vs0mg"},{"bike_id":"c1649e96-a599-4f95-91f3-8a7c8ac2b7c0","system_id":"levelo_inurba_marseille","lat":43.28864,"lon":5.39325,"is_reserved":false,"is_disabled":false,"rental_uris":{"android":"levelo://app?vid=c1649e96-a599-4f95-91f3-8a7c8ac2b7c0","ios":"levelo://app?vid=c1649e96-a599-4f95-91f3-8a7c8ac2b7c0"},"vehicle_type_id":"4","last_reported":1751526699,"current_range_meters":10800,"station_id":"ce4bh2p2rcd13ifvqdi0","pricing_plan_id":"cebpf4jnsgd1na2vs0mg"},{"bike_id":"9a5bbf73-3963-4c1f-a454-7d01e19a7b6d","system_id":"levelo_inurba_marseille","lat":43.26556,"lon":5.37282,"is_reserved":false,"is_disabled":false,"rental_uris":{"android":"levelo://app?vid=9a5bbf73-3963-4c1f-a454-7d01e19a7b6d","ios":"levelo://app?vid=9a5bbf73-3963-4c1f-a454-7d01e19a7b6d"},"vehicle_type_id":"4","last_reported":1751526699,"current_range_meters":10800,"station_id":"ce4bhg12rcd13ifvqf70","pricing_plan_id":"cebpf4jnsgd1na2vs0mg"},{"bike_id":"eaa485c4-bb2b-4582-bb0f-b39d46e1fcf2","system_id":"levelo_inurba_marseille","lat":43.275181,"lon":5.389788,"is_reserved":false,"is_disabled":false,"rental_uris":{"android":"levelo://app?vid=eaa485c4-bb2b-4582-bb0f-b39d46e1fcf2","ios":"levelo://app?vid=eaa485c4-bb2b-4582-bb0f-b39d46e1fcf2"},"vehicle_type_id":"4","last_reported":1751526699,"current_range_meters":10800,"station_id":"ce4bhgp2rcd13ifvqfe0","pricing_plan_id":"cebpf4jnsgd1na2vs0mg"},{"bike_id":"d3268d03-ea09-4d4e-ab6a-3da2123646d5","system_id":"levelo_inurba_marseille","lat":43.2784,"lon":5.39208,"is_reserved":false,"is_disabled":false,"rental_uris":{"android":"levelo://app?vid=d3268d03-ea09-4d4e-ab6a-3da2123646d5","ios":"levelo://app?vid=d3268d03-ea09-4d4e-ab6a-3da2123646d5"},"vehicle_type_id":"4","last_reported":1751526699,"current_range_meters":10800,"station_id":"ce4bhjp2rcd13ifvqga0","pricing_plan_id":"cebpf4jnsgd1na2vs0mg"},{"bike_id":"f9740d17-7b8b-428a-8ab9-181c58c513b7","system_id":"levelo_inurba_marseille","lat":43.2593,"lon":5.40888,"is_reserved":false,"is_disabled":false,"rental_uris":{"android":"levelo://app?vid=f9740d17-7b8b-428a-8ab9-181c58c513b7","ios":"levelo://app?vid=f9740d17-7b8b-428a-8ab9-181c58c513b7"},"vehicle_type_id":"4","last_reported":1751526699,"current_range_meters":10800,"station_id":"ce4bhm92rcd13ifvqglg","pricing_plan_id":"cebpf4jnsgd1na2vs0mg"},{"bike_id":"22c65f34-5b9a-4ce8-b3b0-5a1a52b259a2","system_id":"levelo_inurba_marseille","lat":43.29708,"lon":5.40206,"is_reserved":false,"is_disabled":false,"rental_uris":{"android":"levelo://app?vid=22c65f34-5b9a-4ce8-b3b0-5a1a52b259a2","ios":"levelo://app?vid=22c65f34-5b9a-4ce8-b3b0-5a1a52b259a2"},"vehicle_type_id":"4","last_reported":1751526699,"current_range_meters":11200,"station_id":"","pricing_plan_id":"cebpf4jnsgd1na2vs0mg"},{"bike_id":"9a7d342a-ff8e-46c4-af1e-6e0519bd67dc","system_id":"levelo_inurba_marseille","lat":43.291433,"lon":5.355899,"is_reserved":false,"is_disabled":false,"rental_uris":{"android":"levelo://app?vid=9a7d342a-ff8e-46c4-af1e-6e0519bd67dc","ios":"levelo://app?vid=9a7d342a-ff8e-46c4-af1e-6e0519bd67dc"},"vehicle_type_id":"4","last_reported":1751526699,"current_range_meters":11200,"station_id":"","pricing_plan_id":"cebpf4jnsgd1na2vs0mg"},{"bike_id":"c8a9925e-2d13-4600-a9fa-0b1ee6b6f27d","system_id":"levelo_inurba_marseille","lat":43.29585,"lon":5.40654,"is_reserved":false,"is_disabled":false,"rental_uris":{"android":"levelo://app?vid=c8a9925e-2d13-4600-a9fa-0b1ee6b6f27d","ios":"levelo://app?vid=c8a9925e-2d13-4600-a9fa-0b1ee6b6f27d"},"vehicle_type_id":"4","last_reported":1751526699,"current_range_meters":11200,"station_id":"","pricing_plan_id":"cebpf4jnsgd1na2vs0mg"},{"bike_id":"19976639-0f5e-4d24-86d2-b7e81e4cafc6","system_id":"levelo_inurba_marseille","lat":43.30323,"lon":5.36899,"is_reserved":false,"is_disabled":false,"rental_uris":{"android":"levelo://app?vid=19976639-0f5e-4d24-86d2-b7e81e4cafc6","ios":"levelo://app?vid=19976639-0f5e-4d24-86d2-b7e81e4cafc6"},"vehicle_type_id":"4","last_reported":1751526699,"current_range_meters":11200,"station_id":"ce4bgqh2rcd13ifvqc5g","pricing_plan_id":"cebpf4jnsgd1na2vs0mg"},{"bike_id":"b0faac35-5dc1-4b8d-84ad-28ca0243fc0a","system_id":"levelo_inurba_marseille","lat":43.30134,"lon":5.37437,"is_reserved":false,"is_disabled":false,"rental_uris":{"android":"levelo://app?vid=b0faac35-5dc1-4b8d-84ad-28ca0243fc0a","ios":"levelo://app?vid=b0faac35-5dc1-4b8d-84ad-28ca0243fc0a"},"vehicle_type_id":"4","last_reported":1751526699,"current_range_meters":11200,"station_id":"ce4bgs92rcd13ifvqcc0","pricing_plan_id":"cebpf4jnsgd1na2vs0mg"},{"bike_id":"b2d1530c-08f2-4c10-bb68-7e299b9ddae1","system_id":"levelo_inurba_marseille","lat":43.26203,"lon":5.37905,"is_reserved":false,"is_disabled":false,"rental_uris":{"android":"levelo://app?vid=b2d1530c-08f2-4c10-bb68-7e299b9ddae1","ios":"levelo://app?vid=b2d1530c-08f2-4c10-bb68-7e299b9ddae1"},"vehicle_type_id":"4","last_reported":1751526699,"current_range_meters":11200,"station_id":"ce4bhjp2rcd13ifvqg90","pricing_plan_id":"cebpf4jnsgd1na2vs0mg"},{"bike_id":"683054c3-91b0-4749-8c96-8a8ff46f1167","system_id":"levelo_inurba_marseille","lat":43.25936,"lon":5.40896,"is_reserved":false,"is_disabled":false,"rental_uris":{"android":"levelo://app?vid=683054c3-91b0-4749-8c96-8a8ff46f1167","ios":"levelo://app?vid=683054c3-91b0-4749-8c96-8a8ff46f1167"},"vehicle_type_id":"4","last_reported":1751526699,"current_range_meters":11200,"station_id":"ce4bhm92rcd13ifvqglg","pricing_plan_id":"cebpf4jnsgd1na2vs0mg"},{"bike_id":"29bfe1bc-6d53-4179-b02d-8f481ecfea72","system_id":"levelo_inurba_marseille","lat":43.24177,"lon":5.39727,"is_reserved":false,"is_disabled":false,"rental_uris":{"android":"levelo://app?vid=29bfe1bc-6d53-4179-b02d-8f481ecfea72","ios":"levelo://app?vid=29bfe1bc-6d53-4179-b02d-8f481ecfea72"},"vehicle_type_id":"4","last_reported":1751526699,"current_range_meters":11200,"station_id":"ce4bhn12rcd13ifvqgpg","pricing_plan_id":"cebpf4jnsgd1na2vs0mg"},{"bike_id":"56eb3fdf-ea87-4fcf-85df-3680fa66363e","system_id":"levelo_inurba_marseille","lat":43.22486,"lon":5.34775,"is_reserved":false,"is_disabled":false,"rental_uris":{"android":"levelo://app?vid=56eb3fdf-ea87-4fcf-85df-3680fa66363e","ios":"levelo://app?vid=56eb3fdf-ea87-4fcf-85df-3680fa66363e"},"vehicle_type_id":"4","last_reported":1751526699,"current_range_meters":11200,"station_id":"st_cvj5dfep6f1abm77gieg","pricing_plan_id":"cebpf4jnsgd1na2vs0mg"},{"bike_id":"bcfd0eda-b9ab-4bec-9ca3-3f2b86617415","system_id":"levelo_inurba_marseille","lat":43.211911,"lon":5.350704,"is_reserved":false,"is_disabled":false,"rental_uris":{"android":"levelo://app?vid=bcfd0eda-b9ab-4bec-9ca3-3f2b86617415","ios":"levelo://app?vid=bcfd0eda-b9ab-4bec-9ca3-3f2b86617415"},"vehicle_type_id":"4","last_reported":1751526699,"current_range_meters":11200,"station_id":"st_cvj6sg6p6f1abm77japg","pricing_plan_id":"cebpf4jnsgd1na2vs0mg"},{"bike_id":"8cf43f23-f445-4f6b-a348-68dd0043cc00","system_id":"levelo_inurba_marseille","lat":43.26032,"lon":5.37545,"is_reserved":false,"is_disabled":false,"rental_uris":{"android":"levelo://app?vid=8cf43f23-f445-4f6b-a348-68dd0043cc00","ios":"levelo://app?vid=8cf43f23-f445-4f6b-a348-68dd0043cc00"},"vehicle_type_id":"4","last_reported":1751526699,"current_range_meters":11600,"station_id":"ce4bhgh2rcd13ifvqfa0","pricing_plan_id":"cebpf4jnsgd1na2vs0mg"},{"bike_id":"bd66eba9-33d6-45d2-9147-f93bbecc4fb7","system_id":"levelo_inurba_marseille","lat":43.2902,"lon":5.35744,"is_reserved":false,"is_disabled":false,"rental_uris":{"android":"levelo://app?vid=bd66eba9-33d6-45d2-9147-f93bbecc4fb7","ios":"levelo://app?vid=bd66eba9-33d6-45d2-9147-f93bbecc4fb7"},"vehicle_type_id":"4","last_reported":1751526699,"current_range_meters":12000,"station_id":"","pricing_plan_id":"cebpf4jnsgd1na2vs0mg"},{"bike_id":"17ad145c-f881-4017-969d-c8638a36a818","system_id":"levelo_inurba_marseille","lat":43.26561,"lon":5.38988,"is_reserved":false,"is_disabled":false,"rental_uris":{"android":"levelo://app?vid=17ad145c-f881-4017-969d-c8638a36a818","ios":"levelo://app?vid=17ad145c-f881-4017-969d-c8638a36a818"},"vehicle_type_id":"4","last_reported":1751526699,"current_range_meters":12000,"station_id":"ce4bhe12rcd13ifvqf30","pricing_plan_id":"cebpf4jnsgd1na2vs0mg"},{"bike_id":"6bd3a4f9-cbce-41c9-b0c4-cd58a85699d3","system_id":"levelo_inurba_marseille","lat":43.26683,"lon":5.38276,"is_reserved":false,"is_disabled":false,"rental_uris":{"android":"levelo://app?vid=6bd3a4f9-cbce-41c9-b0c4-cd58a85699d3","ios":"levelo://app?vid=6bd3a4f9-cbce-41c9-b0c4-cd58a85699d3"},"vehicle_type_id":"4","last_reported":1751526699,"current_range_meters":12000,"station_id":"ce4bhg92rcd13ifvqf90","pricing_plan_id":"cebpf4jnsgd1na2vs0mg"},{"bike_id":"e36eeb04-35cc-4a52-97d7-6ba58bfe555b","system_id":"levelo_inurba_marseille","lat":43.29555,"lon":5.42307,"is_reserved":false,"is_disabled":false,"rental_uris":{"android":"levelo://app?vid=e36eeb04-35cc-4a52-97d7-6ba58bfe555b","ios":"levelo://app?vid=e36eeb04-35cc-4a52-97d7-6ba58bfe555b"},"vehicle_type_id":"4","last_reported":1751526699,"current_range_meters":12000,"station_id":"ce4bhph2rcd13ifvqhdg","pricing_plan_id":"cebpf4jnsgd1na2vs0mg"},{"bike_id":"110be0f7-19b6-4419-935c-8afdb1f29359","system_id":"levelo_inurba_marseille","lat":43.21212,"lon":5.35053,"is_reserved":false,"is_disabled":false,"rental_uris":{"android":"levelo://app?vid=110be0f7-19b6-4419-935c-8afdb1f29359","ios":"levelo://app?vid=110be0f7-19b6-4419-935c-8afdb1f29359"},"vehicle_type_id":"4","last_reported":1751526699,"current_range_meters":12000,"station_id":"st_cvj6sg6p6f1abm77japg","pricing_plan_id":"cebpf4jnsgd1na2vs0mg"},{"bike_id":"7b82ce06-9a81-436b-bdf4-db08cf7b33d1","system_id":"levelo_inurba_marseille","lat":43.241747,"lon":5.364023,"is_reserved":false,"is_disabled":false,"rental_uris":{"android":"levelo://app?vid=7b82ce06-9a81-436b-bdf4-db08cf7b33d1","ios":"levelo://app?vid=7b82ce06-9a81-436b-bdf4-db08cf7b33d1"},"vehicle_type_id":"4","last_reported":1751526699,"current_range_meters":12400,"station_id":"cpo36qri1sfpv3e86is0","pricing_plan_id":"cebpf4jnsgd1na2vs0mg"},{"bike_id":"959e6f20-8ed0-4d36-bc1d-3efb82d6190b","system_id":"levelo_inurba_marseille","lat":43.21188,"lon":5.35076,"is_reserved":false,"is_disabled":false,"rental_uris":{"android":"levelo://app?vid=959e6f20-8ed0-4d36-bc1d-3efb82d6190b","ios":"levelo://app?vid=959e6f20-8ed0-4d36-bc1d-3efb82d6190b"},"vehicle_type_id":"4","last_reported":1751526699,"current_range_meters":12400,"station_id":"st_cvj6sg6p6f1abm77japg","pricing_plan_id":"cebpf4jnsgd1na2vs0mg"},{"bike_id":"16a8afe6-e43e-4d1b-a7bd-ed83d113735a","system_id":"levelo_inurba_marseille","lat":43.32436,"lon":5.41185,"is_reserved":false,"is_disabled":false,"rental_uris":{"android":"levelo://app?vid=16a8afe6-e43e-4d1b-a7bd-ed83d113735a","ios":"levelo://app?vid=16a8afe6-e43e-4d1b-a7bd-ed83d113735a"},"vehicle_type_id":"4","last_reported":1751526699,"current_range_meters":12800,"station_id":"","pricing_plan_id":"cebpf4jnsgd1na2vs0mg"},{"bike_id":"fe16e5d6-c086-4644-bea1-4f57a2866519","system_id":"levelo_inurba_marseille","lat":43.28564,"lon":5.35064,"is_reserved":false,"is_disabled":false,"rental_uris":{"android":"levelo://app?vid=fe16e5d6-c086-4644-bea1-4f57a2866519","ios":"levelo://app?vid=fe16e5d6-c086-4644-bea1-4f57a2866519"},"vehicle_type_id":"4","last_reported":1751526699,"current_range_meters":12800,"station_id":"","pricing_plan_id":"cebpf4jnsgd1na2vs0mg"},{"bike_id":"64bb485e-0856-48ce-befe-bde5a394f93d","system_id":"levelo_inurba_marseille","lat":43.27628,"lon":5.38877,"is_reserved":false,"is_disabled":false,"rental_uris":{"android":"levelo://app?vid=64bb485e-0856-48ce-befe-bde5a394f93d","ios":"levelo://app?vid=64bb485e-0856-48ce-befe-bde5a394f93d"},"vehicle_type_id":"4","last_reported":1751526699,"current_range_meters":12800,"station_id":"","pricing_plan_id":"cebpf4jnsgd1na2vs0mg"},{"bike_id":"96853b03-a60e-428a-8847-763f5d332619","system_id":"levelo_inurba_marseille","lat":43.31492,"lon":5.37327,"is_reserved":false,"is_disabled":false,"rental_uris":{"android":"levelo://app?vid=96853b03-a60e-428a-8847-763f5d332619","ios":"levelo://app?vid=96853b03-a60e-428a-8847-763f5d332619"},"vehicle_type_id":"4","last_reported":1751526699,"current_range_meters":12800,"station_id":"ce4bgt12rcd13ifvqcd0","pricing_plan_id":"cebpf4jnsgd1na2vs0mg"},{"bike_id":"e3dd2b8d-f067-43b0-bc85-d602dd320e53","system_id":"levelo_inurba_marseille","lat":43.26565,"lon":5.39017,"is_reserved":false,"is_disabled":false,"rental_uris":{"android":"levelo://app?vid=e3dd2b8d-f067-43b0-bc85-d602dd320e53","ios":"levelo://app?vid=e3dd2b8d-f067-43b0-bc85-d602dd320e53"},"vehicle_type_id":"4","last_reported":1751526699,"current_range_meters":12800,"station_id":"ce4bhe12rcd13ifvqf30","pricing_plan_id":"cebpf4jnsgd1na2vs0mg"},{"bike_id":"3d62f533-18ea-4518-9d31-0db7a145e9d9","system_id":"levelo_inurba_marseille","lat":43.27173,"lon":5.40996,"is_reserved":false,"is_disabled":false,"rental_uris":{"android":"levelo://app?vid=3d62f533-18ea-4518-9d31-0db7a145e9d9","ios":"levelo://app?vid=3d62f533-18ea-4518-9d31-0db7a145e9d9"},"vehicle_type_id":"4","last_reported":1751526699,"current_range_meters":12800,"station_id":"ce4bhl12rcd13ifvqgf0","pricing_plan_id":"cebpf4jnsgd1na2vs0mg"},{"bike_id":"a011bf6f-5b73-42df-b628-b2dcf5029277","system_id":"levelo_inurba_marseille","lat":43.24173,"lon":5.38499,"is_reserved":false,"is_disabled":false,"rental_uris":{"android":"levelo://app?vid=a011bf6f-5b73-42df-b628-b2dcf5029277","ios":"levelo://app?vid=a011bf6f-5b73-42df-b628-b2dcf5029277"},"vehicle_type_id":"4","last_reported":1751526699,"current_range_meters":13600,"station_id":"","pricing_plan_id":"cebpf4jnsgd1na2vs0mg"},{"bike_id":"a98e3fec-4b02-4bea-9bad-40cce74dd015","system_id":"levelo_inurba_marseille","lat":43.29038,"lon":5.37564,"is_reserved":false,"is_disabled":false,"rental_uris":{"android":"levelo://app?vid=a98e3fec-4b02-4bea-9bad-40cce74dd015","ios":"levelo://app?vid=a98e3fec-4b02-4bea-9bad-40cce74dd015"},"vehicle_type_id":"4","last_reported":1751526699,"current_range_meters":13600,"station_id":"ce4bh692rcd13ifvqe90","pricing_plan_id":"cebpf4jnsgd1na2vs0mg"},{"bike_id":"8f979544-377f-4b09-8f38-797ee944422c","system_id":"levelo_inurba_marseille","lat":43.2511,"lon":5.40326,"is_reserved":false,"is_disabled":false,"rental_uris":{"android":"levelo://app?vid=8f979544-377f-4b09-8f38-797ee944422c","ios":"levelo://app?vid=8f979544-377f-4b09-8f38-797ee944422c"},"vehicle_type_id":"4","last_reported":1751526699,"current_range_meters":13600,"station_id":"ce4bhlh2rcd13ifvqgig","pricing_plan_id":"cebpf4jnsgd1na2vs0mg"},{"bike_id":"09a94feb-8911-4d3d-9f22-a7f611710ea1","system_id":"levelo_inurba_marseille","lat":43.21186,"lon":5.35062,"is_reserved":false,"is_disabled":false,"rental_uris":{"android":"levelo://app?vid=09a94feb-8911-4d3d-9f22-a7f611710ea1","ios":"levelo://app?vid=09a94feb-8911-4d3d-9f22-a7f611710ea1"},"vehicle_type_id":"4","last_reported":1751526699,"current_range_meters":13600,"station_id":"st_cvj6sg6p6f1abm77japg","pricing_plan_id":"cebpf4jnsgd1na2vs0mg"},{"bike_id":"1c68776e-b459-4130-a68d-b80e3e133622","system_id":"levelo_inurba_marseille","lat":43.3106,"lon":5.38327,"is_reserved":false,"is_disabled":false,"rental_uris":{"android":"levelo://app?vid=1c68776e-b459-4130-a68d-b80e3e133622","ios":"levelo://app?vid=1c68776e-b459-4130-a68d-b80e3e133622"},"vehicle_type_id":"4","last_reported":1751526699,"current_range_meters":14000,"station_id":"ce4bgv92rcd13ifvqcr0","pricing_plan_id":"cebpf4jnsgd1na2vs0mg"},{"bike_id":"0e030323-4386-4e72-9a0d-0f6a2ff539de","system_id":"levelo_inurba_marseille","lat":43.296204,"lon":5.405472,"is_reserved":false,"is_disabled":false,"rental_uris":{"android":"levelo://app?vid=0e030323-4386-4e72-9a0d-0f6a2ff539de","ios":"levelo://app?vid=0e030323-4386-4e72-9a0d-0f6a2ff539de"},"vehicle_type_id":"4","last_reported":1751526699,"current_range_meters":14000,"station_id":"ce4bh0h2rcd13ifvqd60","pricing_plan_id":"cebpf4jnsgd1na2vs0mg"},{"bike_id":"b0998264-0ea2-438e-9b28-8a85c2ce4d5f","system_id":"levelo_inurba_marseille","lat":43.25718,"lon":5.41116,"is_reserved":false,"is_disabled":false,"rental_uris":{"android":"levelo://app?vid=b0998264-0ea2-438e-9b28-8a85c2ce4d5f","ios":"levelo://app?vid=b0998264-0ea2-438e-9b28-8a85c2ce4d5f"},"vehicle_type_id":"4","last_reported":1751526699,"current_range_meters":14000,"station_id":"ce4bhkp2rcd13ifvqgd0","pricing_plan_id":"cebpf4jnsgd1na2vs0mg"},{"bike_id":"eac33aec-008d-40f4-b2c0-90d4f8729473","system_id":"levelo_inurba_marseille","lat":43.24167,"lon":5.39734,"is_reserved":false,"is_disabled":false,"rental_uris":{"android":"levelo://app?vid=eac33aec-008d-40f4-b2c0-90d4f8729473","ios":"levelo://app?vid=eac33aec-008d-40f4-b2c0-90d4f8729473"},"vehicle_type_id":"4","last_reported":1751526699,"current_range_meters":14000,"station_id":"ce4bhn12rcd13ifvqgpg","pricing_plan_id":"cebpf4jnsgd1na2vs0mg"},{"bike_id":"b50da02d-1fb5-4383-a93d-332785610080","system_id":"levelo_inurba_marseille","lat":43.21755,"lon":5.3459,"is_reserved":false,"is_disabled":false,"rental_uris":{"android":"levelo://app?vid=b50da02d-1fb5-4383-a93d-332785610080","ios":"levelo://app?vid=b50da02d-1fb5-4383-a93d-332785610080"},"vehicle_type_id":"4","last_reported":1751526699,"current_range_meters":14000,"station_id":"st_cvj6r9ubvosntc0bgbag","pricing_plan_id":"cebpf4jnsgd1na2vs0mg"},{"bike_id":"8a74f5cd-9efa-4362-bea7-a32db4dcc85c","system_id":"levelo_inurba_marseille","lat":43.2119,"lon":5.3509,"is_reserved":false,"is_disabled":false,"rental_uris":{"android":"levelo://app?vid=8a74f5cd-9efa-4362-bea7-a32db4dcc85c","ios":"levelo://app?vid=8a74f5cd-9efa-4362-bea7-a32db4dcc85c"},"vehicle_type_id":"4","last_reported":1751526699,"current_range_meters":14000,"station_id":"st_cvj6sg6p6f1abm77japg","pricing_plan_id":"cebpf4jnsgd1na2vs0mg"},{"bike_id":"63072e0c-9f69-4913-be48-96789ec98037","system_id":"levelo_inurba_marseille","lat":43.334109,"lon":5.400724,"is_reserved":false,"is_disabled":false,"rental_uris":{"android":"levelo://app?vid=63072e0c-9f69-4913-be48-96789ec98037","ios":"levelo://app?vid=63072e0c-9f69-4913-be48-96789ec98037"},"vehicle_type_id":"4","last_reported":1751526699,"current_range_meters":14400,"station_id":"","pricing_plan_id":"cebpf4jnsgd1na2vs0mg"},{"bike_id":"78311641-c5aa-4d7d-a97f-e76cea707448","system_id":"levelo_inurba_marseille","lat":43.29019,"lon":5.35741,"is_reserved":false,"is_disabled":false,"rental_uris":{"android":"levelo://app?vid=78311641-c5aa-4d7d-a97f-e76cea707448","ios":"levelo://app?vid=78311641-c5aa-4d7d-a97f-e76cea707448"},"vehicle_type_id":"4","last_reported":1751526699,"current_range_meters":14400,"station_id":"","pricing_plan_id":"cebpf4jnsgd1na2vs0mg"},{"bike_id":"008fc02a-c9b0-4394-94ab-d231e1809b17","system_id":"levelo_inurba_marseille","lat":43.31222,"lon":5.36868,"is_reserved":false,"is_disabled":false,"rental_uris":{"android":"levelo://app?vid=008fc02a-c9b0-4394-94ab-d231e1809b17","ios":"levelo://app?vid=008fc02a-c9b0-4394-94ab-d231e1809b17"},"vehicle_type_id":"4","last_reported":1751526699,"current_range_meters":14400,"station_id":"ce4bgl92rcd13ifvqbq0","pricing_plan_id":"cebpf4jnsgd1na2vs0mg"},{"bike_id":"8b784f28-b0e0-4960-8cfe-7e3d0de16521","system_id":"levelo_inurba_marseille","lat":43.23149,"lon":5.4371,"is_reserved":false,"is_disabled":false,"rental_uris":{"android":"levelo://app?vid=8b784f28-b0e0-4960-8cfe-7e3d0de16521","ios":"levelo://app?vid=8b784f28-b0e0-4960-8cfe-7e3d0de16521"},"vehicle_type_id":"4","last_reported":1751526699,"current_range_meters":14400,"station_id":"ce4bhmp2rcd13ifvqgog","pricing_plan_id":"cebpf4jnsgd1na2vs0mg"},{"bike_id":"e162a383-420d-4fb2-8ad0-bb411ddd690f","system_id":"levelo_inurba_marseille","lat":43.32479,"lon":5.36577,"is_reserved":false,"is_disabled":false,"rental_uris":{"android":"levelo://app?vid=e162a383-420d-4fb2-8ad0-bb411ddd690f","ios":"levelo://app?vid=e162a383-420d-4fb2-8ad0-bb411ddd690f"},"vehicle_type_id":"4","last_reported":1751526699,"current_range_meters":14400,"station_id":"ce4bhs12rcd13ifvqhvg","pricing_plan_id":"cebpf4jnsgd1na2vs0mg"},{"bike_id":"8bf0d992-d2a0-428e-940a-091ee9b7c2a4","system_id":"levelo_inurba_marseille","lat":43.21179,"lon":5.35073,"is_reserved":false,"is_disabled":false,"rental_uris":{"android":"levelo://app?vid=8bf0d992-d2a0-428e-940a-091ee9b7c2a4","ios":"levelo://app?vid=8bf0d992-d2a0-428e-940a-091ee9b7c2a4"},"vehicle_type_id":"4","last_reported":1751526699,"current_range_meters":14400,"station_id":"st_cvj6sg6p6f1abm77japg","pricing_plan_id":"cebpf4jnsgd1na2vs0mg"},{"bike_id":"c10a4283-320d-4e64-8d75-ff83e94026ba","system_id":"levelo_inurba_marseille","lat":43.211901,"lon":5.350729,"is_reserved":false,"is_disabled":false,"rental_uris":{"android":"levelo://app?vid=c10a4283-320d-4e64-8d75-ff83e94026ba","ios":"levelo://app?vid=c10a4283-320d-4e64-8d75-ff83e94026ba"},"vehicle_type_id":"4","last_reported":1751526699,"current_range_meters":14400,"station_id":"st_cvj6sg6p6f1abm77japg","pricing_plan_id":"cebpf4jnsgd1na2vs0mg"},{"bike_id":"a588469b-12ca-41c6-8c6f-3f3bda5b7f15","system_id":"levelo_inurba_marseille","lat":43.3156,"lon":5.38393,"is_reserved":false,"is_disabled":false,"rental_uris":{"android":"levelo://app?vid=a588469b-12ca-41c6-8c6f-3f3bda5b7f15","ios":"levelo://app?vid=a588469b-12ca-41c6-8c6f-3f3bda5b7f15"},"vehicle_type_id":"4","last_reported":1751526699,"current_range_meters":14800,"station_id":"","pricing_plan_id":"cebpf4jnsgd1na2vs0mg"},{"bike_id":"aa0f1230-e1e9-41f1-9211-043e633764ce","system_id":"levelo_inurba_marseille","lat":43.30548,"lon":5.36545,"is_reserved":false,"is_disabled":false,"rental_uris":{"android":"levelo://app?vid=aa0f1230-e1e9-41f1-9211-043e633764ce","ios":"levelo://app?vid=aa0f1230-e1e9-41f1-9211-043e633764ce"},"vehicle_type_id":"4","last_reported":1751526699,"current_range_meters":14800,"station_id":"ce4bgs12rcd13ifvqcag","pricing_plan_id":"cebpf4jnsgd1na2vs0mg"},{"bike_id":"4f327685-8654-402f-b5fa-04206e015a06","system_id":"levelo_inurba_marseille","lat":43.30451,"lon":5.37924,"is_reserved":false,"is_disabled":false,"rental_uris":{"android":"levelo://app?vid=4f327685-8654-402f-b5fa-04206e015a06","ios":"levelo://app?vid=4f327685-8654-402f-b5fa-04206e015a06"},"vehicle_type_id":"4","last_reported":1751526699,"current_range_meters":14800,"station_id":"ce4bgup2rcd13ifvqcn0","pricing_plan_id":"cebpf4jnsgd1na2vs0mg"},{"bike_id":"ef7a92f6-5b13-43ea-8d58-416a10c9a723","system_id":"levelo_inurba_marseille","lat":43.29249,"lon":5.38443,"is_reserved":false,"is_disabled":false,"rental_uris":{"android":"levelo://app?vid=ef7a92f6-5b13-43ea-8d58-416a10c9a723","ios":"levelo://app?vid=ef7a92f6-5b13-43ea-8d58-416a10c9a723"},"vehicle_type_id":"4","last_reported":1751526699,"current_range_meters":14800,"station_id":"ce4bh692rcd13ifvqea0","pricing_plan_id":"cebpf4jnsgd1na2vs0mg"},{"bike_id":"738f0ec0-0047-4e92-b162-b1f3adbba64b","system_id":"levelo_inurba_marseille","lat":43.28615,"lon":5.35107,"is_reserved":false,"is_disabled":false,"rental_uris":{"android":"levelo://app?vid=738f0ec0-0047-4e92-b162-b1f3adbba64b","ios":"levelo://app?vid=738f0ec0-0047-4e92-b162-b1f3adbba64b"},"vehicle_type_id":"4","last_reported":1751526699,"current_range_meters":14800,"station_id":"ce4bhch2rcd13ifvqeug","pricing_plan_id":"cebpf4jnsgd1na2vs0mg"},{"bike_id":"1a902476-63cb-422b-8bd1-39e77fa65bfb","system_id":"levelo_inurba_marseille","lat":43.31221,"lon":5.36857,"is_reserved":false,"is_disabled":false,"rental_uris":{"android":"levelo://app?vid=1a902476-63cb-422b-8bd1-39e77fa65bfb","ios":"levelo://app?vid=1a902476-63cb-422b-8bd1-39e77fa65bfb"},"vehicle_type_id":"4","last_reported":1751526699,"current_range_meters":15200,"station_id":"ce4bgl92rcd13ifvqbq0","pricing_plan_id":"cebpf4jnsgd1na2vs0mg"},{"bike_id":"912d67f3-78e7-48fd-8929-37f0572cfee4","system_id":"levelo_inurba_marseille","lat":43.26375,"lon":5.37381,"is_reserved":false,"is_disabled":false,"rental_uris":{"android":"levelo://app?vid=912d67f3-78e7-48fd-8929-37f0572cfee4","ios":"levelo://app?vid=912d67f3-78e7-48fd-8929-37f0572cfee4"},"vehicle_type_id":"4","last_reported":1751526699,"current_range_meters":16000,"station_id":"","pricing_plan_id":"cebpf4jnsgd1na2vs0mg"},{"bike_id":"05b7a220-436b-43cf-bede-6b8b30e68edc","system_id":"levelo_inurba_marseille","lat":43.29182,"lon":5.40238,"is_reserved":false,"is_disabled":false,"rental_uris":{"android":"levelo://app?vid=05b7a220-436b-43cf-bede-6b8b30e68edc","ios":"levelo://app?vid=05b7a220-436b-43cf-bede-6b8b30e68edc"},"vehicle_type_id":"4","last_reported":1751526699,"current_range_meters":16000,"station_id":"","pricing_plan_id":"cebpf4jnsgd1na2vs0mg"},{"bike_id":"190cfeed-d109-41bf-961c-0dc2409d0ad3","system_id":"levelo_inurba_marseille","lat":43.33149,"lon":5.381813,"is_reserved":false,"is_disabled":false,"rental_uris":{"android":"levelo://app?vid=190cfeed-d109-41bf-961c-0dc2409d0ad3","ios":"levelo://app?vid=190cfeed-d109-41bf-961c-0dc2409d0ad3"},"vehicle_type_id":"4","last_reported":1751526699,"current_range_meters":16000,"station_id":"","pricing_plan_id":"cebpf4jnsgd1na2vs0mg"},{"bike_id":"ffc4ee84-d1be-4ebc-8ebf-1a1ca37b8401","system_id":"levelo_inurba_marseille","lat":43.308,"lon":5.37523,"is_reserved":false,"is_disabled":false,"rental_uris":{"android":"levelo://app?vid=ffc4ee84-d1be-4ebc-8ebf-1a1ca37b8401","ios":"levelo://app?vid=ffc4ee84-d1be-4ebc-8ebf-1a1ca37b8401"},"vehicle_type_id":"4","last_reported":1751526699,"current_range_meters":16000,"station_id":"","pricing_plan_id":"cebpf4jnsgd1na2vs0mg"},{"bike_id":"a9839c64-8e9f-4023-86d2-243a6403ac94","system_id":"levelo_inurba_marseille","lat":43.30147,"lon":5.37431,"is_reserved":false,"is_disabled":false,"rental_uris":{"android":"levelo://app?vid=a9839c64-8e9f-4023-86d2-243a6403ac94","ios":"levelo://app?vid=a9839c64-8e9f-4023-86d2-243a6403ac94"},"vehicle_type_id":"4","last_reported":1751526699,"current_range_meters":16000,"station_id":"ce4bgs92rcd13ifvqcc0","pricing_plan_id":"cebpf4jnsgd1na2vs0mg"},{"bike_id":"7bab1ae9-9e76-4bc4-8397-502ce0d2fefc","system_id":"levelo_inurba_marseille","lat":43.29021,"lon":5.39974,"is_reserved":false,"is_disabled":false,"rental_uris":{"android":"levelo://app?vid=7bab1ae9-9e76-4bc4-8397-502ce0d2fefc","ios":"levelo://app?vid=7bab1ae9-9e76-4bc4-8397-502ce0d2fefc"},"vehicle_type_id":"4","last_reported":1751526699,"current_range_meters":16000,"station_id":"ce4bh392rcd13ifvqdm0","pricing_plan_id":"cebpf4jnsgd1na2vs0mg"},{"bike_id":"7719e051-b03c-4a2c-806b-d6dc1f85a75d","system_id":"levelo_inurba_marseille","lat":43.2621,"lon":5.37441,"is_reserved":false,"is_disabled":false,"rental_uris":{"android":"levelo://app?vid=7719e051-b03c-4a2c-806b-d6dc1f85a75d","ios":"levelo://app?vid=7719e051-b03c-4a2c-806b-d6dc1f85a75d"},"vehicle_type_id":"4","last_reported":1751526699,"current_range_meters":16000,"station_id":"ce4bhgp2rcd13ifvqfc0","pricing_plan_id":"cebpf4jnsgd1na2vs0mg"},{"bike_id":"3f97f2f8-dc4a-41ec-b723-3d78610c663c","system_id":"levelo_inurba_marseille","lat":43.24999,"lon":5.38934,"is_reserved":false,"is_disabled":false,"rental_uris":{"android":"levelo://app?vid=3f97f2f8-dc4a-41ec-b723-3d78610c663c","ios":"levelo://app?vid=3f97f2f8-dc4a-41ec-b723-3d78610c663c"},"vehicle_type_id":"4","last_reported":1751526699,"current_range_meters":16000,"station_id":"ce4bhgp2rcd13ifvqfd0","pricing_plan_id":"cebpf4jnsgd1na2vs0mg"},{"bike_id":"f1d574fe-b8fe-4c96-8b6e-6b6371138207","system_id":"levelo_inurba_marseille","lat":43.32368,"lon":5.38893,"is_reserved":false,"is_disabled":false,"rental_uris":{"android":"levelo://app?vid=f1d574fe-b8fe-4c96-8b6e-6b6371138207","ios":"levelo://app?vid=f1d574fe-b8fe-4c96-8b6e-6b6371138207"},"vehicle_type_id":"4","last_reported":1751526699,"current_range_meters":16000,"station_id":"ce4bhqp2rcd13ifvqhog","pricing_plan_id":"cebpf4jnsgd1na2vs0mg"},{"bike_id":"0f590c2a-c81e-469d-a7d1-2741de3642a2","system_id":"levelo_inurba_marseille","lat":43.211915,"lon":5.350679,"is_reserved":false,"is_disabled":false,"rental_uris":{"android":"levelo://app?vid=0f590c2a-c81e-469d-a7d1-2741de3642a2","ios":"levelo://app?vid=0f590c2a-c81e-469d-a7d1-2741de3642a2"},"vehicle_type_id":"4","last_reported":1751526699,"current_range_meters":16000,"station_id":"st_cvj6sg6p6f1abm77japg","pricing_plan_id":"cebpf4jnsgd1na2vs0mg"},{"bike_id":"ba154a12-11bd-42a5-958a-5992f5d043d1","system_id":"levelo_inurba_marseille","lat":43.304956,"lon":5.370761,"is_reserved":false,"is_disabled":false,"rental_uris":{"android":"levelo://app?vid=ba154a12-11bd-42a5-958a-5992f5d043d1","ios":"levelo://app?vid=ba154a12-11bd-42a5-958a-5992f5d043d1"},"vehicle_type_id":"4","last_reported":1751526699,"current_range_meters":16400,"station_id":"","pricing_plan_id":"cebpf4jnsgd1na2vs0mg"},{"bike_id":"c39c0795-8e44-4a12-ac12-9047aa747398","system_id":"levelo_inurba_marseille","lat":43.28979,"lon":5.37832,"is_reserved":false,"is_disabled":false,"rental_uris":{"android":"levelo://app?vid=c39c0795-8e44-4a12-ac12-9047aa747398","ios":"levelo://app?vid=c39c0795-8e44-4a12-ac12-9047aa747398"},"vehicle_type_id":"4","last_reported":1751526699,"current_range_meters":16400,"station_id":"ce4bh9p2rcd13ifvqed0","pricing_plan_id":"cebpf4jnsgd1na2vs0mg"},{"bike_id":"184ee7f4-0982-4a15-91e9-1f0a76f922c3","system_id":"levelo_inurba_marseille","lat":43.30546,"lon":5.36503,"is_reserved":false,"is_disabled":false,"rental_uris":{"android":"levelo://app?vid=184ee7f4-0982-4a15-91e9-1f0a76f922c3","ios":"levelo://app?vid=184ee7f4-0982-4a15-91e9-1f0a76f922c3"},"vehicle_type_id":"4","last_reported":1751526699,"current_range_meters":16800,"station_id":"ce4bgs12rcd13ifvqcag","pricing_plan_id":"cebpf4jnsgd1na2vs0mg"},{"bike_id":"28859946-f1d8-4fd3-9995-0389ecca0f21","system_id":"levelo_inurba_marseille","lat":43.26954,"lon":5.38639,"is_reserved":false,"is_disabled":false,"rental_uris":{"android":"levelo://app?vid=28859946-f1d8-4fd3-9995-0389ecca0f21","ios":"levelo://app?vid=28859946-f1d8-4fd3-9995-0389ecca0f21"},"vehicle_type_id":"4","last_reported":1751526699,"current_range_meters":16800,"station_id":"ce4bhh92rcd13ifvqfh0","pricing_plan_id":"cebpf4jnsgd1na2vs0mg"},{"bike_id":"fca7ca02-a8ea-4e0a-91dc-98735779d461","system_id":"levelo_inurba_marseille","lat":43.27077,"lon":5.42281,"is_reserved":false,"is_disabled":false,"rental_uris":{"android":"levelo://app?vid=fca7ca02-a8ea-4e0a-91dc-98735779d461","ios":"levelo://app?vid=fca7ca02-a8ea-4e0a-91dc-98735779d461"},"vehicle_type_id":"4","last_reported":1751526699,"current_range_meters":16800,"station_id":"ce4bhk92rcd13ifvqgb0","pricing_plan_id":"cebpf4jnsgd1na2vs0mg"},{"bike_id":"b114c7d7-5812-4f16-aaa4-1d26988844ab","system_id":"levelo_inurba_marseille","lat":43.27169,"lon":5.40998,"is_reserved":false,"is_disabled":false,"rental_uris":{"android":"levelo://app?vid=b114c7d7-5812-4f16-aaa4-1d26988844ab","ios":"levelo://app?vid=b114c7d7-5812-4f16-aaa4-1d26988844ab"},"vehicle_type_id":"4","last_reported":1751526699,"current_range_meters":16800,"station_id":"ce4bhl12rcd13ifvqgf0","pricing_plan_id":"cebpf4jnsgd1na2vs0mg"},{"bike_id":"37b84a38-055a-4a6e-a56a-8ff3d0c1b2ec","system_id":"levelo_inurba_marseille","lat":43.211977,"lon":5.350754,"is_reserved":false,"is_disabled":false,"rental_uris":{"android":"levelo://app?vid=37b84a38-055a-4a6e-a56a-8ff3d0c1b2ec","ios":"levelo://app?vid=37b84a38-055a-4a6e-a56a-8ff3d0c1b2ec"},"vehicle_type_id":"4","last_reported":1751526699,"current_range_meters":16800,"station_id":"st_cvj6sg6p6f1abm77japg","pricing_plan_id":"cebpf4jnsgd1na2vs0mg"},{"bike_id":"9d05dafc-58ef-42ec-bb66-db39c9b73877","system_id":"levelo_inurba_marseille","lat":43.29081,"lon":5.3987,"is_reserved":false,"is_disabled":false,"rental_uris":{"android":"levelo://app?vid=9d05dafc-58ef-42ec-bb66-db39c9b73877","ios":"levelo://app?vid=9d05dafc-58ef-42ec-bb66-db39c9b73877"},"vehicle_type_id":"4","last_reported":1751526699,"current_range_meters":17200,"station_id":"","pricing_plan_id":"cebpf4jnsgd1na2vs0mg"},{"bike_id":"2f9f249a-8433-4d90-824b-66f2265efc06","system_id":"levelo_inurba_marseille","lat":43.28963,"lon":5.39215,"is_reserved":false,"is_disabled":false,"rental_uris":{"android":"levelo://app?vid=2f9f249a-8433-4d90-824b-66f2265efc06","ios":"levelo://app?vid=2f9f249a-8433-4d90-824b-66f2265efc06"},"vehicle_type_id":"4","last_reported":1751526699,"current_range_meters":17200,"station_id":"","pricing_plan_id":"cebpf4jnsgd1na2vs0mg"},{"bike_id":"f6bca08d-175e-400d-aba2-485cba322d2d","system_id":"levelo_inurba_marseille","lat":43.31172,"lon":5.38735,"is_reserved":false,"is_disabled":false,"rental_uris":{"android":"levelo://app?vid=f6bca08d-175e-400d-aba2-485cba322d2d","ios":"levelo://app?vid=f6bca08d-175e-400d-aba2-485cba322d2d"},"vehicle_type_id":"4","last_reported":1751526699,"current_range_meters":17200,"station_id":"ce4bgv12rcd13ifvqcp0","pricing_plan_id":"cebpf4jnsgd1na2vs0mg"},{"bike_id":"b53d622c-90fb-402c-8b6f-2e47bc8228e1","system_id":"levelo_inurba_marseille","lat":43.30326,"lon":5.40436,"is_reserved":false,"is_disabled":false,"rental_uris":{"android":"levelo://app?vid=b53d622c-90fb-402c-8b6f-2e47bc8228e1","ios":"levelo://app?vid=b53d622c-90fb-402c-8b6f-2e47bc8228e1"},"vehicle_type_id":"4","last_reported":1751526699,"current_range_meters":17200,"station_id":"ce4bh012rcd13ifvqd10","pricing_plan_id":"cebpf4jnsgd1na2vs0mg"},{"bike_id":"467b1b73-f07d-4bcc-8bb6-0b854a2bb5a2","system_id":"levelo_inurba_marseille","lat":43.29203,"lon":5.39328,"is_reserved":false,"is_disabled":false,"rental_uris":{"android":"levelo://app?vid=467b1b73-f07d-4bcc-8bb6-0b854a2bb5a2","ios":"levelo://app?vid=467b1b73-f07d-4bcc-8bb6-0b854a2bb5a2"},"vehicle_type_id":"4","last_reported":1751526699,"current_range_meters":17200,"station_id":"ce4bh192rcd13ifvqdd0","pricing_plan_id":"cebpf4jnsgd1na2vs0mg"},{"bike_id":"5d7d9f41-fc6e-479c-aedf-bf8be8f2e49d","system_id":"levelo_inurba_marseille","lat":43.29039,"lon":5.359133,"is_reserved":false,"is_disabled":false,"rental_uris":{"android":"levelo://app?vid=5d7d9f41-fc6e-479c-aedf-bf8be8f2e49d","ios":"levelo://app?vid=5d7d9f41-fc6e-479c-aedf-bf8be8f2e49d"},"vehicle_type_id":"4","last_reported":1751526699,"current_range_meters":17200,"station_id":"ce4bha92rcd13ifvqeg0","pricing_plan_id":"cebpf4jnsgd1na2vs0mg"},{"bike_id":"7836aefb-a958-472d-8de2-e3270b0b20d2","system_id":"levelo_inurba_marseille","lat":43.26678,"lon":5.38271,"is_reserved":false,"is_disabled":false,"rental_uris":{"android":"levelo://app?vid=7836aefb-a958-472d-8de2-e3270b0b20d2","ios":"levelo://app?vid=7836aefb-a958-472d-8de2-e3270b0b20d2"},"vehicle_type_id":"4","last_reported":1751526699,"current_range_meters":17200,"station_id":"ce4bhg92rcd13ifvqf90","pricing_plan_id":"cebpf4jnsgd1na2vs0mg"},{"bike_id":"31f11656-0176-46cb-82b9-43f14cd5e13e","system_id":"levelo_inurba_marseille","lat":43.32482,"lon":5.36568,"is_reserved":false,"is_disabled":false,"rental_uris":{"android":"levelo://app?vid=31f11656-0176-46cb-82b9-43f14cd5e13e","ios":"levelo://app?vid=31f11656-0176-46cb-82b9-43f14cd5e13e"},"vehicle_type_id":"4","last_reported":1751526699,"current_range_meters":17200,"station_id":"ce4bhs12rcd13ifvqhvg","pricing_plan_id":"cebpf4jnsgd1na2vs0mg"},{"bike_id":"4d4995e7-0bba-4ac2-a238-afd84a5e99b5","system_id":"levelo_inurba_marseille","lat":43.304848,"lon":5.398345,"is_reserved":false,"is_disabled":false,"rental_uris":{"android":"levelo://app?vid=4d4995e7-0bba-4ac2-a238-afd84a5e99b5","ios":"levelo://app?vid=4d4995e7-0bba-4ac2-a238-afd84a5e99b5"},"vehicle_type_id":"4","last_reported":1751526699,"current_range_meters":17600,"station_id":"","pricing_plan_id":"cebpf4jnsgd1na2vs0mg"},{"bike_id":"0c5e46df-9adb-4aa5-842c-17a1961c0106","system_id":"levelo_inurba_marseille","lat":43.279874,"lon":5.40709,"is_reserved":false,"is_disabled":false,"rental_uris":{"android":"levelo://app?vid=0c5e46df-9adb-4aa5-842c-17a1961c0106","ios":"levelo://app?vid=0c5e46df-9adb-4aa5-842c-17a1961c0106"},"vehicle_type_id":"4","last_reported":1751526699,"current_range_meters":17600,"station_id":"","pricing_plan_id":"cebpf4jnsgd1na2vs0mg"},{"bike_id":"0c4b7fdb-b39e-49b3-a2b0-ae3d0f43e89d","system_id":"levelo_inurba_marseille","lat":43.32905,"lon":5.40557,"is_reserved":false,"is_disabled":false,"rental_uris":{"android":"levelo://app?vid=0c4b7fdb-b39e-49b3-a2b0-ae3d0f43e89d","ios":"levelo://app?vid=0c4b7fdb-b39e-49b3-a2b0-ae3d0f43e89d"},"vehicle_type_id":"4","last_reported":1751526699,"current_range_meters":17600,"station_id":"","pricing_plan_id":"cebpf4jnsgd1na2vs0mg"},{"bike_id":"94f4c932-b1df-4c3f-825b-61d0d51aafeb","system_id":"levelo_inurba_marseille","lat":43.30558,"lon":5.36545,"is_reserved":false,"is_disabled":false,"rental_uris":{"android":"levelo://app?vid=94f4c932-b1df-4c3f-825b-61d0d51aafeb","ios":"levelo://app?vid=94f4c932-b1df-4c3f-825b-61d0d51aafeb"},"vehicle_type_id":"4","last_reported":1751526699,"current_range_meters":17600,"station_id":"ce4bgs12rcd13ifvqcag","pricing_plan_id":"cebpf4jnsgd1na2vs0mg"},{"bike_id":"588d4522-3602-4191-ba7e-c16cc02be86a","system_id":"levelo_inurba_marseille","lat":43.32488,"lon":5.36569,"is_reserved":false,"is_disabled":false,"rental_uris":{"android":"levelo://app?vid=588d4522-3602-4191-ba7e-c16cc02be86a","ios":"levelo://app?vid=588d4522-3602-4191-ba7e-c16cc02be86a"},"vehicle_type_id":"4","last_reported":1751526699,"current_range_meters":17600,"station_id":"ce4bhs12rcd13ifvqhvg","pricing_plan_id":"cebpf4jnsgd1na2vs0mg"},{"bike_id":"a6715104-7492-4ec6-a996-23050baf8551","system_id":"levelo_inurba_marseille","lat":43.225018,"lon":5.347763,"is_reserved":false,"is_disabled":false,"rental_uris":{"android":"levelo://app?vid=a6715104-7492-4ec6-a996-23050baf8551","ios":"levelo://app?vid=a6715104-7492-4ec6-a996-23050baf8551"},"vehicle_type_id":"4","last_reported":1751526699,"current_range_meters":17600,"station_id":"st_cvj5dfep6f1abm77gieg","pricing_plan_id":"cebpf4jnsgd1na2vs0mg"},{"bike_id":"3f591852-ce23-4a61-a250-d6c35138bef4","system_id":"levelo_inurba_marseille","lat":43.31486,"lon":5.37301,"is_reserved":false,"is_disabled":false,"rental_uris":{"android":"levelo://app?vid=3f591852-ce23-4a61-a250-d6c35138bef4","ios":"levelo://app?vid=3f591852-ce23-4a61-a250-d6c35138bef4"},"vehicle_type_id":"4","last_reported":1751526699,"current_range_meters":18000,"station_id":"ce4bgt12rcd13ifvqcd0","pricing_plan_id":"cebpf4jnsgd1na2vs0mg"},{"bike_id":"b559e394-67ad-40c7-8f7b-b41ea94f78ae","system_id":"levelo_inurba_marseille","lat":43.2594,"lon":5.40902,"is_reserved":false,"is_disabled":false,"rental_uris":{"android":"levelo://app?vid=b559e394-67ad-40c7-8f7b-b41ea94f78ae","ios":"levelo://app?vid=b559e394-67ad-40c7-8f7b-b41ea94f78ae"},"vehicle_type_id":"4","last_reported":1751526699,"current_range_meters":18000,"station_id":"ce4bhm92rcd13ifvqglg","pricing_plan_id":"cebpf4jnsgd1na2vs0mg"},{"bike_id":"7e21e8f2-09c8-4cc5-8113-278ebd23888d","system_id":"levelo_inurba_marseille","lat":43.21198,"lon":5.3506,"is_reserved":false,"is_disabled":false,"rental_uris":{"android":"levelo://app?vid=7e21e8f2-09c8-4cc5-8113-278ebd23888d","ios":"levelo://app?vid=7e21e8f2-09c8-4cc5-8113-278ebd23888d"},"vehicle_type_id":"4","last_reported":1751526699,"current_range_meters":18000,"station_id":"st_cvj6sg6p6f1abm77japg","pricing_plan_id":"cebpf4jnsgd1na2vs0mg"},{"bike_id":"b2ce53ca-166b-417e-9d70-9bee393f75bb","system_id":"levelo_inurba_marseille","lat":43.21218,"lon":5.35069,"is_reserved":false,"is_disabled":false,"rental_uris":{"android":"levelo://app?vid=b2ce53ca-166b-417e-9d70-9bee393f75bb","ios":"levelo://app?vid=b2ce53ca-166b-417e-9d70-9bee393f75bb"},"vehicle_type_id":"4","last_reported":1751526699,"current_range_meters":18000,"station_id":"st_cvj6sg6p6f1abm77japg","pricing_plan_id":"cebpf4jnsgd1na2vs0mg"},{"bike_id":"db469d08-c5c4-48b5-b750-bed73970a16f","system_id":"levelo_inurba_marseille","lat":43.28903,"lon":5.39716,"is_reserved":false,"is_disabled":false,"rental_uris":{"android":"levelo://app?vid=db469d08-c5c4-48b5-b750-bed73970a16f","ios":"levelo://app?vid=db469d08-c5c4-48b5-b750-bed73970a16f"},"vehicle_type_id":"4","last_reported":1751526699,"current_range_meters":18800,"station_id":"","pricing_plan_id":"cebpf4jnsgd1na2vs0mg"},{"bike_id":"85fcf159-3fd9-4c93-84b2-acc2ea68836f","system_id":"levelo_inurba_marseille","lat":43.26553,"lon":5.37287,"is_reserved":false,"is_disabled":false,"rental_uris":{"android":"levelo://app?vid=85fcf159-3fd9-4c93-84b2-acc2ea68836f","ios":"levelo://app?vid=85fcf159-3fd9-4c93-84b2-acc2ea68836f"},"vehicle_type_id":"4","last_reported":1751526699,"current_range_meters":18800,"station_id":"ce4bhg12rcd13ifvqf70","pricing_plan_id":"cebpf4jnsgd1na2vs0mg"},{"bike_id":"f0a65eba-5176-4f6d-90ab-e42680a979ae","system_id":"levelo_inurba_marseille","lat":43.336063,"lon":5.410267,"is_reserved":false,"is_disabled":false,"rental_uris":{"android":"levelo://app?vid=f0a65eba-5176-4f6d-90ab-e42680a979ae","ios":"levelo://app?vid=f0a65eba-5176-4f6d-90ab-e42680a979ae"},"vehicle_type_id":"4","last_reported":1751526699,"current_range_meters":18800,"station_id":"ce4bhqh2rcd13ifvqhmg","pricing_plan_id":"cebpf4jnsgd1na2vs0mg"},{"bike_id":"cc04118e-9312-4bf8-9106-d64e829afbaa","system_id":"levelo_inurba_marseille","lat":43.21192,"lon":5.35046,"is_reserved":false,"is_disabled":false,"rental_uris":{"android":"levelo://app?vid=cc04118e-9312-4bf8-9106-d64e829afbaa","ios":"levelo://app?vid=cc04118e-9312-4bf8-9106-d64e829afbaa"},"vehicle_type_id":"4","last_reported":1751526699,"current_range_meters":18800,"station_id":"st_cvj6sg6p6f1abm77japg","pricing_plan_id":"cebpf4jnsgd1na2vs0mg"},{"bike_id":"1c8ab180-05fd-405f-9922-b2b2c2d5142f","system_id":"levelo_inurba_marseille","lat":43.337925,"lon":5.38118,"is_reserved":false,"is_disabled":false,"rental_uris":{"android":"levelo://app?vid=1c8ab180-05fd-405f-9922-b2b2c2d5142f","ios":"levelo://app?vid=1c8ab180-05fd-405f-9922-b2b2c2d5142f"},"vehicle_type_id":"4","last_reported":1751526699,"current_range_meters":19200,"station_id":"","pricing_plan_id":"cebpf4jnsgd1na2vs0mg"},{"bike_id":"21522ee2-42a9-4834-bba1-e2afe9a37c3d","system_id":"levelo_inurba_marseille","lat":43.3091,"lon":5.36846,"is_reserved":false,"is_disabled":false,"rental_uris":{"android":"levelo://app?vid=21522ee2-42a9-4834-bba1-e2afe9a37c3d","ios":"levelo://app?vid=21522ee2-42a9-4834-bba1-e2afe9a37c3d"},"vehicle_type_id":"4","last_reported":1751526699,"current_range_meters":19200,"station_id":"ce4bgn92rcd13ifvqbvg","pricing_plan_id":"cebpf4jnsgd1na2vs0mg"},{"bike_id":"106b20ef-731c-43cb-899f-9e74669bd63d","system_id":"levelo_inurba_marseille","lat":43.30537,"lon":5.36503,"is_reserved":false,"is_disabled":false,"rental_uris":{"android":"levelo://app?vid=106b20ef-731c-43cb-899f-9e74669bd63d","ios":"levelo://app?vid=106b20ef-731c-43cb-899f-9e74669bd63d"},"vehicle_type_id":"4","last_reported":1751526699,"current_range_meters":19200,"station_id":"ce4bgs12rcd13ifvqcag","pricing_plan_id":"cebpf4jnsgd1na2vs0mg"},{"bike_id":"20f6b1fd-6710-4f37-8e8c-9e64df7f932a","system_id":"levelo_inurba_marseille","lat":43.28489,"lon":5.38421,"is_reserved":false,"is_disabled":false,"rental_uris":{"android":"levelo://app?vid=20f6b1fd-6710-4f37-8e8c-9e64df7f932a","ios":"levelo://app?vid=20f6b1fd-6710-4f37-8e8c-9e64df7f932a"},"vehicle_type_id":"4","last_reported":1751526699,"current_range_meters":19200,"station_id":"ce4bh512rcd13ifvqe3g","pricing_plan_id":"cebpf4jnsgd1na2vs0mg"},{"bike_id":"cd12b2fb-3ccf-4ca6-875c-4c617948b65a","system_id":"levelo_inurba_marseille","lat":43.27212,"lon":5.3918,"is_reserved":false,"is_disabled":false,"rental_uris":{"android":"levelo://app?vid=cd12b2fb-3ccf-4ca6-875c-4c617948b65a","ios":"levelo://app?vid=cd12b2fb-3ccf-4ca6-875c-4c617948b65a"},"vehicle_type_id":"4","last_reported":1751526699,"current_range_meters":19200,"station_id":"ce4bhhp2rcd13ifvqfm0","pricing_plan_id":"cebpf4jnsgd1na2vs0mg"},{"bike_id":"51028876-31ee-4e14-9aaf-eac088c567df","system_id":"levelo_inurba_marseille","lat":43.25937,"lon":5.40897,"is_reserved":false,"is_disabled":false,"rental_uris":{"android":"levelo://app?vid=51028876-31ee-4e14-9aaf-eac088c567df","ios":"levelo://app?vid=51028876-31ee-4e14-9aaf-eac088c567df"},"vehicle_type_id":"4","last_reported":1751526699,"current_range_meters":19200,"station_id":"ce4bhm92rcd13ifvqglg","pricing_plan_id":"cebpf4jnsgd1na2vs0mg"},{"bike_id":"856dafb9-12a8-4d2d-83a6-8b71e6311520","system_id":"levelo_inurba_marseille","lat":43.32486,"lon":5.36574,"is_reserved":false,"is_disabled":false,"rental_uris":{"android":"levelo://app?vid=856dafb9-12a8-4d2d-83a6-8b71e6311520","ios":"levelo://app?vid=856dafb9-12a8-4d2d-83a6-8b71e6311520"},"vehicle_type_id":"4","last_reported":1751526699,"current_range_meters":19200,"station_id":"ce4bhs12rcd13ifvqhvg","pricing_plan_id":"cebpf4jnsgd1na2vs0mg"},{"bike_id":"0dbbfd7c-5e93-4301-aea8-6d89ce7ed33b","system_id":"levelo_inurba_marseille","lat":43.21757,"lon":5.34594,"is_reserved":false,"is_disabled":false,"rental_uris":{"android":"levelo://app?vid=0dbbfd7c-5e93-4301-aea8-6d89ce7ed33b","ios":"levelo://app?vid=0dbbfd7c-5e93-4301-aea8-6d89ce7ed33b"},"vehicle_type_id":"4","last_reported":1751526699,"current_range_meters":19200,"station_id":"st_cvj6r9ubvosntc0bgbag","pricing_plan_id":"cebpf4jnsgd1na2vs0mg"},{"bike_id":"6ef98c67-642b-46d0-a7d1-076be6429d5c","system_id":"levelo_inurba_marseille","lat":43.30484,"lon":5.37909,"is_reserved":false,"is_disabled":false,"rental_uris":{"android":"levelo://app?vid=6ef98c67-642b-46d0-a7d1-076be6429d5c","ios":"levelo://app?vid=6ef98c67-642b-46d0-a7d1-076be6429d5c"},"vehicle_type_id":"4","last_reported":1751526699,"current_range_meters":19600,"station_id":"ce4bgup2rcd13ifvqcn0","pricing_plan_id":"cebpf4jnsgd1na2vs0mg"},{"bike_id":"1fec5f32-8b87-4aea-b22d-0f614d28af36","system_id":"levelo_inurba_marseille","lat":43.280351,"lon":5.369528,"is_reserved":false,"is_disabled":false,"rental_uris":{"android":"levelo://app?vid=1fec5f32-8b87-4aea-b22d-0f614d28af36","ios":"levelo://app?vid=1fec5f32-8b87-4aea-b22d-0f614d28af36"},"vehicle_type_id":"4","last_reported":1751526699,"current_range_meters":19600,"station_id":"ce4bha12rcd13ifvqef0","pricing_plan_id":"cebpf4jnsgd1na2vs0mg"},{"bike_id":"6079298d-9589-4adf-a945-d1ccc3a92031","system_id":"levelo_inurba_marseille","lat":43.26683,"lon":5.38272,"is_reserved":false,"is_disabled":false,"rental_uris":{"android":"levelo://app?vid=6079298d-9589-4adf-a945-d1ccc3a92031","ios":"levelo://app?vid=6079298d-9589-4adf-a945-d1ccc3a92031"},"vehicle_type_id":"4","last_reported":1751526699,"current_range_meters":19600,"station_id":"ce4bhg92rcd13ifvqf90","pricing_plan_id":"cebpf4jnsgd1na2vs0mg"},{"bike_id":"e6768d54-ea67-4a19-9a1b-75f686e56761","system_id":"levelo_inurba_marseille","lat":43.25722,"lon":5.41114,"is_reserved":false,"is_disabled":false,"rental_uris":{"android":"levelo://app?vid=e6768d54-ea67-4a19-9a1b-75f686e56761","ios":"levelo://app?vid=e6768d54-ea67-4a19-9a1b-75f686e56761"},"vehicle_type_id":"4","last_reported":1751526699,"current_range_meters":19600,"station_id":"ce4bhkp2rcd13ifvqgd0","pricing_plan_id":"cebpf4jnsgd1na2vs0mg"},{"bike_id":"258e06e3-3029-479c-8c19-6d13755f8b08","system_id":"levelo_inurba_marseille","lat":43.25935,"lon":5.40907,"is_reserved":false,"is_disabled":false,"rental_uris":{"android":"levelo://app?vid=258e06e3-3029-479c-8c19-6d13755f8b08","ios":"levelo://app?vid=258e06e3-3029-479c-8c19-6d13755f8b08"},"vehicle_type_id":"4","last_reported":1751526699,"current_range_meters":19600,"station_id":"ce4bhm92rcd13ifvqglg","pricing_plan_id":"cebpf4jnsgd1na2vs0mg"},{"bike_id":"5ecbe7d9-b835-47e3-87d6-0fd67017673c","system_id":"levelo_inurba_marseille","lat":43.32115,"lon":5.367803,"is_reserved":false,"is_disabled":false,"rental_uris":{"android":"levelo://app?vid=5ecbe7d9-b835-47e3-87d6-0fd67017673c","ios":"levelo://app?vid=5ecbe7d9-b835-47e3-87d6-0fd67017673c"},"vehicle_type_id":"4","last_reported":1751526699,"current_range_meters":19600,"station_id":"ce4bhrh2rcd13ifvqhug","pricing_plan_id":"cebpf4jnsgd1na2vs0mg"},{"bike_id":"5f1e5526-9ff8-4075-8194-48a897f058b4","system_id":"levelo_inurba_marseille","lat":43.21212,"lon":5.35081,"is_reserved":false,"is_disabled":false,"rental_uris":{"android":"levelo://app?vid=5f1e5526-9ff8-4075-8194-48a897f058b4","ios":"levelo://app?vid=5f1e5526-9ff8-4075-8194-48a897f058b4"},"vehicle_type_id":"4","last_reported":1751526699,"current_range_meters":19600,"station_id":"st_cvj6sg6p6f1abm77japg","pricing_plan_id":"cebpf4jnsgd1na2vs0mg"},{"bike_id":"0842b60a-2aa4-435e-9c3c-52a922da68f4","system_id":"levelo_inurba_marseille","lat":43.31166,"lon":5.38718,"is_reserved":false,"is_disabled":false,"rental_uris":{"android":"levelo://app?vid=0842b60a-2aa4-435e-9c3c-52a922da68f4","ios":"levelo://app?vid=0842b60a-2aa4-435e-9c3c-52a922da68f4"},"vehicle_type_id":"4","last_reported":1751526699,"current_range_meters":20000,"station_id":"","pricing_plan_id":"cebpf4jnsgd1na2vs0mg"},{"bike_id":"5ecf3c9f-b915-4df6-9850-6ed4dc9b5c17","system_id":"levelo_inurba_marseille","lat":43.31358,"lon":5.36708,"is_reserved":false,"is_disabled":false,"rental_uris":{"android":"levelo://app?vid=5ecf3c9f-b915-4df6-9850-6ed4dc9b5c17","ios":"levelo://app?vid=5ecf3c9f-b915-4df6-9850-6ed4dc9b5c17"},"vehicle_type_id":"4","last_reported":1751526699,"current_range_meters":20000,"station_id":"ce4bgr92rcd13ifvqc6g","pricing_plan_id":"cebpf4jnsgd1na2vs0mg"},{"bike_id":"e9d26c79-d78f-4002-bc79-c4aa63e66364","system_id":"levelo_inurba_marseille","lat":43.311787,"lon":5.38717,"is_reserved":false,"is_disabled":false,"rental_uris":{"android":"levelo://app?vid=e9d26c79-d78f-4002-bc79-c4aa63e66364","ios":"levelo://app?vid=e9d26c79-d78f-4002-bc79-c4aa63e66364"},"vehicle_type_id":"4","last_reported":1751526699,"current_range_meters":20000,"station_id":"ce4bgv12rcd13ifvqcp0","pricing_plan_id":"cebpf4jnsgd1na2vs0mg"},{"bike_id":"08e81811-c9ab-430d-a98b-a4424b37dd49","system_id":"levelo_inurba_marseille","lat":43.295584,"lon":5.422902,"is_reserved":false,"is_disabled":false,"rental_uris":{"android":"levelo://app?vid=08e81811-c9ab-430d-a98b-a4424b37dd49","ios":"levelo://app?vid=08e81811-c9ab-430d-a98b-a4424b37dd49"},"vehicle_type_id":"4","last_reported":1751526699,"current_range_meters":20000,"station_id":"ce4bhph2rcd13ifvqhdg","pricing_plan_id":"cebpf4jnsgd1na2vs0mg"},{"bike_id":"32c0fc37-6823-41d0-9497-8d1eea24742c","system_id":"levelo_inurba_marseille","lat":43.241684,"lon":5.36399,"is_reserved":false,"is_disabled":false,"rental_uris":{"android":"levelo://app?vid=32c0fc37-6823-41d0-9497-8d1eea24742c","ios":"levelo://app?vid=32c0fc37-6823-41d0-9497-8d1eea24742c"},"vehicle_type_id":"4","last_reported":1751526699,"current_range_meters":20000,"station_id":"cpo36qri1sfpv3e86is0","pricing_plan_id":"cebpf4jnsgd1na2vs0mg"},{"bike_id":"3eabe1e2-f9f5-41cb-a4ed-73ca7f909c5c","system_id":"levelo_inurba_marseille","lat":43.2119,"lon":5.3507,"is_reserved":false,"is_disabled":false,"rental_uris":{"android":"levelo://app?vid=3eabe1e2-f9f5-41cb-a4ed-73ca7f909c5c","ios":"levelo://app?vid=3eabe1e2-f9f5-41cb-a4ed-73ca7f909c5c"},"vehicle_type_id":"4","last_reported":1751526699,"current_range_meters":20000,"station_id":"st_cvj6sg6p6f1abm77japg","pricing_plan_id":"cebpf4jnsgd1na2vs0mg"},{"bike_id":"ba926bfc-9632-4680-b0ed-32a040d6fb83","system_id":"levelo_inurba_marseille","lat":43.211889,"lon":5.350722,"is_reserved":false,"is_disabled":false,"rental_uris":{"android":"levelo://app?vid=ba926bfc-9632-4680-b0ed-32a040d6fb83","ios":"levelo://app?vid=ba926bfc-9632-4680-b0ed-32a040d6fb83"},"vehicle_type_id":"4","last_reported":1751526699,"current_range_meters":20000,"station_id":"st_cvj6sg6p6f1abm77japg","pricing_plan_id":"cebpf4jnsgd1na2vs0mg"},{"bike_id":"b13877a6-4825-4d82-b46b-67fa8ad66c5d","system_id":"levelo_inurba_marseille","lat":43.21189,"lon":5.35071,"is_reserved":false,"is_disabled":false,"rental_uris":{"android":"levelo://app?vid=b13877a6-4825-4d82-b46b-67fa8ad66c5d","ios":"levelo://app?vid=b13877a6-4825-4d82-b46b-67fa8ad66c5d"},"vehicle_type_id":"4","last_reported":1751526699,"current_range_meters":20000,"station_id":"st_cvj6sg6p6f1abm77japg","pricing_plan_id":"cebpf4jnsgd1na2vs0mg"},{"bike_id":"7712491c-e18b-4b09-bb79-30880b357c07","system_id":"levelo_inurba_marseille","lat":43.21174,"lon":5.35089,"is_reserved":false,"is_disabled":false,"rental_uris":{"android":"levelo://app?vid=7712491c-e18b-4b09-bb79-30880b357c07","ios":"levelo://app?vid=7712491c-e18b-4b09-bb79-30880b357c07"},"vehicle_type_id":"4","last_reported":1751526699,"current_range_meters":20000,"station_id":"st_cvj6sg6p6f1abm77japg","pricing_plan_id":"cebpf4jnsgd1na2vs0mg"},{"bike_id":"63acad33-6ce0-4879-bb8b-7b4910bd10f3","system_id":"levelo_inurba_marseille","lat":43.24783,"lon":5.41177,"is_reserved":false,"is_disabled":false,"rental_uris":{"android":"levelo://app?vid=63acad33-6ce0-4879-bb8b-7b4910bd10f3","ios":"levelo://app?vid=63acad33-6ce0-4879-bb8b-7b4910bd10f3"},"vehicle_type_id":"4","last_reported":1751526699,"current_range_meters":20400,"station_id":"","pricing_plan_id":"cebpf4jnsgd1na2vs0mg"},{"bike_id":"629b443c-0cb5-42aa-9800-6d574d04223d","system_id":"levelo_inurba_marseille","lat":43.3056,"lon":5.36555,"is_reserved":false,"is_disabled":false,"rental_uris":{"android":"levelo://app?vid=629b443c-0cb5-42aa-9800-6d574d04223d","ios":"levelo://app?vid=629b443c-0cb5-42aa-9800-6d574d04223d"},"vehicle_type_id":"4","last_reported":1751526699,"current_range_meters":20400,"station_id":"ce4bgs12rcd13ifvqcag","pricing_plan_id":"cebpf4jnsgd1na2vs0mg"},{"bike_id":"add76cf8-2ba9-4c2d-b4db-eefa728e0f0e","system_id":"levelo_inurba_marseille","lat":43.2587,"lon":5.39895,"is_reserved":false,"is_disabled":false,"rental_uris":{"android":"levelo://app?vid=add76cf8-2ba9-4c2d-b4db-eefa728e0f0e","ios":"levelo://app?vid=add76cf8-2ba9-4c2d-b4db-eefa728e0f0e"},"vehicle_type_id":"4","last_reported":1751526699,"current_range_meters":20400,"station_id":"ce4bhl92rcd13ifvqghg","pricing_plan_id":"cebpf4jnsgd1na2vs0mg"},{"bike_id":"b722e8a7-1051-4fbf-af96-e7459a81779e","system_id":"levelo_inurba_marseille","lat":43.242816,"lon":5.396726,"is_reserved":false,"is_disabled":false,"rental_uris":{"android":"levelo://app?vid=b722e8a7-1051-4fbf-af96-e7459a81779e","ios":"levelo://app?vid=b722e8a7-1051-4fbf-af96-e7459a81779e"},"vehicle_type_id":"4","last_reported":1751526699,"current_range_meters":20800,"station_id":"","pricing_plan_id":"cebpf4jnsgd1na2vs0mg"},{"bike_id":"212a4479-05f7-4386-96e9-534e9fbd1d73","system_id":"levelo_inurba_marseille","lat":43.313315,"lon":5.396918,"is_reserved":false,"is_disabled":false,"rental_uris":{"android":"levelo://app?vid=212a4479-05f7-4386-96e9-534e9fbd1d73","ios":"levelo://app?vid=212a4479-05f7-4386-96e9-534e9fbd1d73"},"vehicle_type_id":"4","last_reported":1751526699,"current_range_meters":20800,"station_id":"ce4bgvp2rcd13ifvqcu0","pricing_plan_id":"cebpf4jnsgd1na2vs0mg"},{"bike_id":"647de50f-83fd-4f5a-ab74-429887952e6d","system_id":"levelo_inurba_marseille","lat":43.28988,"lon":5.37874,"is_reserved":false,"is_disabled":false,"rental_uris":{"android":"levelo://app?vid=647de50f-83fd-4f5a-ab74-429887952e6d","ios":"levelo://app?vid=647de50f-83fd-4f5a-ab74-429887952e6d"},"vehicle_type_id":"4","last_reported":1751526699,"current_range_meters":20800,"station_id":"ce4bh9p2rcd13ifvqed0","pricing_plan_id":"cebpf4jnsgd1na2vs0mg"},{"bike_id":"f7ce2d00-f353-4ba4-b6be-58a45a5dcf21","system_id":"levelo_inurba_marseille","lat":43.2955,"lon":5.42269,"is_reserved":false,"is_disabled":false,"rental_uris":{"android":"levelo://app?vid=f7ce2d00-f353-4ba4-b6be-58a45a5dcf21","ios":"levelo://app?vid=f7ce2d00-f353-4ba4-b6be-58a45a5dcf21"},"vehicle_type_id":"4","last_reported":1751526699,"current_range_meters":20800,"station_id":"ce4bhph2rcd13ifvqhdg","pricing_plan_id":"cebpf4jnsgd1na2vs0mg"},{"bike_id":"8fcf9785-eaa7-404c-9e4b-30bc240668e8","system_id":"levelo_inurba_marseille","lat":43.324731,"lon":5.365892,"is_reserved":false,"is_disabled":false,"rental_uris":{"android":"levelo://app?vid=8fcf9785-eaa7-404c-9e4b-30bc240668e8","ios":"levelo://app?vid=8fcf9785-eaa7-404c-9e4b-30bc240668e8"},"vehicle_type_id":"4","last_reported":1751526699,"current_range_meters":20800,"station_id":"ce4bhs12rcd13ifvqhvg","pricing_plan_id":"cebpf4jnsgd1na2vs0mg"},{"bike_id":"b3d7a6ac-4ad8-404e-91ae-53d96dbbd9fb","system_id":"levelo_inurba_marseille","lat":43.21224,"lon":5.3509,"is_reserved":false,"is_disabled":false,"rental_uris":{"android":"levelo://app?vid=b3d7a6ac-4ad8-404e-91ae-53d96dbbd9fb","ios":"levelo://app?vid=b3d7a6ac-4ad8-404e-91ae-53d96dbbd9fb"},"vehicle_type_id":"4","last_reported":1751526699,"current_range_meters":20800,"station_id":"st_cvj6sg6p6f1abm77japg","pricing_plan_id":"cebpf4jnsgd1na2vs0mg"},{"bike_id":"39fa5f31-4afa-4271-a36e-400e3970d6f0","system_id":"levelo_inurba_marseille","lat":43.30373,"lon":5.37597,"is_reserved":false,"is_disabled":false,"rental_uris":{"android":"levelo://app?vid=39fa5f31-4afa-4271-a36e-400e3970d6f0","ios":"levelo://app?vid=39fa5f31-4afa-4271-a36e-400e3970d6f0"},"vehicle_type_id":"4","last_reported":1751526699,"current_range_meters":21600,"station_id":"","pricing_plan_id":"cebpf4jnsgd1na2vs0mg"},{"bike_id":"8734bc42-361e-4c72-9212-27e99f10c61f","system_id":"levelo_inurba_marseille","lat":43.27385,"lon":5.42782,"is_reserved":false,"is_disabled":false,"rental_uris":{"android":"levelo://app?vid=8734bc42-361e-4c72-9212-27e99f10c61f","ios":"levelo://app?vid=8734bc42-361e-4c72-9212-27e99f10c61f"},"vehicle_type_id":"4","last_reported":1751526699,"current_range_meters":21600,"station_id":"","pricing_plan_id":"cebpf4jnsgd1na2vs0mg"},{"bike_id":"c0a8a4c1-6343-4ecd-9257-79f5909e6fd2","system_id":"levelo_inurba_marseille","lat":43.28483,"lon":5.38556,"is_reserved":false,"is_disabled":false,"rental_uris":{"android":"levelo://app?vid=c0a8a4c1-6343-4ecd-9257-79f5909e6fd2","ios":"levelo://app?vid=c0a8a4c1-6343-4ecd-9257-79f5909e6fd2"},