{"last_updated":1762945774,"ttl":60,"version":"2.2","data":{"bikes":[{"bike_id":"d7db12ce-11cc-4c98-8751-ac59baa5d7aa","system_id":"levelo_inurba_marseille","lat":43.337444,"lon":5.374475,"is_reserved":false,"is_disabled":false,"rental_uris":{"android":"levelo://app?vid=d7db12ce-11cc-4c98-8751-ac59baa5d7aa","ios":"levelo://app?vid=d7db12ce-11cc-4c98-8751-ac59baa5d7aa"},"vehicle_type_id":"4","last_reported":1762945774,"current_range_meters":0,"station_id":"","pricing_plan_id":"cebpf4jnsgd1na2vs0mg"},{"bike_id":"0803f029-cd32-4422-898d-71366301b775","system_id":"levelo_inurba_marseille","lat":43.27977,"lon":5.3874,"is_reserved":false,"is_disabled":false,"rental_uris":{"android":"levelo://app?vid=0803f029-cd32-4422-898d-71366301b775","ios":"levelo://app?vid=0803f029-cd32-4422-898d-71366301b775"},"vehicle_type_id":"4","last_reported":1762945774,"current_range_meters":2800,"station_id":"ce4bhg12rcd13ifvqf80","pricing_plan_id":"cebpf4jnsgd1na2vs0mg"},{"bike_id":"9092fc00-eef7-423d-a59c-74cb83e8fcb4","system_id":"levelo_inurba_marseille","lat":43.30135,"lon":5.39878,"is_reserved":false,"is_disabled":false,"rental_uris":{"android":"levelo://app?vid=9092fc00-eef7-423d-a59c-74cb83e8fcb4","ios":"levelo://app?vid=9092fc00-eef7-423d-a59c-74cb83e8fcb4"},"vehicle_type_id":"4","last_reported":1762945774,"current_range_meters":2800,"station_id":"ce4bh0h2rcd13ifvqd40","pricing_plan_id":"cebpf4jnsgd1na2vs0mg"},{"bike_id":"73177cfa-5136-451e-b441-b50ac15f6f39","system_id":"levelo_inurba_marseille","lat":43.28376,"lon":5.3878,"is_reserved":false,"is_disabled":false,"rental_uris":{"android":"levelo://app?vid=73177cfa-5136-451e-b441-b50ac15f6f39","ios":"levelo://app?vid=73177cfa-5136-451e-b441-b50ac15f6f39"},"vehicle_type_id":"4","last_reported":1762945774,"current_range_meters":3200,"station_id":"","pricing_plan_id":"cebpf4jnsgd1na2vs0mg"},{"bike_id":"fae26f48-1c53-4686-92c7-8eed3fede49c","system_id":"levelo_inurba_marseille","lat":43.28107,"lon":5.37835,"is_reserved":false,"is_disabled":false,"rental_uris":{"android":"levelo://app?vid=fae26f48-1c53-4686-92c7-8eed3fede49c","ios":"levelo://app?vid=fae26f48-1c53-4686-92c7-8eed3fede49c"},"vehicle_type_id":"4","last_reported":1762945774,"current_range_meters":3600,"station_id":"ce4bha12rcd13ifvqee0","pricing_plan_id":"cebpf4jnsgd1na2vs0mg"},{"bike_id":"732c07ff-518b-45bc-8bdd-6de8f8ade45f","system_id":"levelo_inurba_marseille","lat":43.29238,"lon":5.38251,"is_reserved":false,"is_disabled":false,"rental_uris":{"android":"levelo://app?vid=732c07ff-518b-45bc-8bdd-6de8f8ade45f","ios":"levelo://app?vid=732c07ff-518b-45bc-8bdd-6de8f8ade45f"},"vehicle_type_id":"4","last_reported":1762945774,"current_range_meters":3600,"station_id":"","pricing_plan_id":"cebpf4jnsgd1na2vs0mg"},{"bike_id":"a08d62f8-8b0a-44fb-929b-178dd1e92bc6","system_id":"levelo_inurba_marseille","lat":43.292716,"lon":5.384302,"is_reserved":false,"is_disabled":false,"rental_uris":{"android":"levelo://app?vid=a08d62f8-8b0a-44fb-929b-178dd1e92bc6","ios":"levelo://app?vid=a08d62f8-8b0a-44fb-929b-178dd1e92bc6"},"vehicle_type_id":"4","last_reported":1762945774,"current_range_meters":3600,"station_id":"ce4bh692rcd13ifvqea0","pricing_plan_id":"cebpf4jnsgd1na2vs0mg"},{"bike_id":"35bddfb7-ad7b-4f5e-95ca-31a8c0ec7895","system_id":"levelo_inurba_marseille","lat":43.24659,"lon":5.3816,"is_reserved":false,"is_disabled":false,"rental_uris":{"android":"levelo://app?vid=35bddfb7-ad7b-4f5e-95ca-31a8c0ec7895","ios":"levelo://app?vid=35bddfb7-ad7b-4f5e-95ca-31a8c0ec7895"},"vehicle_type_id":"4","last_reported":1762945774,"current_range_meters":3600,"station_id":"ce4bhih2rcd13ifvqfr0","pricing_plan_id":"cebpf4jnsgd1na2vs0mg"},{"bike_id":"b2be4fa2-44ee-40dc-acc7-1755c74f1c5d","system_id":"levelo_inurba_marseille","lat":43.297533,"lon":5.411038,"is_reserved":false,"is_disabled":false,"rental_uris":{"android":"levelo://app?vid=b2be4fa2-44ee-40dc-acc7-1755c74f1c5d","ios":"levelo://app?vid=b2be4fa2-44ee-40dc-acc7-1755c74f1c5d"},"vehicle_type_id":"4","last_reported":1762945774,"current_range_meters":3600,"station_id":"","pricing_plan_id":"cebpf4jnsgd1na2vs0mg"},{"bike_id":"349b2ad9-adea-4dd9-9ac9-fffb121b5424","system_id":"levelo_inurba_marseille","lat":43.29892,"lon":5.37537,"is_reserved":false,"is_disabled":false,"rental_uris":{"android":"levelo://app?vid=349b2ad9-adea-4dd9-9ac9-fffb121b5424","ios":"levelo://app?vid=349b2ad9-adea-4dd9-9ac9-fffb121b5424"},"vehicle_type_id":"4","last_reported":1762945774,"current_range_meters":4400,"station_id":"","pricing_plan_id":"cebpf4jnsgd1na2vs0mg"},{"bike_id":"5650ad9b-fa1c-43cc-945f-5dcfcd095c2c","system_id":"levelo_inurba_marseille","lat":43.30098,"lon":5.39057,"is_reserved":false,"is_disabled":false,"rental_uris":{"android":"levelo://app?vid=5650ad9b-fa1c-43cc-945f-5dcfcd095c2c","ios":"levelo://app?vid=5650ad9b-fa1c-43cc-945f-5dcfcd095c2c"},"vehicle_type_id":"4","last_reported":1762945774,"current_range_meters":4800,"station_id":"ce4bh192rcd13ifvqdb0","pricing_plan_id":"cebpf4jnsgd1na2vs0mg"},{"bike_id":"a0bfeccf-a703-4ce9-ba77-0d47533bc391","system_id":"levelo_inurba_marseille","lat":43.23176,"lon":5.3999,"is_reserved":false,"is_disabled":false,"rental_uris":{"android":"levelo://app?vid=a0bfeccf-a703-4ce9-ba77-0d47533bc391","ios":"levelo://app?vid=a0bfeccf-a703-4ce9-ba77-0d47533bc391"},"vehicle_type_id":"4","last_reported":1762945774,"current_range_meters":4800,"station_id":"ce4bhn12rcd13ifvqgqg","pricing_plan_id":"cebpf4jnsgd1na2vs0mg"},{"bike_id":"a714915f-aff3-456a-ac83-82a945eab060","system_id":"levelo_inurba_marseille","lat":43.29758,"lon":5.42778,"is_reserved":false,"is_disabled":false,"rental_uris":{"android":"levelo://app?vid=a714915f-aff3-456a-ac83-82a945eab060","ios":"levelo://app?vid=a714915f-aff3-456a-ac83-82a945eab060"},"vehicle_type_id":"4","last_reported":1762945774,"current_range_meters":4800,"station_id":"st_d3md5207bmas73dh9klg","pricing_plan_id":"cebpf4jnsgd1na2vs0mg"},{"bike_id":"375d4787-7c30-41c9-90f9-ec9402419854","system_id":"levelo_inurba_marseille","lat":43.25582,"lon":5.38232,"is_reserved":false,"is_disabled":false,"rental_uris":{"android":"levelo://app?vid=375d4787-7c30-41c9-90f9-ec9402419854","ios":"levelo://app?vid=375d4787-7c30-41c9-90f9-ec9402419854"},"vehicle_type_id":"4","last_reported":1762945774,"current_range_meters":4800,"station_id":"ce4bhih2rcd13ifvqfs0","pricing_plan_id":"cebpf4jnsgd1na2vs0mg"},{"bike_id":"c620c9fc-398f-4dca-8fdd-2b652311235d","system_id":"levelo_inurba_marseille","lat":43.21209,"lon":5.35077,"is_reserved":false,"is_disabled":true,"rental_uris":{"android":"levelo://app?vid=c620c9fc-398f-4dca-8fdd-2b652311235d","ios":"levelo://app?vid=c620c9fc-398f-4dca-8fdd-2b652311235d"},"vehicle_type_id":"4","last_reported":1762945774,"current_range_meters":5600,"station_id":"st_cvj6sg6p6f1abm77japg","pricing_plan_id":"cebpf4jnsgd1na2vs0mg"},{"bike_id":"622a2e1c-aecb-4a5f-aed6-5021690689ad","system_id":"levelo_inurba_marseille","lat":43.29173,"lon":5.37165,"is_reserved":false,"is_disabled":false,"rental_uris":{"android":"levelo://app?vid=622a2e1c-aecb-4a5f-aed6-5021690689ad","ios":"levelo://app?vid=622a2e1c-aecb-4a5f-aed6-5021690689ad"},"vehicle_type_id":"4","last_reported":1762945774,"current_range_meters":6000,"station_id":"ce4bha92rcd13ifvqeh0","pricing_plan_id":"cebpf4jnsgd1na2vs0mg"},{"bike_id":"16352e7f-c034-4ef1-8a6e-b54abc767aa3","system_id":"levelo_inurba_marseille","lat":43.30862,"lon":5.37582,"is_reserved":false,"is_disabled":false,"rental_uris":{"android":"levelo://app?vid=16352e7f-c034-4ef1-8a6e-b54abc767aa3","ios":"levelo://app?vid=16352e7f-c034-4ef1-8a6e-b54abc767aa3"},"vehicle_type_id":"4","last_reported":1762945774,"current_range_meters":6000,"station_id":"","pricing_plan_id":"cebpf4jnsgd1na2vs0mg"},{"bike_id":"4a15124c-7475-4477-ac8e-aac9fa13937b","system_id":"levelo_inurba_marseille","lat":43.26556,"lon":5.37285,"is_reserved":false,"is_disabled":false,"rental_uris":{"android":"levelo://app?vid=4a15124c-7475-4477-ac8e-aac9fa13937b","ios":"levelo://app?vid=4a15124c-7475-4477-ac8e-aac9fa13937b"},"vehicle_type_id":"4","last_reported":1762945774,"current_range_meters":6400,"station_id":"ce4bhg12rcd13ifvqf70","pricing_plan_id":"cebpf4jnsgd1na2vs0mg"},{"bike_id":"d14a3070-960e-421d-b5dc-419b8cc88005","system_id":"levelo_inurba_marseille","lat":43.31544,"lon":5.37432,"is_reserved":false,"is_disabled":false,"rental_uris":{"android":"levelo://app?vid=d14a3070-960e-421d-b5dc-419b8cc88005","ios":"levelo://app?vid=d14a3070-960e-421d-b5dc-419b8cc88005"},"vehicle_type_id":"4","last_reported":1762945774,"current_range_meters":6400,"station_id":"","pricing_plan_id":"cebpf4jnsgd1na2vs0mg"},{"bike_id":"316dc40c-9cc9-4eda-b732-d65dbcb711b1","system_id":"levelo_inurba_marseille","lat":43.30802,"lon":5.38159,"is_reserved":false,"is_disabled":false,"rental_uris":{"android":"levelo://app?vid=316dc40c-9cc9-4eda-b732-d65dbcb711b1","ios":"levelo://app?vid=316dc40c-9cc9-4eda-b732-d65dbcb711b1"},"vehicle_type_id":"4","last_reported":1762945774,"current_range_meters":6800,"station_id":"ce4bgt12rcd13ifvqce0","pricing_plan_id":"cebpf4jnsgd1na2vs0mg"},{"bike_id":"1bef32cb-7d1e-4303-a020-1532c28fd3d9","system_id":"levelo_inurba_marseille","lat":43.29556,"lon":5.42279,"is_reserved":false,"is_disabled":false,"rental_uris":{"android":"levelo://app?vid=1bef32cb-7d1e-4303-a020-1532c28fd3d9","ios":"levelo://app?vid=1bef32cb-7d1e-4303-a020-1532c28fd3d9"},"vehicle_type_id":"4","last_reported":1762945774,"current_range_meters":6800,"station_id":"ce4bhph2rcd13ifvqhdg","pricing_plan_id":"cebpf4jnsgd1na2vs0mg"},{"bike_id":"e0467342-2ee8-4c36-aeb9-27d25d94ead5","system_id":"levelo_inurba_marseille","lat":43.281582,"lon":5.426169,"is_reserved":false,"is_disabled":true,"rental_uris":{"android":"levelo://app?vid=e0467342-2ee8-4c36-aeb9-27d25d94ead5","ios":"levelo://app?vid=e0467342-2ee8-4c36-aeb9-27d25d94ead5"},"vehicle_type_id":"4","last_reported":1762945774,"current_range_meters":6800,"station_id":"ce4bhnh2rcd13ifvqgug","pricing_plan_id":"cebpf4jnsgd1na2vs0mg"},{"bike_id":"fba08296-4cea-424b-b18c-d8e4aa9fb0a8","system_id":"levelo_inurba_marseille","lat":43.31062,"lon":5.38348,"is_reserved":false,"is_disabled":false,"rental_uris":{"android":"levelo://app?vid=fba08296-4cea-424b-b18c-d8e4aa9fb0a8","ios":"levelo://app?vid=fba08296-4cea-424b-b18c-d8e4aa9fb0a8"},"vehicle_type_id":"4","last_reported":1762945774,"current_range_meters":7200,"station_id":"ce4bgv92rcd13ifvqcr0","pricing_plan_id":"cebpf4jnsgd1na2vs0mg"},{"bike_id":"f210c5d9-e6c9-4a47-a92c-7d32d99c058f","system_id":"levelo_inurba_marseille","lat":43.303512,"lon":5.39697,"is_reserved":false,"is_disabled":false,"rental_uris":{"android":"levelo://app?vid=f210c5d9-e6c9-4a47-a92c-7d32d99c058f","ios":"levelo://app?vid=f210c5d9-e6c9-4a47-a92c-7d32d99c058f"},"vehicle_type_id":"4","last_reported":1762945774,"current_range_meters":7200,"station_id":"","pricing_plan_id":"cebpf4jnsgd1na2vs0mg"},{"bike_id":"1c60d621-3149-424a-bb47-4cb268c0fdad","system_id":"levelo_inurba_marseille","lat":43.28489,"lon":5.3841,"is_reserved":false,"is_disabled":false,"rental_uris":{"android":"levelo://app?vid=1c60d621-3149-424a-bb47-4cb268c0fdad","ios":"levelo://app?vid=1c60d621-3149-424a-bb47-4cb268c0fdad"},"vehicle_type_id":"4","last_reported":1762945774,"current_range_meters":7200,"station_id":"ce4bh512rcd13ifvqe3g","pricing_plan_id":"cebpf4jnsgd1na2vs0mg"},{"bike_id":"62a14efb-5f7a-4e0d-bbfa-d4a60d07f475","system_id":"levelo_inurba_marseille","lat":43.29785,"lon":5.37272,"is_reserved":false,"is_disabled":false,"rental_uris":{"android":"levelo://app?vid=62a14efb-5f7a-4e0d-bbfa-d4a60d07f475","ios":"levelo://app?vid=62a14efb-5f7a-4e0d-bbfa-d4a60d07f475"},"vehicle_type_id":"4","last_reported":1762945774,"current_range_meters":8000,"station_id":"","pricing_plan_id":"cebpf4jnsgd1na2vs0mg"},{"bike_id":"b1912dc6-562a-409a-b346-1626d61f3a69","system_id":"levelo_inurba_marseille","lat":43.25585,"lon":5.38222,"is_reserved":false,"is_disabled":true,"rental_uris":{"android":"levelo://app?vid=b1912dc6-562a-409a-b346-1626d61f3a69","ios":"levelo://app?vid=b1912dc6-562a-409a-b346-1626d61f3a69"},"vehicle_type_id":"4","last_reported":1762945774,"current_range_meters":8000,"station_id":"ce4bhih2rcd13ifvqfs0","pricing_plan_id":"cebpf4jnsgd1na2vs0mg"},{"bike_id":"26df9c9c-2568-4f93-9447-55913126101e","system_id":"levelo_inurba_marseille","lat":43.25504,"lon":5.3765,"is_reserved":false,"is_disabled":false,"rental_uris":{"android":"levelo://app?vid=26df9c9c-2568-4f93-9447-55913126101e","ios":"levelo://app?vid=26df9c9c-2568-4f93-9447-55913126101e"},"vehicle_type_id":"4","last_reported":1762945774,"current_range_meters":8400,"station_id":"ce4bhh12rcd13ifvqff0","pricing_plan_id":"cebpf4jnsgd1na2vs0mg"},{"bike_id":"5fa641d4-bd6a-44b7-aa72-76bcc2af08c8","system_id":"levelo_inurba_marseille","lat":43.33606,"lon":5.4103,"is_reserved":false,"is_disabled":false,"rental_uris":{"android":"levelo://app?vid=5fa641d4-bd6a-44b7-aa72-76bcc2af08c8","ios":"levelo://app?vid=5fa641d4-bd6a-44b7-aa72-76bcc2af08c8"},"vehicle_type_id":"4","last_reported":1762945774,"current_range_meters":8800,"station_id":"ce4bhqh2rcd13ifvqhmg","pricing_plan_id":"cebpf4jnsgd1na2vs0mg"},{"bike_id":"9aab732d-99d8-458a-aff5-1ef833353481","system_id":"levelo_inurba_marseille","lat":43.29838,"lon":5.3776,"is_reserved":false,"is_disabled":false,"rental_uris":{"android":"levelo://app?vid=9aab732d-99d8-458a-aff5-1ef833353481","ios":"levelo://app?vid=9aab732d-99d8-458a-aff5-1ef833353481"},"vehicle_type_id":"4","last_reported":1762945774,"current_range_meters":8800,"station_id":"","pricing_plan_id":"cebpf4jnsgd1na2vs0mg"},{"bike_id":"38c922e6-37cd-47dc-af88-f07475112c2a","system_id":"levelo_inurba_marseille","lat":43.3216,"lon":5.38848,"is_reserved":false,"is_disabled":false,"rental_uris":{"android":"levelo://app?vid=38c922e6-37cd-47dc-af88-f07475112c2a","ios":"levelo://app?vid=38c922e6-37cd-47dc-af88-f07475112c2a"},"vehicle_type_id":"4","last_reported":1762945774,"current_range_meters":8800,"station_id":"","pricing_plan_id":"cebpf4jnsgd1na2vs0mg"},{"bike_id":"a36468ef-15b3-42a6-a735-a7fe996982cb","system_id":"levelo_inurba_marseille","lat":43.25003,"lon":5.38923,"is_reserved":false,"is_disabled":false,"rental_uris":{"android":"levelo://app?vid=a36468ef-15b3-42a6-a735-a7fe996982cb","ios":"levelo://app?vid=a36468ef-15b3-42a6-a735-a7fe996982cb"},"vehicle_type_id":"4","last_reported":1762945774,"current_range_meters":8800,"station_id":"ce4bhgp2rcd13ifvqfd0","pricing_plan_id":"cebpf4jnsgd1na2vs0mg"},{"bike_id":"57344aee-c149-49f5-993e-386a5986841c","system_id":"levelo_inurba_marseille","lat":43.25514,"lon":5.37652,"is_reserved":false,"is_disabled":false,"rental_uris":{"android":"levelo://app?vid=57344aee-c149-49f5-993e-386a5986841c","ios":"levelo://app?vid=57344aee-c149-49f5-993e-386a5986841c"},"vehicle_type_id":"4","last_reported":1762945774,"current_range_meters":8800,"station_id":"ce4bhh12rcd13ifvqff0","pricing_plan_id":"cebpf4jnsgd1na2vs0mg"},{"bike_id":"b41e24d8-65c5-426b-bb45-4cabc1a8ec44","system_id":"levelo_inurba_marseille","lat":43.29627,"lon":5.37706,"is_reserved":false,"is_disabled":true,"rental_uris":{"android":"levelo://app?vid=b41e24d8-65c5-426b-bb45-4cabc1a8ec44","ios":"levelo://app?vid=b41e24d8-65c5-426b-bb45-4cabc1a8ec44"},"vehicle_type_id":"4","last_reported":1762945774,"current_range_meters":8800,"station_id":"ce4bgi92rcd13ifvqb90","pricing_plan_id":"cebpf4jnsgd1na2vs0mg"},{"bike_id":"da5a0705-b417-458e-b369-f4ba435d4595","system_id":"levelo_inurba_marseille","lat":43.26575,"lon":5.40366,"is_reserved":false,"is_disabled":false,"rental_uris":{"android":"levelo://app?vid=da5a0705-b417-458e-b369-f4ba435d4595","ios":"levelo://app?vid=da5a0705-b417-458e-b369-f4ba435d4595"},"vehicle_type_id":"4","last_reported":1762945774,"current_range_meters":8800,"station_id":"ce4bhmp2rcd13ifvqgng","pricing_plan_id":"cebpf4jnsgd1na2vs0mg"},{"bike_id":"76e78a7b-8d92-4162-a9d1-9add7f8f8e02","system_id":"levelo_inurba_marseille","lat":43.28487,"lon":5.38413,"is_reserved":false,"is_disabled":false,"rental_uris":{"android":"levelo://app?vid=76e78a7b-8d92-4162-a9d1-9add7f8f8e02","ios":"levelo://app?vid=76e78a7b-8d92-4162-a9d1-9add7f8f8e02"},"vehicle_type_id":"4","last_reported":1762945774,"current_range_meters":8800,"station_id":"ce4bh512rcd13ifvqe3g","pricing_plan_id":"cebpf4jnsgd1na2vs0mg"},{"bike_id":"7139c887-e7c6-4515-957e-38ef1878f97d","system_id":"levelo_inurba_marseille","lat":43.25002,"lon":5.38935,"is_reserved":false,"is_disabled":false,"rental_uris":{"android":"levelo://app?vid=7139c887-e7c6-4515-957e-38ef1878f97d","ios":"levelo://app?vid=7139c887-e7c6-4515-957e-38ef1878f97d"},"vehicle_type_id":"4","last_reported":1762945774,"current_range_meters":9200,"station_id":"ce4bhgp2rcd13ifvqfd0","pricing_plan_id":"cebpf4jnsgd1na2vs0mg"},{"bike_id":"bb876394-8105-4de4-a1e8-77f82eee2e26","system_id":"levelo_inurba_marseille","lat":43.21747,"lon":5.34604,"is_reserved":false,"is_disabled":false,"rental_uris":{"android":"levelo://app?vid=bb876394-8105-4de4-a1e8-77f82eee2e26","ios":"levelo://app?vid=bb876394-8105-4de4-a1e8-77f82eee2e26"},"vehicle_type_id":"4","last_reported":1762945774,"current_range_meters":9200,"station_id":"st_cvj6r9ubvosntc0bgbag","pricing_plan_id":"cebpf4jnsgd1na2vs0mg"},{"bike_id":"ff8de279-f78c-4abd-86e8-3044346ccc6d","system_id":"levelo_inurba_marseille","lat":43.28701,"lon":5.39984,"is_reserved":false,"is_disabled":false,"rental_uris":{"android":"levelo://app?vid=ff8de279-f78c-4abd-86e8-3044346ccc6d","ios":"levelo://app?vid=ff8de279-f78c-4abd-86e8-3044346ccc6d"},"vehicle_type_id":"4","last_reported":1762945774,"current_range_meters":9200,"station_id":"ce4bho92rcd13ifvqh3g","pricing_plan_id":"cebpf4jnsgd1na2vs0mg"},{"bike_id":"70bffdbe-3b81-49b7-8846-df5bf256346b","system_id":"levelo_inurba_marseille","lat":43.262105,"lon":5.379328,"is_reserved":false,"is_disabled":false,"rental_uris":{"android":"levelo://app?vid=70bffdbe-3b81-49b7-8846-df5bf256346b","ios":"levelo://app?vid=70bffdbe-3b81-49b7-8846-df5bf256346b"},"vehicle_type_id":"4","last_reported":1762945774,"current_range_meters":9200,"station_id":"","pricing_plan_id":"cebpf4jnsgd1na2vs0mg"},{"bike_id":"fc276869-1721-4b12-989f-997be9eeff29","system_id":"levelo_inurba_marseille","lat":43.27998,"lon":5.40013,"is_reserved":false,"is_disabled":false,"rental_uris":{"android":"levelo://app?vid=fc276869-1721-4b12-989f-997be9eeff29","ios":"levelo://app?vid=fc276869-1721-4b12-989f-997be9eeff29"},"vehicle_type_id":"4","last_reported":1762945774,"current_range_meters":9600,"station_id":"ce4bho92rcd13ifvqh4g","pricing_plan_id":"cebpf4jnsgd1na2vs0mg"},{"bike_id":"22d46931-d37e-461a-9096-e1d2d1260d79","system_id":"levelo_inurba_marseille","lat":43.29038,"lon":5.35919,"is_reserved":false,"is_disabled":false,"rental_uris":{"android":"levelo://app?vid=22d46931-d37e-461a-9096-e1d2d1260d79","ios":"levelo://app?vid=22d46931-d37e-461a-9096-e1d2d1260d79"},"vehicle_type_id":"4","last_reported":1762945774,"current_range_meters":9600,"station_id":"ce4bha92rcd13ifvqeg0","pricing_plan_id":"cebpf4jnsgd1na2vs0mg"},{"bike_id":"e2df4b3b-30f0-4d7a-97f5-e9b343a7c3fe","system_id":"levelo_inurba_marseille","lat":43.24808,"lon":5.37464,"is_reserved":false,"is_disabled":false,"rental_uris":{"android":"levelo://app?vid=e2df4b3b-30f0-4d7a-97f5-e9b343a7c3fe","ios":"levelo://app?vid=e2df4b3b-30f0-4d7a-97f5-e9b343a7c3fe"},"vehicle_type_id":"4","last_reported":1762945774,"current_range_meters":9600,"station_id":"ce4bhgh2rcd13ifvqfb0","pricing_plan_id":"cebpf4jnsgd1na2vs0mg"},{"bike_id":"84aade2c-4b39-4bce-814f-cfa3d6ed46f7","system_id":"levelo_inurba_marseille","lat":43.284838,"lon":5.483848,"is_reserved":false,"is_disabled":false,"rental_uris":{"android":"levelo://app?vid=84aade2c-4b39-4bce-814f-cfa3d6ed46f7","ios":"levelo://app?vid=84aade2c-4b39-4bce-814f-cfa3d6ed46f7"},"vehicle_type_id":"4","last_reported":1762945774,"current_range_meters":9600,"station_id":"st_d3svhcjqgbts73a3dn0g","pricing_plan_id":"cebpf4jnsgd1na2vs0mg"},{"bike_id":"77a0b7c5-4cc8-4b0a-8a8a-717ef2afa861","system_id":"levelo_inurba_marseille","lat":43.30893,"lon":5.39658,"is_reserved":false,"is_disabled":false,"rental_uris":{"android":"levelo://app?vid=77a0b7c5-4cc8-4b0a-8a8a-717ef2afa861","ios":"levelo://app?vid=77a0b7c5-4cc8-4b0a-8a8a-717ef2afa861"},"vehicle_type_id":"4","last_reported":1762945774,"current_range_meters":9600,"station_id":"ce4bh012rcd13ifvqcv0","pricing_plan_id":"cebpf4jnsgd1na2vs0mg"},{"bike_id":"0cf4091a-4c5c-4c4d-a9b1-2eb2a02d0961","system_id":"levelo_inurba_marseille","lat":43.29907,"lon":5.38145,"is_reserved":false,"is_disabled":false,"rental_uris":{"android":"levelo://app?vid=0cf4091a-4c5c-4c4d-a9b1-2eb2a02d0961","ios":"levelo://app?vid=0cf4091a-4c5c-4c4d-a9b1-2eb2a02d0961"},"vehicle_type_id":"4","last_reported":1762945774,"current_range_meters":10000,"station_id":"ce4bgj12rcd13ifvqbc0","pricing_plan_id":"cebpf4jnsgd1na2vs0mg"},{"bike_id":"6494fb53-4b49-4fd6-a26d-ae632bd9104c","system_id":"levelo_inurba_marseille","lat":43.313223,"lon":5.376523,"is_reserved":false,"is_disabled":false,"rental_uris":{"android":"levelo://app?vid=6494fb53-4b49-4fd6-a26d-ae632bd9104c","ios":"levelo://app?vid=6494fb53-4b49-4fd6-a26d-ae632bd9104c"},"vehicle_type_id":"4","last_reported":1762945774,"current_range_meters":10000,"station_id":"","pricing_plan_id":"cebpf4jnsgd1na2vs0mg"},{"bike_id":"868ff99c-1de0-43f9-8bb2-57ef99cad9c7","system_id":"levelo_inurba_marseille","lat":43.29294,"lon":5.37451,"is_reserved":false,"is_disabled":false,"rental_uris":{"android":"levelo://app?vid=868ff99c-1de0-43f9-8bb2-57ef99cad9c7","ios":"levelo://app?vid=868ff99c-1de0-43f9-8bb2-57ef99cad9c7"},"vehicle_type_id":"4","last_reported":1762945774,"current_range_meters":10000,"station_id":"ce4bgi12rcd13ifvqb70","pricing_plan_id":"cebpf4jnsgd1na2vs0mg"},{"bike_id":"c47023ab-2905-4a00-af93-ffd0b768cdc9","system_id":"levelo_inurba_marseille","lat":43.288715,"lon":5.425171,"is_reserved":false,"is_disabled":false,"rental_uris":{"android":"levelo://app?vid=c47023ab-2905-4a00-af93-ffd0b768cdc9","ios":"levelo://app?vid=c47023ab-2905-4a00-af93-ffd0b768cdc9"},"vehicle_type_id":"4","last_reported":1762945774,"current_range_meters":10000,"station_id":"st_d3b462108ojc7389ooeg","pricing_plan_id":"cebpf4jnsgd1na2vs0mg"},{"bike_id":"b441e873-eb80-47a9-ba54-a043b1439286","system_id":"levelo_inurba_marseille","lat":43.30059,"lon":5.37813,"is_reserved":false,"is_disabled":false,"rental_uris":{"android":"levelo://app?vid=b441e873-eb80-47a9-ba54-a043b1439286","ios":"levelo://app?vid=b441e873-eb80-47a9-ba54-a043b1439286"},"vehicle_type_id":"4","last_reported":1762945774,"current_range_meters":10000,"station_id":"","pricing_plan_id":"cebpf4jnsgd1na2vs0mg"},{"bike_id":"f6134463-5782-4e59-875e-fa5ebcfbb229","system_id":"levelo_inurba_marseille","lat":43.284784,"lon":5.384153,"is_reserved":false,"is_disabled":true,"rental_uris":{"android":"levelo://app?vid=f6134463-5782-4e59-875e-fa5ebcfbb229","ios":"levelo://app?vid=f6134463-5782-4e59-875e-fa5ebcfbb229"},"vehicle_type_id":"4","last_reported":1762945774,"current_range_meters":10000,"station_id":"ce4bh512rcd13ifvqe3g","pricing_plan_id":"cebpf4jnsgd1na2vs0mg"},{"bike_id":"9cb8dbe3-71e6-4e96-9c8d-5719a6b950f0","system_id":"levelo_inurba_marseille","lat":43.245442,"lon":5.395318,"is_reserved":false,"is_disabled":false,"rental_uris":{"android":"levelo://app?vid=9cb8dbe3-71e6-4e96-9c8d-5719a6b950f0","ios":"levelo://app?vid=9cb8dbe3-71e6-4e96-9c8d-5719a6b950f0"},"vehicle_type_id":"4","last_reported":1762945774,"current_range_meters":10000,"station_id":"ce4bho92rcd13ifvqh4g","pricing_plan_id":"cebpf4jnsgd1na2vs0mg"},{"bike_id":"393ebba5-f26f-4f5b-ba37-0d7b5bd9041d","system_id":"levelo_inurba_marseille","lat":43.217519,"lon":5.346017,"is_reserved":false,"is_disabled":false,"rental_uris":{"android":"levelo://app?vid=393ebba5-f26f-4f5b-ba37-0d7b5bd9041d","ios":"levelo://app?vid=393ebba5-f26f-4f5b-ba37-0d7b5bd9041d"},"vehicle_type_id":"4","last_reported":1762945774,"current_range_meters":10000,"station_id":"","pricing_plan_id":"cebpf4jnsgd1na2vs0mg"},{"bike_id":"e304969b-128d-4fa8-9c00-2b105b524676","system_id":"levelo_inurba_marseille","lat":43.28778,"lon":5.44917,"is_reserved":false,"is_disabled":false,"rental_uris":{"android":"levelo://app?vid=e304969b-128d-4fa8-9c00-2b105b524676","ios":"levelo://app?vid=e304969b-128d-4fa8-9c00-2b105b524676"},"vehicle_type_id":"4","last_reported":1762945774,"current_range_meters":10800,"station_id":"","pricing_plan_id":"cebpf4jnsgd1na2vs0mg"},{"bike_id":"ebca150e-e90c-4c0a-88c0-c966355bf9e0","system_id":"levelo_inurba_marseille","lat":43.27319,"lon":5.39082,"is_reserved":false,"is_disabled":false,"rental_uris":{"android":"levelo://app?vid=ebca150e-e90c-4c0a-88c0-c966355bf9e0","ios":"levelo://app?vid=ebca150e-e90c-4c0a-88c0-c966355bf9e0"},"vehicle_type_id":"4","last_reported":1762945774,"current_range_meters":10800,"station_id":"ce4bhgp2rcd13ifvqfe0","pricing_plan_id":"cebpf4jnsgd1na2vs0mg"},{"bike_id":"9692ed38-7365-491c-bfaf-f64309b4dec9","system_id":"levelo_inurba_marseille","lat":43.31533,"lon":5.38037,"is_reserved":false,"is_disabled":false,"rental_uris":{"android":"levelo://app?vid=9692ed38-7365-491c-bfaf-f64309b4dec9","ios":"levelo://app?vid=9692ed38-7365-491c-bfaf-f64309b4dec9"},"vehicle_type_id":"4","last_reported":1762945774,"current_range_meters":10800,"station_id":"ce4bhsp2rcd13ifvqi50","pricing_plan_id":"cebpf4jnsgd1na2vs0mg"},{"bike_id":"da175aeb-84ac-450a-b626-121a8691df62","system_id":"levelo_inurba_marseille","lat":43.298422,"lon":5.362661,"is_reserved":false,"is_disabled":false,"rental_uris":{"android":"levelo://app?vid=da175aeb-84ac-450a-b626-121a8691df62","ios":"levelo://app?vid=da175aeb-84ac-450a-b626-121a8691df62"},"vehicle_type_id":"4","last_reported":1762945774,"current_range_meters":11200,"station_id":"ce4bgpp2rcd13ifvqc3g","pricing_plan_id":"cebpf4jnsgd1na2vs0mg"},{"bike_id":"ad8615fe-05e6-4b29-9feb-fdb7095a1ffc","system_id":"levelo_inurba_marseille","lat":43.2592,"lon":5.40885,"is_reserved":false,"is_disabled":false,"rental_uris":{"android":"levelo://app?vid=ad8615fe-05e6-4b29-9feb-fdb7095a1ffc","ios":"levelo://app?vid=ad8615fe-05e6-4b29-9feb-fdb7095a1ffc"},"vehicle_type_id":"4","last_reported":1762945774,"current_range_meters":11200,"station_id":"ce4bhm92rcd13ifvqglg","pricing_plan_id":"cebpf4jnsgd1na2vs0mg"},{"bike_id":"50b661f0-112f-4780-95bd-167a8c61a238","system_id":"levelo_inurba_marseille","lat":43.21238,"lon":5.35084,"is_reserved":false,"is_disabled":true,"rental_uris":{"android":"levelo://app?vid=50b661f0-112f-4780-95bd-167a8c61a238","ios":"levelo://app?vid=50b661f0-112f-4780-95bd-167a8c61a238"},"vehicle_type_id":"4","last_reported":1762945774,"current_range_meters":11200,"station_id":"","pricing_plan_id":"cebpf4jnsgd1na2vs0mg"},{"bike_id":"c3c6247d-36ce-4e28-8ebf-88d42a50df0e","system_id":"levelo_inurba_marseille","lat":43.271986,"lon":5.391669,"is_reserved":false,"is_disabled":false,"rental_uris":{"android":"levelo://app?vid=c3c6247d-36ce-4e28-8ebf-88d42a50df0e","ios":"levelo://app?vid=c3c6247d-36ce-4e28-8ebf-88d42a50df0e"},"vehicle_type_id":"4","last_reported":1762945774,"current_range_meters":11600,"station_id":"ce4bhhp2rcd13ifvqfm0","pricing_plan_id":"cebpf4jnsgd1na2vs0mg"},{"bike_id":"ca7eef9a-4eff-4533-b350-36f69d9643b1","system_id":"levelo_inurba_marseille","lat":43.3055,"lon":5.36554,"is_reserved":false,"is_disabled":false,"rental_uris":{"android":"levelo://app?vid=ca7eef9a-4eff-4533-b350-36f69d9643b1","ios":"levelo://app?vid=ca7eef9a-4eff-4533-b350-36f69d9643b1"},"vehicle_type_id":"4","last_reported":1762945774,"current_range_meters":11600,"station_id":"ce4bgs12rcd13ifvqcag","pricing_plan_id":"cebpf4jnsgd1na2vs0mg"},{"bike_id":"01e8cce2-ff84-43ff-914a-c0c695f60ca4","system_id":"levelo_inurba_marseille","lat":43.2944,"lon":5.38034,"is_reserved":false,"is_disabled":false,"rental_uris":{"android":"levelo://app?vid=01e8cce2-ff84-43ff-914a-c0c695f60ca4","ios":"levelo://app?vid=01e8cce2-ff84-43ff-914a-c0c695f60ca4"},"vehicle_type_id":"4","last_reported":1762945774,"current_range_meters":12000,"station_id":"","pricing_plan_id":"cebpf4jnsgd1na2vs0mg"},{"bike_id":"6911db79-d566-428b-8cb1-1532d67c2ceb","system_id":"levelo_inurba_marseille","lat":43.25939,"lon":5.40896,"is_reserved":false,"is_disabled":false,"rental_uris":{"android":"levelo://app?vid=6911db79-d566-428b-8cb1-1532d67c2ceb","ios":"levelo://app?vid=6911db79-d566-428b-8cb1-1532d67c2ceb"},"vehicle_type_id":"4","last_reported":1762945774,"current_range_meters":12000,"station_id":"ce4bhm92rcd13ifvqglg","pricing_plan_id":"cebpf4jnsgd1na2vs0mg"},{"bike_id":"77b7b383-d916-4b37-9b1f-cb1310916ca3","system_id":"levelo_inurba_marseille","lat":43.24676,"lon":5.38148,"is_reserved":false,"is_disabled":false,"rental_uris":{"android":"levelo://app?vid=77b7b383-d916-4b37-9b1f-cb1310916ca3","ios":"levelo://app?vid=77b7b383-d916-4b37-9b1f-cb1310916ca3"},"vehicle_type_id":"4","last_reported":1762945774,"current_range_meters":12000,"station_id":"ce4bhih2rcd13ifvqfr0","pricing_plan_id":"cebpf4jnsgd1na2vs0mg"},{"bike_id":"3968662f-7472-4397-b58e-11510a7bb27d","system_id":"levelo_inurba_marseille","lat":43.23965,"lon":5.36629,"is_reserved":false,"is_disabled":false,"rental_uris":{"android":"levelo://app?vid=3968662f-7472-4397-b58e-11510a7bb27d","ios":"levelo://app?vid=3968662f-7472-4397-b58e-11510a7bb27d"},"vehicle_type_id":"4","last_reported":1762945774,"current_range_meters":12000,"station_id":"ce4bhi12rcd13ifvqfp0","pricing_plan_id":"cebpf4jnsgd1na2vs0mg"},{"bike_id":"b1460ca1-7289-4f1f-b10e-10e520aecc27","system_id":"levelo_inurba_marseille","lat":43.27359,"lon":5.42372,"is_reserved":false,"is_disabled":false,"rental_uris":{"android":"levelo://app?vid=b1460ca1-7289-4f1f-b10e-10e520aecc27","ios":"levelo://app?vid=b1460ca1-7289-4f1f-b10e-10e520aecc27"},"vehicle_type_id":"4","last_reported":1762945774,"current_range_meters":12000,"station_id":"","pricing_plan_id":"cebpf4jnsgd1na2vs0mg"},{"bike_id":"cdf1f43b-6b9d-414c-ba65-32f537ee2fea","system_id":"levelo_inurba_marseille","lat":43.23155,"lon":5.43719,"is_reserved":false,"is_disabled":false,"rental_uris":{"android":"levelo://app?vid=cdf1f43b-6b9d-414c-ba65-32f537ee2fea","ios":"levelo://app?vid=cdf1f43b-6b9d-414c-ba65-32f537ee2fea"},"vehicle_type_id":"4","last_reported":1762945774,"current_range_meters":12000,"station_id":"ce4bhmp2rcd13ifvqgog","pricing_plan_id":"cebpf4jnsgd1na2vs0mg"},{"bike_id":"85aaf9c2-f92b-4041-b6bf-19d404ba6a9b","system_id":"levelo_inurba_marseille","lat":43.26506,"lon":5.39536,"is_reserved":false,"is_disabled":false,"rental_uris":{"android":"levelo://app?vid=85aaf9c2-f92b-4041-b6bf-19d404ba6a9b","ios":"levelo://app?vid=85aaf9c2-f92b-4041-b6bf-19d404ba6a9b"},"vehicle_type_id":"4","last_reported":1762945774,"current_range_meters":12000,"station_id":"ce4bhi12rcd13ifvqfq0","pricing_plan_id":"cebpf4jnsgd1na2vs0mg"},{"bike_id":"0d01173e-2ef4-4484-9cdc-b32ff40fc28b","system_id":"levelo_inurba_marseille","lat":43.27502,"lon":5.42442,"is_reserved":false,"is_disabled":false,"rental_uris":{"android":"levelo://app?vid=0d01173e-2ef4-4484-9cdc-b32ff40fc28b","ios":"levelo://app?vid=0d01173e-2ef4-4484-9cdc-b32ff40fc28b"},"vehicle_type_id":"4","last_reported":1762945774,"current_range_meters":12400,"station_id":"ce4bhn92rcd13ifvqgrg","pricing_plan_id":"cebpf4jnsgd1na2vs0mg"},{"bike_id":"f09b69fd-4220-4b51-8365-9a85828617f1","system_id":"levelo_inurba_marseille","lat":43.330268,"lon":5.390397,"is_reserved":false,"is_disabled":false,"rental_uris":{"android":"levelo://app?vid=f09b69fd-4220-4b51-8365-9a85828617f1","ios":"levelo://app?vid=f09b69fd-4220-4b51-8365-9a85828617f1"},"vehicle_type_id":"4","last_reported":1762945774,"current_range_meters":12400,"station_id":"ce4bhr92rcd13ifvqhrg","pricing_plan_id":"cebpf4jnsgd1na2vs0mg"},{"bike_id":"88fc727b-c845-40e7-b693-d97291396d1a","system_id":"levelo_inurba_marseille","lat":43.23149,"lon":5.43707,"is_reserved":false,"is_disabled":false,"rental_uris":{"android":"levelo://app?vid=88fc727b-c845-40e7-b693-d97291396d1a","ios":"levelo://app?vid=88fc727b-c845-40e7-b693-d97291396d1a"},"vehicle_type_id":"4","last_reported":1762945774,"current_range_meters":12400,"station_id":"ce4bhmp2rcd13ifvqgog","pricing_plan_id":"cebpf4jnsgd1na2vs0mg"},{"bike_id":"138acbc8-a44a-45ec-9d4e-f41258a8778e","system_id":"levelo_inurba_marseille","lat":43.298201,"lon":5.440611,"is_reserved":false,"is_disabled":false,"rental_uris":{"android":"levelo://app?vid=138acbc8-a44a-45ec-9d4e-f41258a8778e","ios":"levelo://app?vid=138acbc8-a44a-45ec-9d4e-f41258a8778e"},"vehicle_type_id":"4","last_reported":1762945774,"current_range_meters":12400,"station_id":"st_d3jp68qikq2c7381ktn0","pricing_plan_id":"cebpf4jnsgd1na2vs0mg"},{"bike_id":"26fd49f8-7b14-48da-831c-e9b25680731e","system_id":"levelo_inurba_marseille","lat":43.33761,"lon":5.37429,"is_reserved":false,"is_disabled":false,"rental_uris":{"android":"levelo://app?vid=26fd49f8-7b14-48da-831c-e9b25680731e","ios":"levelo://app?vid=26fd49f8-7b14-48da-831c-e9b25680731e"},"vehicle_type_id":"4","last_reported":1762945774,"current_range_meters":12400,"station_id":"","pricing_plan_id":"cebpf4jnsgd1na2vs0mg"},{"bike_id":"e5fd2a35-bd51-4e9f-bea1-931955dab667","system_id":"levelo_inurba_marseille","lat":43.23181,"lon":5.39986,"is_reserved":false,"is_disabled":false,"rental_uris":{"android":"levelo://app?vid=e5fd2a35-bd51-4e9f-bea1-931955dab667","ios":"levelo://app?vid=e5fd2a35-bd51-4e9f-bea1-931955dab667"},"vehicle_type_id":"4","last_reported":1762945774,"current_range_meters":12400,"station_id":"","pricing_plan_id":"cebpf4jnsgd1na2vs0mg"},{"bike_id":"087ebd05-7afe-4a0d-ad31-5e271e7bdf1b","system_id":"levelo_inurba_marseille","lat":43.305401,"lon":5.380654,"is_reserved":false,"is_disabled":false,"rental_uris":{"android":"levelo://app?vid=087ebd05-7afe-4a0d-ad31-5e271e7bdf1b","ios":"levelo://app?vid=087ebd05-7afe-4a0d-ad31-5e271e7bdf1b"},"vehicle_type_id":"4","last_reported":1762945774,"current_range_meters":12800,"station_id":"","pricing_plan_id":"cebpf4jnsgd1na2vs0mg"},{"bike_id":"890486bd-e38f-4f6c-93e8-7f41c8d1911f","system_id":"levelo_inurba_marseille","lat":43.309131,"lon":5.368441,"is_reserved":false,"is_disabled":false,"rental_uris":{"android":"levelo://app?vid=890486bd-e38f-4f6c-93e8-7f41c8d1911f","ios":"levelo://app?vid=890486bd-e38f-4f6c-93e8-7f41c8d1911f"},"vehicle_type_id":"4","last_reported":1762945774,"current_range_meters":12800,"station_id":"ce4bgn92rcd13ifvqbvg","pricing_plan_id":"cebpf4jnsgd1na2vs0mg"},{"bike_id":"5804ac99-3bd4-4091-bff1-7487e9285e0c","system_id":"levelo_inurba_marseille","lat":43.29209,"lon":5.37554,"is_reserved":false,"is_disabled":false,"rental_uris":{"android":"levelo://app?vid=5804ac99-3bd4-4091-bff1-7487e9285e0c","ios":"levelo://app?vid=5804ac99-3bd4-4091-bff1-7487e9285e0c"},"vehicle_type_id":"4","last_reported":1762945774,"current_range_meters":12800,"station_id":"","pricing_plan_id":"cebpf4jnsgd1na2vs0mg"},{"bike_id":"8b027115-1a9e-4312-923f-dbf5aec10ee4","system_id":"levelo_inurba_marseille","lat":43.30237,"lon":5.36509,"is_reserved":false,"is_disabled":false,"rental_uris":{"android":"levelo://app?vid=8b027115-1a9e-4312-923f-dbf5aec10ee4","ios":"levelo://app?vid=8b027115-1a9e-4312-923f-dbf5aec10ee4"},"vehicle_type_id":"4","last_reported":1762945774,"current_range_meters":12800,"station_id":"","pricing_plan_id":"cebpf4jnsgd1na2vs0mg"},{"bike_id":"0b48b831-5d2e-4915-9339-da19194e5717","system_id":"levelo_inurba_marseille","lat":43.23158,"lon":5.43705,"is_reserved":false,"is_disabled":false,"rental_uris":{"android":"levelo://app?vid=0b48b831-5d2e-4915-9339-da19194e5717","ios":"levelo://app?vid=0b48b831-5d2e-4915-9339-da19194e5717"},"vehicle_type_id":"4","last_reported":1762945774,"current_range_meters":12800,"station_id":"ce4bhmp2rcd13ifvqgog","pricing_plan_id":"cebpf4jnsgd1na2vs0mg"},{"bike_id":"97150dc4-71e5-4187-8a3a-2188c13f6fe1","system_id":"levelo_inurba_marseille","lat":43.2378,"lon":5.36635,"is_reserved":false,"is_disabled":false,"rental_uris":{"android":"levelo://app?vid=97150dc4-71e5-4187-8a3a-2188c13f6fe1","ios":"levelo://app?vid=97150dc4-71e5-4187-8a3a-2188c13f6fe1"},"vehicle_type_id":"4","last_reported":1762945774,"current_range_meters":12800,"station_id":"st_d3nk18o9ro0c73en2l3g","pricing_plan_id":"cebpf4jnsgd1na2vs0mg"},{"bike_id":"2f34f274-c8fc-492e-838a-720f2d384a9c","system_id":"levelo_inurba_marseille","lat":43.299789,"lon":5.371617,"is_reserved":false,"is_disabled":false,"rental_uris":{"android":"levelo://app?vid=2f34f274-c8fc-492e-838a-720f2d384a9c","ios":"levelo://app?vid=2f34f274-c8fc-492e-838a-720f2d384a9c"},"vehicle_type_id":"4","last_reported":1762945774,"current_range_meters":13600,"station_id":"ce4bgr92rcd13ifvqc7g","pricing_plan_id":"cebpf4jnsgd1na2vs0mg"},{"bike_id":"65062346-4963-425f-99a4-b5bf35095455","system_id":"levelo_inurba_marseille","lat":43.30805,"lon":5.38159,"is_reserved":false,"is_disabled":false,"rental_uris":{"android":"levelo://app?vid=65062346-4963-425f-99a4-b5bf35095455","ios":"levelo://app?vid=65062346-4963-425f-99a4-b5bf35095455"},"vehicle_type_id":"4","last_reported":1762945774,"current_range_meters":13600,"station_id":"ce4bgt12rcd13ifvqce0","pricing_plan_id":"cebpf4jnsgd1na2vs0mg"},{"bike_id":"5f24b40e-3707-4354-b3a5-1adb5f403839","system_id":"levelo_inurba_marseille","lat":43.23199,"lon":5.35555,"is_reserved":false,"is_disabled":false,"rental_uris":{"android":"levelo://app?vid=5f24b40e-3707-4354-b3a5-1adb5f403839","ios":"levelo://app?vid=5f24b40e-3707-4354-b3a5-1adb5f403839"},"vehicle_type_id":"4","last_reported":1762945774,"current_range_meters":13600,"station_id":"ce4bhu92rcd13ifvqi70","pricing_plan_id":"cebpf4jnsgd1na2vs0mg"},{"bike_id":"0ad2cfba-f5bd-421b-8f78-57b370b88c29","system_id":"levelo_inurba_marseille","lat":43.231586,"lon":5.437019,"is_reserved":false,"is_disabled":false,"rental_uris":{"android":"levelo://app?vid=0ad2cfba-f5bd-421b-8f78-57b370b88c29","ios":"levelo://app?vid=0ad2cfba-f5bd-421b-8f78-57b370b88c29"},"vehicle_type_id":"4","last_reported":1762945774,"current_range_meters":14000,"station_id":"ce4bhmp2rcd13ifvqgog","pricing_plan_id":"cebpf4jnsgd1na2vs0mg"},{"bike_id":"f0413c71-e0c3-427b-98cb-cdf950c219e3","system_id":"levelo_inurba_marseille","lat":43.31011,"lon":5.40053,"is_reserved":false,"is_disabled":false,"rental_uris":{"android":"levelo://app?vid=f0413c71-e0c3-427b-98cb-cdf950c219e3","ios":"levelo://app?vid=f0413c71-e0c3-427b-98cb-cdf950c219e3"},"vehicle_type_id":"4","last_reported":1762945774,"current_range_meters":14000,"station_id":"","pricing_plan_id":"cebpf4jnsgd1na2vs0mg"},{"bike_id":"727cf9f3-3e09-4a69-8d56-c2589152d43d","system_id":"levelo_inurba_marseille","lat":43.3053,"lon":5.3654,"is_reserved":false,"is_disabled":false,"rental_uris":{"android":"levelo://app?vid=727cf9f3-3e09-4a69-8d56-c2589152d43d","ios":"levelo://app?vid=727cf9f3-3e09-4a69-8d56-c2589152d43d"},"vehicle_type_id":"4","last_reported":1762945774,"current_range_meters":14000,"station_id":"ce4bgs12rcd13ifvqcag","pricing_plan_id":"cebpf4jnsgd1na2vs0mg"},{"bike_id":"23cf5617-2a8e-4b86-b9b4-9b049dde7593","system_id":"levelo_inurba_marseille","lat":43.32362,"lon":5.367625,"is_reserved":false,"is_disabled":false,"rental_uris":{"android":"levelo://app?vid=23cf5617-2a8e-4b86-b9b4-9b049dde7593","ios":"levelo://app?vid=23cf5617-2a8e-4b86-b9b4-9b049dde7593"},"vehicle_type_id":"4","last_reported":1762945774,"current_range_meters":14400,"station_id":"ce4bhsh2rcd13ifvqi2g","pricing_plan_id":"cebpf4jnsgd1na2vs0mg"},{"bike_id":"5e6e0c2c-5aff-425c-b9f5-69ee0b364303","system_id":"levelo_inurba_marseille","lat":43.23199,"lon":5.355477,"is_reserved":false,"is_disabled":false,"rental_uris":{"android":"levelo://app?vid=5e6e0c2c-5aff-425c-b9f5-69ee0b364303","ios":"levelo://app?vid=5e6e0c2c-5aff-425c-b9f5-69ee0b364303"},"vehicle_type_id":"4","last_reported":1762945774,"current_range_meters":14400,"station_id":"ce4bhu92rcd13ifvqi70","pricing_plan_id":"cebpf4jnsgd1na2vs0mg"},{"bike_id":"e13b78db-2231-48a0-b9e0-a153f32a43f4","system_id":"levelo_inurba_marseille","lat":43.23059,"lon":5.35492,"is_reserved":false,"is_disabled":false,"rental_uris":{"android":"levelo://app?vid=e13b78db-2231-48a0-b9e0-a153f32a43f4","ios":"levelo://app?vid=e13b78db-2231-48a0-b9e0-a153f32a43f4"},"vehicle_type_id":"4","last_reported":1762945774,"current_range_meters":14400,"station_id":"cpo3342slgdg3j2ifvpg","pricing_plan_id":"cebpf4jnsgd1na2vs0mg"},{"bike_id":"841cb1e3-d7ff-4e82-a83c-eaf5e87abdbe","system_id":"levelo_inurba_marseille","lat":43.25582,"lon":5.3823,"is_reserved":false,"is_disabled":false,"rental_uris":{"android":"levelo://app?vid=841cb1e3-d7ff-4e82-a83c-eaf5e87abdbe","ios":"levelo://app?vid=841cb1e3-d7ff-4e82-a83c-eaf5e87abdbe"},"vehicle_type_id":"4","last_reported":1762945774,"current_range_meters":14400,"station_id":"ce4bhih2rcd13ifvqfs0","pricing_plan_id":"cebpf4jnsgd1na2vs0mg"},{"bike_id":"d7cd7e03-00ed-4a41-a6cd-df8a59689589","system_id":"levelo_inurba_marseille","lat":43.288575,"lon":5.358521,"is_reserved":false,"is_disabled":false,"rental_uris":{"android":"levelo://app?vid=d7cd7e03-00ed-4a41-a6cd-df8a59689589","ios":"levelo://app?vid=d7cd7e03-00ed-4a41-a6cd-df8a59689589"},"vehicle_type_id":"4","last_reported":1762945774,"current_range_meters":14800,"station_id":"","pricing_plan_id":"cebpf4jnsgd1na2vs0mg"},{"bike_id":"0528378f-1b50-41df-b328-6686306ee922","system_id":"levelo_inurba_marseille","lat":43.216291,"lon":5.344428,"is_reserved":false,"is_disabled":false,"rental_uris":{"android":"levelo://app?vid=0528378f-1b50-41df-b328-6686306ee922","ios":"levelo://app?vid=0528378f-1b50-41df-b328-6686306ee922"},"vehicle_type_id":"4","last_reported":1762945774,"current_range_meters":14800,"station_id":"","pricing_plan_id":"cebpf4jnsgd1na2vs0mg"},{"bike_id":"fc49e022-916b-4364-8aae-868a9613aae0","system_id":"levelo_inurba_marseille","lat":43.27814,"lon":5.40722,"is_reserved":false,"is_disabled":false,"rental_uris":{"android":"levelo://app?vid=fc49e022-916b-4364-8aae-868a9613aae0","ios":"levelo://app?vid=fc49e022-916b-4364-8aae-868a9613aae0"},"vehicle_type_id":"4","last_reported":1762945774,"current_range_meters":14800,"station_id":"ce4bhnh2rcd13ifvqgtg","pricing_plan_id":"cebpf4jnsgd1na2vs0mg"},{"bike_id":"5a19dc9e-3156-43fe-8eee-798a6a13cd57","system_id":"levelo_inurba_marseille","lat":43.30149,"lon":5.38087,"is_reserved":false,"is_disabled":false,"rental_uris":{"android":"levelo://app?vid=5a19dc9e-3156-43fe-8eee-798a6a13cd57","ios":"levelo://app?vid=5a19dc9e-3156-43fe-8eee-798a6a13cd57"},"vehicle_type_id":"4","last_reported":1762945774,"current_range_meters":14800,"station_id":"ce4bgjp2rcd13ifvqbh0","pricing_plan_id":"cebpf4jnsgd1na2vs0mg"},{"bike_id":"ba71b8a6-82af-40ef-9c74-c8e612d81b0b","system_id":"levelo_inurba_marseille","lat":43.28356,"lon":5.38104,"is_reserved":false,"is_disabled":false,"rental_uris":{"android":"levelo://app?vid=ba71b8a6-82af-40ef-9c74-c8e612d81b0b","ios":"levelo://app?vid=ba71b8a6-82af-40ef-9c74-c8e612d81b0b"},"vehicle_type_id":"4","last_reported":1762945774,"current_range_meters":14800,"station_id":"ce4bh412rcd13ifvqdr0","pricing_plan_id":"cebpf4jnsgd1na2vs0mg"},{"bike_id":"665d53b2-fadf-4bb4-af06-57a3cdb40b04","system_id":"levelo_inurba_marseille","lat":43.30538,"lon":5.36702,"is_reserved":false,"is_disabled":false,"rental_uris":{"android":"levelo://app?vid=665d53b2-fadf-4bb4-af06-57a3cdb40b04","ios":"levelo://app?vid=665d53b2-fadf-4bb4-af06-57a3cdb40b04"},"vehicle_type_id":"4","last_reported":1762945774,"current_range_meters":14800,"station_id":"ce4bgrp2rcd13ifvqc9g","pricing_plan_id":"cebpf4jnsgd1na2vs0mg"},{"bike_id":"1ab40513-ab9a-4b52-9206-171ac9c42e07","system_id":"levelo_inurba_marseille","lat":43.25867,"lon":5.39894,"is_reserved":false,"is_disabled":false,"rental_uris":{"android":"levelo://app?vid=1ab40513-ab9a-4b52-9206-171ac9c42e07","ios":"levelo://app?vid=1ab40513-ab9a-4b52-9206-171ac9c42e07"},"vehicle_type_id":"4","last_reported":1762945774,"current_range_meters":14800,"station_id":"ce4bhl92rcd13ifvqghg","pricing_plan_id":"cebpf4jnsgd1na2vs0mg"},{"bike_id":"7cd3fc91-8b4e-4cc9-a97a-8aec9cd4160c","system_id":"levelo_inurba_marseille","lat":43.298759,"lon":5.372059,"is_reserved":false,"is_disabled":true,"rental_uris":{"android":"levelo://app?vid=7cd3fc91-8b4e-4cc9-a97a-8aec9cd4160c","ios":"levelo://app?vid=7cd3fc91-8b4e-4cc9-a97a-8aec9cd4160c"},"vehicle_type_id":"4","last_reported":1762945774,"current_range_meters":15200,"station_id":"","pricing_plan_id":"cebpf4jnsgd1na2vs0mg"},{"bike_id":"e8ae5951-7edb-46b5-b28e-fbbe5099011b","system_id":"levelo_inurba_marseille","lat":43.337444,"lon":5.374475,"is_reserved":false,"is_disabled":false,"rental_uris":{"android":"levelo://app?vid=e8ae5951-7edb-46b5-b28e-fbbe5099011b","ios":"levelo://app?vid=e8ae5951-7edb-46b5-b28e-fbbe5099011b"},"vehicle_type_id":"4","last_reported":1762945774,"current_range_meters":15200,"station_id":"ce4bhip2rcd13ifvqft0","pricing_plan_id":"cebpf4jnsgd1na2vs0mg"},{"bike_id":"3408f6d4-1219-403d-918b-026b19d01def","system_id":"levelo_inurba_marseille","lat":43.24395,"lon":5.37075,"is_reserved":false,"is_disabled":false,"rental_uris":{"android":"levelo://app?vid=3408f6d4-1219-403d-918b-026b19d01def","ios":"levelo://app?vid=3408f6d4-1219-403d-918b-026b19d01def"},"vehicle_type_id":"4","last_reported":1762945774,"current_range_meters":15200,"station_id":"ce4bhhh2rcd13ifvqfk0","pricing_plan_id":"cebpf4jnsgd1na2vs0mg"},{"bike_id":"e3df63a1-f3d2-4d82-8bf6-df212c4e8b69","system_id":"levelo_inurba_marseille","lat":43.28482,"lon":5.48391,"is_reserved":false,"is_disabled":false,"rental_uris":{"android":"levelo://app?vid=e3df63a1-f3d2-4d82-8bf6-df212c4e8b69","ios":"levelo://app?vid=e3df63a1-f3d2-4d82-8bf6-df212c4e8b69"},"vehicle_type_id":"4","last_reported":1762945774,"current_range_meters":15200,"station_id":"st_d3svhcjqgbts73a3dn0g","pricing_plan_id":"cebpf4jnsgd1na2vs0mg"},{"bike_id":"7405fff1-54cb-4441-8d3b-98a0b2f0eb43","system_id":"levelo_inurba_marseille","lat":43.273281,"lon":5.390523,"is_reserved":false,"is_disabled":false,"rental_uris":{"android":"levelo://app?vid=7405fff1-54cb-4441-8d3b-98a0b2f0eb43","ios":"levelo://app?vid=7405fff1-54cb-4441-8d3b-98a0b2f0eb43"},"vehicle_type_id":"4","last_reported":1762945774,"current_range_meters":15200,"station_id":"","pricing_plan_id":"cebpf4jnsgd1na2vs0mg"},{"bike_id":"f19a854d-96e9-4cf0-92aa-d357813dc143","system_id":"levelo_inurba_marseille","lat":43.28474,"lon":5.38422,"is_reserved":false,"is_disabled":true,"rental_uris":{"android":"levelo://app?vid=f19a854d-96e9-4cf0-92aa-d357813dc143","ios":"levelo://app?vid=f19a854d-96e9-4cf0-92aa-d357813dc143"},"vehicle_type_id":"4","last_reported":1762945774,"current_range_meters":15200,"station_id":"ce4bh512rcd13ifvqe3g","pricing_plan_id":"cebpf4jnsgd1na2vs0mg"},{"bike_id":"0b6f52cb-5a3d-4452-8cd5-05ad2fe3c80e","system_id":"levelo_inurba_marseille","lat":43.29375,"lon":5.3783,"is_reserved":false,"is_disabled":false,"rental_uris":{"android":"levelo://app?vid=0b6f52cb-5a3d-4452-8cd5-05ad2fe3c80e","ios":"levelo://app?vid=0b6f52cb-5a3d-4452-8cd5-05ad2fe3c80e"},"vehicle_type_id":"4","last_reported":1762945774,"current_range_meters":16000,"station_id":"ce4bgjh2rcd13ifvqbf0","pricing_plan_id":"cebpf4jnsgd1na2vs0mg"},{"bike_id":"01571923-980e-446a-ba2d-4d18a11dfcdd","system_id":"levelo_inurba_marseille","lat":43.247893,"lon":5.374739,"is_reserved":false,"is_disabled":false,"rental_uris":{"android":"levelo://app?vid=01571923-980e-446a-ba2d-4d18a11dfcdd","ios":"levelo://app?vid=01571923-980e-446a-ba2d-4d18a11dfcdd"},"vehicle_type_id":"4","last_reported":1762945774,"current_range_meters":16000,"station_id":"","pricing_plan_id":"cebpf4jnsgd1na2vs0mg"},{"bike_id":"c01ee74c-0907-4ca7-82d0-a92efd488ad9","system_id":"levelo_inurba_marseille","lat":43.22565,"lon":5.41639,"is_reserved":false,"is_disabled":false,"rental_uris":{"android":"levelo://app?vid=c01ee74c-0907-4ca7-82d0-a92efd488ad9","ios":"levelo://app?vid=c01ee74c-0907-4ca7-82d0-a92efd488ad9"},"vehicle_type_id":"4","last_reported":1762945774,"current_range_meters":16000,"station_id":"st_d2o4gvlbi1j2169b742g","pricing_plan_id":"cebpf4jnsgd1na2vs0mg"},{"bike_id":"8eef622d-44c1-4eab-88ec-13075a2b39ca","system_id":"levelo_inurba_marseille","lat":43.292241,"lon":5.360731,"is_reserved":false,"is_disabled":false,"rental_uris":{"android":"levelo://app?vid=8eef622d-44c1-4eab-88ec-13075a2b39ca","ios":"levelo://app?vid=8eef622d-44c1-4eab-88ec-13075a2b39ca"},"vehicle_type_id":"4","last_reported":1762945774,"current_range_meters":16000,"station_id":"ce4bhbh2rcd13ifvqeqg","pricing_plan_id":"cebpf4jnsgd1na2vs0mg"},{"bike_id":"6dc8b84f-81c9-44ce-ba2d-d57b9ad31bcd","system_id":"levelo_inurba_marseille","lat":43.299365,"lon":5.36545,"is_reserved":false,"is_disabled":false,"rental_uris":{"android":"levelo://app?vid=6dc8b84f-81c9-44ce-ba2d-d57b9ad31bcd","ios":"levelo://app?vid=6dc8b84f-81c9-44ce-ba2d-d57b9ad31bcd"},"vehicle_type_id":"4","last_reported":1762945774,"current_range_meters":16400,"station_id":"ce4bgm92rcd13ifvqbr0","pricing_plan_id":"cebpf4jnsgd1na2vs0mg"},{"bike_id":"c4d99a60-56bc-4f6e-96c8-b59c44660d79","system_id":"levelo_inurba_marseille","lat":43.24648,"lon":5.38892,"is_reserved":false,"is_disabled":false,"rental_uris":{"android":"levelo://app?vid=c4d99a60-56bc-4f6e-96c8-b59c44660d79","ios":"levelo://app?vid=c4d99a60-56bc-4f6e-96c8-b59c44660d79"},"vehicle_type_id":"4","last_reported":1762945774,"current_range_meters":16400,"station_id":"ce4bhg12rcd13ifvqf60","pricing_plan_id":"cebpf4jnsgd1na2vs0mg"},{"bike_id":"edb00cb3-c6d5-453c-af7d-91c1a44df362","system_id":"levelo_inurba_marseille","lat":43.30159,"lon":5.38088,"is_reserved":false,"is_disabled":false,"rental_uris":{"android":"levelo://app?vid=edb00cb3-c6d5-453c-af7d-91c1a44df362","ios":"levelo://app?vid=edb00cb3-c6d5-453c-af7d-91c1a44df362"},"vehicle_type_id":"4","last_reported":1762945774,"current_range_meters":16400,"station_id":"ce4bgjp2rcd13ifvqbh0","pricing_plan_id":"cebpf4jnsgd1na2vs0mg"},{"bike_id":"52d4b8ef-bd3b-4594-9933-6de587b7e338","system_id":"levelo_inurba_marseille","lat":43.22925,"lon":5.35378,"is_reserved":false,"is_disabled":false,"rental_uris":{"android":"levelo://app?vid=52d4b8ef-bd3b-4594-9933-6de587b7e338","ios":"levelo://app?vid=52d4b8ef-bd3b-4594-9933-6de587b7e338"},"vehicle_type_id":"4","last_reported":1762945774,"current_range_meters":16400,"station_id":"cpo3532slgdg3j2ikp40","pricing_plan_id":"cebpf4jnsgd1na2vs0mg"},{"bike_id":"1b0b7981-696f-4ec5-932c-764cd2899c70","system_id":"levelo_inurba_marseille","lat":43.28486,"lon":5.48385,"is_reserved":false,"is_disabled":false,"rental_uris":{"android":"levelo://app?vid=1b0b7981-696f-4ec5-932c-764cd2899c70","ios":"levelo://app?vid=1b0b7981-696f-4ec5-932c-764cd2899c70"},"vehicle_type_id":"4","last_reported":1762945774,"current_range_meters":16400,"station_id":"","pricing_plan_id":"cebpf4jnsgd1na2vs0mg"},{"bike_id":"9f77fce6-b576-455d-a43d-b1e175676c28","system_id":"levelo_inurba_marseille","lat":43.33773,"lon":5.37473,"is_reserved":false,"is_disabled":false,"rental_uris":{"android":"levelo://app?vid=9f77fce6-b576-455d-a43d-b1e175676c28","ios":"levelo://app?vid=9f77fce6-b576-455d-a43d-b1e175676c28"},"vehicle_type_id":"4","last_reported":1762945774,"current_range_meters":16400,"station_id":"","pricing_plan_id":"cebpf4jnsgd1na2vs0mg"},{"bike_id":"3210e757-4d1e-4efd-83c1-043a34b9a756","system_id":"levelo_inurba_marseille","lat":43.24179,"lon":5.39727,"is_reserved":false,"is_disabled":false,"rental_uris":{"android":"levelo://app?vid=3210e757-4d1e-4efd-83c1-043a34b9a756","ios":"levelo://app?vid=3210e757-4d1e-4efd-83c1-043a34b9a756"},"vehicle_type_id":"4","last_reported":1762945774,"current_range_meters":16400,"station_id":"ce4bhn12rcd13ifvqgpg","pricing_plan_id":"cebpf4jnsgd1na2vs0mg"},{"bike_id":"2a0f534b-4882-49bc-820c-311a804fef5e","system_id":"levelo_inurba_marseille","lat":43.24186,"lon":5.39739,"is_reserved":false,"is_disabled":false,"rental_uris":{"android":"levelo://app?vid=2a0f534b-4882-49bc-820c-311a804fef5e","ios":"levelo://app?vid=2a0f534b-4882-49bc-820c-311a804fef5e"},"vehicle_type_id":"4","last_reported":1762945774,"current_range_meters":16400,"station_id":"ce4bhn12rcd13ifvqgpg","pricing_plan_id":"cebpf4jnsgd1na2vs0mg"},{"bike_id":"bd4ae26b-bd87-4f11-9b0b-24bd7e2079de","system_id":"levelo_inurba_marseille","lat":43.2953,"lon":5.37509,"is_reserved":false,"is_disabled":false,"rental_uris":{"android":"levelo://app?vid=bd4ae26b-bd87-4f11-9b0b-24bd7e2079de","ios":"levelo://app?vid=bd4ae26b-bd87-4f11-9b0b-24bd7e2079de"},"vehicle_type_id":"4","last_reported":1762945774,"current_range_meters":16400,"station_id":"ce4bgkp2rcd13ifvqbmg","pricing_plan_id":"cebpf4jnsgd1na2vs0mg"},{"bike_id":"2a2ec83a-2b84-4bf4-b19a-cd864bece9fd","system_id":"levelo_inurba_marseille","lat":43.24654,"lon":5.43129,"is_reserved":false,"is_disabled":false,"rental_uris":{"android":"levelo://app?vid=2a2ec83a-2b84-4bf4-b19a-cd864bece9fd","ios":"levelo://app?vid=2a2ec83a-2b84-4bf4-b19a-cd864bece9fd"},"vehicle_type_id":"4","last_reported":1762945774,"current_range_meters":16400,"station_id":"st_d2m6c4gdas8pm72e190g","pricing_plan_id":"cebpf4jnsgd1na2vs0mg"},{"bike_id":"a564ff17-c9fe-4022-8445-0e237a29b414","system_id":"levelo_inurba_marseille","lat":43.28109,"lon":5.37842,"is_reserved":false,"is_disabled":false,"rental_uris":{"android":"levelo://app?vid=a564ff17-c9fe-4022-8445-0e237a29b414","ios":"levelo://app?vid=a564ff17-c9fe-4022-8445-0e237a29b414"},"vehicle_type_id":"4","last_reported":1762945774,"current_range_meters":16800,"station_id":"ce4bha12rcd13ifvqee0","pricing_plan_id":"cebpf4jnsgd1na2vs0mg"},{"bike_id":"3f1b6ac3-325f-45c8-ae4b-4da2d30919cb","system_id":"levelo_inurba_marseille","lat":43.23152,"lon":5.43721,"is_reserved":false,"is_disabled":false,"rental_uris":{"android":"levelo://app?vid=3f1b6ac3-325f-45c8-ae4b-4da2d30919cb","ios":"levelo://app?vid=3f1b6ac3-325f-45c8-ae4b-4da2d30919cb"},"vehicle_type_id":"4","last_reported":1762945774,"current_range_meters":16800,"station_id":"ce4bhmp2rcd13ifvqgog","pricing_plan_id":"cebpf4jnsgd1na2vs0mg"},{"bike_id":"6aae056c-fb4e-4d6e-802b-626c53e8212e","system_id":"levelo_inurba_marseille","lat":43.27062,"lon":5.40264,"is_reserved":false,"is_disabled":false,"rental_uris":{"android":"levelo://app?vid=6aae056c-fb4e-4d6e-802b-626c53e8212e","ios":"levelo://app?vid=6aae056c-fb4e-4d6e-802b-626c53e8212e"},"vehicle_type_id":"4","last_reported":1762945774,"current_range_meters":16800,"station_id":"ce4bhk92rcd13ifvqgc0","pricing_plan_id":"cebpf4jnsgd1na2vs0mg"},{"bike_id":"a26712ac-c4dc-4d7c-9767-877ec57b4780","system_id":"levelo_inurba_marseille","lat":43.28489,"lon":5.48383,"is_reserved":false,"is_disabled":false,"rental_uris":{"android":"levelo://app?vid=a26712ac-c4dc-4d7c-9767-877ec57b4780","ios":"levelo://app?vid=a26712ac-c4dc-4d7c-9767-877ec57b4780"},"vehicle_type_id":"4","last_reported":1762945774,"current_range_meters":16800,"station_id":"st_d3svhcjqgbts73a3dn0g","pricing_plan_id":"cebpf4jnsgd1na2vs0mg"},{"bike_id":"ae3fcacf-164b-47f7-9287-b24c87e3008f","system_id":"levelo_inurba_marseille","lat":43.27904,"lon":5.37987,"is_reserved":false,"is_disabled":false,"rental_uris":{"android":"levelo://app?vid=ae3fcacf-164b-47f7-9287-b24c87e3008f","ios":"levelo://app?vid=ae3fcacf-164b-47f7-9287-b24c87e3008f"},"vehicle_type_id":"4","last_reported":1762945774,"current_range_meters":16800,"station_id":"ce4bhf92rcd13ifvqf50","pricing_plan_id":"cebpf4jnsgd1na2vs0mg"},{"bike_id":"1ae9cdda-b77b-4006-b0df-480a95550779","system_id":"levelo_inurba_marseille","lat":43.2466,"lon":5.38155,"is_reserved":false,"is_disabled":false,"rental_uris":{"android":"levelo://app?vid=1ae9cdda-b77b-4006-b0df-480a95550779","ios":"levelo://app?vid=1ae9cdda-b77b-4006-b0df-480a95550779"},"vehicle_type_id":"4","last_reported":1762945774,"current_range_meters":16800,"station_id":"ce4bhih2rcd13ifvqfr0","pricing_plan_id":"cebpf4jnsgd1na2vs0mg"},{"bike_id":"03085af1-a829-4c42-8990-60ba607cc69f","system_id":"levelo_inurba_marseille","lat":43.30157,"lon":5.38089,"is_reserved":false,"is_disabled":false,"rental_uris":{"android":"levelo://app?vid=03085af1-a829-4c42-8990-60ba607cc69f","ios":"levelo://app?vid=03085af1-a829-4c42-8990-60ba607cc69f"},"vehicle_type_id":"4","last_reported":1762945774,"current_range_meters":16800,"station_id":"ce4bgjp2rcd13ifvqbh0","pricing_plan_id":"cebpf4jnsgd1na2vs0mg"},{"bike_id":"6cac0bad-7eb8-47a5-b980-95e1b10a0d8e","system_id":"levelo_inurba_marseille","lat":43.31359,"lon":5.38485,"is_reserved":false,"is_disabled":false,"rental_uris":{"android":"levelo://app?vid=6cac0bad-7eb8-47a5-b980-95e1b10a0d8e","ios":"levelo://app?vid=6cac0bad-7eb8-47a5-b980-95e1b10a0d8e"},"vehicle_type_id":"4","last_reported":1762945774,"current_range_meters":16800,"station_id":"ce4bgt92rcd13ifvqcf0","pricing_plan_id":"cebpf4jnsgd1na2vs0mg"},{"bike_id":"b0e0e8ae-0aa6-4ed4-b86b-30394b811c81","system_id":"levelo_inurba_marseille","lat":43.30896,"lon":5.37178,"is_reserved":false,"is_disabled":false,"rental_uris":{"android":"levelo://app?vid=b0e0e8ae-0aa6-4ed4-b86b-30394b811c81","ios":"levelo://app?vid=b0e0e8ae-0aa6-4ed4-b86b-30394b811c81"},"vehicle_type_id":"4","last_reported":1762945774,"current_range_meters":16800,"station_id":"ce4bguh2rcd13ifvqckg","pricing_plan_id":"cebpf4jnsgd1na2vs0mg"},{"bike_id":"c0cfc4ab-b5d5-45ea-af34-9f878cdbb6b2","system_id":"levelo_inurba_marseille","lat":43.33027,"lon":5.39042,"is_reserved":false,"is_disabled":false,"rental_uris":{"android":"levelo://app?vid=c0cfc4ab-b5d5-45ea-af34-9f878cdbb6b2","ios":"levelo://app?vid=c0cfc4ab-b5d5-45ea-af34-9f878cdbb6b2"},"vehicle_type_id":"4","last_reported":1762945774,"current_range_meters":17200,"station_id":"ce4bhr92rcd13ifvqhrg","pricing_plan_id":"cebpf4jnsgd1na2vs0mg"},{"bike_id":"a76ed384-8adb-4855-8ea9-608b64e9d92b","system_id":"levelo_inurba_marseille","lat":43.3225,"lon":5.36942,"is_reserved":false,"is_disabled":false,"rental_uris":{"android":"levelo://app?vid=a76ed384-8adb-4855-8ea9-608b64e9d92b","ios":"levelo://app?vid=a76ed384-8adb-4855-8ea9-608b64e9d92b"},"vehicle_type_id":"4","last_reported":1762945774,"current_range_meters":17200,"station_id":"","pricing_plan_id":"cebpf4jnsgd1na2vs0mg"},{"bike_id":"6faca5e0-f5f3-4419-a7e2-34fda1621326","system_id":"levelo_inurba_marseille","lat":43.21198,"lon":5.35071,"is_reserved":false,"is_disabled":false,"rental_uris":{"android":"levelo://app?vid=6faca5e0-f5f3-4419-a7e2-34fda1621326","ios":"levelo://app?vid=6faca5e0-f5f3-4419-a7e2-34fda1621326"},"vehicle_type_id":"4","last_reported":1762945774,"current_range_meters":17200,"station_id":"st_cvj6sg6p6f1abm77japg","pricing_plan_id":"cebpf4jnsgd1na2vs0mg"},{"bike_id":"c8beb6b9-4bf6-4336-ad1d-8fa69e7ff53b","system_id":"levelo_inurba_marseille","lat":43.301738,"lon":5.380693,"is_reserved":false,"is_disabled":false,"rental_uris":{"android":"levelo://app?vid=c8beb6b9-4bf6-4336-ad1d-8fa69e7ff53b","ios":"levelo://app?vid=c8beb6b9-4bf6-4336-ad1d-8fa69e7ff53b"},"vehicle_type_id":"4","last_reported":1762945774,"current_range_meters":17600,"station_id":"ce4bgjp2rcd13ifvqbh0","pricing_plan_id":"cebpf4jnsgd1na2vs0mg"},{"bike_id":"feba1818-bd8b-4490-b819-a63599738f3b","system_id":"levelo_inurba_marseille","lat":43.30314,"lon":5.36907,"is_reserved":false,"is_disabled":true,"rental_uris":{"android":"levelo://app?vid=feba1818-bd8b-4490-b819-a63599738f3b","ios":"levelo://app?vid=feba1818-bd8b-4490-b819-a63599738f3b"},"vehicle_type_id":"4","last_reported":1762945774,"current_range_meters":17600,"station_id":"ce4bgqh2rcd13ifvqc5g","pricing_plan_id":"cebpf4jnsgd1na2vs0mg"},{"bike_id":"6e2caa74-d1f5-4152-855d-e673413d500d","system_id":"levelo_inurba_marseille","lat":43.2442,"lon":5.37039,"is_reserved":false,"is_disabled":false,"rental_uris":{"android":"levelo://app?vid=6e2caa74-d1f5-4152-855d-e673413d500d","ios":"levelo://app?vid=6e2caa74-d1f5-4152-855d-e673413d500d"},"vehicle_type_id":"4","last_reported":1762945774,"current_range_meters":17600,"station_id":"ce4bhhh2rcd13ifvqfk0","pricing_plan_id":"cebpf4jnsgd1na2vs0mg"},{"bike_id":"a725d8f6-10cb-4554-9e46-1e979f9cc53a","system_id":"levelo_inurba_marseille","lat":43.298677,"lon":5.39728,"is_reserved":false,"is_disabled":false,"rental_uris":{"android":"levelo://app?vid=a725d8f6-10cb-4554-9e46-1e979f9cc53a","ios":"levelo://app?vid=a725d8f6-10cb-4554-9e46-1e979f9cc53a"},"vehicle_type_id":"4","last_reported":1762945774,"current_range_meters":17600,"station_id":"ce4bh0h2rcd13ifvqd50","pricing_plan_id":"cebpf4jnsgd1na2vs0mg"},{"bike_id":"23f9c78c-ca0a-48be-8a9d-156c748920c2","system_id":"levelo_inurba_marseille","lat":43.279336,"lon":5.410204,"is_reserved":false,"is_disabled":false,"rental_uris":{"android":"levelo://app?vid=23f9c78c-ca0a-48be-8a9d-156c748920c2","ios":"levelo://app?vid=23f9c78c-ca0a-48be-8a9d-156c748920c2"},"vehicle_type_id":"4","last_reported":1762945774,"current_range_meters":17600,"station_id":"ce4bhnp2rcd13ifvqh0g","pricing_plan_id":"cebpf4jnsgd1na2vs0mg"},{"bike_id":"98d9ed27-1c51-4232-bb05-142a9e7f98db","system_id":"levelo_inurba_marseille","lat":43.310774,"lon":5.38353,"is_reserved":false,"is_disabled":true,"rental_uris":{"android":"levelo://app?vid=98d9ed27-1c51-4232-bb05-142a9e7f98db","ios":"levelo://app?vid=98d9ed27-1c51-4232-bb05-142a9e7f98db"},"vehicle_type_id":"4","last_reported":1762945774,"current_range_meters":17600,"station_id":"ce4bgv92rcd13ifvqcr0","pricing_plan_id":"cebpf4jnsgd1na2vs0mg"},{"bike_id":"e0940536-8e97-445f-9fc3-1d0cc2c2fe80","system_id":"levelo_inurba_marseille","lat":43.337444,"lon":5.374475,"is_reserved":false,"is_disabled":false,"rental_uris":{"android":"levelo://app?vid=e0940536-8e97-445f-9fc3-1d0cc2c2fe80","ios":"levelo://app?vid=e0940536-8e97-445f-9fc3-1d0cc2c2fe80"},"vehicle_type_id":"4","last_reported":1762945774,"current_range_meters":17600,"station_id":"","pricing_plan_id":"cebpf4jnsgd1na2vs0mg"},{"bike_id":"09c721f4-1f78-4c79-8e58-0baeb3cbc863","system_id":"levelo_inurba_marseille","lat":43.29175,"lon":5.37164,"is_reserved":false,"is_disabled":false,"rental_uris":{"android":"levelo://app?vid=09c721f4-1f78-4c79-8e58-0baeb3cbc863","ios":"levelo://app?vid=09c721f4-1f78-4c79-8e58-0baeb3cbc863"},"vehicle_type_id":"4","last_reported":1762945774,"current_range_meters":17600,"station_id":"ce4bha92rcd13ifvqeh0","pricing_plan_id":"cebpf4jnsgd1na2vs0mg"},{"bike_id":"ef3787f7-4815-49ad-b8f4-4132eb78b8f9","system_id":"levelo_inurba_marseille","lat":43.305388,"lon":5.365522,"is_reserved":false,"is_disabled":false,"rental_uris":{"android":"levelo://app?vid=ef3787f7-4815-49ad-b8f4-4132eb78b8f9","ios":"levelo://app?vid=ef3787f7-4815-49ad-b8f4-4132eb78b8f9"},"vehicle_type_id":"4","last_reported":1762945774,"current_range_meters":18000,"station_id":"","pricing_plan_id":"cebpf4jnsgd1na2vs0mg"},{"bike_id":"dfbb618d-40ac-4f2f-a22f-91225168e334","system_id":"levelo_inurba_marseille","lat":43.27214,"lon":5.39183,"is_reserved":false,"is_disabled":true,"rental_uris":{"android":"levelo://app?vid=dfbb618d-40ac-4f2f-a22f-91225168e334","ios":"levelo://app?vid=dfbb618d-40ac-4f2f-a22f-91225168e334"},"vehicle_type_id":"4","last_reported":1762945774,"current_range_meters":18000,"station_id":"ce4bhhp2rcd13ifvqfm0","pricing_plan_id":"cebpf4jnsgd1na2vs0mg"},{"bike_id":"ac7f558e-4423-4d13-ae02-00afc55d464e","system_id":"levelo_inurba_marseille","lat":43.304595,"lon":5.379168,"is_reserved":false,"is_disabled":false,"rental_uris":{"android":"levelo://app?vid=ac7f558e-4423-4d13-ae02-00afc55d464e","ios":"levelo://app?vid=ac7f558e-4423-4d13-ae02-00afc55d464e"},"vehicle_type_id":"4","last_reported":1762945774,"current_range_meters":18000,"station_id":"ce4bgup2rcd13ifvqcn0","pricing_plan_id":"cebpf4jnsgd1na2vs0mg"},{"bike_id":"9f257429-210e-4187-b310-fa3b4c5c3978","system_id":"levelo_inurba_marseille","lat":43.2733,"lon":5.4013,"is_reserved":false,"is_disabled":false,"rental_uris":{"android":"levelo://app?vid=9f257429-210e-4187-b310-fa3b4c5c3978","ios":"levelo://app?vid=9f257429-210e-4187-b310-fa3b4c5c3978"},"vehicle_type_id":"4","last_reported":1762945774,"current_range_meters":18000,"station_id":"","pricing_plan_id":"cebpf4jnsgd1na2vs0mg"},{"bike_id":"f72f5ef5-b3d5-4a53-ab2f-68c42c02df1e","system_id":"levelo_inurba_marseille","lat":43.280839,"lon":5.396665,"is_reserved":false,"is_disabled":false,"rental_uris":{"android":"levelo://app?vid=f72f5ef5-b3d5-4a53-ab2f-68c42c02df1e","ios":"levelo://app?vid=f72f5ef5-b3d5-4a53-ab2f-68c42c02df1e"},"vehicle_type_id":"4","last_reported":1762945774,"current_range_meters":18000,"station_id":"ce4bho12rcd13ifvqh2g","pricing_plan_id":"cebpf4jnsgd1na2vs0mg"},{"bike_id":"4f27c235-11df-4df2-bfdf-8938c3d9c6ba","system_id":"levelo_inurba_marseille","lat":43.33779,"lon":5.37411,"is_reserved":false,"is_disabled":false,"rental_uris":{"android":"levelo://app?vid=4f27c235-11df-4df2-bfdf-8938c3d9c6ba","ios":"levelo://app?vid=4f27c235-11df-4df2-bfdf-8938c3d9c6ba"},"vehicle_type_id":"4","last_reported":1762945774,"current_range_meters":18000,"station_id":"","pricing_plan_id":"cebpf4jnsgd1na2vs0mg"},{"bike_id":"2ecf2bf8-ba2a-42f1-b3cf-a8b248c543ea","system_id":"levelo_inurba_marseille","lat":43.30885,"lon":5.39659,"is_reserved":false,"is_disabled":false,"rental_uris":{"android":"levelo://app?vid=2ecf2bf8-ba2a-42f1-b3cf-a8b248c543ea","ios":"levelo://app?vid=2ecf2bf8-ba2a-42f1-b3cf-a8b248c543ea"},"vehicle_type_id":"4","last_reported":1762945774,"current_range_meters":18000,"station_id":"ce4bh012rcd13ifvqcv0","pricing_plan_id":"cebpf4jnsgd1na2vs0mg"},{"bike_id":"225316d1-feb8-4645-8ab2-c0ab8da6ef2a","system_id":"levelo_inurba_marseille","lat":43.25099,"lon":5.40313,"is_reserved":false,"is_disabled":false,"rental_uris":{"android":"levelo://app?vid=225316d1-feb8-4645-8ab2-c0ab8da6ef2a","ios":"levelo://app?vid=225316d1-feb8-4645-8ab2-c0ab8da6ef2a"},"vehicle_type_id":"4","last_reported":1762945774,"current_range_meters":18800,"station_id":"ce4bhlh2rcd13ifvqgig","pricing_plan_id":"cebpf4jnsgd1na2vs0mg"},{"bike_id":"e2a7d982-d002-4482-859a-1dcfe7b5c54a","system_id":"levelo_inurba_marseille","lat":43.27952,"lon":5.41038,"is_reserved":false,"is_disabled":false,"rental_uris":{"android":"levelo://app?vid=e2a7d982-d002-4482-859a-1dcfe7b5c54a","ios":"levelo://app?vid=e2a7d982-d002-4482-859a-1dcfe7b5c54a"},"vehicle_type_id":"4","last_reported":1762945774,"current_range_meters":18800,"station_id":"ce4bhnp2rcd13ifvqh0g","pricing_plan_id":"cebpf4jnsgd1na2vs0mg"},{"bike_id":"5e31c7d8-3f5b-43e0-9a64-04fd6cacf51c","system_id":"levelo_inurba_marseille","lat":43.30921,"lon":5.36863,"is_reserved":false,"is_disabled":false,"rental_uris":{"android":"levelo://app?vid=5e31c7d8-3f5b-43e0-9a64-04fd6cacf51c","ios":"levelo://app?vid=5e31c7d8-3f5b-43e0-9a64-04fd6cacf51c"},"vehicle_type_id":"4","last_reported":1762945774,"current_range_meters":18800,"station_id":"ce4bgn92rcd13ifvqbvg","pricing_plan_id":"cebpf4jnsgd1na2vs0mg"},{"bike_id":"1271c064-2a84-41e1-89fc-16b37b786535","system_id":"levelo_inurba_marseille","lat":43.267926,"lon":5.394115,"is_reserved":false,"is_disabled":false,"rental_uris":{"android":"levelo://app?vid=1271c064-2a84-41e1-89fc-16b37b786535","ios":"levelo://app?vid=1271c064-2a84-41e1-89fc-16b37b786535"},"vehicle_type_id":"4","last_reported":1762945774,"current_range_meters":18800,"station_id":"ce4bhh12rcd13ifvqfg0","pricing_plan_id":"cebpf4jnsgd1na2vs0mg"},{"bike_id":"c7f7ff3f-2fc8-43ae-9f5e-4ff5502534bd","system_id":"levelo_inurba_marseille","lat":43.27813,"lon":5.40713,"is_reserved":false,"is_disabled":false,"rental_uris":{"android":"levelo://app?vid=c7f7ff3f-2fc8-43ae-9f5e-4ff5502534bd","ios":"levelo://app?vid=c7f7ff3f-2fc8-43ae-9f5e-4ff5502534bd"},"vehicle_type_id":"4","last_reported":1762945774,"current_range_meters":18800,"station_id":"ce4bhnh2rcd13ifvqgtg","pricing_plan_id":"cebpf4jnsgd1na2vs0mg"},{"bike_id":"a68809aa-d0e6-461c-a5e6-8fdb1f2108c8","system_id":"levelo_inurba_marseille","lat":43.28296,"lon":5.35046,"is_reserved":false,"is_disabled":false,"rental_uris":{"android":"levelo://app?vid=a68809aa-d0e6-461c-a5e6-8fdb1f2108c8","ios":"levelo://app?vid=a68809aa-d0e6-461c-a5e6-8fdb1f2108c8"},"vehicle_type_id":"4","last_reported":1762945774,"current_range_meters":18800,"station_id":"ce4bhbp2rcd13ifvqerg","pricing_plan_id":"cebpf4jnsgd1na2vs0mg"},{"bike_id":"5a36232a-5263-4a1f-9d9f-c3c7a36c25ab","system_id":"levelo_inurba_marseille","lat":43.29748,"lon":5.37683,"is_reserved":false,"is_disabled":false,"rental_uris":{"android":"levelo://app?vid=5a36232a-5263-4a1f-9d9f-c3c7a36c25ab","ios":"levelo://app?vid=5a36232a-5263-4a1f-9d9f-c3c7a36c25ab"},"vehicle_type_id":"4","last_reported":1762945774,"current_range_meters":18800,"station_id":"ce4bgkh2rcd13ifvqbl0","pricing_plan_id":"cebpf4jnsgd1na2vs0mg"},{"bike_id":"08a136bb-ee0c-41e0-80ba-d7474874c4bb","system_id":"levelo_inurba_marseille","lat":43.30537,"lon":5.3654,"is_reserved":false,"is_disabled":false,"rental_uris":{"android":"levelo://app?vid=08a136bb-ee0c-41e0-80ba-d7474874c4bb","ios":"levelo://app?vid=08a136bb-ee0c-41e0-80ba-d7474874c4bb"},"vehicle_type_id":"4","last_reported":1762945774,"current_range_meters":18800,"station_id":"ce4bgs12rcd13ifvqcag","pricing_plan_id":"cebpf4jnsgd1na2vs0mg"},{"bike_id":"4b5864d2-3f59-4ce1-81fa-8b02366e2f43","system_id":"levelo_inurba_marseille","lat":43.30482,"lon":5.37909,"is_reserved":false,"is_disabled":false,"rental_uris":{"android":"levelo://app?vid=4b5864d2-3f59-4ce1-81fa-8b02366e2f43","ios":"levelo://app?vid=4b5864d2-3f59-4ce1-81fa-8b02366e2f43"},"vehicle_type_id":"4","last_reported":1762945774,"current_range_meters":19200,"station_id":"ce4bgup2rcd13ifvqcn0","pricing_plan_id":"cebpf4jnsgd1na2vs0mg"},{"bike_id":"c83b5c1b-edab-4bfb-a2f2-d3468c55c2ba","system_id":"levelo_inurba_marseille","lat":43.294826,"lon":5.444489,"is_reserved":false,"is_disabled":false,"rental_uris":{"android":"levelo://app?vid=c83b5c1b-edab-4bfb-a2f2-d3468c55c2ba","ios":"levelo://app?vid=c83b5c1b-edab-4bfb-a2f2-d3468c55c2ba"},"vehicle_type_id":"4","last_reported":1762945774,"current_range_meters":19200,"station_id":"","pricing_plan_id":"cebpf4jnsgd1na2vs0mg"},{"bike_id":"da8ca5d5-3337-4674-9ec8-dc32df8f4460","system_id":"levelo_inurba_marseille","lat":43.263992,"lon":5.404193,"is_reserved":false,"is_disabled":false,"rental_uris":{"android":"levelo://app?vid=da8ca5d5-3337-4674-9ec8-dc32df8f4460","ios":"levelo://app?vid=da8ca5d5-3337-4674-9ec8-dc32df8f4460"},"vehicle_type_id":"4","last_reported":1762945774,"current_range_meters":19200,"station_id":"ce4bhk92rcd13ifvqgc0","pricing_plan_id":"cebpf4jnsgd1na2vs0mg"},{"bike_id":"21305870-e2f8-4c1e-9524-0c8018904895","system_id":"levelo_inurba_marseille","lat":43.29916,"lon":5.37475,"is_reserved":false,"is_disabled":false,"rental_uris":{"android":"levelo://app?vid=21305870-e2f8-4c1e-9524-0c8018904895","ios":"levelo://app?vid=21305870-e2f8-4c1e-9524-0c8018904895"},"vehicle_type_id":"4","last_reported":1762945774,"current_range_meters":19200,"station_id":"ce4bgjh2rcd13ifvqbg0","pricing_plan_id":"cebpf4jnsgd1na2vs0mg"},{"bike_id":"b568d2c3-d20b-47ec-9444-65b9d0adcc4c","system_id":"levelo_inurba_marseille","lat":43.312583,"lon":5.368508,"is_reserved":false,"is_disabled":false,"rental_uris":{"android":"levelo://app?vid=b568d2c3-d20b-47ec-9444-65b9d0adcc4c","ios":"levelo://app?vid=b568d2c3-d20b-47ec-9444-65b9d0adcc4c"},"vehicle_type_id":"4","last_reported":1762945774,"current_range_meters":19200,"station_id":"ce4bgl92rcd13ifvqbq0","pricing_plan_id":"cebpf4jnsgd1na2vs0mg"},{"bike_id":"827197a3-b6ba-4b39-bae6-85b31f58a7b7","system_id":"levelo_inurba_marseille","lat":43.278752,"lon":5.380802,"is_reserved":false,"is_disabled":false,"rental_uris":{"android":"levelo://app?vid=827197a3-b6ba-4b39-bae6-85b31f58a7b7","ios":"levelo://app?vid=827197a3-b6ba-4b39-bae6-85b31f58a7b7"},"vehicle_type_id":"4","last_reported":1762945774,"current_range_meters":19200,"station_id":"ce4bhf92rcd13ifvqf50","pricing_plan_id":"cebpf4jnsgd1na2vs0mg"},{"bike_id":"3f3db3e0-8786-462c-9790-1156703a5fd2","system_id":"levelo_inurba_marseille","lat":43.22936,"lon":5.35353,"is_reserved":false,"is_disabled":false,"rental_uris":{"android":"levelo://app?vid=3f3db3e0-8786-462c-9790-1156703a5fd2","ios":"levelo://app?vid=3f3db3e0-8786-462c-9790-1156703a5fd2"},"vehicle_type_id":"4","last_reported":1762945774,"current_range_meters":19200,"station_id":"cpo3532slgdg3j2ikp40","pricing_plan_id":"cebpf4jnsgd1na2vs0mg"},{"bike_id":"3d9ecbd2-3a7b-49f6-9333-c9b065aa9e25","system_id":"levelo_inurba_marseille","lat":43.257179,"lon":5.41111,"is_reserved":false,"is_disabled":false,"rental_uris":{"android":"levelo://app?vid=3d9ecbd2-3a7b-49f6-9333-c9b065aa9e25","ios":"levelo://app?vid=3d9ecbd2-3a7b-49f6-9333-c9b065aa9e25"},"vehicle_type_id":"4","last_reported":1762945774,"current_range_meters":19200,"station_id":"ce4bhkp2rcd13ifvqgd0","pricing_plan_id":"cebpf4jnsgd1na2vs0mg"},{"bike_id":"48812cf1-d406-4ddc-ac37-09889e751308","system_id":"levelo_inurba_marseille","lat":43.321175,"lon":5.367725,"is_reserved":false,"is_disabled":true,"rental_uris":{"android":"levelo://app?vid=48812cf1-d406-4ddc-ac37-09889e751308","ios":"levelo://app?vid=48812cf1-d406-4ddc-ac37-09889e751308"},"vehicle_type_id":"4","last_reported":1762945774,"current_range_meters":19200,"station_id":"ce4bhrh2rcd13ifvqhug","pricing_plan_id":"cebpf4jnsgd1na2vs0mg"},{"bike_id":"1a938a77-25c5-4582-bf25-b6400579bcc3","system_id":"levelo_inurba_marseille","lat":43.297999,"lon":5.371094,"is_reserved":false,"is_disabled":false,"rental_uris":{"android":"levelo://app?vid=1a938a77-25c5-4582-bf25-b6400579bcc3","ios":"levelo://app?vid=1a938a77-25c5-4582-bf25-b6400579bcc3"},"vehicle_type_id":"4","last_reported":1762945774,"current_range_meters":19200,"station_id":"ce4bgop2rcd13ifvqc1g","pricing_plan_id":"cebpf4jnsgd1na2vs0mg"},{"bike_id":"af54c478-9567-441c-8802-eb3d7c9ad5d5","system_id":"levelo_inurba_marseille","lat":43.30034,"lon":5.38874,"is_reserved":false,"is_disabled":false,"rental_uris":{"android":"levelo://app?vid=af54c478-9567-441c-8802-eb3d7c9ad5d5","ios":"levelo://app?vid=af54c478-9567-441c-8802-eb3d7c9ad5d5"},"vehicle_type_id":"4","last_reported":1762945774,"current_range_meters":19600,"station_id":"","pricing_plan_id":"cebpf4jnsgd1na2vs0mg"},{"bike_id":"30b41e82-9b75-44bc-b241-bf93939ebc74","system_id":"levelo_inurba_marseille","lat":43.28864,"lon":5.42513,"is_reserved":false,"is_disabled":false,"rental_uris":{"android":"levelo://app?vid=30b41e82-9b75-44bc-b241-bf93939ebc74","ios":"levelo://app?vid=30b41e82-9b75-44bc-b241-bf93939ebc74"},"vehicle_type_id":"4","last_reported":1762945774,"current_range_meters":19600,"station_id":"st_d3b462108ojc7389ooeg","pricing_plan_id":"cebpf4jnsgd1na2vs0mg"},{"bike_id":"c3652b25-e673-4dd4-bbe8-06e118272bf3","system_id":"levelo_inurba_marseille","lat":43.30156,"lon":5.38097,"is_reserved":false,"is_disabled":false,"rental_uris":{"android":"levelo://app?vid=c3652b25-e673-4dd4-bbe8-06e118272bf3","ios":"levelo://app?vid=c3652b25-e673-4dd4-bbe8-06e118272bf3"},"vehicle_type_id":"4","last_reported":1762945774,"current_range_meters":19600,"station_id":"ce4bgjp2rcd13ifvqbh0","pricing_plan_id":"cebpf4jnsgd1na2vs0mg"},{"bike_id":"c4c00c6b-bf59-4ced-9cd2-5221eb62995e","system_id":"levelo_inurba_marseille","lat":43.30882,"lon":5.37196,"is_reserved":false,"is_disabled":false,"rental_uris":{"android":"levelo://app?vid=c4c00c6b-bf59-4ced-9cd2-5221eb62995e","ios":"levelo://app?vid=c4c00c6b-bf59-4ced-9cd2-5221eb62995e"},"vehicle_type_id":"4","last_reported":1762945774,"current_range_meters":19600,"station_id":"ce4bguh2rcd13ifvqckg","pricing_plan_id":"cebpf4jnsgd1na2vs0mg"},{"bike_id":"17b45ae9-b21d-4123-b2bb-a8045e355843","system_id":"levelo_inurba_marseille","lat":43.24053,"lon":5.37768,"is_reserved":false,"is_disabled":false,"rental_uris":{"android":"levelo://app?vid=17b45ae9-b21d-4123-b2bb-a8045e355843","ios":"levelo://app?vid=17b45ae9-b21d-4123-b2bb-a8045e355843"},"vehicle_type_id":"4","last_reported":1762945774,"current_range_meters":19600,"station_id":"ce4bhnp2rcd13ifvqgvg","pricing_plan_id":"cebpf4jnsgd1na2vs0mg"},{"bike_id":"4930e871-eeac-40ca-b4ee-36ddc8ee3366","system_id":"levelo_inurba_marseille","lat":43.23197,"lon":5.35559,"is_reserved":false,"is_disabled":false,"rental_uris":{"android":"levelo://app?vid=4930e871-eeac-40ca-b4ee-36ddc8ee3366","ios":"levelo://app?vid=4930e871-eeac-40ca-b4ee-36ddc8ee3366"},"vehicle_type_id":"4","last_reported":1762945774,"current_range_meters":19600,"station_id":"ce4bhu92rcd13ifvqi70","pricing_plan_id":"cebpf4jnsgd1na2vs0mg"},{"bike_id":"1826021c-78d5-4bf7-9950-ab922f7cd7e0","system_id":"levelo_inurba_marseille","lat":43.32355,"lon":5.36762,"is_reserved":false,"is_disabled":false,"rental_uris":{"android":"levelo://app?vid=1826021c-78d5-4bf7-9950-ab922f7cd7e0","ios":"levelo://app?vid=1826021c-78d5-4bf7-9950-ab922f7cd7e0"},"vehicle_type_id":"4","last_reported":1762945774,"current_range_meters":20000,"station_id":"ce4bhsh2rcd13ifvqi2g","pricing_plan_id":"cebpf4jnsgd1na2vs0mg"},{"bike_id":"7a1ef263-c216-402e-bafc-92d8214c104a","system_id":"levelo_inurba_marseille","lat":43.337444,"lon":5.374475,"is_reserved":false,"is_disabled":false,"rental_uris":{"android":"levelo://app?vid=7a1ef263-c216-402e-bafc-92d8214c104a","ios":"levelo://app?vid=7a1ef263-c216-402e-bafc-92d8214c104a"},"vehicle_type_id":"4","last_reported":1762945774,"current_range_meters":20000,"station_id":"","pricing_plan_id":"cebpf4jnsgd1na2vs0mg"},{"bike_id":"43ce8be6-8457-4fad-8532-6755f2c633c6","system_id":"levelo_inurba_marseille","lat":43.301373,"lon":5.39875,"is_reserved":false,"is_disabled":true,"rental_uris":{"android":"levelo://app?vid=43ce8be6-8457-4fad-8532-6755f2c633c6","ios":"levelo://app?vid=43ce8be6-8457-4fad-8532-6755f2c633c6"},"vehicle_type_id":"4","last_reported":1762945774,"current_range_meters":20000,"station_id":"ce4bh0h2rcd13ifvqd40","pricing_plan_id":"cebpf4jnsgd1na2vs0mg"},{"bike_id":"a7370d4d-7d95-4e0c-ab7f-8ecc877ed3af","system_id":"levelo_inurba_marseille","lat":43.253438,"lon":5.421794,"is_reserved":false,"is_disabled":false,"rental_uris":{"android":"levelo://app?vid=a7370d4d-7d95-4e0c-ab7f-8ecc877ed3af","ios":"levelo://app?vid=a7370d4d-7d95-4e0c-ab7f-8ecc877ed3af"},"vehicle_type_id":"4","last_reported":1762945774,"current_range_meters":20000,"station_id":"st_d2m65c5bi1j21697t3ng","pricing_plan_id":"cebpf4jnsgd1na2vs0mg"},{"bike_id":"241cfd86-a3cf-4255-8508-aed7ab6b2187","system_id":"levelo_inurba_marseille","lat":43.24164,"lon":5.36398,"is_reserved":false,"is_disabled":false,"rental_uris":{"android":"levelo://app?vid=241cfd86-a3cf-4255-8508-aed7ab6b2187","ios":"levelo://app?vid=241cfd86-a3cf-4255-8508-aed7ab6b2187"},"vehicle_type_id":"4","last_reported":1762945774,"current_range_meters":20000,"station_id":"cpo36qri1sfpv3e86is0","pricing_plan_id":"cebpf4jnsgd1na2vs0mg"},{"bike_id":"5c94fe7f-8bd8-42c1-b9c1-51a36da1d3b5","system_id":"levelo_inurba_marseille","lat":43.243884,"lon":5.370723,"is_reserved":false,"is_disabled":true,"rental_uris":{"android":"levelo://app?vid=5c94fe7f-8bd8-42c1-b9c1-51a36da1d3b5","ios":"levelo://app?vid=5c94fe7f-8bd8-42c1-b9c1-51a36da1d3b5"},"vehicle_type_id":"4","last_reported":1762945774,"current_range_meters":20000,"station_id":"ce4bhah2rcd13ifvqei0","pricing_plan_id":"cebpf4jnsgd1na2vs0mg"},{"bike_id":"21bcdd08-de4b-42b4-a3b0-f441a06b32c8","system_id":"levelo_inurba_marseille","lat":43.30535,"lon":5.366953,"is_reserved":false,"is_disabled":false,"rental_uris":{"android":"levelo://app?vid=21bcdd08-de4b-42b4-a3b0-f441a06b32c8","ios":"levelo://app?vid=21bcdd08-de4b-42b4-a3b0-f441a06b32c8"},"vehicle_type_id":"4","last_reported":1762945774,"current_range_meters":20000,"station_id":"ce4bgrp2rcd13ifvqc9g","pricing_plan_id":"cebpf4jnsgd1na2vs0mg"},{"bike_id":"f9f36748-9764-48ce-be89-00c313effd75","system_id":"levelo_inurba_marseille","lat":43.335443,"lon":5.374467,"is_reserved":false,"is_disabled":false,"rental_uris":{"android":"levelo://app?vid=f9f36748-9764-48ce-be89-00c313effd75","ios":"levelo://app?vid=f9f36748-9764-48ce-be89-00c313effd75"},"vehicle_type_id":"4","last_reported":1762945774,"current_range_meters":20000,"station_id":"st_d46tts09ee8s73dlu43g","pricing_plan_id":"cebpf4jnsgd1na2vs0mg"},{"bike_id":"addd3c33-c2de-4f9f-af73-20c800cd0d26","system_id":"levelo_inurba_marseille","lat":43.29611,"lon":5.38106,"is_reserved":false,"is_disabled":false,"rental_uris":{"android":"levelo://app?vid=addd3c33-c2de-4f9f-af73-20c800cd0d26","ios":"levelo://app?vid=addd3c33-c2de-4f9f-af73-20c800cd0d26"},"vehicle_type_id":"4","last_reported":1762945774,"current_range_meters":20000,"station_id":"ce4bgl12rcd13ifvqbo0","pricing_plan_id":"cebpf4jnsgd1na2vs0mg"},{"bike_id":"abbadb04-f19d-4641-81a6-b15104c2fec7","system_id":"levelo_inurba_marseille","lat":43.29013,"lon":5.35617,"is_reserved":false,"is_disabled":false,"rental_uris":{"android":"levelo://app?vid=abbadb04-f19d-4641-81a6-b15104c2fec7","ios":"levelo://app?vid=abbadb04-f19d-4641-81a6-b15104c2fec7"},"vehicle_type_id":"4","last_reported":1762945774,"current_range_meters":20000,"station_id":"ce4bhb92rcd13ifvqen0","pricing_plan_id":"cebpf4jnsgd1na2vs0mg"},{"bike_id":"0f765896-cfd7-4777-ace8-c83f3fcbf02a","system_id":"levelo_inurba_marseille","lat":43.26773,"lon":5.39408,"is_reserved":false,"is_disabled":false,"rental_uris":{"android":"levelo://app?vid=0f765896-cfd7-4777-ace8-c83f3fcbf02a","ios":"levelo://app?vid=0f765896-cfd7-4777-ace8-c83f3fcbf02a"},"vehicle_type_id":"4","last_reported":1762945774,"current_range_meters":20000,"station_id":"ce4bhh12rcd13ifvqfg0","pricing_plan_id":"cebpf4jnsgd1na2vs0mg"},{"bike_id":"cc0f8ca4-ae33-432c-aefe-5c00c9e85faf","system_id":"levelo_inurba_marseille","lat":43.28873,"lon":5.42509,"is_reserved":false,"is_disabled":false,"rental_uris":{"android":"levelo://app?vid=cc0f8ca4-ae33-432c-aefe-5c00c9e85faf","ios":"levelo://app?vid=cc0f8ca4-ae33-432c-aefe-5c00c9e85faf"},"vehicle_type_id":"4","last_reported":1762945774,"current_range_meters":20000,"station_id":"st_d3b462108ojc7389ooeg","pricing_plan_id":"cebpf4jnsgd1na2vs0mg"},{"bike_id":"000689e0-a5b8-412b-b1a0-2d089946569c","system_id":"levelo_inurba_marseille","lat":43.27567,"lon":5.38413,"is_reserved":false,"is_disabled":false,"rental_uris":{"android":"levelo://app?vid=000689e0-a5b8-412b-b1a0-2d089946569c","ios":"levelo://app?vid=000689e0-a5b8-412b-b1a0-2d089946569c"},"vehicle_type_id":"4","last_reported":1762945774,"current_range_meters":20000,"station_id":"ce4bhh92rcd13ifvqfi0","pricing_plan_id":"cebpf4jnsgd1na2vs0mg"},{"bike_id":"1c3f59a5-d84b-4f3e-8d30-08339f824f80","system_id":"levelo_inurba_marseille","lat":43.299847,"lon":5.400937,"is_reserved":false,"is_disabled":true,"rental_uris":{"android":"levelo://app?vid=1c3f59a5-d84b-4f3e-8d30-08339f824f80","ios":"levelo://app?vid=1c3f59a5-d84b-4f3e-8d30-08339f824f80"},"vehicle_type_id":"4","last_reported":1762945774,"current_range_meters":20000,"station_id":"ce4bh392rcd13ifvqdm0","pricing_plan_id":"cebpf4jnsgd1na2vs0mg"},{"bike_id":"68313caf-28e6-42bf-99dc-fc65ac9a96c6","system_id":"levelo_inurba_marseille","lat":43.23155,"lon":5.43708,"is_reserved":false,"is_disabled":false,"rental_uris":{"android":"levelo://app?vid=68313caf-28e6-42bf-99dc-fc65ac9a96c6","ios":"levelo://app?vid=68313caf-28e6-42bf-99dc-fc65ac9a96c6"},"vehicle_type_id":"4","last_reported":1762945774,"current_range_meters":20400,"station_id":"ce4bhmp2rcd13ifvqgog","pricing_plan_id":"cebpf4jnsgd1na2vs0mg"},{"bike_id":"5cddbf07-6733-4e42-a838-271dac68b134","system_id":"levelo_inurba_marseille","lat":43.31688,"lon":5.40422,"is_reserved":false,"is_disabled":false,"rental_uris":{"android":"levelo://app?vid=5cddbf07-6733-4e42-a838-271dac68b134","ios":"levelo://app?vid=5cddbf07-6733-4e42-a838-271dac68b134"},"vehicle_type_id":"4","last_reported":1762945774,"current_range_meters":20400,"station_id":"ce4bh012rcd13ifvqd00","pricing_plan_id":"cebpf4jnsgd1na2vs0mg"},{"bike_id":"8d8f84bd-35dc-4c7f-ad51-8e740f994a92","system_id":"levelo_inurba_marseille","lat":43.26784,"lon":5.3941,"is_reserved":false,"is_disabled":false,"rental_uris":{"android":"levelo://app?vid=8d8f84bd-35dc-4c7f-ad51-8e740f994a92","ios":"levelo://app?vid=8d8f84bd-35dc-4c7f-ad51-8e740f994a92"},"vehicle_type_id":"4","last_reported":1762945774,"current_range_meters":20400,"station_id":"ce4bhh12rcd13ifvqfg0","pricing_plan_id":"cebpf4jnsgd1na2vs0mg"},{"bike_id":"8a42869d-579e-49a0-818c-843e57583abc","system_id":"levelo_inurba_marseille","lat":43.275001,"lon":5.424497,"is_reserved":false,"is_disabled":false,"rental_uris":{"android":"levelo://app?vid=8a42869d-579e-49a0-818c-843e57583abc","ios":"levelo://app?vid=8a42869d-579e-49a0-818c-843e57583abc"},"vehicle_type_id":"4","last_reported":1762945774,"current_range_meters":20400,"station_id":"ce4bhn92rcd13ifvqgrg","pricing_plan_id":"cebpf4jnsgd1na2vs0mg"},{"bike_id":"49f16061-1364-427b-84f1-b87cd479f130","system_id":"levelo_inurba_marseille","lat":43.301056,"lon":5.391196,"is_reserved":false,"is_disabled":false,"rental_uris":{"android":"levelo://app?vid=49f16061-1364-427b-84f1-b87cd479f130","ios":"levelo://app?vid=49f16061-1364-427b-84f1-b87cd479f130"},"vehicle_type_id":"4","last_reported":1762945774,"current_range_meters":20400,"station_id":"ce4bh192rcd13ifvqdb0","pricing_plan_id":"cebpf4jnsgd1na2vs0mg"},{"bike_id":"72ef7a94-13b1-4fc0-a70a-b1e641114501","system_id":"levelo_inurba_marseille","lat":43.3048,"lon":5.37895,"is_reserved":false,"is_disabled":false,"rental_uris":{"android":"levelo://app?vid=72ef7a94-13b1-4fc0-a70a-b1e641114501","ios":"levelo://app?vid=72ef7a94-13b1-4fc0-a70a-b1e641114501"},"vehicle_type_id":"4","last_reported":1762945774,"current_range_meters":20400,"station_id":"ce4bgup2rcd13ifvqcn0","pricing_plan_id":"cebpf4jnsgd1na2vs0mg"},{"bike_id":"1cd94639-ec8b-4901-a526-c1b3a8882626","system_id":"levelo_inurba_marseille","lat":43.21748,"lon":5.34601,"is_reserved":false,"is_disabled":false,"rental_uris":{"android":"levelo://app?vid=1cd94639-ec8b-4901-a526-c1b3a8882626","ios":"levelo://app?vid=1cd94639-ec8b-4901-a526-c1b3a8882626"},"vehicle_type_id":"4","last_reported":1762945774,"current_range_meters":20800,"station_id":"","pricing_plan_id":"cebpf4jnsgd1na2vs0mg"},{"bike_id":"6dcf1725-dd9c-4b53-a6ce-a0f3cfb8edb3","system_id":"levelo_inurba_marseille","lat":43.290436,"lon":5.399671,"is_reserved":false,"is_disabled":true,"rental_uris":{"android":"levelo://app?vid=6dcf1725-dd9c-4b53-a6ce-a0f3cfb8edb3","ios":"levelo://app?vid=6dcf1725-dd9c-4b53-a6ce-a0f3cfb8edb3"},"vehicle_type_id":"4","last_reported":1762945774,"current_range_meters":20800,"station_id":"","pricing_plan_id":"cebpf4jnsgd1na2vs0mg"},{"bike_id":"a5177afe-2ccc-4812-b6dc-6f06e75bebff","system_id":"levelo_inurba_marseille","lat":43.29899,"lon":5.4367,"is_reserved":false,"is_disabled":false,"rental_uris":{"android":"levelo://app?vid=a5177afe-2ccc-4812-b6dc-6f06e75bebff","ios":"levelo://app?vid=a5177afe-2ccc-4812-b6dc-6f06e75bebff"},"vehicle_type_id":"4","last_reported":1762945774,"current_range_meters":20800,"station_id":"ce4bhpp2rcd13ifvqhfg","pricing_plan_id":"cebpf4jnsgd1na2vs0mg"},{"bike_id":"420599ee-85ad-483c-95c3-8df14f9c4e84","system_id":"levelo_inurba_marseille","lat":43.275159,"lon":5.389563,"is_reserved":false,"is_disabled":false,"rental_uris":{"android":"levelo://app?vid=420599ee-85ad-483c-95c3-8df14f9c4e84","ios":"levelo://app?vid=420599ee-85ad-483c-95c3-8df14f9c4e84"},"vehicle_type_id":"4","last_reported":1762945774,"current_range_meters":21600,"station_id":"ce4bhg12rcd13ifvqf80","pricing_plan_id":"cebpf4jnsgd1na2vs0mg"},{"bike_id":"fcc0b2d8-ab7d-4aa5-ad6f-e2ee4baabbb9","system_id":"levelo_inurba_marseille","lat":43.27497,"lon":5.42449,"is_reserved":false,"is_disabled":false,"rental_uris":{"android":"levelo://app?vid=fcc0b2d8-ab7d-4aa5-ad6f-e2ee4baabbb9","ios":"levelo://app?vid=fcc0b2d8-ab7d-4aa5-ad6f-e2ee4baabbb9"},"vehicle_type_id":"4","last_reported":1762945774,"current_range_meters":21600,"station_id":"ce4bhn92rcd13ifvqgrg","pricing_plan_id":"cebpf4jnsgd1na2vs0mg"},{"bike_id":"b837703b-7d34-4e81-af43-6d5eed4410ed","system_id":"levelo_inurba_marseille","lat":43.29787,"lon":5.37094,"is_reserved":false,"is_disabled":false,"rental_uris":{"android":"levelo://app?vid=b837703b-7d34-4e81-af43-6d5eed4410ed","ios":"levelo://app?vid=b837703b-7d34-4e81-af43-6d5eed4410ed"},"vehicle_type_id":"4","last_reported":1762945774,"current_range_meters":21600,"station_id":"ce4bgop2rcd13ifvqc1g","pricing_plan_id":"cebpf4jnsgd1na2vs0mg"},{"bike_id":"19b6cc81-0c1c-4d1b-a974-a96952eac8ce","system_id":"levelo_inurba_marseille","lat":43.27816,"lon":5.40712,"is_reserved":false,"is_disabled":false,"rental_uris":{"android":"levelo://app?vid=19b6cc81-0c1c-4d1b-a974-a96952eac8ce","ios":"levelo://app?vid=19b6cc81-0c1c-4d1b-a974-a96952eac8ce"},"vehicle_type_id":"4","last_reported":1762945774,"current_range_meters":21600,"station_id":"ce4bhnh2rcd13ifvqgtg","pricing_plan_id":"cebpf4jnsgd1na2vs0mg"},{"bike_id":"20832689-4d63-4431-8cde-741943eba01d","system_id":"levelo_inurba_marseille","lat":43.32376,"lon":5.36753,"is_reserved":false,"is_disabled":false,"rental_uris":{"android":"levelo://app?vid=20832689-4d63-4431-8cde-741943eba01d","ios":"levelo://app?vid=20832689-4d63-4431-8cde-741943eba01d"},"vehicle_type_id":"4","last_reported":1762945774,"current_range_meters":21600,"station_id":"ce4bhsh2rcd13ifvqi2g","pricing_plan_id":"cebpf4jnsgd1na2vs0mg"},{"bike_id":"ef376023-8d12-4e39-9095-b616110889d9","system_id":"levelo_inurba_marseille","lat":43.29507,"lon":5.37395,"is_reserved":false,"is_disabled":false,"rental_uris":{"android":"levelo://app?vid=ef376023-8d12-4e39-9095-b616110889d9","ios":"levelo://app?vid=ef376023-8d12-4e39-9095-b616110889d9"},"vehicle_type_id":"4","last_reported":1762945774,"current_range_meters":21600,"station_id":"","pricing_plan_id":"cebpf4jnsgd1na2vs0mg"},{"bike_id":"c2b3576f-78a4-453a-be9f-eaf674ebfc80","system_id":"levelo_inurba_marseille","lat":43.305328,"lon":5.367192,"is_reserved":false,"is_disabled":false,"rental_uris":{"android":"levelo://app?vid=c2b3576f-78a4-453a-be9f-eaf674ebfc80","ios":"levelo://app?vid=c2b3576f-78a4-453a-be9f-eaf674ebfc80"},"vehicle_type_id":"4","last_reported":1762945774,"current_range_meters":21600,"station_id":"ce4bgrp2rcd13ifvqc9g","pricing_plan_id":"cebpf4jnsgd1na2vs0mg"},{"bike_id":"0d3004e7-badb-4616-a87a-1ab82ea71d55","system_id":"levelo_inurba_marseille","lat":43.32039,"lon":5.41513,"is_reserved":false,"is_disabled":false,"rental_uris":{"android":"levelo://app?vid=0d3004e7-badb-4616-a87a-1ab82ea71d55","ios":"levelo://app?vid=0d3004e7-badb-4616-a87a-1ab82ea71d55"},"vehicle_type_id":"4","last_reported":1762945774,"current_range_meters":22000,"station_id":"ce4bhq92rcd13ifvqhkg","pricing_plan_id":"cebpf4jnsgd1na2vs0mg"},{"bike_id":"742f8f74-f1b1-4945-9811-7fcd5a8570d0","system_id":"levelo_inurba_marseille","lat":43.23787,"lon":5.36618,"is_reserved":false,"is_disabled":false,"rental_uris":{"android":"levelo://app?vid=742f8f74-f1b1-4945-9811-7fcd5a8570d0","ios":"levelo://app?vid=742f8f74-f1b1-4945-9811-7fcd5a8570d0"},"vehicle_type_id":"4","last_reported":1762945774,"current_range_meters":22000,"station_id":"st_d3nk18o9ro0c73en2l3g","pricing_plan_id":"cebpf4jnsgd1na2vs0mg"},{"bike_id":"7e8223f0-7629-45ef-a53f-aea40e84eee0","system_id":"levelo_inurba_marseille","lat":43.26562,"lon":5.37307,"is_reserved":false,"is_disabled":false,"rental_uris":{"android":"levelo://app?vid=7e8223f0-7629-45ef-a53f-aea40e84eee0","ios":"levelo://app?vid=7e8223f0-7629-45ef-a53f-aea40e84eee0"},"vehicle_type_id":"4","last_reported":1762945774,"current_range_meters":22000,"station_id":"ce4bhg12rcd13ifvqf70","pricing_plan_id":"cebpf4jnsgd1na2vs0mg"},{"bike_id":"fd234530-11fc-469e-bdff-11f0e5e0d0ce","system_id":"levelo_inurba_marseille","lat":43.31228,"lon":5.36857,"is_reserved":false,"is_disabled":false,"rental_uris":{"android":"levelo://app?vid=fd234530-11fc-469e-bdff-11f0e5e0d0ce","ios":"levelo://app?vid=fd234530-11fc-469e-bdff-11f0e5e0d0ce"},"vehicle_type_id":"4","last_reported":1762945774,"current_range_meters":22000,"station_id":"ce4bgl92rcd13ifvqbq0","pricing_plan_id":"cebpf4jnsgd1na2vs0mg"},{"bike_id":"d3af20ce-09b7-4da5-88b3-378193580e60","system_id":"levelo_inurba_marseille","lat":43.246487,"lon":5.388885,"is_reserved":false,"is_disabled":false,"rental_uris":{"android":"levelo://app?vid=d3af20ce-09b7-4da5-88b3-378193580e60","ios":"levelo://app?vid=d3af20ce-09b7-4da5-88b3-378193580e60"},"vehicle_type_id":"4","last_reported":1762945774,"current_range_meters":22000,"station_id":"ce4bhg12rcd13ifvqf60","pricing_plan_id":"cebpf4jnsgd1na2vs0mg"},{"bike_id":"5ef6b54a-7616-4541-96df-bf83317eaa47","system_id":"levelo_inurba_marseille","lat":43.266891,"lon":5.382774,"is_reserved":false,"is_disabled":false,"rental_uris":{"android":"levelo://app?vid=5ef6b54a-7616-4541-96df-bf83317eaa47","ios":"levelo://app?vid=5ef6b54a-7616-4541-96df-bf83317eaa47"},"vehicle_type_id":"4","last_reported":1762945774,"current_range_meters":22000,"station_id":"ce4bhg92rcd13ifvqf90","pricing_plan_id":"cebpf4jnsgd1na2vs0mg"},{"bike_id":"4c87e54a-0bb9-4325-aa91-63565d7f1928","system_id":"levelo_inurba_marseille","lat":43.30814,"lon":5.38139,"is_reserved":false,"is_disabled":false,"rental_uris":{"android":"levelo://app?vid=4c87e54a-0bb9-4325-aa91-63565d7f1928","ios":"levelo://app?vid=4c87e54a-0bb9-4325-aa91-63565d7f1928"},"vehicle_type_id":"4","last_reported":1762945774,"current_range_meters":22000,"station_id":"ce4bgt12rcd13ifvqce0","pricing_plan_id":"cebpf4jnsgd1na2vs0mg"},{"bike_id":"b99962fb-080d-470e-8a1f-3186d64d57c6","system_id":"levelo_inurba_marseille","lat":43.25505,"lon":5.37652,"is_reserved":false,"is_disabled":false,"rental_uris":{"android":"levelo://app?vid=b99962fb-080d-470e-8a1f-3186d64d57c6","ios":"levelo://app?vid=b99962fb-080d-470e-8a1f-3186d64d57c6"},"vehicle_type_id":"4","last_reported":1762945774,"current_range_meters":22000,"station_id":"","pricing_plan_id":"cebpf4jnsgd1na2vs0mg"},{"bike_id":"9606100b-974a-48bc-aa84-c80eed5bf8e2","system_id":"levelo_inurba_marseille","lat":43.309259,"lon":5.368577,"is_reserved":false,"is_disabled":true,"rental_uris":{"android":"levelo://app?vid=9606100b-974a-48bc-aa84-c80eed5bf8e2","ios":"levelo://app?vid=9606100b-974a-48bc-aa84-c80eed5bf8e2"},"vehicle_type_id":"4","last_reported":1762945774,"current_range_meters":22000,"station_id":"ce4bgn92rcd13ifvqbvg","pricing_plan_id":"cebpf4jnsgd1na2vs0mg"},{"bike_id":"da9e30ee-27c5-4b7b-adba-050d04c00af5","system_id":"levelo_inurba_marseille","lat":43.3176,"lon":5.39015,"is_reserved":false,"is_disabled":false,"rental_uris":{"android":"levelo://app?vid=da9e30ee-27c5-4b7b-adba-050d04c00af5","ios":"levelo://app?vid=da9e30ee-27c5-4b7b-adba-050d04c00af5"},"vehicle_type_id":"4","last_reported":1762945774,"current_range_meters":22000,"station_id":"ce4bhqp2rcd13ifvqhng","pricing_plan_id":"cebpf4jnsgd1na2vs0mg"},{"bike_id":"b27cedc2-e39d-4ec8-ad10-c2ff85b9ba30","system_id":"levelo_inurba_marseille","lat":43.28863,"lon":5.35861,"is_reserved":false,"is_disabled":false,"rental_uris":{"android":"levelo://app?vid=b27cedc2-e39d-4ec8-ad10-c2ff85b9ba30","ios":"levelo://app?vid=b27cedc2-e39d-4ec8-ad10-c2ff85b9ba30"},"vehicle_type_id":"4","last_reported":1762945774,"current_range_meters":22400,"station_id":"ce4bhb12rcd13ifvqem0","pricing_plan_id":"cebpf4jnsgd1na2vs0mg"},{"bike_id":"7d24f16f-3ff1-452c-b1c3-a4046e27fdbf","system_id":"levelo_inurba_marseille","lat":43.2417,"lon":5.36402,"is_reserved":false,"is_disabled":false,"rental_uris":{"android":"levelo://app?vid=7d24f16f-3ff1-452c-b1c3-a4046e27fdbf","ios":"levelo://app?vid=7d24f16f-3ff1-452c-b1c3-a4046e27fdbf"},"vehicle_type_id":"4","last_reported":1762945774,"current_range_meters":22400,"station_id":"cpo36qri1sfpv3e86is0","pricing_plan_id":"cebpf4jnsgd1na2vs0mg"},{"bike_id":"26540c10-3858-44a1-b340-3fb5fc3ed03d","system_id":"levelo_inurba_marseille","lat":43.30536,"lon":5.38426,"is_reserved":false,"is_disabled":false,"rental_uris":{"android":"levelo://app?vid=26540c10-3858-44a1-b340-3fb5fc3ed03d","ios":"levelo://app?vid=26540c10-3858-44a1-b340-3fb5fc3ed03d"},"vehicle_type_id":"4","last_reported":1762945774,"current_range_meters":22400,"station_id":"ce4bgg92rcd13ifvqb30","pricing_plan_id":"cebpf4jnsgd1na2vs0mg"},{"bike_id":"b2495df4-2dbb-4f44-b4ff-10828caa0f2c","system_id":"levelo_inurba_marseille","lat":43.30536,"lon":5.36559,"is_reserved":false,"is_disabled":false,"rental_uris":{"android":"levelo://app?vid=b2495df4-2dbb-4f44-b4ff-10828caa0f2c","ios":"levelo://app?vid=b2495df4-2dbb-4f44-b4ff-10828caa0f2c"},"vehicle_type_id":"4","last_reported":1762945774,"current_range_meters":22400,"station_id":"ce4bgs12rcd13ifvqcag","pricing_plan_id":"cebpf4jnsgd1na2vs0mg"},{"bike_id":"6a2757b1-562e-473f-a7c0-b21f13eee8f8","system_id":"levelo_inurba_marseille","lat":43.265569,"lon":5.372824,"is_reserved":false,"is_disabled":false,"rental_uris":{"android":"levelo://app?vid=6a2757b1-562e-473f-a7c0-b21f13eee8f8","ios":"levelo://app?vid=6a2757b1-562e-473f-a7c0-b21f13eee8f8"},"vehicle_type_id":"4","last_reported":1762945774,"current_range_meters":22400,"station_id":"","pricing_plan_id":"cebpf4jnsgd1na2vs0mg"},{"bike_id":"17c2c552-132f-4eb8-bdaa-75b8888374a4","system_id":"levelo_inurba_marseille","lat":43.24177,"lon":5.36397,"is_reserved":false,"is_disabled":false,"rental_uris":{"android":"levelo://app?vid=17c2c552-132f-4eb8-bdaa-75b8888374a4","ios":"levelo://app?vid=17c2c552-132f-4eb8-bdaa-75b8888374a4"},"vehicle_type_id":"4","last_reported":1762945774,"current_range_meters":22400,"station_id":"cpo36qri1sfpv3e86is0","pricing_plan_id":"cebpf4jnsgd1na2vs0mg"},{"bike_id":"e4ab1b2e-4a13-411c-842b-426c7d2a675c","system_id":"levelo_inurba_marseille","lat":43.28572,"lon":5.35068,"is_reserved":false,"is_disabled":false,"rental_uris":{"android":"levelo://app?vid=e4ab1b2e-4a13-411c-842b-426c7d2a675c","ios":"levelo://app?vid=e4ab1b2e-4a13-411c-842b-426c7d2a675c"},"vehicle_type_id":"4","last_reported":1762945774,"current_range_meters":22400,"station_id":"","pricing_plan_id":"cebpf4jnsgd1na2vs0mg"},{"bike_id":"8e48f4a0-5585-47cf-910b-6e9b78b38aaf","system_id":"levelo_inurba_marseille","lat":43.29918,"lon":5.37479,"is_reserved":false,"is_disabled":false,"rental_uris":{"android":"levelo://app?vid=8e48f4a0-5585-47cf-910b-6e9b78b38aaf","ios":"levelo://app?vid=8e48f4a0-5585-47cf-910b-6e9b78b38aaf"},"vehicle_type_id":"4","last_reported":1762945774,"current_range_meters":22800,"station_id":"ce4bgjh2rcd13ifvqbg0","pricing_plan_id":"cebpf4jnsgd1na2vs0mg"},{"bike_id":"c78a4112-0602-413e-bf7b-21609c69d744","system_id":"levelo_inurba_marseille","lat":43.22566,"lon":5.41623,"is_reserved":false,"is_disabled":false,"rental_uris":{"android":"levelo://app?vid=c78a4112-0602-413e-bf7b-21609c69d744","ios":"levelo://app?vid=c78a4112-0602-413e-bf7b-21609c69d744"},"vehicle_type_id":"4","last_reported":1762945774,"current_range_meters":22800,"station_id":"st_d2o4gvlbi1j2169b742g","pricing_plan_id":"cebpf4jnsgd1na2vs0mg"},{"bike_id":"842d3bb5-2c5d-4462-9f0d-775ab9094d4e","system_id":"levelo_inurba_marseille","lat":43.299289,"lon":5.374568,"is_reserved":false,"is_disabled":false,"rental_uris":{"android":"levelo://app?vid=842d3bb5-2c5d-4462-9f0d-775ab9094d4e","ios":"levelo://app?vid=842d3bb5-2c5d-4462-9f0d-775ab9094d4e"},"vehicle_type_id":"4","last_reported":1762945774,"current_range_meters":22800,"station_id":"ce4bgjh2rcd13ifvqbg0","pricing_plan_id":"cebpf4jnsgd1na2vs0mg"},{"bike_id":"40cb67bd-dec9-4e89-b4a4-30bafa8ef707","system_id":"levelo_inurba_marseille","lat":43.28843,"lon":5.35856,"is_reserved":false,"is_disabled":false,"rental_uris":{"android":"levelo://app?vid=40cb67bd-dec9-4e89-b4a4-30bafa8ef707","ios":"levelo://app?vid=40cb67bd-dec9-4e89-b4a4-30bafa8ef707"},"vehicle_type_id":"4","last_reported":1762945774,"current_range_meters":22800,"station_id":"ce4bhb12rcd13ifvqem0","pricing_plan_id":"cebpf4jnsgd1na2vs0mg"},{"bike_id":"430770ba-5ce9-4f69-9149-d784c46355f8","system_id":"levelo_inurba_marseille","lat":43.22559,"lon":5.41626,"is_reserved":false,"is_disabled":false,"rental_uris":{"android":"levelo://app?vid=430770ba-5ce9-4f69-9149-d784c46355f8","ios":"levelo://app?vid=430770ba-5ce9-4f69-9149-d784c46355f8"},"vehicle_type_id":"4","last_reported":1762945774,"current_range_meters":23200,"station_id":"st_d2o4gvlbi1j2169b742g","pricing_plan_id":"cebpf4jnsgd1na2vs0mg"},