{"last_updated":1735506592,"ttl":60,"version":"2.2","data":{"bikes":[{"bike_id":"165cdd7b-2529-448e-9c75-c0b1cba85ad1","system_id":"levelo_inurba_marseille","lat":43.29539,"lon":5.385328,"is_reserved":false,"is_disabled":false,"rental_uris":{"android":"levelo://app?vid=165cdd7b-2529-448e-9c75-c0b1cba85ad1","ios":"levelo://app?vid=165cdd7b-2529-448e-9c75-c0b1cba85ad1"},"vehicle_type_id":"4","last_reported":1735506592,"current_range_meters":34800,"station_id":"ce4bgih2rcd13ifvqba0","pricing_plan_id":"cebpf4jnsgd1na2vs0mg"},{"bike_id":"33b5a917-7d76-47f1-95b1-e5ff48dbe431","system_id":"levelo_inurba_marseille","lat":43.32368,"lon":5.38882,"is_reserved":false,"is_disabled":false,"rental_uris":{"android":"levelo://app?vid=33b5a917-7d76-47f1-95b1-e5ff48dbe431","ios":"levelo://app?vid=33b5a917-7d76-47f1-95b1-e5ff48dbe431"},"vehicle_type_id":"4","last_reported":1735506592,"current_range_meters":19600,"station_id":"ce4bhqp2rcd13ifvqhog","pricing_plan_id":"cebpf4jnsgd1na2vs0mg"},{"bike_id":"cdbb548e-aee0-4348-bb88-25dd719a6fd6","system_id":"levelo_inurba_marseille","lat":43.31366,"lon":5.38498,"is_reserved":false,"is_disabled":false,"rental_uris":{"android":"levelo://app?vid=cdbb548e-aee0-4348-bb88-25dd719a6fd6","ios":"levelo://app?vid=cdbb548e-aee0-4348-bb88-25dd719a6fd6"},"vehicle_type_id":"4","last_reported":1735506592,"current_range_meters":38800,"station_id":"ce4bgt92rcd13ifvqcf0","pricing_plan_id":"cebpf4jnsgd1na2vs0mg"},{"bike_id":"a3793f4e-de76-4b88-b43c-210bdae1e205","system_id":"levelo_inurba_marseille","lat":43.29262,"lon":5.38437,"is_reserved":false,"is_disabled":false,"rental_uris":{"android":"levelo://app?vid=a3793f4e-de76-4b88-b43c-210bdae1e205","ios":"levelo://app?vid=a3793f4e-de76-4b88-b43c-210bdae1e205"},"vehicle_type_id":"4","last_reported":1735506592,"current_range_meters":39200,"station_id":"ce4bh692rcd13ifvqea0","pricing_plan_id":"cebpf4jnsgd1na2vs0mg"},{"bike_id":"8a71efbb-fe9d-4b10-bc14-57141a338104","system_id":"levelo_inurba_marseille","lat":43.29792,"lon":5.38083,"is_reserved":false,"is_disabled":false,"rental_uris":{"android":"levelo://app?vid=8a71efbb-fe9d-4b10-bc14-57141a338104","ios":"levelo://app?vid=8a71efbb-fe9d-4b10-bc14-57141a338104"},"vehicle_type_id":"4","last_reported":1735506592,"current_range_meters":24800,"station_id":"ce4bgip2rcd13ifvqbb0","pricing_plan_id":"cebpf4jnsgd1na2vs0mg"},{"bike_id":"5af25717-8ba6-4a01-9c8b-2b037b32eae1","system_id":"levelo_inurba_marseille","lat":43.27392,"lon":5.39404,"is_reserved":false,"is_disabled":false,"rental_uris":{"android":"levelo://app?vid=5af25717-8ba6-4a01-9c8b-2b037b32eae1","ios":"levelo://app?vid=5af25717-8ba6-4a01-9c8b-2b037b32eae1"},"vehicle_type_id":"4","last_reported":1735506592,"current_range_meters":6400,"station_id":"ce4bhdp2rcd13ifvqf20","pricing_plan_id":"cebpf4jnsgd1na2vs0mg"},{"bike_id":"5b638167-1ef1-4432-b33a-08fdb21c9862","system_id":"levelo_inurba_marseille","lat":43.27958,"lon":5.41048,"is_reserved":false,"is_disabled":false,"rental_uris":{"android":"levelo://app?vid=5b638167-1ef1-4432-b33a-08fdb21c9862","ios":"levelo://app?vid=5b638167-1ef1-4432-b33a-08fdb21c9862"},"vehicle_type_id":"4","last_reported":1735506592,"current_range_meters":30800,"station_id":"ce4bhnp2rcd13ifvqh0g","pricing_plan_id":"cebpf4jnsgd1na2vs0mg"},{"bike_id":"4a587697-2a9f-42ac-8bf6-25562233e2a1","system_id":"levelo_inurba_marseille","lat":43.30325,"lon":5.40445,"is_reserved":false,"is_disabled":false,"rental_uris":{"android":"levelo://app?vid=4a587697-2a9f-42ac-8bf6-25562233e2a1","ios":"levelo://app?vid=4a587697-2a9f-42ac-8bf6-25562233e2a1"},"vehicle_type_id":"4","last_reported":1735506592,"current_range_meters":32000,"station_id":"ce4bh012rcd13ifvqd10","pricing_plan_id":"cebpf4jnsgd1na2vs0mg"},{"bike_id":"3991aac2-ec7f-43c8-801f-23e11845f2d6","system_id":"levelo_inurba_marseille","lat":43.28166,"lon":5.42642,"is_reserved":false,"is_disabled":false,"rental_uris":{"android":"levelo://app?vid=3991aac2-ec7f-43c8-801f-23e11845f2d6","ios":"levelo://app?vid=3991aac2-ec7f-43c8-801f-23e11845f2d6"},"vehicle_type_id":"4","last_reported":1735506592,"current_range_meters":38800,"station_id":"ce4bhnh2rcd13ifvqgug","pricing_plan_id":"cebpf4jnsgd1na2vs0mg"},{"bike_id":"04130b7b-3d64-4327-a94c-65efc12e5e76","system_id":"levelo_inurba_marseille","lat":43.30604,"lon":5.37224,"is_reserved":false,"is_disabled":false,"rental_uris":{"android":"levelo://app?vid=04130b7b-3d64-4327-a94c-65efc12e5e76","ios":"levelo://app?vid=04130b7b-3d64-4327-a94c-65efc12e5e76"},"vehicle_type_id":"4","last_reported":1735506592,"current_range_meters":30400,"station_id":"ce4bgqh2rcd13ifvqc4g","pricing_plan_id":"cebpf4jnsgd1na2vs0mg"},{"bike_id":"03e6bafc-8218-4612-9dca-578185ae41b4","system_id":"levelo_inurba_marseille","lat":43.29223,"lon":5.36043,"is_reserved":false,"is_disabled":true,"rental_uris":{"android":"levelo://app?vid=03e6bafc-8218-4612-9dca-578185ae41b4","ios":"levelo://app?vid=03e6bafc-8218-4612-9dca-578185ae41b4"},"vehicle_type_id":"4","last_reported":1735506592,"current_range_meters":32800,"station_id":"ce4bhbh2rcd13ifvqeqg","pricing_plan_id":"cebpf4jnsgd1na2vs0mg"},{"bike_id":"12f61c1a-8796-438f-9634-4b75cb3eb94b","system_id":"levelo_inurba_marseille","lat":43.25864,"lon":5.39899,"is_reserved":false,"is_disabled":false,"rental_uris":{"android":"levelo://app?vid=12f61c1a-8796-438f-9634-4b75cb3eb94b","ios":"levelo://app?vid=12f61c1a-8796-438f-9634-4b75cb3eb94b"},"vehicle_type_id":"4","last_reported":1735506592,"current_range_meters":37600,"station_id":"ce4bhl92rcd13ifvqghg","pricing_plan_id":"cebpf4jnsgd1na2vs0mg"},{"bike_id":"1c27e5ae-df55-47e4-a11a-b007af723439","system_id":"levelo_inurba_marseille","lat":43.25587,"lon":5.38225,"is_reserved":false,"is_disabled":false,"rental_uris":{"android":"levelo://app?vid=1c27e5ae-df55-47e4-a11a-b007af723439","ios":"levelo://app?vid=1c27e5ae-df55-47e4-a11a-b007af723439"},"vehicle_type_id":"4","last_reported":1735506592,"current_range_meters":38400,"station_id":"ce4bhih2rcd13ifvqfs0","pricing_plan_id":"cebpf4jnsgd1na2vs0mg"},{"bike_id":"b74a63ef-de2c-467a-b13d-21a8ed4eabe8","system_id":"levelo_inurba_marseille","lat":43.280352,"lon":5.36945,"is_reserved":false,"is_disabled":false,"rental_uris":{"android":"levelo://app?vid=b74a63ef-de2c-467a-b13d-21a8ed4eabe8","ios":"levelo://app?vid=b74a63ef-de2c-467a-b13d-21a8ed4eabe8"},"vehicle_type_id":"4","last_reported":1735506592,"current_range_meters":29600,"station_id":"ce4bha12rcd13ifvqef0","pricing_plan_id":"cebpf4jnsgd1na2vs0mg"},{"bike_id":"3b3d2c75-4195-4f81-af35-afa13ebc8eea","system_id":"levelo_inurba_marseille","lat":43.27376,"lon":5.36224,"is_reserved":false,"is_disabled":true,"rental_uris":{"android":"levelo://app?vid=3b3d2c75-4195-4f81-af35-afa13ebc8eea","ios":"levelo://app?vid=3b3d2c75-4195-4f81-af35-afa13ebc8eea"},"vehicle_type_id":"4","last_reported":1735506592,"current_range_meters":25600,"station_id":"ce4bhbh2rcd13ifvqeo0","pricing_plan_id":"cebpf4jnsgd1na2vs0mg"},{"bike_id":"a1a5f3fe-7f90-4223-b04a-63f973fe01fd","system_id":"levelo_inurba_marseille","lat":43.24013,"lon":5.37729,"is_reserved":false,"is_disabled":false,"rental_uris":{"android":"levelo://app?vid=a1a5f3fe-7f90-4223-b04a-63f973fe01fd","ios":"levelo://app?vid=a1a5f3fe-7f90-4223-b04a-63f973fe01fd"},"vehicle_type_id":"4","last_reported":1735506592,"current_range_meters":16400,"station_id":"","pricing_plan_id":"cebpf4jnsgd1na2vs0mg"},{"bike_id":"ecf0e1df-bdc6-4c78-ae54-45aa3b911979","system_id":"levelo_inurba_marseille","lat":43.29067,"lon":5.3715,"is_reserved":false,"is_disabled":false,"rental_uris":{"android":"levelo://app?vid=ecf0e1df-bdc6-4c78-ae54-45aa3b911979","ios":"levelo://app?vid=ecf0e1df-bdc6-4c78-ae54-45aa3b911979"},"vehicle_type_id":"4","last_reported":1735506592,"current_range_meters":27200,"station_id":"ce4bh5p2rcd13ifvqe4g","pricing_plan_id":"cebpf4jnsgd1na2vs0mg"},{"bike_id":"99c6b87a-843d-4eac-96f7-03bb3144a23d","system_id":"levelo_inurba_marseille","lat":43.2319,"lon":5.35553,"is_reserved":false,"is_disabled":false,"rental_uris":{"android":"levelo://app?vid=99c6b87a-843d-4eac-96f7-03bb3144a23d","ios":"levelo://app?vid=99c6b87a-843d-4eac-96f7-03bb3144a23d"},"vehicle_type_id":"4","last_reported":1735506592,"current_range_meters":28400,"station_id":"ce4bhu92rcd13ifvqi70","pricing_plan_id":"cebpf4jnsgd1na2vs0mg"},{"bike_id":"4a19b747-9ad3-4c70-a28f-5d0cc9e5a615","system_id":"levelo_inurba_marseille","lat":43.28852,"lon":5.35846,"is_reserved":false,"is_disabled":false,"rental_uris":{"android":"levelo://app?vid=4a19b747-9ad3-4c70-a28f-5d0cc9e5a615","ios":"levelo://app?vid=4a19b747-9ad3-4c70-a28f-5d0cc9e5a615"},"vehicle_type_id":"4","last_reported":1735506592,"current_range_meters":17200,"station_id":"ce4bhb12rcd13ifvqem0","pricing_plan_id":"cebpf4jnsgd1na2vs0mg"},{"bike_id":"bb7ba38a-7f5f-4f4b-91ca-64dbf75baab1","system_id":"levelo_inurba_marseille","lat":43.30935,"lon":5.40135,"is_reserved":false,"is_disabled":false,"rental_uris":{"android":"levelo://app?vid=bb7ba38a-7f5f-4f4b-91ca-64dbf75baab1","ios":"levelo://app?vid=bb7ba38a-7f5f-4f4b-91ca-64dbf75baab1"},"vehicle_type_id":"4","last_reported":1735506592,"current_range_meters":25600,"station_id":"ce4bgvp2rcd13ifvqct0","pricing_plan_id":"cebpf4jnsgd1na2vs0mg"},{"bike_id":"bbf509d3-d0d2-4376-b43d-ddcdf50db3b4","system_id":"levelo_inurba_marseille","lat":43.29518,"lon":5.39043,"is_reserved":false,"is_disabled":false,"rental_uris":{"android":"levelo://app?vid=bbf509d3-d0d2-4376-b43d-ddcdf50db3b4","ios":"levelo://app?vid=bbf509d3-d0d2-4376-b43d-ddcdf50db3b4"},"vehicle_type_id":"4","last_reported":1735506592,"current_range_meters":39200,"station_id":"ce4bh3p2rcd13ifvqdp0","pricing_plan_id":"cebpf4jnsgd1na2vs0mg"},{"bike_id":"5bf830ab-a60a-483c-ad38-179cd46cb9ae","system_id":"levelo_inurba_marseille","lat":43.2952,"lon":5.39031,"is_reserved":false,"is_disabled":false,"rental_uris":{"android":"levelo://app?vid=5bf830ab-a60a-483c-ad38-179cd46cb9ae","ios":"levelo://app?vid=5bf830ab-a60a-483c-ad38-179cd46cb9ae"},"vehicle_type_id":"4","last_reported":1735506592,"current_range_meters":28000,"station_id":"ce4bh3p2rcd13ifvqdp0","pricing_plan_id":"cebpf4jnsgd1na2vs0mg"},{"bike_id":"1c085eb0-a838-474b-8463-2fa9b3ca6bc7","system_id":"levelo_inurba_marseille","lat":43.30094,"lon":5.39084,"is_reserved":false,"is_disabled":false,"rental_uris":{"android":"levelo://app?vid=1c085eb0-a838-474b-8463-2fa9b3ca6bc7","ios":"levelo://app?vid=1c085eb0-a838-474b-8463-2fa9b3ca6bc7"},"vehicle_type_id":"4","last_reported":1735506592,"current_range_meters":36800,"station_id":"ce4bh192rcd13ifvqdb0","pricing_plan_id":"cebpf4jnsgd1na2vs0mg"},{"bike_id":"9a503b4a-6ab1-4b37-b592-79eca06f8ee8","system_id":"levelo_inurba_marseille","lat":43.29041,"lon":5.37152,"is_reserved":false,"is_disabled":false,"rental_uris":{"android":"levelo://app?vid=9a503b4a-6ab1-4b37-b592-79eca06f8ee8","ios":"levelo://app?vid=9a503b4a-6ab1-4b37-b592-79eca06f8ee8"},"vehicle_type_id":"4","last_reported":1735506592,"current_range_meters":38800,"station_id":"ce4bh5p2rcd13ifvqe4g","pricing_plan_id":"cebpf4jnsgd1na2vs0mg"},{"bike_id":"857344dd-6be1-4d34-90e7-6f62afbbef2e","system_id":"levelo_inurba_marseille","lat":43.32107,"lon":5.3677,"is_reserved":false,"is_disabled":false,"rental_uris":{"android":"levelo://app?vid=857344dd-6be1-4d34-90e7-6f62afbbef2e","ios":"levelo://app?vid=857344dd-6be1-4d34-90e7-6f62afbbef2e"},"vehicle_type_id":"4","last_reported":1735506592,"current_range_meters":27200,"station_id":"ce4bhrh2rcd13ifvqhug","pricing_plan_id":"cebpf4jnsgd1na2vs0mg"},{"bike_id":"f72bcf9d-a5e7-43a8-8f8f-cc80fe217a5e","system_id":"levelo_inurba_marseille","lat":43.29063,"lon":5.37152,"is_reserved":false,"is_disabled":false,"rental_uris":{"android":"levelo://app?vid=f72bcf9d-a5e7-43a8-8f8f-cc80fe217a5e","ios":"levelo://app?vid=f72bcf9d-a5e7-43a8-8f8f-cc80fe217a5e"},"vehicle_type_id":"4","last_reported":1735506592,"current_range_meters":10000,"station_id":"ce4bh5p2rcd13ifvqe4g","pricing_plan_id":"cebpf4jnsgd1na2vs0mg"},{"bike_id":"791805a4-5015-47f5-8bb1-ef1b970db458","system_id":"levelo_inurba_marseille","lat":43.29991,"lon":5.37188,"is_reserved":false,"is_disabled":false,"rental_uris":{"android":"levelo://app?vid=791805a4-5015-47f5-8bb1-ef1b970db458","ios":"levelo://app?vid=791805a4-5015-47f5-8bb1-ef1b970db458"},"vehicle_type_id":"4","last_reported":1735506592,"current_range_meters":28000,"station_id":"ce4bgr92rcd13ifvqc7g","pricing_plan_id":"cebpf4jnsgd1na2vs0mg"},{"bike_id":"c38becf3-9c4b-494c-915f-7784b11d7666","system_id":"levelo_inurba_marseille","lat":43.25284,"lon":5.39948,"is_reserved":false,"is_disabled":false,"rental_uris":{"android":"levelo://app?vid=c38becf3-9c4b-494c-915f-7784b11d7666","ios":"levelo://app?vid=c38becf3-9c4b-494c-915f-7784b11d7666"},"vehicle_type_id":"4","last_reported":1735506592,"current_range_meters":27200,"station_id":"","pricing_plan_id":"cebpf4jnsgd1na2vs0mg"},{"bike_id":"7b9bf2a8-b76d-4924-b0cf-29f18adcab67","system_id":"levelo_inurba_marseille","lat":43.29568,"lon":5.37517,"is_reserved":false,"is_disabled":false,"rental_uris":{"android":"levelo://app?vid=7b9bf2a8-b76d-4924-b0cf-29f18adcab67","ios":"levelo://app?vid=7b9bf2a8-b76d-4924-b0cf-29f18adcab67"},"vehicle_type_id":"4","last_reported":1735506592,"current_range_meters":16000,"station_id":"ce4bgh92rcd13ifvqb50","pricing_plan_id":"cebpf4jnsgd1na2vs0mg"},{"bike_id":"b4d130c6-4fa7-4fa3-83b8-3ae416781279","system_id":"levelo_inurba_marseille","lat":43.27441,"lon":5.39273,"is_reserved":false,"is_disabled":false,"rental_uris":{"android":"levelo://app?vid=b4d130c6-4fa7-4fa3-83b8-3ae416781279","ios":"levelo://app?vid=b4d130c6-4fa7-4fa3-83b8-3ae416781279"},"vehicle_type_id":"4","last_reported":1735506592,"current_range_meters":13600,"station_id":"","pricing_plan_id":"cebpf4jnsgd1na2vs0mg"},{"bike_id":"8da5d8d5-7736-4902-a2a3-2af73789a5b8","system_id":"levelo_inurba_marseille","lat":43.26568,"lon":5.39003,"is_reserved":false,"is_disabled":false,"rental_uris":{"android":"levelo://app?vid=8da5d8d5-7736-4902-a2a3-2af73789a5b8","ios":"levelo://app?vid=8da5d8d5-7736-4902-a2a3-2af73789a5b8"},"vehicle_type_id":"4","last_reported":1735506592,"current_range_meters":9200,"station_id":"ce4bhe12rcd13ifvqf30","pricing_plan_id":"cebpf4jnsgd1na2vs0mg"},{"bike_id":"ff49d49a-53c3-499a-b296-89a67f332a8a","system_id":"levelo_inurba_marseille","lat":43.2419,"lon":5.3638,"is_reserved":false,"is_disabled":false,"rental_uris":{"android":"levelo://app?vid=ff49d49a-53c3-499a-b296-89a67f332a8a","ios":"levelo://app?vid=ff49d49a-53c3-499a-b296-89a67f332a8a"},"vehicle_type_id":"4","last_reported":1735506592,"current_range_meters":12000,"station_id":"cpo36qri1sfpv3e86is0","pricing_plan_id":"cebpf4jnsgd1na2vs0mg"},{"bike_id":"dfd9b69f-fbc7-4605-881a-3b23bd6ff9c3","system_id":"levelo_inurba_marseille","lat":43.31068,"lon":5.38358,"is_reserved":false,"is_disabled":false,"rental_uris":{"android":"levelo://app?vid=dfd9b69f-fbc7-4605-881a-3b23bd6ff9c3","ios":"levelo://app?vid=dfd9b69f-fbc7-4605-881a-3b23bd6ff9c3"},"vehicle_type_id":"4","last_reported":1735506592,"current_range_meters":38800,"station_id":"ce4bgv92rcd13ifvqcr0","pricing_plan_id":"cebpf4jnsgd1na2vs0mg"},{"bike_id":"e0f18b20-a6d5-4c71-a99c-2f6fb63ca56a","system_id":"levelo_inurba_marseille","lat":43.26023,"lon":5.37547,"is_reserved":false,"is_disabled":false,"rental_uris":{"android":"levelo://app?vid=e0f18b20-a6d5-4c71-a99c-2f6fb63ca56a","ios":"levelo://app?vid=e0f18b20-a6d5-4c71-a99c-2f6fb63ca56a"},"vehicle_type_id":"4","last_reported":1735506592,"current_range_meters":36800,"station_id":"ce4bhgh2rcd13ifvqfa0","pricing_plan_id":"cebpf4jnsgd1na2vs0mg"},{"bike_id":"753fe1a2-6ec1-4d51-9513-13144401ea46","system_id":"levelo_inurba_marseille","lat":43.29166,"lon":5.37147,"is_reserved":false,"is_disabled":false,"rental_uris":{"android":"levelo://app?vid=753fe1a2-6ec1-4d51-9513-13144401ea46","ios":"levelo://app?vid=753fe1a2-6ec1-4d51-9513-13144401ea46"},"vehicle_type_id":"4","last_reported":1735506592,"current_range_meters":28400,"station_id":"ce4bha92rcd13ifvqeh0","pricing_plan_id":"cebpf4jnsgd1na2vs0mg"},{"bike_id":"b499cbbc-a3fc-4e01-a04d-7c1114c63ec5","system_id":"levelo_inurba_marseille","lat":43.28669,"lon":5.38666,"is_reserved":false,"is_disabled":false,"rental_uris":{"android":"levelo://app?vid=b499cbbc-a3fc-4e01-a04d-7c1114c63ec5","ios":"levelo://app?vid=b499cbbc-a3fc-4e01-a04d-7c1114c63ec5"},"vehicle_type_id":"4","last_reported":1735506592,"current_range_meters":35600,"station_id":"ce4bh492rcd13ifvqdug","pricing_plan_id":"cebpf4jnsgd1na2vs0mg"},{"bike_id":"e103866f-14c7-4ded-8376-d3a94f2c98c3","system_id":"levelo_inurba_marseille","lat":43.31692,"lon":5.43693,"is_reserved":false,"is_disabled":true,"rental_uris":{"android":"levelo://app?vid=e103866f-14c7-4ded-8376-d3a94f2c98c3","ios":"levelo://app?vid=e103866f-14c7-4ded-8376-d3a94f2c98c3"},"vehicle_type_id":"4","last_reported":1735506592,"current_range_meters":22400,"station_id":"ce4bhp92rcd13ifvqhcg","pricing_plan_id":"cebpf4jnsgd1na2vs0mg"},{"bike_id":"89455c5d-ceca-4861-b91b-02cb67e0a3fb","system_id":"levelo_inurba_marseille","lat":43.30604,"lon":5.37233,"is_reserved":false,"is_disabled":false,"rental_uris":{"android":"levelo://app?vid=89455c5d-ceca-4861-b91b-02cb67e0a3fb","ios":"levelo://app?vid=89455c5d-ceca-4861-b91b-02cb67e0a3fb"},"vehicle_type_id":"4","last_reported":1735506592,"current_range_meters":30000,"station_id":"ce4bgqh2rcd13ifvqc4g","pricing_plan_id":"cebpf4jnsgd1na2vs0mg"},{"bike_id":"f82e24b2-5d1b-45bf-aae4-2fdcc28b85d3","system_id":"levelo_inurba_marseille","lat":43.28661,"lon":5.36358,"is_reserved":false,"is_disabled":false,"rental_uris":{"android":"levelo://app?vid=f82e24b2-5d1b-45bf-aae4-2fdcc28b85d3","ios":"levelo://app?vid=f82e24b2-5d1b-45bf-aae4-2fdcc28b85d3"},"vehicle_type_id":"4","last_reported":1735506592,"current_range_meters":31200,"station_id":"ce4bhah2rcd13ifvqej0","pricing_plan_id":"cebpf4jnsgd1na2vs0mg"},{"bike_id":"7c78c533-ca3a-4ac5-ad8b-e1c0befcd7b8","system_id":"levelo_inurba_marseille","lat":43.25081,"lon":5.39507,"is_reserved":false,"is_disabled":false,"rental_uris":{"android":"levelo://app?vid=7c78c533-ca3a-4ac5-ad8b-e1c0befcd7b8","ios":"levelo://app?vid=7c78c533-ca3a-4ac5-ad8b-e1c0befcd7b8"},"vehicle_type_id":"4","last_reported":1735506592,"current_range_meters":35600,"station_id":"ce4bhm12rcd13ifvqgkg","pricing_plan_id":"cebpf4jnsgd1na2vs0mg"},{"bike_id":"dc310ac2-c340-45a5-9a77-1c720dc7d91a","system_id":"levelo_inurba_marseille","lat":43.29872,"lon":5.38915,"is_reserved":false,"is_disabled":false,"rental_uris":{"android":"levelo://app?vid=dc310ac2-c340-45a5-9a77-1c720dc7d91a","ios":"levelo://app?vid=dc310ac2-c340-45a5-9a77-1c720dc7d91a"},"vehicle_type_id":"4","last_reported":1735506592,"current_range_meters":37600,"station_id":"ce4bh392rcd13ifvqdl0","pricing_plan_id":"cebpf4jnsgd1na2vs0mg"},{"bike_id":"13f84696-4405-43e0-b0f5-1a61d67abe32","system_id":"levelo_inurba_marseille","lat":43.27845,"lon":5.39185,"is_reserved":false,"is_disabled":false,"rental_uris":{"android":"levelo://app?vid=13f84696-4405-43e0-b0f5-1a61d67abe32","ios":"levelo://app?vid=13f84696-4405-43e0-b0f5-1a61d67abe32"},"vehicle_type_id":"4","last_reported":1735506592,"current_range_meters":22400,"station_id":"ce4bhjp2rcd13ifvqga0","pricing_plan_id":"cebpf4jnsgd1na2vs0mg"},{"bike_id":"b4d81620-a96d-4f54-9001-d064df107373","system_id":"levelo_inurba_marseille","lat":43.30289,"lon":5.37699,"is_reserved":false,"is_disabled":false,"rental_uris":{"android":"levelo://app?vid=b4d81620-a96d-4f54-9001-d064df107373","ios":"levelo://app?vid=b4d81620-a96d-4f54-9001-d064df107373"},"vehicle_type_id":"4","last_reported":1735506592,"current_range_meters":32800,"station_id":"ce4bguh2rcd13ifvqcj0","pricing_plan_id":"cebpf4jnsgd1na2vs0mg"},{"bike_id":"caab34a4-5264-4b72-a12f-e55159fe93b6","system_id":"levelo_inurba_marseille","lat":43.27089,"lon":5.42283,"is_reserved":false,"is_disabled":false,"rental_uris":{"android":"levelo://app?vid=caab34a4-5264-4b72-a12f-e55159fe93b6","ios":"levelo://app?vid=caab34a4-5264-4b72-a12f-e55159fe93b6"},"vehicle_type_id":"4","last_reported":1735506592,"current_range_meters":23200,"station_id":"ce4bhk92rcd13ifvqgb0","pricing_plan_id":"cebpf4jnsgd1na2vs0mg"},{"bike_id":"e28936d1-deab-45e5-b02d-5934b2fa2a26","system_id":"levelo_inurba_marseille","lat":43.24536,"lon":5.39513,"is_reserved":false,"is_disabled":true,"rental_uris":{"android":"levelo://app?vid=e28936d1-deab-45e5-b02d-5934b2fa2a26","ios":"levelo://app?vid=e28936d1-deab-45e5-b02d-5934b2fa2a26"},"vehicle_type_id":"4","last_reported":1735506592,"current_range_meters":8000,"station_id":"ce4bhlp2rcd13ifvqgjg","pricing_plan_id":"cebpf4jnsgd1na2vs0mg"},{"bike_id":"6b2a4ebe-d0cb-4dec-afc9-7e6b49820c72","system_id":"levelo_inurba_marseille","lat":43.24376,"lon":5.37081,"is_reserved":false,"is_disabled":false,"rental_uris":{"android":"levelo://app?vid=6b2a4ebe-d0cb-4dec-afc9-7e6b49820c72","ios":"levelo://app?vid=6b2a4ebe-d0cb-4dec-afc9-7e6b49820c72"},"vehicle_type_id":"4","last_reported":1735506592,"current_range_meters":32800,"station_id":"ce4bhhh2rcd13ifvqfk0","pricing_plan_id":"cebpf4jnsgd1na2vs0mg"},{"bike_id":"68071365-6693-471a-8bf9-0f6efd75ecd6","system_id":"levelo_inurba_marseille","lat":43.29191,"lon":5.3931,"is_reserved":false,"is_disabled":false,"rental_uris":{"android":"levelo://app?vid=68071365-6693-471a-8bf9-0f6efd75ecd6","ios":"levelo://app?vid=68071365-6693-471a-8bf9-0f6efd75ecd6"},"vehicle_type_id":"4","last_reported":1735506592,"current_range_meters":17600,"station_id":"ce4bh192rcd13ifvqdd0","pricing_plan_id":"cebpf4jnsgd1na2vs0mg"},{"bike_id":"282e923e-ac5d-40e2-a3bb-abd81b562ee0","system_id":"levelo_inurba_marseille","lat":43.28152,"lon":5.42639,"is_reserved":false,"is_disabled":false,"rental_uris":{"android":"levelo://app?vid=282e923e-ac5d-40e2-a3bb-abd81b562ee0","ios":"levelo://app?vid=282e923e-ac5d-40e2-a3bb-abd81b562ee0"},"vehicle_type_id":"4","last_reported":1735506592,"current_range_meters":27600,"station_id":"ce4bhnh2rcd13ifvqgug","pricing_plan_id":"cebpf4jnsgd1na2vs0mg"},{"bike_id":"2eaf5aab-e12e-4e93-a20d-88a34894165c","system_id":"levelo_inurba_marseille","lat":43.28457,"lon":5.35894,"is_reserved":false,"is_disabled":true,"rental_uris":{"android":"levelo://app?vid=2eaf5aab-e12e-4e93-a20d-88a34894165c","ios":"levelo://app?vid=2eaf5aab-e12e-4e93-a20d-88a34894165c"},"vehicle_type_id":"4","last_reported":1735506592,"current_range_meters":0,"station_id":"ce4bhah2rcd13ifvqei0","pricing_plan_id":"cebpf4jnsgd1na2vs0mg"},{"bike_id":"baf79831-1c1b-477f-b0d7-98eea0e95cc5","system_id":"levelo_inurba_marseille","lat":43.29528,"lon":5.38534,"is_reserved":false,"is_disabled":false,"rental_uris":{"android":"levelo://app?vid=baf79831-1c1b-477f-b0d7-98eea0e95cc5","ios":"levelo://app?vid=baf79831-1c1b-477f-b0d7-98eea0e95cc5"},"vehicle_type_id":"4","last_reported":1735506592,"current_range_meters":10000,"station_id":"ce4bgih2rcd13ifvqba0","pricing_plan_id":"cebpf4jnsgd1na2vs0mg"},{"bike_id":"d8e15cb7-f332-47a1-86c8-d28da7833ff4","system_id":"levelo_inurba_marseille","lat":43.30884,"lon":5.37205,"is_reserved":false,"is_disabled":true,"rental_uris":{"android":"levelo://app?vid=d8e15cb7-f332-47a1-86c8-d28da7833ff4","ios":"levelo://app?vid=d8e15cb7-f332-47a1-86c8-d28da7833ff4"},"vehicle_type_id":"4","last_reported":1735506592,"current_range_meters":12400,"station_id":"ce4bguh2rcd13ifvqckg","pricing_plan_id":"cebpf4jnsgd1na2vs0mg"},{"bike_id":"aa866fa0-45d7-43d5-9d66-de3620e20eb0","system_id":"levelo_inurba_marseille","lat":43.33074,"lon":5.41194,"is_reserved":false,"is_disabled":false,"rental_uris":{"android":"levelo://app?vid=aa866fa0-45d7-43d5-9d66-de3620e20eb0","ios":"levelo://app?vid=aa866fa0-45d7-43d5-9d66-de3620e20eb0"},"vehicle_type_id":"4","last_reported":1735506592,"current_range_meters":2800,"station_id":"","pricing_plan_id":"cebpf4jnsgd1na2vs0mg"},{"bike_id":"24c6964a-284d-4cf6-9bea-959f0ba80ea8","system_id":"levelo_inurba_marseille","lat":43.29542,"lon":5.38525,"is_reserved":false,"is_disabled":false,"rental_uris":{"android":"levelo://app?vid=24c6964a-284d-4cf6-9bea-959f0ba80ea8","ios":"levelo://app?vid=24c6964a-284d-4cf6-9bea-959f0ba80ea8"},"vehicle_type_id":"4","last_reported":1735506592,"current_range_meters":28800,"station_id":"ce4bgih2rcd13ifvqba0","pricing_plan_id":"cebpf4jnsgd1na2vs0mg"},{"bike_id":"03f84268-f0f5-46da-a584-6317485c2ab5","system_id":"levelo_inurba_marseille","lat":43.32652,"lon":5.40986,"is_reserved":false,"is_disabled":false,"rental_uris":{"android":"levelo://app?vid=03f84268-f0f5-46da-a584-6317485c2ab5","ios":"levelo://app?vid=03f84268-f0f5-46da-a584-6317485c2ab5"},"vehicle_type_id":"4","last_reported":1735506592,"current_range_meters":38400,"station_id":"ce4bhpp2rcd13ifvqhgg","pricing_plan_id":"cebpf4jnsgd1na2vs0mg"},{"bike_id":"3e8e5b80-8e9d-4b59-bf4e-80386a1b0e52","system_id":"levelo_inurba_marseille","lat":43.28274,"lon":5.35064,"is_reserved":false,"is_disabled":false,"rental_uris":{"android":"levelo://app?vid=3e8e5b80-8e9d-4b59-bf4e-80386a1b0e52","ios":"levelo://app?vid=3e8e5b80-8e9d-4b59-bf4e-80386a1b0e52"},"vehicle_type_id":"4","last_reported":1735506592,"current_range_meters":38000,"station_id":"ce4bhbp2rcd13ifvqerg","pricing_plan_id":"cebpf4jnsgd1na2vs0mg"},{"bike_id":"84409969-6148-4698-903d-d7a6cc402403","system_id":"levelo_inurba_marseille","lat":43.27815,"lon":5.40708,"is_reserved":false,"is_disabled":false,"rental_uris":{"android":"levelo://app?vid=84409969-6148-4698-903d-d7a6cc402403","ios":"levelo://app?vid=84409969-6148-4698-903d-d7a6cc402403"},"vehicle_type_id":"4","last_reported":1735506592,"current_range_meters":28800,"station_id":"ce4bhnh2rcd13ifvqgtg","pricing_plan_id":"cebpf4jnsgd1na2vs0mg"},{"bike_id":"fbf32f5c-e734-44e3-b19e-284f2879e7c4","system_id":"levelo_inurba_marseille","lat":43.2724,"lon":5.39171,"is_reserved":false,"is_disabled":false,"rental_uris":{"android":"levelo://app?vid=fbf32f5c-e734-44e3-b19e-284f2879e7c4","ios":"levelo://app?vid=fbf32f5c-e734-44e3-b19e-284f2879e7c4"},"vehicle_type_id":"4","last_reported":1735506592,"current_range_meters":26800,"station_id":"ce4bhhp2rcd13ifvqfm0","pricing_plan_id":"cebpf4jnsgd1na2vs0mg"},{"bike_id":"d225e49f-de10-470b-90af-648b3c15cce7","system_id":"levelo_inurba_marseille","lat":43.25724,"lon":5.4117,"is_reserved":false,"is_disabled":false,"rental_uris":{"android":"levelo://app?vid=d225e49f-de10-470b-90af-648b3c15cce7","ios":"levelo://app?vid=d225e49f-de10-470b-90af-648b3c15cce7"},"vehicle_type_id":"4","last_reported":1735506592,"current_range_meters":39200,"station_id":"ce4bhkp2rcd13ifvqgd0","pricing_plan_id":"cebpf4jnsgd1na2vs0mg"},{"bike_id":"2ad96645-53b8-4b57-b8b9-898b5d0758ec","system_id":"levelo_inurba_marseille","lat":43.27335,"lon":5.36268,"is_reserved":false,"is_disabled":false,"rental_uris":{"android":"levelo://app?vid=2ad96645-53b8-4b57-b8b9-898b5d0758ec","ios":"levelo://app?vid=2ad96645-53b8-4b57-b8b9-898b5d0758ec"},"vehicle_type_id":"4","last_reported":1735506592,"current_range_meters":23200,"station_id":"ce4bhbh2rcd13ifvqeo0","pricing_plan_id":"cebpf4jnsgd1na2vs0mg"},{"bike_id":"8499c959-998d-4486-a511-9d65f0b01fae","system_id":"levelo_inurba_marseille","lat":43.25731,"lon":5.4111,"is_reserved":false,"is_disabled":false,"rental_uris":{"android":"levelo://app?vid=8499c959-998d-4486-a511-9d65f0b01fae","ios":"levelo://app?vid=8499c959-998d-4486-a511-9d65f0b01fae"},"vehicle_type_id":"4","last_reported":1735506592,"current_range_meters":34800,"station_id":"ce4bhkp2rcd13ifvqgd0","pricing_plan_id":"cebpf4jnsgd1na2vs0mg"},{"bike_id":"c01c55d7-98fa-4e98-812c-532f93510a65","system_id":"levelo_inurba_marseille","lat":43.29809,"lon":5.38071,"is_reserved":false,"is_disabled":false,"rental_uris":{"android":"levelo://app?vid=c01c55d7-98fa-4e98-812c-532f93510a65","ios":"levelo://app?vid=c01c55d7-98fa-4e98-812c-532f93510a65"},"vehicle_type_id":"4","last_reported":1735506592,"current_range_meters":22400,"station_id":"ce4bgip2rcd13ifvqbb0","pricing_plan_id":"cebpf4jnsgd1na2vs0mg"},{"bike_id":"158e017f-4a76-4ad7-a5e3-1ca7daceabea","system_id":"levelo_inurba_marseille","lat":43.27491,"lon":5.42446,"is_reserved":false,"is_disabled":false,"rental_uris":{"android":"levelo://app?vid=158e017f-4a76-4ad7-a5e3-1ca7daceabea","ios":"levelo://app?vid=158e017f-4a76-4ad7-a5e3-1ca7daceabea"},"vehicle_type_id":"4","last_reported":1735506592,"current_range_meters":15200,"station_id":"ce4bhn92rcd13ifvqgrg","pricing_plan_id":"cebpf4jnsgd1na2vs0mg"},{"bike_id":"d6144803-d96b-4980-90a1-d59f6d11564c","system_id":"levelo_inurba_marseille","lat":43.28152,"lon":5.42641,"is_reserved":false,"is_disabled":false,"rental_uris":{"android":"levelo://app?vid=d6144803-d96b-4980-90a1-d59f6d11564c","ios":"levelo://app?vid=d6144803-d96b-4980-90a1-d59f6d11564c"},"vehicle_type_id":"4","last_reported":1735506592,"current_range_meters":38000,"station_id":"ce4bhnh2rcd13ifvqgug","pricing_plan_id":"cebpf4jnsgd1na2vs0mg"},{"bike_id":"3d0f1c62-792d-4663-a675-38453b68e6d5","system_id":"levelo_inurba_marseille","lat":43.30296,"lon":5.39216,"is_reserved":false,"is_disabled":false,"rental_uris":{"android":"levelo://app?vid=3d0f1c62-792d-4663-a675-38453b68e6d5","ios":"levelo://app?vid=3d0f1c62-792d-4663-a675-38453b68e6d5"},"vehicle_type_id":"4","last_reported":1735506592,"current_range_meters":23200,"station_id":"ce4bgkh2rcd13ifvqbk0","pricing_plan_id":"cebpf4jnsgd1na2vs0mg"},{"bike_id":"74acaa5f-ba0d-4364-9dc6-fe430ef5f4f0","system_id":"levelo_inurba_marseille","lat":43.24804,"lon":5.37456,"is_reserved":false,"is_disabled":false,"rental_uris":{"android":"levelo://app?vid=74acaa5f-ba0d-4364-9dc6-fe430ef5f4f0","ios":"levelo://app?vid=74acaa5f-ba0d-4364-9dc6-fe430ef5f4f0"},"vehicle_type_id":"4","last_reported":1735506592,"current_range_meters":32800,"station_id":"ce4bhgh2rcd13ifvqfb0","pricing_plan_id":"cebpf4jnsgd1na2vs0mg"},{"bike_id":"1c391f8c-66d8-41d3-94a9-68053d0aae93","system_id":"levelo_inurba_marseille","lat":43.26064,"lon":5.39394,"is_reserved":false,"is_disabled":false,"rental_uris":{"android":"levelo://app?vid=1c391f8c-66d8-41d3-94a9-68053d0aae93","ios":"levelo://app?vid=1c391f8c-66d8-41d3-94a9-68053d0aae93"},"vehicle_type_id":"4","last_reported":1735506592,"current_range_meters":14400,"station_id":"ce4bhh92rcd13ifvqfj0","pricing_plan_id":"cebpf4jnsgd1na2vs0mg"},{"bike_id":"a8e7d48d-7fa4-4853-895c-22e26fde92bf","system_id":"levelo_inurba_marseille","lat":43.30801,"lon":5.43529,"is_reserved":false,"is_disabled":false,"rental_uris":{"android":"levelo://app?vid=a8e7d48d-7fa4-4853-895c-22e26fde92bf","ios":"levelo://app?vid=a8e7d48d-7fa4-4853-895c-22e26fde92bf"},"vehicle_type_id":"4","last_reported":1735506592,"current_range_meters":11600,"station_id":"ce4bhph2rcd13ifvqheg","pricing_plan_id":"cebpf4jnsgd1na2vs0mg"},{"bike_id":"ea5f7699-af81-4ced-bb43-4fdb79de8421","system_id":"levelo_inurba_marseille","lat":43.24821,"lon":5.37456,"is_reserved":false,"is_disabled":false,"rental_uris":{"android":"levelo://app?vid=ea5f7699-af81-4ced-bb43-4fdb79de8421","ios":"levelo://app?vid=ea5f7699-af81-4ced-bb43-4fdb79de8421"},"vehicle_type_id":"4","last_reported":1735506592,"current_range_meters":38800,"station_id":"ce4bhgh2rcd13ifvqfb0","pricing_plan_id":"cebpf4jnsgd1na2vs0mg"},{"bike_id":"269484cf-4c89-4bd5-9206-0eee4b7b5226","system_id":"levelo_inurba_marseille","lat":43.2971,"lon":5.36588,"is_reserved":false,"is_disabled":false,"rental_uris":{"android":"levelo://app?vid=269484cf-4c89-4bd5-9206-0eee4b7b5226","ios":"levelo://app?vid=269484cf-4c89-4bd5-9206-0eee4b7b5226"},"vehicle_type_id":"4","last_reported":1735506592,"current_range_meters":34800,"station_id":"ce4bgn12rcd13ifvqbt0","pricing_plan_id":"cebpf4jnsgd1na2vs0mg"},{"bike_id":"b8c97997-1ed1-4dde-a409-deecfb8321e5","system_id":"levelo_inurba_marseille","lat":43.295846,"lon":5.367452,"is_reserved":false,"is_disabled":false,"rental_uris":{"android":"levelo://app?vid=b8c97997-1ed1-4dde-a409-deecfb8321e5","ios":"levelo://app?vid=b8c97997-1ed1-4dde-a409-deecfb8321e5"},"vehicle_type_id":"4","last_reported":1735506592,"current_range_meters":39200,"station_id":"ce4bgph2rcd13ifvqc2g","pricing_plan_id":"cebpf4jnsgd1na2vs0mg"},{"bike_id":"607a52e0-cc96-40b4-acd4-57002d9d59df","system_id":"levelo_inurba_marseille","lat":43.25108,"lon":5.40307,"is_reserved":false,"is_disabled":false,"rental_uris":{"android":"levelo://app?vid=607a52e0-cc96-40b4-acd4-57002d9d59df","ios":"levelo://app?vid=607a52e0-cc96-40b4-acd4-57002d9d59df"},"vehicle_type_id":"4","last_reported":1735506592,"current_range_meters":30000,"station_id":"ce4bhlh2rcd13ifvqgig","pricing_plan_id":"cebpf4jnsgd1na2vs0mg"},{"bike_id":"d50467ff-4045-4217-9eed-2c7923083da7","system_id":"levelo_inurba_marseille","lat":43.27574,"lon":5.38409,"is_reserved":false,"is_disabled":false,"rental_uris":{"android":"levelo://app?vid=d50467ff-4045-4217-9eed-2c7923083da7","ios":"levelo://app?vid=d50467ff-4045-4217-9eed-2c7923083da7"},"vehicle_type_id":"4","last_reported":1735506592,"current_range_meters":38800,"station_id":"ce4bhh92rcd13ifvqfi0","pricing_plan_id":"cebpf4jnsgd1na2vs0mg"},{"bike_id":"b21f3b16-f9ad-4c8a-82a4-6190802075da","system_id":"levelo_inurba_marseille","lat":43.31889,"lon":5.40733,"is_reserved":false,"is_disabled":false,"rental_uris":{"android":"levelo://app?vid=b21f3b16-f9ad-4c8a-82a4-6190802075da","ios":"levelo://app?vid=b21f3b16-f9ad-4c8a-82a4-6190802075da"},"vehicle_type_id":"4","last_reported":1735506592,"current_range_meters":38800,"station_id":"ce4bhq12rcd13ifvqhig","pricing_plan_id":"cebpf4jnsgd1na2vs0mg"},{"bike_id":"e72c6d65-0b04-411e-bf0f-f72d15cad0d7","system_id":"levelo_inurba_marseille","lat":43.33735,"lon":5.39174,"is_reserved":false,"is_disabled":false,"rental_uris":{"android":"levelo://app?vid=e72c6d65-0b04-411e-bf0f-f72d15cad0d7","ios":"levelo://app?vid=e72c6d65-0b04-411e-bf0f-f72d15cad0d7"},"vehicle_type_id":"4","last_reported":1735506592,"current_range_meters":38800,"station_id":"ce4bhr92rcd13ifvqhsg","pricing_plan_id":"cebpf4jnsgd1na2vs0mg"},{"bike_id":"bb026ccd-d3aa-4c00-a992-d9f20432a24e","system_id":"levelo_inurba_marseille","lat":43.27697,"lon":5.38921,"is_reserved":false,"is_disabled":false,"rental_uris":{"android":"levelo://app?vid=bb026ccd-d3aa-4c00-a992-d9f20432a24e","ios":"levelo://app?vid=bb026ccd-d3aa-4c00-a992-d9f20432a24e"},"vehicle_type_id":"4","last_reported":1735506592,"current_range_meters":38000,"station_id":"ce4bhi12rcd13ifvqfo0","pricing_plan_id":"cebpf4jnsgd1na2vs0mg"},{"bike_id":"a5704d90-60ec-470f-81af-3d2e29ba0a42","system_id":"levelo_inurba_marseille","lat":43.29542,"lon":5.38538,"is_reserved":false,"is_disabled":false,"rental_uris":{"android":"levelo://app?vid=a5704d90-60ec-470f-81af-3d2e29ba0a42","ios":"levelo://app?vid=a5704d90-60ec-470f-81af-3d2e29ba0a42"},"vehicle_type_id":"4","last_reported":1735506592,"current_range_meters":38800,"station_id":"ce4bgih2rcd13ifvqba0","pricing_plan_id":"cebpf4jnsgd1na2vs0mg"},{"bike_id":"cb4c58fb-15b0-4686-966f-8c99a60eda43","system_id":"levelo_inurba_marseille","lat":43.29607,"lon":5.37723,"is_reserved":false,"is_disabled":false,"rental_uris":{"android":"levelo://app?vid=cb4c58fb-15b0-4686-966f-8c99a60eda43","ios":"levelo://app?vid=cb4c58fb-15b0-4686-966f-8c99a60eda43"},"vehicle_type_id":"4","last_reported":1735506592,"current_range_meters":34800,"station_id":"ce4bgi92rcd13ifvqb90","pricing_plan_id":"cebpf4jnsgd1na2vs0mg"},{"bike_id":"78084a79-78e2-4d52-836f-7ba28d6cf127","system_id":"levelo_inurba_marseille","lat":43.30935,"lon":5.40148,"is_reserved":false,"is_disabled":false,"rental_uris":{"android":"levelo://app?vid=78084a79-78e2-4d52-836f-7ba28d6cf127","ios":"levelo://app?vid=78084a79-78e2-4d52-836f-7ba28d6cf127"},"vehicle_type_id":"4","last_reported":1735506592,"current_range_meters":27200,"station_id":"ce4bgvp2rcd13ifvqct0","pricing_plan_id":"cebpf4jnsgd1na2vs0mg"},{"bike_id":"2fdeab75-c3c7-44e1-8744-5eb7e97729bb","system_id":"levelo_inurba_marseille","lat":43.32111,"lon":5.36776,"is_reserved":false,"is_disabled":false,"rental_uris":{"android":"levelo://app?vid=2fdeab75-c3c7-44e1-8744-5eb7e97729bb","ios":"levelo://app?vid=2fdeab75-c3c7-44e1-8744-5eb7e97729bb"},"vehicle_type_id":"4","last_reported":1735506592,"current_range_meters":38800,"station_id":"ce4bhrh2rcd13ifvqhug","pricing_plan_id":"cebpf4jnsgd1na2vs0mg"},{"bike_id":"5416a2c8-e6bc-42cf-83d8-c71e60fc0453","system_id":"levelo_inurba_marseille","lat":43.2862,"lon":5.35104,"is_reserved":false,"is_disabled":false,"rental_uris":{"android":"levelo://app?vid=5416a2c8-e6bc-42cf-83d8-c71e60fc0453","ios":"levelo://app?vid=5416a2c8-e6bc-42cf-83d8-c71e60fc0453"},"vehicle_type_id":"4","last_reported":1735506592,"current_range_meters":15200,"station_id":"ce4bhch2rcd13ifvqeug","pricing_plan_id":"cebpf4jnsgd1na2vs0mg"},{"bike_id":"40d33d5a-b0d6-4ca7-b92a-5a5e00a2e584","system_id":"levelo_inurba_marseille","lat":43.27316,"lon":5.39099,"is_reserved":false,"is_disabled":false,"rental_uris":{"android":"levelo://app?vid=40d33d5a-b0d6-4ca7-b92a-5a5e00a2e584","ios":"levelo://app?vid=40d33d5a-b0d6-4ca7-b92a-5a5e00a2e584"},"vehicle_type_id":"4","last_reported":1735506592,"current_range_meters":38800,"station_id":"ce4bhgp2rcd13ifvqfe0","pricing_plan_id":"cebpf4jnsgd1na2vs0mg"},{"bike_id":"ac46f39a-e383-44b1-b69a-2eba41522dea","system_id":"levelo_inurba_marseille","lat":43.2707,"lon":5.42281,"is_reserved":false,"is_disabled":false,"rental_uris":{"android":"levelo://app?vid=ac46f39a-e383-44b1-b69a-2eba41522dea","ios":"levelo://app?vid=ac46f39a-e383-44b1-b69a-2eba41522dea"},"vehicle_type_id":"4","last_reported":1735506592,"current_range_meters":30800,"station_id":"ce4bhk92rcd13ifvqgb0","pricing_plan_id":"cebpf4jnsgd1na2vs0mg"},{"bike_id":"57103b12-06fc-494b-9a1a-1903f8f245d5","system_id":"levelo_inurba_marseille","lat":43.27974,"lon":5.41652,"is_reserved":false,"is_disabled":false,"rental_uris":{"android":"levelo://app?vid=57103b12-06fc-494b-9a1a-1903f8f245d5","ios":"levelo://app?vid=57103b12-06fc-494b-9a1a-1903f8f245d5"},"vehicle_type_id":"4","last_reported":1735506592,"current_range_meters":16400,"station_id":"ce4bho12rcd13ifvqh1g","pricing_plan_id":"cebpf4jnsgd1na2vs0mg"},{"bike_id":"c93a8900-340a-4a6d-ac3e-8882057837af","system_id":"levelo_inurba_marseille","lat":43.27382,"lon":5.36258,"is_reserved":false,"is_disabled":false,"rental_uris":{"android":"levelo://app?vid=c93a8900-340a-4a6d-ac3e-8882057837af","ios":"levelo://app?vid=c93a8900-340a-4a6d-ac3e-8882057837af"},"vehicle_type_id":"4","last_reported":1735506592,"current_range_meters":36000,"station_id":"ce4bhbh2rcd13ifvqeo0","pricing_plan_id":"cebpf4jnsgd1na2vs0mg"},{"bike_id":"d01c3caf-1308-4a32-b10d-cf93ab464ec8","system_id":"levelo_inurba_marseille","lat":43.295798,"lon":5.367375,"is_reserved":false,"is_disabled":false,"rental_uris":{"android":"levelo://app?vid=d01c3caf-1308-4a32-b10d-cf93ab464ec8","ios":"levelo://app?vid=d01c3caf-1308-4a32-b10d-cf93ab464ec8"},"vehicle_type_id":"4","last_reported":1735506592,"current_range_meters":12000,"station_id":"ce4bgph2rcd13ifvqc2g","pricing_plan_id":"cebpf4jnsgd1na2vs0mg"},{"bike_id":"d9d97985-8792-47a3-ab8c-09980f6a9900","system_id":"levelo_inurba_marseille","lat":43.29522,"lon":5.37503,"is_reserved":false,"is_disabled":false,"rental_uris":{"android":"levelo://app?vid=d9d97985-8792-47a3-ab8c-09980f6a9900","ios":"levelo://app?vid=d9d97985-8792-47a3-ab8c-09980f6a9900"},"vehicle_type_id":"4","last_reported":1735506592,"current_range_meters":38800,"station_id":"ce4bgkp2rcd13ifvqbmg","pricing_plan_id":"cebpf4jnsgd1na2vs0mg"},{"bike_id":"be451069-3b16-493e-a3f1-29db08986d43","system_id":"levelo_inurba_marseille","lat":43.30936,"lon":5.40146,"is_reserved":false,"is_disabled":false,"rental_uris":{"android":"levelo://app?vid=be451069-3b16-493e-a3f1-29db08986d43","ios":"levelo://app?vid=be451069-3b16-493e-a3f1-29db08986d43"},"vehicle_type_id":"4","last_reported":1735506592,"current_range_meters":38800,"station_id":"ce4bgvp2rcd13ifvqct0","pricing_plan_id":"cebpf4jnsgd1na2vs0mg"},{"bike_id":"81b7dbd4-2034-4c75-9f95-f800613fb5e7","system_id":"levelo_inurba_marseille","lat":43.28149,"lon":5.42633,"is_reserved":false,"is_disabled":false,"rental_uris":{"android":"levelo://app?vid=81b7dbd4-2034-4c75-9f95-f800613fb5e7","ios":"levelo://app?vid=81b7dbd4-2034-4c75-9f95-f800613fb5e7"},"vehicle_type_id":"4","last_reported":1735506592,"current_range_meters":37600,"station_id":"ce4bhnh2rcd13ifvqgug","pricing_plan_id":"cebpf4jnsgd1na2vs0mg"},{"bike_id":"7f7fb4cd-2a55-49f5-a886-63d44f44e08d","system_id":"levelo_inurba_marseille","lat":43.28109,"lon":5.37841,"is_reserved":false,"is_disabled":false,"rental_uris":{"android":"levelo://app?vid=7f7fb4cd-2a55-49f5-a886-63d44f44e08d","ios":"levelo://app?vid=7f7fb4cd-2a55-49f5-a886-63d44f44e08d"},"vehicle_type_id":"4","last_reported":1735506592,"current_range_meters":26800,"station_id":"ce4bha12rcd13ifvqee0","pricing_plan_id":"cebpf4jnsgd1na2vs0mg"},{"bike_id":"e3996919-d2cb-4431-8ea7-fb9a0daea44d","system_id":"levelo_inurba_marseille","lat":43.27562,"lon":5.38426,"is_reserved":false,"is_disabled":false,"rental_uris":{"android":"levelo://app?vid=e3996919-d2cb-4431-8ea7-fb9a0daea44d","ios":"levelo://app?vid=e3996919-d2cb-4431-8ea7-fb9a0daea44d"},"vehicle_type_id":"4","last_reported":1735506592,"current_range_meters":38800,"station_id":"ce4bhh92rcd13ifvqfi0","pricing_plan_id":"cebpf4jnsgd1na2vs0mg"},{"bike_id":"482b0b80-c53d-4d05-aa82-218b22575b6c","system_id":"levelo_inurba_marseille","lat":43.23152,"lon":5.43705,"is_reserved":false,"is_disabled":true,"rental_uris":{"android":"levelo://app?vid=482b0b80-c53d-4d05-aa82-218b22575b6c","ios":"levelo://app?vid=482b0b80-c53d-4d05-aa82-218b22575b6c"},"vehicle_type_id":"4","last_reported":1735506592,"current_range_meters":37600,"station_id":"ce4bhmp2rcd13ifvqgog","pricing_plan_id":"cebpf4jnsgd1na2vs0mg"},{"bike_id":"0800f83e-c07a-46b1-81c6-ee4c1f6cbfa1","system_id":"levelo_inurba_marseille","lat":43.30416,"lon":5.41292,"is_reserved":false,"is_disabled":false,"rental_uris":{"android":"levelo://app?vid=0800f83e-c07a-46b1-81c6-ee4c1f6cbfa1","ios":"levelo://app?vid=0800f83e-c07a-46b1-81c6-ee4c1f6cbfa1"},"vehicle_type_id":"4","last_reported":1735506592,"current_range_meters":38400,"station_id":"ce4bhop2rcd13ifvqh8g","pricing_plan_id":"cebpf4jnsgd1na2vs0mg"},{"bike_id":"968f8345-d048-4768-bf95-8ef9f2d80532","system_id":"levelo_inurba_marseille","lat":43.25093,"lon":5.39518,"is_reserved":false,"is_disabled":false,"rental_uris":{"android":"levelo://app?vid=968f8345-d048-4768-bf95-8ef9f2d80532","ios":"levelo://app?vid=968f8345-d048-4768-bf95-8ef9f2d80532"},"vehicle_type_id":"4","last_reported":1735506592,"current_range_meters":32800,"station_id":"ce4bhm12rcd13ifvqgkg","pricing_plan_id":"cebpf4jnsgd1na2vs0mg"},{"bike_id":"4f0f35d8-f4e9-476d-9f87-5f4741f7c59b","system_id":"levelo_inurba_marseille","lat":43.29971,"lon":5.38492,"is_reserved":false,"is_disabled":false,"rental_uris":{"android":"levelo://app?vid=4f0f35d8-f4e9-476d-9f87-5f4741f7c59b","ios":"levelo://app?vid=4f0f35d8-f4e9-476d-9f87-5f4741f7c59b"},"vehicle_type_id":"4","last_reported":1735506592,"current_range_meters":20000,"station_id":"ce4bgj92rcd13ifvqbd0","pricing_plan_id":"cebpf4jnsgd1na2vs0mg"},{"bike_id":"8ab687e6-5b00-4fc6-a5d4-8f78d51d17d0","system_id":"levelo_inurba_marseille","lat":43.29204,"lon":5.39321,"is_reserved":false,"is_disabled":false,"rental_uris":{"android":"levelo://app?vid=8ab687e6-5b00-4fc6-a5d4-8f78d51d17d0","ios":"levelo://app?vid=8ab687e6-5b00-4fc6-a5d4-8f78d51d17d0"},"vehicle_type_id":"4","last_reported":1735506592,"current_range_meters":25200,"station_id":"ce4bh192rcd13ifvqdd0","pricing_plan_id":"cebpf4jnsgd1na2vs0mg"},{"bike_id":"4d598eae-1cfb-44eb-8092-aca2df872482","system_id":"levelo_inurba_marseille","lat":43.23055,"lon":5.35485,"is_reserved":false,"is_disabled":false,"rental_uris":{"android":"levelo://app?vid=4d598eae-1cfb-44eb-8092-aca2df872482","ios":"levelo://app?vid=4d598eae-1cfb-44eb-8092-aca2df872482"},"vehicle_type_id":"4","last_reported":1735506592,"current_range_meters":12800,"station_id":"cpo3342slgdg3j2ifvpg","pricing_plan_id":"cebpf4jnsgd1na2vs0mg"},{"bike_id":"5ea86869-203a-4007-91e3-098c623cde38","system_id":"levelo_inurba_marseille","lat":43.29301,"lon":5.37144,"is_reserved":false,"is_disabled":false,"rental_uris":{"android":"levelo://app?vid=5ea86869-203a-4007-91e3-098c623cde38","ios":"levelo://app?vid=5ea86869-203a-4007-91e3-098c623cde38"},"vehicle_type_id":"4","last_reported":1735506592,"current_range_meters":28800,"station_id":"ce4bgh92rcd13ifvqb40","pricing_plan_id":"cebpf4jnsgd1na2vs0mg"},{"bike_id":"c4e33464-90ab-45ef-82c6-733a360bdee4","system_id":"levelo_inurba_marseille","lat":43.23213,"lon":5.39961,"is_reserved":false,"is_disabled":false,"rental_uris":{"android":"levelo://app?vid=c4e33464-90ab-45ef-82c6-733a360bdee4","ios":"levelo://app?vid=c4e33464-90ab-45ef-82c6-733a360bdee4"},"vehicle_type_id":"4","last_reported":1735506592,"current_range_meters":38800,"station_id":"ce4bhn12rcd13ifvqgqg","pricing_plan_id":"cebpf4jnsgd1na2vs0mg"},{"bike_id":"e7b60c17-e828-4ed1-972e-2ce3547a1c03","system_id":"levelo_inurba_marseille","lat":43.298,"lon":5.381,"is_reserved":false,"is_disabled":false,"rental_uris":{"android":"levelo://app?vid=e7b60c17-e828-4ed1-972e-2ce3547a1c03","ios":"levelo://app?vid=e7b60c17-e828-4ed1-972e-2ce3547a1c03"},"vehicle_type_id":"4","last_reported":1735506592,"current_range_meters":30000,"station_id":"ce4bgip2rcd13ifvqbb0","pricing_plan_id":"cebpf4jnsgd1na2vs0mg"},{"bike_id":"7cc9802d-b9f6-4749-b528-25a60955fef4","system_id":"levelo_inurba_marseille","lat":43.30882,"lon":5.37199,"is_reserved":false,"is_disabled":false,"rental_uris":{"android":"levelo://app?vid=7cc9802d-b9f6-4749-b528-25a60955fef4","ios":"levelo://app?vid=7cc9802d-b9f6-4749-b528-25a60955fef4"},"vehicle_type_id":"4","last_reported":1735506592,"current_range_meters":38800,"station_id":"ce4bguh2rcd13ifvqckg","pricing_plan_id":"cebpf4jnsgd1na2vs0mg"},{"bike_id":"f6a398ba-af8e-4fe3-a6c0-f28cb0077f88","system_id":"levelo_inurba_marseille","lat":43.28215,"lon":5.42552,"is_reserved":false,"is_disabled":false,"rental_uris":{"android":"levelo://app?vid=f6a398ba-af8e-4fe3-a6c0-f28cb0077f88","ios":"levelo://app?vid=f6a398ba-af8e-4fe3-a6c0-f28cb0077f88"},"vehicle_type_id":"4","last_reported":1735506592,"current_range_meters":18800,"station_id":"","pricing_plan_id":"cebpf4jnsgd1na2vs0mg"},{"bike_id":"0bcec2f5-0203-436b-a80c-c30c50ac99f3","system_id":"levelo_inurba_marseille","lat":43.287206,"lon":5.379405,"is_reserved":false,"is_disabled":false,"rental_uris":{"android":"levelo://app?vid=0bcec2f5-0203-436b-a80c-c30c50ac99f3","ios":"levelo://app?vid=0bcec2f5-0203-436b-a80c-c30c50ac99f3"},"vehicle_type_id":"4","last_reported":1735506592,"current_range_meters":39200,"station_id":"ce4bh9p2rcd13ifvqec0","pricing_plan_id":"cebpf4jnsgd1na2vs0mg"},{"bike_id":"7bd44d09-e872-4291-b548-1cbe40f16cac","system_id":"levelo_inurba_marseille","lat":43.28163,"lon":5.4264,"is_reserved":false,"is_disabled":false,"rental_uris":{"android":"levelo://app?vid=7bd44d09-e872-4291-b548-1cbe40f16cac","ios":"levelo://app?vid=7bd44d09-e872-4291-b548-1cbe40f16cac"},"vehicle_type_id":"4","last_reported":1735506592,"current_range_meters":23200,"station_id":"ce4bhnh2rcd13ifvqgug","pricing_plan_id":"cebpf4jnsgd1na2vs0mg"},{"bike_id":"2362892c-9b82-4b1a-aa7f-9ab164db9c49","system_id":"levelo_inurba_marseille","lat":43.29724,"lon":5.37692,"is_reserved":false,"is_disabled":false,"rental_uris":{"android":"levelo://app?vid=2362892c-9b82-4b1a-aa7f-9ab164db9c49","ios":"levelo://app?vid=2362892c-9b82-4b1a-aa7f-9ab164db9c49"},"vehicle_type_id":"4","last_reported":1735506592,"current_range_meters":36400,"station_id":"ce4bgkh2rcd13ifvqbl0","pricing_plan_id":"cebpf4jnsgd1na2vs0mg"},{"bike_id":"d124b3fa-f3a5-4c6d-bebc-2f7ad1a1004e","system_id":"levelo_inurba_marseille","lat":43.26952,"lon":5.38645,"is_reserved":false,"is_disabled":false,"rental_uris":{"android":"levelo://app?vid=d124b3fa-f3a5-4c6d-bebc-2f7ad1a1004e","ios":"levelo://app?vid=d124b3fa-f3a5-4c6d-bebc-2f7ad1a1004e"},"vehicle_type_id":"4","last_reported":1735506592,"current_range_meters":38800,"station_id":"ce4bhh92rcd13ifvqfh0","pricing_plan_id":"cebpf4jnsgd1na2vs0mg"},{"bike_id":"6798ddd0-08c4-461a-8ae1-920fee12db81","system_id":"levelo_inurba_marseille","lat":43.24549,"lon":5.39528,"is_reserved":false,"is_disabled":false,"rental_uris":{"android":"levelo://app?vid=6798ddd0-08c4-461a-8ae1-920fee12db81","ios":"levelo://app?vid=6798ddd0-08c4-461a-8ae1-920fee12db81"},"vehicle_type_id":"4","last_reported":1735506592,"current_range_meters":26800,"station_id":"ce4bhlp2rcd13ifvqgjg","pricing_plan_id":"cebpf4jnsgd1na2vs0mg"},{"bike_id":"f63317ac-2b4d-4644-a66d-b50745f72387","system_id":"levelo_inurba_marseille","lat":43.28736,"lon":5.36076,"is_reserved":false,"is_disabled":false,"rental_uris":{"android":"levelo://app?vid=f63317ac-2b4d-4644-a66d-b50745f72387","ios":"levelo://app?vid=f63317ac-2b4d-4644-a66d-b50745f72387"},"vehicle_type_id":"4","last_reported":1735506592,"current_range_meters":38800,"station_id":"cki0cbj6b192h4jlfktg","pricing_plan_id":"cebpf4jnsgd1na2vs0mg"},{"bike_id":"af266f2f-b3af-487b-b92f-871abe1fae46","system_id":"levelo_inurba_marseille","lat":43.28338,"lon":5.38101,"is_reserved":false,"is_disabled":false,"rental_uris":{"android":"levelo://app?vid=af266f2f-b3af-487b-b92f-871abe1fae46","ios":"levelo://app?vid=af266f2f-b3af-487b-b92f-871abe1fae46"},"vehicle_type_id":"4","last_reported":1735506592,"current_range_meters":39200,"station_id":"ce4bh412rcd13ifvqdr0","pricing_plan_id":"cebpf4jnsgd1na2vs0mg"},{"bike_id":"42f135ee-ba20-47c0-b3dd-c8052e3a3d82","system_id":"levelo_inurba_marseille","lat":43.29558,"lon":5.38534,"is_reserved":false,"is_disabled":false,"rental_uris":{"android":"levelo://app?vid=42f135ee-ba20-47c0-b3dd-c8052e3a3d82","ios":"levelo://app?vid=42f135ee-ba20-47c0-b3dd-c8052e3a3d82"},"vehicle_type_id":"4","last_reported":1735506592,"current_range_meters":37600,"station_id":"ce4bgih2rcd13ifvqba0","pricing_plan_id":"cebpf4jnsgd1na2vs0mg"},{"bike_id":"1107b56a-98a5-4a01-8449-9eba086fee5a","system_id":"levelo_inurba_marseille","lat":43.29073,"lon":5.39883,"is_reserved":false,"is_disabled":true,"rental_uris":{"android":"levelo://app?vid=1107b56a-98a5-4a01-8449-9eba086fee5a","ios":"levelo://app?vid=1107b56a-98a5-4a01-8449-9eba086fee5a"},"vehicle_type_id":"4","last_reported":1735506592,"current_range_meters":14400,"station_id":"","pricing_plan_id":"cebpf4jnsgd1na2vs0mg"},{"bike_id":"b45568d0-1db0-4941-aaa0-668e3367a47d","system_id":"levelo_inurba_marseille","lat":43.29222,"lon":5.3606,"is_reserved":false,"is_disabled":false,"rental_uris":{"android":"levelo://app?vid=b45568d0-1db0-4941-aaa0-668e3367a47d","ios":"levelo://app?vid=b45568d0-1db0-4941-aaa0-668e3367a47d"},"vehicle_type_id":"4","last_reported":1735506592,"current_range_meters":38800,"station_id":"ce4bhbh2rcd13ifvqeqg","pricing_plan_id":"cebpf4jnsgd1na2vs0mg"},{"bike_id":"20b351ce-aa3b-4fc8-af62-864415db2c56","system_id":"levelo_inurba_marseille","lat":43.23055,"lon":5.35492,"is_reserved":false,"is_disabled":false,"rental_uris":{"android":"levelo://app?vid=20b351ce-aa3b-4fc8-af62-864415db2c56","ios":"levelo://app?vid=20b351ce-aa3b-4fc8-af62-864415db2c56"},"vehicle_type_id":"4","last_reported":1735506592,"current_range_meters":25200,"station_id":"cpo3342slgdg3j2ifvpg","pricing_plan_id":"cebpf4jnsgd1na2vs0mg"},{"bike_id":"c3736bd3-d202-427f-a4ca-ab94af4921aa","system_id":"levelo_inurba_marseille","lat":43.27806,"lon":5.40708,"is_reserved":false,"is_disabled":false,"rental_uris":{"android":"levelo://app?vid=c3736bd3-d202-427f-a4ca-ab94af4921aa","ios":"levelo://app?vid=c3736bd3-d202-427f-a4ca-ab94af4921aa"},"vehicle_type_id":"4","last_reported":1735506592,"current_range_meters":34000,"station_id":"ce4bhnh2rcd13ifvqgtg","pricing_plan_id":"cebpf4jnsgd1na2vs0mg"},{"bike_id":"221550f2-24a2-4b66-b430-f54c3a908c16","system_id":"levelo_inurba_marseille","lat":43.29207,"lon":5.39324,"is_reserved":false,"is_disabled":false,"rental_uris":{"android":"levelo://app?vid=221550f2-24a2-4b66-b430-f54c3a908c16","ios":"levelo://app?vid=221550f2-24a2-4b66-b430-f54c3a908c16"},"vehicle_type_id":"4","last_reported":1735506592,"current_range_meters":12000,"station_id":"ce4bh192rcd13ifvqdd0","pricing_plan_id":"cebpf4jnsgd1na2vs0mg"},{"bike_id":"5b02a7e9-264b-41e0-b822-c97ba7603e3b","system_id":"levelo_inurba_marseille","lat":43.28427,"lon":5.34987,"is_reserved":false,"is_disabled":false,"rental_uris":{"android":"levelo://app?vid=5b02a7e9-264b-41e0-b822-c97ba7603e3b","ios":"levelo://app?vid=5b02a7e9-264b-41e0-b822-c97ba7603e3b"},"vehicle_type_id":"4","last_reported":1735506592,"current_range_meters":38800,"station_id":"ce4bhbh2rcd13ifvqepg","pricing_plan_id":"cebpf4jnsgd1na2vs0mg"},{"bike_id":"ca5dd0d4-1b37-4612-8f0a-f30de343dfab","system_id":"levelo_inurba_marseille","lat":43.31502,"lon":5.37299,"is_reserved":false,"is_disabled":false,"rental_uris":{"android":"levelo://app?vid=ca5dd0d4-1b37-4612-8f0a-f30de343dfab","ios":"levelo://app?vid=ca5dd0d4-1b37-4612-8f0a-f30de343dfab"},"vehicle_type_id":"4","last_reported":1735506592,"current_range_meters":38000,"station_id":"ce4bgt12rcd13ifvqcd0","pricing_plan_id":"cebpf4jnsgd1na2vs0mg"},{"bike_id":"9c6b07e9-a77e-4c08-b51a-e21fbdb12234","system_id":"levelo_inurba_marseille","lat":43.31174,"lon":5.38725,"is_reserved":false,"is_disabled":false,"rental_uris":{"android":"levelo://app?vid=9c6b07e9-a77e-4c08-b51a-e21fbdb12234","ios":"levelo://app?vid=9c6b07e9-a77e-4c08-b51a-e21fbdb12234"},"vehicle_type_id":"4","last_reported":1735506592,"current_range_meters":35600,"station_id":"ce4bgv12rcd13ifvqcp0","pricing_plan_id":"cebpf4jnsgd1na2vs0mg"},{"bike_id":"4d27df13-2d95-45c3-a330-3061a2ba88d8","system_id":"levelo_inurba_marseille","lat":43.29537,"lon":5.38537,"is_reserved":false,"is_disabled":false,"rental_uris":{"android":"levelo://app?vid=4d27df13-2d95-45c3-a330-3061a2ba88d8","ios":"levelo://app?vid=4d27df13-2d95-45c3-a330-3061a2ba88d8"},"vehicle_type_id":"4","last_reported":1735506592,"current_range_meters":30800,"station_id":"ce4bgih2rcd13ifvqba0","pricing_plan_id":"cebpf4jnsgd1na2vs0mg"},{"bike_id":"731bb0c1-af09-4dd7-8187-8a856a9319fb","system_id":"levelo_inurba_marseille","lat":43.29249,"lon":5.38456,"is_reserved":false,"is_disabled":false,"rental_uris":{"android":"levelo://app?vid=731bb0c1-af09-4dd7-8187-8a856a9319fb","ios":"levelo://app?vid=731bb0c1-af09-4dd7-8187-8a856a9319fb"},"vehicle_type_id":"4","last_reported":1735506592,"current_range_meters":27200,"station_id":"ce4bh692rcd13ifvqea0","pricing_plan_id":"cebpf4jnsgd1na2vs0mg"},{"bike_id":"61444556-f9f6-47d1-84b2-598dace643cc","system_id":"levelo_inurba_marseille","lat":43.29878,"lon":5.38912,"is_reserved":false,"is_disabled":false,"rental_uris":{"android":"levelo://app?vid=61444556-f9f6-47d1-84b2-598dace643cc","ios":"levelo://app?vid=61444556-f9f6-47d1-84b2-598dace643cc"},"vehicle_type_id":"4","last_reported":1735506592,"current_range_meters":36400,"station_id":"ce4bh392rcd13ifvqdl0","pricing_plan_id":"cebpf4jnsgd1na2vs0mg"},{"bike_id":"3604dba6-7a5c-4298-bc48-6918f187abbc","system_id":"levelo_inurba_marseille","lat":43.30884,"lon":5.37211,"is_reserved":false,"is_disabled":false,"rental_uris":{"android":"levelo://app?vid=3604dba6-7a5c-4298-bc48-6918f187abbc","ios":"levelo://app?vid=3604dba6-7a5c-4298-bc48-6918f187abbc"},"vehicle_type_id":"4","last_reported":1735506592,"current_range_meters":13600,"station_id":"ce4bguh2rcd13ifvqckg","pricing_plan_id":"cebpf4jnsgd1na2vs0mg"},{"bike_id":"41e441a8-4ad2-4bf0-81ba-96c35feaf6d8","system_id":"levelo_inurba_marseille","lat":43.28154,"lon":5.42639,"is_reserved":false,"is_disabled":false,"rental_uris":{"android":"levelo://app?vid=41e441a8-4ad2-4bf0-81ba-96c35feaf6d8","ios":"levelo://app?vid=41e441a8-4ad2-4bf0-81ba-96c35feaf6d8"},"vehicle_type_id":"4","last_reported":1735506592,"current_range_meters":27600,"station_id":"ce4bhnh2rcd13ifvqgug","pricing_plan_id":"cebpf4jnsgd1na2vs0mg"},{"bike_id":"4de13b80-6216-46ec-ba58-8fb9fe37c463","system_id":"levelo_inurba_marseille","lat":43.29708,"lon":5.36601,"is_reserved":false,"is_disabled":false,"rental_uris":{"android":"levelo://app?vid=4de13b80-6216-46ec-ba58-8fb9fe37c463","ios":"levelo://app?vid=4de13b80-6216-46ec-ba58-8fb9fe37c463"},"vehicle_type_id":"4","last_reported":1735506592,"current_range_meters":38400,"station_id":"ce4bgn12rcd13ifvqbt0","pricing_plan_id":"cebpf4jnsgd1na2vs0mg"},{"bike_id":"824f434a-d906-4537-b700-767717f4fbbe","system_id":"levelo_inurba_marseille","lat":43.29531,"lon":5.38542,"is_reserved":false,"is_disabled":false,"rental_uris":{"android":"levelo://app?vid=824f434a-d906-4537-b700-767717f4fbbe","ios":"levelo://app?vid=824f434a-d906-4537-b700-767717f4fbbe"},"vehicle_type_id":"4","last_reported":1735506592,"current_range_meters":34800,"station_id":"ce4bgih2rcd13ifvqba0","pricing_plan_id":"cebpf4jnsgd1na2vs0mg"},{"bike_id":"b0d45b52-6895-4f7d-b544-51d0d9d0ee35","system_id":"levelo_inurba_marseille","lat":43.30541,"lon":5.36713,"is_reserved":false,"is_disabled":true,"rental_uris":{"android":"levelo://app?vid=b0d45b52-6895-4f7d-b544-51d0d9d0ee35","ios":"levelo://app?vid=b0d45b52-6895-4f7d-b544-51d0d9d0ee35"},"vehicle_type_id":"4","last_reported":1735506592,"current_range_meters":4400,"station_id":"ce4bgrp2rcd13ifvqc9g","pricing_plan_id":"cebpf4jnsgd1na2vs0mg"},{"bike_id":"9cbeea91-6305-4ee1-ad7f-82772e35ad52","system_id":"levelo_inurba_marseille","lat":43.28153,"lon":5.4263,"is_reserved":false,"is_disabled":false,"rental_uris":{"android":"levelo://app?vid=9cbeea91-6305-4ee1-ad7f-82772e35ad52","ios":"levelo://app?vid=9cbeea91-6305-4ee1-ad7f-82772e35ad52"},"vehicle_type_id":"4","last_reported":1735506592,"current_range_meters":26000,"station_id":"ce4bhnh2rcd13ifvqgug","pricing_plan_id":"cebpf4jnsgd1na2vs0mg"},{"bike_id":"5639f52b-1196-4558-b062-4f7891cec443","system_id":"levelo_inurba_marseille","lat":43.28409,"lon":5.37523,"is_reserved":false,"is_disabled":true,"rental_uris":{"android":"levelo://app?vid=5639f52b-1196-4558-b062-4f7891cec443","ios":"levelo://app?vid=5639f52b-1196-4558-b062-4f7891cec443"},"vehicle_type_id":"4","last_reported":1735506592,"current_range_meters":24400,"station_id":"ce4bh412rcd13ifvqds0","pricing_plan_id":"cebpf4jnsgd1na2vs0mg"},{"bike_id":"1727a0bf-5c41-4aa7-be74-58dfcc6e8f12","system_id":"levelo_inurba_marseille","lat":43.31503,"lon":5.37304,"is_reserved":false,"is_disabled":false,"rental_uris":{"android":"levelo://app?vid=1727a0bf-5c41-4aa7-be74-58dfcc6e8f12","ios":"levelo://app?vid=1727a0bf-5c41-4aa7-be74-58dfcc6e8f12"},"vehicle_type_id":"4","last_reported":1735506592,"current_range_meters":38800,"station_id":"ce4bgt12rcd13ifvqcd0","pricing_plan_id":"cebpf4jnsgd1na2vs0mg"},{"bike_id":"1b16c9d4-bdc4-4b10-969d-5f2390cda304","system_id":"levelo_inurba_marseille","lat":43.29416,"lon":5.38618,"is_reserved":false,"is_disabled":false,"rental_uris":{"android":"levelo://app?vid=1b16c9d4-bdc4-4b10-969d-5f2390cda304","ios":"levelo://app?vid=1b16c9d4-bdc4-4b10-969d-5f2390cda304"},"vehicle_type_id":"4","last_reported":1735506592,"current_range_meters":30000,"station_id":"ce4bh2h2rcd13ifvqdh0","pricing_plan_id":"cebpf4jnsgd1na2vs0mg"},{"bike_id":"a280acd7-08a1-4431-bab2-4c554dd77d2c","system_id":"levelo_inurba_marseille","lat":43.26209,"lon":5.37439,"is_reserved":false,"is_disabled":false,"rental_uris":{"android":"levelo://app?vid=a280acd7-08a1-4431-bab2-4c554dd77d2c","ios":"levelo://app?vid=a280acd7-08a1-4431-bab2-4c554dd77d2c"},"vehicle_type_id":"4","last_reported":1735506592,"current_range_meters":19200,"station_id":"ce4bhgp2rcd13ifvqfc0","pricing_plan_id":"cebpf4jnsgd1na2vs0mg"},{"bike_id":"c4464463-92cc-48b8-b950-7ed437f91335","system_id":"levelo_inurba_marseille","lat":43.29223,"lon":5.36057,"is_reserved":false,"is_disabled":false,"rental_uris":{"android":"levelo://app?vid=c4464463-92cc-48b8-b950-7ed437f91335","ios":"levelo://app?vid=c4464463-92cc-48b8-b950-7ed437f91335"},"vehicle_type_id":"4","last_reported":1735506592,"current_range_meters":32800,"station_id":"ce4bhbh2rcd13ifvqeqg","pricing_plan_id":"cebpf4jnsgd1na2vs0mg"},{"bike_id":"b7b3ea37-8573-4b19-8923-b324e0cbf1e6","system_id":"levelo_inurba_marseille","lat":43.28686,"lon":5.38654,"is_reserved":false,"is_disabled":false,"rental_uris":{"android":"levelo://app?vid=b7b3ea37-8573-4b19-8923-b324e0cbf1e6","ios":"levelo://app?vid=b7b3ea37-8573-4b19-8923-b324e0cbf1e6"},"vehicle_type_id":"4","last_reported":1735506592,"current_range_meters":28400,"station_id":"ce4bh492rcd13ifvqdug","pricing_plan_id":"cebpf4jnsgd1na2vs0mg"},{"bike_id":"879f630a-333a-4304-ad71-2d92d74bd644","system_id":"levelo_inurba_marseille","lat":43.29627,"lon":5.40602,"is_reserved":false,"is_disabled":false,"rental_uris":{"android":"levelo://app?vid=879f630a-333a-4304-ad71-2d92d74bd644","ios":"levelo://app?vid=879f630a-333a-4304-ad71-2d92d74bd644"},"vehicle_type_id":"4","last_reported":1735506592,"current_range_meters":28800,"station_id":"ce4bh0h2rcd13ifvqd60","pricing_plan_id":"cebpf4jnsgd1na2vs0mg"},{"bike_id":"356fd92d-e963-40e6-b40e-58fc72ac9553","system_id":"levelo_inurba_marseille","lat":43.32103,"lon":5.36777,"is_reserved":false,"is_disabled":false,"rental_uris":{"android":"levelo://app?vid=356fd92d-e963-40e6-b40e-58fc72ac9553","ios":"levelo://app?vid=356fd92d-e963-40e6-b40e-58fc72ac9553"},"vehicle_type_id":"4","last_reported":1735506592,"current_range_meters":36400,"station_id":"ce4bhrh2rcd13ifvqhug","pricing_plan_id":"cebpf4jnsgd1na2vs0mg"},{"bike_id":"67ace3d6-f856-461e-bae1-ce541a83d8dd","system_id":"levelo_inurba_marseille","lat":43.232,"lon":5.35554,"is_reserved":false,"is_disabled":false,"rental_uris":{"android":"levelo://app?vid=67ace3d6-f856-461e-bae1-ce541a83d8dd","ios":"levelo://app?vid=67ace3d6-f856-461e-bae1-ce541a83d8dd"},"vehicle_type_id":"4","last_reported":1735506592,"current_range_meters":38000,"station_id":"ce4bhu92rcd13ifvqi70","pricing_plan_id":"cebpf4jnsgd1na2vs0mg"},{"bike_id":"12b64bf2-4ce1-4146-af5b-eb3b72f8d5ae","system_id":"levelo_inurba_marseille","lat":43.25728,"lon":5.41106,"is_reserved":false,"is_disabled":false,"rental_uris":{"android":"levelo://app?vid=12b64bf2-4ce1-4146-af5b-eb3b72f8d5ae","ios":"levelo://app?vid=12b64bf2-4ce1-4146-af5b-eb3b72f8d5ae"},"vehicle_type_id":"4","last_reported":1735506592,"current_range_meters":38800,"station_id":"ce4bhkp2rcd13ifvqgd0","pricing_plan_id":"cebpf4jnsgd1na2vs0mg"},{"bike_id":"f6c3569e-efa4-4a1c-b75b-94ded8df3e64","system_id":"levelo_inurba_marseille","lat":43.27963,"lon":5.38709,"is_reserved":false,"is_disabled":false,"rental_uris":{"android":"levelo://app?vid=f6c3569e-efa4-4a1c-b75b-94ded8df3e64","ios":"levelo://app?vid=f6c3569e-efa4-4a1c-b75b-94ded8df3e64"},"vehicle_type_id":"4","last_reported":1735506592,"current_range_meters":38800,"station_id":"ce4bhg12rcd13ifvqf80","pricing_plan_id":"cebpf4jnsgd1na2vs0mg"},{"bike_id":"30fe37d8-0cbd-4fc4-b590-d7b8f562d149","system_id":"levelo_inurba_marseille","lat":43.231508,"lon":5.437162,"is_reserved":false,"is_disabled":false,"rental_uris":{"android":"levelo://app?vid=30fe37d8-0cbd-4fc4-b590-d7b8f562d149","ios":"levelo://app?vid=30fe37d8-0cbd-4fc4-b590-d7b8f562d149"},"vehicle_type_id":"4","last_reported":1735506592,"current_range_meters":10000,"station_id":"ce4bhmp2rcd13ifvqgog","pricing_plan_id":"cebpf4jnsgd1na2vs0mg"},{"bike_id":"7bea7103-565e-4e48-ae2e-89a33f3e0990","system_id":"levelo_inurba_marseille","lat":43.28969,"lon":5.37839,"is_reserved":false,"is_disabled":false,"rental_uris":{"android":"levelo://app?vid=7bea7103-565e-4e48-ae2e-89a33f3e0990","ios":"levelo://app?vid=7bea7103-565e-4e48-ae2e-89a33f3e0990"},"vehicle_type_id":"4","last_reported":1735506592,"current_range_meters":38800,"station_id":"ce4bh9p2rcd13ifvqed0","pricing_plan_id":"cebpf4jnsgd1na2vs0mg"},{"bike_id":"b3691d71-6eca-441f-b8d3-a6b5d0a03861","system_id":"levelo_inurba_marseille","lat":43.28859,"lon":5.38236,"is_reserved":false,"is_disabled":true,"rental_uris":{"android":"levelo://app?vid=b3691d71-6eca-441f-b8d3-a6b5d0a03861","ios":"levelo://app?vid=b3691d71-6eca-441f-b8d3-a6b5d0a03861"},"vehicle_type_id":"4","last_reported":1735506592,"current_range_meters":28400,"station_id":"","pricing_plan_id":"cebpf4jnsgd1na2vs0mg"},{"bike_id":"c637cf92-2445-4ba0-8abb-8d4a436eab9e","system_id":"levelo_inurba_marseille","lat":43.29257,"lon":5.3843,"is_reserved":false,"is_disabled":false,"rental_uris":{"android":"levelo://app?vid=c637cf92-2445-4ba0-8abb-8d4a436eab9e","ios":"levelo://app?vid=c637cf92-2445-4ba0-8abb-8d4a436eab9e"},"vehicle_type_id":"4","last_reported":1735506592,"current_range_meters":37600,"station_id":"ce4bh692rcd13ifvqea0","pricing_plan_id":"cebpf4jnsgd1na2vs0mg"},{"bike_id":"5055049c-e7a1-4b11-8693-0ad632a3d8d7","system_id":"levelo_inurba_marseille","lat":43.26943,"lon":5.3864,"is_reserved":false,"is_disabled":false,"rental_uris":{"android":"levelo://app?vid=5055049c-e7a1-4b11-8693-0ad632a3d8d7","ios":"levelo://app?vid=5055049c-e7a1-4b11-8693-0ad632a3d8d7"},"vehicle_type_id":"4","last_reported":1735506592,"current_range_meters":16000,"station_id":"ce4bhh92rcd13ifvqfh0","pricing_plan_id":"cebpf4jnsgd1na2vs0mg"},{"bike_id":"d63ee0f9-88ea-4e16-a67c-487c5e05d3f5","system_id":"levelo_inurba_marseille","lat":43.30886,"lon":5.37191,"is_reserved":false,"is_disabled":false,"rental_uris":{"android":"levelo://app?vid=d63ee0f9-88ea-4e16-a67c-487c5e05d3f5","ios":"levelo://app?vid=d63ee0f9-88ea-4e16-a67c-487c5e05d3f5"},"vehicle_type_id":"4","last_reported":1735506592,"current_range_meters":38800,"station_id":"ce4bguh2rcd13ifvqckg","pricing_plan_id":"cebpf4jnsgd1na2vs0mg"},{"bike_id":"673ed0fe-3027-4e1f-9efc-2804b0e32190","system_id":"levelo_inurba_marseille","lat":43.26689,"lon":5.38275,"is_reserved":false,"is_disabled":false,"rental_uris":{"android":"levelo://app?vid=673ed0fe-3027-4e1f-9efc-2804b0e32190","ios":"levelo://app?vid=673ed0fe-3027-4e1f-9efc-2804b0e32190"},"vehicle_type_id":"4","last_reported":1735506592,"current_range_meters":38400,"station_id":"ce4bhg92rcd13ifvqf90","pricing_plan_id":"cebpf4jnsgd1na2vs0mg"},{"bike_id":"cb71a6cb-39c5-48cf-8727-515cd67f00f1","system_id":"levelo_inurba_marseille","lat":43.231942,"lon":5.355562,"is_reserved":false,"is_disabled":false,"rental_uris":{"android":"levelo://app?vid=cb71a6cb-39c5-48cf-8727-515cd67f00f1","ios":"levelo://app?vid=cb71a6cb-39c5-48cf-8727-515cd67f00f1"},"vehicle_type_id":"4","last_reported":1735506592,"current_range_meters":8800,"station_id":"ce4bhu92rcd13ifvqi70","pricing_plan_id":"cebpf4jnsgd1na2vs0mg"},{"bike_id":"7fe6e02c-a028-4b5e-9375-4c772c306e62","system_id":"levelo_inurba_marseille","lat":43.30513,"lon":5.37157,"is_reserved":false,"is_disabled":false,"rental_uris":{"android":"levelo://app?vid=7fe6e02c-a028-4b5e-9375-4c772c306e62","ios":"levelo://app?vid=7fe6e02c-a028-4b5e-9375-4c772c306e62"},"vehicle_type_id":"4","last_reported":1735506592,"current_range_meters":36400,"station_id":"","pricing_plan_id":"cebpf4jnsgd1na2vs0mg"},{"bike_id":"e70ce8bb-674e-436b-ab6d-79ca756c291a","system_id":"levelo_inurba_marseille","lat":43.25726,"lon":5.4111,"is_reserved":false,"is_disabled":false,"rental_uris":{"android":"levelo://app?vid=e70ce8bb-674e-436b-ab6d-79ca756c291a","ios":"levelo://app?vid=e70ce8bb-674e-436b-ab6d-79ca756c291a"},"vehicle_type_id":"4","last_reported":1735506592,"current_range_meters":30000,"station_id":"ce4bhkp2rcd13ifvqgd0","pricing_plan_id":"cebpf4jnsgd1na2vs0mg"},{"bike_id":"c8d1c33c-78e9-42be-a881-5b72ffd6d815","system_id":"levelo_inurba_marseille","lat":43.29901,"lon":5.3747,"is_reserved":false,"is_disabled":false,"rental_uris":{"android":"levelo://app?vid=c8d1c33c-78e9-42be-a881-5b72ffd6d815","ios":"levelo://app?vid=c8d1c33c-78e9-42be-a881-5b72ffd6d815"},"vehicle_type_id":"4","last_reported":1735506592,"current_range_meters":39200,"station_id":"ce4bgjh2rcd13ifvqbg0","pricing_plan_id":"cebpf4jnsgd1na2vs0mg"},{"bike_id":"6bc72793-4e6c-4546-b9c8-c8cb6f31adc1","system_id":"levelo_inurba_marseille","lat":43.309082,"lon":5.374657,"is_reserved":false,"is_disabled":false,"rental_uris":{"android":"levelo://app?vid=6bc72793-4e6c-4546-b9c8-c8cb6f31adc1","ios":"levelo://app?vid=6bc72793-4e6c-4546-b9c8-c8cb6f31adc1"},"vehicle_type_id":"4","last_reported":1735506592,"current_range_meters":6000,"station_id":"ce4bgi92rcd13ifvqb90","pricing_plan_id":"cebpf4jnsgd1na2vs0mg"},{"bike_id":"d6d6e604-1846-420a-80a6-099d5fdbc4c7","system_id":"levelo_inurba_marseille","lat":43.31366,"lon":5.38498,"is_reserved":false,"is_disabled":false,"rental_uris":{"android":"levelo://app?vid=d6d6e604-1846-420a-80a6-099d5fdbc4c7","ios":"levelo://app?vid=d6d6e604-1846-420a-80a6-099d5fdbc4c7"},"vehicle_type_id":"4","last_reported":1735506592,"current_range_meters":34800,"station_id":"ce4bgt92rcd13ifvqcf0","pricing_plan_id":"cebpf4jnsgd1na2vs0mg"},{"bike_id":"e1bcf252-18b4-4805-9368-7dd66d02d24f","system_id":"levelo_inurba_marseille","lat":43.29081,"lon":5.37165,"is_reserved":false,"is_disabled":false,"rental_uris":{"android":"levelo://app?vid=e1bcf252-18b4-4805-9368-7dd66d02d24f","ios":"levelo://app?vid=e1bcf252-18b4-4805-9368-7dd66d02d24f"},"vehicle_type_id":"4","last_reported":1735506592,"current_range_meters":38800,"station_id":"ce4bh5p2rcd13ifvqe4g","pricing_plan_id":"cebpf4jnsgd1na2vs0mg"},{"bike_id":"35142cb1-da84-4465-a902-1b70f5829b31","system_id":"levelo_inurba_marseille","lat":43.25721,"lon":5.41109,"is_reserved":false,"is_disabled":false,"rental_uris":{"android":"levelo://app?vid=35142cb1-da84-4465-a902-1b70f5829b31","ios":"levelo://app?vid=35142cb1-da84-4465-a902-1b70f5829b31"},"vehicle_type_id":"4","last_reported":1735506592,"current_range_meters":38000,"station_id":"ce4bhkp2rcd13ifvqgd0","pricing_plan_id":"cebpf4jnsgd1na2vs0mg"},{"bike_id":"596c1492-2e12-4947-b53a-d4b6dd987b31","system_id":"levelo_inurba_marseille","lat":43.29441,"lon":5.39734,"is_reserved":false,"is_disabled":false,"rental_uris":{"android":"levelo://app?vid=596c1492-2e12-4947-b53a-d4b6dd987b31","ios":"levelo://app?vid=596c1492-2e12-4947-b53a-d4b6dd987b31"},"vehicle_type_id":"4","last_reported":1735506592,"current_range_meters":20000,"station_id":"ce4bh3h2rcd13ifvqdo0","pricing_plan_id":"cebpf4jnsgd1na2vs0mg"},{"bike_id":"df0eb88d-fd2c-4e51-b29b-0b4e96cdb399","system_id":"levelo_inurba_marseille","lat":43.28152,"lon":5.42634,"is_reserved":false,"is_disabled":false,"rental_uris":{"android":"levelo://app?vid=df0eb88d-fd2c-4e51-b29b-0b4e96cdb399","ios":"levelo://app?vid=df0eb88d-fd2c-4e51-b29b-0b4e96cdb399"},"vehicle_type_id":"4","last_reported":1735506592,"current_range_meters":28000,"station_id":"ce4bhnh2rcd13ifvqgug","pricing_plan_id":"cebpf4jnsgd1na2vs0mg"},{"bike_id":"8a6a86c7-e0b5-45ac-aff6-3ac305cabeb7","system_id":"levelo_inurba_marseille","lat":43.29006,"lon":5.35602,"is_reserved":false,"is_disabled":false,"rental_uris":{"android":"levelo://app?vid=8a6a86c7-e0b5-45ac-aff6-3ac305cabeb7","ios":"levelo://app?vid=8a6a86c7-e0b5-45ac-aff6-3ac305cabeb7"},"vehicle_type_id":"4","last_reported":1735506592,"current_range_meters":38800,"station_id":"ce4bhb92rcd13ifvqen0","pricing_plan_id":"cebpf4jnsgd1na2vs0mg"},{"bike_id":"b05b2056-1756-4acc-b9bc-e5f9e37c6e15","system_id":"levelo_inurba_marseille","lat":43.27067,"lon":5.42278,"is_reserved":false,"is_disabled":false,"rental_uris":{"android":"levelo://app?vid=b05b2056-1756-4acc-b9bc-e5f9e37c6e15","ios":"levelo://app?vid=b05b2056-1756-4acc-b9bc-e5f9e37c6e15"},"vehicle_type_id":"4","last_reported":1735506592,"current_range_meters":32000,"station_id":"ce4bhk92rcd13ifvqgb0","pricing_plan_id":"cebpf4jnsgd1na2vs0mg"},{"bike_id":"e9782259-27da-4889-a0c0-4bc63c4145d8","system_id":"levelo_inurba_marseille","lat":43.30941,"lon":5.40141,"is_reserved":false,"is_disabled":false,"rental_uris":{"android":"levelo://app?vid=e9782259-27da-4889-a0c0-4bc63c4145d8","ios":"levelo://app?vid=e9782259-27da-4889-a0c0-4bc63c4145d8"},"vehicle_type_id":"4","last_reported":1735506592,"current_range_meters":30400,"station_id":"ce4bgvp2rcd13ifvqct0","pricing_plan_id":"cebpf4jnsgd1na2vs0mg"},{"bike_id":"fc0b3bf8-65df-44b7-8333-cabe97ef9a6c","system_id":"levelo_inurba_marseille","lat":43.25695,"lon":5.41141,"is_reserved":false,"is_disabled":false,"rental_uris":{"android":"levelo://app?vid=fc0b3bf8-65df-44b7-8333-cabe97ef9a6c","ios":"levelo://app?vid=fc0b3bf8-65df-44b7-8333-cabe97ef9a6c"},"vehicle_type_id":"4","last_reported":1735506592,"current_range_meters":38000,"station_id":"ce4bhkp2rcd13ifvqgd0","pricing_plan_id":"cebpf4jnsgd1na2vs0mg"},{"bike_id":"309a9554-13e3-4a27-8da4-4d931614d914","system_id":"levelo_inurba_marseille","lat":43.29004,"lon":5.38124,"is_reserved":false,"is_disabled":true,"rental_uris":{"android":"levelo://app?vid=309a9554-13e3-4a27-8da4-4d931614d914","ios":"levelo://app?vid=309a9554-13e3-4a27-8da4-4d931614d914"},"vehicle_type_id":"4","last_reported":1735506592,"current_range_meters":38800,"station_id":"ce4bh4p2rcd13ifvqe1g","pricing_plan_id":"cebpf4jnsgd1na2vs0mg"},{"bike_id":"8e18e3bb-66b8-487c-93d3-3acba7eb6bf1","system_id":"levelo_inurba_marseille","lat":43.25725,"lon":5.41108,"is_reserved":false,"is_disabled":false,"rental_uris":{"android":"levelo://app?vid=8e18e3bb-66b8-487c-93d3-3acba7eb6bf1","ios":"levelo://app?vid=8e18e3bb-66b8-487c-93d3-3acba7eb6bf1"},"vehicle_type_id":"4","last_reported":1735506592,"current_range_meters":22400,"station_id":"ce4bhkp2rcd13ifvqgd0","pricing_plan_id":"cebpf4jnsgd1na2vs0mg"},{"bike_id":"fef4a18d-54a5-492d-bca7-b1cd613cc95b","system_id":"levelo_inurba_marseille","lat":43.29584,"lon":5.36743,"is_reserved":false,"is_disabled":false,"rental_uris":{"android":"levelo://app?vid=fef4a18d-54a5-492d-bca7-b1cd613cc95b","ios":"levelo://app?vid=fef4a18d-54a5-492d-bca7-b1cd613cc95b"},"vehicle_type_id":"4","last_reported":1735506592,"current_range_meters":36800,"station_id":"ce4bgph2rcd13ifvqc2g","pricing_plan_id":"cebpf4jnsgd1na2vs0mg"},{"bike_id":"86d96291-f1b0-4d83-abc8-f84a17b325be","system_id":"levelo_inurba_marseille","lat":43.270638,"lon":5.402558,"is_reserved":false,"is_disabled":true,"rental_uris":{"android":"levelo://app?vid=86d96291-f1b0-4d83-abc8-f84a17b325be","ios":"levelo://app?vid=86d96291-f1b0-4d83-abc8-f84a17b325be"},"vehicle_type_id":"4","last_reported":1735506592,"current_range_meters":26000,"station_id":"ce4bhk92rcd13ifvqgc0","pricing_plan_id":"cebpf4jnsgd1na2vs0mg"},{"bike_id":"2d76d9f4-5ac3-420c-b7d3-8710df44025b","system_id":"levelo_inurba_marseille","lat":43.29557,"lon":5.4229,"is_reserved":false,"is_disabled":true,"rental_uris":{"android":"levelo://app?vid=2d76d9f4-5ac3-420c-b7d3-8710df44025b","ios":"levelo://app?vid=2d76d9f4-5ac3-420c-b7d3-8710df44025b"},"vehicle_type_id":"4","last_reported":1735506592,"current_range_meters":8400,"station_id":"ce4bhph2rcd13ifvqhdg","pricing_plan_id":"cebpf4jnsgd1na2vs0mg"},{"bike_id":"5477d212-35e2-4622-b27a-bfe5ff434d03","system_id":"levelo_inurba_marseille","lat":43.337603,"lon":5.374424,"is_reserved":false,"is_disabled":false,"rental_uris":{"android":"levelo://app?vid=5477d212-35e2-4622-b27a-bfe5ff434d03","ios":"levelo://app?vid=5477d212-35e2-4622-b27a-bfe5ff434d03"},"vehicle_type_id":"4","last_reported":1735506592,"current_range_meters":19200,"station_id":"","pricing_plan_id":"cebpf4jnsgd1na2vs0mg"},{"bike_id":"d92b2bcc-24da-4e55-bd37-7a2caeccd448","system_id":"levelo_inurba_marseille","lat":43.26946,"lon":5.38624,"is_reserved":false,"is_disabled":false,"rental_uris":{"android":"levelo://app?vid=d92b2bcc-24da-4e55-bd37-7a2caeccd448","ios":"levelo://app?vid=d92b2bcc-24da-4e55-bd37-7a2caeccd448"},"vehicle_type_id":"4","last_reported":1735506592,"current_range_meters":24400,"station_id":"ce4bhh92rcd13ifvqfh0","pricing_plan_id":"cebpf4jnsgd1na2vs0mg"},{"bike_id":"a3f41e83-f655-4de2-befa-e32cf0b3ad13","system_id":"levelo_inurba_marseille","lat":43.32104,"lon":5.36766,"is_reserved":false,"is_disabled":false,"rental_uris":{"android":"levelo://app?vid=a3f41e83-f655-4de2-befa-e32cf0b3ad13","ios":"levelo://app?vid=a3f41e83-f655-4de2-befa-e32cf0b3ad13"},"vehicle_type_id":"4","last_reported":1735506592,"current_range_meters":32800,"station_id":"ce4bhrh2rcd13ifvqhug","pricing_plan_id":"cebpf4jnsgd1na2vs0mg"},{"bike_id":"9c699461-17d5-4077-8f28-482b484da4fe","system_id":"levelo_inurba_marseille","lat":43.29206,"lon":5.35795,"is_reserved":false,"is_disabled":false,"rental_uris":{"android":"levelo://app?vid=9c699461-17d5-4077-8f28-482b484da4fe","ios":"levelo://app?vid=9c699461-17d5-4077-8f28-482b484da4fe"},"vehicle_type_id":"4","last_reported":1735506592,"current_range_meters":38800,"station_id":"ce4bhb12rcd13ifvqel0","pricing_plan_id":"cebpf4jnsgd1na2vs0mg"},{"bike_id":"7aab2ffc-cec0-4dd6-981d-6bd7c8cbfd0b","system_id":"levelo_inurba_marseille","lat":43.26049,"lon":5.39395,"is_reserved":false,"is_disabled":true,"rental_uris":{"android":"levelo://app?vid=7aab2ffc-cec0-4dd6-981d-6bd7c8cbfd0b","ios":"levelo://app?vid=7aab2ffc-cec0-4dd6-981d-6bd7c8cbfd0b"},"vehicle_type_id":"4","last_reported":1735506592,"current_range_meters":37600,"station_id":"ce4bhh92rcd13ifvqfj0","pricing_plan_id":"cebpf4jnsgd1na2vs0mg"},{"bike_id":"aea78c39-c769-4802-a4f2-0d85924cbb3d","system_id":"levelo_inurba_marseille","lat":43.30303,"lon":5.36892,"is_reserved":false,"is_disabled":false,"rental_uris":{"android":"levelo://app?vid=aea78c39-c769-4802-a4f2-0d85924cbb3d","ios":"levelo://app?vid=aea78c39-c769-4802-a4f2-0d85924cbb3d"},"vehicle_type_id":"4","last_reported":1735506592,"current_range_meters":22000,"station_id":"ce4bgqh2rcd13ifvqc5g","pricing_plan_id":"cebpf4jnsgd1na2vs0mg"},{"bike_id":"fc5a7c50-b088-4366-8ec0-23ac2c6135e5","system_id":"levelo_inurba_marseille","lat":43.29004,"lon":5.3562,"is_reserved":false,"is_disabled":false,"rental_uris":{"android":"levelo://app?vid=fc5a7c50-b088-4366-8ec0-23ac2c6135e5","ios":"levelo://app?vid=fc5a7c50-b088-4366-8ec0-23ac2c6135e5"},"vehicle_type_id":"4","last_reported":1735506592,"current_range_meters":38400,"station_id":"ce4bhb92rcd13ifvqen0","pricing_plan_id":"cebpf4jnsgd1na2vs0mg"},{"bike_id":"8e8db053-23e4-4767-b86b-a97f5f5427b9","system_id":"levelo_inurba_marseille","lat":43.25088,"lon":5.39524,"is_reserved":false,"is_disabled":false,"rental_uris":{"android":"levelo://app?vid=8e8db053-23e4-4767-b86b-a97f5f5427b9","ios":"levelo://app?vid=8e8db053-23e4-4767-b86b-a97f5f5427b9"},"vehicle_type_id":"4","last_reported":1735506592,"current_range_meters":9600,"station_id":"ce4bhm12rcd13ifvqgkg","pricing_plan_id":"cebpf4jnsgd1na2vs0mg"},{"bike_id":"b3a22d3f-7399-4a51-a5ee-8e43c846f17c","system_id":"levelo_inurba_marseille","lat":43.30588,"lon":5.37195,"is_reserved":false,"is_disabled":true,"rental_uris":{"android":"levelo://app?vid=b3a22d3f-7399-4a51-a5ee-8e43c846f17c","ios":"levelo://app?vid=b3a22d3f-7399-4a51-a5ee-8e43c846f17c"},"vehicle_type_id":"4","last_reported":1735506592,"current_range_meters":8800,"station_id":"ce4bgqh2rcd13ifvqc4g","pricing_plan_id":"cebpf4jnsgd1na2vs0mg"},{"bike_id":"a9fa3d0c-8669-4d62-8eb2-a587f4a9779c","system_id":"levelo_inurba_marseille","lat":43.27921,"lon":5.39565,"is_reserved":false,"is_disabled":true,"rental_uris":{"android":"levelo://app?vid=a9fa3d0c-8669-4d62-8eb2-a587f4a9779c","ios":"levelo://app?vid=a9fa3d0c-8669-4d62-8eb2-a587f4a9779c"},"vehicle_type_id":"4","last_reported":1735506592,"current_range_meters":33600,"station_id":"ce4bhf92rcd13ifvqf40","pricing_plan_id":"cebpf4jnsgd1na2vs0mg"},{"bike_id":"b1c0ee8d-93e8-4cc8-82d6-c539d877336e","system_id":"levelo_inurba_marseille","lat":43.24394,"lon":5.37064,"is_reserved":false,"is_disabled":false,"rental_uris":{"android":"levelo://app?vid=b1c0ee8d-93e8-4cc8-82d6-c539d877336e","ios":"levelo://app?vid=b1c0ee8d-93e8-4cc8-82d6-c539d877336e"},"vehicle_type_id":"4","last_reported":1735506592,"current_range_meters":38800,"station_id":"ce4bhhh2rcd13ifvqfk0","pricing_plan_id":"cebpf4jnsgd1na2vs0mg"},{"bike_id":"649bcb01-7782-4b02-9674-2ade43de34ce","system_id":"levelo_inurba_marseille","lat":43.25114,"lon":5.40322,"is_reserved":false,"is_disabled":false,"rental_uris":{"android":"levelo://app?vid=649bcb01-7782-4b02-9674-2ade43de34ce","ios":"levelo://app?vid=649bcb01-7782-4b02-9674-2ade43de34ce"},"vehicle_type_id":"4","last_reported":1735506592,"current_range_meters":26800,"station_id":"ce4bhlh2rcd13ifvqgig","pricing_plan_id":"cebpf4jnsgd1na2vs0mg"},{"bike_id":"d59150ed-784b-42f2-997d-e8403a07ff75","system_id":"levelo_inurba_marseille","lat":43.2988,"lon":5.39727,"is_reserved":false,"is_disabled":false,"rental_uris":{"android":"levelo://app?vid=d59150ed-784b-42f2-997d-e8403a07ff75","ios":"levelo://app?vid=d59150ed-784b-42f2-997d-e8403a07ff75"},"vehicle_type_id":"4","last_reported":1735506592,"current_range_meters":38400,"station_id":"ce4bh0h2rcd13ifvqd50","pricing_plan_id":"cebpf4jnsgd1na2vs0mg"},{"bike_id":"1318167e-090c-444f-8d67-c86087912fd2","system_id":"levelo_inurba_marseille","lat":43.29867,"lon":5.3973,"is_reserved":false,"is_disabled":false,"rental_uris":{"android":"levelo://app?vid=1318167e-090c-444f-8d67-c86087912fd2","ios":"levelo://app?vid=1318167e-090c-444f-8d67-c86087912fd2"},"vehicle_type_id":"4","last_reported":1735506592,"current_range_meters":26000,"station_id":"ce4bh0h2rcd13ifvqd50","pricing_plan_id":"cebpf4jnsgd1na2vs0mg"},{"bike_id":"a5f518bb-4119-4201-87a3-1707c496c472","system_id":"levelo_inurba_marseille","lat":43.2923,"lon":5.36028,"is_reserved":false,"is_disabled":false,"rental_uris":{"android":"levelo://app?vid=a5f518bb-4119-4201-87a3-1707c496c472","ios":"levelo://app?vid=a5f518bb-4119-4201-87a3-1707c496c472"},"vehicle_type_id":"4","last_reported":1735506592,"current_range_meters":31200,"station_id":"ce4bhbh2rcd13ifvqeqg","pricing_plan_id":"cebpf4jnsgd1na2vs0mg"},{"bike_id":"dd708212-6c95-4591-b555-43b33b8da7f5","system_id":"levelo_inurba_marseille","lat":43.25747,"lon":5.41055,"is_reserved":false,"is_disabled":false,"rental_uris":{"android":"levelo://app?vid=dd708212-6c95-4591-b555-43b33b8da7f5","ios":"levelo://app?vid=dd708212-6c95-4591-b555-43b33b8da7f5"},"vehicle_type_id":"4","last_reported":1735506592,"current_range_meters":36800,"station_id":"","pricing_plan_id":"cebpf4jnsgd1na2vs0mg"},{"bike_id":"8e445767-cb8c-4eb8-8922-17044545c95e","system_id":"levelo_inurba_marseille","lat":43.29647,"lon":5.36747,"is_reserved":false,"is_disabled":false,"rental_uris":{"android":"levelo://app?vid=8e445767-cb8c-4eb8-8922-17044545c95e","ios":"levelo://app?vid=8e445767-cb8c-4eb8-8922-17044545c95e"},"vehicle_type_id":"4","last_reported":1735506592,"current_range_meters":27600,"station_id":"","pricing_plan_id":"cebpf4jnsgd1na2vs0mg"},{"bike_id":"cd68a672-533e-4c5e-8b9d-ac8f24d8a645","system_id":"levelo_inurba_marseille","lat":43.31759,"lon":5.39006,"is_reserved":false,"is_disabled":false,"rental_uris":{"android":"levelo://app?vid=cd68a672-533e-4c5e-8b9d-ac8f24d8a645","ios":"levelo://app?vid=cd68a672-533e-4c5e-8b9d-ac8f24d8a645"},"vehicle_type_id":"4","last_reported":1735506592,"current_range_meters":39200,"station_id":"ce4bhqp2rcd13ifvqhng","pricing_plan_id":"cebpf4jnsgd1na2vs0mg"},{"bike_id":"c0705706-6590-403a-ac14-19c18f0f308c","system_id":"levelo_inurba_marseille","lat":43.29532,"lon":5.3854,"is_reserved":false,"is_disabled":false,"rental_uris":{"android":"levelo://app?vid=c0705706-6590-403a-ac14-19c18f0f308c","ios":"levelo://app?vid=c0705706-6590-403a-ac14-19c18f0f308c"},"vehicle_type_id":"4","last_reported":1735506592,"current_range_meters":34000,"station_id":"ce4bgih2rcd13ifvqba0","pricing_plan_id":"cebpf4jnsgd1na2vs0mg"},{"bike_id":"002e2884-777f-482c-bc93-bcaac216dd84","system_id":"levelo_inurba_marseille","lat":43.29507,"lon":5.39405,"is_reserved":false,"is_disabled":false,"rental_uris":{"android":"levelo://app?vid=002e2884-777f-482c-bc93-bcaac216dd84","ios":"levelo://app?vid=002e2884-777f-482c-bc93-bcaac216dd84"},"vehicle_type_id":"4","last_reported":1735506592,"current_range_meters":26000,"station_id":"ce4bh292rcd13ifvqdf0","pricing_plan_id":"cebpf4jnsgd1na2vs0mg"},{"bike_id":"3a624cf6-1e7d-4731-8278-e821209a8530","system_id":"levelo_inurba_marseille","lat":43.24181,"lon":5.39728,"is_reserved":false,"is_disabled":false,"rental_uris":{"android":"levelo://app?vid=3a624cf6-1e7d-4731-8278-e821209a8530","ios":"levelo://app?vid=3a624cf6-1e7d-4731-8278-e821209a8530"},"vehicle_type_id":"4","last_reported":1735506592,"current_range_meters":6800,"station_id":"ce4bhn12rcd13ifvqgpg","pricing_plan_id":"cebpf4jnsgd1na2vs0mg"},{"bike_id":"a2dfaa5b-c1ad-4316-ae45-cf62c09c30b3","system_id":"levelo_inurba_marseille","lat":43.32107,"lon":5.36783,"is_reserved":false,"is_disabled":false,"rental_uris":{"android":"levelo://app?vid=a2dfaa5b-c1ad-4316-ae45-cf62c09c30b3","ios":"levelo://app?vid=a2dfaa5b-c1ad-4316-ae45-cf62c09c30b3"},"vehicle_type_id":"4","last_reported":1735506592,"current_range_meters":16400,"station_id":"ce4bhrh2rcd13ifvqhug","pricing_plan_id":"cebpf4jnsgd1na2vs0mg"},{"bike_id":"5f8ee9c5-4e33-43ee-b8aa-ac908ba0aac5","system_id":"levelo_inurba_marseille","lat":43.27497,"lon":5.42446,"is_reserved":false,"is_disabled":false,"rental_uris":{"android":"levelo://app?vid=5f8ee9c5-4e33-43ee-b8aa-ac908ba0aac5","ios":"levelo://app?vid=5f8ee9c5-4e33-43ee-b8aa-ac908ba0aac5"},"vehicle_type_id":"4","last_reported":1735506592,"current_range_meters":24000,"station_id":"ce4bhn92rcd13ifvqgrg","pricing_plan_id":"cebpf4jnsgd1na2vs0mg"},{"bike_id":"f6eaced9-ca89-417f-a01d-b87955fe3119","system_id":"levelo_inurba_marseille","lat":43.28427,"lon":5.34988,"is_reserved":false,"is_disabled":true,"rental_uris":{"android":"levelo://app?vid=f6eaced9-ca89-417f-a01d-b87955fe3119","ios":"levelo://app?vid=f6eaced9-ca89-417f-a01d-b87955fe3119"},"vehicle_type_id":"4","last_reported":1735506592,"current_range_meters":1200,"station_id":"ce4bhbh2rcd13ifvqepg","pricing_plan_id":"cebpf4jnsgd1na2vs0mg"},{"bike_id":"6bd235ea-91de-43a7-b534-23cc85634c1e","system_id":"levelo_inurba_marseille","lat":43.29616,"lon":5.37715,"is_reserved":false,"is_disabled":true,"rental_uris":{"android":"levelo://app?vid=6bd235ea-91de-43a7-b534-23cc85634c1e","ios":"levelo://app?vid=6bd235ea-91de-43a7-b534-23cc85634c1e"},"vehicle_type_id":"4","last_reported":1735506592,"current_range_meters":21600,"station_id":"ce4bgi92rcd13ifvqb90","pricing_plan_id":"cebpf4jnsgd1na2vs0mg"},{"bike_id":"bfbd74dd-0934-4703-b9e4-eac72b17d2e3","system_id":"levelo_inurba_marseille","lat":43.31697,"lon":5.37782,"is_reserved":false,"is_disabled":false,"rental_uris":{"android":"levelo://app?vid=bfbd74dd-0934-4703-b9e4-eac72b17d2e3","ios":"levelo://app?vid=bfbd74dd-0934-4703-b9e4-eac72b17d2e3"},"vehicle_type_id":"4","last_reported":1735506592,"current_range_meters":22800,"station_id":"ce4bgth2rcd13ifvqch0","pricing_plan_id":"cebpf4jnsgd1na2vs0mg"},{"bike_id":"0ca0999b-8c60-4e45-b47c-18cd43d54f4b","system_id":"levelo_inurba_marseille","lat":43.28419,"lon":5.34984,"is_reserved":false,"is_disabled":false,"rental_uris":{"android":"levelo://app?vid=0ca0999b-8c60-4e45-b47c-18cd43d54f4b","ios":"levelo://app?vid=0ca0999b-8c60-4e45-b47c-18cd43d54f4b"},"vehicle_type_id":"4","last_reported":1735506592,"current_range_meters":36800,"station_id":"ce4bhbh2rcd13ifvqepg","pricing_plan_id":"cebpf4jnsgd1na2vs0mg"},{"bike_id":"06a27198-57a9-4c59-a2ef-6e5d24e15208","system_id":"levelo_inurba_marseille","lat":43.27938,"lon":5.41033,"is_reserved":false,"is_disabled":false,"rental_uris":{"android":"levelo://app?vid=06a27198-57a9-4c59-a2ef-6e5d24e15208","ios":"levelo://app?vid=06a27198-57a9-4c59-a2ef-6e5d24e15208"},"vehicle_type_id":"4","last_reported":1735506592,"current_range_meters":24800,"station_id":"ce4bhnp2rcd13ifvqh0g","pricing_plan_id":"cebpf4jnsgd1na2vs0mg"},{"bike_id":"5d22d4f6-c5a9-4ef2-8663-0ea09a357db3","system_id":"levelo_inurba_marseille","lat":43.27206,"lon":5.39188,"is_reserved":false,"is_disabled":false,"rental_uris":{"android":"levelo://app?vid=5d22d4f6-c5a9-4ef2-8663-0ea09a357db3","ios":"levelo://app?vid=5d22d4f6-c5a9-4ef2-8663-0ea09a357db3"},"vehicle_type_id":"4","last_reported":1735506592,"current_range_meters":38800,"station_id":"ce4bhhp2rcd13ifvqfm0","pricing_plan_id":"cebpf4jnsgd1na2vs0mg"},{"bike_id":"e23a7d55-7ce1-4f20-a71a-26c06c907d82","system_id":"levelo_inurba_marseille","lat":43.279493,"lon":5.410477,"is_reserved":false,"is_disabled":false,"rental_uris":{"android":"levelo://app?vid=e23a7d55-7ce1-4f20-a71a-26c06c907d82","ios":"levelo://app?vid=e23a7d55-7ce1-4f20-a71a-26c06c907d82"},"vehicle_type_id":"4","last_reported":1735506592,"current_range_meters":36800,"station_id":"ce4bhnp2rcd13ifvqh0g","pricing_plan_id":"cebpf4jnsgd1na2vs0mg"},{"bike_id":"727b49cc-2a12-48ab-80e0-74df305a51db","system_id":"levelo_inurba_marseille","lat":43.323615,"lon":5.367568,"is_reserved":false,"is_disabled":false,"rental_uris":{"android":"levelo://app?vid=727b49cc-2a12-48ab-80e0-74df305a51db","ios":"levelo://app?vid=727b49cc-2a12-48ab-80e0-74df305a51db"},"vehicle_type_id":"4","last_reported":1735506592,"current_range_meters":30000,"station_id":"ce4bhsh2rcd13ifvqi2g","pricing_plan_id":"cebpf4jnsgd1na2vs0mg"},{"bike_id":"5367a292-5564-4681-91cd-97babb89fc00","system_id":"levelo_inurba_marseille","lat":43.22922,"lon":5.35365,"is_reserved":false,"is_disabled":false,"rental_uris":{"android":"levelo://app?vid=5367a292-5564-4681-91cd-97babb89fc00","ios":"levelo://app?vid=5367a292-5564-4681-91cd-97babb89fc00"},"vehicle_type_id":"4","last_reported":1735506592,"current_range_meters":35200,"station_id":"cpo3532slgdg3j2ikp40","pricing_plan_id":"cebpf4jnsgd1na2vs0mg"},{"bike_id":"ef3eebec-14c4-4796-814d-d8b4b3d92a31","system_id":"levelo_inurba_marseille","lat":43.29201,"lon":5.39311,"is_reserved":false,"is_disabled":false,"rental_uris":{"android":"levelo://app?vid=ef3eebec-14c4-4796-814d-d8b4b3d92a31","ios":"levelo://app?vid=ef3eebec-14c4-4796-814d-d8b4b3d92a31"},"vehicle_type_id":"4","last_reported":1735506592,"current_range_meters":16800,"station_id":"ce4bh192rcd13ifvqdd0","pricing_plan_id":"cebpf4jnsgd1na2vs0mg"},{"bike_id":"0483d5a5-12c2-4b90-8e6c-47d6d5a4b82c","system_id":"levelo_inurba_marseille","lat":43.25824,"lon":5.39428,"is_reserved":false,"is_disabled":false,"rental_uris":{"android":"levelo://app?vid=0483d5a5-12c2-4b90-8e6c-47d6d5a4b82c","ios":"levelo://app?vid=0483d5a5-12c2-4b90-8e6c-47d6d5a4b82c"},"vehicle_type_id":"4","last_reported":1735506592,"current_range_meters":15200,"station_id":"ce4bhip2rcd13ifvqft0","pricing_plan_id":"cebpf4jnsgd1na2vs0mg"},{"bike_id":"07308ae1-bea8-48ff-879f-15b3edeb7a1a","system_id":"levelo_inurba_marseille","lat":43.28108,"lon":5.37843,"is_reserved":false,"is_disabled":false,"rental_uris":{"android":"levelo://app?vid=07308ae1-bea8-48ff-879f-15b3edeb7a1a","ios":"levelo://app?vid=07308ae1-bea8-48ff-879f-15b3edeb7a1a"},"vehicle_type_id":"4","last_reported":1735506592,"current_range_meters":39200,"station_id":"ce4bha12rcd13ifvqee0","pricing_plan_id":"cebpf4jnsgd1na2vs0mg"},{"bike_id":"68809eeb-1028-4255-859f-70ec9b3590f7","system_id":"levelo_inurba_marseille","lat":43.27811,"lon":5.40716,"is_reserved":false,"is_disabled":false,"rental_uris":{"android":"levelo://app?vid=68809eeb-1028-4255-859f-70ec9b3590f7","ios":"levelo://app?vid=68809eeb-1028-4255-859f-70ec9b3590f7"},"vehicle_type_id":"4","last_reported":1735506592,"current_range_meters":24000,"station_id":"ce4bhnh2rcd13ifvqgtg","pricing_plan_id":"cebpf4jnsgd1na2vs0mg"},{"bike_id":"7c0ace64-49ff-46c5-99ef-7fa4db85a49e","system_id":"levelo_inurba_marseille","lat":43.3236,"lon":5.36759,"is_reserved":false,"is_disabled":false,"rental_uris":{"android":"levelo://app?vid=7c0ace64-49ff-46c5-99ef-7fa4db85a49e","ios":"levelo://app?vid=7c0ace64-49ff-46c5-99ef-7fa4db85a49e"},"vehicle_type_id":"4","last_reported":1735506592,"current_range_meters":17200,"station_id":"ce4bhsh2rcd13ifvqi2g","pricing_plan_id":"cebpf4jnsgd1na2vs0mg"},{"bike_id":"1d692dd0-d491-415a-9c0a-9a7cdf6017fd","system_id":"levelo_inurba_marseille","lat":43.28277,"lon":5.35077,"is_reserved":false,"is_disabled":false,"rental_uris":{"android":"levelo://app?vid=1d692dd0-d491-415a-9c0a-9a7cdf6017fd","ios":"levelo://app?vid=1d692dd0-d491-415a-9c0a-9a7cdf6017fd"},"vehicle_type_id":"4","last_reported":1735506592,"current_range_meters":38800,"station_id":"ce4bhbp2rcd13ifvqerg","pricing_plan_id":"cebpf4jnsgd1na2vs0mg"},{"bike_id":"cd0f8fde-5dbd-4dfd-9841-71397d7c30f7","system_id":"levelo_inurba_marseille","lat":43.260901,"lon":5.373214,"is_reserved":false,"is_disabled":false,"rental_uris":{"android":"levelo://app?vid=cd0f8fde-5dbd-4dfd-9841-71397d7c30f7","ios":"levelo://app?vid=cd0f8fde-5dbd-4dfd-9841-71397d7c30f7"},"vehicle_type_id":"4","last_reported":1735506592,"current_range_meters":26800,"station_id":"","pricing_plan_id":"cebpf4jnsgd1na2vs0mg"},{"bike_id":"a8ed4535-9ac1-40e1-8792-f8893013f535","system_id":"levelo_inurba_marseille","lat":43.26561,"lon":5.37263,"is_reserved":false,"is_disabled":false,"rental_uris":{"android":"levelo://app?vid=a8ed4535-9ac1-40e1-8792-f8893013f535","ios":"levelo://app?vid=a8ed4535-9ac1-40e1-8792-f8893013f535"},"vehicle_type_id":"4","last_reported":1735506592,"current_range_meters":24800,"station_id":"ce4bhg12rcd13ifvqf70","pricing_plan_id":"cebpf4jnsgd1na2vs0mg"},{"bike_id":"b5de2562-f095-45cd-9528-ee25a0af8e8e","system_id":"levelo_inurba_marseille","lat":43.29233,"lon":5.36037,"is_reserved":false,"is_disabled":false,"rental_uris":{"android":"levelo://app?vid=b5de2562-f095-45cd-9528-ee25a0af8e8e","ios":"levelo://app?vid=b5de2562-f095-45cd-9528-ee25a0af8e8e"},"vehicle_type_id":"4","last_reported":1735506592,"current_range_meters":38800,"station_id":"ce4bhbh2rcd13ifvqeqg","pricing_plan_id":"cebpf4jnsgd1na2vs0mg"},{"bike_id":"450de7c6-68ca-4a47-8685-03d1b8b10383","system_id":"levelo_inurba_marseille","lat":43.299904,"lon":5.371729,"is_reserved":false,"is_disabled":false,"rental_uris":{"android":"levelo://app?vid=450de7c6-68ca-4a47-8685-03d1b8b10383","ios":"levelo://app?vid=450de7c6-68ca-4a47-8685-03d1b8b10383"},"vehicle_type_id":"4","last_reported":1735506592,"current_range_meters":27200,"station_id":"ce4bgr92rcd13ifvqc7g","pricing_plan_id":"cebpf4jnsgd1na2vs0mg"},{"bike_id":"79c4e503-18a8-4eeb-88be-9bc7971aa5bb","system_id":"levelo_inurba_marseille","lat":43.265123,"lon":5.395245,"is_reserved":false,"is_disabled":false,"rental_uris":{"android":"levelo://app?vid=79c4e503-18a8-4eeb-88be-9bc7971aa5bb","ios":"levelo://app?vid=79c4e503-18a8-4eeb-88be-9bc7971aa5bb"},"vehicle_type_id":"4","last_reported":1735506592,"current_range_meters":38000,"station_id":"ce4bhi12rcd13ifvqfq0","pricing_plan_id":"cebpf4jnsgd1na2vs0mg"},{"bike_id":"2e19126c-44cf-40bf-a549-dc01e1a05272","system_id":"levelo_inurba_marseille","lat":43.28415,"lon":5.3752,"is_reserved":false,"is_disabled":false,"rental_uris":{"android":"levelo://app?vid=2e19126c-44cf-40bf-a549-dc01e1a05272","ios":"levelo://app?vid=2e19126c-44cf-40bf-a549-dc01e1a05272"},"vehicle_type_id":"4","last_reported":1735506592,"current_range_meters":16000,"station_id":"ce4bh412rcd13ifvqds0","pricing_plan_id":"cebpf4jnsgd1na2vs0mg"},{"bike_id":"c5d77929-f50e-4dc0-9b32-93d473c82ac0","system_id":"levelo_inurba_marseille","lat":43.3064,"lon":5.401,"is_reserved":false,"is_disabled":false,"rental_uris":{"android":"levelo://app?vid=c5d77929-f50e-4dc0-9b32-93d473c82ac0","ios":"levelo://app?vid=c5d77929-f50e-4dc0-9b32-93d473c82ac0"},"vehicle_type_id":"4","last_reported":1735506592,"current_range_meters":8800,"station_id":"ce4bh112rcd13ifvqda0","pricing_plan_id":"cebpf4jnsgd1na2vs0mg"},{"bike_id":"8d197623-433a-4c9c-a656-63e56f209eb2","system_id":"levelo_inurba_marseille","lat":43.26196,"lon":5.37446,"is_reserved":false,"is_disabled":false,"rental_uris":{"android":"levelo://app?vid=8d197623-433a-4c9c-a656-63e56f209eb2","ios":"levelo://app?vid=8d197623-433a-4c9c-a656-63e56f209eb2"},"vehicle_type_id":"4","last_reported":1735506592,"current_range_meters":3200,"station_id":"ce4bhgp2rcd13ifvqfc0","pricing_plan_id":"cebpf4jnsgd1na2vs0mg"},{"bike_id":"942f8ae0-f6f5-42e2-980f-8bfebed0d611","system_id":"levelo_inurba_marseille","lat":43.32049,"lon":5.41487,"is_reserved":false,"is_disabled":false,"rental_uris":{"android":"levelo://app?vid=942f8ae0-f6f5-42e2-980f-8bfebed0d611","ios":"levelo://app?vid=942f8ae0-f6f5-42e2-980f-8bfebed0d611"},"vehicle_type_id":"4","last_reported":1735506592,"current_range_meters":36800,"station_id":"","pricing_plan_id":"cebpf4jnsgd1na2vs0mg"},{"bike_id":"aa0853a1-d76a-43ef-bc0a-45679f566eb0","system_id":"levelo_inurba_marseille","lat":43.29786,"lon":5.38084,"is_reserved":false,"is_disabled":false,"rental_uris":{"android":"levelo://app?vid=aa0853a1-d76a-43ef-bc0a-45679f566eb0","ios":"levelo://app?vid=aa0853a1-d76a-43ef-bc0a-45679f566eb0"},"vehicle_type_id":"4","last_reported":1735506592,"current_range_meters":33600,"station_id":"ce4bgip2rcd13ifvqbb0","pricing_plan_id":"cebpf4jnsgd1na2vs0mg"},{"bike_id":"dac94ecf-3203-4c89-acc0-21c14e979588","system_id":"levelo_inurba_marseille","lat":43.26689,"lon":5.38271,"is_reserved":false,"is_disabled":false,"rental_uris":{"android":"levelo://app?vid=dac94ecf-3203-4c89-acc0-21c14e979588","ios":"levelo://app?vid=dac94ecf-3203-4c89-acc0-21c14e979588"},"vehicle_type_id":"4","last_reported":1735506592,"current_range_meters":24800,"station_id":"ce4bhg92rcd13ifvqf90","pricing_plan_id":"cebpf4jnsgd1na2vs0mg"},{"bike_id":"91bb292a-df5c-4dce-bd7e-6647a12df4cd","system_id":"levelo_inurba_marseille","lat":43.26939,"lon":5.38626,"is_reserved":false,"is_disabled":false,"rental_uris":{"android":"levelo://app?vid=91bb292a-df5c-4dce-bd7e-6647a12df4cd","ios":"levelo://app?vid=91bb292a-df5c-4dce-bd7e-6647a12df4cd"},"vehicle_type_id":"4","last_reported":1735506592,"current_range_meters":38800,"station_id":"ce4bhh92rcd13ifvqfh0","pricing_plan_id":"cebpf4jnsgd1na2vs0mg"},{"bike_id":"dae442df-0334-4a2a-8901-28b38cfe10c7","system_id":"levelo_inurba_marseille","lat":43.23143,"lon":5.43709,"is_reserved":false,"is_disabled":false,"rental_uris":{"android":"levelo://app?vid=dae442df-0334-4a2a-8901-28b38cfe10c7","ios":"levelo://app?vid=dae442df-0334-4a2a-8901-28b38cfe10c7"},"vehicle_type_id":"4","last_reported":1735506592,"current_range_meters":39200,"station_id":"ce4bhmp2rcd13ifvqgog","pricing_plan_id":"cebpf4jnsgd1na2vs0mg"},{"bike_id":"d787e330-e288-4e1c-926a-5bcb7a236ca2","system_id":"levelo_inurba_marseille","lat":43.28151,"lon":5.42643,"is_reserved":false,"is_disabled":false,"rental_uris":{"android":"levelo://app?vid=d787e330-e288-4e1c-926a-5bcb7a236ca2","ios":"levelo://app?vid=d787e330-e288-4e1c-926a-5bcb7a236ca2"},"vehicle_type_id":"4","last_reported":1735506592,"current_range_meters":22800,"station_id":"ce4bhnh2rcd13ifvqgug","pricing_plan_id":"cebpf4jnsgd1na2vs0mg"},{"bike_id":"ef2bb02b-e0bd-4647-b72f-a9fb16a261e5","system_id":"levelo_inurba_marseille","lat":43.2908,"lon":5.3716,"is_reserved":false,"is_disabled":false,"rental_uris":{"android":"levelo://app?vid=ef2bb02b-e0bd-4647-b72f-a9fb16a261e5","ios":"levelo://app?vid=ef2bb02b-e0bd-4647-b72f-a9fb16a261e5"},"vehicle_type_id":"4","last_reported":1735506592,"current_range_meters":14000,"station_id":"ce4bh5p2rcd13ifvqe4g","pricing_plan_id":"cebpf4jnsgd1na2vs0mg"},{"bike_id":"df8260bd-692f-41c9-9d6d-acd95693834a","system_id":"levelo_inurba_marseille","lat":43.31164,"lon":5.38715,"is_reserved":false,"is_disabled":false,"rental_uris":{"android":"levelo://app?vid=df8260bd-692f-41c9-9d6d-acd95693834a","ios":"levelo://app?vid=df8260bd-692f-41c9-9d6d-acd95693834a"},"vehicle_type_id":"4","last_reported":1735506592,"current_range_meters":38800,"station_id":"ce4bgv12rcd13ifvqcp0","pricing_plan_id":"cebpf4jnsgd1na2vs0mg"},{"bike_id":"5af48ed4-70be-4d97-acf2-82d6f3c0b2fb","system_id":"levelo_inurba_marseille","lat":43.31699,"lon":5.37729,"is_reserved":false,"is_disabled":true,"rental_uris":{"android":"levelo://app?vid=5af48ed4-70be-4d97-acf2-82d6f3c0b2fb","ios":"levelo://app?vid=5af48ed4-70be-4d97-acf2-82d6f3c0b2fb"},"vehicle_type_id":"4","last_reported":1735506592,"current_range_meters":36000,"station_id":"ce4bgth2rcd13ifvqch0","pricing_plan_id":"cebpf4jnsgd1na2vs0mg"},{"bike_id":"6fe88ec2-6272-4be1-b823-bf708240042b","system_id":"levelo_inurba_marseille","lat":43.28945,"lon":5.36638,"is_reserved":false,"is_disabled":false,"rental_uris":{"android":"levelo://app?vid=6fe88ec2-6272-4be1-b823-bf708240042b","ios":"levelo://app?vid=6fe88ec2-6272-4be1-b823-bf708240042b"},"vehicle_type_id":"4","last_reported":1735506592,"current_range_meters":13600,"station_id":"ce4bhap2rcd13ifvqek0","pricing_plan_id":"cebpf4jnsgd1na2vs0mg"},