{"last_updated":1746270471,"ttl":60,"version":"2.2","data":{"bikes":[{"bike_id":"137363de-3840-4943-89c1-3ad598c3d262","system_id":"levelo_inurba_marseille","lat":43.26944,"lon":5.40259,"is_reserved":false,"is_disabled":false,"rental_uris":{"android":"levelo://app?vid=137363de-3840-4943-89c1-3ad598c3d262","ios":"levelo://app?vid=137363de-3840-4943-89c1-3ad598c3d262"},"vehicle_type_id":"4","last_reported":1746270471,"current_range_meters":2800,"station_id":"cjm6bp8fraef2m0cb0m0","pricing_plan_id":"cebpf4jnsgd1na2vs0mg"},{"bike_id":"2be6c5ac-db75-4c9d-95c6-9c66882f14b8","system_id":"levelo_inurba_marseille","lat":43.27898,"lon":5.36302,"is_reserved":false,"is_disabled":false,"rental_uris":{"android":"levelo://app?vid=2be6c5ac-db75-4c9d-95c6-9c66882f14b8","ios":"levelo://app?vid=2be6c5ac-db75-4c9d-95c6-9c66882f14b8"},"vehicle_type_id":"4","last_reported":1746270471,"current_range_meters":3600,"station_id":"","pricing_plan_id":"cebpf4jnsgd1na2vs0mg"},{"bike_id":"570df2f9-23cd-45fc-a0a2-c80ab47a7a02","system_id":"levelo_inurba_marseille","lat":43.23156,"lon":5.437,"is_reserved":false,"is_disabled":true,"rental_uris":{"android":"levelo://app?vid=570df2f9-23cd-45fc-a0a2-c80ab47a7a02","ios":"levelo://app?vid=570df2f9-23cd-45fc-a0a2-c80ab47a7a02"},"vehicle_type_id":"4","last_reported":1746270471,"current_range_meters":3600,"station_id":"ce4bhmp2rcd13ifvqgog","pricing_plan_id":"cebpf4jnsgd1na2vs0mg"},{"bike_id":"4fcb94dd-7e2e-4c2b-a657-b8760b2238dc","system_id":"levelo_inurba_marseille","lat":43.2596,"lon":5.4089,"is_reserved":false,"is_disabled":false,"rental_uris":{"android":"levelo://app?vid=4fcb94dd-7e2e-4c2b-a657-b8760b2238dc","ios":"levelo://app?vid=4fcb94dd-7e2e-4c2b-a657-b8760b2238dc"},"vehicle_type_id":"4","last_reported":1746270471,"current_range_meters":4000,"station_id":"ce4bhm92rcd13ifvqglg","pricing_plan_id":"cebpf4jnsgd1na2vs0mg"},{"bike_id":"e545d50d-dea5-4b60-9a3e-1f35c7498f0b","system_id":"levelo_inurba_marseille","lat":43.25122,"lon":5.40344,"is_reserved":false,"is_disabled":false,"rental_uris":{"android":"levelo://app?vid=e545d50d-dea5-4b60-9a3e-1f35c7498f0b","ios":"levelo://app?vid=e545d50d-dea5-4b60-9a3e-1f35c7498f0b"},"vehicle_type_id":"4","last_reported":1746270471,"current_range_meters":4000,"station_id":"ce4bhlh2rcd13ifvqgig","pricing_plan_id":"cebpf4jnsgd1na2vs0mg"},{"bike_id":"7b84c01a-4218-4d90-aff8-8850b2211c0a","system_id":"levelo_inurba_marseille","lat":43.28272,"lon":5.3506,"is_reserved":false,"is_disabled":false,"rental_uris":{"android":"levelo://app?vid=7b84c01a-4218-4d90-aff8-8850b2211c0a","ios":"levelo://app?vid=7b84c01a-4218-4d90-aff8-8850b2211c0a"},"vehicle_type_id":"4","last_reported":1746270471,"current_range_meters":3600,"station_id":"ce4bhbp2rcd13ifvqerg","pricing_plan_id":"cebpf4jnsgd1na2vs0mg"},{"bike_id":"72c3bd22-5687-41f3-a6ee-078bae1e67e2","system_id":"levelo_inurba_marseille","lat":43.26958,"lon":5.38638,"is_reserved":false,"is_disabled":false,"rental_uris":{"android":"levelo://app?vid=72c3bd22-5687-41f3-a6ee-078bae1e67e2","ios":"levelo://app?vid=72c3bd22-5687-41f3-a6ee-078bae1e67e2"},"vehicle_type_id":"4","last_reported":1746270471,"current_range_meters":4000,"station_id":"ce4bhh92rcd13ifvqfh0","pricing_plan_id":"cebpf4jnsgd1na2vs0mg"},{"bike_id":"f73daf93-45c7-48c0-a61a-2d28ac89db8d","system_id":"levelo_inurba_marseille","lat":43.33951,"lon":5.42036,"is_reserved":false,"is_disabled":false,"rental_uris":{"android":"levelo://app?vid=f73daf93-45c7-48c0-a61a-2d28ac89db8d","ios":"levelo://app?vid=f73daf93-45c7-48c0-a61a-2d28ac89db8d"},"vehicle_type_id":"4","last_reported":1746270471,"current_range_meters":4000,"station_id":"","pricing_plan_id":"cebpf4jnsgd1na2vs0mg"},{"bike_id":"2b95c467-abf5-4f96-801b-6559cd9d38ec","system_id":"levelo_inurba_marseille","lat":43.250004,"lon":5.389112,"is_reserved":false,"is_disabled":false,"rental_uris":{"android":"levelo://app?vid=2b95c467-abf5-4f96-801b-6559cd9d38ec","ios":"levelo://app?vid=2b95c467-abf5-4f96-801b-6559cd9d38ec"},"vehicle_type_id":"4","last_reported":1746270471,"current_range_meters":4400,"station_id":"ce4bhgp2rcd13ifvqfd0","pricing_plan_id":"cebpf4jnsgd1na2vs0mg"},{"bike_id":"2d87f24b-bb92-4f5a-9c64-611905425c8d","system_id":"levelo_inurba_marseille","lat":43.23667,"lon":5.39143,"is_reserved":false,"is_disabled":false,"rental_uris":{"android":"levelo://app?vid=2d87f24b-bb92-4f5a-9c64-611905425c8d","ios":"levelo://app?vid=2d87f24b-bb92-4f5a-9c64-611905425c8d"},"vehicle_type_id":"4","last_reported":1746270471,"current_range_meters":4400,"station_id":"","pricing_plan_id":"cebpf4jnsgd1na2vs0mg"},{"bike_id":"8cb0aeec-f2e9-40fc-8119-16d6dde3aa45","system_id":"levelo_inurba_marseille","lat":43.25725,"lon":5.41104,"is_reserved":false,"is_disabled":false,"rental_uris":{"android":"levelo://app?vid=8cb0aeec-f2e9-40fc-8119-16d6dde3aa45","ios":"levelo://app?vid=8cb0aeec-f2e9-40fc-8119-16d6dde3aa45"},"vehicle_type_id":"4","last_reported":1746270471,"current_range_meters":4800,"station_id":"ce4bhkp2rcd13ifvqgd0","pricing_plan_id":"cebpf4jnsgd1na2vs0mg"},{"bike_id":"38054d04-26ac-4d5d-83b6-34cb1d890452","system_id":"levelo_inurba_marseille","lat":43.27375,"lon":5.36251,"is_reserved":false,"is_disabled":false,"rental_uris":{"android":"levelo://app?vid=38054d04-26ac-4d5d-83b6-34cb1d890452","ios":"levelo://app?vid=38054d04-26ac-4d5d-83b6-34cb1d890452"},"vehicle_type_id":"4","last_reported":1746270471,"current_range_meters":4800,"station_id":"ce4bhbh2rcd13ifvqeo0","pricing_plan_id":"cebpf4jnsgd1na2vs0mg"},{"bike_id":"7971fe93-5f1d-4a59-8508-b415e64fcb18","system_id":"levelo_inurba_marseille","lat":43.30935,"lon":5.37332,"is_reserved":false,"is_disabled":false,"rental_uris":{"android":"levelo://app?vid=7971fe93-5f1d-4a59-8508-b415e64fcb18","ios":"levelo://app?vid=7971fe93-5f1d-4a59-8508-b415e64fcb18"},"vehicle_type_id":"4","last_reported":1746270471,"current_range_meters":4800,"station_id":"","pricing_plan_id":"cebpf4jnsgd1na2vs0mg"},{"bike_id":"2736d96d-8f43-4da4-bd82-6ab509f50d24","system_id":"levelo_inurba_marseille","lat":43.30619,"lon":5.39322,"is_reserved":false,"is_disabled":false,"rental_uris":{"android":"levelo://app?vid=2736d96d-8f43-4da4-bd82-6ab509f50d24","ios":"levelo://app?vid=2736d96d-8f43-4da4-bd82-6ab509f50d24"},"vehicle_type_id":"4","last_reported":1746270471,"current_range_meters":5600,"station_id":"ce4bh0p2rcd13ifvqd80","pricing_plan_id":"cebpf4jnsgd1na2vs0mg"},{"bike_id":"3e225a58-99dd-4b3f-935f-f142caea86bd","system_id":"levelo_inurba_marseille","lat":43.28671,"lon":5.38664,"is_reserved":false,"is_disabled":false,"rental_uris":{"android":"levelo://app?vid=3e225a58-99dd-4b3f-935f-f142caea86bd","ios":"levelo://app?vid=3e225a58-99dd-4b3f-935f-f142caea86bd"},"vehicle_type_id":"4","last_reported":1746270471,"current_range_meters":5600,"station_id":"ce4bh492rcd13ifvqdug","pricing_plan_id":"cebpf4jnsgd1na2vs0mg"},{"bike_id":"0d6c5100-7db5-44d0-b9d6-cf2b96014798","system_id":"levelo_inurba_marseille","lat":43.310084,"lon":5.374866,"is_reserved":false,"is_disabled":false,"rental_uris":{"android":"levelo://app?vid=0d6c5100-7db5-44d0-b9d6-cf2b96014798","ios":"levelo://app?vid=0d6c5100-7db5-44d0-b9d6-cf2b96014798"},"vehicle_type_id":"4","last_reported":1746270471,"current_range_meters":5600,"station_id":"","pricing_plan_id":"cebpf4jnsgd1na2vs0mg"},{"bike_id":"a0e69fca-36fd-4d30-8d13-32fc0fa15d5c","system_id":"levelo_inurba_marseille","lat":43.26564,"lon":5.39014,"is_reserved":false,"is_disabled":false,"rental_uris":{"android":"levelo://app?vid=a0e69fca-36fd-4d30-8d13-32fc0fa15d5c","ios":"levelo://app?vid=a0e69fca-36fd-4d30-8d13-32fc0fa15d5c"},"vehicle_type_id":"4","last_reported":1746270471,"current_range_meters":5600,"station_id":"ce4bhe12rcd13ifvqf30","pricing_plan_id":"cebpf4jnsgd1na2vs0mg"},{"bike_id":"da22b999-b163-4869-b505-603d9aa2685d","system_id":"levelo_inurba_marseille","lat":43.27319,"lon":5.39075,"is_reserved":false,"is_disabled":false,"rental_uris":{"android":"levelo://app?vid=da22b999-b163-4869-b505-603d9aa2685d","ios":"levelo://app?vid=da22b999-b163-4869-b505-603d9aa2685d"},"vehicle_type_id":"4","last_reported":1746270471,"current_range_meters":5600,"station_id":"ce4bhgp2rcd13ifvqfe0","pricing_plan_id":"cebpf4jnsgd1na2vs0mg"},{"bike_id":"fabc8ca7-63fd-4498-944b-9086a963b61b","system_id":"levelo_inurba_marseille","lat":43.30358,"lon":5.41886,"is_reserved":false,"is_disabled":false,"rental_uris":{"android":"levelo://app?vid=fabc8ca7-63fd-4498-944b-9086a963b61b","ios":"levelo://app?vid=fabc8ca7-63fd-4498-944b-9086a963b61b"},"vehicle_type_id":"4","last_reported":1746270471,"current_range_meters":5600,"station_id":"ce4bhop2rcd13ifvqh7g","pricing_plan_id":"cebpf4jnsgd1na2vs0mg"},{"bike_id":"a69ccf4e-5743-4dc3-a630-b2344bf0c864","system_id":"levelo_inurba_marseille","lat":43.3165,"lon":5.37727,"is_reserved":false,"is_disabled":true,"rental_uris":{"android":"levelo://app?vid=a69ccf4e-5743-4dc3-a630-b2344bf0c864","ios":"levelo://app?vid=a69ccf4e-5743-4dc3-a630-b2344bf0c864"},"vehicle_type_id":"4","last_reported":1746270471,"current_range_meters":6400,"station_id":"ce4bgth2rcd13ifvqch0","pricing_plan_id":"cebpf4jnsgd1na2vs0mg"},{"bike_id":"83a0147c-c325-4caf-bc4c-081f2dd4c308","system_id":"levelo_inurba_marseille","lat":43.302551,"lon":5.400804,"is_reserved":false,"is_disabled":false,"rental_uris":{"android":"levelo://app?vid=83a0147c-c325-4caf-bc4c-081f2dd4c308","ios":"levelo://app?vid=83a0147c-c325-4caf-bc4c-081f2dd4c308"},"vehicle_type_id":"4","last_reported":1746270471,"current_range_meters":6400,"station_id":"ce4bgvh2rcd13ifvqcs0","pricing_plan_id":"cebpf4jnsgd1na2vs0mg"},{"bike_id":"124b5782-569b-4c73-b847-6bf8834d258b","system_id":"levelo_inurba_marseille","lat":43.27363,"lon":5.36257,"is_reserved":false,"is_disabled":false,"rental_uris":{"android":"levelo://app?vid=124b5782-569b-4c73-b847-6bf8834d258b","ios":"levelo://app?vid=124b5782-569b-4c73-b847-6bf8834d258b"},"vehicle_type_id":"4","last_reported":1746270471,"current_range_meters":6400,"station_id":"ce4bhbh2rcd13ifvqeo0","pricing_plan_id":"cebpf4jnsgd1na2vs0mg"},{"bike_id":"97b97138-c079-4f52-ae28-442559aac9b1","system_id":"levelo_inurba_marseille","lat":43.29414,"lon":5.38618,"is_reserved":false,"is_disabled":false,"rental_uris":{"android":"levelo://app?vid=97b97138-c079-4f52-ae28-442559aac9b1","ios":"levelo://app?vid=97b97138-c079-4f52-ae28-442559aac9b1"},"vehicle_type_id":"4","last_reported":1746270471,"current_range_meters":6400,"station_id":"ce4bh2h2rcd13ifvqdh0","pricing_plan_id":"cebpf4jnsgd1na2vs0mg"},{"bike_id":"f6136f00-b6b5-48ee-b9f8-5a00e87db14b","system_id":"levelo_inurba_marseille","lat":43.21747,"lon":5.346,"is_reserved":false,"is_disabled":false,"rental_uris":{"android":"levelo://app?vid=f6136f00-b6b5-48ee-b9f8-5a00e87db14b","ios":"levelo://app?vid=f6136f00-b6b5-48ee-b9f8-5a00e87db14b"},"vehicle_type_id":"4","last_reported":1746270471,"current_range_meters":6400,"station_id":"st_cvj6r9ubvosntc0bgbag","pricing_plan_id":"cebpf4jnsgd1na2vs0mg"},{"bike_id":"33c54493-53a6-4b3f-880c-b9c8f1aa53c3","system_id":"levelo_inurba_marseille","lat":43.26559,"lon":5.37287,"is_reserved":false,"is_disabled":false,"rental_uris":{"android":"levelo://app?vid=33c54493-53a6-4b3f-880c-b9c8f1aa53c3","ios":"levelo://app?vid=33c54493-53a6-4b3f-880c-b9c8f1aa53c3"},"vehicle_type_id":"4","last_reported":1746270471,"current_range_meters":6800,"station_id":"ce4bhg12rcd13ifvqf70","pricing_plan_id":"cebpf4jnsgd1na2vs0mg"},{"bike_id":"3694d090-d909-4d38-9eb1-31338c8af39e","system_id":"levelo_inurba_marseille","lat":43.2669,"lon":5.38277,"is_reserved":false,"is_disabled":true,"rental_uris":{"android":"levelo://app?vid=3694d090-d909-4d38-9eb1-31338c8af39e","ios":"levelo://app?vid=3694d090-d909-4d38-9eb1-31338c8af39e"},"vehicle_type_id":"4","last_reported":1746270471,"current_range_meters":6800,"station_id":"ce4bhg92rcd13ifvqf90","pricing_plan_id":"cebpf4jnsgd1na2vs0mg"},{"bike_id":"81e80a60-feb5-4268-9314-c65f9c70c462","system_id":"levelo_inurba_marseille","lat":43.29018,"lon":5.38625,"is_reserved":false,"is_disabled":true,"rental_uris":{"android":"levelo://app?vid=81e80a60-feb5-4268-9314-c65f9c70c462","ios":"levelo://app?vid=81e80a60-feb5-4268-9314-c65f9c70c462"},"vehicle_type_id":"4","last_reported":1746270471,"current_range_meters":6800,"station_id":"ce4bh4p2rcd13ifvqe0g","pricing_plan_id":"cebpf4jnsgd1na2vs0mg"},{"bike_id":"d0e08433-1eed-4845-9c7b-66b0387031fc","system_id":"levelo_inurba_marseille","lat":43.28419,"lon":5.34978,"is_reserved":false,"is_disabled":false,"rental_uris":{"android":"levelo://app?vid=d0e08433-1eed-4845-9c7b-66b0387031fc","ios":"levelo://app?vid=d0e08433-1eed-4845-9c7b-66b0387031fc"},"vehicle_type_id":"4","last_reported":1746270471,"current_range_meters":6800,"station_id":"ce4bhbh2rcd13ifvqepg","pricing_plan_id":"cebpf4jnsgd1na2vs0mg"},{"bike_id":"4b9d0c3c-03fc-4a38-8e88-450202c72447","system_id":"levelo_inurba_marseille","lat":43.21186,"lon":5.35064,"is_reserved":false,"is_disabled":false,"rental_uris":{"android":"levelo://app?vid=4b9d0c3c-03fc-4a38-8e88-450202c72447","ios":"levelo://app?vid=4b9d0c3c-03fc-4a38-8e88-450202c72447"},"vehicle_type_id":"4","last_reported":1746270471,"current_range_meters":7200,"station_id":"st_cvj6sg6p6f1abm77japg","pricing_plan_id":"cebpf4jnsgd1na2vs0mg"},{"bike_id":"ec796998-22c2-482f-b65c-75e39b83b595","system_id":"levelo_inurba_marseille","lat":43.26565,"lon":5.38998,"is_reserved":false,"is_disabled":false,"rental_uris":{"android":"levelo://app?vid=ec796998-22c2-482f-b65c-75e39b83b595","ios":"levelo://app?vid=ec796998-22c2-482f-b65c-75e39b83b595"},"vehicle_type_id":"4","last_reported":1746270471,"current_range_meters":8000,"station_id":"ce4bhe12rcd13ifvqf30","pricing_plan_id":"cebpf4jnsgd1na2vs0mg"},{"bike_id":"41fdfc93-fefc-4a51-947e-ddd8bfed2b91","system_id":"levelo_inurba_marseille","lat":43.30888,"lon":5.3964,"is_reserved":false,"is_disabled":false,"rental_uris":{"android":"levelo://app?vid=41fdfc93-fefc-4a51-947e-ddd8bfed2b91","ios":"levelo://app?vid=41fdfc93-fefc-4a51-947e-ddd8bfed2b91"},"vehicle_type_id":"4","last_reported":1746270471,"current_range_meters":8000,"station_id":"ce4bh012rcd13ifvqcv0","pricing_plan_id":"cebpf4jnsgd1na2vs0mg"},{"bike_id":"5b9238d4-b62f-479f-88db-255f8d78812c","system_id":"levelo_inurba_marseille","lat":43.23962,"lon":5.36625,"is_reserved":false,"is_disabled":false,"rental_uris":{"android":"levelo://app?vid=5b9238d4-b62f-479f-88db-255f8d78812c","ios":"levelo://app?vid=5b9238d4-b62f-479f-88db-255f8d78812c"},"vehicle_type_id":"4","last_reported":1746270471,"current_range_meters":8000,"station_id":"ce4bhi12rcd13ifvqfp0","pricing_plan_id":"cebpf4jnsgd1na2vs0mg"},{"bike_id":"4b36b7b7-1dfb-4937-9c48-55b7d48a06b9","system_id":"levelo_inurba_marseille","lat":43.23154,"lon":5.43704,"is_reserved":false,"is_disabled":false,"rental_uris":{"android":"levelo://app?vid=4b36b7b7-1dfb-4937-9c48-55b7d48a06b9","ios":"levelo://app?vid=4b36b7b7-1dfb-4937-9c48-55b7d48a06b9"},"vehicle_type_id":"4","last_reported":1746270471,"current_range_meters":7200,"station_id":"ce4bhmp2rcd13ifvqgog","pricing_plan_id":"cebpf4jnsgd1na2vs0mg"},{"bike_id":"2c225b79-8eb5-401b-a4f9-1e60172053b7","system_id":"levelo_inurba_marseille","lat":43.29701,"lon":5.37684,"is_reserved":false,"is_disabled":false,"rental_uris":{"android":"levelo://app?vid=2c225b79-8eb5-401b-a4f9-1e60172053b7","ios":"levelo://app?vid=2c225b79-8eb5-401b-a4f9-1e60172053b7"},"vehicle_type_id":"4","last_reported":1746270471,"current_range_meters":8000,"station_id":"ce4bgkh2rcd13ifvqbl0","pricing_plan_id":"cebpf4jnsgd1na2vs0mg"},{"bike_id":"6a468730-0d41-4472-9ece-6831ed07eb08","system_id":"levelo_inurba_marseille","lat":43.23148,"lon":5.43705,"is_reserved":false,"is_disabled":false,"rental_uris":{"android":"levelo://app?vid=6a468730-0d41-4472-9ece-6831ed07eb08","ios":"levelo://app?vid=6a468730-0d41-4472-9ece-6831ed07eb08"},"vehicle_type_id":"4","last_reported":1746270471,"current_range_meters":8000,"station_id":"ce4bhmp2rcd13ifvqgog","pricing_plan_id":"cebpf4jnsgd1na2vs0mg"},{"bike_id":"285d414b-5498-4b8a-b778-63fd8a0d6243","system_id":"levelo_inurba_marseille","lat":43.217387,"lon":5.34609,"is_reserved":false,"is_disabled":false,"rental_uris":{"android":"levelo://app?vid=285d414b-5498-4b8a-b778-63fd8a0d6243","ios":"levelo://app?vid=285d414b-5498-4b8a-b778-63fd8a0d6243"},"vehicle_type_id":"4","last_reported":1746270471,"current_range_meters":8400,"station_id":"st_cvj6r9ubvosntc0bgbag","pricing_plan_id":"cebpf4jnsgd1na2vs0mg"},{"bike_id":"03f8f1a1-348f-43c1-810e-3f5bf3b4a5c6","system_id":"levelo_inurba_marseille","lat":43.24914,"lon":5.39382,"is_reserved":false,"is_disabled":false,"rental_uris":{"android":"levelo://app?vid=03f8f1a1-348f-43c1-810e-3f5bf3b4a5c6","ios":"levelo://app?vid=03f8f1a1-348f-43c1-810e-3f5bf3b4a5c6"},"vehicle_type_id":"4","last_reported":1746270471,"current_range_meters":8400,"station_id":"","pricing_plan_id":"cebpf4jnsgd1na2vs0mg"},{"bike_id":"9d0e8cba-6ad4-439b-a10f-4068cdfa0fc3","system_id":"levelo_inurba_marseille","lat":43.27073,"lon":5.42281,"is_reserved":false,"is_disabled":false,"rental_uris":{"android":"levelo://app?vid=9d0e8cba-6ad4-439b-a10f-4068cdfa0fc3","ios":"levelo://app?vid=9d0e8cba-6ad4-439b-a10f-4068cdfa0fc3"},"vehicle_type_id":"4","last_reported":1746270471,"current_range_meters":8800,"station_id":"ce4bhk92rcd13ifvqgb0","pricing_plan_id":"cebpf4jnsgd1na2vs0mg"},{"bike_id":"2ec6dd80-93b4-435e-89c9-9ef2c5604b75","system_id":"levelo_inurba_marseille","lat":43.24173,"lon":5.39691,"is_reserved":false,"is_disabled":false,"rental_uris":{"android":"levelo://app?vid=2ec6dd80-93b4-435e-89c9-9ef2c5604b75","ios":"levelo://app?vid=2ec6dd80-93b4-435e-89c9-9ef2c5604b75"},"vehicle_type_id":"4","last_reported":1746270471,"current_range_meters":8800,"station_id":"ce4bhn12rcd13ifvqgpg","pricing_plan_id":"cebpf4jnsgd1na2vs0mg"},{"bike_id":"ceb7bbc0-0abe-4c68-8877-1b73485c0d71","system_id":"levelo_inurba_marseille","lat":43.27365,"lon":5.36255,"is_reserved":false,"is_disabled":false,"rental_uris":{"android":"levelo://app?vid=ceb7bbc0-0abe-4c68-8877-1b73485c0d71","ios":"levelo://app?vid=ceb7bbc0-0abe-4c68-8877-1b73485c0d71"},"vehicle_type_id":"4","last_reported":1746270471,"current_range_meters":8800,"station_id":"ce4bhbh2rcd13ifvqeo0","pricing_plan_id":"cebpf4jnsgd1na2vs0mg"},{"bike_id":"b60565ce-1120-4ba5-8262-db8b734ee853","system_id":"levelo_inurba_marseille","lat":43.2657,"lon":5.39012,"is_reserved":false,"is_disabled":false,"rental_uris":{"android":"levelo://app?vid=b60565ce-1120-4ba5-8262-db8b734ee853","ios":"levelo://app?vid=b60565ce-1120-4ba5-8262-db8b734ee853"},"vehicle_type_id":"4","last_reported":1746270471,"current_range_meters":8800,"station_id":"ce4bhe12rcd13ifvqf30","pricing_plan_id":"cebpf4jnsgd1na2vs0mg"},{"bike_id":"f9fd9159-a7a1-4329-b200-077f3a6e2e7b","system_id":"levelo_inurba_marseille","lat":43.23143,"lon":5.43706,"is_reserved":false,"is_disabled":false,"rental_uris":{"android":"levelo://app?vid=f9fd9159-a7a1-4329-b200-077f3a6e2e7b","ios":"levelo://app?vid=f9fd9159-a7a1-4329-b200-077f3a6e2e7b"},"vehicle_type_id":"4","last_reported":1746270471,"current_range_meters":9200,"station_id":"ce4bhmp2rcd13ifvqgog","pricing_plan_id":"cebpf4jnsgd1na2vs0mg"},{"bike_id":"1b63ea08-c96c-4032-80dc-a1351166a230","system_id":"levelo_inurba_marseille","lat":43.24183,"lon":5.39721,"is_reserved":false,"is_disabled":false,"rental_uris":{"android":"levelo://app?vid=1b63ea08-c96c-4032-80dc-a1351166a230","ios":"levelo://app?vid=1b63ea08-c96c-4032-80dc-a1351166a230"},"vehicle_type_id":"4","last_reported":1746270471,"current_range_meters":9200,"station_id":"ce4bhn12rcd13ifvqgpg","pricing_plan_id":"cebpf4jnsgd1na2vs0mg"},{"bike_id":"d8dc0d03-586a-40bd-a987-a3f239957e1b","system_id":"levelo_inurba_marseille","lat":43.29793,"lon":5.38105,"is_reserved":false,"is_disabled":false,"rental_uris":{"android":"levelo://app?vid=d8dc0d03-586a-40bd-a987-a3f239957e1b","ios":"levelo://app?vid=d8dc0d03-586a-40bd-a987-a3f239957e1b"},"vehicle_type_id":"4","last_reported":1746270471,"current_range_meters":8800,"station_id":"ce4bgip2rcd13ifvqbb0","pricing_plan_id":"cebpf4jnsgd1na2vs0mg"},{"bike_id":"e27ce41e-d31e-4411-a762-387f29d91877","system_id":"levelo_inurba_marseille","lat":43.29562,"lon":5.42269,"is_reserved":false,"is_disabled":false,"rental_uris":{"android":"levelo://app?vid=e27ce41e-d31e-4411-a762-387f29d91877","ios":"levelo://app?vid=e27ce41e-d31e-4411-a762-387f29d91877"},"vehicle_type_id":"4","last_reported":1746270471,"current_range_meters":9200,"station_id":"ce4bhph2rcd13ifvqhdg","pricing_plan_id":"cebpf4jnsgd1na2vs0mg"},{"bike_id":"e0e163c0-b70c-478b-a240-966060226969","system_id":"levelo_inurba_marseille","lat":43.292308,"lon":5.362024,"is_reserved":false,"is_disabled":false,"rental_uris":{"android":"levelo://app?vid=e0e163c0-b70c-478b-a240-966060226969","ios":"levelo://app?vid=e0e163c0-b70c-478b-a240-966060226969"},"vehicle_type_id":"4","last_reported":1746270471,"current_range_meters":9200,"station_id":"","pricing_plan_id":"cebpf4jnsgd1na2vs0mg"},{"bike_id":"a2b5f75b-8b31-4025-975c-0028449e52cd","system_id":"levelo_inurba_marseille","lat":43.24177,"lon":5.39725,"is_reserved":false,"is_disabled":false,"rental_uris":{"android":"levelo://app?vid=a2b5f75b-8b31-4025-975c-0028449e52cd","ios":"levelo://app?vid=a2b5f75b-8b31-4025-975c-0028449e52cd"},"vehicle_type_id":"4","last_reported":1746270471,"current_range_meters":9200,"station_id":"ce4bhn12rcd13ifvqgpg","pricing_plan_id":"cebpf4jnsgd1na2vs0mg"},{"bike_id":"2cce8745-f47d-491d-9776-93cf9f036027","system_id":"levelo_inurba_marseille","lat":43.308055,"lon":5.435377,"is_reserved":false,"is_disabled":false,"rental_uris":{"android":"levelo://app?vid=2cce8745-f47d-491d-9776-93cf9f036027","ios":"levelo://app?vid=2cce8745-f47d-491d-9776-93cf9f036027"},"vehicle_type_id":"4","last_reported":1746270471,"current_range_meters":9200,"station_id":"ce4bhph2rcd13ifvqheg","pricing_plan_id":"cebpf4jnsgd1na2vs0mg"},{"bike_id":"ff79280e-1855-4d0a-9416-0d33a2ce1c48","system_id":"levelo_inurba_marseille","lat":43.21521,"lon":5.34804,"is_reserved":false,"is_disabled":true,"rental_uris":{"android":"levelo://app?vid=ff79280e-1855-4d0a-9416-0d33a2ce1c48","ios":"levelo://app?vid=ff79280e-1855-4d0a-9416-0d33a2ce1c48"},"vehicle_type_id":"4","last_reported":1746270471,"current_range_meters":9600,"station_id":"","pricing_plan_id":"cebpf4jnsgd1na2vs0mg"},{"bike_id":"d24e36e0-e0aa-458e-9dc1-1d3e91441d9d","system_id":"levelo_inurba_marseille","lat":43.29014,"lon":5.38634,"is_reserved":false,"is_disabled":true,"rental_uris":{"android":"levelo://app?vid=d24e36e0-e0aa-458e-9dc1-1d3e91441d9d","ios":"levelo://app?vid=d24e36e0-e0aa-458e-9dc1-1d3e91441d9d"},"vehicle_type_id":"4","last_reported":1746270471,"current_range_meters":9600,"station_id":"ce4bh4p2rcd13ifvqe0g","pricing_plan_id":"cebpf4jnsgd1na2vs0mg"},{"bike_id":"728b758e-cf5d-4669-a086-48b6b0c89d06","system_id":"levelo_inurba_marseille","lat":43.26567,"lon":5.39018,"is_reserved":false,"is_disabled":false,"rental_uris":{"android":"levelo://app?vid=728b758e-cf5d-4669-a086-48b6b0c89d06","ios":"levelo://app?vid=728b758e-cf5d-4669-a086-48b6b0c89d06"},"vehicle_type_id":"4","last_reported":1746270471,"current_range_meters":9600,"station_id":"ce4bhe12rcd13ifvqf30","pricing_plan_id":"cebpf4jnsgd1na2vs0mg"},{"bike_id":"6bcfafe9-e0dc-4830-a2ef-8fbcb15314a2","system_id":"levelo_inurba_marseille","lat":43.29562,"lon":5.42317,"is_reserved":false,"is_disabled":false,"rental_uris":{"android":"levelo://app?vid=6bcfafe9-e0dc-4830-a2ef-8fbcb15314a2","ios":"levelo://app?vid=6bcfafe9-e0dc-4830-a2ef-8fbcb15314a2"},"vehicle_type_id":"4","last_reported":1746270471,"current_range_meters":9600,"station_id":"ce4bhph2rcd13ifvqhdg","pricing_plan_id":"cebpf4jnsgd1na2vs0mg"},{"bike_id":"73406005-d57e-4305-8a5e-dc5331917f0d","system_id":"levelo_inurba_marseille","lat":43.23964,"lon":5.3663,"is_reserved":false,"is_disabled":false,"rental_uris":{"android":"levelo://app?vid=73406005-d57e-4305-8a5e-dc5331917f0d","ios":"levelo://app?vid=73406005-d57e-4305-8a5e-dc5331917f0d"},"vehicle_type_id":"4","last_reported":1746270471,"current_range_meters":9600,"station_id":"ce4bhi12rcd13ifvqfp0","pricing_plan_id":"cebpf4jnsgd1na2vs0mg"},{"bike_id":"570b486c-50df-4f1f-97df-caa86c0d419e","system_id":"levelo_inurba_marseille","lat":43.33729,"lon":5.35581,"is_reserved":false,"is_disabled":false,"rental_uris":{"android":"levelo://app?vid=570b486c-50df-4f1f-97df-caa86c0d419e","ios":"levelo://app?vid=570b486c-50df-4f1f-97df-caa86c0d419e"},"vehicle_type_id":"4","last_reported":1746270471,"current_range_meters":9600,"station_id":"","pricing_plan_id":"cebpf4jnsgd1na2vs0mg"},{"bike_id":"cea18846-76d1-4529-8fe1-9c923f38a8ed","system_id":"levelo_inurba_marseille","lat":43.30585,"lon":5.37217,"is_reserved":false,"is_disabled":false,"rental_uris":{"android":"levelo://app?vid=cea18846-76d1-4529-8fe1-9c923f38a8ed","ios":"levelo://app?vid=cea18846-76d1-4529-8fe1-9c923f38a8ed"},"vehicle_type_id":"4","last_reported":1746270471,"current_range_meters":10000,"station_id":"ce4bgqh2rcd13ifvqc4g","pricing_plan_id":"cebpf4jnsgd1na2vs0mg"},{"bike_id":"08b73b9d-a4dd-4814-82a9-2a6145b77e13","system_id":"levelo_inurba_marseille","lat":43.29282,"lon":5.37452,"is_reserved":false,"is_disabled":false,"rental_uris":{"android":"levelo://app?vid=08b73b9d-a4dd-4814-82a9-2a6145b77e13","ios":"levelo://app?vid=08b73b9d-a4dd-4814-82a9-2a6145b77e13"},"vehicle_type_id":"4","last_reported":1746270471,"current_range_meters":10000,"station_id":"ce4bgi12rcd13ifvqb70","pricing_plan_id":"cebpf4jnsgd1na2vs0mg"},{"bike_id":"371b7534-0d9b-4ab0-8f09-4f4cf8973b82","system_id":"levelo_inurba_marseille","lat":43.25119,"lon":5.40325,"is_reserved":false,"is_disabled":false,"rental_uris":{"android":"levelo://app?vid=371b7534-0d9b-4ab0-8f09-4f4cf8973b82","ios":"levelo://app?vid=371b7534-0d9b-4ab0-8f09-4f4cf8973b82"},"vehicle_type_id":"4","last_reported":1746270471,"current_range_meters":10000,"station_id":"ce4bhlh2rcd13ifvqgig","pricing_plan_id":"cebpf4jnsgd1na2vs0mg"},{"bike_id":"aab36647-a4f7-4b1c-ae21-454fbe0244f2","system_id":"levelo_inurba_marseille","lat":43.32111,"lon":5.36773,"is_reserved":false,"is_disabled":false,"rental_uris":{"android":"levelo://app?vid=aab36647-a4f7-4b1c-ae21-454fbe0244f2","ios":"levelo://app?vid=aab36647-a4f7-4b1c-ae21-454fbe0244f2"},"vehicle_type_id":"4","last_reported":1746270471,"current_range_meters":10800,"station_id":"ce4bhrh2rcd13ifvqhug","pricing_plan_id":"cebpf4jnsgd1na2vs0mg"},{"bike_id":"dfb3396e-96f5-457c-af11-f6f27dad33e9","system_id":"levelo_inurba_marseille","lat":43.27201,"lon":5.36481,"is_reserved":false,"is_disabled":false,"rental_uris":{"android":"levelo://app?vid=dfb3396e-96f5-457c-af11-f6f27dad33e9","ios":"levelo://app?vid=dfb3396e-96f5-457c-af11-f6f27dad33e9"},"vehicle_type_id":"4","last_reported":1746270471,"current_range_meters":10800,"station_id":"","pricing_plan_id":"cebpf4jnsgd1na2vs0mg"},{"bike_id":"ee66f406-485f-435c-be5a-68104cebe1df","system_id":"levelo_inurba_marseille","lat":43.33717,"lon":5.39185,"is_reserved":false,"is_disabled":false,"rental_uris":{"android":"levelo://app?vid=ee66f406-485f-435c-be5a-68104cebe1df","ios":"levelo://app?vid=ee66f406-485f-435c-be5a-68104cebe1df"},"vehicle_type_id":"4","last_reported":1746270471,"current_range_meters":10800,"station_id":"ce4bhr92rcd13ifvqhsg","pricing_plan_id":"cebpf4jnsgd1na2vs0mg"},{"bike_id":"f1ffd2b9-91e9-4bf5-a319-6e95940b0de6","system_id":"levelo_inurba_marseille","lat":43.2957,"lon":5.42282,"is_reserved":false,"is_disabled":false,"rental_uris":{"android":"levelo://app?vid=f1ffd2b9-91e9-4bf5-a319-6e95940b0de6","ios":"levelo://app?vid=f1ffd2b9-91e9-4bf5-a319-6e95940b0de6"},"vehicle_type_id":"4","last_reported":1746270471,"current_range_meters":10800,"station_id":"ce4bhph2rcd13ifvqhdg","pricing_plan_id":"cebpf4jnsgd1na2vs0mg"},{"bike_id":"c965590f-92eb-483b-aea2-496a59709ace","system_id":"levelo_inurba_marseille","lat":43.30538,"lon":5.36524,"is_reserved":false,"is_disabled":false,"rental_uris":{"android":"levelo://app?vid=c965590f-92eb-483b-aea2-496a59709ace","ios":"levelo://app?vid=c965590f-92eb-483b-aea2-496a59709ace"},"vehicle_type_id":"4","last_reported":1746270471,"current_range_meters":10800,"station_id":"ce4bgs12rcd13ifvqcag","pricing_plan_id":"cebpf4jnsgd1na2vs0mg"},{"bike_id":"a978adc6-201e-4b96-b42f-9c074698e1bc","system_id":"levelo_inurba_marseille","lat":43.23959,"lon":5.36618,"is_reserved":false,"is_disabled":false,"rental_uris":{"android":"levelo://app?vid=a978adc6-201e-4b96-b42f-9c074698e1bc","ios":"levelo://app?vid=a978adc6-201e-4b96-b42f-9c074698e1bc"},"vehicle_type_id":"4","last_reported":1746270471,"current_range_meters":10800,"station_id":"ce4bhi12rcd13ifvqfp0","pricing_plan_id":"cebpf4jnsgd1na2vs0mg"},{"bike_id":"2e6965d3-9b5d-4ec1-a3a3-003adfe5560b","system_id":"levelo_inurba_marseille","lat":43.25934,"lon":5.40911,"is_reserved":false,"is_disabled":false,"rental_uris":{"android":"levelo://app?vid=2e6965d3-9b5d-4ec1-a3a3-003adfe5560b","ios":"levelo://app?vid=2e6965d3-9b5d-4ec1-a3a3-003adfe5560b"},"vehicle_type_id":"4","last_reported":1746270471,"current_range_meters":11200,"station_id":"ce4bhm92rcd13ifvqglg","pricing_plan_id":"cebpf4jnsgd1na2vs0mg"},{"bike_id":"6c50acc5-38af-4377-a0bd-5f6b542bdcf9","system_id":"levelo_inurba_marseille","lat":43.29964,"lon":5.38503,"is_reserved":false,"is_disabled":false,"rental_uris":{"android":"levelo://app?vid=6c50acc5-38af-4377-a0bd-5f6b542bdcf9","ios":"levelo://app?vid=6c50acc5-38af-4377-a0bd-5f6b542bdcf9"},"vehicle_type_id":"4","last_reported":1746270471,"current_range_meters":11200,"station_id":"ce4bgj92rcd13ifvqbd0","pricing_plan_id":"cebpf4jnsgd1na2vs0mg"},{"bike_id":"0c3fbeaa-55ff-4c7c-a66c-46f4ecc86aeb","system_id":"levelo_inurba_marseille","lat":43.21528,"lon":5.34725,"is_reserved":false,"is_disabled":true,"rental_uris":{"android":"levelo://app?vid=0c3fbeaa-55ff-4c7c-a66c-46f4ecc86aeb","ios":"levelo://app?vid=0c3fbeaa-55ff-4c7c-a66c-46f4ecc86aeb"},"vehicle_type_id":"4","last_reported":1746270471,"current_range_meters":11600,"station_id":"","pricing_plan_id":"cebpf4jnsgd1na2vs0mg"},{"bike_id":"fd2c3c67-23a6-4380-b7ca-8f23c8f78921","system_id":"levelo_inurba_marseille","lat":43.323551,"lon":5.367472,"is_reserved":false,"is_disabled":false,"rental_uris":{"android":"levelo://app?vid=fd2c3c67-23a6-4380-b7ca-8f23c8f78921","ios":"levelo://app?vid=fd2c3c67-23a6-4380-b7ca-8f23c8f78921"},"vehicle_type_id":"4","last_reported":1746270471,"current_range_meters":11200,"station_id":"ce4bhsh2rcd13ifvqi2g","pricing_plan_id":"cebpf4jnsgd1na2vs0mg"},{"bike_id":"8ef18906-eaa9-4922-9f0b-161c6ec4f97c","system_id":"levelo_inurba_marseille","lat":43.27202,"lon":5.39187,"is_reserved":false,"is_disabled":false,"rental_uris":{"android":"levelo://app?vid=8ef18906-eaa9-4922-9f0b-161c6ec4f97c","ios":"levelo://app?vid=8ef18906-eaa9-4922-9f0b-161c6ec4f97c"},"vehicle_type_id":"4","last_reported":1746270471,"current_range_meters":11600,"station_id":"ce4bhhp2rcd13ifvqfm0","pricing_plan_id":"cebpf4jnsgd1na2vs0mg"},{"bike_id":"2b186ea1-6ce3-49e1-83e5-ddd5d8a23278","system_id":"levelo_inurba_marseille","lat":43.26215,"lon":5.3744,"is_reserved":false,"is_disabled":false,"rental_uris":{"android":"levelo://app?vid=2b186ea1-6ce3-49e1-83e5-ddd5d8a23278","ios":"levelo://app?vid=2b186ea1-6ce3-49e1-83e5-ddd5d8a23278"},"vehicle_type_id":"4","last_reported":1746270471,"current_range_meters":11600,"station_id":"ce4bhgp2rcd13ifvqfc0","pricing_plan_id":"cebpf4jnsgd1na2vs0mg"},{"bike_id":"f824525b-c722-4992-9b83-c8ffce11f1a2","system_id":"levelo_inurba_marseille","lat":43.30538,"lon":5.36515,"is_reserved":false,"is_disabled":false,"rental_uris":{"android":"levelo://app?vid=f824525b-c722-4992-9b83-c8ffce11f1a2","ios":"levelo://app?vid=f824525b-c722-4992-9b83-c8ffce11f1a2"},"vehicle_type_id":"4","last_reported":1746270471,"current_range_meters":12000,"station_id":"ce4bgs12rcd13ifvqcag","pricing_plan_id":"cebpf4jnsgd1na2vs0mg"},{"bike_id":"47b96c63-b615-4346-9696-11b5e346196b","system_id":"levelo_inurba_marseille","lat":43.29846,"lon":5.36276,"is_reserved":false,"is_disabled":false,"rental_uris":{"android":"levelo://app?vid=47b96c63-b615-4346-9696-11b5e346196b","ios":"levelo://app?vid=47b96c63-b615-4346-9696-11b5e346196b"},"vehicle_type_id":"4","last_reported":1746270471,"current_range_meters":12000,"station_id":"ce4bgpp2rcd13ifvqc3g","pricing_plan_id":"cebpf4jnsgd1na2vs0mg"},{"bike_id":"dfb114fd-1585-4655-8386-c140132901c4","system_id":"levelo_inurba_marseille","lat":43.23149,"lon":5.43719,"is_reserved":false,"is_disabled":false,"rental_uris":{"android":"levelo://app?vid=dfb114fd-1585-4655-8386-c140132901c4","ios":"levelo://app?vid=dfb114fd-1585-4655-8386-c140132901c4"},"vehicle_type_id":"4","last_reported":1746270471,"current_range_meters":12000,"station_id":"ce4bhmp2rcd13ifvqgog","pricing_plan_id":"cebpf4jnsgd1na2vs0mg"},{"bike_id":"3a96c710-1899-4809-bccf-cd7bd7dbb784","system_id":"levelo_inurba_marseille","lat":43.30531,"lon":5.36527,"is_reserved":false,"is_disabled":false,"rental_uris":{"android":"levelo://app?vid=3a96c710-1899-4809-bccf-cd7bd7dbb784","ios":"levelo://app?vid=3a96c710-1899-4809-bccf-cd7bd7dbb784"},"vehicle_type_id":"4","last_reported":1746270471,"current_range_meters":12400,"station_id":"ce4bgs12rcd13ifvqcag","pricing_plan_id":"cebpf4jnsgd1na2vs0mg"},{"bike_id":"0105c1ac-8124-4626-a137-07d3d89f7130","system_id":"levelo_inurba_marseille","lat":43.31478,"lon":5.37303,"is_reserved":false,"is_disabled":false,"rental_uris":{"android":"levelo://app?vid=0105c1ac-8124-4626-a137-07d3d89f7130","ios":"levelo://app?vid=0105c1ac-8124-4626-a137-07d3d89f7130"},"vehicle_type_id":"4","last_reported":1746270471,"current_range_meters":12400,"station_id":"ce4bgt12rcd13ifvqcd0","pricing_plan_id":"cebpf4jnsgd1na2vs0mg"},{"bike_id":"2dff36ce-8ef8-40d7-b8fc-6b12bf7b1199","system_id":"levelo_inurba_marseille","lat":43.28462,"lon":5.3588,"is_reserved":false,"is_disabled":false,"rental_uris":{"android":"levelo://app?vid=2dff36ce-8ef8-40d7-b8fc-6b12bf7b1199","ios":"levelo://app?vid=2dff36ce-8ef8-40d7-b8fc-6b12bf7b1199"},"vehicle_type_id":"4","last_reported":1746270471,"current_range_meters":12000,"station_id":"ce4bhah2rcd13ifvqei0","pricing_plan_id":"cebpf4jnsgd1na2vs0mg"},{"bike_id":"908a85ca-6588-40e9-a684-d255f01f3718","system_id":"levelo_inurba_marseille","lat":43.27916,"lon":5.39581,"is_reserved":false,"is_disabled":false,"rental_uris":{"android":"levelo://app?vid=908a85ca-6588-40e9-a684-d255f01f3718","ios":"levelo://app?vid=908a85ca-6588-40e9-a684-d255f01f3718"},"vehicle_type_id":"4","last_reported":1746270471,"current_range_meters":12400,"station_id":"ce4bhf92rcd13ifvqf40","pricing_plan_id":"cebpf4jnsgd1na2vs0mg"},{"bike_id":"85187e10-41c3-4790-955b-71e74ac5508b","system_id":"levelo_inurba_marseille","lat":43.29896,"lon":5.36476,"is_reserved":false,"is_disabled":false,"rental_uris":{"android":"levelo://app?vid=85187e10-41c3-4790-955b-71e74ac5508b","ios":"levelo://app?vid=85187e10-41c3-4790-955b-71e74ac5508b"},"vehicle_type_id":"4","last_reported":1746270471,"current_range_meters":12800,"station_id":"ce4bgm92rcd13ifvqbr0","pricing_plan_id":"cebpf4jnsgd1na2vs0mg"},{"bike_id":"4ae02176-31a4-48f7-825f-a587fefa23c2","system_id":"levelo_inurba_marseille","lat":43.30185,"lon":5.36636,"is_reserved":false,"is_disabled":false,"rental_uris":{"android":"levelo://app?vid=4ae02176-31a4-48f7-825f-a587fefa23c2","ios":"levelo://app?vid=4ae02176-31a4-48f7-825f-a587fefa23c2"},"vehicle_type_id":"4","last_reported":1746270471,"current_range_meters":12800,"station_id":"ce4bgrh2rcd13ifvqc8g","pricing_plan_id":"cebpf4jnsgd1na2vs0mg"},{"bike_id":"f449d791-04d0-4882-bab6-8f986e1b1686","system_id":"levelo_inurba_marseille","lat":43.281503,"lon":5.42639,"is_reserved":false,"is_disabled":false,"rental_uris":{"android":"levelo://app?vid=f449d791-04d0-4882-bab6-8f986e1b1686","ios":"levelo://app?vid=f449d791-04d0-4882-bab6-8f986e1b1686"},"vehicle_type_id":"4","last_reported":1746270471,"current_range_meters":12800,"station_id":"ce4bhnh2rcd13ifvqgug","pricing_plan_id":"cebpf4jnsgd1na2vs0mg"},{"bike_id":"ab97dee3-8a3e-44cb-8a67-61f854bbc747","system_id":"levelo_inurba_marseille","lat":43.26055,"lon":5.39393,"is_reserved":false,"is_disabled":false,"rental_uris":{"android":"levelo://app?vid=ab97dee3-8a3e-44cb-8a67-61f854bbc747","ios":"levelo://app?vid=ab97dee3-8a3e-44cb-8a67-61f854bbc747"},"vehicle_type_id":"4","last_reported":1746270471,"current_range_meters":12800,"station_id":"ce4bhh92rcd13ifvqfj0","pricing_plan_id":"cebpf4jnsgd1na2vs0mg"},{"bike_id":"4e09e292-e6c7-42bb-88fc-3c50ce806e95","system_id":"levelo_inurba_marseille","lat":43.29444,"lon":5.39754,"is_reserved":false,"is_disabled":false,"rental_uris":{"android":"levelo://app?vid=4e09e292-e6c7-42bb-88fc-3c50ce806e95","ios":"levelo://app?vid=4e09e292-e6c7-42bb-88fc-3c50ce806e95"},"vehicle_type_id":"4","last_reported":1746270471,"current_range_meters":12800,"station_id":"ce4bh3h2rcd13ifvqdo0","pricing_plan_id":"cebpf4jnsgd1na2vs0mg"},{"bike_id":"d42b949e-9912-4c22-8cbf-cb30ed002080","system_id":"levelo_inurba_marseille","lat":43.286987,"lon":5.399866,"is_reserved":false,"is_disabled":false,"rental_uris":{"android":"levelo://app?vid=d42b949e-9912-4c22-8cbf-cb30ed002080","ios":"levelo://app?vid=d42b949e-9912-4c22-8cbf-cb30ed002080"},"vehicle_type_id":"4","last_reported":1746270471,"current_range_meters":12800,"station_id":"ce4bho92rcd13ifvqh3g","pricing_plan_id":"cebpf4jnsgd1na2vs0mg"},{"bike_id":"2ea79a3a-d95c-4feb-a49e-6a504206ce80","system_id":"levelo_inurba_marseille","lat":43.23154,"lon":5.4371,"is_reserved":false,"is_disabled":false,"rental_uris":{"android":"levelo://app?vid=2ea79a3a-d95c-4feb-a49e-6a504206ce80","ios":"levelo://app?vid=2ea79a3a-d95c-4feb-a49e-6a504206ce80"},"vehicle_type_id":"4","last_reported":1746270471,"current_range_meters":12800,"station_id":"ce4bhmp2rcd13ifvqgog","pricing_plan_id":"cebpf4jnsgd1na2vs0mg"},{"bike_id":"30c20785-50bb-4c43-a21f-cdba86f34be5","system_id":"levelo_inurba_marseille","lat":43.28418,"lon":5.34991,"is_reserved":false,"is_disabled":false,"rental_uris":{"android":"levelo://app?vid=30c20785-50bb-4c43-a21f-cdba86f34be5","ios":"levelo://app?vid=30c20785-50bb-4c43-a21f-cdba86f34be5"},"vehicle_type_id":"4","last_reported":1746270471,"current_range_meters":12800,"station_id":"ce4bhbh2rcd13ifvqepg","pricing_plan_id":"cebpf4jnsgd1na2vs0mg"},{"bike_id":"f1f1d9f2-438d-43aa-9146-c19d4a9cbea5","system_id":"levelo_inurba_marseille","lat":43.30538,"lon":5.36518,"is_reserved":false,"is_disabled":false,"rental_uris":{"android":"levelo://app?vid=f1f1d9f2-438d-43aa-9146-c19d4a9cbea5","ios":"levelo://app?vid=f1f1d9f2-438d-43aa-9146-c19d4a9cbea5"},"vehicle_type_id":"4","last_reported":1746270471,"current_range_meters":13600,"station_id":"ce4bgs12rcd13ifvqcag","pricing_plan_id":"cebpf4jnsgd1na2vs0mg"},{"bike_id":"0c9d6c7c-fd78-4aeb-a3f8-af2c188466be","system_id":"levelo_inurba_marseille","lat":43.299133,"lon":5.381005,"is_reserved":false,"is_disabled":false,"rental_uris":{"android":"levelo://app?vid=0c9d6c7c-fd78-4aeb-a3f8-af2c188466be","ios":"levelo://app?vid=0c9d6c7c-fd78-4aeb-a3f8-af2c188466be"},"vehicle_type_id":"4","last_reported":1746270471,"current_range_meters":13600,"station_id":"","pricing_plan_id":"cebpf4jnsgd1na2vs0mg"},{"bike_id":"e80a8e18-d51a-47e5-8ece-9c6b1f0dc7dd","system_id":"levelo_inurba_marseille","lat":43.317574,"lon":5.390131,"is_reserved":false,"is_disabled":false,"rental_uris":{"android":"levelo://app?vid=e80a8e18-d51a-47e5-8ece-9c6b1f0dc7dd","ios":"levelo://app?vid=e80a8e18-d51a-47e5-8ece-9c6b1f0dc7dd"},"vehicle_type_id":"4","last_reported":1746270471,"current_range_meters":13600,"station_id":"","pricing_plan_id":"cebpf4jnsgd1na2vs0mg"},{"bike_id":"45b83be7-8f29-4ece-b9ac-a66be5e49fd8","system_id":"levelo_inurba_marseille","lat":43.23965,"lon":5.3663,"is_reserved":false,"is_disabled":false,"rental_uris":{"android":"levelo://app?vid=45b83be7-8f29-4ece-b9ac-a66be5e49fd8","ios":"levelo://app?vid=45b83be7-8f29-4ece-b9ac-a66be5e49fd8"},"vehicle_type_id":"4","last_reported":1746270471,"current_range_meters":14000,"station_id":"ce4bhi12rcd13ifvqfp0","pricing_plan_id":"cebpf4jnsgd1na2vs0mg"},{"bike_id":"b38a90a4-e765-4eb3-a0f5-f7673b3c10b1","system_id":"levelo_inurba_marseille","lat":43.21191,"lon":5.35064,"is_reserved":false,"is_disabled":false,"rental_uris":{"android":"levelo://app?vid=b38a90a4-e765-4eb3-a0f5-f7673b3c10b1","ios":"levelo://app?vid=b38a90a4-e765-4eb3-a0f5-f7673b3c10b1"},"vehicle_type_id":"4","last_reported":1746270471,"current_range_meters":14000,"station_id":"st_cvj6sg6p6f1abm77japg","pricing_plan_id":"cebpf4jnsgd1na2vs0mg"},{"bike_id":"daf55928-af96-4765-a826-329612f3db5d","system_id":"levelo_inurba_marseille","lat":43.30424,"lon":5.39746,"is_reserved":false,"is_disabled":false,"rental_uris":{"android":"levelo://app?vid=daf55928-af96-4765-a826-329612f3db5d","ios":"levelo://app?vid=daf55928-af96-4765-a826-329612f3db5d"},"vehicle_type_id":"4","last_reported":1746270471,"current_range_meters":14000,"station_id":"ce4bh092rcd13ifvqd20","pricing_plan_id":"cebpf4jnsgd1na2vs0mg"},{"bike_id":"506bc80a-87a5-49cd-9a66-3523c1d24450","system_id":"levelo_inurba_marseille","lat":43.29295,"lon":5.37449,"is_reserved":false,"is_disabled":false,"rental_uris":{"android":"levelo://app?vid=506bc80a-87a5-49cd-9a66-3523c1d24450","ios":"levelo://app?vid=506bc80a-87a5-49cd-9a66-3523c1d24450"},"vehicle_type_id":"4","last_reported":1746270471,"current_range_meters":13600,"station_id":"ce4bgi12rcd13ifvqb70","pricing_plan_id":"cebpf4jnsgd1na2vs0mg"},{"bike_id":"503185c3-0d76-4716-9a21-96143ff68830","system_id":"levelo_inurba_marseille","lat":43.21199,"lon":5.35054,"is_reserved":false,"is_disabled":false,"rental_uris":{"android":"levelo://app?vid=503185c3-0d76-4716-9a21-96143ff68830","ios":"levelo://app?vid=503185c3-0d76-4716-9a21-96143ff68830"},"vehicle_type_id":"4","last_reported":1746270471,"current_range_meters":14000,"station_id":"st_cvj6sg6p6f1abm77japg","pricing_plan_id":"cebpf4jnsgd1na2vs0mg"},{"bike_id":"f0d4adc3-6c85-4e99-9ae7-a0c78bd31699","system_id":"levelo_inurba_marseille","lat":43.211892,"lon":5.350664,"is_reserved":false,"is_disabled":false,"rental_uris":{"android":"levelo://app?vid=f0d4adc3-6c85-4e99-9ae7-a0c78bd31699","ios":"levelo://app?vid=f0d4adc3-6c85-4e99-9ae7-a0c78bd31699"},"vehicle_type_id":"4","last_reported":1746270471,"current_range_meters":14400,"station_id":"st_cvj6sg6p6f1abm77japg","pricing_plan_id":"cebpf4jnsgd1na2vs0mg"},{"bike_id":"fb80c1da-d845-467b-9c3b-2f591f4d56ae","system_id":"levelo_inurba_marseille","lat":43.323406,"lon":5.37422,"is_reserved":false,"is_disabled":false,"rental_uris":{"android":"levelo://app?vid=fb80c1da-d845-467b-9c3b-2f591f4d56ae","ios":"levelo://app?vid=fb80c1da-d845-467b-9c3b-2f591f4d56ae"},"vehicle_type_id":"4","last_reported":1746270471,"current_range_meters":14800,"station_id":"","pricing_plan_id":"cebpf4jnsgd1na2vs0mg"},{"bike_id":"aedf206f-89f3-4f30-9da6-56fb7ff8915b","system_id":"levelo_inurba_marseille","lat":43.28095,"lon":5.40383,"is_reserved":false,"is_disabled":false,"rental_uris":{"android":"levelo://app?vid=aedf206f-89f3-4f30-9da6-56fb7ff8915b","ios":"levelo://app?vid=aedf206f-89f3-4f30-9da6-56fb7ff8915b"},"vehicle_type_id":"4","last_reported":1746270471,"current_range_meters":14800,"station_id":"","pricing_plan_id":"cebpf4jnsgd1na2vs0mg"},{"bike_id":"cd7c7093-f1ed-4d5e-80d3-26ee8770158f","system_id":"levelo_inurba_marseille","lat":43.29932,"lon":5.36543,"is_reserved":false,"is_disabled":false,"rental_uris":{"android":"levelo://app?vid=cd7c7093-f1ed-4d5e-80d3-26ee8770158f","ios":"levelo://app?vid=cd7c7093-f1ed-4d5e-80d3-26ee8770158f"},"vehicle_type_id":"4","last_reported":1746270471,"current_range_meters":14800,"station_id":"ce4bgm92rcd13ifvqbr0","pricing_plan_id":"cebpf4jnsgd1na2vs0mg"},{"bike_id":"5b826206-4d35-483e-9723-70ff57ab60c5","system_id":"levelo_inurba_marseille","lat":43.21753,"lon":5.34605,"is_reserved":false,"is_disabled":false,"rental_uris":{"android":"levelo://app?vid=5b826206-4d35-483e-9723-70ff57ab60c5","ios":"levelo://app?vid=5b826206-4d35-483e-9723-70ff57ab60c5"},"vehicle_type_id":"4","last_reported":1746270471,"current_range_meters":14800,"station_id":"st_cvj6r9ubvosntc0bgbag","pricing_plan_id":"cebpf4jnsgd1na2vs0mg"},{"bike_id":"dfa9c123-0503-4df7-9f45-126883c9fa94","system_id":"levelo_inurba_marseille","lat":43.23155,"lon":5.43709,"is_reserved":false,"is_disabled":false,"rental_uris":{"android":"levelo://app?vid=dfa9c123-0503-4df7-9f45-126883c9fa94","ios":"levelo://app?vid=dfa9c123-0503-4df7-9f45-126883c9fa94"},"vehicle_type_id":"4","last_reported":1746270471,"current_range_meters":14800,"station_id":"ce4bhmp2rcd13ifvqgog","pricing_plan_id":"cebpf4jnsgd1na2vs0mg"},{"bike_id":"3c3087fd-6b5e-45dc-af0f-359a2af444ab","system_id":"levelo_inurba_marseille","lat":43.29234,"lon":5.36041,"is_reserved":false,"is_disabled":false,"rental_uris":{"android":"levelo://app?vid=3c3087fd-6b5e-45dc-af0f-359a2af444ab","ios":"levelo://app?vid=3c3087fd-6b5e-45dc-af0f-359a2af444ab"},"vehicle_type_id":"4","last_reported":1746270471,"current_range_meters":14800,"station_id":"ce4bhbh2rcd13ifvqeqg","pricing_plan_id":"cebpf4jnsgd1na2vs0mg"},{"bike_id":"a36c47eb-fbc2-4161-93ce-243dc09c4371","system_id":"levelo_inurba_marseille","lat":43.28078,"lon":5.39649,"is_reserved":false,"is_disabled":false,"rental_uris":{"android":"levelo://app?vid=a36c47eb-fbc2-4161-93ce-243dc09c4371","ios":"levelo://app?vid=a36c47eb-fbc2-4161-93ce-243dc09c4371"},"vehicle_type_id":"4","last_reported":1746270471,"current_range_meters":15200,"station_id":"ce4bho12rcd13ifvqh2g","pricing_plan_id":"cebpf4jnsgd1na2vs0mg"},{"bike_id":"d891a0b9-00e1-4ffd-8f1a-092d6d3e5cf0","system_id":"levelo_inurba_marseille","lat":43.31708,"lon":5.37744,"is_reserved":false,"is_disabled":false,"rental_uris":{"android":"levelo://app?vid=d891a0b9-00e1-4ffd-8f1a-092d6d3e5cf0","ios":"levelo://app?vid=d891a0b9-00e1-4ffd-8f1a-092d6d3e5cf0"},"vehicle_type_id":"4","last_reported":1746270471,"current_range_meters":15200,"station_id":"ce4bgth2rcd13ifvqch0","pricing_plan_id":"cebpf4jnsgd1na2vs0mg"},{"bike_id":"b27761a1-cad9-4159-8ac8-49d1c4cc91fa","system_id":"levelo_inurba_marseille","lat":43.30087,"lon":5.39071,"is_reserved":false,"is_disabled":false,"rental_uris":{"android":"levelo://app?vid=b27761a1-cad9-4159-8ac8-49d1c4cc91fa","ios":"levelo://app?vid=b27761a1-cad9-4159-8ac8-49d1c4cc91fa"},"vehicle_type_id":"4","last_reported":1746270471,"current_range_meters":16000,"station_id":"ce4bh192rcd13ifvqdb0","pricing_plan_id":"cebpf4jnsgd1na2vs0mg"},{"bike_id":"d8673bb9-f676-4c71-b29d-4b6324820c66","system_id":"levelo_inurba_marseille","lat":43.23966,"lon":5.36633,"is_reserved":false,"is_disabled":false,"rental_uris":{"android":"levelo://app?vid=d8673bb9-f676-4c71-b29d-4b6324820c66","ios":"levelo://app?vid=d8673bb9-f676-4c71-b29d-4b6324820c66"},"vehicle_type_id":"4","last_reported":1746270471,"current_range_meters":16000,"station_id":"ce4bhi12rcd13ifvqfp0","pricing_plan_id":"cebpf4jnsgd1na2vs0mg"},{"bike_id":"425e07f4-ad0b-4ff5-b3b5-5623d2d9a774","system_id":"levelo_inurba_marseille","lat":43.27377,"lon":5.36252,"is_reserved":false,"is_disabled":false,"rental_uris":{"android":"levelo://app?vid=425e07f4-ad0b-4ff5-b3b5-5623d2d9a774","ios":"levelo://app?vid=425e07f4-ad0b-4ff5-b3b5-5623d2d9a774"},"vehicle_type_id":"4","last_reported":1746270471,"current_range_meters":16000,"station_id":"ce4bhbh2rcd13ifvqeo0","pricing_plan_id":"cebpf4jnsgd1na2vs0mg"},{"bike_id":"f72e4edc-e658-4902-be5c-882b1f65b363","system_id":"levelo_inurba_marseille","lat":43.25935,"lon":5.40874,"is_reserved":false,"is_disabled":false,"rental_uris":{"android":"levelo://app?vid=f72e4edc-e658-4902-be5c-882b1f65b363","ios":"levelo://app?vid=f72e4edc-e658-4902-be5c-882b1f65b363"},"vehicle_type_id":"4","last_reported":1746270471,"current_range_meters":16000,"station_id":"ce4bhm92rcd13ifvqglg","pricing_plan_id":"cebpf4jnsgd1na2vs0mg"},{"bike_id":"31c54918-ec32-4234-94e4-ab9da1be312c","system_id":"levelo_inurba_marseille","lat":43.24167,"lon":5.36399,"is_reserved":false,"is_disabled":false,"rental_uris":{"android":"levelo://app?vid=31c54918-ec32-4234-94e4-ab9da1be312c","ios":"levelo://app?vid=31c54918-ec32-4234-94e4-ab9da1be312c"},"vehicle_type_id":"4","last_reported":1746270471,"current_range_meters":16000,"station_id":"cpo36qri1sfpv3e86is0","pricing_plan_id":"cebpf4jnsgd1na2vs0mg"},{"bike_id":"5ceddd5a-4d0a-41c9-8596-6e5fa3384360","system_id":"levelo_inurba_marseille","lat":43.2694,"lon":5.40255,"is_reserved":false,"is_disabled":false,"rental_uris":{"android":"levelo://app?vid=5ceddd5a-4d0a-41c9-8596-6e5fa3384360","ios":"levelo://app?vid=5ceddd5a-4d0a-41c9-8596-6e5fa3384360"},"vehicle_type_id":"4","last_reported":1746270471,"current_range_meters":16000,"station_id":"cjm6bp8fraef2m0cb0m0","pricing_plan_id":"cebpf4jnsgd1na2vs0mg"},{"bike_id":"1c79fe33-714d-4068-bed2-3fe68e5293b0","system_id":"levelo_inurba_marseille","lat":43.26058,"lon":5.39395,"is_reserved":false,"is_disabled":false,"rental_uris":{"android":"levelo://app?vid=1c79fe33-714d-4068-bed2-3fe68e5293b0","ios":"levelo://app?vid=1c79fe33-714d-4068-bed2-3fe68e5293b0"},"vehicle_type_id":"4","last_reported":1746270471,"current_range_meters":16400,"station_id":"ce4bhh92rcd13ifvqfj0","pricing_plan_id":"cebpf4jnsgd1na2vs0mg"},{"bike_id":"e0ceefc0-61c9-406f-91eb-ef69db9dbe42","system_id":"levelo_inurba_marseille","lat":43.2612,"lon":5.4147,"is_reserved":false,"is_disabled":false,"rental_uris":{"android":"levelo://app?vid=e0ceefc0-61c9-406f-91eb-ef69db9dbe42","ios":"levelo://app?vid=e0ceefc0-61c9-406f-91eb-ef69db9dbe42"},"vehicle_type_id":"4","last_reported":1746270471,"current_range_meters":16400,"station_id":"","pricing_plan_id":"cebpf4jnsgd1na2vs0mg"},{"bike_id":"3102f720-32db-4af0-b5ac-a58b39f8d3b2","system_id":"levelo_inurba_marseille","lat":43.24174,"lon":5.39723,"is_reserved":false,"is_disabled":false,"rental_uris":{"android":"levelo://app?vid=3102f720-32db-4af0-b5ac-a58b39f8d3b2","ios":"levelo://app?vid=3102f720-32db-4af0-b5ac-a58b39f8d3b2"},"vehicle_type_id":"4","last_reported":1746270471,"current_range_meters":16400,"station_id":"ce4bhn12rcd13ifvqgpg","pricing_plan_id":"cebpf4jnsgd1na2vs0mg"},{"bike_id":"b51e8583-0fb2-49ca-9c11-9dbce28dfa5d","system_id":"levelo_inurba_marseille","lat":43.231903,"lon":5.355462,"is_reserved":false,"is_disabled":false,"rental_uris":{"android":"levelo://app?vid=b51e8583-0fb2-49ca-9c11-9dbce28dfa5d","ios":"levelo://app?vid=b51e8583-0fb2-49ca-9c11-9dbce28dfa5d"},"vehicle_type_id":"4","last_reported":1746270471,"current_range_meters":16400,"station_id":"ce4bhu92rcd13ifvqi70","pricing_plan_id":"cebpf4jnsgd1na2vs0mg"},{"bike_id":"d03e8a16-c672-4604-9c39-53e5bab58c93","system_id":"levelo_inurba_marseille","lat":43.29292,"lon":5.37453,"is_reserved":false,"is_disabled":false,"rental_uris":{"android":"levelo://app?vid=d03e8a16-c672-4604-9c39-53e5bab58c93","ios":"levelo://app?vid=d03e8a16-c672-4604-9c39-53e5bab58c93"},"vehicle_type_id":"4","last_reported":1746270471,"current_range_meters":16400,"station_id":"ce4bgi12rcd13ifvqb70","pricing_plan_id":"cebpf4jnsgd1na2vs0mg"},{"bike_id":"0bb0a6cd-b8a5-41d3-88ec-e9648a03c7f5","system_id":"levelo_inurba_marseille","lat":43.25946,"lon":5.40872,"is_reserved":false,"is_disabled":true,"rental_uris":{"android":"levelo://app?vid=0bb0a6cd-b8a5-41d3-88ec-e9648a03c7f5","ios":"levelo://app?vid=0bb0a6cd-b8a5-41d3-88ec-e9648a03c7f5"},"vehicle_type_id":"4","last_reported":1746270471,"current_range_meters":16400,"station_id":"ce4bhm92rcd13ifvqglg","pricing_plan_id":"cebpf4jnsgd1na2vs0mg"},{"bike_id":"3f506505-a089-4076-bc43-08024cf6ce18","system_id":"levelo_inurba_marseille","lat":43.30873,"lon":5.37198,"is_reserved":false,"is_disabled":false,"rental_uris":{"android":"levelo://app?vid=3f506505-a089-4076-bc43-08024cf6ce18","ios":"levelo://app?vid=3f506505-a089-4076-bc43-08024cf6ce18"},"vehicle_type_id":"4","last_reported":1746270471,"current_range_meters":16400,"station_id":"ce4bguh2rcd13ifvqckg","pricing_plan_id":"cebpf4jnsgd1na2vs0mg"},{"bike_id":"17d9f1ae-82f0-4ecc-bf40-f85a5eddebb3","system_id":"levelo_inurba_marseille","lat":43.24164,"lon":5.39684,"is_reserved":false,"is_disabled":false,"rental_uris":{"android":"levelo://app?vid=17d9f1ae-82f0-4ecc-bf40-f85a5eddebb3","ios":"levelo://app?vid=17d9f1ae-82f0-4ecc-bf40-f85a5eddebb3"},"vehicle_type_id":"4","last_reported":1746270471,"current_range_meters":16400,"station_id":"ce4bhn12rcd13ifvqgpg","pricing_plan_id":"cebpf4jnsgd1na2vs0mg"},{"bike_id":"8e26048a-5209-4ff6-acd9-fc71d0b42678","system_id":"levelo_inurba_marseille","lat":43.28701,"lon":5.3738,"is_reserved":false,"is_disabled":false,"rental_uris":{"android":"levelo://app?vid=8e26048a-5209-4ff6-acd9-fc71d0b42678","ios":"levelo://app?vid=8e26048a-5209-4ff6-acd9-fc71d0b42678"},"vehicle_type_id":"4","last_reported":1746270471,"current_range_meters":16400,"station_id":"ce4bh3p2rcd13ifvqdq0","pricing_plan_id":"cebpf4jnsgd1na2vs0mg"},{"bike_id":"a8f57f2b-dc8a-40c9-9d19-a8c7c5f83310","system_id":"levelo_inurba_marseille","lat":43.26942,"lon":5.40311,"is_reserved":false,"is_disabled":true,"rental_uris":{"android":"levelo://app?vid=a8f57f2b-dc8a-40c9-9d19-a8c7c5f83310","ios":"levelo://app?vid=a8f57f2b-dc8a-40c9-9d19-a8c7c5f83310"},"vehicle_type_id":"4","last_reported":1746270471,"current_range_meters":16800,"station_id":"cjm6bp8fraef2m0cb0m0","pricing_plan_id":"cebpf4jnsgd1na2vs0mg"},{"bike_id":"f8bdc757-5f81-44e3-bfb3-5a83f9fde80e","system_id":"levelo_inurba_marseille","lat":43.28668,"lon":5.36356,"is_reserved":false,"is_disabled":false,"rental_uris":{"android":"levelo://app?vid=f8bdc757-5f81-44e3-bfb3-5a83f9fde80e","ios":"levelo://app?vid=f8bdc757-5f81-44e3-bfb3-5a83f9fde80e"},"vehicle_type_id":"4","last_reported":1746270471,"current_range_meters":16800,"station_id":"ce4bhah2rcd13ifvqej0","pricing_plan_id":"cebpf4jnsgd1na2vs0mg"},{"bike_id":"5c1d0475-5882-4926-9074-7bd5b6350241","system_id":"levelo_inurba_marseille","lat":43.308097,"lon":5.381577,"is_reserved":false,"is_disabled":false,"rental_uris":{"android":"levelo://app?vid=5c1d0475-5882-4926-9074-7bd5b6350241","ios":"levelo://app?vid=5c1d0475-5882-4926-9074-7bd5b6350241"},"vehicle_type_id":"4","last_reported":1746270471,"current_range_meters":16800,"station_id":"ce4bgt12rcd13ifvqce0","pricing_plan_id":"cebpf4jnsgd1na2vs0mg"},{"bike_id":"104b2cb5-add8-470f-afad-96cd258cbb74","system_id":"levelo_inurba_marseille","lat":43.29966,"lon":5.37166,"is_reserved":false,"is_disabled":false,"rental_uris":{"android":"levelo://app?vid=104b2cb5-add8-470f-afad-96cd258cbb74","ios":"levelo://app?vid=104b2cb5-add8-470f-afad-96cd258cbb74"},"vehicle_type_id":"4","last_reported":1746270471,"current_range_meters":16800,"station_id":"ce4bgr92rcd13ifvqc7g","pricing_plan_id":"cebpf4jnsgd1na2vs0mg"},{"bike_id":"4012b229-dcdd-4c53-a344-1288ed9f58b7","system_id":"levelo_inurba_marseille","lat":43.30954,"lon":5.39023,"is_reserved":false,"is_disabled":false,"rental_uris":{"android":"levelo://app?vid=4012b229-dcdd-4c53-a344-1288ed9f58b7","ios":"levelo://app?vid=4012b229-dcdd-4c53-a344-1288ed9f58b7"},"vehicle_type_id":"4","last_reported":1746270471,"current_range_meters":16800,"station_id":"ce4bgup2rcd13ifvqco0","pricing_plan_id":"cebpf4jnsgd1na2vs0mg"},{"bike_id":"0de47151-f32d-4b25-93bf-208248841b11","system_id":"levelo_inurba_marseille","lat":43.31718,"lon":5.37772,"is_reserved":false,"is_disabled":false,"rental_uris":{"android":"levelo://app?vid=0de47151-f32d-4b25-93bf-208248841b11","ios":"levelo://app?vid=0de47151-f32d-4b25-93bf-208248841b11"},"vehicle_type_id":"4","last_reported":1746270471,"current_range_meters":16800,"station_id":"ce4bgth2rcd13ifvqch0","pricing_plan_id":"cebpf4jnsgd1na2vs0mg"},{"bike_id":"3f5b4948-55dd-4c61-800b-d5df5f7e4e3a","system_id":"levelo_inurba_marseille","lat":43.21188,"lon":5.35066,"is_reserved":false,"is_disabled":false,"rental_uris":{"android":"levelo://app?vid=3f5b4948-55dd-4c61-800b-d5df5f7e4e3a","ios":"levelo://app?vid=3f5b4948-55dd-4c61-800b-d5df5f7e4e3a"},"vehicle_type_id":"4","last_reported":1746270471,"current_range_meters":16800,"station_id":"st_cvj6sg6p6f1abm77japg","pricing_plan_id":"cebpf4jnsgd1na2vs0mg"},{"bike_id":"cf875899-49e5-431a-b7ee-67df59518625","system_id":"levelo_inurba_marseille","lat":43.28613,"lon":5.35097,"is_reserved":false,"is_disabled":false,"rental_uris":{"android":"levelo://app?vid=cf875899-49e5-431a-b7ee-67df59518625","ios":"levelo://app?vid=cf875899-49e5-431a-b7ee-67df59518625"},"vehicle_type_id":"4","last_reported":1746270471,"current_range_meters":17200,"station_id":"ce4bhch2rcd13ifvqeug","pricing_plan_id":"cebpf4jnsgd1na2vs0mg"},{"bike_id":"006ae5eb-3276-4611-ac05-8f966cbc8957","system_id":"levelo_inurba_marseille","lat":43.29711,"lon":5.36615,"is_reserved":false,"is_disabled":false,"rental_uris":{"android":"levelo://app?vid=006ae5eb-3276-4611-ac05-8f966cbc8957","ios":"levelo://app?vid=006ae5eb-3276-4611-ac05-8f966cbc8957"},"vehicle_type_id":"4","last_reported":1746270471,"current_range_meters":17200,"station_id":"ce4bgn12rcd13ifvqbt0","pricing_plan_id":"cebpf4jnsgd1na2vs0mg"},{"bike_id":"894d4755-ad32-49d9-bd65-064115e457dd","system_id":"levelo_inurba_marseille","lat":43.317,"lon":5.37789,"is_reserved":false,"is_disabled":false,"rental_uris":{"android":"levelo://app?vid=894d4755-ad32-49d9-bd65-064115e457dd","ios":"levelo://app?vid=894d4755-ad32-49d9-bd65-064115e457dd"},"vehicle_type_id":"4","last_reported":1746270471,"current_range_meters":17200,"station_id":"ce4bgth2rcd13ifvqch0","pricing_plan_id":"cebpf4jnsgd1na2vs0mg"},{"bike_id":"0eb931ca-f32b-49cc-a233-bd37ccab7e0d","system_id":"levelo_inurba_marseille","lat":43.27057,"lon":5.40256,"is_reserved":false,"is_disabled":false,"rental_uris":{"android":"levelo://app?vid=0eb931ca-f32b-49cc-a233-bd37ccab7e0d","ios":"levelo://app?vid=0eb931ca-f32b-49cc-a233-bd37ccab7e0d"},"vehicle_type_id":"4","last_reported":1746270471,"current_range_meters":17200,"station_id":"ce4bhk92rcd13ifvqgc0","pricing_plan_id":"cebpf4jnsgd1na2vs0mg"},{"bike_id":"26f2c8d6-5359-41bb-b7eb-8edd1bf77299","system_id":"levelo_inurba_marseille","lat":43.23197,"lon":5.35555,"is_reserved":false,"is_disabled":false,"rental_uris":{"android":"levelo://app?vid=26f2c8d6-5359-41bb-b7eb-8edd1bf77299","ios":"levelo://app?vid=26f2c8d6-5359-41bb-b7eb-8edd1bf77299"},"vehicle_type_id":"4","last_reported":1746270471,"current_range_meters":17200,"station_id":"ce4bhu92rcd13ifvqi70","pricing_plan_id":"cebpf4jnsgd1na2vs0mg"},{"bike_id":"baec3a48-7832-428f-bfc2-0f9a06df3065","system_id":"levelo_inurba_marseille","lat":43.25941,"lon":5.40909,"is_reserved":false,"is_disabled":false,"rental_uris":{"android":"levelo://app?vid=baec3a48-7832-428f-bfc2-0f9a06df3065","ios":"levelo://app?vid=baec3a48-7832-428f-bfc2-0f9a06df3065"},"vehicle_type_id":"4","last_reported":1746270471,"current_range_meters":17200,"station_id":"ce4bhm92rcd13ifvqglg","pricing_plan_id":"cebpf4jnsgd1na2vs0mg"},{"bike_id":"fde15bc6-4236-46c7-9bf3-b8a8501e5e78","system_id":"levelo_inurba_marseille","lat":43.324728,"lon":5.365729,"is_reserved":false,"is_disabled":false,"rental_uris":{"android":"levelo://app?vid=fde15bc6-4236-46c7-9bf3-b8a8501e5e78","ios":"levelo://app?vid=fde15bc6-4236-46c7-9bf3-b8a8501e5e78"},"vehicle_type_id":"4","last_reported":1746270471,"current_range_meters":17200,"station_id":"ce4bhs12rcd13ifvqhvg","pricing_plan_id":"cebpf4jnsgd1na2vs0mg"},{"bike_id":"9f632b2f-c352-455c-ae84-9f00aef2f219","system_id":"levelo_inurba_marseille","lat":43.28157,"lon":5.42645,"is_reserved":false,"is_disabled":false,"rental_uris":{"android":"levelo://app?vid=9f632b2f-c352-455c-ae84-9f00aef2f219","ios":"levelo://app?vid=9f632b2f-c352-455c-ae84-9f00aef2f219"},"vehicle_type_id":"4","last_reported":1746270471,"current_range_meters":17200,"station_id":"ce4bhnh2rcd13ifvqgug","pricing_plan_id":"cebpf4jnsgd1na2vs0mg"},{"bike_id":"a3bc2359-39e4-4d03-aa5e-8ffa409341e2","system_id":"levelo_inurba_marseille","lat":43.298993,"lon":5.436507,"is_reserved":false,"is_disabled":false,"rental_uris":{"android":"levelo://app?vid=a3bc2359-39e4-4d03-aa5e-8ffa409341e2","ios":"levelo://app?vid=a3bc2359-39e4-4d03-aa5e-8ffa409341e2"},"vehicle_type_id":"4","last_reported":1746270471,"current_range_meters":17200,"station_id":"ce4bhpp2rcd13ifvqhfg","pricing_plan_id":"cebpf4jnsgd1na2vs0mg"},{"bike_id":"9fe1eaeb-780e-48cd-98bf-fa4661e6fb9d","system_id":"levelo_inurba_marseille","lat":43.24169,"lon":5.36393,"is_reserved":false,"is_disabled":false,"rental_uris":{"android":"levelo://app?vid=9fe1eaeb-780e-48cd-98bf-fa4661e6fb9d","ios":"levelo://app?vid=9fe1eaeb-780e-48cd-98bf-fa4661e6fb9d"},"vehicle_type_id":"4","last_reported":1746270471,"current_range_meters":17600,"station_id":"cpo36qri1sfpv3e86is0","pricing_plan_id":"cebpf4jnsgd1na2vs0mg"},{"bike_id":"a4342359-f282-49ee-a353-c883ead521bd","system_id":"levelo_inurba_marseille","lat":43.21195,"lon":5.35077,"is_reserved":false,"is_disabled":false,"rental_uris":{"android":"levelo://app?vid=a4342359-f282-49ee-a353-c883ead521bd","ios":"levelo://app?vid=a4342359-f282-49ee-a353-c883ead521bd"},"vehicle_type_id":"4","last_reported":1746270471,"current_range_meters":17600,"station_id":"st_cvj6sg6p6f1abm77japg","pricing_plan_id":"cebpf4jnsgd1na2vs0mg"},{"bike_id":"43580de2-2781-4103-8514-2bfafc9158a6","system_id":"levelo_inurba_marseille","lat":43.24177,"lon":5.36415,"is_reserved":false,"is_disabled":false,"rental_uris":{"android":"levelo://app?vid=43580de2-2781-4103-8514-2bfafc9158a6","ios":"levelo://app?vid=43580de2-2781-4103-8514-2bfafc9158a6"},"vehicle_type_id":"4","last_reported":1746270471,"current_range_meters":17600,"station_id":"cpo36qri1sfpv3e86is0","pricing_plan_id":"cebpf4jnsgd1na2vs0mg"},{"bike_id":"eaadb78f-0516-400e-a932-418372f4ca70","system_id":"levelo_inurba_marseille","lat":43.3043,"lon":5.41266,"is_reserved":false,"is_disabled":false,"rental_uris":{"android":"levelo://app?vid=eaadb78f-0516-400e-a932-418372f4ca70","ios":"levelo://app?vid=eaadb78f-0516-400e-a932-418372f4ca70"},"vehicle_type_id":"4","last_reported":1746270471,"current_range_meters":17600,"station_id":"ce4bhop2rcd13ifvqh8g","pricing_plan_id":"cebpf4jnsgd1na2vs0mg"},{"bike_id":"8c238964-d2cb-421c-ba73-f092971594af","system_id":"levelo_inurba_marseille","lat":43.30531,"lon":5.36536,"is_reserved":false,"is_disabled":false,"rental_uris":{"android":"levelo://app?vid=8c238964-d2cb-421c-ba73-f092971594af","ios":"levelo://app?vid=8c238964-d2cb-421c-ba73-f092971594af"},"vehicle_type_id":"4","last_reported":1746270471,"current_range_meters":17600,"station_id":"ce4bgs12rcd13ifvqcag","pricing_plan_id":"cebpf4jnsgd1na2vs0mg"},{"bike_id":"8ef8e415-3a8e-4e37-94d1-5c69550e4819","system_id":"levelo_inurba_marseille","lat":43.28612,"lon":5.35113,"is_reserved":false,"is_disabled":false,"rental_uris":{"android":"levelo://app?vid=8ef8e415-3a8e-4e37-94d1-5c69550e4819","ios":"levelo://app?vid=8ef8e415-3a8e-4e37-94d1-5c69550e4819"},"vehicle_type_id":"4","last_reported":1746270471,"current_range_meters":17600,"station_id":"ce4bhch2rcd13ifvqeug","pricing_plan_id":"cebpf4jnsgd1na2vs0mg"},{"bike_id":"2cd00fa1-aa9b-4b46-86ba-129fb9364ad2","system_id":"levelo_inurba_marseille","lat":43.23151,"lon":5.43704,"is_reserved":false,"is_disabled":false,"rental_uris":{"android":"levelo://app?vid=2cd00fa1-aa9b-4b46-86ba-129fb9364ad2","ios":"levelo://app?vid=2cd00fa1-aa9b-4b46-86ba-129fb9364ad2"},"vehicle_type_id":"4","last_reported":1746270471,"current_range_meters":18000,"station_id":"ce4bhmp2rcd13ifvqgog","pricing_plan_id":"cebpf4jnsgd1na2vs0mg"},{"bike_id":"7b9fcbf2-ce4c-4c69-b603-07fe25549912","system_id":"levelo_inurba_marseille","lat":43.26682,"lon":5.38268,"is_reserved":false,"is_disabled":false,"rental_uris":{"android":"levelo://app?vid=7b9fcbf2-ce4c-4c69-b603-07fe25549912","ios":"levelo://app?vid=7b9fcbf2-ce4c-4c69-b603-07fe25549912"},"vehicle_type_id":"4","last_reported":1746270471,"current_range_meters":18000,"station_id":"ce4bhg92rcd13ifvqf90","pricing_plan_id":"cebpf4jnsgd1na2vs0mg"},{"bike_id":"2dec947f-7644-4d44-9846-7f50d4450069","system_id":"levelo_inurba_marseille","lat":43.21193,"lon":5.35072,"is_reserved":false,"is_disabled":false,"rental_uris":{"android":"levelo://app?vid=2dec947f-7644-4d44-9846-7f50d4450069","ios":"levelo://app?vid=2dec947f-7644-4d44-9846-7f50d4450069"},"vehicle_type_id":"4","last_reported":1746270471,"current_range_meters":18000,"station_id":"st_cvj6sg6p6f1abm77japg","pricing_plan_id":"cebpf4jnsgd1na2vs0mg"},{"bike_id":"b6ecfc91-4481-4bb2-bd1b-a33023a24a1b","system_id":"levelo_inurba_marseille","lat":43.21185,"lon":5.35067,"is_reserved":false,"is_disabled":false,"rental_uris":{"android":"levelo://app?vid=b6ecfc91-4481-4bb2-bd1b-a33023a24a1b","ios":"levelo://app?vid=b6ecfc91-4481-4bb2-bd1b-a33023a24a1b"},"vehicle_type_id":"4","last_reported":1746270471,"current_range_meters":18000,"station_id":"st_cvj6sg6p6f1abm77japg","pricing_plan_id":"cebpf4jnsgd1na2vs0mg"},{"bike_id":"0593e85c-0e8a-453e-a62c-89007b25bf53","system_id":"levelo_inurba_marseille","lat":43.26201,"lon":5.37947,"is_reserved":false,"is_disabled":false,"rental_uris":{"android":"levelo://app?vid=0593e85c-0e8a-453e-a62c-89007b25bf53","ios":"levelo://app?vid=0593e85c-0e8a-453e-a62c-89007b25bf53"},"vehicle_type_id":"4","last_reported":1746270471,"current_range_meters":18000,"station_id":"ce4bhjp2rcd13ifvqg90","pricing_plan_id":"cebpf4jnsgd1na2vs0mg"},{"bike_id":"be58ce8b-41be-4406-96e6-d94ff951d7a0","system_id":"levelo_inurba_marseille","lat":43.25705,"lon":5.41115,"is_reserved":false,"is_disabled":false,"rental_uris":{"android":"levelo://app?vid=be58ce8b-41be-4406-96e6-d94ff951d7a0","ios":"levelo://app?vid=be58ce8b-41be-4406-96e6-d94ff951d7a0"},"vehicle_type_id":"4","last_reported":1746270471,"current_range_meters":18000,"station_id":"ce4bhkp2rcd13ifvqgd0","pricing_plan_id":"cebpf4jnsgd1na2vs0mg"},{"bike_id":"c8e16fcb-5510-4723-b6e7-2aa49c1b3b8d","system_id":"levelo_inurba_marseille","lat":43.31966,"lon":5.37038,"is_reserved":false,"is_disabled":false,"rental_uris":{"android":"levelo://app?vid=c8e16fcb-5510-4723-b6e7-2aa49c1b3b8d","ios":"levelo://app?vid=c8e16fcb-5510-4723-b6e7-2aa49c1b3b8d"},"vehicle_type_id":"4","last_reported":1746270471,"current_range_meters":18000,"station_id":"","pricing_plan_id":"cebpf4jnsgd1na2vs0mg"},{"bike_id":"ec6da0aa-0845-4bad-8a7b-8655154f5109","system_id":"levelo_inurba_marseille","lat":43.30797,"lon":5.43531,"is_reserved":false,"is_disabled":false,"rental_uris":{"android":"levelo://app?vid=ec6da0aa-0845-4bad-8a7b-8655154f5109","ios":"levelo://app?vid=ec6da0aa-0845-4bad-8a7b-8655154f5109"},"vehicle_type_id":"4","last_reported":1746270471,"current_range_meters":18000,"station_id":"ce4bhph2rcd13ifvqheg","pricing_plan_id":"cebpf4jnsgd1na2vs0mg"},{"bike_id":"8322da17-5b8c-4f90-a6c3-a19c6780fba9","system_id":"levelo_inurba_marseille","lat":43.305956,"lon":5.372222,"is_reserved":false,"is_disabled":false,"rental_uris":{"android":"levelo://app?vid=8322da17-5b8c-4f90-a6c3-a19c6780fba9","ios":"levelo://app?vid=8322da17-5b8c-4f90-a6c3-a19c6780fba9"},"vehicle_type_id":"4","last_reported":1746270471,"current_range_meters":18000,"station_id":"ce4bgqh2rcd13ifvqc4g","pricing_plan_id":"cebpf4jnsgd1na2vs0mg"},{"bike_id":"b5d4e3d3-c549-4a23-9151-5d11e349839d","system_id":"levelo_inurba_marseille","lat":43.21197,"lon":5.35072,"is_reserved":false,"is_disabled":false,"rental_uris":{"android":"levelo://app?vid=b5d4e3d3-c549-4a23-9151-5d11e349839d","ios":"levelo://app?vid=b5d4e3d3-c549-4a23-9151-5d11e349839d"},"vehicle_type_id":"4","last_reported":1746270471,"current_range_meters":18800,"station_id":"st_cvj6sg6p6f1abm77japg","pricing_plan_id":"cebpf4jnsgd1na2vs0mg"},{"bike_id":"aa3cf3ef-814d-48ac-af33-2edceb872e1a","system_id":"levelo_inurba_marseille","lat":43.284859,"lon":5.384137,"is_reserved":false,"is_disabled":false,"rental_uris":{"android":"levelo://app?vid=aa3cf3ef-814d-48ac-af33-2edceb872e1a","ios":"levelo://app?vid=aa3cf3ef-814d-48ac-af33-2edceb872e1a"},"vehicle_type_id":"4","last_reported":1746270471,"current_range_meters":18800,"station_id":"ce4bh512rcd13ifvqe3g","pricing_plan_id":"cebpf4jnsgd1na2vs0mg"},{"bike_id":"d8fbc9f5-6e6a-44d8-adf5-a7dead216468","system_id":"levelo_inurba_marseille","lat":43.28973,"lon":5.37828,"is_reserved":false,"is_disabled":false,"rental_uris":{"android":"levelo://app?vid=d8fbc9f5-6e6a-44d8-adf5-a7dead216468","ios":"levelo://app?vid=d8fbc9f5-6e6a-44d8-adf5-a7dead216468"},"vehicle_type_id":"4","last_reported":1746270471,"current_range_meters":18800,"station_id":"ce4bh9p2rcd13ifvqed0","pricing_plan_id":"cebpf4jnsgd1na2vs0mg"},{"bike_id":"b3016e8f-dd22-4591-a8b4-19b3dd23a609","system_id":"levelo_inurba_marseille","lat":43.29869,"lon":5.39751,"is_reserved":false,"is_disabled":true,"rental_uris":{"android":"levelo://app?vid=b3016e8f-dd22-4591-a8b4-19b3dd23a609","ios":"levelo://app?vid=b3016e8f-dd22-4591-a8b4-19b3dd23a609"},"vehicle_type_id":"4","last_reported":1746270471,"current_range_meters":18800,"station_id":"ce4bh0h2rcd13ifvqd50","pricing_plan_id":"cebpf4jnsgd1na2vs0mg"},{"bike_id":"23bbb790-135e-454e-bad1-3bcec53976ba","system_id":"levelo_inurba_marseille","lat":43.26567,"lon":5.39002,"is_reserved":false,"is_disabled":false,"rental_uris":{"android":"levelo://app?vid=23bbb790-135e-454e-bad1-3bcec53976ba","ios":"levelo://app?vid=23bbb790-135e-454e-bad1-3bcec53976ba"},"vehicle_type_id":"4","last_reported":1746270471,"current_range_meters":18800,"station_id":"ce4bhe12rcd13ifvqf30","pricing_plan_id":"cebpf4jnsgd1na2vs0mg"},{"bike_id":"879efc88-dad6-4156-806a-dd1d608f63e8","system_id":"levelo_inurba_marseille","lat":43.30788,"lon":5.37638,"is_reserved":false,"is_disabled":false,"rental_uris":{"android":"levelo://app?vid=879efc88-dad6-4156-806a-dd1d608f63e8","ios":"levelo://app?vid=879efc88-dad6-4156-806a-dd1d608f63e8"},"vehicle_type_id":"4","last_reported":1746270471,"current_range_meters":18800,"station_id":"ce4bgv92rcd13ifvqcq0","pricing_plan_id":"cebpf4jnsgd1na2vs0mg"},{"bike_id":"d7a8de8e-dc7e-4d97-8a82-c281821fd1c5","system_id":"levelo_inurba_marseille","lat":43.23152,"lon":5.43701,"is_reserved":false,"is_disabled":false,"rental_uris":{"android":"levelo://app?vid=d7a8de8e-dc7e-4d97-8a82-c281821fd1c5","ios":"levelo://app?vid=d7a8de8e-dc7e-4d97-8a82-c281821fd1c5"},"vehicle_type_id":"4","last_reported":1746270471,"current_range_meters":18800,"station_id":"ce4bhmp2rcd13ifvqgog","pricing_plan_id":"cebpf4jnsgd1na2vs0mg"},{"bike_id":"2e449bfc-75df-4df9-9177-7c6a73a2d8d0","system_id":"levelo_inurba_marseille","lat":43.27319,"lon":5.3908,"is_reserved":false,"is_disabled":false,"rental_uris":{"android":"levelo://app?vid=2e449bfc-75df-4df9-9177-7c6a73a2d8d0","ios":"levelo://app?vid=2e449bfc-75df-4df9-9177-7c6a73a2d8d0"},"vehicle_type_id":"4","last_reported":1746270471,"current_range_meters":18800,"station_id":"ce4bhgp2rcd13ifvqfe0","pricing_plan_id":"cebpf4jnsgd1na2vs0mg"},{"bike_id":"ee99ba6e-e5f1-4473-a6f8-583938304dee","system_id":"levelo_inurba_marseille","lat":43.30156,"lon":5.3808,"is_reserved":false,"is_disabled":false,"rental_uris":{"android":"levelo://app?vid=ee99ba6e-e5f1-4473-a6f8-583938304dee","ios":"levelo://app?vid=ee99ba6e-e5f1-4473-a6f8-583938304dee"},"vehicle_type_id":"4","last_reported":1746270471,"current_range_meters":18800,"station_id":"ce4bgjp2rcd13ifvqbh0","pricing_plan_id":"cebpf4jnsgd1na2vs0mg"},{"bike_id":"7b5bf833-2c09-4d84-a1d8-6f5aa9accb75","system_id":"levelo_inurba_marseille","lat":43.305517,"lon":5.365369,"is_reserved":false,"is_disabled":false,"rental_uris":{"android":"levelo://app?vid=7b5bf833-2c09-4d84-a1d8-6f5aa9accb75","ios":"levelo://app?vid=7b5bf833-2c09-4d84-a1d8-6f5aa9accb75"},"vehicle_type_id":"4","last_reported":1746270471,"current_range_meters":19200,"station_id":"ce4bgs12rcd13ifvqcag","pricing_plan_id":"cebpf4jnsgd1na2vs0mg"},{"bike_id":"e27de63b-bde1-4b08-b41e-b32431a5ecc6","system_id":"levelo_inurba_marseille","lat":43.26021,"lon":5.39323,"is_reserved":false,"is_disabled":false,"rental_uris":{"android":"levelo://app?vid=e27de63b-bde1-4b08-b41e-b32431a5ecc6","ios":"levelo://app?vid=e27de63b-bde1-4b08-b41e-b32431a5ecc6"},"vehicle_type_id":"4","last_reported":1746270471,"current_range_meters":19200,"station_id":"ce4bhh92rcd13ifvqfj0","pricing_plan_id":"cebpf4jnsgd1na2vs0mg"},{"bike_id":"6eac989f-2c51-4d21-a0eb-00a05abd69f3","system_id":"levelo_inurba_marseille","lat":43.32352,"lon":5.36754,"is_reserved":false,"is_disabled":false,"rental_uris":{"android":"levelo://app?vid=6eac989f-2c51-4d21-a0eb-00a05abd69f3","ios":"levelo://app?vid=6eac989f-2c51-4d21-a0eb-00a05abd69f3"},"vehicle_type_id":"4","last_reported":1746270471,"current_range_meters":19600,"station_id":"ce4bhsh2rcd13ifvqi2g","pricing_plan_id":"cebpf4jnsgd1na2vs0mg"},{"bike_id":"79bf5a5f-9ab3-464e-a451-d2d69dc58a68","system_id":"levelo_inurba_marseille","lat":43.21192,"lon":5.35076,"is_reserved":false,"is_disabled":false,"rental_uris":{"android":"levelo://app?vid=79bf5a5f-9ab3-464e-a451-d2d69dc58a68","ios":"levelo://app?vid=79bf5a5f-9ab3-464e-a451-d2d69dc58a68"},"vehicle_type_id":"4","last_reported":1746270471,"current_range_meters":19600,"station_id":"st_cvj6sg6p6f1abm77japg","pricing_plan_id":"cebpf4jnsgd1na2vs0mg"},{"bike_id":"40fd19f4-44fe-44e9-821b-b3af5edff61f","system_id":"levelo_inurba_marseille","lat":43.21193,"lon":5.35073,"is_reserved":false,"is_disabled":false,"rental_uris":{"android":"levelo://app?vid=40fd19f4-44fe-44e9-821b-b3af5edff61f","ios":"levelo://app?vid=40fd19f4-44fe-44e9-821b-b3af5edff61f"},"vehicle_type_id":"4","last_reported":1746270471,"current_range_meters":19600,"station_id":"st_cvj6sg6p6f1abm77japg","pricing_plan_id":"cebpf4jnsgd1na2vs0mg"},{"bike_id":"b8ec0858-ba05-490c-a6ab-e90bf5d208ad","system_id":"levelo_inurba_marseille","lat":43.284698,"lon":5.384187,"is_reserved":false,"is_disabled":false,"rental_uris":{"android":"levelo://app?vid=b8ec0858-ba05-490c-a6ab-e90bf5d208ad","ios":"levelo://app?vid=b8ec0858-ba05-490c-a6ab-e90bf5d208ad"},"vehicle_type_id":"4","last_reported":1746270471,"current_range_meters":19200,"station_id":"ce4bh512rcd13ifvqe3g","pricing_plan_id":"cebpf4jnsgd1na2vs0mg"},{"bike_id":"98e22c35-3f33-46c0-8fb0-21a13ff16402","system_id":"levelo_inurba_marseille","lat":43.27058,"lon":5.40251,"is_reserved":false,"is_disabled":false,"rental_uris":{"android":"levelo://app?vid=98e22c35-3f33-46c0-8fb0-21a13ff16402","ios":"levelo://app?vid=98e22c35-3f33-46c0-8fb0-21a13ff16402"},"vehicle_type_id":"4","last_reported":1746270471,"current_range_meters":19600,"station_id":"ce4bhk92rcd13ifvqgc0","pricing_plan_id":"cebpf4jnsgd1na2vs0mg"},{"bike_id":"ea323f1c-7f8c-48b2-90a0-72334cd920a4","system_id":"levelo_inurba_marseille","lat":43.29569,"lon":5.39966,"is_reserved":false,"is_disabled":true,"rental_uris":{"android":"levelo://app?vid=ea323f1c-7f8c-48b2-90a0-72334cd920a4","ios":"levelo://app?vid=ea323f1c-7f8c-48b2-90a0-72334cd920a4"},"vehicle_type_id":"4","last_reported":1746270471,"current_range_meters":19600,"station_id":"ce4bh312rcd13ifvqdj0","pricing_plan_id":"cebpf4jnsgd1na2vs0mg"},{"bike_id":"48b89a22-48a4-441f-8095-cafac174cc18","system_id":"levelo_inurba_marseille","lat":43.23964,"lon":5.36645,"is_reserved":false,"is_disabled":false,"rental_uris":{"android":"levelo://app?vid=48b89a22-48a4-441f-8095-cafac174cc18","ios":"levelo://app?vid=48b89a22-48a4-441f-8095-cafac174cc18"},"vehicle_type_id":"4","last_reported":1746270471,"current_range_meters":20000,"station_id":"ce4bhi12rcd13ifvqfp0","pricing_plan_id":"cebpf4jnsgd1na2vs0mg"},{"bike_id":"1079850c-7c39-47b7-a5d8-a63a64af901d","system_id":"levelo_inurba_marseille","lat":43.274338,"lon":5.394489,"is_reserved":false,"is_disabled":false,"rental_uris":{"android":"levelo://app?vid=1079850c-7c39-47b7-a5d8-a63a64af901d","ios":"levelo://app?vid=1079850c-7c39-47b7-a5d8-a63a64af901d"},"vehicle_type_id":"4","last_reported":1746270471,"current_range_meters":20000,"station_id":"ce4bhdp2rcd13ifvqf20","pricing_plan_id":"cebpf4jnsgd1na2vs0mg"},{"bike_id":"1de6e3a2-7b74-4d48-9b25-3eb3a6a22f63","system_id":"levelo_inurba_marseille","lat":43.30534,"lon":5.36505,"is_reserved":false,"is_disabled":false,"rental_uris":{"android":"levelo://app?vid=1de6e3a2-7b74-4d48-9b25-3eb3a6a22f63","ios":"levelo://app?vid=1de6e3a2-7b74-4d48-9b25-3eb3a6a22f63"},"vehicle_type_id":"4","last_reported":1746270471,"current_range_meters":20000,"station_id":"","pricing_plan_id":"cebpf4jnsgd1na2vs0mg"},{"bike_id":"32dd2750-06c1-4f1d-9317-d7388c01fd3e","system_id":"levelo_inurba_marseille","lat":43.23969,"lon":5.36626,"is_reserved":false,"is_disabled":false,"rental_uris":{"android":"levelo://app?vid=32dd2750-06c1-4f1d-9317-d7388c01fd3e","ios":"levelo://app?vid=32dd2750-06c1-4f1d-9317-d7388c01fd3e"},"vehicle_type_id":"4","last_reported":1746270471,"current_range_meters":20000,"station_id":"ce4bhi12rcd13ifvqfp0","pricing_plan_id":"cebpf4jnsgd1na2vs0mg"},{"bike_id":"a156a43b-a454-494b-9663-fdd53beb9caa","system_id":"levelo_inurba_marseille","lat":43.2175,"lon":5.34605,"is_reserved":false,"is_disabled":false,"rental_uris":{"android":"levelo://app?vid=a156a43b-a454-494b-9663-fdd53beb9caa","ios":"levelo://app?vid=a156a43b-a454-494b-9663-fdd53beb9caa"},"vehicle_type_id":"4","last_reported":1746270471,"current_range_meters":20000,"station_id":"st_cvj6r9ubvosntc0bgbag","pricing_plan_id":"cebpf4jnsgd1na2vs0mg"},{"bike_id":"5e4dbcaf-5915-4b8f-91e3-8d78c41e279c","system_id":"levelo_inurba_marseille","lat":43.21184,"lon":5.35068,"is_reserved":false,"is_disabled":false,"rental_uris":{"android":"levelo://app?vid=5e4dbcaf-5915-4b8f-91e3-8d78c41e279c","ios":"levelo://app?vid=5e4dbcaf-5915-4b8f-91e3-8d78c41e279c"},"vehicle_type_id":"4","last_reported":1746270471,"current_range_meters":20000,"station_id":"st_cvj6sg6p6f1abm77japg","pricing_plan_id":"cebpf4jnsgd1na2vs0mg"},{"bike_id":"43f220ab-0408-46b3-abe5-60437ce3bc1e","system_id":"levelo_inurba_marseille","lat":43.23201,"lon":5.35559,"is_reserved":false,"is_disabled":false,"rental_uris":{"android":"levelo://app?vid=43f220ab-0408-46b3-abe5-60437ce3bc1e","ios":"levelo://app?vid=43f220ab-0408-46b3-abe5-60437ce3bc1e"},"vehicle_type_id":"4","last_reported":1746270471,"current_range_meters":20400,"station_id":"ce4bhu92rcd13ifvqi70","pricing_plan_id":"cebpf4jnsgd1na2vs0mg"},{"bike_id":"cb06b34a-ed36-47a6-8d09-45a1d4eda444","system_id":"levelo_inurba_marseille","lat":43.21192,"lon":5.35074,"is_reserved":false,"is_disabled":false,"rental_uris":{"android":"levelo://app?vid=cb06b34a-ed36-47a6-8d09-45a1d4eda444","ios":"levelo://app?vid=cb06b34a-ed36-47a6-8d09-45a1d4eda444"},"vehicle_type_id":"4","last_reported":1746270471,"current_range_meters":20400,"station_id":"st_cvj6sg6p6f1abm77japg","pricing_plan_id":"cebpf4jnsgd1na2vs0mg"},{"bike_id":"1a0b984a-5bb6-40c8-b8b0-68edd4b3d9bd","system_id":"levelo_inurba_marseille","lat":43.21757,"lon":5.34613,"is_reserved":false,"is_disabled":false,"rental_uris":{"android":"levelo://app?vid=1a0b984a-5bb6-40c8-b8b0-68edd4b3d9bd","ios":"levelo://app?vid=1a0b984a-5bb6-40c8-b8b0-68edd4b3d9bd"},"vehicle_type_id":"4","last_reported":1746270471,"current_range_meters":20400,"station_id":"st_cvj6r9ubvosntc0bgbag","pricing_plan_id":"cebpf4jnsgd1na2vs0mg"},{"bike_id":"0829c58e-a4fa-40ae-b98f-a8b4efaf6797","system_id":"levelo_inurba_marseille","lat":43.27215,"lon":5.39196,"is_reserved":false,"is_disabled":false,"rental_uris":{"android":"levelo://app?vid=0829c58e-a4fa-40ae-b98f-a8b4efaf6797","ios":"levelo://app?vid=0829c58e-a4fa-40ae-b98f-a8b4efaf6797"},"vehicle_type_id":"4","last_reported":1746270471,"current_range_meters":20400,"station_id":"ce4bhhp2rcd13ifvqfm0","pricing_plan_id":"cebpf4jnsgd1na2vs0mg"},{"bike_id":"9a07ba2b-94fe-4790-a97b-70d476f7fab2","system_id":"levelo_inurba_marseille","lat":43.26032,"lon":5.37548,"is_reserved":false,"is_disabled":false,"rental_uris":{"android":"levelo://app?vid=9a07ba2b-94fe-4790-a97b-70d476f7fab2","ios":"levelo://app?vid=9a07ba2b-94fe-4790-a97b-70d476f7fab2"},"vehicle_type_id":"4","last_reported":1746270471,"current_range_meters":20000,"station_id":"ce4bhgh2rcd13ifvqfa0","pricing_plan_id":"cebpf4jnsgd1na2vs0mg"},{"bike_id":"6237f02e-1fe7-45af-9dba-5349a28c780e","system_id":"levelo_inurba_marseille","lat":43.24385,"lon":5.37065,"is_reserved":false,"is_disabled":false,"rental_uris":{"android":"levelo://app?vid=6237f02e-1fe7-45af-9dba-5349a28c780e","ios":"levelo://app?vid=6237f02e-1fe7-45af-9dba-5349a28c780e"},"vehicle_type_id":"4","last_reported":1746270471,"current_range_meters":20400,"station_id":"ce4bhhh2rcd13ifvqfk0","pricing_plan_id":"cebpf4jnsgd1na2vs0mg"},{"bike_id":"715d4ccd-4d07-4967-8be3-b199930f65b6","system_id":"levelo_inurba_marseille","lat":43.31082,"lon":5.40088,"is_reserved":false,"is_disabled":false,"rental_uris":{"android":"levelo://app?vid=715d4ccd-4d07-4967-8be3-b199930f65b6","ios":"levelo://app?vid=715d4ccd-4d07-4967-8be3-b199930f65b6"},"vehicle_type_id":"4","last_reported":1746270471,"current_range_meters":20400,"station_id":"","pricing_plan_id":"cebpf4jnsgd1na2vs0mg"},{"bike_id":"fabf2925-9bd4-424b-868f-8f1d1e6774c1","system_id":"levelo_inurba_marseille","lat":43.21741,"lon":5.34599,"is_reserved":false,"is_disabled":false,"rental_uris":{"android":"levelo://app?vid=fabf2925-9bd4-424b-868f-8f1d1e6774c1","ios":"levelo://app?vid=fabf2925-9bd4-424b-868f-8f1d1e6774c1"},"vehicle_type_id":"4","last_reported":1746270471,"current_range_meters":20400,"station_id":"st_cvj6r9ubvosntc0bgbag","pricing_plan_id":"cebpf4jnsgd1na2vs0mg"},{"bike_id":"13e30c6a-958c-4801-a7f9-9de71d7f500c","system_id":"levelo_inurba_marseille","lat":43.310822,"lon":5.424298,"is_reserved":false,"is_disabled":false,"rental_uris":{"android":"levelo://app?vid=13e30c6a-958c-4801-a7f9-9de71d7f500c","ios":"levelo://app?vid=13e30c6a-958c-4801-a7f9-9de71d7f500c"},"vehicle_type_id":"4","last_reported":1746270471,"current_range_meters":20400,"station_id":"ce4bhp92rcd13ifvqhag","pricing_plan_id":"cebpf4jnsgd1na2vs0mg"},{"bike_id":"3476f494-4c24-4af6-9060-f018099359bf","system_id":"levelo_inurba_marseille","lat":43.29728,"lon":5.36606,"is_reserved":false,"is_disabled":false,"rental_uris":{"android":"levelo://app?vid=3476f494-4c24-4af6-9060-f018099359bf","ios":"levelo://app?vid=3476f494-4c24-4af6-9060-f018099359bf"},"vehicle_type_id":"4","last_reported":1746270471,"current_range_meters":20400,"station_id":"ce4bgn12rcd13ifvqbt0","pricing_plan_id":"cebpf4jnsgd1na2vs0mg"},{"bike_id":"899f1c13-7008-4f05-81eb-05e3064d591d","system_id":"levelo_inurba_marseille","lat":43.28512,"lon":5.35049,"is_reserved":false,"is_disabled":false,"rental_uris":{"android":"levelo://app?vid=899f1c13-7008-4f05-81eb-05e3064d591d","ios":"levelo://app?vid=899f1c13-7008-4f05-81eb-05e3064d591d"},"vehicle_type_id":"4","last_reported":1746270471,"current_range_meters":20400,"station_id":"","pricing_plan_id":"cebpf4jnsgd1na2vs0mg"},{"bike_id":"58044fcb-3157-4d48-9e15-090090d28c71","system_id":"levelo_inurba_marseille","lat":43.26581,"lon":5.39018,"is_reserved":false,"is_disabled":false,"rental_uris":{"android":"levelo://app?vid=58044fcb-3157-4d48-9e15-090090d28c71","ios":"levelo://app?vid=58044fcb-3157-4d48-9e15-090090d28c71"},"vehicle_type_id":"4","last_reported":1746270471,"current_range_meters":20800,"station_id":"ce4bhe12rcd13ifvqf30","pricing_plan_id":"cebpf4jnsgd1na2vs0mg"},{"bike_id":"956f256d-5121-46c7-ad30-89a02fd3c546","system_id":"levelo_inurba_marseille","lat":43.28431,"lon":5.39188,"is_reserved":false,"is_disabled":false,"rental_uris":{"android":"levelo://app?vid=956f256d-5121-46c7-ad30-89a02fd3c546","ios":"levelo://app?vid=956f256d-5121-46c7-ad30-89a02fd3c546"},"vehicle_type_id":"4","last_reported":1746270471,"current_range_meters":20400,"station_id":"ce4bhoh2rcd13ifvqh5g","pricing_plan_id":"cebpf4jnsgd1na2vs0mg"},{"bike_id":"478eea82-b413-46b8-98d5-a2b0b85050dc","system_id":"levelo_inurba_marseille","lat":43.21198,"lon":5.35078,"is_reserved":false,"is_disabled":false,"rental_uris":{"android":"levelo://app?vid=478eea82-b413-46b8-98d5-a2b0b85050dc","ios":"levelo://app?vid=478eea82-b413-46b8-98d5-a2b0b85050dc"},"vehicle_type_id":"4","last_reported":1746270471,"current_range_meters":20800,"station_id":"st_cvj6sg6p6f1abm77japg","pricing_plan_id":"cebpf4jnsgd1na2vs0mg"},{"bike_id":"8ec68541-dc61-4e04-b3b9-5589cf0ccf2b","system_id":"levelo_inurba_marseille","lat":43.325301,"lon":5.414641,"is_reserved":false,"is_disabled":true,"rental_uris":{"android":"levelo://app?vid=8ec68541-dc61-4e04-b3b9-5589cf0ccf2b","ios":"levelo://app?vid=8ec68541-dc61-4e04-b3b9-5589cf0ccf2b"},"vehicle_type_id":"4","last_reported":1746270471,"current_range_meters":21600,"station_id":"ce4bhq12rcd13ifvqhhg","pricing_plan_id":"cebpf4jnsgd1na2vs0mg"},{"bike_id":"574e711c-fa4e-4bf9-84b3-4ae402691bae","system_id":"levelo_inurba_marseille","lat":43.211843,"lon":5.350658,"is_reserved":false,"is_disabled":false,"rental_uris":{"android":"levelo://app?vid=574e711c-fa4e-4bf9-84b3-4ae402691bae","ios":"levelo://app?vid=574e711c-fa4e-4bf9-84b3-4ae402691bae"},"vehicle_type_id":"4","last_reported":1746270471,"current_range_meters":21600,"station_id":"st_cvj6sg6p6f1abm77japg","pricing_plan_id":"cebpf4jnsgd1na2vs0mg"},{"bike_id":"549b3ceb-be76-4df9-ae21-e94e45c72e59","system_id":"levelo_inurba_marseille","lat":43.3053,"lon":5.36534,"is_reserved":false,"is_disabled":false,"rental_uris":{"android":"levelo://app?vid=549b3ceb-be76-4df9-ae21-e94e45c72e59","ios":"levelo://app?vid=549b3ceb-be76-4df9-ae21-e94e45c72e59"},"vehicle_type_id":"4","last_reported":1746270471,"current_range_meters":21600,"station_id":"ce4bgs12rcd13ifvqcag","pricing_plan_id":"cebpf4jnsgd1na2vs0mg"},{"bike_id":"cbe9032b-ff18-4bb1-b940-bde7497ff44e","system_id":"levelo_inurba_marseille","lat":43.30369,"lon":5.42468,"is_reserved":false,"is_disabled":false,"rental_uris":{"android":"levelo://app?vid=cbe9032b-ff18-4bb1-b940-bde7497ff44e","ios":"levelo://app?vid=cbe9032b-ff18-4bb1-b940-bde7497ff44e"},"vehicle_type_id":"4","last_reported":1746270471,"current_range_meters":21600,"station_id":"ce4bhoh2rcd13ifvqh6g","pricing_plan_id":"cebpf4jnsgd1na2vs0mg"},{"bike_id":"5a80cf7f-9c03-470a-87e2-799cdc585006","system_id":"levelo_inurba_marseille","lat":43.27253,"lon":5.40855,"is_reserved":false,"is_disabled":false,"rental_uris":{"android":"levelo://app?vid=5a80cf7f-9c03-470a-87e2-799cdc585006","ios":"levelo://app?vid=5a80cf7f-9c03-470a-87e2-799cdc585006"},"vehicle_type_id":"4","last_reported":1746270471,"current_range_meters":21600,"station_id":"ce4bhl12rcd13ifvqgf0","pricing_plan_id":"cebpf4jnsgd1na2vs0mg"},{"bike_id":"d7f2b488-8d1b-4726-82ba-ab7ff38c8cb9","system_id":"levelo_inurba_marseille","lat":43.279193,"lon":5.41032,"is_reserved":false,"is_disabled":false,"rental_uris":{"android":"levelo://app?vid=d7f2b488-8d1b-4726-82ba-ab7ff38c8cb9","ios":"levelo://app?vid=d7f2b488-8d1b-4726-82ba-ab7ff38c8cb9"},"vehicle_type_id":"4","last_reported":1746270471,"current_range_meters":21600,"station_id":"ce4bhi12rcd13ifvqfq0","pricing_plan_id":"cebpf4jnsgd1na2vs0mg"},{"bike_id":"3b00c937-d3c4-413f-9595-477a3a114de3","system_id":"levelo_inurba_marseille","lat":43.21748,"lon":5.34609,"is_reserved":false,"is_disabled":false,"rental_uris":{"android":"levelo://app?vid=3b00c937-d3c4-413f-9595-477a3a114de3","ios":"levelo://app?vid=3b00c937-d3c4-413f-9595-477a3a114de3"},"vehicle_type_id":"4","last_reported":1746270471,"current_range_meters":21600,"station_id":"st_cvj6r9ubvosntc0bgbag","pricing_plan_id":"cebpf4jnsgd1na2vs0mg"},{"bike_id":"be4220b1-cd66-4bca-a1f6-14afd668d243","system_id":"levelo_inurba_marseille","lat":43.29616,"lon":5.40601,"is_reserved":false,"is_disabled":false,"rental_uris":{"android":"levelo://app?vid=be4220b1-cd66-4bca-a1f6-14afd668d243","ios":"levelo://app?vid=be4220b1-cd66-4bca-a1f6-14afd668d243"},"vehicle_type_id":"4","last_reported":1746270471,"current_range_meters":21600,"station_id":"ce4bh0h2rcd13ifvqd60","pricing_plan_id":"cebpf4jnsgd1na2vs0mg"},{"bike_id":"efd2b245-5a73-40f5-8a1e-19609e0306b5","system_id":"levelo_inurba_marseille","lat":43.25002,"lon":5.38927,"is_reserved":false,"is_disabled":false,"rental_uris":{"android":"levelo://app?vid=efd2b245-5a73-40f5-8a1e-19609e0306b5","ios":"levelo://app?vid=efd2b245-5a73-40f5-8a1e-19609e0306b5"},"vehicle_type_id":"4","last_reported":1746270471,"current_range_meters":22000,"station_id":"ce4bhgp2rcd13ifvqfd0","pricing_plan_id":"cebpf4jnsgd1na2vs0mg"},{"bike_id":"deef7f31-5c5c-4523-a91e-6ee5aee07e1d","system_id":"levelo_inurba_marseille","lat":43.29193,"lon":5.35809,"is_reserved":false,"is_disabled":false,"rental_uris":{"android":"levelo://app?vid=deef7f31-5c5c-4523-a91e-6ee5aee07e1d","ios":"levelo://app?vid=deef7f31-5c5c-4523-a91e-6ee5aee07e1d"},"vehicle_type_id":"4","last_reported":1746270471,"current_range_meters":22000,"station_id":"ce4bhb12rcd13ifvqel0","pricing_plan_id":"cebpf4jnsgd1na2vs0mg"},{"bike_id":"427bea5c-3537-4142-93c6-e0e15334e83b","system_id":"levelo_inurba_marseille","lat":43.28154,"lon":5.42646,"is_reserved":false,"is_disabled":false,"rental_uris":{"android":"levelo://app?vid=427bea5c-3537-4142-93c6-e0e15334e83b","ios":"levelo://app?vid=427bea5c-3537-4142-93c6-e0e15334e83b"},"vehicle_type_id":"4","last_reported":1746270471,"current_range_meters":21600,"station_id":"ce4bhnh2rcd13ifvqgug","pricing_plan_id":"cebpf4jnsgd1na2vs0mg"},{"bike_id":"819dd8ea-9bb1-4811-8005-a077813d53dd","system_id":"levelo_inurba_marseille","lat":43.32484,"lon":5.36571,"is_reserved":false,"is_disabled":false,"rental_uris":{"android":"levelo://app?vid=819dd8ea-9bb1-4811-8005-a077813d53dd","ios":"levelo://app?vid=819dd8ea-9bb1-4811-8005-a077813d53dd"},"vehicle_type_id":"4","last_reported":1746270471,"current_range_meters":22000,"station_id":"ce4bhs12rcd13ifvqhvg","pricing_plan_id":"cebpf4jnsgd1na2vs0mg"},{"bike_id":"faf2a7e4-7756-4cbe-8449-da57ed5bd234","system_id":"levelo_inurba_marseille","lat":43.27366,"lon":5.36256,"is_reserved":false,"is_disabled":false,"rental_uris":{"android":"levelo://app?vid=faf2a7e4-7756-4cbe-8449-da57ed5bd234","ios":"levelo://app?vid=faf2a7e4-7756-4cbe-8449-da57ed5bd234"},"vehicle_type_id":"4","last_reported":1746270471,"current_range_meters":22000,"station_id":"ce4bhbh2rcd13ifvqeo0","pricing_plan_id":"cebpf4jnsgd1na2vs0mg"},{"bike_id":"49f3c631-f67d-4658-86d9-af6735f2120a","system_id":"levelo_inurba_marseille","lat":43.30606,"lon":5.37238,"is_reserved":false,"is_disabled":false,"rental_uris":{"android":"levelo://app?vid=49f3c631-f67d-4658-86d9-af6735f2120a","ios":"levelo://app?vid=49f3c631-f67d-4658-86d9-af6735f2120a"},"vehicle_type_id":"4","last_reported":1746270471,"current_range_meters":22000,"station_id":"ce4bgqh2rcd13ifvqc4g","pricing_plan_id":"cebpf4jnsgd1na2vs0mg"},{"bike_id":"9b5f6dfd-f3d5-4bbf-ab77-5c91db49d46c","system_id":"levelo_inurba_marseille","lat":43.28573,"lon":5.39495,"is_reserved":false,"is_disabled":false,"rental_uris":{"android":"levelo://app?vid=9b5f6dfd-f3d5-4bbf-ab77-5c91db49d46c","ios":"levelo://app?vid=9b5f6dfd-f3d5-4bbf-ab77-5c91db49d46c"},"vehicle_type_id":"4","last_reported":1746270471,"current_range_meters":22000,"station_id":"ce4bh292rcd13ifvqdg0","pricing_plan_id":"cebpf4jnsgd1na2vs0mg"},{"bike_id":"07c9a721-ccc4-435a-9bc7-2bafc396a4ac","system_id":"levelo_inurba_marseille","lat":43.2417,"lon":5.39713,"is_reserved":false,"is_disabled":false,"rental_uris":{"android":"levelo://app?vid=07c9a721-ccc4-435a-9bc7-2bafc396a4ac","ios":"levelo://app?vid=07c9a721-ccc4-435a-9bc7-2bafc396a4ac"},"vehicle_type_id":"4","last_reported":1746270471,"current_range_meters":22400,"station_id":"ce4bhn12rcd13ifvqgpg","pricing_plan_id":"cebpf4jnsgd1na2vs0mg"},{"bike_id":"664a42d7-be27-4177-835b-ad63711ff35a","system_id":"levelo_inurba_marseille","lat":43.30148,"lon":5.38799,"is_reserved":false,"is_disabled":false,"rental_uris":{"android":"levelo://app?vid=664a42d7-be27-4177-835b-ad63711ff35a","ios":"levelo://app?vid=664a42d7-be27-4177-835b-ad63711ff35a"},"vehicle_type_id":"4","last_reported":1746270471,"current_range_meters":22400,"station_id":"ce4bghh2rcd13ifvqb60","pricing_plan_id":"cebpf4jnsgd1na2vs0mg"},{"bike_id":"a3c5b29a-a6dc-4744-8f99-1444e228e509","system_id":"levelo_inurba_marseille","lat":43.27368,"lon":5.36257,"is_reserved":false,"is_disabled":false,"rental_uris":{"android":"levelo://app?vid=a3c5b29a-a6dc-4744-8f99-1444e228e509","ios":"levelo://app?vid=a3c5b29a-a6dc-4744-8f99-1444e228e509"},"vehicle_type_id":"4","last_reported":1746270471,"current_range_meters":22400,"station_id":"ce4bhbh2rcd13ifvqeo0","pricing_plan_id":"cebpf4jnsgd1na2vs0mg"},{"bike_id":"6a53649e-2ef3-4982-b13c-29bf779e577a","system_id":"levelo_inurba_marseille","lat":43.2904,"lon":5.39981,"is_reserved":false,"is_disabled":false,"rental_uris":{"android":"levelo://app?vid=6a53649e-2ef3-4982-b13c-29bf779e577a","ios":"levelo://app?vid=6a53649e-2ef3-4982-b13c-29bf779e577a"},"vehicle_type_id":"4","last_reported":1746270471,"current_range_meters":22000,"station_id":"ce4bh392rcd13ifvqdm0","pricing_plan_id":"cebpf4jnsgd1na2vs0mg"},{"bike_id":"18137903-72ba-4200-abff-b6b27df8a90f","system_id":"levelo_inurba_marseille","lat":43.31369,"lon":5.38503,"is_reserved":false,"is_disabled":false,"rental_uris":{"android":"levelo://app?vid=18137903-72ba-4200-abff-b6b27df8a90f","ios":"levelo://app?vid=18137903-72ba-4200-abff-b6b27df8a90f"},"vehicle_type_id":"4","last_reported":1746270471,"current_range_meters":22800,"station_id":"ce4bgt92rcd13ifvqcf0","pricing_plan_id":"cebpf4jnsgd1na2vs0mg"},{"bike_id":"a4474d1d-fa23-4aba-8153-4ecc3115a54e","system_id":"levelo_inurba_marseille","lat":43.21749,"lon":5.34624,"is_reserved":false,"is_disabled":false,"rental_uris":{"android":"levelo://app?vid=a4474d1d-fa23-4aba-8153-4ecc3115a54e","ios":"levelo://app?vid=a4474d1d-fa23-4aba-8153-4ecc3115a54e"},"vehicle_type_id":"4","last_reported":1746270471,"current_range_meters":22800,"station_id":"st_cvj6r9ubvosntc0bgbag","pricing_plan_id":"cebpf4jnsgd1na2vs0mg"},{"bike_id":"8f8205c0-508b-4c6c-bda0-809653224241","system_id":"levelo_inurba_marseille","lat":43.21188,"lon":5.3507,"is_reserved":false,"is_disabled":false,"rental_uris":{"android":"levelo://app?vid=8f8205c0-508b-4c6c-bda0-809653224241","ios":"levelo://app?vid=8f8205c0-508b-4c6c-bda0-809653224241"},"vehicle_type_id":"4","last_reported":1746270471,"current_range_meters":22800,"station_id":"st_cvj6sg6p6f1abm77japg","pricing_plan_id":"cebpf4jnsgd1na2vs0mg"},{"bike_id":"029a87bb-90fa-447a-9828-2f6d8a7ab734","system_id":"levelo_inurba_marseille","lat":43.30811,"lon":5.43504,"is_reserved":false,"is_disabled":false,"rental_uris":{"android":"levelo://app?vid=029a87bb-90fa-447a-9828-2f6d8a7ab734","ios":"levelo://app?vid=029a87bb-90fa-447a-9828-2f6d8a7ab734"},"vehicle_type_id":"4","last_reported":1746270471,"current_range_meters":22800,"station_id":"ce4bhph2rcd13ifvqheg","pricing_plan_id":"cebpf4jnsgd1na2vs0mg"},{"bike_id":"8f27c1dd-bce8-46e3-ad14-310f14f28efe","system_id":"levelo_inurba_marseille","lat":43.29575,"lon":5.39957,"is_reserved":false,"is_disabled":true,"rental_uris":{"android":"levelo://app?vid=8f27c1dd-bce8-46e3-ad14-310f14f28efe","ios":"levelo://app?vid=8f27c1dd-bce8-46e3-ad14-310f14f28efe"},"vehicle_type_id":"4","last_reported":1746270471,"current_range_meters":22800,"station_id":"ce4bh312rcd13ifvqdj0","pricing_plan_id":"cebpf4jnsgd1na2vs0mg"},{"bike_id":"d0b98f11-ab53-4231-b14d-f2a4901026b6","system_id":"levelo_inurba_marseille","lat":43.29293,"lon":5.37155,"is_reserved":false,"is_disabled":false,"rental_uris":{"android":"levelo://app?vid=d0b98f11-ab53-4231-b14d-f2a4901026b6","ios":"levelo://app?vid=d0b98f11-ab53-4231-b14d-f2a4901026b6"},"vehicle_type_id":"4","last_reported":1746270471,"current_range_meters":22800,"station_id":"ce4bgh92rcd13ifvqb40","pricing_plan_id":"cebpf4jnsgd1na2vs0mg"},{"bike_id":"eb7357fc-0088-49ba-acb0-ea57889fca5d","system_id":"levelo_inurba_marseille","lat":43.27369,"lon":5.3624,"is_reserved":false,"is_disabled":false,"rental_uris":{"android":"levelo://app?vid=eb7357fc-0088-49ba-acb0-ea57889fca5d","ios":"levelo://app?vid=eb7357fc-0088-49ba-acb0-ea57889fca5d"},"vehicle_type_id":"4","last_reported":1746270471,"current_range_meters":22800,"station_id":"ce4bhbh2rcd13ifvqeo0","pricing_plan_id":"cebpf4jnsgd1na2vs0mg"},{"bike_id":"4e65a762-e06d-4c29-b9ea-fd31f6fe0be2","system_id":"levelo_inurba_marseille","lat":43.2861,"lon":5.3705,"is_reserved":false,"is_disabled":false,"rental_uris":{"android":"levelo://app?vid=4e65a762-e06d-4c29-b9ea-fd31f6fe0be2","ios":"levelo://app?vid=4e65a762-e06d-4c29-b9ea-fd31f6fe0be2"},"vehicle_type_id":"4","last_reported":1746270471,"current_range_meters":22800,"station_id":"ce4bht12rcd13ifvqi60","pricing_plan_id":"cebpf4jnsgd1na2vs0mg"},{"bike_id":"39109ae3-767e-493e-8a75-65eb1e6d39fe","system_id":"levelo_inurba_marseille","lat":43.21193,"lon":5.35073,"is_reserved":false,"is_disabled":false,"rental_uris":{"android":"levelo://app?vid=39109ae3-767e-493e-8a75-65eb1e6d39fe","ios":"levelo://app?vid=39109ae3-767e-493e-8a75-65eb1e6d39fe"},"vehicle_type_id":"4","last_reported":1746270471,"current_range_meters":22800,"station_id":"st_cvj6sg6p6f1abm77japg","pricing_plan_id":"cebpf4jnsgd1na2vs0mg"},{"bike_id":"b11ac391-4909-4a16-aa39-f33febd5fc1e","system_id":"levelo_inurba_marseille","lat":43.30118,"lon":5.39843,"is_reserved":false,"is_disabled":false,"rental_uris":{"android":"levelo://app?vid=b11ac391-4909-4a16-aa39-f33febd5fc1e","ios":"levelo://app?vid=b11ac391-4909-4a16-aa39-f33febd5fc1e"},"vehicle_type_id":"4","last_reported":1746270471,"current_range_meters":22800,"station_id":"ce4bh0h2rcd13ifvqd40","pricing_plan_id":"cebpf4jnsgd1na2vs0mg"},{"bike_id":"f7129fc7-e162-4059-b746-ae4f6375dc85","system_id":"levelo_inurba_marseille","lat":43.21753,"lon":5.346,"is_reserved":false,"is_disabled":false,"rental_uris":{"android":"levelo://app?vid=f7129fc7-e162-4059-b746-ae4f6375dc85","ios":"levelo://app?vid=f7129fc7-e162-4059-b746-ae4f6375dc85"},"vehicle_type_id":"4","last_reported":1746270471,"current_range_meters":23200,"station_id":"st_cvj6r9ubvosntc0bgbag","pricing_plan_id":"cebpf4jnsgd1na2vs0mg"},{"bike_id":"a11e32f4-919b-4239-80d7-c2fdad822a6e","system_id":"levelo_inurba_marseille","lat":43.27434,"lon":5.39428,"is_reserved":false,"is_disabled":false,"rental_uris":{"android":"levelo://app?vid=a11e32f4-919b-4239-80d7-c2fdad822a6e","ios":"levelo://app?vid=a11e32f4-919b-4239-80d7-c2fdad822a6e"},"vehicle_type_id":"4","last_reported":1746270471,"current_range_meters":23200,"station_id":"ce4bhdp2rcd13ifvqf20","pricing_plan_id":"cebpf4jnsgd1na2vs0mg"},{"bike_id":"228ce56e-0d85-46e5-8c3f-2b4bbd157fd4","system_id":"levelo_inurba_marseille","lat":43.30533,"lon":5.36525,"is_reserved":false,"is_disabled":false,"rental_uris":{"android":"levelo://app?vid=228ce56e-0d85-46e5-8c3f-2b4bbd157fd4","ios":"levelo://app?vid=228ce56e-0d85-46e5-8c3f-2b4bbd157fd4"},"vehicle_type_id":"4","last_reported":1746270471,"current_range_meters":23200,"station_id":"ce4bgs12rcd13ifvqcag","pricing_plan_id":"cebpf4jnsgd1na2vs0mg"},{"bike_id":"2ee18afa-48ba-417e-8c87-9defa66c3c34","system_id":"levelo_inurba_marseille","lat":43.25704,"lon":5.41107,"is_reserved":false,"is_disabled":false,"rental_uris":{"android":"levelo://app?vid=2ee18afa-48ba-417e-8c87-9defa66c3c34","ios":"levelo://app?vid=2ee18afa-48ba-417e-8c87-9defa66c3c34"},"vehicle_type_id":"4","last_reported":1746270471,"current_range_meters":22800,"station_id":"ce4bhkp2rcd13ifvqgd0","pricing_plan_id":"cebpf4jnsgd1na2vs0mg"},{"bike_id":"bf33f461-c847-4c87-b2fa-ed3d51394e0d","system_id":"levelo_inurba_marseille","lat":43.2606,"lon":5.39401,"is_reserved":false,"is_disabled":false,"rental_uris":{"android":"levelo://app?vid=bf33f461-c847-4c87-b2fa-ed3d51394e0d","ios":"levelo://app?vid=bf33f461-c847-4c87-b2fa-ed3d51394e0d"},"vehicle_type_id":"4","last_reported":1746270471,"current_range_meters":24000,"station_id":"ce4bhh92rcd13ifvqfj0","pricing_plan_id":"cebpf4jnsgd1na2vs0mg"},{"bike_id":"b2df909c-8a14-4804-850d-97afc6702dbf","system_id":"levelo_inurba_marseille","lat":43.288387,"lon":5.393031,"is_reserved":false,"is_disabled":false,"rental_uris":{"android":"levelo://app?vid=b2df909c-8a14-4804-850d-97afc6702dbf","ios":"levelo://app?vid=b2df909c-8a14-4804-850d-97afc6702dbf"},"vehicle_type_id":"4","last_reported":1746270471,"current_range_meters":24000,"station_id":"ce4bh2p2rcd13ifvqdi0","pricing_plan_id":"cebpf4jnsgd1na2vs0mg"},