{"last_updated":1733591229,"ttl":60,"version":"2.2","data":{"bikes":[{"bike_id":"315cda4d-54e6-44c6-9a3e-df4c6e9b61b0","system_id":"levelo_inurba_marseille","lat":43.337444,"lon":5.374475,"is_reserved":false,"is_disabled":false,"rental_uris":{"android":"levelo://app?vid=315cda4d-54e6-44c6-9a3e-df4c6e9b61b0","ios":"levelo://app?vid=315cda4d-54e6-44c6-9a3e-df4c6e9b61b0"},"vehicle_type_id":"4","last_reported":1733591229,"current_range_meters":20000,"station_id":"","pricing_plan_id":"cebpf4jnsgd1na2vs0mg"},{"bike_id":"55d7a831-40f8-4501-9bc4-264da11c1dd0","system_id":"levelo_inurba_marseille","lat":43.29265,"lon":5.40123,"is_reserved":false,"is_disabled":true,"rental_uris":{"android":"levelo://app?vid=55d7a831-40f8-4501-9bc4-264da11c1dd0","ios":"levelo://app?vid=55d7a831-40f8-4501-9bc4-264da11c1dd0"},"vehicle_type_id":"4","last_reported":1733591229,"current_range_meters":27200,"station_id":"ce4bh312rcd13ifvqdk0","pricing_plan_id":"cebpf4jnsgd1na2vs0mg"},{"bike_id":"8e029eaf-e104-4c5d-858d-6cd39de73d09","system_id":"levelo_inurba_marseille","lat":43.24162,"lon":5.36414,"is_reserved":false,"is_disabled":false,"rental_uris":{"android":"levelo://app?vid=8e029eaf-e104-4c5d-858d-6cd39de73d09","ios":"levelo://app?vid=8e029eaf-e104-4c5d-858d-6cd39de73d09"},"vehicle_type_id":"4","last_reported":1733591229,"current_range_meters":32400,"station_id":"cpo36qri1sfpv3e86is0","pricing_plan_id":"cebpf4jnsgd1na2vs0mg"},{"bike_id":"38d7b96b-ea49-42ac-9547-ee57fecfb84c","system_id":"levelo_inurba_marseille","lat":43.28152,"lon":5.42637,"is_reserved":false,"is_disabled":false,"rental_uris":{"android":"levelo://app?vid=38d7b96b-ea49-42ac-9547-ee57fecfb84c","ios":"levelo://app?vid=38d7b96b-ea49-42ac-9547-ee57fecfb84c"},"vehicle_type_id":"4","last_reported":1733591229,"current_range_meters":25200,"station_id":"ce4bhnh2rcd13ifvqgug","pricing_plan_id":"cebpf4jnsgd1na2vs0mg"},{"bike_id":"668893f6-20ee-4ac7-b5cd-e783350d6542","system_id":"levelo_inurba_marseille","lat":43.32076,"lon":5.41541,"is_reserved":false,"is_disabled":false,"rental_uris":{"android":"levelo://app?vid=668893f6-20ee-4ac7-b5cd-e783350d6542","ios":"levelo://app?vid=668893f6-20ee-4ac7-b5cd-e783350d6542"},"vehicle_type_id":"4","last_reported":1733591229,"current_range_meters":37600,"station_id":"ce4bhq92rcd13ifvqhkg","pricing_plan_id":"cebpf4jnsgd1na2vs0mg"},{"bike_id":"e232d7ae-0864-4a70-8b5e-627ae37536a1","system_id":"levelo_inurba_marseille","lat":43.28105,"lon":5.37844,"is_reserved":false,"is_disabled":false,"rental_uris":{"android":"levelo://app?vid=e232d7ae-0864-4a70-8b5e-627ae37536a1","ios":"levelo://app?vid=e232d7ae-0864-4a70-8b5e-627ae37536a1"},"vehicle_type_id":"4","last_reported":1733591229,"current_range_meters":38800,"station_id":"ce4bha12rcd13ifvqee0","pricing_plan_id":"cebpf4jnsgd1na2vs0mg"},{"bike_id":"e37f0f48-ff13-4242-bca9-0687552cbad4","system_id":"levelo_inurba_marseille","lat":43.33026,"lon":5.3904,"is_reserved":false,"is_disabled":true,"rental_uris":{"android":"levelo://app?vid=e37f0f48-ff13-4242-bca9-0687552cbad4","ios":"levelo://app?vid=e37f0f48-ff13-4242-bca9-0687552cbad4"},"vehicle_type_id":"4","last_reported":1733591229,"current_range_meters":0,"station_id":"ce4bhr92rcd13ifvqhrg","pricing_plan_id":"cebpf4jnsgd1na2vs0mg"},{"bike_id":"2a4714ce-60ea-4e4b-8d17-db8f48e78980","system_id":"levelo_inurba_marseille","lat":43.32481,"lon":5.36559,"is_reserved":false,"is_disabled":false,"rental_uris":{"android":"levelo://app?vid=2a4714ce-60ea-4e4b-8d17-db8f48e78980","ios":"levelo://app?vid=2a4714ce-60ea-4e4b-8d17-db8f48e78980"},"vehicle_type_id":"4","last_reported":1733591229,"current_range_meters":27600,"station_id":"ce4bhs12rcd13ifvqhvg","pricing_plan_id":"cebpf4jnsgd1na2vs0mg"},{"bike_id":"ef051ea0-0625-422b-911d-a20f8d2febcd","system_id":"levelo_inurba_marseille","lat":43.28709,"lon":5.37375,"is_reserved":false,"is_disabled":false,"rental_uris":{"android":"levelo://app?vid=ef051ea0-0625-422b-911d-a20f8d2febcd","ios":"levelo://app?vid=ef051ea0-0625-422b-911d-a20f8d2febcd"},"vehicle_type_id":"4","last_reported":1733591229,"current_range_meters":29600,"station_id":"ce4bh3p2rcd13ifvqdq0","pricing_plan_id":"cebpf4jnsgd1na2vs0mg"},{"bike_id":"5fd8fda4-5ceb-4e39-b9f4-ea27acda2ce7","system_id":"levelo_inurba_marseille","lat":43.27186,"lon":5.40994,"is_reserved":false,"is_disabled":true,"rental_uris":{"android":"levelo://app?vid=5fd8fda4-5ceb-4e39-b9f4-ea27acda2ce7","ios":"levelo://app?vid=5fd8fda4-5ceb-4e39-b9f4-ea27acda2ce7"},"vehicle_type_id":"4","last_reported":1733591229,"current_range_meters":22000,"station_id":"ce4bhl12rcd13ifvqgf0","pricing_plan_id":"cebpf4jnsgd1na2vs0mg"},{"bike_id":"8bd642b2-0279-44c7-9ee2-fc3b57332c83","system_id":"levelo_inurba_marseille","lat":43.27455,"lon":5.40073,"is_reserved":false,"is_disabled":true,"rental_uris":{"android":"levelo://app?vid=8bd642b2-0279-44c7-9ee2-fc3b57332c83","ios":"levelo://app?vid=8bd642b2-0279-44c7-9ee2-fc3b57332c83"},"vehicle_type_id":"4","last_reported":1733591229,"current_range_meters":0,"station_id":"","pricing_plan_id":"cebpf4jnsgd1na2vs0mg"},{"bike_id":"8cdb82ff-b4db-4fbf-9401-7a64ef59e116","system_id":"levelo_inurba_marseille","lat":43.30653,"lon":5.40091,"is_reserved":false,"is_disabled":false,"rental_uris":{"android":"levelo://app?vid=8cdb82ff-b4db-4fbf-9401-7a64ef59e116","ios":"levelo://app?vid=8cdb82ff-b4db-4fbf-9401-7a64ef59e116"},"vehicle_type_id":"4","last_reported":1733591229,"current_range_meters":16000,"station_id":"ce4bh112rcd13ifvqda0","pricing_plan_id":"cebpf4jnsgd1na2vs0mg"},{"bike_id":"2c4d449d-ca82-480b-857a-739828301bbb","system_id":"levelo_inurba_marseille","lat":43.31325,"lon":5.39694,"is_reserved":false,"is_disabled":false,"rental_uris":{"android":"levelo://app?vid=2c4d449d-ca82-480b-857a-739828301bbb","ios":"levelo://app?vid=2c4d449d-ca82-480b-857a-739828301bbb"},"vehicle_type_id":"4","last_reported":1733591229,"current_range_meters":33200,"station_id":"ce4bgvp2rcd13ifvqcu0","pricing_plan_id":"cebpf4jnsgd1na2vs0mg"},{"bike_id":"d83d9dc7-ce4c-43e2-8c7d-eeda83c183ce","system_id":"levelo_inurba_marseille","lat":43.26055,"lon":5.39398,"is_reserved":false,"is_disabled":false,"rental_uris":{"android":"levelo://app?vid=d83d9dc7-ce4c-43e2-8c7d-eeda83c183ce","ios":"levelo://app?vid=d83d9dc7-ce4c-43e2-8c7d-eeda83c183ce"},"vehicle_type_id":"4","last_reported":1733591229,"current_range_meters":38800,"station_id":"ce4bhh92rcd13ifvqfj0","pricing_plan_id":"cebpf4jnsgd1na2vs0mg"},{"bike_id":"31324439-2947-4f2c-b0b9-d673512cc222","system_id":"levelo_inurba_marseille","lat":43.29901,"lon":5.3814,"is_reserved":false,"is_disabled":false,"rental_uris":{"android":"levelo://app?vid=31324439-2947-4f2c-b0b9-d673512cc222","ios":"levelo://app?vid=31324439-2947-4f2c-b0b9-d673512cc222"},"vehicle_type_id":"4","last_reported":1733591229,"current_range_meters":10800,"station_id":"ce4bgj12rcd13ifvqbc0","pricing_plan_id":"cebpf4jnsgd1na2vs0mg"},{"bike_id":"ae17b023-e6c1-406c-9522-f29d3051639d","system_id":"levelo_inurba_marseille","lat":43.27832,"lon":5.40711,"is_reserved":false,"is_disabled":false,"rental_uris":{"android":"levelo://app?vid=ae17b023-e6c1-406c-9522-f29d3051639d","ios":"levelo://app?vid=ae17b023-e6c1-406c-9522-f29d3051639d"},"vehicle_type_id":"4","last_reported":1733591229,"current_range_meters":38400,"station_id":"ce4bhnh2rcd13ifvqgtg","pricing_plan_id":"cebpf4jnsgd1na2vs0mg"},{"bike_id":"650aedbd-7fe9-41b2-ab79-4b8450652642","system_id":"levelo_inurba_marseille","lat":43.29197,"lon":5.35794,"is_reserved":false,"is_disabled":true,"rental_uris":{"android":"levelo://app?vid=650aedbd-7fe9-41b2-ab79-4b8450652642","ios":"levelo://app?vid=650aedbd-7fe9-41b2-ab79-4b8450652642"},"vehicle_type_id":"4","last_reported":1733591229,"current_range_meters":38800,"station_id":"ce4bhb12rcd13ifvqel0","pricing_plan_id":"cebpf4jnsgd1na2vs0mg"},{"bike_id":"479889bf-dbf3-4abb-926f-bf7556951acc","system_id":"levelo_inurba_marseille","lat":43.29895,"lon":5.43665,"is_reserved":false,"is_disabled":false,"rental_uris":{"android":"levelo://app?vid=479889bf-dbf3-4abb-926f-bf7556951acc","ios":"levelo://app?vid=479889bf-dbf3-4abb-926f-bf7556951acc"},"vehicle_type_id":"4","last_reported":1733591229,"current_range_meters":6400,"station_id":"ce4bhpp2rcd13ifvqhfg","pricing_plan_id":"cebpf4jnsgd1na2vs0mg"},{"bike_id":"3000a861-0903-41f2-bb5d-48554b17ed5a","system_id":"levelo_inurba_marseille","lat":43.337444,"lon":5.374475,"is_reserved":false,"is_disabled":false,"rental_uris":{"android":"levelo://app?vid=3000a861-0903-41f2-bb5d-48554b17ed5a","ios":"levelo://app?vid=3000a861-0903-41f2-bb5d-48554b17ed5a"},"vehicle_type_id":"4","last_reported":1733591229,"current_range_meters":32000,"station_id":"","pricing_plan_id":"cebpf4jnsgd1na2vs0mg"},{"bike_id":"fdc62a63-5355-4bd1-a06c-e6106eb23903","system_id":"levelo_inurba_marseille","lat":43.23958,"lon":5.36634,"is_reserved":false,"is_disabled":false,"rental_uris":{"android":"levelo://app?vid=fdc62a63-5355-4bd1-a06c-e6106eb23903","ios":"levelo://app?vid=fdc62a63-5355-4bd1-a06c-e6106eb23903"},"vehicle_type_id":"4","last_reported":1733591229,"current_range_meters":38800,"station_id":"ce4bhi12rcd13ifvqfp0","pricing_plan_id":"cebpf4jnsgd1na2vs0mg"},{"bike_id":"95cfddd6-1f3c-4fd2-9652-931f20cf06bd","system_id":"levelo_inurba_marseille","lat":43.25573,"lon":5.38236,"is_reserved":false,"is_disabled":false,"rental_uris":{"android":"levelo://app?vid=95cfddd6-1f3c-4fd2-9652-931f20cf06bd","ios":"levelo://app?vid=95cfddd6-1f3c-4fd2-9652-931f20cf06bd"},"vehicle_type_id":"4","last_reported":1733591229,"current_range_meters":28400,"station_id":"ce4bhih2rcd13ifvqfs0","pricing_plan_id":"cebpf4jnsgd1na2vs0mg"},{"bike_id":"89ceac00-2c22-4cb1-b85d-583fccdb788b","system_id":"levelo_inurba_marseille","lat":43.321041,"lon":5.367715,"is_reserved":false,"is_disabled":false,"rental_uris":{"android":"levelo://app?vid=89ceac00-2c22-4cb1-b85d-583fccdb788b","ios":"levelo://app?vid=89ceac00-2c22-4cb1-b85d-583fccdb788b"},"vehicle_type_id":"4","last_reported":1733591229,"current_range_meters":17200,"station_id":"ce4bhrh2rcd13ifvqhug","pricing_plan_id":"cebpf4jnsgd1na2vs0mg"},{"bike_id":"afbaf339-3dd7-42bc-bd79-972bb7152799","system_id":"levelo_inurba_marseille","lat":43.29805,"lon":5.38088,"is_reserved":false,"is_disabled":false,"rental_uris":{"android":"levelo://app?vid=afbaf339-3dd7-42bc-bd79-972bb7152799","ios":"levelo://app?vid=afbaf339-3dd7-42bc-bd79-972bb7152799"},"vehicle_type_id":"4","last_reported":1733591229,"current_range_meters":35200,"station_id":"ce4bgip2rcd13ifvqbb0","pricing_plan_id":"cebpf4jnsgd1na2vs0mg"},{"bike_id":"09e6d737-1bb7-4287-a42f-cecd479a7d2b","system_id":"levelo_inurba_marseille","lat":43.29877,"lon":5.39731,"is_reserved":false,"is_disabled":false,"rental_uris":{"android":"levelo://app?vid=09e6d737-1bb7-4287-a42f-cecd479a7d2b","ios":"levelo://app?vid=09e6d737-1bb7-4287-a42f-cecd479a7d2b"},"vehicle_type_id":"4","last_reported":1733591229,"current_range_meters":32000,"station_id":"ce4bh0h2rcd13ifvqd50","pricing_plan_id":"cebpf4jnsgd1na2vs0mg"},{"bike_id":"643df71d-402d-4260-944e-76ac78237ed0","system_id":"levelo_inurba_marseille","lat":43.28159,"lon":5.42649,"is_reserved":false,"is_disabled":false,"rental_uris":{"android":"levelo://app?vid=643df71d-402d-4260-944e-76ac78237ed0","ios":"levelo://app?vid=643df71d-402d-4260-944e-76ac78237ed0"},"vehicle_type_id":"4","last_reported":1733591229,"current_range_meters":11200,"station_id":"ce4bhnh2rcd13ifvqgug","pricing_plan_id":"cebpf4jnsgd1na2vs0mg"},{"bike_id":"e6ef4c64-4c4c-48fa-a061-246db244ae4c","system_id":"levelo_inurba_marseille","lat":43.25587,"lon":5.38241,"is_reserved":false,"is_disabled":false,"rental_uris":{"android":"levelo://app?vid=e6ef4c64-4c4c-48fa-a061-246db244ae4c","ios":"levelo://app?vid=e6ef4c64-4c4c-48fa-a061-246db244ae4c"},"vehicle_type_id":"4","last_reported":1733591229,"current_range_meters":25200,"station_id":"ce4bhih2rcd13ifvqfs0","pricing_plan_id":"cebpf4jnsgd1na2vs0mg"},{"bike_id":"2b247ce2-f875-40e9-bf2a-461f41bc9f8c","system_id":"levelo_inurba_marseille","lat":43.2481,"lon":5.37464,"is_reserved":false,"is_disabled":true,"rental_uris":{"android":"levelo://app?vid=2b247ce2-f875-40e9-bf2a-461f41bc9f8c","ios":"levelo://app?vid=2b247ce2-f875-40e9-bf2a-461f41bc9f8c"},"vehicle_type_id":"4","last_reported":1733591229,"current_range_meters":4000,"station_id":"ce4bhgh2rcd13ifvqfb0","pricing_plan_id":"cebpf4jnsgd1na2vs0mg"},{"bike_id":"938640b4-f78c-4def-9b16-e6205edb88bc","system_id":"levelo_inurba_marseille","lat":43.28153,"lon":5.42633,"is_reserved":false,"is_disabled":true,"rental_uris":{"android":"levelo://app?vid=938640b4-f78c-4def-9b16-e6205edb88bc","ios":"levelo://app?vid=938640b4-f78c-4def-9b16-e6205edb88bc"},"vehicle_type_id":"4","last_reported":1733591229,"current_range_meters":14400,"station_id":"ce4bhnh2rcd13ifvqgug","pricing_plan_id":"cebpf4jnsgd1na2vs0mg"},{"bike_id":"cc65be90-1761-4b34-b970-1e6ec15f2569","system_id":"levelo_inurba_marseille","lat":43.29793,"lon":5.38093,"is_reserved":false,"is_disabled":false,"rental_uris":{"android":"levelo://app?vid=cc65be90-1761-4b34-b970-1e6ec15f2569","ios":"levelo://app?vid=cc65be90-1761-4b34-b970-1e6ec15f2569"},"vehicle_type_id":"4","last_reported":1733591229,"current_range_meters":6400,"station_id":"ce4bgip2rcd13ifvqbb0","pricing_plan_id":"cebpf4jnsgd1na2vs0mg"},{"bike_id":"ec6014fa-ff1e-46c8-9c2d-91acdc5002e5","system_id":"levelo_inurba_marseille","lat":43.30607,"lon":5.37232,"is_reserved":false,"is_disabled":false,"rental_uris":{"android":"levelo://app?vid=ec6014fa-ff1e-46c8-9c2d-91acdc5002e5","ios":"levelo://app?vid=ec6014fa-ff1e-46c8-9c2d-91acdc5002e5"},"vehicle_type_id":"4","last_reported":1733591229,"current_range_meters":36800,"station_id":"ce4bgqh2rcd13ifvqc4g","pricing_plan_id":"cebpf4jnsgd1na2vs0mg"},{"bike_id":"456c6caf-37f6-49ed-a81d-8942c14426a1","system_id":"levelo_inurba_marseille","lat":43.31483,"lon":5.37167,"is_reserved":false,"is_disabled":true,"rental_uris":{"android":"levelo://app?vid=456c6caf-37f6-49ed-a81d-8942c14426a1","ios":"levelo://app?vid=456c6caf-37f6-49ed-a81d-8942c14426a1"},"vehicle_type_id":"4","last_reported":1733591229,"current_range_meters":24000,"station_id":"","pricing_plan_id":"cebpf4jnsgd1na2vs0mg"},{"bike_id":"2f3968e7-9336-4ee4-ba78-8e92c0a818cc","system_id":"levelo_inurba_marseille","lat":43.31322,"lon":5.36647,"is_reserved":false,"is_disabled":true,"rental_uris":{"android":"levelo://app?vid=2f3968e7-9336-4ee4-ba78-8e92c0a818cc","ios":"levelo://app?vid=2f3968e7-9336-4ee4-ba78-8e92c0a818cc"},"vehicle_type_id":"4","last_reported":1733591229,"current_range_meters":0,"station_id":"","pricing_plan_id":"cebpf4jnsgd1na2vs0mg"},{"bike_id":"5ebc19a5-4eab-4ea6-b558-b6d986ab3c2e","system_id":"levelo_inurba_marseille","lat":43.2465,"lon":5.38897,"is_reserved":false,"is_disabled":false,"rental_uris":{"android":"levelo://app?vid=5ebc19a5-4eab-4ea6-b558-b6d986ab3c2e","ios":"levelo://app?vid=5ebc19a5-4eab-4ea6-b558-b6d986ab3c2e"},"vehicle_type_id":"4","last_reported":1733591229,"current_range_meters":38800,"station_id":"ce4bhg12rcd13ifvqf60","pricing_plan_id":"cebpf4jnsgd1na2vs0mg"},{"bike_id":"5ce09d29-e4d7-4268-90f8-15502177219e","system_id":"levelo_inurba_marseille","lat":43.24546,"lon":5.39525,"is_reserved":false,"is_disabled":false,"rental_uris":{"android":"levelo://app?vid=5ce09d29-e4d7-4268-90f8-15502177219e","ios":"levelo://app?vid=5ce09d29-e4d7-4268-90f8-15502177219e"},"vehicle_type_id":"4","last_reported":1733591229,"current_range_meters":38000,"station_id":"ce4bhlp2rcd13ifvqgjg","pricing_plan_id":"cebpf4jnsgd1na2vs0mg"},{"bike_id":"5f7e2efc-36fb-4645-82f2-47717e8c8bf4","system_id":"levelo_inurba_marseille","lat":43.27055,"lon":5.40261,"is_reserved":false,"is_disabled":false,"rental_uris":{"android":"levelo://app?vid=5f7e2efc-36fb-4645-82f2-47717e8c8bf4","ios":"levelo://app?vid=5f7e2efc-36fb-4645-82f2-47717e8c8bf4"},"vehicle_type_id":"4","last_reported":1733591229,"current_range_meters":9600,"station_id":"ce4bhk92rcd13ifvqgc0","pricing_plan_id":"cebpf4jnsgd1na2vs0mg"},{"bike_id":"3ba2ee36-2b31-4bc9-b8c0-c8096e25c27c","system_id":"levelo_inurba_marseille","lat":43.29899,"lon":5.43674,"is_reserved":false,"is_disabled":false,"rental_uris":{"android":"levelo://app?vid=3ba2ee36-2b31-4bc9-b8c0-c8096e25c27c","ios":"levelo://app?vid=3ba2ee36-2b31-4bc9-b8c0-c8096e25c27c"},"vehicle_type_id":"4","last_reported":1733591229,"current_range_meters":30000,"station_id":"ce4bhpp2rcd13ifvqhfg","pricing_plan_id":"cebpf4jnsgd1na2vs0mg"},{"bike_id":"e09e2b68-1351-4550-ba2f-8667224ed6b6","system_id":"levelo_inurba_marseille","lat":43.28097,"lon":5.37852,"is_reserved":false,"is_disabled":false,"rental_uris":{"android":"levelo://app?vid=e09e2b68-1351-4550-ba2f-8667224ed6b6","ios":"levelo://app?vid=e09e2b68-1351-4550-ba2f-8667224ed6b6"},"vehicle_type_id":"4","last_reported":1733591229,"current_range_meters":38800,"station_id":"ce4bha12rcd13ifvqee0","pricing_plan_id":"cebpf4jnsgd1na2vs0mg"},{"bike_id":"f4e45fe2-593e-4aec-ac39-ccabede5690b","system_id":"levelo_inurba_marseille","lat":43.30222,"lon":5.39471,"is_reserved":false,"is_disabled":false,"rental_uris":{"android":"levelo://app?vid=f4e45fe2-593e-4aec-ac39-ccabede5690b","ios":"levelo://app?vid=f4e45fe2-593e-4aec-ac39-ccabede5690b"},"vehicle_type_id":"4","last_reported":1733591229,"current_range_meters":39200,"station_id":"ce4bh0p2rcd13ifvqd70","pricing_plan_id":"cebpf4jnsgd1na2vs0mg"},{"bike_id":"7736d0dc-1989-4505-a61b-7fdb0a6489c6","system_id":"levelo_inurba_marseille","lat":43.32374,"lon":5.38913,"is_reserved":false,"is_disabled":false,"rental_uris":{"android":"levelo://app?vid=7736d0dc-1989-4505-a61b-7fdb0a6489c6","ios":"levelo://app?vid=7736d0dc-1989-4505-a61b-7fdb0a6489c6"},"vehicle_type_id":"4","last_reported":1733591229,"current_range_meters":6000,"station_id":"ce4bhqp2rcd13ifvqhog","pricing_plan_id":"cebpf4jnsgd1na2vs0mg"},{"bike_id":"0e77377b-ad1b-4799-934c-61d5e9b174fd","system_id":"levelo_inurba_marseille","lat":43.29782,"lon":5.38122,"is_reserved":false,"is_disabled":true,"rental_uris":{"android":"levelo://app?vid=0e77377b-ad1b-4799-934c-61d5e9b174fd","ios":"levelo://app?vid=0e77377b-ad1b-4799-934c-61d5e9b174fd"},"vehicle_type_id":"4","last_reported":1733591229,"current_range_meters":400,"station_id":"ce4bgip2rcd13ifvqbb0","pricing_plan_id":"cebpf4jnsgd1na2vs0mg"},{"bike_id":"6583aefc-6815-4bd5-8f5c-a9c5d794f47e","system_id":"levelo_inurba_marseille","lat":43.36498,"lon":5.34272,"is_reserved":false,"is_disabled":false,"rental_uris":{"android":"levelo://app?vid=6583aefc-6815-4bd5-8f5c-a9c5d794f47e","ios":"levelo://app?vid=6583aefc-6815-4bd5-8f5c-a9c5d794f47e"},"vehicle_type_id":"4","last_reported":1733591229,"current_range_meters":25600,"station_id":"","pricing_plan_id":"cebpf4jnsgd1na2vs0mg"},{"bike_id":"e8e19927-22bc-4543-ac7c-29428d0d04d8","system_id":"levelo_inurba_marseille","lat":43.27323,"lon":5.39101,"is_reserved":false,"is_disabled":false,"rental_uris":{"android":"levelo://app?vid=e8e19927-22bc-4543-ac7c-29428d0d04d8","ios":"levelo://app?vid=e8e19927-22bc-4543-ac7c-29428d0d04d8"},"vehicle_type_id":"4","last_reported":1733591229,"current_range_meters":22400,"station_id":"ce4bhgp2rcd13ifvqfe0","pricing_plan_id":"cebpf4jnsgd1na2vs0mg"},{"bike_id":"18c465ad-16a0-4d72-a337-11a15929aab8","system_id":"levelo_inurba_marseille","lat":43.23973,"lon":5.36612,"is_reserved":false,"is_disabled":false,"rental_uris":{"android":"levelo://app?vid=18c465ad-16a0-4d72-a337-11a15929aab8","ios":"levelo://app?vid=18c465ad-16a0-4d72-a337-11a15929aab8"},"vehicle_type_id":"4","last_reported":1733591229,"current_range_meters":6000,"station_id":"ce4bhi12rcd13ifvqfp0","pricing_plan_id":"cebpf4jnsgd1na2vs0mg"},{"bike_id":"d24ba112-fd35-4be4-adc0-0664a6e3ad7b","system_id":"levelo_inurba_marseille","lat":43.2465,"lon":5.38899,"is_reserved":false,"is_disabled":false,"rental_uris":{"android":"levelo://app?vid=d24ba112-fd35-4be4-adc0-0664a6e3ad7b","ios":"levelo://app?vid=d24ba112-fd35-4be4-adc0-0664a6e3ad7b"},"vehicle_type_id":"4","last_reported":1733591229,"current_range_meters":38800,"station_id":"ce4bhg12rcd13ifvqf60","pricing_plan_id":"cebpf4jnsgd1na2vs0mg"},{"bike_id":"f825a6e3-d202-4ddc-917b-5da49c4114c4","system_id":"levelo_inurba_marseille","lat":43.231906,"lon":5.355493,"is_reserved":false,"is_disabled":false,"rental_uris":{"android":"levelo://app?vid=f825a6e3-d202-4ddc-917b-5da49c4114c4","ios":"levelo://app?vid=f825a6e3-d202-4ddc-917b-5da49c4114c4"},"vehicle_type_id":"4","last_reported":1733591229,"current_range_meters":8800,"station_id":"ce4bhu92rcd13ifvqi70","pricing_plan_id":"cebpf4jnsgd1na2vs0mg"},{"bike_id":"468d023e-e483-49f2-92d7-7b95c7b3c650","system_id":"levelo_inurba_marseille","lat":43.29902,"lon":5.4367,"is_reserved":false,"is_disabled":false,"rental_uris":{"android":"levelo://app?vid=468d023e-e483-49f2-92d7-7b95c7b3c650","ios":"levelo://app?vid=468d023e-e483-49f2-92d7-7b95c7b3c650"},"vehicle_type_id":"4","last_reported":1733591229,"current_range_meters":12000,"station_id":"ce4bhpp2rcd13ifvqhfg","pricing_plan_id":"cebpf4jnsgd1na2vs0mg"},{"bike_id":"6c865ff9-a83a-44bc-a8c3-c667ea3600f5","system_id":"levelo_inurba_marseille","lat":43.26565,"lon":5.39038,"is_reserved":false,"is_disabled":false,"rental_uris":{"android":"levelo://app?vid=6c865ff9-a83a-44bc-a8c3-c667ea3600f5","ios":"levelo://app?vid=6c865ff9-a83a-44bc-a8c3-c667ea3600f5"},"vehicle_type_id":"4","last_reported":1733591229,"current_range_meters":22800,"station_id":"ce4bhe12rcd13ifvqf30","pricing_plan_id":"cebpf4jnsgd1na2vs0mg"},{"bike_id":"95549e99-3d14-4048-a51a-7392522446dc","system_id":"levelo_inurba_marseille","lat":43.23194,"lon":5.35559,"is_reserved":false,"is_disabled":false,"rental_uris":{"android":"levelo://app?vid=95549e99-3d14-4048-a51a-7392522446dc","ios":"levelo://app?vid=95549e99-3d14-4048-a51a-7392522446dc"},"vehicle_type_id":"4","last_reported":1733591229,"current_range_meters":31200,"station_id":"ce4bhu92rcd13ifvqi70","pricing_plan_id":"cebpf4jnsgd1na2vs0mg"},{"bike_id":"e5269f86-c148-4c85-a4fd-7aab409167e3","system_id":"levelo_inurba_marseille","lat":43.2606,"lon":5.39402,"is_reserved":false,"is_disabled":true,"rental_uris":{"android":"levelo://app?vid=e5269f86-c148-4c85-a4fd-7aab409167e3","ios":"levelo://app?vid=e5269f86-c148-4c85-a4fd-7aab409167e3"},"vehicle_type_id":"4","last_reported":1733591229,"current_range_meters":800,"station_id":"ce4bhh92rcd13ifvqfj0","pricing_plan_id":"cebpf4jnsgd1na2vs0mg"},{"bike_id":"f10c5e90-601b-4bd4-87e7-4cbb6a13a4fb","system_id":"levelo_inurba_marseille","lat":43.26123,"lon":5.39268,"is_reserved":false,"is_disabled":true,"rental_uris":{"android":"levelo://app?vid=f10c5e90-601b-4bd4-87e7-4cbb6a13a4fb","ios":"levelo://app?vid=f10c5e90-601b-4bd4-87e7-4cbb6a13a4fb"},"vehicle_type_id":"4","last_reported":1733591229,"current_range_meters":0,"station_id":"","pricing_plan_id":"cebpf4jnsgd1na2vs0mg"},{"bike_id":"b1a023a8-bfe2-4a8e-8aaa-4e18b6da929e","system_id":"levelo_inurba_marseille","lat":43.29421,"lon":5.38617,"is_reserved":false,"is_disabled":true,"rental_uris":{"android":"levelo://app?vid=b1a023a8-bfe2-4a8e-8aaa-4e18b6da929e","ios":"levelo://app?vid=b1a023a8-bfe2-4a8e-8aaa-4e18b6da929e"},"vehicle_type_id":"4","last_reported":1733591229,"current_range_meters":7200,"station_id":"ce4bh2h2rcd13ifvqdh0","pricing_plan_id":"cebpf4jnsgd1na2vs0mg"},{"bike_id":"e4d57266-31b0-41da-b13a-4a9cbdfb494b","system_id":"levelo_inurba_marseille","lat":43.2511,"lon":5.4032,"is_reserved":false,"is_disabled":false,"rental_uris":{"android":"levelo://app?vid=e4d57266-31b0-41da-b13a-4a9cbdfb494b","ios":"levelo://app?vid=e4d57266-31b0-41da-b13a-4a9cbdfb494b"},"vehicle_type_id":"4","last_reported":1733591229,"current_range_meters":34800,"station_id":"ce4bhlh2rcd13ifvqgig","pricing_plan_id":"cebpf4jnsgd1na2vs0mg"},{"bike_id":"fa6b9ff5-d86b-48f5-ba01-cd12949685db","system_id":"levelo_inurba_marseille","lat":43.29173,"lon":5.37167,"is_reserved":false,"is_disabled":false,"rental_uris":{"android":"levelo://app?vid=fa6b9ff5-d86b-48f5-ba01-cd12949685db","ios":"levelo://app?vid=fa6b9ff5-d86b-48f5-ba01-cd12949685db"},"vehicle_type_id":"4","last_reported":1733591229,"current_range_meters":38800,"station_id":"ce4bha92rcd13ifvqeh0","pricing_plan_id":"cebpf4jnsgd1na2vs0mg"},{"bike_id":"64a281a1-2b94-42d7-98f5-fb10c9a8a450","system_id":"levelo_inurba_marseille","lat":43.27209,"lon":5.39188,"is_reserved":false,"is_disabled":false,"rental_uris":{"android":"levelo://app?vid=64a281a1-2b94-42d7-98f5-fb10c9a8a450","ios":"levelo://app?vid=64a281a1-2b94-42d7-98f5-fb10c9a8a450"},"vehicle_type_id":"4","last_reported":1733591229,"current_range_meters":12000,"station_id":"ce4bhhp2rcd13ifvqfm0","pricing_plan_id":"cebpf4jnsgd1na2vs0mg"},{"bike_id":"95414d5c-6629-4e8c-8b6c-ad295613082f","system_id":"levelo_inurba_marseille","lat":43.30549,"lon":5.36552,"is_reserved":false,"is_disabled":true,"rental_uris":{"android":"levelo://app?vid=95414d5c-6629-4e8c-8b6c-ad295613082f","ios":"levelo://app?vid=95414d5c-6629-4e8c-8b6c-ad295613082f"},"vehicle_type_id":"4","last_reported":1733591229,"current_range_meters":0,"station_id":"ce4bgs12rcd13ifvqcag","pricing_plan_id":"cebpf4jnsgd1na2vs0mg"},{"bike_id":"45dcd923-4876-42e7-960a-878f303ebd33","system_id":"levelo_inurba_marseille","lat":43.32034,"lon":5.41568,"is_reserved":false,"is_disabled":false,"rental_uris":{"android":"levelo://app?vid=45dcd923-4876-42e7-960a-878f303ebd33","ios":"levelo://app?vid=45dcd923-4876-42e7-960a-878f303ebd33"},"vehicle_type_id":"4","last_reported":1733591229,"current_range_meters":35600,"station_id":"ce4bhq92rcd13ifvqhkg","pricing_plan_id":"cebpf4jnsgd1na2vs0mg"},{"bike_id":"f52a5bb6-d589-4cb0-94f0-eac199e1ee39","system_id":"levelo_inurba_marseille","lat":43.29087,"lon":5.3814,"is_reserved":false,"is_disabled":false,"rental_uris":{"android":"levelo://app?vid=f52a5bb6-d589-4cb0-94f0-eac199e1ee39","ios":"levelo://app?vid=f52a5bb6-d589-4cb0-94f0-eac199e1ee39"},"vehicle_type_id":"4","last_reported":1733591229,"current_range_meters":8000,"station_id":"ce4bh512rcd13ifvqe2g","pricing_plan_id":"cebpf4jnsgd1na2vs0mg"},{"bike_id":"f90f11ed-9729-4e45-8432-d32fecf1b6aa","system_id":"levelo_inurba_marseille","lat":43.23969,"lon":5.36628,"is_reserved":false,"is_disabled":false,"rental_uris":{"android":"levelo://app?vid=f90f11ed-9729-4e45-8432-d32fecf1b6aa","ios":"levelo://app?vid=f90f11ed-9729-4e45-8432-d32fecf1b6aa"},"vehicle_type_id":"4","last_reported":1733591229,"current_range_meters":27200,"station_id":"ce4bhi12rcd13ifvqfp0","pricing_plan_id":"cebpf4jnsgd1na2vs0mg"},{"bike_id":"c4ec8119-eb95-43a2-be43-70f69683f2ad","system_id":"levelo_inurba_marseille","lat":43.28164,"lon":5.42637,"is_reserved":false,"is_disabled":false,"rental_uris":{"android":"levelo://app?vid=c4ec8119-eb95-43a2-be43-70f69683f2ad","ios":"levelo://app?vid=c4ec8119-eb95-43a2-be43-70f69683f2ad"},"vehicle_type_id":"4","last_reported":1733591229,"current_range_meters":15200,"station_id":"ce4bhnh2rcd13ifvqgug","pricing_plan_id":"cebpf4jnsgd1na2vs0mg"},{"bike_id":"b6e7bce6-a42e-46ce-bc47-4cce5ec4ead4","system_id":"levelo_inurba_marseille","lat":43.28418,"lon":5.34992,"is_reserved":false,"is_disabled":false,"rental_uris":{"android":"levelo://app?vid=b6e7bce6-a42e-46ce-bc47-4cce5ec4ead4","ios":"levelo://app?vid=b6e7bce6-a42e-46ce-bc47-4cce5ec4ead4"},"vehicle_type_id":"4","last_reported":1733591229,"current_range_meters":38800,"station_id":"ce4bhbh2rcd13ifvqepg","pricing_plan_id":"cebpf4jnsgd1na2vs0mg"},{"bike_id":"9d451a8e-209b-4457-be82-a735ebde58f2","system_id":"levelo_inurba_marseille","lat":43.29735,"lon":5.37712,"is_reserved":false,"is_disabled":false,"rental_uris":{"android":"levelo://app?vid=9d451a8e-209b-4457-be82-a735ebde58f2","ios":"levelo://app?vid=9d451a8e-209b-4457-be82-a735ebde58f2"},"vehicle_type_id":"4","last_reported":1733591229,"current_range_meters":38800,"station_id":"ce4bgkh2rcd13ifvqbl0","pricing_plan_id":"cebpf4jnsgd1na2vs0mg"},{"bike_id":"2a022814-f741-4adf-a235-83d4941bf5e2","system_id":"levelo_inurba_marseille","lat":43.28427,"lon":5.34994,"is_reserved":false,"is_disabled":false,"rental_uris":{"android":"levelo://app?vid=2a022814-f741-4adf-a235-83d4941bf5e2","ios":"levelo://app?vid=2a022814-f741-4adf-a235-83d4941bf5e2"},"vehicle_type_id":"4","last_reported":1733591229,"current_range_meters":17200,"station_id":"ce4bhbh2rcd13ifvqepg","pricing_plan_id":"cebpf4jnsgd1na2vs0mg"},{"bike_id":"5a3fa8ce-16f1-43df-9ddf-fed5c8e7e8f5","system_id":"levelo_inurba_marseille","lat":43.2827,"lon":5.35062,"is_reserved":false,"is_disabled":false,"rental_uris":{"android":"levelo://app?vid=5a3fa8ce-16f1-43df-9ddf-fed5c8e7e8f5","ios":"levelo://app?vid=5a3fa8ce-16f1-43df-9ddf-fed5c8e7e8f5"},"vehicle_type_id":"4","last_reported":1733591229,"current_range_meters":38800,"station_id":"ce4bhbp2rcd13ifvqerg","pricing_plan_id":"cebpf4jnsgd1na2vs0mg"},{"bike_id":"abef6c0e-5e54-4a36-8558-8d867a48e42c","system_id":"levelo_inurba_marseille","lat":43.3021,"lon":5.3948,"is_reserved":false,"is_disabled":false,"rental_uris":{"android":"levelo://app?vid=abef6c0e-5e54-4a36-8558-8d867a48e42c","ios":"levelo://app?vid=abef6c0e-5e54-4a36-8558-8d867a48e42c"},"vehicle_type_id":"4","last_reported":1733591229,"current_range_meters":36800,"station_id":"ce4bh0p2rcd13ifvqd70","pricing_plan_id":"cebpf4jnsgd1na2vs0mg"},{"bike_id":"15be4ba1-8bd4-4d69-aa00-92bf599d50b8","system_id":"levelo_inurba_marseille","lat":43.29724,"lon":5.37695,"is_reserved":false,"is_disabled":false,"rental_uris":{"android":"levelo://app?vid=15be4ba1-8bd4-4d69-aa00-92bf599d50b8","ios":"levelo://app?vid=15be4ba1-8bd4-4d69-aa00-92bf599d50b8"},"vehicle_type_id":"4","last_reported":1733591229,"current_range_meters":38800,"station_id":"ce4bgkh2rcd13ifvqbl0","pricing_plan_id":"cebpf4jnsgd1na2vs0mg"},{"bike_id":"987a5ab4-d60c-480c-94b6-7cab38975402","system_id":"levelo_inurba_marseille","lat":43.29748,"lon":5.37971,"is_reserved":false,"is_disabled":true,"rental_uris":{"android":"levelo://app?vid=987a5ab4-d60c-480c-94b6-7cab38975402","ios":"levelo://app?vid=987a5ab4-d60c-480c-94b6-7cab38975402"},"vehicle_type_id":"4","last_reported":1733591229,"current_range_meters":0,"station_id":"","pricing_plan_id":"cebpf4jnsgd1na2vs0mg"},{"bike_id":"24bea064-3632-40a7-9f16-328f96fcfbb1","system_id":"levelo_inurba_marseille","lat":43.29565,"lon":5.37525,"is_reserved":false,"is_disabled":false,"rental_uris":{"android":"levelo://app?vid=24bea064-3632-40a7-9f16-328f96fcfbb1","ios":"levelo://app?vid=24bea064-3632-40a7-9f16-328f96fcfbb1"},"vehicle_type_id":"4","last_reported":1733591229,"current_range_meters":16400,"station_id":"ce4bgh92rcd13ifvqb50","pricing_plan_id":"cebpf4jnsgd1na2vs0mg"},{"bike_id":"a9e484aa-ea74-4814-8d1c-88ba940bcf5f","system_id":"levelo_inurba_marseille","lat":43.31074,"lon":5.38363,"is_reserved":false,"is_disabled":false,"rental_uris":{"android":"levelo://app?vid=a9e484aa-ea74-4814-8d1c-88ba940bcf5f","ios":"levelo://app?vid=a9e484aa-ea74-4814-8d1c-88ba940bcf5f"},"vehicle_type_id":"4","last_reported":1733591229,"current_range_meters":6800,"station_id":"ce4bgv92rcd13ifvqcr0","pricing_plan_id":"cebpf4jnsgd1na2vs0mg"},{"bike_id":"dd4d8f16-8b33-4354-8e35-4b1ba2ae6089","system_id":"levelo_inurba_marseille","lat":43.25726,"lon":5.4111,"is_reserved":false,"is_disabled":true,"rental_uris":{"android":"levelo://app?vid=dd4d8f16-8b33-4354-8e35-4b1ba2ae6089","ios":"levelo://app?vid=dd4d8f16-8b33-4354-8e35-4b1ba2ae6089"},"vehicle_type_id":"4","last_reported":1733591229,"current_range_meters":0,"station_id":"ce4bhkp2rcd13ifvqgd0","pricing_plan_id":"cebpf4jnsgd1na2vs0mg"},{"bike_id":"e4ba6ddf-afc7-489b-b78e-be69962dd27c","system_id":"levelo_inurba_marseille","lat":43.31393,"lon":5.37074,"is_reserved":false,"is_disabled":false,"rental_uris":{"android":"levelo://app?vid=e4ba6ddf-afc7-489b-b78e-be69962dd27c","ios":"levelo://app?vid=e4ba6ddf-afc7-489b-b78e-be69962dd27c"},"vehicle_type_id":"4","last_reported":1733591229,"current_range_meters":36800,"station_id":"","pricing_plan_id":"cebpf4jnsgd1na2vs0mg"},{"bike_id":"1da0714f-b385-4741-b7db-b5f0bd132709","system_id":"levelo_inurba_marseille","lat":43.29969,"lon":5.38498,"is_reserved":false,"is_disabled":false,"rental_uris":{"android":"levelo://app?vid=1da0714f-b385-4741-b7db-b5f0bd132709","ios":"levelo://app?vid=1da0714f-b385-4741-b7db-b5f0bd132709"},"vehicle_type_id":"4","last_reported":1733591229,"current_range_meters":13600,"station_id":"ce4bgj92rcd13ifvqbd0","pricing_plan_id":"cebpf4jnsgd1na2vs0mg"},{"bike_id":"53c6c3d3-42c4-451f-9207-7ca176099773","system_id":"levelo_inurba_marseille","lat":43.27207,"lon":5.39194,"is_reserved":false,"is_disabled":false,"rental_uris":{"android":"levelo://app?vid=53c6c3d3-42c4-451f-9207-7ca176099773","ios":"levelo://app?vid=53c6c3d3-42c4-451f-9207-7ca176099773"},"vehicle_type_id":"4","last_reported":1733591229,"current_range_meters":36400,"station_id":"ce4bhhp2rcd13ifvqfm0","pricing_plan_id":"cebpf4jnsgd1na2vs0mg"},{"bike_id":"11e86528-eb6b-4391-86a5-9b1822d069a4","system_id":"levelo_inurba_marseille","lat":43.278805,"lon":5.388003,"is_reserved":false,"is_disabled":true,"rental_uris":{"android":"levelo://app?vid=11e86528-eb6b-4391-86a5-9b1822d069a4","ios":"levelo://app?vid=11e86528-eb6b-4391-86a5-9b1822d069a4"},"vehicle_type_id":"4","last_reported":1733591229,"current_range_meters":400,"station_id":"","pricing_plan_id":"cebpf4jnsgd1na2vs0mg"},{"bike_id":"6cc6805f-c0ca-4585-bdf1-b5a0339762b0","system_id":"levelo_inurba_marseille","lat":43.29027,"lon":5.42744,"is_reserved":false,"is_disabled":true,"rental_uris":{"android":"levelo://app?vid=6cc6805f-c0ca-4585-bdf1-b5a0339762b0","ios":"levelo://app?vid=6cc6805f-c0ca-4585-bdf1-b5a0339762b0"},"vehicle_type_id":"4","last_reported":1733591229,"current_range_meters":0,"station_id":"","pricing_plan_id":"cebpf4jnsgd1na2vs0mg"},{"bike_id":"fbab0e01-40cc-4eff-939a-d9a8fdd7ac42","system_id":"levelo_inurba_marseille","lat":43.25727,"lon":5.41108,"is_reserved":false,"is_disabled":false,"rental_uris":{"android":"levelo://app?vid=fbab0e01-40cc-4eff-939a-d9a8fdd7ac42","ios":"levelo://app?vid=fbab0e01-40cc-4eff-939a-d9a8fdd7ac42"},"vehicle_type_id":"4","last_reported":1733591229,"current_range_meters":24000,"station_id":"ce4bhkp2rcd13ifvqgd0","pricing_plan_id":"cebpf4jnsgd1na2vs0mg"},{"bike_id":"4e6fc26f-c1d5-4d84-ac5b-7d384b8c30d5","system_id":"levelo_inurba_marseille","lat":43.33421,"lon":5.36203,"is_reserved":false,"is_disabled":false,"rental_uris":{"android":"levelo://app?vid=4e6fc26f-c1d5-4d84-ac5b-7d384b8c30d5","ios":"levelo://app?vid=4e6fc26f-c1d5-4d84-ac5b-7d384b8c30d5"},"vehicle_type_id":"4","last_reported":1733591229,"current_range_meters":20000,"station_id":"","pricing_plan_id":"cebpf4jnsgd1na2vs0mg"},{"bike_id":"8b81023c-fa9c-454b-bf71-6843f1d74e6a","system_id":"levelo_inurba_marseille","lat":43.28702,"lon":5.39989,"is_reserved":false,"is_disabled":false,"rental_uris":{"android":"levelo://app?vid=8b81023c-fa9c-454b-bf71-6843f1d74e6a","ios":"levelo://app?vid=8b81023c-fa9c-454b-bf71-6843f1d74e6a"},"vehicle_type_id":"4","last_reported":1733591229,"current_range_meters":38000,"station_id":"ce4bho92rcd13ifvqh3g","pricing_plan_id":"cebpf4jnsgd1na2vs0mg"},{"bike_id":"86ca563d-b601-41d3-9cf7-5d0b3d3bcdcd","system_id":"levelo_inurba_marseille","lat":43.29963,"lon":5.3849,"is_reserved":false,"is_disabled":true,"rental_uris":{"android":"levelo://app?vid=86ca563d-b601-41d3-9cf7-5d0b3d3bcdcd","ios":"levelo://app?vid=86ca563d-b601-41d3-9cf7-5d0b3d3bcdcd"},"vehicle_type_id":"4","last_reported":1733591229,"current_range_meters":0,"station_id":"ce4bgj92rcd13ifvqbd0","pricing_plan_id":"cebpf4jnsgd1na2vs0mg"},{"bike_id":"d660403f-446f-4417-91d5-569b837788af","system_id":"levelo_inurba_marseille","lat":43.2705,"lon":5.40265,"is_reserved":false,"is_disabled":false,"rental_uris":{"android":"levelo://app?vid=d660403f-446f-4417-91d5-569b837788af","ios":"levelo://app?vid=d660403f-446f-4417-91d5-569b837788af"},"vehicle_type_id":"4","last_reported":1733591229,"current_range_meters":24400,"station_id":"ce4bhk92rcd13ifvqgc0","pricing_plan_id":"cebpf4jnsgd1na2vs0mg"},{"bike_id":"c1666cb6-474b-4034-8c44-3aa5a2d5b1af","system_id":"levelo_inurba_marseille","lat":43.30615,"lon":5.3722,"is_reserved":false,"is_disabled":false,"rental_uris":{"android":"levelo://app?vid=c1666cb6-474b-4034-8c44-3aa5a2d5b1af","ios":"levelo://app?vid=c1666cb6-474b-4034-8c44-3aa5a2d5b1af"},"vehicle_type_id":"4","last_reported":1733591229,"current_range_meters":36000,"station_id":"ce4bgqh2rcd13ifvqc4g","pricing_plan_id":"cebpf4jnsgd1na2vs0mg"},{"bike_id":"e0e9884f-47c5-4824-b0ee-04a8ae0193ae","system_id":"levelo_inurba_marseille","lat":43.2582,"lon":5.39428,"is_reserved":false,"is_disabled":false,"rental_uris":{"android":"levelo://app?vid=e0e9884f-47c5-4824-b0ee-04a8ae0193ae","ios":"levelo://app?vid=e0e9884f-47c5-4824-b0ee-04a8ae0193ae"},"vehicle_type_id":"4","last_reported":1733591229,"current_range_meters":35600,"station_id":"ce4bhip2rcd13ifvqft0","pricing_plan_id":"cebpf4jnsgd1na2vs0mg"},{"bike_id":"9d279d6e-d4e3-4348-985c-330646d4ed74","system_id":"levelo_inurba_marseille","lat":43.32051,"lon":5.41552,"is_reserved":false,"is_disabled":false,"rental_uris":{"android":"levelo://app?vid=9d279d6e-d4e3-4348-985c-330646d4ed74","ios":"levelo://app?vid=9d279d6e-d4e3-4348-985c-330646d4ed74"},"vehicle_type_id":"4","last_reported":1733591229,"current_range_meters":39200,"station_id":"ce4bhq92rcd13ifvqhkg","pricing_plan_id":"cebpf4jnsgd1na2vs0mg"},{"bike_id":"3a1cabfd-7ea0-40e5-ba2a-bc16f7acb1fa","system_id":"levelo_inurba_marseille","lat":43.34347,"lon":5.3581,"is_reserved":false,"is_disabled":true,"rental_uris":{"android":"levelo://app?vid=3a1cabfd-7ea0-40e5-ba2a-bc16f7acb1fa","ios":"levelo://app?vid=3a1cabfd-7ea0-40e5-ba2a-bc16f7acb1fa"},"vehicle_type_id":"4","last_reported":1733591229,"current_range_meters":6400,"station_id":"","pricing_plan_id":"cebpf4jnsgd1na2vs0mg"},{"bike_id":"9d137905-6de0-4abc-bfa4-9ac64683ad80","system_id":"levelo_inurba_marseille","lat":43.27061,"lon":5.4026,"is_reserved":false,"is_disabled":false,"rental_uris":{"android":"levelo://app?vid=9d137905-6de0-4abc-bfa4-9ac64683ad80","ios":"levelo://app?vid=9d137905-6de0-4abc-bfa4-9ac64683ad80"},"vehicle_type_id":"4","last_reported":1733591229,"current_range_meters":38000,"station_id":"ce4bhk92rcd13ifvqgc0","pricing_plan_id":"cebpf4jnsgd1na2vs0mg"},{"bike_id":"5060997b-0122-4e26-84ce-a996c7e6c032","system_id":"levelo_inurba_marseille","lat":43.27368,"lon":5.36253,"is_reserved":false,"is_disabled":false,"rental_uris":{"android":"levelo://app?vid=5060997b-0122-4e26-84ce-a996c7e6c032","ios":"levelo://app?vid=5060997b-0122-4e26-84ce-a996c7e6c032"},"vehicle_type_id":"4","last_reported":1733591229,"current_range_meters":35600,"station_id":"ce4bhbh2rcd13ifvqeo0","pricing_plan_id":"cebpf4jnsgd1na2vs0mg"},{"bike_id":"c9ae6642-8a34-4f49-92a6-2f9c86da73e4","system_id":"levelo_inurba_marseille","lat":43.29006,"lon":5.35613,"is_reserved":false,"is_disabled":false,"rental_uris":{"android":"levelo://app?vid=c9ae6642-8a34-4f49-92a6-2f9c86da73e4","ios":"levelo://app?vid=c9ae6642-8a34-4f49-92a6-2f9c86da73e4"},"vehicle_type_id":"4","last_reported":1733591229,"current_range_meters":14000,"station_id":"ce4bhb92rcd13ifvqen0","pricing_plan_id":"cebpf4jnsgd1na2vs0mg"},{"bike_id":"9dda2296-bae8-4f65-8863-907014907938","system_id":"levelo_inurba_marseille","lat":43.29521,"lon":5.39401,"is_reserved":false,"is_disabled":false,"rental_uris":{"android":"levelo://app?vid=9dda2296-bae8-4f65-8863-907014907938","ios":"levelo://app?vid=9dda2296-bae8-4f65-8863-907014907938"},"vehicle_type_id":"4","last_reported":1733591229,"current_range_meters":24400,"station_id":"ce4bh292rcd13ifvqdf0","pricing_plan_id":"cebpf4jnsgd1na2vs0mg"},{"bike_id":"0e8bde90-0770-4ce6-9d21-22431a947c03","system_id":"levelo_inurba_marseille","lat":43.29669,"lon":5.37304,"is_reserved":false,"is_disabled":false,"rental_uris":{"android":"levelo://app?vid=0e8bde90-0770-4ce6-9d21-22431a947c03","ios":"levelo://app?vid=0e8bde90-0770-4ce6-9d21-22431a947c03"},"vehicle_type_id":"4","last_reported":1733591229,"current_range_meters":36800,"station_id":"ce4bgk12rcd13ifvqbj0","pricing_plan_id":"cebpf4jnsgd1na2vs0mg"},{"bike_id":"cdfd2c81-601a-4c2c-97e3-2de721a13066","system_id":"levelo_inurba_marseille","lat":43.29009,"lon":5.35606,"is_reserved":false,"is_disabled":false,"rental_uris":{"android":"levelo://app?vid=cdfd2c81-601a-4c2c-97e3-2de721a13066","ios":"levelo://app?vid=cdfd2c81-601a-4c2c-97e3-2de721a13066"},"vehicle_type_id":"4","last_reported":1733591229,"current_range_meters":17200,"station_id":"ce4bhb92rcd13ifvqen0","pricing_plan_id":"cebpf4jnsgd1na2vs0mg"},{"bike_id":"fc7ea287-6e78-4210-9698-a31ef4d0431c","system_id":"levelo_inurba_marseille","lat":43.27042,"lon":5.42216,"is_reserved":false,"is_disabled":false,"rental_uris":{"android":"levelo://app?vid=fc7ea287-6e78-4210-9698-a31ef4d0431c","ios":"levelo://app?vid=fc7ea287-6e78-4210-9698-a31ef4d0431c"},"vehicle_type_id":"4","last_reported":1733591229,"current_range_meters":26000,"station_id":"","pricing_plan_id":"cebpf4jnsgd1na2vs0mg"},{"bike_id":"434d6367-cbf8-4481-bc59-0021a2d762d7","system_id":"levelo_inurba_marseille","lat":43.33023,"lon":5.39038,"is_reserved":false,"is_disabled":false,"rental_uris":{"android":"levelo://app?vid=434d6367-cbf8-4481-bc59-0021a2d762d7","ios":"levelo://app?vid=434d6367-cbf8-4481-bc59-0021a2d762d7"},"vehicle_type_id":"4","last_reported":1733591229,"current_range_meters":31200,"station_id":"ce4bhr92rcd13ifvqhrg","pricing_plan_id":"cebpf4jnsgd1na2vs0mg"},{"bike_id":"ebe68548-ae89-4735-b13c-ad9089779bb3","system_id":"levelo_inurba_marseille","lat":43.26191,"lon":5.37452,"is_reserved":false,"is_disabled":false,"rental_uris":{"android":"levelo://app?vid=ebe68548-ae89-4735-b13c-ad9089779bb3","ios":"levelo://app?vid=ebe68548-ae89-4735-b13c-ad9089779bb3"},"vehicle_type_id":"4","last_reported":1733591229,"current_range_meters":8400,"station_id":"ce4bhgp2rcd13ifvqfc0","pricing_plan_id":"cebpf4jnsgd1na2vs0mg"},{"bike_id":"5d3d743b-c956-46d6-89b9-755ed55eefcb","system_id":"levelo_inurba_marseille","lat":43.32043,"lon":5.41559,"is_reserved":false,"is_disabled":false,"rental_uris":{"android":"levelo://app?vid=5d3d743b-c956-46d6-89b9-755ed55eefcb","ios":"levelo://app?vid=5d3d743b-c956-46d6-89b9-755ed55eefcb"},"vehicle_type_id":"4","last_reported":1733591229,"current_range_meters":39200,"station_id":"ce4bhq92rcd13ifvqhkg","pricing_plan_id":"cebpf4jnsgd1na2vs0mg"},{"bike_id":"c5bd70b1-4591-46a2-9955-aeab64cc174c","system_id":"levelo_inurba_marseille","lat":43.24078,"lon":5.37762,"is_reserved":false,"is_disabled":false,"rental_uris":{"android":"levelo://app?vid=c5bd70b1-4591-46a2-9955-aeab64cc174c","ios":"levelo://app?vid=c5bd70b1-4591-46a2-9955-aeab64cc174c"},"vehicle_type_id":"4","last_reported":1733591229,"current_range_meters":26800,"station_id":"ce4bhnp2rcd13ifvqgvg","pricing_plan_id":"cebpf4jnsgd1na2vs0mg"},{"bike_id":"fd8a14e9-71dc-40e1-87c7-5a9df0c904f6","system_id":"levelo_inurba_marseille","lat":43.29898,"lon":5.43671,"is_reserved":false,"is_disabled":false,"rental_uris":{"android":"levelo://app?vid=fd8a14e9-71dc-40e1-87c7-5a9df0c904f6","ios":"levelo://app?vid=fd8a14e9-71dc-40e1-87c7-5a9df0c904f6"},"vehicle_type_id":"4","last_reported":1733591229,"current_range_meters":10800,"station_id":"ce4bhpp2rcd13ifvqhfg","pricing_plan_id":"cebpf4jnsgd1na2vs0mg"},{"bike_id":"1cc94257-b186-48ee-af73-1b2e836d768d","system_id":"levelo_inurba_marseille","lat":43.2804,"lon":5.36947,"is_reserved":false,"is_disabled":false,"rental_uris":{"android":"levelo://app?vid=1cc94257-b186-48ee-af73-1b2e836d768d","ios":"levelo://app?vid=1cc94257-b186-48ee-af73-1b2e836d768d"},"vehicle_type_id":"4","last_reported":1733591229,"current_range_meters":32400,"station_id":"ce4bha12rcd13ifvqef0","pricing_plan_id":"cebpf4jnsgd1na2vs0mg"},{"bike_id":"83985555-c848-4b28-808f-8a7e7cf8519e","system_id":"levelo_inurba_marseille","lat":43.28115,"lon":5.43955,"is_reserved":false,"is_disabled":true,"rental_uris":{"android":"levelo://app?vid=83985555-c848-4b28-808f-8a7e7cf8519e","ios":"levelo://app?vid=83985555-c848-4b28-808f-8a7e7cf8519e"},"vehicle_type_id":"4","last_reported":1733591229,"current_range_meters":0,"station_id":"","pricing_plan_id":"cebpf4jnsgd1na2vs0mg"},{"bike_id":"84eddd35-4076-462c-b0e4-9c17c748aeff","system_id":"levelo_inurba_marseille","lat":43.33771,"lon":5.37491,"is_reserved":false,"is_disabled":false,"rental_uris":{"android":"levelo://app?vid=84eddd35-4076-462c-b0e4-9c17c748aeff","ios":"levelo://app?vid=84eddd35-4076-462c-b0e4-9c17c748aeff"},"vehicle_type_id":"4","last_reported":1733591229,"current_range_meters":18000,"station_id":"","pricing_plan_id":"cebpf4jnsgd1na2vs0mg"},{"bike_id":"66d0f71e-5d76-4274-a432-4dd216931dd0","system_id":"levelo_inurba_marseille","lat":43.28423,"lon":5.34992,"is_reserved":false,"is_disabled":false,"rental_uris":{"android":"levelo://app?vid=66d0f71e-5d76-4274-a432-4dd216931dd0","ios":"levelo://app?vid=66d0f71e-5d76-4274-a432-4dd216931dd0"},"vehicle_type_id":"4","last_reported":1733591229,"current_range_meters":10000,"station_id":"ce4bhbh2rcd13ifvqepg","pricing_plan_id":"cebpf4jnsgd1na2vs0mg"},{"bike_id":"06ba43f5-d13d-4d4f-8193-d5b5ef13f782","system_id":"levelo_inurba_marseille","lat":43.28158,"lon":5.42647,"is_reserved":false,"is_disabled":false,"rental_uris":{"android":"levelo://app?vid=06ba43f5-d13d-4d4f-8193-d5b5ef13f782","ios":"levelo://app?vid=06ba43f5-d13d-4d4f-8193-d5b5ef13f782"},"vehicle_type_id":"4","last_reported":1733591229,"current_range_meters":18800,"station_id":"ce4bhnh2rcd13ifvqgug","pricing_plan_id":"cebpf4jnsgd1na2vs0mg"},{"bike_id":"88acb9f9-b149-4806-b9aa-1c4050bb5465","system_id":"levelo_inurba_marseille","lat":43.29905,"lon":5.38156,"is_reserved":false,"is_disabled":false,"rental_uris":{"android":"levelo://app?vid=88acb9f9-b149-4806-b9aa-1c4050bb5465","ios":"levelo://app?vid=88acb9f9-b149-4806-b9aa-1c4050bb5465"},"vehicle_type_id":"4","last_reported":1733591229,"current_range_meters":34000,"station_id":"ce4bgj12rcd13ifvqbc0","pricing_plan_id":"cebpf4jnsgd1na2vs0mg"},{"bike_id":"62c5bd9e-4393-416b-81cc-f4af5a7f65be","system_id":"levelo_inurba_marseille","lat":43.29573,"lon":5.37509,"is_reserved":false,"is_disabled":false,"rental_uris":{"android":"levelo://app?vid=62c5bd9e-4393-416b-81cc-f4af5a7f65be","ios":"levelo://app?vid=62c5bd9e-4393-416b-81cc-f4af5a7f65be"},"vehicle_type_id":"4","last_reported":1733591229,"current_range_meters":31200,"station_id":"ce4bgh92rcd13ifvqb50","pricing_plan_id":"cebpf4jnsgd1na2vs0mg"},{"bike_id":"1e02b462-1875-4d66-9199-b04e9a5a6a60","system_id":"levelo_inurba_marseille","lat":43.32049,"lon":5.41548,"is_reserved":false,"is_disabled":false,"rental_uris":{"android":"levelo://app?vid=1e02b462-1875-4d66-9199-b04e9a5a6a60","ios":"levelo://app?vid=1e02b462-1875-4d66-9199-b04e9a5a6a60"},"vehicle_type_id":"4","last_reported":1733591229,"current_range_meters":35600,"station_id":"ce4bhq92rcd13ifvqhkg","pricing_plan_id":"cebpf4jnsgd1na2vs0mg"},{"bike_id":"5687e068-69cc-4397-b6fb-a40653dbd395","system_id":"levelo_inurba_marseille","lat":43.317521,"lon":5.390235,"is_reserved":false,"is_disabled":false,"rental_uris":{"android":"levelo://app?vid=5687e068-69cc-4397-b6fb-a40653dbd395","ios":"levelo://app?vid=5687e068-69cc-4397-b6fb-a40653dbd395"},"vehicle_type_id":"4","last_reported":1733591229,"current_range_meters":38800,"station_id":"ce4bhqp2rcd13ifvqhng","pricing_plan_id":"cebpf4jnsgd1na2vs0mg"},{"bike_id":"5edf82fa-e9d0-4d1f-98f1-37c98092771a","system_id":"levelo_inurba_marseille","lat":43.23198,"lon":5.35552,"is_reserved":false,"is_disabled":false,"rental_uris":{"android":"levelo://app?vid=5edf82fa-e9d0-4d1f-98f1-37c98092771a","ios":"levelo://app?vid=5edf82fa-e9d0-4d1f-98f1-37c98092771a"},"vehicle_type_id":"4","last_reported":1733591229,"current_range_meters":38800,"station_id":"ce4bhu92rcd13ifvqi70","pricing_plan_id":"cebpf4jnsgd1na2vs0mg"},{"bike_id":"0186d3c9-059d-4a42-bdb8-b7039e411226","system_id":"levelo_inurba_marseille","lat":43.30136,"lon":5.39855,"is_reserved":false,"is_disabled":false,"rental_uris":{"android":"levelo://app?vid=0186d3c9-059d-4a42-bdb8-b7039e411226","ios":"levelo://app?vid=0186d3c9-059d-4a42-bdb8-b7039e411226"},"vehicle_type_id":"4","last_reported":1733591229,"current_range_meters":30000,"station_id":"ce4bh0h2rcd13ifvqd40","pricing_plan_id":"cebpf4jnsgd1na2vs0mg"},{"bike_id":"cb4a9db6-7563-4a33-a955-6eb0af1f7b34","system_id":"levelo_inurba_marseille","lat":43.28154,"lon":5.42631,"is_reserved":false,"is_disabled":false,"rental_uris":{"android":"levelo://app?vid=cb4a9db6-7563-4a33-a955-6eb0af1f7b34","ios":"levelo://app?vid=cb4a9db6-7563-4a33-a955-6eb0af1f7b34"},"vehicle_type_id":"4","last_reported":1733591229,"current_range_meters":36800,"station_id":"ce4bhnh2rcd13ifvqgug","pricing_plan_id":"cebpf4jnsgd1na2vs0mg"},{"bike_id":"3afcb54a-b8a5-40bb-8ae8-ddf1f47b8268","system_id":"levelo_inurba_marseille","lat":43.30532,"lon":5.38428,"is_reserved":false,"is_disabled":true,"rental_uris":{"android":"levelo://app?vid=3afcb54a-b8a5-40bb-8ae8-ddf1f47b8268","ios":"levelo://app?vid=3afcb54a-b8a5-40bb-8ae8-ddf1f47b8268"},"vehicle_type_id":"4","last_reported":1733591229,"current_range_meters":36000,"station_id":"ce4bgg92rcd13ifvqb30","pricing_plan_id":"cebpf4jnsgd1na2vs0mg"},{"bike_id":"dd3df62f-ed85-4815-a2f9-2c3866dbd14c","system_id":"levelo_inurba_marseille","lat":43.29793,"lon":5.38103,"is_reserved":false,"is_disabled":false,"rental_uris":{"android":"levelo://app?vid=dd3df62f-ed85-4815-a2f9-2c3866dbd14c","ios":"levelo://app?vid=dd3df62f-ed85-4815-a2f9-2c3866dbd14c"},"vehicle_type_id":"4","last_reported":1733591229,"current_range_meters":32400,"station_id":"ce4bgip2rcd13ifvqbb0","pricing_plan_id":"cebpf4jnsgd1na2vs0mg"},{"bike_id":"a76f0499-0af6-402b-8f9f-ddd78320a7b4","system_id":"levelo_inurba_marseille","lat":43.30463,"lon":5.379,"is_reserved":false,"is_disabled":true,"rental_uris":{"android":"levelo://app?vid=a76f0499-0af6-402b-8f9f-ddd78320a7b4","ios":"levelo://app?vid=a76f0499-0af6-402b-8f9f-ddd78320a7b4"},"vehicle_type_id":"4","last_reported":1733591229,"current_range_meters":38800,"station_id":"ce4bgup2rcd13ifvqcn0","pricing_plan_id":"cebpf4jnsgd1na2vs0mg"},{"bike_id":"83319820-ad4f-4208-bf65-c9fc431b1a4c","system_id":"levelo_inurba_marseille","lat":43.25829,"lon":5.39428,"is_reserved":false,"is_disabled":false,"rental_uris":{"android":"levelo://app?vid=83319820-ad4f-4208-bf65-c9fc431b1a4c","ios":"levelo://app?vid=83319820-ad4f-4208-bf65-c9fc431b1a4c"},"vehicle_type_id":"4","last_reported":1733591229,"current_range_meters":33200,"station_id":"ce4bhip2rcd13ifvqft0","pricing_plan_id":"cebpf4jnsgd1na2vs0mg"},{"bike_id":"4bd87617-4ae8-4063-9d7d-faf5fdc4ac26","system_id":"levelo_inurba_marseille","lat":43.2695,"lon":5.3863,"is_reserved":false,"is_disabled":false,"rental_uris":{"android":"levelo://app?vid=4bd87617-4ae8-4063-9d7d-faf5fdc4ac26","ios":"levelo://app?vid=4bd87617-4ae8-4063-9d7d-faf5fdc4ac26"},"vehicle_type_id":"4","last_reported":1733591229,"current_range_meters":6000,"station_id":"ce4bhh92rcd13ifvqfh0","pricing_plan_id":"cebpf4jnsgd1na2vs0mg"},{"bike_id":"9c2d089d-e580-464c-a254-a84d0c5baff8","system_id":"levelo_inurba_marseille","lat":43.25866,"lon":5.399,"is_reserved":false,"is_disabled":false,"rental_uris":{"android":"levelo://app?vid=9c2d089d-e580-464c-a254-a84d0c5baff8","ios":"levelo://app?vid=9c2d089d-e580-464c-a254-a84d0c5baff8"},"vehicle_type_id":"4","last_reported":1733591229,"current_range_meters":38800,"station_id":"ce4bhl92rcd13ifvqghg","pricing_plan_id":"cebpf4jnsgd1na2vs0mg"},{"bike_id":"0694b84b-212e-4e3c-9092-6e213a66ec49","system_id":"levelo_inurba_marseille","lat":43.2307,"lon":5.35496,"is_reserved":false,"is_disabled":false,"rental_uris":{"android":"levelo://app?vid=0694b84b-212e-4e3c-9092-6e213a66ec49","ios":"levelo://app?vid=0694b84b-212e-4e3c-9092-6e213a66ec49"},"vehicle_type_id":"4","last_reported":1733591229,"current_range_meters":10000,"station_id":"cpo3342slgdg3j2ifvpg","pricing_plan_id":"cebpf4jnsgd1na2vs0mg"},{"bike_id":"4e284cc7-651d-4090-8ed9-06c3097c8e45","system_id":"levelo_inurba_marseille","lat":43.2408,"lon":5.37766,"is_reserved":false,"is_disabled":true,"rental_uris":{"android":"levelo://app?vid=4e284cc7-651d-4090-8ed9-06c3097c8e45","ios":"levelo://app?vid=4e284cc7-651d-4090-8ed9-06c3097c8e45"},"vehicle_type_id":"4","last_reported":1733591229,"current_range_meters":0,"station_id":"ce4bhnp2rcd13ifvqgvg","pricing_plan_id":"cebpf4jnsgd1na2vs0mg"},{"bike_id":"1181933f-490e-47f8-8a58-5c99d81e7f34","system_id":"levelo_inurba_marseille","lat":43.30225,"lon":5.39474,"is_reserved":false,"is_disabled":false,"rental_uris":{"android":"levelo://app?vid=1181933f-490e-47f8-8a58-5c99d81e7f34","ios":"levelo://app?vid=1181933f-490e-47f8-8a58-5c99d81e7f34"},"vehicle_type_id":"4","last_reported":1733591229,"current_range_meters":32800,"station_id":"ce4bh0p2rcd13ifvqd70","pricing_plan_id":"cebpf4jnsgd1na2vs0mg"},{"bike_id":"15e21ff4-debb-4d61-969a-5518cc99a71c","system_id":"levelo_inurba_marseille","lat":43.287437,"lon":5.37672,"is_reserved":false,"is_disabled":false,"rental_uris":{"android":"levelo://app?vid=15e21ff4-debb-4d61-969a-5518cc99a71c","ios":"levelo://app?vid=15e21ff4-debb-4d61-969a-5518cc99a71c"},"vehicle_type_id":"4","last_reported":1733591229,"current_range_meters":8000,"station_id":"ce4bhh92rcd13ifvqfi0","pricing_plan_id":"cebpf4jnsgd1na2vs0mg"},{"bike_id":"0deb7b46-3bee-4382-87b1-3984fb62457f","system_id":"levelo_inurba_marseille","lat":43.28747,"lon":5.38916,"is_reserved":false,"is_disabled":true,"rental_uris":{"android":"levelo://app?vid=0deb7b46-3bee-4382-87b1-3984fb62457f","ios":"levelo://app?vid=0deb7b46-3bee-4382-87b1-3984fb62457f"},"vehicle_type_id":"4","last_reported":1733591229,"current_range_meters":25600,"station_id":"","pricing_plan_id":"cebpf4jnsgd1na2vs0mg"},{"bike_id":"fd27feea-204f-4842-bc39-51375b64cff7","system_id":"levelo_inurba_marseille","lat":43.26567,"lon":5.39007,"is_reserved":false,"is_disabled":false,"rental_uris":{"android":"levelo://app?vid=fd27feea-204f-4842-bc39-51375b64cff7","ios":"levelo://app?vid=fd27feea-204f-4842-bc39-51375b64cff7"},"vehicle_type_id":"4","last_reported":1733591229,"current_range_meters":24000,"station_id":"ce4bhe12rcd13ifvqf30","pricing_plan_id":"cebpf4jnsgd1na2vs0mg"},{"bike_id":"5460e245-8621-4d83-bd98-c21b0b296c70","system_id":"levelo_inurba_marseille","lat":43.24386,"lon":5.37058,"is_reserved":false,"is_disabled":false,"rental_uris":{"android":"levelo://app?vid=5460e245-8621-4d83-bd98-c21b0b296c70","ios":"levelo://app?vid=5460e245-8621-4d83-bd98-c21b0b296c70"},"vehicle_type_id":"4","last_reported":1733591229,"current_range_meters":36800,"station_id":"ce4bhhh2rcd13ifvqfk0","pricing_plan_id":"cebpf4jnsgd1na2vs0mg"},{"bike_id":"94cf3939-a274-4baf-a7ee-2b5264cb4012","system_id":"levelo_inurba_marseille","lat":43.2582,"lon":5.39439,"is_reserved":false,"is_disabled":false,"rental_uris":{"android":"levelo://app?vid=94cf3939-a274-4baf-a7ee-2b5264cb4012","ios":"levelo://app?vid=94cf3939-a274-4baf-a7ee-2b5264cb4012"},"vehicle_type_id":"4","last_reported":1733591229,"current_range_meters":28400,"station_id":"ce4bhip2rcd13ifvqft0","pricing_plan_id":"cebpf4jnsgd1na2vs0mg"},{"bike_id":"07b8c281-3be1-46fd-bf35-bd455797c16c","system_id":"levelo_inurba_marseille","lat":43.2319,"lon":5.35548,"is_reserved":false,"is_disabled":false,"rental_uris":{"android":"levelo://app?vid=07b8c281-3be1-46fd-bf35-bd455797c16c","ios":"levelo://app?vid=07b8c281-3be1-46fd-bf35-bd455797c16c"},"vehicle_type_id":"4","last_reported":1733591229,"current_range_meters":30000,"station_id":"ce4bhu92rcd13ifvqi70","pricing_plan_id":"cebpf4jnsgd1na2vs0mg"},{"bike_id":"e531338c-d34b-4555-a229-05e88641c37e","system_id":"levelo_inurba_marseille","lat":43.30313,"lon":5.3689,"is_reserved":false,"is_disabled":false,"rental_uris":{"android":"levelo://app?vid=e531338c-d34b-4555-a229-05e88641c37e","ios":"levelo://app?vid=e531338c-d34b-4555-a229-05e88641c37e"},"vehicle_type_id":"4","last_reported":1733591229,"current_range_meters":38400,"station_id":"ce4bgqh2rcd13ifvqc5g","pricing_plan_id":"cebpf4jnsgd1na2vs0mg"},{"bike_id":"02bdc395-5a5b-4ce7-b7a2-a991ffae725c","system_id":"levelo_inurba_marseille","lat":43.25577,"lon":5.38242,"is_reserved":false,"is_disabled":false,"rental_uris":{"android":"levelo://app?vid=02bdc395-5a5b-4ce7-b7a2-a991ffae725c","ios":"levelo://app?vid=02bdc395-5a5b-4ce7-b7a2-a991ffae725c"},"vehicle_type_id":"4","last_reported":1733591229,"current_range_meters":36400,"station_id":"ce4bhih2rcd13ifvqfs0","pricing_plan_id":"cebpf4jnsgd1na2vs0mg"},{"bike_id":"7a0a2714-105e-4622-8b3e-a7dd62dc6941","system_id":"levelo_inurba_marseille","lat":43.29266,"lon":5.384189,"is_reserved":false,"is_disabled":true,"rental_uris":{"android":"levelo://app?vid=7a0a2714-105e-4622-8b3e-a7dd62dc6941","ios":"levelo://app?vid=7a0a2714-105e-4622-8b3e-a7dd62dc6941"},"vehicle_type_id":"4","last_reported":1733591229,"current_range_meters":0,"station_id":"","pricing_plan_id":"cebpf4jnsgd1na2vs0mg"},{"bike_id":"9f53acdf-b2be-4b69-b01b-87cbf7343be4","system_id":"levelo_inurba_marseille","lat":43.265,"lon":5.39547,"is_reserved":false,"is_disabled":true,"rental_uris":{"android":"levelo://app?vid=9f53acdf-b2be-4b69-b01b-87cbf7343be4","ios":"levelo://app?vid=9f53acdf-b2be-4b69-b01b-87cbf7343be4"},"vehicle_type_id":"4","last_reported":1733591229,"current_range_meters":35200,"station_id":"ce4bhi12rcd13ifvqfq0","pricing_plan_id":"cebpf4jnsgd1na2vs0mg"},{"bike_id":"a5f05a06-bff4-4f39-af01-91b3d19736b8","system_id":"levelo_inurba_marseille","lat":43.23196,"lon":5.35549,"is_reserved":false,"is_disabled":false,"rental_uris":{"android":"levelo://app?vid=a5f05a06-bff4-4f39-af01-91b3d19736b8","ios":"levelo://app?vid=a5f05a06-bff4-4f39-af01-91b3d19736b8"},"vehicle_type_id":"4","last_reported":1733591229,"current_range_meters":29600,"station_id":"ce4bhu92rcd13ifvqi70","pricing_plan_id":"cebpf4jnsgd1na2vs0mg"},{"bike_id":"e50bfb0a-8896-48ee-b2fc-4065a8c7d9c6","system_id":"levelo_inurba_marseille","lat":43.28861,"lon":5.35874,"is_reserved":false,"is_disabled":false,"rental_uris":{"android":"levelo://app?vid=e50bfb0a-8896-48ee-b2fc-4065a8c7d9c6","ios":"levelo://app?vid=e50bfb0a-8896-48ee-b2fc-4065a8c7d9c6"},"vehicle_type_id":"4","last_reported":1733591229,"current_range_meters":36000,"station_id":"ce4bhb12rcd13ifvqem0","pricing_plan_id":"cebpf4jnsgd1na2vs0mg"},{"bike_id":"33f1a526-a5a3-4261-b1e0-d90c46ff918d","system_id":"levelo_inurba_marseille","lat":43.28154,"lon":5.42641,"is_reserved":false,"is_disabled":true,"rental_uris":{"android":"levelo://app?vid=33f1a526-a5a3-4261-b1e0-d90c46ff918d","ios":"levelo://app?vid=33f1a526-a5a3-4261-b1e0-d90c46ff918d"},"vehicle_type_id":"4","last_reported":1733591229,"current_range_meters":30400,"station_id":"ce4bhnh2rcd13ifvqgug","pricing_plan_id":"cebpf4jnsgd1na2vs0mg"},{"bike_id":"7c6feec6-0c63-43b9-84f3-a5fc0de18afd","system_id":"levelo_inurba_marseille","lat":43.27818,"lon":5.40714,"is_reserved":false,"is_disabled":false,"rental_uris":{"android":"levelo://app?vid=7c6feec6-0c63-43b9-84f3-a5fc0de18afd","ios":"levelo://app?vid=7c6feec6-0c63-43b9-84f3-a5fc0de18afd"},"vehicle_type_id":"4","last_reported":1733591229,"current_range_meters":28400,"station_id":"ce4bhnh2rcd13ifvqgtg","pricing_plan_id":"cebpf4jnsgd1na2vs0mg"},{"bike_id":"7d60acff-cb6c-4a92-aca6-d0de3845edf6","system_id":"levelo_inurba_marseille","lat":43.29535,"lon":5.38526,"is_reserved":false,"is_disabled":true,"rental_uris":{"android":"levelo://app?vid=7d60acff-cb6c-4a92-aca6-d0de3845edf6","ios":"levelo://app?vid=7d60acff-cb6c-4a92-aca6-d0de3845edf6"},"vehicle_type_id":"4","last_reported":1733591229,"current_range_meters":24800,"station_id":"ce4bgih2rcd13ifvqba0","pricing_plan_id":"cebpf4jnsgd1na2vs0mg"},{"bike_id":"9b4572b0-836d-409a-bc88-2746cc5313b0","system_id":"levelo_inurba_marseille","lat":43.27307,"lon":5.39098,"is_reserved":false,"is_disabled":false,"rental_uris":{"android":"levelo://app?vid=9b4572b0-836d-409a-bc88-2746cc5313b0","ios":"levelo://app?vid=9b4572b0-836d-409a-bc88-2746cc5313b0"},"vehicle_type_id":"4","last_reported":1733591229,"current_range_meters":14400,"station_id":"ce4bhgp2rcd13ifvqfe0","pricing_plan_id":"cebpf4jnsgd1na2vs0mg"},{"bike_id":"b01ba929-1580-401b-973d-e4a15d746d4a","system_id":"levelo_inurba_marseille","lat":43.22926,"lon":5.35376,"is_reserved":false,"is_disabled":false,"rental_uris":{"android":"levelo://app?vid=b01ba929-1580-401b-973d-e4a15d746d4a","ios":"levelo://app?vid=b01ba929-1580-401b-973d-e4a15d746d4a"},"vehicle_type_id":"4","last_reported":1733591229,"current_range_meters":38800,"station_id":"cpo3532slgdg3j2ikp40","pricing_plan_id":"cebpf4jnsgd1na2vs0mg"},{"bike_id":"bceca008-c8b2-49cf-9598-94432d1dc7be","system_id":"levelo_inurba_marseille","lat":43.28714,"lon":5.39995,"is_reserved":false,"is_disabled":false,"rental_uris":{"android":"levelo://app?vid=bceca008-c8b2-49cf-9598-94432d1dc7be","ios":"levelo://app?vid=bceca008-c8b2-49cf-9598-94432d1dc7be"},"vehicle_type_id":"4","last_reported":1733591229,"current_range_meters":6800,"station_id":"ce4bho92rcd13ifvqh3g","pricing_plan_id":"cebpf4jnsgd1na2vs0mg"},{"bike_id":"c3ce1477-0069-42cf-8168-95a004f0456f","system_id":"levelo_inurba_marseille","lat":43.24393,"lon":5.37059,"is_reserved":false,"is_disabled":false,"rental_uris":{"android":"levelo://app?vid=c3ce1477-0069-42cf-8168-95a004f0456f","ios":"levelo://app?vid=c3ce1477-0069-42cf-8168-95a004f0456f"},"vehicle_type_id":"4","last_reported":1733591229,"current_range_meters":38800,"station_id":"ce4bhhh2rcd13ifvqfk0","pricing_plan_id":"cebpf4jnsgd1na2vs0mg"},{"bike_id":"ba69aef7-3629-4022-aded-2d71606d382e","system_id":"levelo_inurba_marseille","lat":43.27922,"lon":5.39587,"is_reserved":false,"is_disabled":false,"rental_uris":{"android":"levelo://app?vid=ba69aef7-3629-4022-aded-2d71606d382e","ios":"levelo://app?vid=ba69aef7-3629-4022-aded-2d71606d382e"},"vehicle_type_id":"4","last_reported":1733591229,"current_range_meters":28800,"station_id":"ce4bhf92rcd13ifvqf40","pricing_plan_id":"cebpf4jnsgd1na2vs0mg"},{"bike_id":"aeb5b9ef-cf83-4f2b-8e3d-091258186d3c","system_id":"levelo_inurba_marseille","lat":43.25097,"lon":5.39495,"is_reserved":false,"is_disabled":false,"rental_uris":{"android":"levelo://app?vid=aeb5b9ef-cf83-4f2b-8e3d-091258186d3c","ios":"levelo://app?vid=aeb5b9ef-cf83-4f2b-8e3d-091258186d3c"},"vehicle_type_id":"4","last_reported":1733591229,"current_range_meters":38800,"station_id":"ce4bhm12rcd13ifvqgkg","pricing_plan_id":"cebpf4jnsgd1na2vs0mg"},{"bike_id":"29f42606-d7e5-44ef-bbb8-64135bd190a7","system_id":"levelo_inurba_marseille","lat":43.30964,"lon":5.39048,"is_reserved":false,"is_disabled":true,"rental_uris":{"android":"levelo://app?vid=29f42606-d7e5-44ef-bbb8-64135bd190a7","ios":"levelo://app?vid=29f42606-d7e5-44ef-bbb8-64135bd190a7"},"vehicle_type_id":"4","last_reported":1733591229,"current_range_meters":1200,"station_id":"ce4bgup2rcd13ifvqco0","pricing_plan_id":"cebpf4jnsgd1na2vs0mg"},{"bike_id":"6ab062d3-322a-4445-bd4b-8966d9965fb5","system_id":"levelo_inurba_marseille","lat":43.31273,"lon":5.40175,"is_reserved":false,"is_disabled":false,"rental_uris":{"android":"levelo://app?vid=6ab062d3-322a-4445-bd4b-8966d9965fb5","ios":"levelo://app?vid=6ab062d3-322a-4445-bd4b-8966d9965fb5"},"vehicle_type_id":"4","last_reported":1733591229,"current_range_meters":16800,"station_id":"ce4bh092rcd13ifvqd30","pricing_plan_id":"cebpf4jnsgd1na2vs0mg"},{"bike_id":"6c50ff7e-a1dd-437a-9eb7-649694e47860","system_id":"levelo_inurba_marseille","lat":43.29063,"lon":5.37169,"is_reserved":false,"is_disabled":false,"rental_uris":{"android":"levelo://app?vid=6c50ff7e-a1dd-437a-9eb7-649694e47860","ios":"levelo://app?vid=6c50ff7e-a1dd-437a-9eb7-649694e47860"},"vehicle_type_id":"4","last_reported":1733591229,"current_range_meters":31200,"station_id":"ce4bh5p2rcd13ifvqe4g","pricing_plan_id":"cebpf4jnsgd1na2vs0mg"},{"bike_id":"5c884da4-841f-4b0a-9224-f533cad9f8d9","system_id":"levelo_inurba_marseille","lat":43.26032,"lon":5.37552,"is_reserved":false,"is_disabled":false,"rental_uris":{"android":"levelo://app?vid=5c884da4-841f-4b0a-9224-f533cad9f8d9","ios":"levelo://app?vid=5c884da4-841f-4b0a-9224-f533cad9f8d9"},"vehicle_type_id":"4","last_reported":1733591229,"current_range_meters":12000,"station_id":"ce4bhgh2rcd13ifvqfa0","pricing_plan_id":"cebpf4jnsgd1na2vs0mg"},{"bike_id":"a3dd1984-4193-477f-b9a6-7f14c8f93b26","system_id":"levelo_inurba_marseille","lat":43.30094,"lon":5.39086,"is_reserved":false,"is_disabled":true,"rental_uris":{"android":"levelo://app?vid=a3dd1984-4193-477f-b9a6-7f14c8f93b26","ios":"levelo://app?vid=a3dd1984-4193-477f-b9a6-7f14c8f93b26"},"vehicle_type_id":"4","last_reported":1733591229,"current_range_meters":38400,"station_id":"ce4bh192rcd13ifvqdb0","pricing_plan_id":"cebpf4jnsgd1na2vs0mg"},{"bike_id":"f830afa8-700a-43af-b261-c33874891545","system_id":"levelo_inurba_marseille","lat":43.30535,"lon":5.36539,"is_reserved":false,"is_disabled":false,"rental_uris":{"android":"levelo://app?vid=f830afa8-700a-43af-b261-c33874891545","ios":"levelo://app?vid=f830afa8-700a-43af-b261-c33874891545"},"vehicle_type_id":"4","last_reported":1733591229,"current_range_meters":31200,"station_id":"ce4bgs12rcd13ifvqcag","pricing_plan_id":"cebpf4jnsgd1na2vs0mg"},{"bike_id":"6ad8fff5-6505-40fc-8922-2acdd3c82e7b","system_id":"levelo_inurba_marseille","lat":43.29791,"lon":5.38109,"is_reserved":false,"is_disabled":true,"rental_uris":{"android":"levelo://app?vid=6ad8fff5-6505-40fc-8922-2acdd3c82e7b","ios":"levelo://app?vid=6ad8fff5-6505-40fc-8922-2acdd3c82e7b"},"vehicle_type_id":"4","last_reported":1733591229,"current_range_meters":16800,"station_id":"ce4bgip2rcd13ifvqbb0","pricing_plan_id":"cebpf4jnsgd1na2vs0mg"},{"bike_id":"fe99d885-0e5c-4f02-9b83-47506f946129","system_id":"levelo_inurba_marseille","lat":43.24808,"lon":5.37461,"is_reserved":false,"is_disabled":false,"rental_uris":{"android":"levelo://app?vid=fe99d885-0e5c-4f02-9b83-47506f946129","ios":"levelo://app?vid=fe99d885-0e5c-4f02-9b83-47506f946129"},"vehicle_type_id":"4","last_reported":1733591229,"current_range_meters":38800,"station_id":"ce4bhgh2rcd13ifvqfb0","pricing_plan_id":"cebpf4jnsgd1na2vs0mg"},{"bike_id":"ba8ee62b-e1f8-4737-a62b-c2c4e1c22f92","system_id":"levelo_inurba_marseille","lat":43.2607,"lon":5.39427,"is_reserved":false,"is_disabled":false,"rental_uris":{"android":"levelo://app?vid=ba8ee62b-e1f8-4737-a62b-c2c4e1c22f92","ios":"levelo://app?vid=ba8ee62b-e1f8-4737-a62b-c2c4e1c22f92"},"vehicle_type_id":"4","last_reported":1733591229,"current_range_meters":38800,"station_id":"ce4bhh92rcd13ifvqfj0","pricing_plan_id":"cebpf4jnsgd1na2vs0mg"},{"bike_id":"dfd14379-ab5b-4e4e-bc49-157de18e8e28","system_id":"levelo_inurba_marseille","lat":43.27317,"lon":5.39095,"is_reserved":false,"is_disabled":false,"rental_uris":{"android":"levelo://app?vid=dfd14379-ab5b-4e4e-bc49-157de18e8e28","ios":"levelo://app?vid=dfd14379-ab5b-4e4e-bc49-157de18e8e28"},"vehicle_type_id":"4","last_reported":1733591229,"current_range_meters":23200,"station_id":"ce4bhgp2rcd13ifvqfe0","pricing_plan_id":"cebpf4jnsgd1na2vs0mg"},{"bike_id":"793c2b9a-2cdf-4123-aac6-ed58628170b2","system_id":"levelo_inurba_marseille","lat":43.2873,"lon":5.37937,"is_reserved":false,"is_disabled":false,"rental_uris":{"android":"levelo://app?vid=793c2b9a-2cdf-4123-aac6-ed58628170b2","ios":"levelo://app?vid=793c2b9a-2cdf-4123-aac6-ed58628170b2"},"vehicle_type_id":"4","last_reported":1733591229,"current_range_meters":10000,"station_id":"ce4bh9p2rcd13ifvqec0","pricing_plan_id":"cebpf4jnsgd1na2vs0mg"},{"bike_id":"b120da24-7730-4dd6-b629-1eac4cf581d2","system_id":"levelo_inurba_marseille","lat":43.26615,"lon":5.38113,"is_reserved":false,"is_disabled":false,"rental_uris":{"android":"levelo://app?vid=b120da24-7730-4dd6-b629-1eac4cf581d2","ios":"levelo://app?vid=b120da24-7730-4dd6-b629-1eac4cf581d2"},"vehicle_type_id":"4","last_reported":1733591229,"current_range_meters":36400,"station_id":"ce4bhgp2rcd13ifvqfc0","pricing_plan_id":"cebpf4jnsgd1na2vs0mg"},{"bike_id":"fc531b91-c1ad-4bd0-8a9b-801d395aa15e","system_id":"levelo_inurba_marseille","lat":43.24649,"lon":5.38901,"is_reserved":false,"is_disabled":false,"rental_uris":{"android":"levelo://app?vid=fc531b91-c1ad-4bd0-8a9b-801d395aa15e","ios":"levelo://app?vid=fc531b91-c1ad-4bd0-8a9b-801d395aa15e"},"vehicle_type_id":"4","last_reported":1733591229,"current_range_meters":3200,"station_id":"ce4bhg12rcd13ifvqf60","pricing_plan_id":"cebpf4jnsgd1na2vs0mg"},{"bike_id":"af0bd532-5fea-4a57-8e62-28c4d374f92f","system_id":"levelo_inurba_marseille","lat":43.28129,"lon":5.37848,"is_reserved":false,"is_disabled":false,"rental_uris":{"android":"levelo://app?vid=af0bd532-5fea-4a57-8e62-28c4d374f92f","ios":"levelo://app?vid=af0bd532-5fea-4a57-8e62-28c4d374f92f"},"vehicle_type_id":"4","last_reported":1733591229,"current_range_meters":38800,"station_id":"ce4bha12rcd13ifvqee0","pricing_plan_id":"cebpf4jnsgd1na2vs0mg"},{"bike_id":"2c46e8c7-7341-4e43-879e-fafcca740f82","system_id":"levelo_inurba_marseille","lat":43.31701,"lon":5.37719,"is_reserved":false,"is_disabled":false,"rental_uris":{"android":"levelo://app?vid=2c46e8c7-7341-4e43-879e-fafcca740f82","ios":"levelo://app?vid=2c46e8c7-7341-4e43-879e-fafcca740f82"},"vehicle_type_id":"4","last_reported":1733591229,"current_range_meters":38000,"station_id":"","pricing_plan_id":"cebpf4jnsgd1na2vs0mg"},{"bike_id":"eb4e32cd-a02d-4e92-a013-1fdc0dd71ccb","system_id":"levelo_inurba_marseille","lat":43.324799,"lon":5.365716,"is_reserved":false,"is_disabled":false,"rental_uris":{"android":"levelo://app?vid=eb4e32cd-a02d-4e92-a013-1fdc0dd71ccb","ios":"levelo://app?vid=eb4e32cd-a02d-4e92-a013-1fdc0dd71ccb"},"vehicle_type_id":"4","last_reported":1733591229,"current_range_meters":4400,"station_id":"","pricing_plan_id":"cebpf4jnsgd1na2vs0mg"},{"bike_id":"348fd959-514d-4cea-8ad1-76513ed5b0e6","system_id":"levelo_inurba_marseille","lat":43.26683,"lon":5.38267,"is_reserved":false,"is_disabled":false,"rental_uris":{"android":"levelo://app?vid=348fd959-514d-4cea-8ad1-76513ed5b0e6","ios":"levelo://app?vid=348fd959-514d-4cea-8ad1-76513ed5b0e6"},"vehicle_type_id":"4","last_reported":1733591229,"current_range_meters":37600,"station_id":"ce4bhg92rcd13ifvqf90","pricing_plan_id":"cebpf4jnsgd1na2vs0mg"},{"bike_id":"eb462136-9bbe-446e-a043-31aa3ea21067","system_id":"levelo_inurba_marseille","lat":43.31132,"lon":5.37759,"is_reserved":false,"is_disabled":true,"rental_uris":{"android":"levelo://app?vid=eb462136-9bbe-446e-a043-31aa3ea21067","ios":"levelo://app?vid=eb462136-9bbe-446e-a043-31aa3ea21067"},"vehicle_type_id":"4","last_reported":1733591229,"current_range_meters":0,"station_id":"ce4bgt92rcd13ifvqcg0","pricing_plan_id":"cebpf4jnsgd1na2vs0mg"},{"bike_id":"d9113762-e8e5-4aae-bdd3-68b75525db3b","system_id":"levelo_inurba_marseille","lat":43.30887,"lon":5.37191,"is_reserved":false,"is_disabled":false,"rental_uris":{"android":"levelo://app?vid=d9113762-e8e5-4aae-bdd3-68b75525db3b","ios":"levelo://app?vid=d9113762-e8e5-4aae-bdd3-68b75525db3b"},"vehicle_type_id":"4","last_reported":1733591229,"current_range_meters":18000,"station_id":"ce4bguh2rcd13ifvqckg","pricing_plan_id":"cebpf4jnsgd1na2vs0mg"},{"bike_id":"0c5d41cc-e511-4b1d-a9b9-2ca092bd7b85","system_id":"levelo_inurba_marseille","lat":43.26803,"lon":5.40276,"is_reserved":false,"is_disabled":false,"rental_uris":{"android":"levelo://app?vid=0c5d41cc-e511-4b1d-a9b9-2ca092bd7b85","ios":"levelo://app?vid=0c5d41cc-e511-4b1d-a9b9-2ca092bd7b85"},"vehicle_type_id":"4","last_reported":1733591229,"current_range_meters":20800,"station_id":"ce501612rcd8frsf0b60","pricing_plan_id":"cebpf4jnsgd1na2vs0mg"},{"bike_id":"fd98eaa9-4d55-4e7b-aa90-0d14707466d9","system_id":"levelo_inurba_marseille","lat":43.337444,"lon":5.374475,"is_reserved":false,"is_disabled":true,"rental_uris":{"android":"levelo://app?vid=fd98eaa9-4d55-4e7b-aa90-0d14707466d9","ios":"levelo://app?vid=fd98eaa9-4d55-4e7b-aa90-0d14707466d9"},"vehicle_type_id":"4","last_reported":1733591229,"current_range_meters":0,"station_id":"","pricing_plan_id":"cebpf4jnsgd1na2vs0mg"},{"bike_id":"06f294bd-d283-4b87-866b-9173a9d88558","system_id":"levelo_inurba_marseille","lat":43.25861,"lon":5.39906,"is_reserved":false,"is_disabled":false,"rental_uris":{"android":"levelo://app?vid=06f294bd-d283-4b87-866b-9173a9d88558","ios":"levelo://app?vid=06f294bd-d283-4b87-866b-9173a9d88558"},"vehicle_type_id":"4","last_reported":1733591229,"current_range_meters":38800,"station_id":"ce4bhl92rcd13ifvqghg","pricing_plan_id":"cebpf4jnsgd1na2vs0mg"},{"bike_id":"9332b892-a29d-412a-aaea-92a94f1d857b","system_id":"levelo_inurba_marseille","lat":43.27313,"lon":5.39085,"is_reserved":false,"is_disabled":false,"rental_uris":{"android":"levelo://app?vid=9332b892-a29d-412a-aaea-92a94f1d857b","ios":"levelo://app?vid=9332b892-a29d-412a-aaea-92a94f1d857b"},"vehicle_type_id":"4","last_reported":1733591229,"current_range_meters":38800,"station_id":"ce4bhgp2rcd13ifvqfe0","pricing_plan_id":"cebpf4jnsgd1na2vs0mg"},{"bike_id":"27747901-daa4-4699-83f2-9d3e8e7d86e6","system_id":"levelo_inurba_marseille","lat":43.25821,"lon":5.39433,"is_reserved":false,"is_disabled":false,"rental_uris":{"android":"levelo://app?vid=27747901-daa4-4699-83f2-9d3e8e7d86e6","ios":"levelo://app?vid=27747901-daa4-4699-83f2-9d3e8e7d86e6"},"vehicle_type_id":"4","last_reported":1733591229,"current_range_meters":30400,"station_id":"ce4bhip2rcd13ifvqft0","pricing_plan_id":"cebpf4jnsgd1na2vs0mg"},{"bike_id":"580d1228-4798-46db-84e0-bd1f22b0d3c5","system_id":"levelo_inurba_marseille","lat":43.27208,"lon":5.3918,"is_reserved":false,"is_disabled":false,"rental_uris":{"android":"levelo://app?vid=580d1228-4798-46db-84e0-bd1f22b0d3c5","ios":"levelo://app?vid=580d1228-4798-46db-84e0-bd1f22b0d3c5"},"vehicle_type_id":"4","last_reported":1733591229,"current_range_meters":32800,"station_id":"ce4bhhp2rcd13ifvqfm0","pricing_plan_id":"cebpf4jnsgd1na2vs0mg"},{"bike_id":"f92f6f8d-eda7-4f0e-817a-f91117145c82","system_id":"levelo_inurba_marseille","lat":43.29524,"lon":5.37503,"is_reserved":false,"is_disabled":false,"rental_uris":{"android":"levelo://app?vid=f92f6f8d-eda7-4f0e-817a-f91117145c82","ios":"levelo://app?vid=f92f6f8d-eda7-4f0e-817a-f91117145c82"},"vehicle_type_id":"4","last_reported":1733591229,"current_range_meters":12800,"station_id":"ce4bgkp2rcd13ifvqbmg","pricing_plan_id":"cebpf4jnsgd1na2vs0mg"},{"bike_id":"4da1f21a-a94b-4e40-8119-4f95d0593822","system_id":"levelo_inurba_marseille","lat":43.32659,"lon":5.41,"is_reserved":false,"is_disabled":false,"rental_uris":{"android":"levelo://app?vid=4da1f21a-a94b-4e40-8119-4f95d0593822","ios":"levelo://app?vid=4da1f21a-a94b-4e40-8119-4f95d0593822"},"vehicle_type_id":"4","last_reported":1733591229,"current_range_meters":38400,"station_id":"ce4bhpp2rcd13ifvqhgg","pricing_plan_id":"cebpf4jnsgd1na2vs0mg"},{"bike_id":"c2d8a1c2-d166-4a36-b32f-beec95c93bd5","system_id":"levelo_inurba_marseille","lat":43.33756,"lon":5.37459,"is_reserved":false,"is_disabled":true,"rental_uris":{"android":"levelo://app?vid=c2d8a1c2-d166-4a36-b32f-beec95c93bd5","ios":"levelo://app?vid=c2d8a1c2-d166-4a36-b32f-beec95c93bd5"},"vehicle_type_id":"4","last_reported":1733591229,"current_range_meters":0,"station_id":"","pricing_plan_id":"cebpf4jnsgd1na2vs0mg"},{"bike_id":"0e3451bb-7a71-49a1-b69e-200c6dd6b013","system_id":"levelo_inurba_marseille","lat":43.29021,"lon":5.40003,"is_reserved":false,"is_disabled":true,"rental_uris":{"android":"levelo://app?vid=0e3451bb-7a71-49a1-b69e-200c6dd6b013","ios":"levelo://app?vid=0e3451bb-7a71-49a1-b69e-200c6dd6b013"},"vehicle_type_id":"4","last_reported":1733591229,"current_range_meters":38800,"station_id":"ce4bh392rcd13ifvqdm0","pricing_plan_id":"cebpf4jnsgd1na2vs0mg"},{"bike_id":"eaeb1f0f-f100-4884-af97-4e292c28afc5","system_id":"levelo_inurba_marseille","lat":43.29517,"lon":5.39043,"is_reserved":false,"is_disabled":false,"rental_uris":{"android":"levelo://app?vid=eaeb1f0f-f100-4884-af97-4e292c28afc5","ios":"levelo://app?vid=eaeb1f0f-f100-4884-af97-4e292c28afc5"},"vehicle_type_id":"4","last_reported":1733591229,"current_range_meters":9600,"station_id":"ce4bh3p2rcd13ifvqdp0","pricing_plan_id":"cebpf4jnsgd1na2vs0mg"},{"bike_id":"cabd644c-9444-445f-b661-d7541845cb45","system_id":"levelo_inurba_marseille","lat":43.28162,"lon":5.42641,"is_reserved":false,"is_disabled":false,"rental_uris":{"android":"levelo://app?vid=cabd644c-9444-445f-b661-d7541845cb45","ios":"levelo://app?vid=cabd644c-9444-445f-b661-d7541845cb45"},"vehicle_type_id":"4","last_reported":1733591229,"current_range_meters":32800,"station_id":"ce4bhnh2rcd13ifvqgug","pricing_plan_id":"cebpf4jnsgd1na2vs0mg"},{"bike_id":"3591f612-b521-4a04-9ee3-2562263e0937","system_id":"levelo_inurba_marseille","lat":43.26931,"lon":5.38914,"is_reserved":false,"is_disabled":false,"rental_uris":{"android":"levelo://app?vid=3591f612-b521-4a04-9ee3-2562263e0937","ios":"levelo://app?vid=3591f612-b521-4a04-9ee3-2562263e0937"},"vehicle_type_id":"4","last_reported":1733591229,"current_range_meters":26000,"station_id":"ce4bhhh2rcd13ifvqfl0","pricing_plan_id":"cebpf4jnsgd1na2vs0mg"},{"bike_id":"1c116fee-2365-407f-b033-8ab53c14818b","system_id":"levelo_inurba_marseille","lat":43.337444,"lon":5.374475,"is_reserved":false,"is_disabled":false,"rental_uris":{"android":"levelo://app?vid=1c116fee-2365-407f-b033-8ab53c14818b","ios":"levelo://app?vid=1c116fee-2365-407f-b033-8ab53c14818b"},"vehicle_type_id":"4","last_reported":1733591229,"current_range_meters":28000,"station_id":"","pricing_plan_id":"cebpf4jnsgd1na2vs0mg"},{"bike_id":"e7098824-93b2-482e-a425-d6aa509a1c30","system_id":"levelo_inurba_marseille","lat":43.27309,"lon":5.39086,"is_reserved":false,"is_disabled":false,"rental_uris":{"android":"levelo://app?vid=e7098824-93b2-482e-a425-d6aa509a1c30","ios":"levelo://app?vid=e7098824-93b2-482e-a425-d6aa509a1c30"},"vehicle_type_id":"4","last_reported":1733591229,"current_range_meters":32800,"station_id":"ce4bhgp2rcd13ifvqfe0","pricing_plan_id":"cebpf4jnsgd1na2vs0mg"},{"bike_id":"382e1099-577c-46c6-86b9-24d4efeac6b8","system_id":"levelo_inurba_marseille","lat":43.29608,"lon":5.37715,"is_reserved":false,"is_disabled":false,"rental_uris":{"android":"levelo://app?vid=382e1099-577c-46c6-86b9-24d4efeac6b8","ios":"levelo://app?vid=382e1099-577c-46c6-86b9-24d4efeac6b8"},"vehicle_type_id":"4","last_reported":1733591229,"current_range_meters":32000,"station_id":"ce4bgi92rcd13ifvqb90","pricing_plan_id":"cebpf4jnsgd1na2vs0mg"},{"bike_id":"463bc732-9858-4992-a741-2b0344dd5d9b","system_id":"levelo_inurba_marseille","lat":43.3237,"lon":5.38884,"is_reserved":false,"is_disabled":false,"rental_uris":{"android":"levelo://app?vid=463bc732-9858-4992-a741-2b0344dd5d9b","ios":"levelo://app?vid=463bc732-9858-4992-a741-2b0344dd5d9b"},"vehicle_type_id":"4","last_reported":1733591229,"current_range_meters":7200,"station_id":"ce4bhqp2rcd13ifvqhog","pricing_plan_id":"cebpf4jnsgd1na2vs0mg"},{"bike_id":"f5561434-0740-4a3c-abc2-013f37687b8d","system_id":"levelo_inurba_marseille","lat":43.24818,"lon":5.37468,"is_reserved":false,"is_disabled":true,"rental_uris":{"android":"levelo://app?vid=f5561434-0740-4a3c-abc2-013f37687b8d","ios":"levelo://app?vid=f5561434-0740-4a3c-abc2-013f37687b8d"},"vehicle_type_id":"4","last_reported":1733591229,"current_range_meters":35600,"station_id":"ce4bhgh2rcd13ifvqfb0","pricing_plan_id":"cebpf4jnsgd1na2vs0mg"},{"bike_id":"220c9f3e-9e26-46f5-9066-dfededf7134f","system_id":"levelo_inurba_marseille","lat":43.24389,"lon":5.37052,"is_reserved":false,"is_disabled":false,"rental_uris":{"android":"levelo://app?vid=220c9f3e-9e26-46f5-9066-dfededf7134f","ios":"levelo://app?vid=220c9f3e-9e26-46f5-9066-dfededf7134f"},"vehicle_type_id":"4","last_reported":1733591229,"current_range_meters":38400,"station_id":"ce4bhhh2rcd13ifvqfk0","pricing_plan_id":"cebpf4jnsgd1na2vs0mg"},{"bike_id":"64a7bae6-9e28-47b5-b05e-3e41e3e29d4b","system_id":"levelo_inurba_marseille","lat":43.30586,"lon":5.39359,"is_reserved":false,"is_disabled":false,"rental_uris":{"android":"levelo://app?vid=64a7bae6-9e28-47b5-b05e-3e41e3e29d4b","ios":"levelo://app?vid=64a7bae6-9e28-47b5-b05e-3e41e3e29d4b"},"vehicle_type_id":"4","last_reported":1733591229,"current_range_meters":38800,"station_id":"ce4bh0p2rcd13ifvqd80","pricing_plan_id":"cebpf4jnsgd1na2vs0mg"},{"bike_id":"be71cca6-6557-4a65-b65e-4b5fc9f0f993","system_id":"levelo_inurba_marseille","lat":43.31712,"lon":5.37737,"is_reserved":false,"is_disabled":false,"rental_uris":{"android":"levelo://app?vid=be71cca6-6557-4a65-b65e-4b5fc9f0f993","ios":"levelo://app?vid=be71cca6-6557-4a65-b65e-4b5fc9f0f993"},"vehicle_type_id":"4","last_reported":1733591229,"current_range_meters":16400,"station_id":"ce4bgth2rcd13ifvqch0","pricing_plan_id":"cebpf4jnsgd1na2vs0mg"},{"bike_id":"be0374ae-3239-4bf2-b2e0-879eb633f0b8","system_id":"levelo_inurba_marseille","lat":43.27615,"lon":5.36114,"is_reserved":false,"is_disabled":false,"rental_uris":{"android":"levelo://app?vid=be0374ae-3239-4bf2-b2e0-879eb633f0b8","ios":"levelo://app?vid=be0374ae-3239-4bf2-b2e0-879eb633f0b8"},"vehicle_type_id":"4","last_reported":1733591229,"current_range_meters":35200,"station_id":"ce4bgj92rcd13ifvqbe0","pricing_plan_id":"cebpf4jnsgd1na2vs0mg"},{"bike_id":"d2f66e81-b237-4716-9b4b-2de6177725fd","system_id":"levelo_inurba_marseille","lat":43.27059,"lon":5.40257,"is_reserved":false,"is_disabled":false,"rental_uris":{"android":"levelo://app?vid=d2f66e81-b237-4716-9b4b-2de6177725fd","ios":"levelo://app?vid=d2f66e81-b237-4716-9b4b-2de6177725fd"},"vehicle_type_id":"4","last_reported":1733591229,"current_range_meters":24800,"station_id":"ce4bhk92rcd13ifvqgc0","pricing_plan_id":"cebpf4jnsgd1na2vs0mg"},{"bike_id":"587e298e-39ee-46f4-9445-a0a190298a95","system_id":"levelo_inurba_marseille","lat":43.29718,"lon":5.37701,"is_reserved":false,"is_disabled":false,"rental_uris":{"android":"levelo://app?vid=587e298e-39ee-46f4-9445-a0a190298a95","ios":"levelo://app?vid=587e298e-39ee-46f4-9445-a0a190298a95"},"vehicle_type_id":"4","last_reported":1733591229,"current_range_meters":9600,"station_id":"ce4bgkh2rcd13ifvqbl0","pricing_plan_id":"cebpf4jnsgd1na2vs0mg"},{"bike_id":"bacc3450-9073-4434-a77d-41c29d8453a7","system_id":"levelo_inurba_marseille","lat":43.25723,"lon":5.41109,"is_reserved":false,"is_disabled":false,"rental_uris":{"android":"levelo://app?vid=bacc3450-9073-4434-a77d-41c29d8453a7","ios":"levelo://app?vid=bacc3450-9073-4434-a77d-41c29d8453a7"},"vehicle_type_id":"4","last_reported":1733591229,"current_range_meters":39200,"station_id":"ce4bhkp2rcd13ifvqgd0","pricing_plan_id":"cebpf4jnsgd1na2vs0mg"},{"bike_id":"b57ac3ac-1cb9-4a0e-9880-d76a5f5fa301","system_id":"levelo_inurba_marseille","lat":43.26204,"lon":5.37926,"is_reserved":false,"is_disabled":false,"rental_uris":{"android":"levelo://app?vid=b57ac3ac-1cb9-4a0e-9880-d76a5f5fa301","ios":"levelo://app?vid=b57ac3ac-1cb9-4a0e-9880-d76a5f5fa301"},"vehicle_type_id":"4","last_reported":1733591229,"current_range_meters":37600,"station_id":"ce4bhjp2rcd13ifvqg90","pricing_plan_id":"cebpf4jnsgd1na2vs0mg"},{"bike_id":"18cdda37-c078-44c1-ae6c-8a7ab3a2d4e4","system_id":"levelo_inurba_marseille","lat":43.28721,"lon":5.36097,"is_reserved":false,"is_disabled":false,"rental_uris":{"android":"levelo://app?vid=18cdda37-c078-44c1-ae6c-8a7ab3a2d4e4","ios":"levelo://app?vid=18cdda37-c078-44c1-ae6c-8a7ab3a2d4e4"},"vehicle_type_id":"4","last_reported":1733591229,"current_range_meters":38800,"station_id":"cki0cbj6b192h4jlfktg","pricing_plan_id":"cebpf4jnsgd1na2vs0mg"},{"bike_id":"080fcb1c-52b8-42d7-b477-4dbab7fa601d","system_id":"levelo_inurba_marseille","lat":43.33025,"lon":5.39035,"is_reserved":false,"is_disabled":false,"rental_uris":{"android":"levelo://app?vid=080fcb1c-52b8-42d7-b477-4dbab7fa601d","ios":"levelo://app?vid=080fcb1c-52b8-42d7-b477-4dbab7fa601d"},"vehicle_type_id":"4","last_reported":1733591229,"current_range_meters":26000,"station_id":"ce4bhr92rcd13ifvqhrg","pricing_plan_id":"cebpf4jnsgd1na2vs0mg"},{"bike_id":"610978bc-b4fe-47b6-bb4c-1c725d344cd7","system_id":"levelo_inurba_marseille","lat":43.2954,"lon":5.39395,"is_reserved":false,"is_disabled":false,"rental_uris":{"android":"levelo://app?vid=610978bc-b4fe-47b6-bb4c-1c725d344cd7","ios":"levelo://app?vid=610978bc-b4fe-47b6-bb4c-1c725d344cd7"},"vehicle_type_id":"4","last_reported":1733591229,"current_range_meters":34800,"station_id":"ce4bh292rcd13ifvqdf0","pricing_plan_id":"cebpf4jnsgd1na2vs0mg"},{"bike_id":"91ba67a8-fa82-4064-bca6-f2cbf9bac40e","system_id":"levelo_inurba_marseille","lat":43.2846,"lon":5.37281,"is_reserved":false,"is_disabled":false,"rental_uris":{"android":"levelo://app?vid=91ba67a8-fa82-4064-bca6-f2cbf9bac40e","ios":"levelo://app?vid=91ba67a8-fa82-4064-bca6-f2cbf9bac40e"},"vehicle_type_id":"4","last_reported":1733591229,"current_range_meters":28000,"station_id":"ce4bht12rcd13ifvqi60","pricing_plan_id":"cebpf4jnsgd1na2vs0mg"},{"bike_id":"868a434e-7c11-4b20-84c6-7ecdbf24c83b","system_id":"levelo_inurba_marseille","lat":43.33025,"lon":5.39046,"is_reserved":false,"is_disabled":false,"rental_uris":{"android":"levelo://app?vid=868a434e-7c11-4b20-84c6-7ecdbf24c83b","ios":"levelo://app?vid=868a434e-7c11-4b20-84c6-7ecdbf24c83b"},"vehicle_type_id":"4","last_reported":1733591229,"current_range_meters":24000,"station_id":"ce4bhr92rcd13ifvqhrg","pricing_plan_id":"cebpf4jnsgd1na2vs0mg"},{"bike_id":"478eaa5b-5c77-406b-b7dc-70676b884742","system_id":"levelo_inurba_marseille","lat":43.29508,"lon":5.39035,"is_reserved":false,"is_disabled":true,"rental_uris":{"android":"levelo://app?vid=478eaa5b-5c77-406b-b7dc-70676b884742","ios":"levelo://app?vid=478eaa5b-5c77-406b-b7dc-70676b884742"},"vehicle_type_id":"4","last_reported":1733591229,"current_range_meters":1200,"station_id":"ce4bh3p2rcd13ifvqdp0","pricing_plan_id":"cebpf4jnsgd1na2vs0mg"},{"bike_id":"0a05b4e8-a23a-4f3d-9e6b-ab04ef589aef","system_id":"levelo_inurba_marseille","lat":43.27052,"lon":5.40265,"is_reserved":false,"is_disabled":false,"rental_uris":{"android":"levelo://app?vid=0a05b4e8-a23a-4f3d-9e6b-ab04ef589aef","ios":"levelo://app?vid=0a05b4e8-a23a-4f3d-9e6b-ab04ef589aef"},"vehicle_type_id":"4","last_reported":1733591229,"current_range_meters":36800,"station_id":"ce4bhk92rcd13ifvqgc0","pricing_plan_id":"cebpf4jnsgd1na2vs0mg"},{"bike_id":"69b02490-edb0-40df-a433-3b4fea071b52","system_id":"levelo_inurba_marseille","lat":43.31711,"lon":5.43709,"is_reserved":false,"is_disabled":true,"rental_uris":{"android":"levelo://app?vid=69b02490-edb0-40df-a433-3b4fea071b52","ios":"levelo://app?vid=69b02490-edb0-40df-a433-3b4fea071b52"},"vehicle_type_id":"4","last_reported":1733591229,"current_range_meters":0,"station_id":"ce4bhp92rcd13ifvqhcg","pricing_plan_id":"cebpf4jnsgd1na2vs0mg"},{"bike_id":"ebb51e34-cae7-43b7-a3e4-d352748ad9ee","system_id":"levelo_inurba_marseille","lat":43.27212,"lon":5.39191,"is_reserved":false,"is_disabled":false,"rental_uris":{"android":"levelo://app?vid=ebb51e34-cae7-43b7-a3e4-d352748ad9ee","ios":"levelo://app?vid=ebb51e34-cae7-43b7-a3e4-d352748ad9ee"},"vehicle_type_id":"4","last_reported":1733591229,"current_range_meters":38800,"station_id":"ce4bhhp2rcd13ifvqfm0","pricing_plan_id":"cebpf4jnsgd1na2vs0mg"},{"bike_id":"35116aeb-0a76-4797-a5b2-a18534d3382f","system_id":"levelo_inurba_marseille","lat":43.337444,"lon":5.374475,"is_reserved":false,"is_disabled":false,"rental_uris":{"android":"levelo://app?vid=35116aeb-0a76-4797-a5b2-a18534d3382f","ios":"levelo://app?vid=35116aeb-0a76-4797-a5b2-a18534d3382f"},"vehicle_type_id":"4","last_reported":1733591229,"current_range_meters":28000,"station_id":"","pricing_plan_id":"cebpf4jnsgd1na2vs0mg"},{"bike_id":"4ae5fe7f-a755-40fe-9b35-59fbb2437146","system_id":"levelo_inurba_marseille","lat":43.24187,"lon":5.36412,"is_reserved":false,"is_disabled":false,"rental_uris":{"android":"levelo://app?vid=4ae5fe7f-a755-40fe-9b35-59fbb2437146","ios":"levelo://app?vid=4ae5fe7f-a755-40fe-9b35-59fbb2437146"},"vehicle_type_id":"4","last_reported":1733591229,"current_range_meters":31200,"station_id":"cpo36qri1sfpv3e86is0","pricing_plan_id":"cebpf4jnsgd1na2vs0mg"},{"bike_id":"31e35599-1530-4b87-abcb-60792c8f744c","system_id":"levelo_inurba_marseille","lat":43.27061,"lon":5.40265,"is_reserved":false,"is_disabled":false,"rental_uris":{"android":"levelo://app?vid=31e35599-1530-4b87-abcb-60792c8f744c","ios":"levelo://app?vid=31e35599-1530-4b87-abcb-60792c8f744c"},"vehicle_type_id":"4","last_reported":1733591229,"current_range_meters":38000,"station_id":"ce4bhk92rcd13ifvqgc0","pricing_plan_id":"cebpf4jnsgd1na2vs0mg"},{"bike_id":"5e47cc78-617e-4377-ae1a-1a9e61713cae","system_id":"levelo_inurba_marseille","lat":43.29578,"lon":5.375,"is_reserved":false,"is_disabled":false,"rental_uris":{"android":"levelo://app?vid=5e47cc78-617e-4377-ae1a-1a9e61713cae","ios":"levelo://app?vid=5e47cc78-617e-4377-ae1a-1a9e61713cae"},"vehicle_type_id":"4","last_reported":1733591229,"current_range_meters":34800,"station_id":"ce4bgh92rcd13ifvqb50","pricing_plan_id":"cebpf4jnsgd1na2vs0mg"},{"bike_id":"1a18c335-5227-46e2-b028-48ee2cf02f37","system_id":"levelo_inurba_marseille","lat":43.29931,"lon":5.3654,"is_reserved":false,"is_disabled":true,"rental_uris":{"android":"levelo://app?vid=1a18c335-5227-46e2-b028-48ee2cf02f37","ios":"levelo://app?vid=1a18c335-5227-46e2-b028-48ee2cf02f37"},"vehicle_type_id":"4","last_reported":1733591229,"current_range_meters":1200,"station_id":"ce4bgm92rcd13ifvqbr0","pricing_plan_id":"cebpf4jnsgd1na2vs0mg"},{"bike_id":"43c79427-2d1c-4138-8ce1-75d34664a098","system_id":"levelo_inurba_marseille","lat":43.31753,"lon":5.3902,"is_reserved":false,"is_disabled":false,"rental_uris":{"android":"levelo://app?vid=43c79427-2d1c-4138-8ce1-75d34664a098","ios":"levelo://app?vid=43c79427-2d1c-4138-8ce1-75d34664a098"},"vehicle_type_id":"4","last_reported":1733591229,"current_range_meters":29600,"station_id":"ce4bhqp2rcd13ifvqhng","pricing_plan_id":"cebpf4jnsgd1na2vs0mg"},{"bike_id":"f5695b3d-aaf2-41d4-9cb0-052c626cb432","system_id":"levelo_inurba_marseille","lat":43.31754,"lon":5.39013,"is_reserved":false,"is_disabled":false,"rental_uris":{"android":"levelo://app?vid=f5695b3d-aaf2-41d4-9cb0-052c626cb432","ios":"levelo://app?vid=f5695b3d-aaf2-41d4-9cb0-052c626cb432"},"vehicle_type_id":"4","last_reported":1733591229,"current_range_meters":28400,"station_id":"ce4bhqp2rcd13ifvqhng","pricing_plan_id":"cebpf4jnsgd1na2vs0mg"},{"bike_id":"fd3525f8-baca-430c-9ae3-9ad4faa3739f","system_id":"levelo_inurba_marseille","lat":43.29004,"lon":5.35615,"is_reserved":false,"is_disabled":false,"rental_uris":{"android":"levelo://app?vid=fd3525f8-baca-430c-9ae3-9ad4faa3739f","ios":"levelo://app?vid=fd3525f8-baca-430c-9ae3-9ad4faa3739f"},"vehicle_type_id":"4","last_reported":1733591229,"current_range_meters":38800,"station_id":"ce4bhb92rcd13ifvqen0","pricing_plan_id":"cebpf4jnsgd1na2vs0mg"},{"bike_id":"f4d5a3c8-66a0-46c2-a59b-83624e74a453","system_id":"levelo_inurba_marseille","lat":43.27315,"lon":5.39092,"is_reserved":false,"is_disabled":false,"rental_uris":{"android":"levelo://app?vid=f4d5a3c8-66a0-46c2-a59b-83624e74a453","ios":"levelo://app?vid=f4d5a3c8-66a0-46c2-a59b-83624e74a453"},"vehicle_type_id":"4","last_reported":1733591229,"current_range_meters":29600,"station_id":"ce4bhgp2rcd13ifvqfe0","pricing_plan_id":"cebpf4jnsgd1na2vs0mg"},{"bike_id":"b983f700-39e1-418f-84a3-1c3c95a84b96","system_id":"levelo_inurba_marseille","lat":43.337752,"lon":5.375048,"is_reserved":false,"is_disabled":false,"rental_uris":{"android":"levelo://app?vid=b983f700-39e1-418f-84a3-1c3c95a84b96","ios":"levelo://app?vid=b983f700-39e1-418f-84a3-1c3c95a84b96"},"vehicle_type_id":"4","last_reported":1733591229,"current_range_meters":32000,"station_id":"","pricing_plan_id":"cebpf4jnsgd1na2vs0mg"},{"bike_id":"30de221a-4ae9-44c8-af60-f5843b67f535","system_id":"levelo_inurba_marseille","lat":43.337444,"lon":5.374475,"is_reserved":false,"is_disabled":false,"rental_uris":{"android":"levelo://app?vid=30de221a-4ae9-44c8-af60-f5843b67f535","ios":"levelo://app?vid=30de221a-4ae9-44c8-af60-f5843b67f535"},"vehicle_type_id":"4","last_reported":1733591229,"current_range_meters":28400,"station_id":"","pricing_plan_id":"cebpf4jnsgd1na2vs0mg"},{"bike_id":"88d67538-574e-434a-8393-671a13b10f01","system_id":"levelo_inurba_marseille","lat":43.29901,"lon":5.43654,"is_reserved":false,"is_disabled":true,"rental_uris":{"android":"levelo://app?vid=88d67538-574e-434a-8393-671a13b10f01","ios":"levelo://app?vid=88d67538-574e-434a-8393-671a13b10f01"},"vehicle_type_id":"4","last_reported":1733591229,"current_range_meters":0,"station_id":"ce4bhpp2rcd13ifvqhfg","pricing_plan_id":"cebpf4jnsgd1na2vs0mg"},{"bike_id":"5295620c-a386-4b6c-9ad9-a39b239ada40","system_id":"levelo_inurba_marseille","lat":43.30536,"lon":5.38427,"is_reserved":false,"is_disabled":false,"rental_uris":{"android":"levelo://app?vid=5295620c-a386-4b6c-9ad9-a39b239ada40","ios":"levelo://app?vid=5295620c-a386-4b6c-9ad9-a39b239ada40"},"vehicle_type_id":"4","last_reported":1733591229,"current_range_meters":28800,"station_id":"ce4bgg92rcd13ifvqb30","pricing_plan_id":"cebpf4jnsgd1na2vs0mg"},{"bike_id":"cddfb025-e5a7-4222-9cdb-1f0df78a300f","system_id":"levelo_inurba_marseille","lat":43.28421,"lon":5.3498,"is_reserved":false,"is_disabled":false,"rental_uris":{"android":"levelo://app?vid=cddfb025-e5a7-4222-9cdb-1f0df78a300f","ios":"levelo://app?vid=cddfb025-e5a7-4222-9cdb-1f0df78a300f"},"vehicle_type_id":"4","last_reported":1733591229,"current_range_meters":25600,"station_id":"ce4bhbh2rcd13ifvqepg","pricing_plan_id":"cebpf4jnsgd1na2vs0mg"},{"bike_id":"f07260cd-78cd-4b26-921f-1ecdc0847ac4","system_id":"levelo_inurba_marseille","lat":43.31275,"lon":5.40172,"is_reserved":false,"is_disabled":false,"rental_uris":{"android":"levelo://app?vid=f07260cd-78cd-4b26-921f-1ecdc0847ac4","ios":"levelo://app?vid=f07260cd-78cd-4b26-921f-1ecdc0847ac4"},"vehicle_type_id":"4","last_reported":1733591229,"current_range_meters":28800,"station_id":"ce4bh092rcd13ifvqd30","pricing_plan_id":"cebpf4jnsgd1na2vs0mg"},{"bike_id":"1c4608e0-472a-4c21-818a-62f0fc4c9675","system_id":"levelo_inurba_marseille","lat":43.28102,"lon":5.37845,"is_reserved":false,"is_disabled":false,"rental_uris":{"android":"levelo://app?vid=1c4608e0-472a-4c21-818a-62f0fc4c9675","ios":"levelo://app?vid=1c4608e0-472a-4c21-818a-62f0fc4c9675"},"vehicle_type_id":"4","last_reported":1733591229,"current_range_meters":39200,"station_id":"ce4bha12rcd13ifvqee0","pricing_plan_id":"cebpf4jnsgd1na2vs0mg"},{"bike_id":"5d3f178c-44f1-4885-b1d5-af2c7fbf1f11","system_id":"levelo_inurba_marseille","lat":43.3061,"lon":5.37232,"is_reserved":false,"is_disabled":false,"rental_uris":{"android":"levelo://app?vid=5d3f178c-44f1-4885-b1d5-af2c7fbf1f11","ios":"levelo://app?vid=5d3f178c-44f1-4885-b1d5-af2c7fbf1f11"},"vehicle_type_id":"4","last_reported":1733591229,"current_range_meters":30800,"station_id":"ce4bgqh2rcd13ifvqc4g","pricing_plan_id":"cebpf4jnsgd1na2vs0mg"},{"bike_id":"37ea3103-0ce2-48f8-bac8-65a1cf71f991","system_id":"levelo_inurba_marseille","lat":43.24662,"lon":5.38172,"is_reserved":false,"is_disabled":true,"rental_uris":{"android":"levelo://app?vid=37ea3103-0ce2-48f8-bac8-65a1cf71f991","ios":"levelo://app?vid=37ea3103-0ce2-48f8-bac8-65a1cf71f991"},"vehicle_type_id":"4","last_reported":1733591229,"current_range_meters":38400,"station_id":"ce4bhih2rcd13ifvqfr0","pricing_plan_id":"cebpf4jnsgd1na2vs0mg"},{"bike_id":"ddaec2ae-c8c1-4cb5-9551-589594726dd8","system_id":"levelo_inurba_marseille","lat":43.31364,"lon":5.38494,"is_reserved":false,"is_disabled":false,"rental_uris":{"android":"levelo://app?vid=ddaec2ae-c8c1-4cb5-9551-589594726dd8","ios":"levelo://app?vid=ddaec2ae-c8c1-4cb5-9551-589594726dd8"},"vehicle_type_id":"4","last_reported":1733591229,"current_range_meters":24400,"station_id":"ce4bgt92rcd13ifvqcf0","pricing_plan_id":"cebpf4jnsgd1na2vs0mg"},{"bike_id":"35f3c44e-0e88-42b6-9d0a-a15513a6f190","system_id":"levelo_inurba_marseille","lat":43.31116,"lon":5.36763,"is_reserved":false,"is_disabled":false,"rental_uris":{"android":"levelo://app?vid=35f3c44e-0e88-42b6-9d0a-a15513a6f190","ios":"levelo://app?vid=35f3c44e-0e88-42b6-9d0a-a15513a6f190"},"vehicle_type_id":"4","last_reported":1733591229,"current_range_meters":29600,"station_id":"","pricing_plan_id":"cebpf4jnsgd1na2vs0mg"},{"bike_id":"3702917b-7e66-4f83-a6eb-bc58a3f2a139","system_id":"levelo_inurba_marseille","lat":43.26057,"lon":5.394,"is_reserved":false,"is_disabled":true,"rental_uris":{"android":"levelo://app?vid=3702917b-7e66-4f83-a6eb-bc58a3f2a139","ios":"levelo://app?vid=3702917b-7e66-4f83-a6eb-bc58a3f2a139"},"vehicle_type_id":"4","last_reported":1733591229,"current_range_meters":38800,"station_id":"ce4bhh92rcd13ifvqfj0","pricing_plan_id":"cebpf4jnsgd1na2vs0mg"},{"bike_id":"bd45d4b8-a794-47d3-b71a-c238d420c3d9","system_id":"levelo_inurba_marseille","lat":43.29005,"lon":5.35615,"is_reserved":false,"is_disabled":true,"rental_uris":{"android":"levelo://app?vid=bd45d4b8-a794-47d3-b71a-c238d420c3d9","ios":"levelo://app?vid=bd45d4b8-a794-47d3-b71a-c238d420c3d9"},"vehicle_type_id":"4","last_reported":1733591229,"current_range_meters":38800,"station_id":"ce4bhb92rcd13ifvqen0","pricing_plan_id":"cebpf4jnsgd1na2vs0mg"},{"bike_id":"143ab471-c30d-495f-9761-b36f085fb285","system_id":"levelo_inurba_marseille","lat":43.31059,"lon":5.3766,"is_reserved":false,"is_disabled":false,"rental_uris":{"android":"levelo://app?vid=143ab471-c30d-495f-9761-b36f085fb285","ios":"levelo://app?vid=143ab471-c30d-495f-9761-b36f085fb285"},"vehicle_type_id":"4","last_reported":1733591229,"current_range_meters":36800,"station_id":"","pricing_plan_id":"cebpf4jnsgd1na2vs0mg"},{"bike_id":"d7fd8304-9263-4705-84e6-8552e65103a2","system_id":"levelo_inurba_marseille","lat":43.23957,"lon":5.36631,"is_reserved":false,"is_disabled":false,"rental_uris":{"android":"levelo://app?vid=d7fd8304-9263-4705-84e6-8552e65103a2","ios":"levelo://app?vid=d7fd8304-9263-4705-84e6-8552e65103a2"},"vehicle_type_id":"4","last_reported":1733591229,"current_range_meters":15200,"station_id":"ce4bhi12rcd13ifvqfp0","pricing_plan_id":"cebpf4jnsgd1na2vs0mg"},{"bike_id":"8bab4f58-6256-4ff5-8d1e-e2e0312198ca","system_id":"levelo_inurba_marseille","lat":43.3248,"lon":5.36571,"is_reserved":false,"is_disabled":false,"rental_uris":{"android":"levelo://app?vid=8bab4f58-6256-4ff5-8d1e-e2e0312198ca","ios":"levelo://app?vid=8bab4f58-6256-4ff5-8d1e-e2e0312198ca"},"vehicle_type_id":"4","last_reported":1733591229,"current_range_meters":30800,"station_id":"ce4bhs12rcd13ifvqhvg","pricing_plan_id":"cebpf4jnsgd1na2vs0mg"},{"bike_id":"f2a37eb6-f017-4df5-af6d-be67a65a5c03","system_id":"levelo_inurba_marseille","lat":43.29713,"lon":5.37702,"is_reserved":false,"is_disabled":false,"rental_uris":{"android":"levelo://app?vid=f2a37eb6-f017-4df5-af6d-be67a65a5c03","ios":"levelo://app?vid=f2a37eb6-f017-4df5-af6d-be67a65a5c03"},"vehicle_type_id":"4","last_reported":1733591229,"current_range_meters":19200,"station_id":"ce4bgkh2rcd13ifvqbl0","pricing_plan_id":"cebpf4jnsgd1na2vs0mg"},{"bike_id":"cb5c0934-089a-4430-9b17-7017fb3e333d","system_id":"levelo_inurba_marseille","lat":43.2894,"lon":5.36639,"is_reserved":false,"is_disabled":false,"rental_uris":{"android":"levelo://app?vid=cb5c0934-089a-4430-9b17-7017fb3e333d","ios":"levelo://app?vid=cb5c0934-089a-4430-9b17-7017fb3e333d"},"vehicle_type_id":"4","last_reported":1733591229,"current_range_meters":13600,"station_id":"ce4bhap2rcd13ifvqek0","pricing_plan_id":"cebpf4jnsgd1na2vs0mg"},{"bike_id":"9ba73117-d75b-4bca-9764-10e47e1d59d4","system_id":"levelo_inurba_marseille","lat":43.31329,"lon":5.39708,"is_reserved":false,"is_disabled":false,"rental_uris":{"android":"levelo://app?vid=9ba73117-d75b-4bca-9764-10e47e1d59d4","ios":"levelo://app?vid=9ba73117-d75b-4bca-9764-10e47e1d59d4"},"vehicle_type_id":"4","last_reported":1733591229,"current_range_meters":33200,"station_id":"ce4bgvp2rcd13ifvqcu0","pricing_plan_id":"cebpf4jnsgd1na2vs0mg"},{"bike_id":"87c58aa7-a91e-4276-8123-ee1d6231b9b0","system_id":"levelo_inurba_marseille","lat":43.28423,"lon":5.35002,"is_reserved":false,"is_disabled":true,"rental_uris":{"android":"levelo://app?vid=87c58aa7-a91e-4276-8123-ee1d6231b9b0","ios":"levelo://app?vid=87c58aa7-a91e-4276-8123-ee1d6231b9b0"},"vehicle_type_id":"4","last_reported":1733591229,"current_range_meters":0,"station_id":"ce4bhbh2rcd13ifvqepg","pricing_plan_id":"cebpf4jnsgd1na2vs0mg"},