{"last_updated":1746115961,"ttl":60,"version":"2.2","data":{"bikes":[{"bike_id":"51fc11dd-b01e-4dd8-90cb-76dffb12ba1d","system_id":"levelo_inurba_marseille","lat":43.29275,"lon":5.36759,"is_reserved":false,"is_disabled":true,"rental_uris":{"android":"levelo://app?vid=51fc11dd-b01e-4dd8-90cb-76dffb12ba1d","ios":"levelo://app?vid=51fc11dd-b01e-4dd8-90cb-76dffb12ba1d"},"vehicle_type_id":"4","last_reported":1746115961,"current_range_meters":0,"station_id":"","pricing_plan_id":"cebpf4jnsgd1na2vs0mg"},{"bike_id":"f1cb23bc-1834-4089-a420-ddfb793eb286","system_id":"levelo_inurba_marseille","lat":43.32617,"lon":5.35702,"is_reserved":false,"is_disabled":true,"rental_uris":{"android":"levelo://app?vid=f1cb23bc-1834-4089-a420-ddfb793eb286","ios":"levelo://app?vid=f1cb23bc-1834-4089-a420-ddfb793eb286"},"vehicle_type_id":"4","last_reported":1746115961,"current_range_meters":0,"station_id":"","pricing_plan_id":"cebpf4jnsgd1na2vs0mg"},{"bike_id":"3f06fb43-12f7-4ccb-b229-ae326cbe6dad","system_id":"levelo_inurba_marseille","lat":43.269068,"lon":5.36947,"is_reserved":false,"is_disabled":true,"rental_uris":{"android":"levelo://app?vid=3f06fb43-12f7-4ccb-b229-ae326cbe6dad","ios":"levelo://app?vid=3f06fb43-12f7-4ccb-b229-ae326cbe6dad"},"vehicle_type_id":"4","last_reported":1746115961,"current_range_meters":0,"station_id":"","pricing_plan_id":"cebpf4jnsgd1na2vs0mg"},{"bike_id":"0f121d82-64f1-438c-88ad-00e9d22a0660","system_id":"levelo_inurba_marseille","lat":43.21189,"lon":5.35077,"is_reserved":false,"is_disabled":true,"rental_uris":{"android":"levelo://app?vid=0f121d82-64f1-438c-88ad-00e9d22a0660","ios":"levelo://app?vid=0f121d82-64f1-438c-88ad-00e9d22a0660"},"vehicle_type_id":"4","last_reported":1746115961,"current_range_meters":0,"station_id":"","pricing_plan_id":"cebpf4jnsgd1na2vs0mg"},{"bike_id":"5d49d56f-2516-4158-bd27-35eb6811e4bb","system_id":"levelo_inurba_marseille","lat":43.27153,"lon":5.38659,"is_reserved":false,"is_disabled":true,"rental_uris":{"android":"levelo://app?vid=5d49d56f-2516-4158-bd27-35eb6811e4bb","ios":"levelo://app?vid=5d49d56f-2516-4158-bd27-35eb6811e4bb"},"vehicle_type_id":"4","last_reported":1746115961,"current_range_meters":0,"station_id":"","pricing_plan_id":"cebpf4jnsgd1na2vs0mg"},{"bike_id":"d460f272-473a-41f6-abdc-1faecc077d69","system_id":"levelo_inurba_marseille","lat":43.25213,"lon":5.4031,"is_reserved":false,"is_disabled":true,"rental_uris":{"android":"levelo://app?vid=d460f272-473a-41f6-abdc-1faecc077d69","ios":"levelo://app?vid=d460f272-473a-41f6-abdc-1faecc077d69"},"vehicle_type_id":"4","last_reported":1746115961,"current_range_meters":0,"station_id":"","pricing_plan_id":"cebpf4jnsgd1na2vs0mg"},{"bike_id":"06853c4d-335a-4921-9531-ff1ce5cbac24","system_id":"levelo_inurba_marseille","lat":43.296199,"lon":5.377049,"is_reserved":false,"is_disabled":true,"rental_uris":{"android":"levelo://app?vid=06853c4d-335a-4921-9531-ff1ce5cbac24","ios":"levelo://app?vid=06853c4d-335a-4921-9531-ff1ce5cbac24"},"vehicle_type_id":"4","last_reported":1746115961,"current_range_meters":0,"station_id":"","pricing_plan_id":"cebpf4jnsgd1na2vs0mg"},{"bike_id":"d79b86e8-fd1d-4569-b2c5-3e5294fabd51","system_id":"levelo_inurba_marseille","lat":43.29267,"lon":5.36719,"is_reserved":false,"is_disabled":true,"rental_uris":{"android":"levelo://app?vid=d79b86e8-fd1d-4569-b2c5-3e5294fabd51","ios":"levelo://app?vid=d79b86e8-fd1d-4569-b2c5-3e5294fabd51"},"vehicle_type_id":"4","last_reported":1746115961,"current_range_meters":0,"station_id":"","pricing_plan_id":"cebpf4jnsgd1na2vs0mg"},{"bike_id":"62edf145-36f3-46e0-82a9-700c9f1121d3","system_id":"levelo_inurba_marseille","lat":43.3097,"lon":5.37264,"is_reserved":false,"is_disabled":true,"rental_uris":{"android":"levelo://app?vid=62edf145-36f3-46e0-82a9-700c9f1121d3","ios":"levelo://app?vid=62edf145-36f3-46e0-82a9-700c9f1121d3"},"vehicle_type_id":"4","last_reported":1746115961,"current_range_meters":0,"station_id":"","pricing_plan_id":"cebpf4jnsgd1na2vs0mg"},{"bike_id":"705db5aa-feb0-4862-923d-cfb22bced0d3","system_id":"levelo_inurba_marseille","lat":43.21483,"lon":5.34822,"is_reserved":false,"is_disabled":true,"rental_uris":{"android":"levelo://app?vid=705db5aa-feb0-4862-923d-cfb22bced0d3","ios":"levelo://app?vid=705db5aa-feb0-4862-923d-cfb22bced0d3"},"vehicle_type_id":"4","last_reported":1746115961,"current_range_meters":0,"station_id":"","pricing_plan_id":"cebpf4jnsgd1na2vs0mg"},{"bike_id":"17996c13-8a15-4afe-8029-77b15b449073","system_id":"levelo_inurba_marseille","lat":43.33758,"lon":5.37492,"is_reserved":false,"is_disabled":true,"rental_uris":{"android":"levelo://app?vid=17996c13-8a15-4afe-8029-77b15b449073","ios":"levelo://app?vid=17996c13-8a15-4afe-8029-77b15b449073"},"vehicle_type_id":"4","last_reported":1746115961,"current_range_meters":0,"station_id":"","pricing_plan_id":"cebpf4jnsgd1na2vs0mg"},{"bike_id":"199d4df3-633a-40f3-8df0-58aa2f6291b0","system_id":"levelo_inurba_marseille","lat":43.29271,"lon":5.37637,"is_reserved":false,"is_disabled":true,"rental_uris":{"android":"levelo://app?vid=199d4df3-633a-40f3-8df0-58aa2f6291b0","ios":"levelo://app?vid=199d4df3-633a-40f3-8df0-58aa2f6291b0"},"vehicle_type_id":"4","last_reported":1746115961,"current_range_meters":0,"station_id":"ce4bgi12rcd13ifvqb80","pricing_plan_id":"cebpf4jnsgd1na2vs0mg"},{"bike_id":"0a8f6a5f-d4b4-4a62-802a-b089233f2ea9","system_id":"levelo_inurba_marseille","lat":43.276265,"lon":5.361104,"is_reserved":false,"is_disabled":true,"rental_uris":{"android":"levelo://app?vid=0a8f6a5f-d4b4-4a62-802a-b089233f2ea9","ios":"levelo://app?vid=0a8f6a5f-d4b4-4a62-802a-b089233f2ea9"},"vehicle_type_id":"4","last_reported":1746115961,"current_range_meters":0,"station_id":"ce4bgj92rcd13ifvqbe0","pricing_plan_id":"cebpf4jnsgd1na2vs0mg"},{"bike_id":"d1aa8ebb-601b-4476-9486-05d87f203a59","system_id":"levelo_inurba_marseille","lat":43.30463,"lon":5.37891,"is_reserved":false,"is_disabled":true,"rental_uris":{"android":"levelo://app?vid=d1aa8ebb-601b-4476-9486-05d87f203a59","ios":"levelo://app?vid=d1aa8ebb-601b-4476-9486-05d87f203a59"},"vehicle_type_id":"4","last_reported":1746115961,"current_range_meters":0,"station_id":"ce4bgup2rcd13ifvqcn0","pricing_plan_id":"cebpf4jnsgd1na2vs0mg"},{"bike_id":"83b5c3a1-0315-424a-a6ae-2cf2686f8625","system_id":"levelo_inurba_marseille","lat":43.3024,"lon":5.40043,"is_reserved":false,"is_disabled":true,"rental_uris":{"android":"levelo://app?vid=83b5c3a1-0315-424a-a6ae-2cf2686f8625","ios":"levelo://app?vid=83b5c3a1-0315-424a-a6ae-2cf2686f8625"},"vehicle_type_id":"4","last_reported":1746115961,"current_range_meters":0,"station_id":"ce4bgvh2rcd13ifvqcs0","pricing_plan_id":"cebpf4jnsgd1na2vs0mg"},{"bike_id":"b31d828b-02d6-49e1-aadc-93d191033f24","system_id":"levelo_inurba_marseille","lat":43.305939,"lon":5.393669,"is_reserved":false,"is_disabled":true,"rental_uris":{"android":"levelo://app?vid=b31d828b-02d6-49e1-aadc-93d191033f24","ios":"levelo://app?vid=b31d828b-02d6-49e1-aadc-93d191033f24"},"vehicle_type_id":"4","last_reported":1746115961,"current_range_meters":0,"station_id":"ce4bh0p2rcd13ifvqd80","pricing_plan_id":"cebpf4jnsgd1na2vs0mg"},{"bike_id":"40dffb6c-8759-449b-8b8a-c81a10b4b980","system_id":"levelo_inurba_marseille","lat":43.301,"lon":5.39099,"is_reserved":false,"is_disabled":true,"rental_uris":{"android":"levelo://app?vid=40dffb6c-8759-449b-8b8a-c81a10b4b980","ios":"levelo://app?vid=40dffb6c-8759-449b-8b8a-c81a10b4b980"},"vehicle_type_id":"4","last_reported":1746115961,"current_range_meters":0,"station_id":"ce4bh192rcd13ifvqdb0","pricing_plan_id":"cebpf4jnsgd1na2vs0mg"},{"bike_id":"3b9492cf-de4f-4012-9a23-3d372d0b28ac","system_id":"levelo_inurba_marseille","lat":43.28564,"lon":5.39502,"is_reserved":false,"is_disabled":true,"rental_uris":{"android":"levelo://app?vid=3b9492cf-de4f-4012-9a23-3d372d0b28ac","ios":"levelo://app?vid=3b9492cf-de4f-4012-9a23-3d372d0b28ac"},"vehicle_type_id":"4","last_reported":1746115961,"current_range_meters":0,"station_id":"ce4bh292rcd13ifvqdg0","pricing_plan_id":"cebpf4jnsgd1na2vs0mg"},{"bike_id":"22e3b019-e958-4dd0-abf7-473f2d3fe6f7","system_id":"levelo_inurba_marseille","lat":43.28851,"lon":5.39326,"is_reserved":false,"is_disabled":true,"rental_uris":{"android":"levelo://app?vid=22e3b019-e958-4dd0-abf7-473f2d3fe6f7","ios":"levelo://app?vid=22e3b019-e958-4dd0-abf7-473f2d3fe6f7"},"vehicle_type_id":"4","last_reported":1746115961,"current_range_meters":0,"station_id":"ce4bh2p2rcd13ifvqdi0","pricing_plan_id":"cebpf4jnsgd1na2vs0mg"},{"bike_id":"30f1defb-c3ff-4b40-9991-27fbf547c172","system_id":"levelo_inurba_marseille","lat":43.288555,"lon":5.393201,"is_reserved":false,"is_disabled":true,"rental_uris":{"android":"levelo://app?vid=30f1defb-c3ff-4b40-9991-27fbf547c172","ios":"levelo://app?vid=30f1defb-c3ff-4b40-9991-27fbf547c172"},"vehicle_type_id":"4","last_reported":1746115961,"current_range_meters":0,"station_id":"ce4bh2p2rcd13ifvqdi0","pricing_plan_id":"cebpf4jnsgd1na2vs0mg"},{"bike_id":"48a3c197-e6e4-4b99-aa3a-89d3a202a31d","system_id":"levelo_inurba_marseille","lat":43.29525,"lon":5.39037,"is_reserved":false,"is_disabled":true,"rental_uris":{"android":"levelo://app?vid=48a3c197-e6e4-4b99-aa3a-89d3a202a31d","ios":"levelo://app?vid=48a3c197-e6e4-4b99-aa3a-89d3a202a31d"},"vehicle_type_id":"4","last_reported":1746115961,"current_range_meters":0,"station_id":"ce4bh3p2rcd13ifvqdp0","pricing_plan_id":"cebpf4jnsgd1na2vs0mg"},{"bike_id":"2a1b76a6-937f-441b-9798-0e80a94dd2bf","system_id":"levelo_inurba_marseille","lat":43.28414,"lon":5.37518,"is_reserved":false,"is_disabled":true,"rental_uris":{"android":"levelo://app?vid=2a1b76a6-937f-441b-9798-0e80a94dd2bf","ios":"levelo://app?vid=2a1b76a6-937f-441b-9798-0e80a94dd2bf"},"vehicle_type_id":"4","last_reported":1746115961,"current_range_meters":0,"station_id":"ce4bh412rcd13ifvqds0","pricing_plan_id":"cebpf4jnsgd1na2vs0mg"},{"bike_id":"413e8bc3-172d-4ce8-a4b5-c90d1f5c32af","system_id":"levelo_inurba_marseille","lat":43.29048,"lon":5.38129,"is_reserved":false,"is_disabled":true,"rental_uris":{"android":"levelo://app?vid=413e8bc3-172d-4ce8-a4b5-c90d1f5c32af","ios":"levelo://app?vid=413e8bc3-172d-4ce8-a4b5-c90d1f5c32af"},"vehicle_type_id":"4","last_reported":1746115961,"current_range_meters":0,"station_id":"ce4bh4p2rcd13ifvqe1g","pricing_plan_id":"cebpf4jnsgd1na2vs0mg"},{"bike_id":"a9e63505-0a4c-4feb-b155-b0a3298980e7","system_id":"levelo_inurba_marseille","lat":43.28922,"lon":5.38399,"is_reserved":false,"is_disabled":true,"rental_uris":{"android":"levelo://app?vid=a9e63505-0a4c-4feb-b155-b0a3298980e7","ios":"levelo://app?vid=a9e63505-0a4c-4feb-b155-b0a3298980e7"},"vehicle_type_id":"4","last_reported":1746115961,"current_range_meters":0,"station_id":"ce4bh612rcd13ifvqe6g","pricing_plan_id":"cebpf4jnsgd1na2vs0mg"},{"bike_id":"a5b093a9-cc2e-492d-b1e0-2816a6fe92cc","system_id":"levelo_inurba_marseille","lat":43.28042,"lon":5.36931,"is_reserved":false,"is_disabled":true,"rental_uris":{"android":"levelo://app?vid=a5b093a9-cc2e-492d-b1e0-2816a6fe92cc","ios":"levelo://app?vid=a5b093a9-cc2e-492d-b1e0-2816a6fe92cc"},"vehicle_type_id":"4","last_reported":1746115961,"current_range_meters":0,"station_id":"ce4bha12rcd13ifvqef0","pricing_plan_id":"cebpf4jnsgd1na2vs0mg"},{"bike_id":"3f0e978b-8a04-4982-91ec-52910499181f","system_id":"levelo_inurba_marseille","lat":43.28872,"lon":5.35834,"is_reserved":false,"is_disabled":true,"rental_uris":{"android":"levelo://app?vid=3f0e978b-8a04-4982-91ec-52910499181f","ios":"levelo://app?vid=3f0e978b-8a04-4982-91ec-52910499181f"},"vehicle_type_id":"4","last_reported":1746115961,"current_range_meters":0,"station_id":"ce4bhb12rcd13ifvqem0","pricing_plan_id":"cebpf4jnsgd1na2vs0mg"},{"bike_id":"f230e5be-5369-4b49-aff7-78373d5d619b","system_id":"levelo_inurba_marseille","lat":43.27397,"lon":5.36272,"is_reserved":false,"is_disabled":true,"rental_uris":{"android":"levelo://app?vid=f230e5be-5369-4b49-aff7-78373d5d619b","ios":"levelo://app?vid=f230e5be-5369-4b49-aff7-78373d5d619b"},"vehicle_type_id":"4","last_reported":1746115961,"current_range_meters":0,"station_id":"ce4bhbh2rcd13ifvqeo0","pricing_plan_id":"cebpf4jnsgd1na2vs0mg"},{"bike_id":"a51552b7-4edc-4916-b036-7c3781a01134","system_id":"levelo_inurba_marseille","lat":43.27377,"lon":5.3626,"is_reserved":false,"is_disabled":true,"rental_uris":{"android":"levelo://app?vid=a51552b7-4edc-4916-b036-7c3781a01134","ios":"levelo://app?vid=a51552b7-4edc-4916-b036-7c3781a01134"},"vehicle_type_id":"4","last_reported":1746115961,"current_range_meters":0,"station_id":"ce4bhbh2rcd13ifvqeo0","pricing_plan_id":"cebpf4jnsgd1na2vs0mg"},{"bike_id":"21890a0c-b127-4d22-a7d2-886fc10fa651","system_id":"levelo_inurba_marseille","lat":43.28422,"lon":5.34978,"is_reserved":false,"is_disabled":true,"rental_uris":{"android":"levelo://app?vid=21890a0c-b127-4d22-a7d2-886fc10fa651","ios":"levelo://app?vid=21890a0c-b127-4d22-a7d2-886fc10fa651"},"vehicle_type_id":"4","last_reported":1746115961,"current_range_meters":0,"station_id":"ce4bhbh2rcd13ifvqepg","pricing_plan_id":"cebpf4jnsgd1na2vs0mg"},{"bike_id":"eeb90ca8-e2a7-4759-b59f-1de045971b3e","system_id":"levelo_inurba_marseille","lat":43.28622,"lon":5.35116,"is_reserved":false,"is_disabled":true,"rental_uris":{"android":"levelo://app?vid=eeb90ca8-e2a7-4759-b59f-1de045971b3e","ios":"levelo://app?vid=eeb90ca8-e2a7-4759-b59f-1de045971b3e"},"vehicle_type_id":"4","last_reported":1746115961,"current_range_meters":0,"station_id":"ce4bhch2rcd13ifvqeug","pricing_plan_id":"cebpf4jnsgd1na2vs0mg"},{"bike_id":"af5675cc-4d1d-4962-b394-87e062c4fa3f","system_id":"levelo_inurba_marseille","lat":43.28618,"lon":5.35111,"is_reserved":false,"is_disabled":true,"rental_uris":{"android":"levelo://app?vid=af5675cc-4d1d-4962-b394-87e062c4fa3f","ios":"levelo://app?vid=af5675cc-4d1d-4962-b394-87e062c4fa3f"},"vehicle_type_id":"4","last_reported":1746115961,"current_range_meters":0,"station_id":"ce4bhch2rcd13ifvqeug","pricing_plan_id":"cebpf4jnsgd1na2vs0mg"},{"bike_id":"be9696ce-08c9-4793-b331-9e9b0cf94f47","system_id":"levelo_inurba_marseille","lat":43.28616,"lon":5.35099,"is_reserved":false,"is_disabled":true,"rental_uris":{"android":"levelo://app?vid=be9696ce-08c9-4793-b331-9e9b0cf94f47","ios":"levelo://app?vid=be9696ce-08c9-4793-b331-9e9b0cf94f47"},"vehicle_type_id":"4","last_reported":1746115961,"current_range_meters":0,"station_id":"ce4bhch2rcd13ifvqeug","pricing_plan_id":"cebpf4jnsgd1na2vs0mg"},{"bike_id":"0ecb6a8a-4409-40f8-aaec-2b18e27cf7b5","system_id":"levelo_inurba_marseille","lat":43.28616,"lon":5.35102,"is_reserved":false,"is_disabled":true,"rental_uris":{"android":"levelo://app?vid=0ecb6a8a-4409-40f8-aaec-2b18e27cf7b5","ios":"levelo://app?vid=0ecb6a8a-4409-40f8-aaec-2b18e27cf7b5"},"vehicle_type_id":"4","last_reported":1746115961,"current_range_meters":0,"station_id":"ce4bhch2rcd13ifvqeug","pricing_plan_id":"cebpf4jnsgd1na2vs0mg"},{"bike_id":"fb6a1b6c-0f88-499e-b1da-76a1e8c8758f","system_id":"levelo_inurba_marseille","lat":43.2658,"lon":5.39009,"is_reserved":false,"is_disabled":true,"rental_uris":{"android":"levelo://app?vid=fb6a1b6c-0f88-499e-b1da-76a1e8c8758f","ios":"levelo://app?vid=fb6a1b6c-0f88-499e-b1da-76a1e8c8758f"},"vehicle_type_id":"4","last_reported":1746115961,"current_range_meters":0,"station_id":"ce4bhe12rcd13ifvqf30","pricing_plan_id":"cebpf4jnsgd1na2vs0mg"},{"bike_id":"4fac3eae-a616-46ef-baaa-d4a55e0bec64","system_id":"levelo_inurba_marseille","lat":43.26554,"lon":5.37304,"is_reserved":false,"is_disabled":true,"rental_uris":{"android":"levelo://app?vid=4fac3eae-a616-46ef-baaa-d4a55e0bec64","ios":"levelo://app?vid=4fac3eae-a616-46ef-baaa-d4a55e0bec64"},"vehicle_type_id":"4","last_reported":1746115961,"current_range_meters":0,"station_id":"ce4bhg12rcd13ifvqf70","pricing_plan_id":"cebpf4jnsgd1na2vs0mg"},{"bike_id":"4b755664-1851-4467-b08d-62cf6f56dec6","system_id":"levelo_inurba_marseille","lat":43.27973,"lon":5.38749,"is_reserved":false,"is_disabled":true,"rental_uris":{"android":"levelo://app?vid=4b755664-1851-4467-b08d-62cf6f56dec6","ios":"levelo://app?vid=4b755664-1851-4467-b08d-62cf6f56dec6"},"vehicle_type_id":"4","last_reported":1746115961,"current_range_meters":0,"station_id":"ce4bhg12rcd13ifvqf80","pricing_plan_id":"cebpf4jnsgd1na2vs0mg"},{"bike_id":"f9b9d44d-d23f-4a31-98d8-ec76d321d9e9","system_id":"levelo_inurba_marseille","lat":43.24806,"lon":5.37449,"is_reserved":false,"is_disabled":true,"rental_uris":{"android":"levelo://app?vid=f9b9d44d-d23f-4a31-98d8-ec76d321d9e9","ios":"levelo://app?vid=f9b9d44d-d23f-4a31-98d8-ec76d321d9e9"},"vehicle_type_id":"4","last_reported":1746115961,"current_range_meters":0,"station_id":"ce4bhgh2rcd13ifvqfb0","pricing_plan_id":"cebpf4jnsgd1na2vs0mg"},{"bike_id":"b7154403-0cc4-4a77-85c3-72b7a6b9831e","system_id":"levelo_inurba_marseille","lat":43.27317,"lon":5.3909,"is_reserved":false,"is_disabled":true,"rental_uris":{"android":"levelo://app?vid=b7154403-0cc4-4a77-85c3-72b7a6b9831e","ios":"levelo://app?vid=b7154403-0cc4-4a77-85c3-72b7a6b9831e"},"vehicle_type_id":"4","last_reported":1746115961,"current_range_meters":0,"station_id":"ce4bhgp2rcd13ifvqfe0","pricing_plan_id":"cebpf4jnsgd1na2vs0mg"},{"bike_id":"b3554e07-0120-42d0-8b73-cfaf98d275b0","system_id":"levelo_inurba_marseille","lat":43.27316,"lon":5.39084,"is_reserved":false,"is_disabled":true,"rental_uris":{"android":"levelo://app?vid=b3554e07-0120-42d0-8b73-cfaf98d275b0","ios":"levelo://app?vid=b3554e07-0120-42d0-8b73-cfaf98d275b0"},"vehicle_type_id":"4","last_reported":1746115961,"current_range_meters":0,"station_id":"ce4bhgp2rcd13ifvqfe0","pricing_plan_id":"cebpf4jnsgd1na2vs0mg"},{"bike_id":"5a4e00e5-e18d-4ce7-ad3f-6b8e25a5e36d","system_id":"levelo_inurba_marseille","lat":43.25492,"lon":5.37652,"is_reserved":false,"is_disabled":true,"rental_uris":{"android":"levelo://app?vid=5a4e00e5-e18d-4ce7-ad3f-6b8e25a5e36d","ios":"levelo://app?vid=5a4e00e5-e18d-4ce7-ad3f-6b8e25a5e36d"},"vehicle_type_id":"4","last_reported":1746115961,"current_range_meters":0,"station_id":"ce4bhh12rcd13ifvqff0","pricing_plan_id":"cebpf4jnsgd1na2vs0mg"},{"bike_id":"6315ef06-5e78-49e4-bdcf-3910a7486925","system_id":"levelo_inurba_marseille","lat":43.25502,"lon":5.37653,"is_reserved":false,"is_disabled":true,"rental_uris":{"android":"levelo://app?vid=6315ef06-5e78-49e4-bdcf-3910a7486925","ios":"levelo://app?vid=6315ef06-5e78-49e4-bdcf-3910a7486925"},"vehicle_type_id":"4","last_reported":1746115961,"current_range_meters":0,"station_id":"ce4bhh12rcd13ifvqff0","pricing_plan_id":"cebpf4jnsgd1na2vs0mg"},{"bike_id":"ebac35bc-9533-4429-87a7-5dbc3a7e354e","system_id":"levelo_inurba_marseille","lat":43.2695,"lon":5.38631,"is_reserved":false,"is_disabled":true,"rental_uris":{"android":"levelo://app?vid=ebac35bc-9533-4429-87a7-5dbc3a7e354e","ios":"levelo://app?vid=ebac35bc-9533-4429-87a7-5dbc3a7e354e"},"vehicle_type_id":"4","last_reported":1746115961,"current_range_meters":0,"station_id":"ce4bhh92rcd13ifvqfh0","pricing_plan_id":"cebpf4jnsgd1na2vs0mg"},{"bike_id":"cc884729-539b-43bb-a5f3-09bf826b3a65","system_id":"levelo_inurba_marseille","lat":43.24394,"lon":5.37067,"is_reserved":false,"is_disabled":true,"rental_uris":{"android":"levelo://app?vid=cc884729-539b-43bb-a5f3-09bf826b3a65","ios":"levelo://app?vid=cc884729-539b-43bb-a5f3-09bf826b3a65"},"vehicle_type_id":"4","last_reported":1746115961,"current_range_meters":0,"station_id":"ce4bhhh2rcd13ifvqfk0","pricing_plan_id":"cebpf4jnsgd1na2vs0mg"},{"bike_id":"1a8c867d-b641-4e1f-a0b2-64afbe4dc5e3","system_id":"levelo_inurba_marseille","lat":43.27644,"lon":5.38913,"is_reserved":false,"is_disabled":true,"rental_uris":{"android":"levelo://app?vid=1a8c867d-b641-4e1f-a0b2-64afbe4dc5e3","ios":"levelo://app?vid=1a8c867d-b641-4e1f-a0b2-64afbe4dc5e3"},"vehicle_type_id":"4","last_reported":1746115961,"current_range_meters":0,"station_id":"ce4bhi12rcd13ifvqfo0","pricing_plan_id":"cebpf4jnsgd1na2vs0mg"},{"bike_id":"6868e2fd-9109-4a66-8845-88d0b4e21f03","system_id":"levelo_inurba_marseille","lat":43.27683,"lon":5.38919,"is_reserved":false,"is_disabled":true,"rental_uris":{"android":"levelo://app?vid=6868e2fd-9109-4a66-8845-88d0b4e21f03","ios":"levelo://app?vid=6868e2fd-9109-4a66-8845-88d0b4e21f03"},"vehicle_type_id":"4","last_reported":1746115961,"current_range_meters":0,"station_id":"ce4bhi12rcd13ifvqfo0","pricing_plan_id":"cebpf4jnsgd1na2vs0mg"},{"bike_id":"244b3698-1351-498f-a7ad-bd2de0b854e5","system_id":"levelo_inurba_marseille","lat":43.23957,"lon":5.36653,"is_reserved":false,"is_disabled":true,"rental_uris":{"android":"levelo://app?vid=244b3698-1351-498f-a7ad-bd2de0b854e5","ios":"levelo://app?vid=244b3698-1351-498f-a7ad-bd2de0b854e5"},"vehicle_type_id":"4","last_reported":1746115961,"current_range_meters":0,"station_id":"ce4bhi12rcd13ifvqfp0","pricing_plan_id":"cebpf4jnsgd1na2vs0mg"},{"bike_id":"c448121d-1caa-4eaf-bb21-fc7e93f523d5","system_id":"levelo_inurba_marseille","lat":43.23958,"lon":5.36649,"is_reserved":false,"is_disabled":true,"rental_uris":{"android":"levelo://app?vid=c448121d-1caa-4eaf-bb21-fc7e93f523d5","ios":"levelo://app?vid=c448121d-1caa-4eaf-bb21-fc7e93f523d5"},"vehicle_type_id":"4","last_reported":1746115961,"current_range_meters":0,"station_id":"ce4bhi12rcd13ifvqfp0","pricing_plan_id":"cebpf4jnsgd1na2vs0mg"},{"bike_id":"53f1be3a-d5a0-4a29-8c5c-56e5784bd702","system_id":"levelo_inurba_marseille","lat":43.24664,"lon":5.38165,"is_reserved":false,"is_disabled":true,"rental_uris":{"android":"levelo://app?vid=53f1be3a-d5a0-4a29-8c5c-56e5784bd702","ios":"levelo://app?vid=53f1be3a-d5a0-4a29-8c5c-56e5784bd702"},"vehicle_type_id":"4","last_reported":1746115961,"current_range_meters":0,"station_id":"ce4bhih2rcd13ifvqfr0","pricing_plan_id":"cebpf4jnsgd1na2vs0mg"},{"bike_id":"14c30b40-59f9-4f70-a8d3-e5f381938ad5","system_id":"levelo_inurba_marseille","lat":43.25589,"lon":5.38242,"is_reserved":false,"is_disabled":true,"rental_uris":{"android":"levelo://app?vid=14c30b40-59f9-4f70-a8d3-e5f381938ad5","ios":"levelo://app?vid=14c30b40-59f9-4f70-a8d3-e5f381938ad5"},"vehicle_type_id":"4","last_reported":1746115961,"current_range_meters":0,"station_id":"ce4bhih2rcd13ifvqfs0","pricing_plan_id":"cebpf4jnsgd1na2vs0mg"},{"bike_id":"c746d623-b738-4147-86a0-d15d00315163","system_id":"levelo_inurba_marseille","lat":43.25587,"lon":5.38268,"is_reserved":false,"is_disabled":true,"rental_uris":{"android":"levelo://app?vid=c746d623-b738-4147-86a0-d15d00315163","ios":"levelo://app?vid=c746d623-b738-4147-86a0-d15d00315163"},"vehicle_type_id":"4","last_reported":1746115961,"current_range_meters":0,"station_id":"ce4bhih2rcd13ifvqfs0","pricing_plan_id":"cebpf4jnsgd1na2vs0mg"},{"bike_id":"490cfb93-8c39-42a0-a7aa-0a43c46134b8","system_id":"levelo_inurba_marseille","lat":43.251137,"lon":5.403183,"is_reserved":false,"is_disabled":true,"rental_uris":{"android":"levelo://app?vid=490cfb93-8c39-42a0-a7aa-0a43c46134b8","ios":"levelo://app?vid=490cfb93-8c39-42a0-a7aa-0a43c46134b8"},"vehicle_type_id":"4","last_reported":1746115961,"current_range_meters":0,"station_id":"ce4bhlh2rcd13ifvqgig","pricing_plan_id":"cebpf4jnsgd1na2vs0mg"},{"bike_id":"0920897a-df77-422f-9e88-a2fa7c776b7e","system_id":"levelo_inurba_marseille","lat":43.23157,"lon":5.43701,"is_reserved":false,"is_disabled":true,"rental_uris":{"android":"levelo://app?vid=0920897a-df77-422f-9e88-a2fa7c776b7e","ios":"levelo://app?vid=0920897a-df77-422f-9e88-a2fa7c776b7e"},"vehicle_type_id":"4","last_reported":1746115961,"current_range_meters":0,"station_id":"ce4bhmp2rcd13ifvqgog","pricing_plan_id":"cebpf4jnsgd1na2vs0mg"},{"bike_id":"f0f19792-ee3c-4df1-9e12-3b9d6f0ae25e","system_id":"levelo_inurba_marseille","lat":43.23191,"lon":5.4371,"is_reserved":false,"is_disabled":true,"rental_uris":{"android":"levelo://app?vid=f0f19792-ee3c-4df1-9e12-3b9d6f0ae25e","ios":"levelo://app?vid=f0f19792-ee3c-4df1-9e12-3b9d6f0ae25e"},"vehicle_type_id":"4","last_reported":1746115961,"current_range_meters":0,"station_id":"ce4bhmp2rcd13ifvqgog","pricing_plan_id":"cebpf4jnsgd1na2vs0mg"},{"bike_id":"8279eb1e-2f2c-4e73-bf6c-ad45a79c352c","system_id":"levelo_inurba_marseille","lat":43.23176,"lon":5.43703,"is_reserved":false,"is_disabled":true,"rental_uris":{"android":"levelo://app?vid=8279eb1e-2f2c-4e73-bf6c-ad45a79c352c","ios":"levelo://app?vid=8279eb1e-2f2c-4e73-bf6c-ad45a79c352c"},"vehicle_type_id":"4","last_reported":1746115961,"current_range_meters":0,"station_id":"ce4bhmp2rcd13ifvqgog","pricing_plan_id":"cebpf4jnsgd1na2vs0mg"},{"bike_id":"203d6bbb-75fd-4b13-b713-edcb16967c4b","system_id":"levelo_inurba_marseille","lat":43.23154,"lon":5.43713,"is_reserved":false,"is_disabled":true,"rental_uris":{"android":"levelo://app?vid=203d6bbb-75fd-4b13-b713-edcb16967c4b","ios":"levelo://app?vid=203d6bbb-75fd-4b13-b713-edcb16967c4b"},"vehicle_type_id":"4","last_reported":1746115961,"current_range_meters":0,"station_id":"ce4bhmp2rcd13ifvqgog","pricing_plan_id":"cebpf4jnsgd1na2vs0mg"},{"bike_id":"2dbc4cf6-a252-47bf-b738-7ce332096348","system_id":"levelo_inurba_marseille","lat":43.27818,"lon":5.40734,"is_reserved":false,"is_disabled":true,"rental_uris":{"android":"levelo://app?vid=2dbc4cf6-a252-47bf-b738-7ce332096348","ios":"levelo://app?vid=2dbc4cf6-a252-47bf-b738-7ce332096348"},"vehicle_type_id":"4","last_reported":1746115961,"current_range_meters":0,"station_id":"ce4bhnh2rcd13ifvqgtg","pricing_plan_id":"cebpf4jnsgd1na2vs0mg"},{"bike_id":"cac90dd6-e85b-4003-b864-9c50c2b2b7e9","system_id":"levelo_inurba_marseille","lat":43.24068,"lon":5.37761,"is_reserved":false,"is_disabled":true,"rental_uris":{"android":"levelo://app?vid=cac90dd6-e85b-4003-b864-9c50c2b2b7e9","ios":"levelo://app?vid=cac90dd6-e85b-4003-b864-9c50c2b2b7e9"},"vehicle_type_id":"4","last_reported":1746115961,"current_range_meters":0,"station_id":"ce4bhnp2rcd13ifvqgvg","pricing_plan_id":"cebpf4jnsgd1na2vs0mg"},{"bike_id":"e56f0e5b-a096-4133-85f2-03b330318385","system_id":"levelo_inurba_marseille","lat":43.27965,"lon":5.41045,"is_reserved":false,"is_disabled":true,"rental_uris":{"android":"levelo://app?vid=e56f0e5b-a096-4133-85f2-03b330318385","ios":"levelo://app?vid=e56f0e5b-a096-4133-85f2-03b330318385"},"vehicle_type_id":"4","last_reported":1746115961,"current_range_meters":0,"station_id":"ce4bhnp2rcd13ifvqh0g","pricing_plan_id":"cebpf4jnsgd1na2vs0mg"},{"bike_id":"3967df70-5d22-47d2-b57e-30cbee4cec75","system_id":"levelo_inurba_marseille","lat":43.31887,"lon":5.4073,"is_reserved":false,"is_disabled":true,"rental_uris":{"android":"levelo://app?vid=3967df70-5d22-47d2-b57e-30cbee4cec75","ios":"levelo://app?vid=3967df70-5d22-47d2-b57e-30cbee4cec75"},"vehicle_type_id":"4","last_reported":1746115961,"current_range_meters":0,"station_id":"ce4bhq12rcd13ifvqhig","pricing_plan_id":"cebpf4jnsgd1na2vs0mg"},{"bike_id":"fb700f38-a3d8-44b9-a8b8-c4468a069b77","system_id":"levelo_inurba_marseille","lat":43.33595,"lon":5.41017,"is_reserved":false,"is_disabled":true,"rental_uris":{"android":"levelo://app?vid=fb700f38-a3d8-44b9-a8b8-c4468a069b77","ios":"levelo://app?vid=fb700f38-a3d8-44b9-a8b8-c4468a069b77"},"vehicle_type_id":"4","last_reported":1746115961,"current_range_meters":0,"station_id":"ce4bhqh2rcd13ifvqhmg","pricing_plan_id":"cebpf4jnsgd1na2vs0mg"},{"bike_id":"7a1d5b73-d648-40ac-a518-90990c97cc25","system_id":"levelo_inurba_marseille","lat":43.23207,"lon":5.356,"is_reserved":false,"is_disabled":true,"rental_uris":{"android":"levelo://app?vid=7a1d5b73-d648-40ac-a518-90990c97cc25","ios":"levelo://app?vid=7a1d5b73-d648-40ac-a518-90990c97cc25"},"vehicle_type_id":"4","last_reported":1746115961,"current_range_meters":0,"station_id":"ce4bhu92rcd13ifvqi70","pricing_plan_id":"cebpf4jnsgd1na2vs0mg"},{"bike_id":"0f458e51-1e8b-4186-98f3-ff0211487d21","system_id":"levelo_inurba_marseille","lat":43.23189,"lon":5.3555,"is_reserved":false,"is_disabled":true,"rental_uris":{"android":"levelo://app?vid=0f458e51-1e8b-4186-98f3-ff0211487d21","ios":"levelo://app?vid=0f458e51-1e8b-4186-98f3-ff0211487d21"},"vehicle_type_id":"4","last_reported":1746115961,"current_range_meters":0,"station_id":"ce4bhu92rcd13ifvqi70","pricing_plan_id":"cebpf4jnsgd1na2vs0mg"},{"bike_id":"6d5ad100-7129-4f2a-bebb-1396f584ae3a","system_id":"levelo_inurba_marseille","lat":43.23191,"lon":5.3555,"is_reserved":false,"is_disabled":true,"rental_uris":{"android":"levelo://app?vid=6d5ad100-7129-4f2a-bebb-1396f584ae3a","ios":"levelo://app?vid=6d5ad100-7129-4f2a-bebb-1396f584ae3a"},"vehicle_type_id":"4","last_reported":1746115961,"current_range_meters":0,"station_id":"ce4bhu92rcd13ifvqi70","pricing_plan_id":"cebpf4jnsgd1na2vs0mg"},{"bike_id":"cd31c145-3929-4c2d-b661-38e53267c44a","system_id":"levelo_inurba_marseille","lat":43.23198,"lon":5.35571,"is_reserved":false,"is_disabled":true,"rental_uris":{"android":"levelo://app?vid=cd31c145-3929-4c2d-b661-38e53267c44a","ios":"levelo://app?vid=cd31c145-3929-4c2d-b661-38e53267c44a"},"vehicle_type_id":"4","last_reported":1746115961,"current_range_meters":0,"station_id":"ce4bhu92rcd13ifvqi70","pricing_plan_id":"cebpf4jnsgd1na2vs0mg"},{"bike_id":"d2a26197-10b0-483a-9c34-2d0476a10814","system_id":"levelo_inurba_marseille","lat":43.23227,"lon":5.35535,"is_reserved":false,"is_disabled":true,"rental_uris":{"android":"levelo://app?vid=d2a26197-10b0-483a-9c34-2d0476a10814","ios":"levelo://app?vid=d2a26197-10b0-483a-9c34-2d0476a10814"},"vehicle_type_id":"4","last_reported":1746115961,"current_range_meters":0,"station_id":"ce4bhu92rcd13ifvqi70","pricing_plan_id":"cebpf4jnsgd1na2vs0mg"},{"bike_id":"9876ab13-ecb5-444c-aa40-878a892bff04","system_id":"levelo_inurba_marseille","lat":43.26814,"lon":5.40268,"is_reserved":false,"is_disabled":true,"rental_uris":{"android":"levelo://app?vid=9876ab13-ecb5-444c-aa40-878a892bff04","ios":"levelo://app?vid=9876ab13-ecb5-444c-aa40-878a892bff04"},"vehicle_type_id":"4","last_reported":1746115961,"current_range_meters":0,"station_id":"ce501612rcd8frsf0b60","pricing_plan_id":"cebpf4jnsgd1na2vs0mg"},{"bike_id":"0f800a98-a08a-45f2-867c-a4e0bf8bea75","system_id":"levelo_inurba_marseille","lat":43.23089,"lon":5.35472,"is_reserved":false,"is_disabled":true,"rental_uris":{"android":"levelo://app?vid=0f800a98-a08a-45f2-867c-a4e0bf8bea75","ios":"levelo://app?vid=0f800a98-a08a-45f2-867c-a4e0bf8bea75"},"vehicle_type_id":"4","last_reported":1746115961,"current_range_meters":0,"station_id":"cpo3342slgdg3j2ifvpg","pricing_plan_id":"cebpf4jnsgd1na2vs0mg"},{"bike_id":"90cb8b3a-9adc-44a5-95d8-3295e0cf6ce5","system_id":"levelo_inurba_marseille","lat":43.23069,"lon":5.35485,"is_reserved":false,"is_disabled":true,"rental_uris":{"android":"levelo://app?vid=90cb8b3a-9adc-44a5-95d8-3295e0cf6ce5","ios":"levelo://app?vid=90cb8b3a-9adc-44a5-95d8-3295e0cf6ce5"},"vehicle_type_id":"4","last_reported":1746115961,"current_range_meters":0,"station_id":"cpo3342slgdg3j2ifvpg","pricing_plan_id":"cebpf4jnsgd1na2vs0mg"},{"bike_id":"ff182674-610f-4f52-b774-02cec4d89292","system_id":"levelo_inurba_marseille","lat":43.23062,"lon":5.35489,"is_reserved":false,"is_disabled":true,"rental_uris":{"android":"levelo://app?vid=ff182674-610f-4f52-b774-02cec4d89292","ios":"levelo://app?vid=ff182674-610f-4f52-b774-02cec4d89292"},"vehicle_type_id":"4","last_reported":1746115961,"current_range_meters":0,"station_id":"cpo3342slgdg3j2ifvpg","pricing_plan_id":"cebpf4jnsgd1na2vs0mg"},{"bike_id":"e3b70dfe-e868-4ac3-a33f-4ba88a6bbdc2","system_id":"levelo_inurba_marseille","lat":43.22958,"lon":5.3537,"is_reserved":false,"is_disabled":true,"rental_uris":{"android":"levelo://app?vid=e3b70dfe-e868-4ac3-a33f-4ba88a6bbdc2","ios":"levelo://app?vid=e3b70dfe-e868-4ac3-a33f-4ba88a6bbdc2"},"vehicle_type_id":"4","last_reported":1746115961,"current_range_meters":0,"station_id":"cpo3532slgdg3j2ikp40","pricing_plan_id":"cebpf4jnsgd1na2vs0mg"},{"bike_id":"27ca33c4-4b1e-430e-8278-3f135f422719","system_id":"levelo_inurba_marseille","lat":43.24169,"lon":5.36421,"is_reserved":false,"is_disabled":false,"rental_uris":{"android":"levelo://app?vid=27ca33c4-4b1e-430e-8278-3f135f422719","ios":"levelo://app?vid=27ca33c4-4b1e-430e-8278-3f135f422719"},"vehicle_type_id":"4","last_reported":1746115961,"current_range_meters":0,"station_id":"cpo36qri1sfpv3e86is0","pricing_plan_id":"cebpf4jnsgd1na2vs0mg"},{"bike_id":"474c0d33-3ed1-4e99-a7f0-2a95bec95399","system_id":"levelo_inurba_marseille","lat":43.24169,"lon":5.36415,"is_reserved":false,"is_disabled":false,"rental_uris":{"android":"levelo://app?vid=474c0d33-3ed1-4e99-a7f0-2a95bec95399","ios":"levelo://app?vid=474c0d33-3ed1-4e99-a7f0-2a95bec95399"},"vehicle_type_id":"4","last_reported":1746115961,"current_range_meters":0,"station_id":"cpo36qri1sfpv3e86is0","pricing_plan_id":"cebpf4jnsgd1na2vs0mg"},{"bike_id":"280c757f-dddf-462a-b856-441e9c12f12d","system_id":"levelo_inurba_marseille","lat":43.24167,"lon":5.36406,"is_reserved":false,"is_disabled":true,"rental_uris":{"android":"levelo://app?vid=280c757f-dddf-462a-b856-441e9c12f12d","ios":"levelo://app?vid=280c757f-dddf-462a-b856-441e9c12f12d"},"vehicle_type_id":"4","last_reported":1746115961,"current_range_meters":0,"station_id":"cpo36qri1sfpv3e86is0","pricing_plan_id":"cebpf4jnsgd1na2vs0mg"},{"bike_id":"7f2e81ee-0f0e-458f-a374-97c2568efb26","system_id":"levelo_inurba_marseille","lat":43.2174,"lon":5.34625,"is_reserved":false,"is_disabled":true,"rental_uris":{"android":"levelo://app?vid=7f2e81ee-0f0e-458f-a374-97c2568efb26","ios":"levelo://app?vid=7f2e81ee-0f0e-458f-a374-97c2568efb26"},"vehicle_type_id":"4","last_reported":1746115961,"current_range_meters":0,"station_id":"st_cvj6r9ubvosntc0bgbag","pricing_plan_id":"cebpf4jnsgd1na2vs0mg"},{"bike_id":"ebc236cf-d3e5-4394-ad46-5c77e049ff1e","system_id":"levelo_inurba_marseille","lat":43.21748,"lon":5.346017,"is_reserved":false,"is_disabled":true,"rental_uris":{"android":"levelo://app?vid=ebc236cf-d3e5-4394-ad46-5c77e049ff1e","ios":"levelo://app?vid=ebc236cf-d3e5-4394-ad46-5c77e049ff1e"},"vehicle_type_id":"4","last_reported":1746115961,"current_range_meters":0,"station_id":"st_cvj6r9ubvosntc0bgbag","pricing_plan_id":"cebpf4jnsgd1na2vs0mg"},{"bike_id":"b3a42551-0e6e-4b00-ac07-e50e959d9ad5","system_id":"levelo_inurba_marseille","lat":43.21743,"lon":5.34608,"is_reserved":false,"is_disabled":true,"rental_uris":{"android":"levelo://app?vid=b3a42551-0e6e-4b00-ac07-e50e959d9ad5","ios":"levelo://app?vid=b3a42551-0e6e-4b00-ac07-e50e959d9ad5"},"vehicle_type_id":"4","last_reported":1746115961,"current_range_meters":0,"station_id":"st_cvj6r9ubvosntc0bgbag","pricing_plan_id":"cebpf4jnsgd1na2vs0mg"},{"bike_id":"281599fe-2a55-43fc-87af-8f9b30588df1","system_id":"levelo_inurba_marseille","lat":43.21749,"lon":5.346,"is_reserved":false,"is_disabled":true,"rental_uris":{"android":"levelo://app?vid=281599fe-2a55-43fc-87af-8f9b30588df1","ios":"levelo://app?vid=281599fe-2a55-43fc-87af-8f9b30588df1"},"vehicle_type_id":"4","last_reported":1746115961,"current_range_meters":0,"station_id":"st_cvj6r9ubvosntc0bgbag","pricing_plan_id":"cebpf4jnsgd1na2vs0mg"},{"bike_id":"a4b803a0-b1f8-4baa-b9c3-1e8d58ffeec8","system_id":"levelo_inurba_marseille","lat":43.2175,"lon":5.34595,"is_reserved":false,"is_disabled":true,"rental_uris":{"android":"levelo://app?vid=a4b803a0-b1f8-4baa-b9c3-1e8d58ffeec8","ios":"levelo://app?vid=a4b803a0-b1f8-4baa-b9c3-1e8d58ffeec8"},"vehicle_type_id":"4","last_reported":1746115961,"current_range_meters":0,"station_id":"st_cvj6r9ubvosntc0bgbag","pricing_plan_id":"cebpf4jnsgd1na2vs0mg"},{"bike_id":"9be519e9-c5dd-4c53-9541-de4a191c54e5","system_id":"levelo_inurba_marseille","lat":43.21187,"lon":5.35078,"is_reserved":false,"is_disabled":true,"rental_uris":{"android":"levelo://app?vid=9be519e9-c5dd-4c53-9541-de4a191c54e5","ios":"levelo://app?vid=9be519e9-c5dd-4c53-9541-de4a191c54e5"},"vehicle_type_id":"4","last_reported":1746115961,"current_range_meters":0,"station_id":"st_cvj6sg6p6f1abm77japg","pricing_plan_id":"cebpf4jnsgd1na2vs0mg"},{"bike_id":"b933aadc-1e85-4030-924c-ff15d858f26b","system_id":"levelo_inurba_marseille","lat":43.21197,"lon":5.3507,"is_reserved":false,"is_disabled":true,"rental_uris":{"android":"levelo://app?vid=b933aadc-1e85-4030-924c-ff15d858f26b","ios":"levelo://app?vid=b933aadc-1e85-4030-924c-ff15d858f26b"},"vehicle_type_id":"4","last_reported":1746115961,"current_range_meters":0,"station_id":"st_cvj6sg6p6f1abm77japg","pricing_plan_id":"cebpf4jnsgd1na2vs0mg"},{"bike_id":"4d1468ed-133a-4bd2-8184-e5f4e79d1849","system_id":"levelo_inurba_marseille","lat":43.212008,"lon":5.350816,"is_reserved":false,"is_disabled":true,"rental_uris":{"android":"levelo://app?vid=4d1468ed-133a-4bd2-8184-e5f4e79d1849","ios":"levelo://app?vid=4d1468ed-133a-4bd2-8184-e5f4e79d1849"},"vehicle_type_id":"4","last_reported":1746115961,"current_range_meters":0,"station_id":"st_cvj6sg6p6f1abm77japg","pricing_plan_id":"cebpf4jnsgd1na2vs0mg"},{"bike_id":"516b369b-e4cd-4069-a149-18bcef623b27","system_id":"levelo_inurba_marseille","lat":43.29784,"lon":5.38112,"is_reserved":false,"is_disabled":true,"rental_uris":{"android":"levelo://app?vid=516b369b-e4cd-4069-a149-18bcef623b27","ios":"levelo://app?vid=516b369b-e4cd-4069-a149-18bcef623b27"},"vehicle_type_id":"4","last_reported":1746115961,"current_range_meters":400,"station_id":"ce4bgip2rcd13ifvqbb0","pricing_plan_id":"cebpf4jnsgd1na2vs0mg"},{"bike_id":"e4136097-57ce-458d-aed7-b49de4fe042e","system_id":"levelo_inurba_marseille","lat":43.2902,"lon":5.38641,"is_reserved":false,"is_disabled":true,"rental_uris":{"android":"levelo://app?vid=e4136097-57ce-458d-aed7-b49de4fe042e","ios":"levelo://app?vid=e4136097-57ce-458d-aed7-b49de4fe042e"},"vehicle_type_id":"4","last_reported":1746115961,"current_range_meters":400,"station_id":"ce4bh4p2rcd13ifvqe0g","pricing_plan_id":"cebpf4jnsgd1na2vs0mg"},{"bike_id":"c27137da-9fac-4f5b-9d19-80ac6fedb0b9","system_id":"levelo_inurba_marseille","lat":43.26567,"lon":5.39018,"is_reserved":false,"is_disabled":true,"rental_uris":{"android":"levelo://app?vid=c27137da-9fac-4f5b-9d19-80ac6fedb0b9","ios":"levelo://app?vid=c27137da-9fac-4f5b-9d19-80ac6fedb0b9"},"vehicle_type_id":"4","last_reported":1746115961,"current_range_meters":400,"station_id":"ce4bhe12rcd13ifvqf30","pricing_plan_id":"cebpf4jnsgd1na2vs0mg"},{"bike_id":"b3cfa03d-0f30-4b05-84a1-c4bf910ac544","system_id":"levelo_inurba_marseille","lat":43.26798,"lon":5.39427,"is_reserved":false,"is_disabled":true,"rental_uris":{"android":"levelo://app?vid=b3cfa03d-0f30-4b05-84a1-c4bf910ac544","ios":"levelo://app?vid=b3cfa03d-0f30-4b05-84a1-c4bf910ac544"},"vehicle_type_id":"4","last_reported":1746115961,"current_range_meters":400,"station_id":"ce4bhh12rcd13ifvqfg0","pricing_plan_id":"cebpf4jnsgd1na2vs0mg"},{"bike_id":"5801b8af-3118-48e6-8d72-e28667405d58","system_id":"levelo_inurba_marseille","lat":43.27563,"lon":5.38432,"is_reserved":false,"is_disabled":true,"rental_uris":{"android":"levelo://app?vid=5801b8af-3118-48e6-8d72-e28667405d58","ios":"levelo://app?vid=5801b8af-3118-48e6-8d72-e28667405d58"},"vehicle_type_id":"4","last_reported":1746115961,"current_range_meters":400,"station_id":"ce4bhh92rcd13ifvqfi0","pricing_plan_id":"cebpf4jnsgd1na2vs0mg"},{"bike_id":"c2218b45-cd5c-4db5-a985-0da04d252f47","system_id":"levelo_inurba_marseille","lat":43.24652,"lon":5.38152,"is_reserved":false,"is_disabled":true,"rental_uris":{"android":"levelo://app?vid=c2218b45-cd5c-4db5-a985-0da04d252f47","ios":"levelo://app?vid=c2218b45-cd5c-4db5-a985-0da04d252f47"},"vehicle_type_id":"4","last_reported":1746115961,"current_range_meters":400,"station_id":"ce4bhih2rcd13ifvqfr0","pricing_plan_id":"cebpf4jnsgd1na2vs0mg"},{"bike_id":"f72ede3f-2f95-4a4b-9a01-8be484d62351","system_id":"levelo_inurba_marseille","lat":43.25883,"lon":5.39887,"is_reserved":false,"is_disabled":true,"rental_uris":{"android":"levelo://app?vid=f72ede3f-2f95-4a4b-9a01-8be484d62351","ios":"levelo://app?vid=f72ede3f-2f95-4a4b-9a01-8be484d62351"},"vehicle_type_id":"4","last_reported":1746115961,"current_range_meters":400,"station_id":"ce4bhl92rcd13ifvqghg","pricing_plan_id":"cebpf4jnsgd1na2vs0mg"},{"bike_id":"b5946de8-829d-4628-938d-9f3322d2ae0c","system_id":"levelo_inurba_marseille","lat":43.2622,"lon":5.40428,"is_reserved":false,"is_disabled":true,"rental_uris":{"android":"levelo://app?vid=b5946de8-829d-4628-938d-9f3322d2ae0c","ios":"levelo://app?vid=b5946de8-829d-4628-938d-9f3322d2ae0c"},"vehicle_type_id":"4","last_reported":1746115961,"current_range_meters":400,"station_id":"ce4bhmh2rcd13ifvqgmg","pricing_plan_id":"cebpf4jnsgd1na2vs0mg"},{"bike_id":"5e291053-dfbf-43dc-9058-2c7b2dfcab52","system_id":"levelo_inurba_marseille","lat":43.231895,"lon":5.39999,"is_reserved":false,"is_disabled":true,"rental_uris":{"android":"levelo://app?vid=5e291053-dfbf-43dc-9058-2c7b2dfcab52","ios":"levelo://app?vid=5e291053-dfbf-43dc-9058-2c7b2dfcab52"},"vehicle_type_id":"4","last_reported":1746115961,"current_range_meters":400,"station_id":"ce4bhn12rcd13ifvqgqg","pricing_plan_id":"cebpf4jnsgd1na2vs0mg"},{"bike_id":"c3528ac4-344e-45df-a582-183c6aa204d7","system_id":"levelo_inurba_marseille","lat":43.2815,"lon":5.42645,"is_reserved":false,"is_disabled":true,"rental_uris":{"android":"levelo://app?vid=c3528ac4-344e-45df-a582-183c6aa204d7","ios":"levelo://app?vid=c3528ac4-344e-45df-a582-183c6aa204d7"},"vehicle_type_id":"4","last_reported":1746115961,"current_range_meters":400,"station_id":"ce4bhnh2rcd13ifvqgug","pricing_plan_id":"cebpf4jnsgd1na2vs0mg"},{"bike_id":"954e6daf-6522-4ba7-9cf9-42d571e6783b","system_id":"levelo_inurba_marseille","lat":43.23195,"lon":5.35556,"is_reserved":false,"is_disabled":true,"rental_uris":{"android":"levelo://app?vid=954e6daf-6522-4ba7-9cf9-42d571e6783b","ios":"levelo://app?vid=954e6daf-6522-4ba7-9cf9-42d571e6783b"},"vehicle_type_id":"4","last_reported":1746115961,"current_range_meters":400,"station_id":"ce4bhu92rcd13ifvqi70","pricing_plan_id":"cebpf4jnsgd1na2vs0mg"},{"bike_id":"1ab3d3f4-ad3e-4d0b-ae54-b3997ef9b20d","system_id":"levelo_inurba_marseille","lat":43.23196,"lon":5.35559,"is_reserved":false,"is_disabled":true,"rental_uris":{"android":"levelo://app?vid=1ab3d3f4-ad3e-4d0b-ae54-b3997ef9b20d","ios":"levelo://app?vid=1ab3d3f4-ad3e-4d0b-ae54-b3997ef9b20d"},"vehicle_type_id":"4","last_reported":1746115961,"current_range_meters":400,"station_id":"ce4bhu92rcd13ifvqi70","pricing_plan_id":"cebpf4jnsgd1na2vs0mg"},{"bike_id":"e0987c40-d447-4354-a204-3bf50af19ad8","system_id":"levelo_inurba_marseille","lat":43.229313,"lon":5.353713,"is_reserved":false,"is_disabled":true,"rental_uris":{"android":"levelo://app?vid=e0987c40-d447-4354-a204-3bf50af19ad8","ios":"levelo://app?vid=e0987c40-d447-4354-a204-3bf50af19ad8"},"vehicle_type_id":"4","last_reported":1746115961,"current_range_meters":400,"station_id":"cpo3532slgdg3j2ikp40","pricing_plan_id":"cebpf4jnsgd1na2vs0mg"},{"bike_id":"25a343f0-86e5-4410-a7e5-ac931ad51734","system_id":"levelo_inurba_marseille","lat":43.22936,"lon":5.3538,"is_reserved":false,"is_disabled":true,"rental_uris":{"android":"levelo://app?vid=25a343f0-86e5-4410-a7e5-ac931ad51734","ios":"levelo://app?vid=25a343f0-86e5-4410-a7e5-ac931ad51734"},"vehicle_type_id":"4","last_reported":1746115961,"current_range_meters":400,"station_id":"cpo3532slgdg3j2ikp40","pricing_plan_id":"cebpf4jnsgd1na2vs0mg"},{"bike_id":"3590e1cc-ac70-44cb-bb81-9feab4e63c21","system_id":"levelo_inurba_marseille","lat":43.21191,"lon":5.35087,"is_reserved":false,"is_disabled":true,"rental_uris":{"android":"levelo://app?vid=3590e1cc-ac70-44cb-bb81-9feab4e63c21","ios":"levelo://app?vid=3590e1cc-ac70-44cb-bb81-9feab4e63c21"},"vehicle_type_id":"4","last_reported":1746115961,"current_range_meters":400,"station_id":"st_cvj6sg6p6f1abm77japg","pricing_plan_id":"cebpf4jnsgd1na2vs0mg"},{"bike_id":"b9fd4ef2-f8e9-4035-8a31-2a8ed73aa43f","system_id":"levelo_inurba_marseille","lat":43.22513,"lon":5.3476,"is_reserved":false,"is_disabled":true,"rental_uris":{"android":"levelo://app?vid=b9fd4ef2-f8e9-4035-8a31-2a8ed73aa43f","ios":"levelo://app?vid=b9fd4ef2-f8e9-4035-8a31-2a8ed73aa43f"},"vehicle_type_id":"4","last_reported":1746115961,"current_range_meters":800,"station_id":"","pricing_plan_id":"cebpf4jnsgd1na2vs0mg"},{"bike_id":"2591cc7e-2cc7-4a51-b516-400460d4aac3","system_id":"levelo_inurba_marseille","lat":43.2952,"lon":5.37502,"is_reserved":false,"is_disabled":true,"rental_uris":{"android":"levelo://app?vid=2591cc7e-2cc7-4a51-b516-400460d4aac3","ios":"levelo://app?vid=2591cc7e-2cc7-4a51-b516-400460d4aac3"},"vehicle_type_id":"4","last_reported":1746115961,"current_range_meters":800,"station_id":"ce4bgkp2rcd13ifvqbmg","pricing_plan_id":"cebpf4jnsgd1na2vs0mg"},{"bike_id":"5f422c64-f044-45a1-9927-04721066e25c","system_id":"levelo_inurba_marseille","lat":43.30579,"lon":5.39352,"is_reserved":false,"is_disabled":true,"rental_uris":{"android":"levelo://app?vid=5f422c64-f044-45a1-9927-04721066e25c","ios":"levelo://app?vid=5f422c64-f044-45a1-9927-04721066e25c"},"vehicle_type_id":"4","last_reported":1746115961,"current_range_meters":800,"station_id":"ce4bh0p2rcd13ifvqd80","pricing_plan_id":"cebpf4jnsgd1na2vs0mg"},{"bike_id":"54c26509-2ae5-452d-ac94-145d746e56b2","system_id":"levelo_inurba_marseille","lat":43.2843,"lon":5.37522,"is_reserved":false,"is_disabled":true,"rental_uris":{"android":"levelo://app?vid=54c26509-2ae5-452d-ac94-145d746e56b2","ios":"levelo://app?vid=54c26509-2ae5-452d-ac94-145d746e56b2"},"vehicle_type_id":"4","last_reported":1746115961,"current_range_meters":800,"station_id":"ce4bh412rcd13ifvqds0","pricing_plan_id":"cebpf4jnsgd1na2vs0mg"},{"bike_id":"5ebf7acb-1922-40f3-a725-b98fbf9586a9","system_id":"levelo_inurba_marseille","lat":43.28935,"lon":5.36405,"is_reserved":false,"is_disabled":true,"rental_uris":{"android":"levelo://app?vid=5ebf7acb-1922-40f3-a725-b98fbf9586a9","ios":"levelo://app?vid=5ebf7acb-1922-40f3-a725-b98fbf9586a9"},"vehicle_type_id":"4","last_reported":1746115961,"current_range_meters":800,"station_id":"ce4bhc92rcd13ifvqetg","pricing_plan_id":"cebpf4jnsgd1na2vs0mg"},{"bike_id":"1501703f-1573-433b-99d3-bc8bf257a719","system_id":"levelo_inurba_marseille","lat":43.26561,"lon":5.39014,"is_reserved":false,"is_disabled":true,"rental_uris":{"android":"levelo://app?vid=1501703f-1573-433b-99d3-bc8bf257a719","ios":"levelo://app?vid=1501703f-1573-433b-99d3-bc8bf257a719"},"vehicle_type_id":"4","last_reported":1746115961,"current_range_meters":800,"station_id":"ce4bhe12rcd13ifvqf30","pricing_plan_id":"cebpf4jnsgd1na2vs0mg"},{"bike_id":"548817ca-d0c3-4d8e-9ca9-c2278a9b9fbb","system_id":"levelo_inurba_marseille","lat":43.2791,"lon":5.39595,"is_reserved":false,"is_disabled":true,"rental_uris":{"android":"levelo://app?vid=548817ca-d0c3-4d8e-9ca9-c2278a9b9fbb","ios":"levelo://app?vid=548817ca-d0c3-4d8e-9ca9-c2278a9b9fbb"},"vehicle_type_id":"4","last_reported":1746115961,"current_range_meters":800,"station_id":"ce4bhf92rcd13ifvqf40","pricing_plan_id":"cebpf4jnsgd1na2vs0mg"},{"bike_id":"2ea35270-6410-47bc-9b6d-9398e5835819","system_id":"levelo_inurba_marseille","lat":43.26678,"lon":5.38323,"is_reserved":false,"is_disabled":true,"rental_uris":{"android":"levelo://app?vid=2ea35270-6410-47bc-9b6d-9398e5835819","ios":"levelo://app?vid=2ea35270-6410-47bc-9b6d-9398e5835819"},"vehicle_type_id":"4","last_reported":1746115961,"current_range_meters":800,"station_id":"ce4bhg92rcd13ifvqf90","pricing_plan_id":"cebpf4jnsgd1na2vs0mg"},{"bike_id":"07a4488e-cb50-4a5e-91da-1fcceb0d4bca","system_id":"levelo_inurba_marseille","lat":43.261943,"lon":5.37449,"is_reserved":false,"is_disabled":true,"rental_uris":{"android":"levelo://app?vid=07a4488e-cb50-4a5e-91da-1fcceb0d4bca","ios":"levelo://app?vid=07a4488e-cb50-4a5e-91da-1fcceb0d4bca"},"vehicle_type_id":"4","last_reported":1746115961,"current_range_meters":800,"station_id":"ce4bhgp2rcd13ifvqfc0","pricing_plan_id":"cebpf4jnsgd1na2vs0mg"},{"bike_id":"de4f7b97-7d28-46e0-b0a5-375819530ab4","system_id":"levelo_inurba_marseille","lat":43.25496,"lon":5.37647,"is_reserved":false,"is_disabled":true,"rental_uris":{"android":"levelo://app?vid=de4f7b97-7d28-46e0-b0a5-375819530ab4","ios":"levelo://app?vid=de4f7b97-7d28-46e0-b0a5-375819530ab4"},"vehicle_type_id":"4","last_reported":1746115961,"current_range_meters":800,"station_id":"ce4bhh12rcd13ifvqff0","pricing_plan_id":"cebpf4jnsgd1na2vs0mg"},{"bike_id":"da7d6e82-7845-41f2-88c4-922b3cfb9aef","system_id":"levelo_inurba_marseille","lat":43.25582,"lon":5.38233,"is_reserved":false,"is_disabled":true,"rental_uris":{"android":"levelo://app?vid=da7d6e82-7845-41f2-88c4-922b3cfb9aef","ios":"levelo://app?vid=da7d6e82-7845-41f2-88c4-922b3cfb9aef"},"vehicle_type_id":"4","last_reported":1746115961,"current_range_meters":800,"station_id":"ce4bhih2rcd13ifvqfs0","pricing_plan_id":"cebpf4jnsgd1na2vs0mg"},{"bike_id":"24b03110-fda4-4c51-899e-bfc95c1cd255","system_id":"levelo_inurba_marseille","lat":43.25582,"lon":5.38254,"is_reserved":false,"is_disabled":true,"rental_uris":{"android":"levelo://app?vid=24b03110-fda4-4c51-899e-bfc95c1cd255","ios":"levelo://app?vid=24b03110-fda4-4c51-899e-bfc95c1cd255"},"vehicle_type_id":"4","last_reported":1746115961,"current_range_meters":800,"station_id":"ce4bhih2rcd13ifvqfs0","pricing_plan_id":"cebpf4jnsgd1na2vs0mg"},{"bike_id":"353f2198-f557-4eb3-8827-878d1b79c2b8","system_id":"levelo_inurba_marseille","lat":43.23179,"lon":5.43707,"is_reserved":false,"is_disabled":true,"rental_uris":{"android":"levelo://app?vid=353f2198-f557-4eb3-8827-878d1b79c2b8","ios":"levelo://app?vid=353f2198-f557-4eb3-8827-878d1b79c2b8"},"vehicle_type_id":"4","last_reported":1746115961,"current_range_meters":800,"station_id":"ce4bhmp2rcd13ifvqgog","pricing_plan_id":"cebpf4jnsgd1na2vs0mg"},{"bike_id":"3aa67a62-37c0-4e6c-840d-201407da35ff","system_id":"levelo_inurba_marseille","lat":43.23136,"lon":5.4367,"is_reserved":false,"is_disabled":true,"rental_uris":{"android":"levelo://app?vid=3aa67a62-37c0-4e6c-840d-201407da35ff","ios":"levelo://app?vid=3aa67a62-37c0-4e6c-840d-201407da35ff"},"vehicle_type_id":"4","last_reported":1746115961,"current_range_meters":800,"station_id":"ce4bhmp2rcd13ifvqgog","pricing_plan_id":"cebpf4jnsgd1na2vs0mg"},{"bike_id":"936e2910-50f9-4404-9747-b9abad9fa992","system_id":"levelo_inurba_marseille","lat":43.24084,"lon":5.37767,"is_reserved":false,"is_disabled":true,"rental_uris":{"android":"levelo://app?vid=936e2910-50f9-4404-9747-b9abad9fa992","ios":"levelo://app?vid=936e2910-50f9-4404-9747-b9abad9fa992"},"vehicle_type_id":"4","last_reported":1746115961,"current_range_meters":800,"station_id":"ce4bhnp2rcd13ifvqgvg","pricing_plan_id":"cebpf4jnsgd1na2vs0mg"},{"bike_id":"72aa5cd6-578b-4f6a-9e7a-ad9b6b4e7a29","system_id":"levelo_inurba_marseille","lat":43.32064,"lon":5.41551,"is_reserved":false,"is_disabled":true,"rental_uris":{"android":"levelo://app?vid=72aa5cd6-578b-4f6a-9e7a-ad9b6b4e7a29","ios":"levelo://app?vid=72aa5cd6-578b-4f6a-9e7a-ad9b6b4e7a29"},"vehicle_type_id":"4","last_reported":1746115961,"current_range_meters":800,"station_id":"ce4bhq92rcd13ifvqhkg","pricing_plan_id":"cebpf4jnsgd1na2vs0mg"},{"bike_id":"d1005c2d-0a8c-45fe-ab40-f345ae689708","system_id":"levelo_inurba_marseille","lat":43.23041,"lon":5.35479,"is_reserved":false,"is_disabled":true,"rental_uris":{"android":"levelo://app?vid=d1005c2d-0a8c-45fe-ab40-f345ae689708","ios":"levelo://app?vid=d1005c2d-0a8c-45fe-ab40-f345ae689708"},"vehicle_type_id":"4","last_reported":1746115961,"current_range_meters":800,"station_id":"cpo3342slgdg3j2ifvpg","pricing_plan_id":"cebpf4jnsgd1na2vs0mg"},{"bike_id":"3bd988df-50b7-4a92-9acb-32d8d801df51","system_id":"levelo_inurba_marseille","lat":43.24161,"lon":5.36423,"is_reserved":false,"is_disabled":true,"rental_uris":{"android":"levelo://app?vid=3bd988df-50b7-4a92-9acb-32d8d801df51","ios":"levelo://app?vid=3bd988df-50b7-4a92-9acb-32d8d801df51"},"vehicle_type_id":"4","last_reported":1746115961,"current_range_meters":800,"station_id":"cpo36qri1sfpv3e86is0","pricing_plan_id":"cebpf4jnsgd1na2vs0mg"},{"bike_id":"d9a7972a-15f1-481a-a651-e20b82c9b7a2","system_id":"levelo_inurba_marseille","lat":43.21747,"lon":5.34593,"is_reserved":false,"is_disabled":true,"rental_uris":{"android":"levelo://app?vid=d9a7972a-15f1-481a-a651-e20b82c9b7a2","ios":"levelo://app?vid=d9a7972a-15f1-481a-a651-e20b82c9b7a2"},"vehicle_type_id":"4","last_reported":1746115961,"current_range_meters":800,"station_id":"st_cvj6r9ubvosntc0bgbag","pricing_plan_id":"cebpf4jnsgd1na2vs0mg"},{"bike_id":"ab787f04-d222-48d8-9bc6-bb48e179b448","system_id":"levelo_inurba_marseille","lat":43.217448,"lon":5.346016,"is_reserved":false,"is_disabled":true,"rental_uris":{"android":"levelo://app?vid=ab787f04-d222-48d8-9bc6-bb48e179b448","ios":"levelo://app?vid=ab787f04-d222-48d8-9bc6-bb48e179b448"},"vehicle_type_id":"4","last_reported":1746115961,"current_range_meters":800,"station_id":"st_cvj6r9ubvosntc0bgbag","pricing_plan_id":"cebpf4jnsgd1na2vs0mg"},{"bike_id":"b5147db9-10fd-4b78-a1c8-13a0b7cf566e","system_id":"levelo_inurba_marseille","lat":43.29381,"lon":5.37875,"is_reserved":false,"is_disabled":true,"rental_uris":{"android":"levelo://app?vid=b5147db9-10fd-4b78-a1c8-13a0b7cf566e","ios":"levelo://app?vid=b5147db9-10fd-4b78-a1c8-13a0b7cf566e"},"vehicle_type_id":"4","last_reported":1746115961,"current_range_meters":1200,"station_id":"ce4bgjh2rcd13ifvqbf0","pricing_plan_id":"cebpf4jnsgd1na2vs0mg"},{"bike_id":"eae55e17-d9b2-4501-a322-78ebbcbda324","system_id":"levelo_inurba_marseille","lat":43.2993,"lon":5.37511,"is_reserved":false,"is_disabled":true,"rental_uris":{"android":"levelo://app?vid=eae55e17-d9b2-4501-a322-78ebbcbda324","ios":"levelo://app?vid=eae55e17-d9b2-4501-a322-78ebbcbda324"},"vehicle_type_id":"4","last_reported":1746115961,"current_range_meters":1200,"station_id":"ce4bgjh2rcd13ifvqbg0","pricing_plan_id":"cebpf4jnsgd1na2vs0mg"},{"bike_id":"2ca9d964-c84c-4a11-91fe-016febfcdaa5","system_id":"levelo_inurba_marseille","lat":43.30595,"lon":5.3724,"is_reserved":false,"is_disabled":true,"rental_uris":{"android":"levelo://app?vid=2ca9d964-c84c-4a11-91fe-016febfcdaa5","ios":"levelo://app?vid=2ca9d964-c84c-4a11-91fe-016febfcdaa5"},"vehicle_type_id":"4","last_reported":1746115961,"current_range_meters":1200,"station_id":"ce4bgqh2rcd13ifvqc4g","pricing_plan_id":"cebpf4jnsgd1na2vs0mg"},{"bike_id":"f7716b93-4e46-4c72-9bea-496d93669c81","system_id":"levelo_inurba_marseille","lat":43.3014,"lon":5.39859,"is_reserved":false,"is_disabled":true,"rental_uris":{"android":"levelo://app?vid=f7716b93-4e46-4c72-9bea-496d93669c81","ios":"levelo://app?vid=f7716b93-4e46-4c72-9bea-496d93669c81"},"vehicle_type_id":"4","last_reported":1746115961,"current_range_meters":1200,"station_id":"ce4bh0h2rcd13ifvqd40","pricing_plan_id":"cebpf4jnsgd1na2vs0mg"},{"bike_id":"70a92cee-8ccd-46d7-a36e-6ea7add96641","system_id":"levelo_inurba_marseille","lat":43.27375,"lon":5.36249,"is_reserved":false,"is_disabled":true,"rental_uris":{"android":"levelo://app?vid=70a92cee-8ccd-46d7-a36e-6ea7add96641","ios":"levelo://app?vid=70a92cee-8ccd-46d7-a36e-6ea7add96641"},"vehicle_type_id":"4","last_reported":1746115961,"current_range_meters":1200,"station_id":"ce4bhbh2rcd13ifvqeo0","pricing_plan_id":"cebpf4jnsgd1na2vs0mg"},{"bike_id":"f09e5bc1-f8f4-4c67-8ca9-0459d0234cac","system_id":"levelo_inurba_marseille","lat":43.29231,"lon":5.36071,"is_reserved":false,"is_disabled":true,"rental_uris":{"android":"levelo://app?vid=f09e5bc1-f8f4-4c67-8ca9-0459d0234cac","ios":"levelo://app?vid=f09e5bc1-f8f4-4c67-8ca9-0459d0234cac"},"vehicle_type_id":"4","last_reported":1746115961,"current_range_meters":1200,"station_id":"ce4bhbh2rcd13ifvqeqg","pricing_plan_id":"cebpf4jnsgd1na2vs0mg"},{"bike_id":"3c0e4a58-2978-4be0-96e5-c93911cc99ee","system_id":"levelo_inurba_marseille","lat":43.2796,"lon":5.38695,"is_reserved":false,"is_disabled":true,"rental_uris":{"android":"levelo://app?vid=3c0e4a58-2978-4be0-96e5-c93911cc99ee","ios":"levelo://app?vid=3c0e4a58-2978-4be0-96e5-c93911cc99ee"},"vehicle_type_id":"4","last_reported":1746115961,"current_range_meters":1200,"station_id":"ce4bhg12rcd13ifvqf80","pricing_plan_id":"cebpf4jnsgd1na2vs0mg"},{"bike_id":"a6e85929-4e07-41ff-922d-c923fbc9fd0f","system_id":"levelo_inurba_marseille","lat":43.25504,"lon":5.3764,"is_reserved":false,"is_disabled":true,"rental_uris":{"android":"levelo://app?vid=a6e85929-4e07-41ff-922d-c923fbc9fd0f","ios":"levelo://app?vid=a6e85929-4e07-41ff-922d-c923fbc9fd0f"},"vehicle_type_id":"4","last_reported":1746115961,"current_range_meters":1200,"station_id":"ce4bhh12rcd13ifvqff0","pricing_plan_id":"cebpf4jnsgd1na2vs0mg"},{"bike_id":"a275712a-4d2b-487c-888c-1970aea4b100","system_id":"levelo_inurba_marseille","lat":43.254864,"lon":5.376574,"is_reserved":false,"is_disabled":true,"rental_uris":{"android":"levelo://app?vid=a275712a-4d2b-487c-888c-1970aea4b100","ios":"levelo://app?vid=a275712a-4d2b-487c-888c-1970aea4b100"},"vehicle_type_id":"4","last_reported":1746115961,"current_range_meters":1200,"station_id":"ce4bhh12rcd13ifvqff0","pricing_plan_id":"cebpf4jnsgd1na2vs0mg"},{"bike_id":"e537e66a-236c-43fe-a64d-660700032cc9","system_id":"levelo_inurba_marseille","lat":43.25499,"lon":5.37643,"is_reserved":false,"is_disabled":true,"rental_uris":{"android":"levelo://app?vid=e537e66a-236c-43fe-a64d-660700032cc9","ios":"levelo://app?vid=e537e66a-236c-43fe-a64d-660700032cc9"},"vehicle_type_id":"4","last_reported":1746115961,"current_range_meters":1200,"station_id":"ce4bhh12rcd13ifvqff0","pricing_plan_id":"cebpf4jnsgd1na2vs0mg"},{"bike_id":"bc0c4f93-68e9-4c16-9e50-34d843ed0bb6","system_id":"levelo_inurba_marseille","lat":43.269564,"lon":5.38628,"is_reserved":false,"is_disabled":true,"rental_uris":{"android":"levelo://app?vid=bc0c4f93-68e9-4c16-9e50-34d843ed0bb6","ios":"levelo://app?vid=bc0c4f93-68e9-4c16-9e50-34d843ed0bb6"},"vehicle_type_id":"4","last_reported":1746115961,"current_range_meters":1200,"station_id":"ce4bhh92rcd13ifvqfh0","pricing_plan_id":"cebpf4jnsgd1na2vs0mg"},{"bike_id":"7d799137-900b-4c67-9070-caf328d447fa","system_id":"levelo_inurba_marseille","lat":43.23967,"lon":5.36635,"is_reserved":false,"is_disabled":true,"rental_uris":{"android":"levelo://app?vid=7d799137-900b-4c67-9070-caf328d447fa","ios":"levelo://app?vid=7d799137-900b-4c67-9070-caf328d447fa"},"vehicle_type_id":"4","last_reported":1746115961,"current_range_meters":1200,"station_id":"ce4bhi12rcd13ifvqfp0","pricing_plan_id":"cebpf4jnsgd1na2vs0mg"},{"bike_id":"d3ca127f-9a49-4ef5-a122-08460039e19f","system_id":"levelo_inurba_marseille","lat":43.23155,"lon":5.43704,"is_reserved":false,"is_disabled":true,"rental_uris":{"android":"levelo://app?vid=d3ca127f-9a49-4ef5-a122-08460039e19f","ios":"levelo://app?vid=d3ca127f-9a49-4ef5-a122-08460039e19f"},"vehicle_type_id":"4","last_reported":1746115961,"current_range_meters":1200,"station_id":"ce4bhmp2rcd13ifvqgog","pricing_plan_id":"cebpf4jnsgd1na2vs0mg"},{"bike_id":"e4c0bcf3-c30b-4d7c-827b-14bc8a1c335b","system_id":"levelo_inurba_marseille","lat":43.2795,"lon":5.41061,"is_reserved":false,"is_disabled":true,"rental_uris":{"android":"levelo://app?vid=e4c0bcf3-c30b-4d7c-827b-14bc8a1c335b","ios":"levelo://app?vid=e4c0bcf3-c30b-4d7c-827b-14bc8a1c335b"},"vehicle_type_id":"4","last_reported":1746115961,"current_range_meters":1200,"station_id":"ce4bhnp2rcd13ifvqh0g","pricing_plan_id":"cebpf4jnsgd1na2vs0mg"},{"bike_id":"659d3043-a536-4c3e-8679-5899092accb2","system_id":"levelo_inurba_marseille","lat":43.23205,"lon":5.35572,"is_reserved":false,"is_disabled":true,"rental_uris":{"android":"levelo://app?vid=659d3043-a536-4c3e-8679-5899092accb2","ios":"levelo://app?vid=659d3043-a536-4c3e-8679-5899092accb2"},"vehicle_type_id":"4","last_reported":1746115961,"current_range_meters":1200,"station_id":"ce4bhu92rcd13ifvqi70","pricing_plan_id":"cebpf4jnsgd1na2vs0mg"},{"bike_id":"14e9d39b-1f35-49f9-9fe9-3a8ba6011d5d","system_id":"levelo_inurba_marseille","lat":43.27621,"lon":5.36108,"is_reserved":false,"is_disabled":true,"rental_uris":{"android":"levelo://app?vid=14e9d39b-1f35-49f9-9fe9-3a8ba6011d5d","ios":"levelo://app?vid=14e9d39b-1f35-49f9-9fe9-3a8ba6011d5d"},"vehicle_type_id":"4","last_reported":1746115961,"current_range_meters":1600,"station_id":"ce4bgj92rcd13ifvqbe0","pricing_plan_id":"cebpf4jnsgd1na2vs0mg"},{"bike_id":"bc7c4d3a-480c-49f6-9b77-fd506d13b9b3","system_id":"levelo_inurba_marseille","lat":43.30164,"lon":5.3809,"is_reserved":false,"is_disabled":true,"rental_uris":{"android":"levelo://app?vid=bc7c4d3a-480c-49f6-9b77-fd506d13b9b3","ios":"levelo://app?vid=bc7c4d3a-480c-49f6-9b77-fd506d13b9b3"},"vehicle_type_id":"4","last_reported":1746115961,"current_range_meters":1600,"station_id":"ce4bgjp2rcd13ifvqbh0","pricing_plan_id":"cebpf4jnsgd1na2vs0mg"},{"bike_id":"ca422056-ed02-489c-aae2-392cea0d4265","system_id":"levelo_inurba_marseille","lat":43.30939,"lon":5.40142,"is_reserved":false,"is_disabled":true,"rental_uris":{"android":"levelo://app?vid=ca422056-ed02-489c-aae2-392cea0d4265","ios":"levelo://app?vid=ca422056-ed02-489c-aae2-392cea0d4265"},"vehicle_type_id":"4","last_reported":1746115961,"current_range_meters":1600,"station_id":"ce4bgvp2rcd13ifvqct0","pricing_plan_id":"cebpf4jnsgd1na2vs0mg"},{"bike_id":"2ef2fbc7-6c34-4352-953f-288ce504f73b","system_id":"levelo_inurba_marseille","lat":43.29258,"lon":5.38423,"is_reserved":false,"is_disabled":true,"rental_uris":{"android":"levelo://app?vid=2ef2fbc7-6c34-4352-953f-288ce504f73b","ios":"levelo://app?vid=2ef2fbc7-6c34-4352-953f-288ce504f73b"},"vehicle_type_id":"4","last_reported":1746115961,"current_range_meters":1600,"station_id":"ce4bh692rcd13ifvqea0","pricing_plan_id":"cebpf4jnsgd1na2vs0mg"},{"bike_id":"3820ac4a-a30a-458f-b1d2-a8be0d6f95f7","system_id":"levelo_inurba_marseille","lat":43.265426,"lon":5.372863,"is_reserved":false,"is_disabled":true,"rental_uris":{"android":"levelo://app?vid=3820ac4a-a30a-458f-b1d2-a8be0d6f95f7","ios":"levelo://app?vid=3820ac4a-a30a-458f-b1d2-a8be0d6f95f7"},"vehicle_type_id":"4","last_reported":1746115961,"current_range_meters":1600,"station_id":"ce4bhbp2rcd13ifvqerg","pricing_plan_id":"cebpf4jnsgd1na2vs0mg"},{"bike_id":"ac8256e6-d533-46de-8607-b890a5db64eb","system_id":"levelo_inurba_marseille","lat":43.26211,"lon":5.37441,"is_reserved":false,"is_disabled":true,"rental_uris":{"android":"levelo://app?vid=ac8256e6-d533-46de-8607-b890a5db64eb","ios":"levelo://app?vid=ac8256e6-d533-46de-8607-b890a5db64eb"},"vehicle_type_id":"4","last_reported":1746115961,"current_range_meters":1600,"station_id":"ce4bhgp2rcd13ifvqfc0","pricing_plan_id":"cebpf4jnsgd1na2vs0mg"},{"bike_id":"de2f0dec-7f1d-4b11-ab39-1b87793107bf","system_id":"levelo_inurba_marseille","lat":43.26995,"lon":5.38672,"is_reserved":false,"is_disabled":true,"rental_uris":{"android":"levelo://app?vid=de2f0dec-7f1d-4b11-ab39-1b87793107bf","ios":"levelo://app?vid=de2f0dec-7f1d-4b11-ab39-1b87793107bf"},"vehicle_type_id":"4","last_reported":1746115961,"current_range_meters":1600,"station_id":"ce4bhh92rcd13ifvqfh0","pricing_plan_id":"cebpf4jnsgd1na2vs0mg"},{"bike_id":"58d9878c-86bc-4131-8f14-fdc46575268b","system_id":"levelo_inurba_marseille","lat":43.27496,"lon":5.42448,"is_reserved":false,"is_disabled":true,"rental_uris":{"android":"levelo://app?vid=58d9878c-86bc-4131-8f14-fdc46575268b","ios":"levelo://app?vid=58d9878c-86bc-4131-8f14-fdc46575268b"},"vehicle_type_id":"4","last_reported":1746115961,"current_range_meters":1600,"station_id":"ce4bhn92rcd13ifvqgrg","pricing_plan_id":"cebpf4jnsgd1na2vs0mg"},{"bike_id":"9bf4a01f-69e4-4a6f-9a78-078c088e964b","system_id":"levelo_inurba_marseille","lat":43.304173,"lon":5.412853,"is_reserved":false,"is_disabled":true,"rental_uris":{"android":"levelo://app?vid=9bf4a01f-69e4-4a6f-9a78-078c088e964b","ios":"levelo://app?vid=9bf4a01f-69e4-4a6f-9a78-078c088e964b"},"vehicle_type_id":"4","last_reported":1746115961,"current_range_meters":1600,"station_id":"ce4bhop2rcd13ifvqh8g","pricing_plan_id":"cebpf4jnsgd1na2vs0mg"},{"bike_id":"af53ba41-6679-4747-9104-7e8cc8f4e5fe","system_id":"levelo_inurba_marseille","lat":43.23217,"lon":5.35551,"is_reserved":false,"is_disabled":true,"rental_uris":{"android":"levelo://app?vid=af53ba41-6679-4747-9104-7e8cc8f4e5fe","ios":"levelo://app?vid=af53ba41-6679-4747-9104-7e8cc8f4e5fe"},"vehicle_type_id":"4","last_reported":1746115961,"current_range_meters":1600,"station_id":"ce4bhu92rcd13ifvqi70","pricing_plan_id":"cebpf4jnsgd1na2vs0mg"},{"bike_id":"9f971d24-ef3c-4df5-a037-81eac953ad54","system_id":"levelo_inurba_marseille","lat":43.2307,"lon":5.35482,"is_reserved":false,"is_disabled":true,"rental_uris":{"android":"levelo://app?vid=9f971d24-ef3c-4df5-a037-81eac953ad54","ios":"levelo://app?vid=9f971d24-ef3c-4df5-a037-81eac953ad54"},"vehicle_type_id":"4","last_reported":1746115961,"current_range_meters":1600,"station_id":"cpo3342slgdg3j2ifvpg","pricing_plan_id":"cebpf4jnsgd1na2vs0mg"},{"bike_id":"19f6ac7d-3696-4b50-9acd-c4052a235072","system_id":"levelo_inurba_marseille","lat":43.22928,"lon":5.35384,"is_reserved":false,"is_disabled":true,"rental_uris":{"android":"levelo://app?vid=19f6ac7d-3696-4b50-9acd-c4052a235072","ios":"levelo://app?vid=19f6ac7d-3696-4b50-9acd-c4052a235072"},"vehicle_type_id":"4","last_reported":1746115961,"current_range_meters":1600,"station_id":"cpo3532slgdg3j2ikp40","pricing_plan_id":"cebpf4jnsgd1na2vs0mg"},{"bike_id":"7e5da230-cd91-4128-96e7-e0e3b6242a7e","system_id":"levelo_inurba_marseille","lat":43.21193,"lon":5.35079,"is_reserved":false,"is_disabled":true,"rental_uris":{"android":"levelo://app?vid=7e5da230-cd91-4128-96e7-e0e3b6242a7e","ios":"levelo://app?vid=7e5da230-cd91-4128-96e7-e0e3b6242a7e"},"vehicle_type_id":"4","last_reported":1746115961,"current_range_meters":1600,"station_id":"st_cvj6sg6p6f1abm77japg","pricing_plan_id":"cebpf4jnsgd1na2vs0mg"},{"bike_id":"d96edb3a-f25e-4b3e-b2c2-2fa5c0bbe4e1","system_id":"levelo_inurba_marseille","lat":43.29196,"lon":5.3932,"is_reserved":false,"is_disabled":true,"rental_uris":{"android":"levelo://app?vid=d96edb3a-f25e-4b3e-b2c2-2fa5c0bbe4e1","ios":"levelo://app?vid=d96edb3a-f25e-4b3e-b2c2-2fa5c0bbe4e1"},"vehicle_type_id":"4","last_reported":1746115961,"current_range_meters":2000,"station_id":"ce4bh192rcd13ifvqdd0","pricing_plan_id":"cebpf4jnsgd1na2vs0mg"},{"bike_id":"b2fefac2-438e-41ca-a3fa-c81b7ee2f60f","system_id":"levelo_inurba_marseille","lat":43.28054,"lon":5.36924,"is_reserved":false,"is_disabled":true,"rental_uris":{"android":"levelo://app?vid=b2fefac2-438e-41ca-a3fa-c81b7ee2f60f","ios":"levelo://app?vid=b2fefac2-438e-41ca-a3fa-c81b7ee2f60f"},"vehicle_type_id":"4","last_reported":1746115961,"current_range_meters":2000,"station_id":"ce4bha12rcd13ifvqef0","pricing_plan_id":"cebpf4jnsgd1na2vs0mg"},{"bike_id":"e1896df7-4e30-4517-a2f8-cbd6b2f7455f","system_id":"levelo_inurba_marseille","lat":43.28427,"lon":5.34992,"is_reserved":false,"is_disabled":true,"rental_uris":{"android":"levelo://app?vid=e1896df7-4e30-4517-a2f8-cbd6b2f7455f","ios":"levelo://app?vid=e1896df7-4e30-4517-a2f8-cbd6b2f7455f"},"vehicle_type_id":"4","last_reported":1746115961,"current_range_meters":2000,"station_id":"ce4bhbh2rcd13ifvqepg","pricing_plan_id":"cebpf4jnsgd1na2vs0mg"},{"bike_id":"f1518bf5-4731-4a1c-ab87-66cbf592de5f","system_id":"levelo_inurba_marseille","lat":43.29898,"lon":5.38899,"is_reserved":false,"is_disabled":false,"rental_uris":{"android":"levelo://app?vid=f1518bf5-4731-4a1c-ab87-66cbf592de5f","ios":"levelo://app?vid=f1518bf5-4731-4a1c-ab87-66cbf592de5f"},"vehicle_type_id":"4","last_reported":1746115961,"current_range_meters":2800,"station_id":"ce4bh392rcd13ifvqdl0","pricing_plan_id":"cebpf4jnsgd1na2vs0mg"},{"bike_id":"54b562fd-e583-48ab-81de-c065106fb77a","system_id":"levelo_inurba_marseille","lat":43.29048,"lon":5.38656,"is_reserved":false,"is_disabled":false,"rental_uris":{"android":"levelo://app?vid=54b562fd-e583-48ab-81de-c065106fb77a","ios":"levelo://app?vid=54b562fd-e583-48ab-81de-c065106fb77a"},"vehicle_type_id":"4","last_reported":1746115961,"current_range_meters":2800,"station_id":"ce4bh4p2rcd13ifvqe0g","pricing_plan_id":"cebpf4jnsgd1na2vs0mg"},{"bike_id":"dd8bc595-a486-4643-9531-1acef9225b4b","system_id":"levelo_inurba_marseille","lat":43.27983,"lon":5.41661,"is_reserved":false,"is_disabled":false,"rental_uris":{"android":"levelo://app?vid=dd8bc595-a486-4643-9531-1acef9225b4b","ios":"levelo://app?vid=dd8bc595-a486-4643-9531-1acef9225b4b"},"vehicle_type_id":"4","last_reported":1746115961,"current_range_meters":2800,"station_id":"ce4bho12rcd13ifvqh1g","pricing_plan_id":"cebpf4jnsgd1na2vs0mg"},{"bike_id":"f891e903-3f7f-4213-b526-88248023cbe3","system_id":"levelo_inurba_marseille","lat":43.31727,"lon":5.42399,"is_reserved":false,"is_disabled":false,"rental_uris":{"android":"levelo://app?vid=f891e903-3f7f-4213-b526-88248023cbe3","ios":"levelo://app?vid=f891e903-3f7f-4213-b526-88248023cbe3"},"vehicle_type_id":"4","last_reported":1746115961,"current_range_meters":2800,"station_id":"ce4bhp92rcd13ifvqhbg","pricing_plan_id":"cebpf4jnsgd1na2vs0mg"},{"bike_id":"a73b869c-d941-493b-bfd5-f460ace6a9e8","system_id":"levelo_inurba_marseille","lat":43.31707,"lon":5.43701,"is_reserved":false,"is_disabled":false,"rental_uris":{"android":"levelo://app?vid=a73b869c-d941-493b-bfd5-f460ace6a9e8","ios":"levelo://app?vid=a73b869c-d941-493b-bfd5-f460ace6a9e8"},"vehicle_type_id":"4","last_reported":1746115961,"current_range_meters":2800,"station_id":"ce4bhp92rcd13ifvqhcg","pricing_plan_id":"cebpf4jnsgd1na2vs0mg"},{"bike_id":"3a847a5b-6509-4ba7-9b79-972e7780cc4c","system_id":"levelo_inurba_marseille","lat":43.30534,"lon":5.36545,"is_reserved":false,"is_disabled":false,"rental_uris":{"android":"levelo://app?vid=3a847a5b-6509-4ba7-9b79-972e7780cc4c","ios":"levelo://app?vid=3a847a5b-6509-4ba7-9b79-972e7780cc4c"},"vehicle_type_id":"4","last_reported":1746115961,"current_range_meters":3200,"station_id":"ce4bgs12rcd13ifvqcag","pricing_plan_id":"cebpf4jnsgd1na2vs0mg"},{"bike_id":"9f8d5865-09a1-4e01-8e73-53d1232919f3","system_id":"levelo_inurba_marseille","lat":43.28726,"lon":5.37952,"is_reserved":false,"is_disabled":false,"rental_uris":{"android":"levelo://app?vid=9f8d5865-09a1-4e01-8e73-53d1232919f3","ios":"levelo://app?vid=9f8d5865-09a1-4e01-8e73-53d1232919f3"},"vehicle_type_id":"4","last_reported":1746115961,"current_range_meters":3200,"station_id":"ce4bh9p2rcd13ifvqec0","pricing_plan_id":"cebpf4jnsgd1na2vs0mg"},{"bike_id":"af64cd05-4512-43e1-bb6a-8400f340fdc9","system_id":"levelo_inurba_marseille","lat":43.28666,"lon":5.3635,"is_reserved":false,"is_disabled":false,"rental_uris":{"android":"levelo://app?vid=af64cd05-4512-43e1-bb6a-8400f340fdc9","ios":"levelo://app?vid=af64cd05-4512-43e1-bb6a-8400f340fdc9"},"vehicle_type_id":"4","last_reported":1746115961,"current_range_meters":3200,"station_id":"ce4bhah2rcd13ifvqej0","pricing_plan_id":"cebpf4jnsgd1na2vs0mg"},{"bike_id":"a46b14e8-ac80-4c92-9e89-e003d275ce73","system_id":"levelo_inurba_marseille","lat":43.27954,"lon":5.38741,"is_reserved":false,"is_disabled":false,"rental_uris":{"android":"levelo://app?vid=a46b14e8-ac80-4c92-9e89-e003d275ce73","ios":"levelo://app?vid=a46b14e8-ac80-4c92-9e89-e003d275ce73"},"vehicle_type_id":"4","last_reported":1746115961,"current_range_meters":3200,"station_id":"ce4bhg12rcd13ifvqf80","pricing_plan_id":"cebpf4jnsgd1na2vs0mg"},{"bike_id":"8f74d520-df5d-4d01-9a0f-2f810a1ed415","system_id":"levelo_inurba_marseille","lat":43.28859,"lon":5.35858,"is_reserved":false,"is_disabled":false,"rental_uris":{"android":"levelo://app?vid=8f74d520-df5d-4d01-9a0f-2f810a1ed415","ios":"levelo://app?vid=8f74d520-df5d-4d01-9a0f-2f810a1ed415"},"vehicle_type_id":"4","last_reported":1746115961,"current_range_meters":3600,"station_id":"ce4bhb12rcd13ifvqem0","pricing_plan_id":"cebpf4jnsgd1na2vs0mg"},{"bike_id":"a9588b7b-124c-41be-ba0f-eab4930bab9f","system_id":"levelo_inurba_marseille","lat":43.25492,"lon":5.37651,"is_reserved":false,"is_disabled":false,"rental_uris":{"android":"levelo://app?vid=a9588b7b-124c-41be-ba0f-eab4930bab9f","ios":"levelo://app?vid=a9588b7b-124c-41be-ba0f-eab4930bab9f"},"vehicle_type_id":"4","last_reported":1746115961,"current_range_meters":3600,"station_id":"ce4bhh12rcd13ifvqff0","pricing_plan_id":"cebpf4jnsgd1na2vs0mg"},{"bike_id":"14841211-bffa-4c45-a95e-a3199df793c0","system_id":"levelo_inurba_marseille","lat":43.25121,"lon":5.40322,"is_reserved":false,"is_disabled":false,"rental_uris":{"android":"levelo://app?vid=14841211-bffa-4c45-a95e-a3199df793c0","ios":"levelo://app?vid=14841211-bffa-4c45-a95e-a3199df793c0"},"vehicle_type_id":"4","last_reported":1746115961,"current_range_meters":3600,"station_id":"ce4bhlh2rcd13ifvqgig","pricing_plan_id":"cebpf4jnsgd1na2vs0mg"},{"bike_id":"05732a65-fb48-400a-b6ce-24a9b2b51ebd","system_id":"levelo_inurba_marseille","lat":43.274923,"lon":5.409015,"is_reserved":false,"is_disabled":false,"rental_uris":{"android":"levelo://app?vid=05732a65-fb48-400a-b6ce-24a9b2b51ebd","ios":"levelo://app?vid=05732a65-fb48-400a-b6ce-24a9b2b51ebd"},"vehicle_type_id":"4","last_reported":1746115961,"current_range_meters":3600,"station_id":"ce4bhnh2rcd13ifvqgtg","pricing_plan_id":"cebpf4jnsgd1na2vs0mg"},{"bike_id":"07d95c19-ff40-4b41-baca-8825e9322aa5","system_id":"levelo_inurba_marseille","lat":43.28159,"lon":5.42647,"is_reserved":false,"is_disabled":false,"rental_uris":{"android":"levelo://app?vid=07d95c19-ff40-4b41-baca-8825e9322aa5","ios":"levelo://app?vid=07d95c19-ff40-4b41-baca-8825e9322aa5"},"vehicle_type_id":"4","last_reported":1746115961,"current_range_meters":3600,"station_id":"ce4bhnh2rcd13ifvqgug","pricing_plan_id":"cebpf4jnsgd1na2vs0mg"},{"bike_id":"2561cdc9-ebe5-48d6-9f32-fc9bce4d4cb4","system_id":"levelo_inurba_marseille","lat":43.30308,"lon":5.39207,"is_reserved":false,"is_disabled":false,"rental_uris":{"android":"levelo://app?vid=2561cdc9-ebe5-48d6-9f32-fc9bce4d4cb4","ios":"levelo://app?vid=2561cdc9-ebe5-48d6-9f32-fc9bce4d4cb4"},"vehicle_type_id":"4","last_reported":1746115961,"current_range_meters":4000,"station_id":"ce4bgkh2rcd13ifvqbk0","pricing_plan_id":"cebpf4jnsgd1na2vs0mg"},{"bike_id":"f1aa5d7e-0940-45ae-a84c-fc248fc2f3b3","system_id":"levelo_inurba_marseille","lat":43.2866,"lon":5.36348,"is_reserved":false,"is_disabled":false,"rental_uris":{"android":"levelo://app?vid=f1aa5d7e-0940-45ae-a84c-fc248fc2f3b3","ios":"levelo://app?vid=f1aa5d7e-0940-45ae-a84c-fc248fc2f3b3"},"vehicle_type_id":"4","last_reported":1746115961,"current_range_meters":4000,"station_id":"ce4bhah2rcd13ifvqej0","pricing_plan_id":"cebpf4jnsgd1na2vs0mg"},{"bike_id":"6d805ada-b364-47dd-b102-e4b37995d477","system_id":"levelo_inurba_marseille","lat":43.254927,"lon":5.394115,"is_reserved":false,"is_disabled":false,"rental_uris":{"android":"levelo://app?vid=6d805ada-b364-47dd-b102-e4b37995d477","ios":"levelo://app?vid=6d805ada-b364-47dd-b102-e4b37995d477"},"vehicle_type_id":"4","last_reported":1746115961,"current_range_meters":4000,"station_id":"ce4bhe12rcd13ifvqf30","pricing_plan_id":"cebpf4jnsgd1na2vs0mg"},{"bike_id":"5624ea86-eeeb-45cd-8b2d-fc521ae8b42c","system_id":"levelo_inurba_marseille","lat":43.26215,"lon":5.37448,"is_reserved":false,"is_disabled":false,"rental_uris":{"android":"levelo://app?vid=5624ea86-eeeb-45cd-8b2d-fc521ae8b42c","ios":"levelo://app?vid=5624ea86-eeeb-45cd-8b2d-fc521ae8b42c"},"vehicle_type_id":"4","last_reported":1746115961,"current_range_meters":4000,"station_id":"ce4bhgp2rcd13ifvqfc0","pricing_plan_id":"cebpf4jnsgd1na2vs0mg"},{"bike_id":"f6701282-2436-488b-8d07-8e3fd5b00755","system_id":"levelo_inurba_marseille","lat":43.23205,"lon":5.3555,"is_reserved":false,"is_disabled":false,"rental_uris":{"android":"levelo://app?vid=f6701282-2436-488b-8d07-8e3fd5b00755","ios":"levelo://app?vid=f6701282-2436-488b-8d07-8e3fd5b00755"},"vehicle_type_id":"4","last_reported":1746115961,"current_range_meters":4000,"station_id":"ce4bhu92rcd13ifvqi70","pricing_plan_id":"cebpf4jnsgd1na2vs0mg"},{"bike_id":"bdf55455-7ff5-428e-8782-a9843a805e95","system_id":"levelo_inurba_marseille","lat":43.27538,"lon":5.43361,"is_reserved":false,"is_disabled":false,"rental_uris":{"android":"levelo://app?vid=bdf55455-7ff5-428e-8782-a9843a805e95","ios":"levelo://app?vid=bdf55455-7ff5-428e-8782-a9843a805e95"},"vehicle_type_id":"4","last_reported":1746115961,"current_range_meters":4800,"station_id":"","pricing_plan_id":"cebpf4jnsgd1na2vs0mg"},{"bike_id":"cfa10d62-edfe-412d-a0ab-f9adccacba02","system_id":"levelo_inurba_marseille","lat":43.29644,"lon":5.40588,"is_reserved":false,"is_disabled":false,"rental_uris":{"android":"levelo://app?vid=cfa10d62-edfe-412d-a0ab-f9adccacba02","ios":"levelo://app?vid=cfa10d62-edfe-412d-a0ab-f9adccacba02"},"vehicle_type_id":"4","last_reported":1746115961,"current_range_meters":4800,"station_id":"ce4bh0h2rcd13ifvqd60","pricing_plan_id":"cebpf4jnsgd1na2vs0mg"},{"bike_id":"a5a857b5-0266-4a86-8292-2ca2dc24ea2f","system_id":"levelo_inurba_marseille","lat":43.29576,"lon":5.39975,"is_reserved":false,"is_disabled":false,"rental_uris":{"android":"levelo://app?vid=a5a857b5-0266-4a86-8292-2ca2dc24ea2f","ios":"levelo://app?vid=a5a857b5-0266-4a86-8292-2ca2dc24ea2f"},"vehicle_type_id":"4","last_reported":1746115961,"current_range_meters":4800,"station_id":"ce4bh312rcd13ifvqdj0","pricing_plan_id":"cebpf4jnsgd1na2vs0mg"},{"bike_id":"403baa7a-1be6-4a23-b3b4-bc488d4fc934","system_id":"levelo_inurba_marseille","lat":43.27996,"lon":5.41656,"is_reserved":false,"is_disabled":false,"rental_uris":{"android":"levelo://app?vid=403baa7a-1be6-4a23-b3b4-bc488d4fc934","ios":"levelo://app?vid=403baa7a-1be6-4a23-b3b4-bc488d4fc934"},"vehicle_type_id":"4","last_reported":1746115961,"current_range_meters":4800,"station_id":"ce4bho12rcd13ifvqh1g","pricing_plan_id":"cebpf4jnsgd1na2vs0mg"},{"bike_id":"72491803-f36f-45d0-8587-958aa6c4b452","system_id":"levelo_inurba_marseille","lat":43.31722,"lon":5.42397,"is_reserved":false,"is_disabled":false,"rental_uris":{"android":"levelo://app?vid=72491803-f36f-45d0-8587-958aa6c4b452","ios":"levelo://app?vid=72491803-f36f-45d0-8587-958aa6c4b452"},"vehicle_type_id":"4","last_reported":1746115961,"current_range_meters":4800,"station_id":"ce4bhp92rcd13ifvqhbg","pricing_plan_id":"cebpf4jnsgd1na2vs0mg"},{"bike_id":"d60c29ba-c24b-443f-87fd-d476b92a570b","system_id":"levelo_inurba_marseille","lat":43.31878,"lon":5.37942,"is_reserved":false,"is_disabled":false,"rental_uris":{"android":"levelo://app?vid=d60c29ba-c24b-443f-87fd-d476b92a570b","ios":"levelo://app?vid=d60c29ba-c24b-443f-87fd-d476b92a570b"},"vehicle_type_id":"4","last_reported":1746115961,"current_range_meters":5600,"station_id":"","pricing_plan_id":"cebpf4jnsgd1na2vs0mg"},{"bike_id":"fd9a4832-7310-4a2d-b55c-eb7e681369f4","system_id":"levelo_inurba_marseille","lat":43.27904,"lon":5.44076,"is_reserved":false,"is_disabled":false,"rental_uris":{"android":"levelo://app?vid=fd9a4832-7310-4a2d-b55c-eb7e681369f4","ios":"levelo://app?vid=fd9a4832-7310-4a2d-b55c-eb7e681369f4"},"vehicle_type_id":"4","last_reported":1746115961,"current_range_meters":5600,"station_id":"","pricing_plan_id":"cebpf4jnsgd1na2vs0mg"},{"bike_id":"07edfd45-c3fa-4b57-b865-cf1bf9963264","system_id":"levelo_inurba_marseille","lat":43.233875,"lon":5.36419,"is_reserved":false,"is_disabled":false,"rental_uris":{"android":"levelo://app?vid=07edfd45-c3fa-4b57-b865-cf1bf9963264","ios":"levelo://app?vid=07edfd45-c3fa-4b57-b865-cf1bf9963264"},"vehicle_type_id":"4","last_reported":1746115961,"current_range_meters":5600,"station_id":"","pricing_plan_id":"cebpf4jnsgd1na2vs0mg"},{"bike_id":"ad4faef5-50b3-403d-a8f4-87b007afc1fd","system_id":"levelo_inurba_marseille","lat":43.28698,"lon":5.37389,"is_reserved":false,"is_disabled":false,"rental_uris":{"android":"levelo://app?vid=ad4faef5-50b3-403d-a8f4-87b007afc1fd","ios":"levelo://app?vid=ad4faef5-50b3-403d-a8f4-87b007afc1fd"},"vehicle_type_id":"4","last_reported":1746115961,"current_range_meters":5600,"station_id":"ce4bh3p2rcd13ifvqdq0","pricing_plan_id":"cebpf4jnsgd1na2vs0mg"},{"bike_id":"9ed4512a-a188-4925-81c3-97a79d8b376f","system_id":"levelo_inurba_marseille","lat":43.34145,"lon":5.40908,"is_reserved":false,"is_disabled":false,"rental_uris":{"android":"levelo://app?vid=9ed4512a-a188-4925-81c3-97a79d8b376f","ios":"levelo://app?vid=9ed4512a-a188-4925-81c3-97a79d8b376f"},"vehicle_type_id":"4","last_reported":1746115961,"current_range_meters":5600,"station_id":"ce4bhqh2rcd13ifvqhlg","pricing_plan_id":"cebpf4jnsgd1na2vs0mg"},{"bike_id":"a114e64a-7de3-4a16-b204-84b944764fc1","system_id":"levelo_inurba_marseille","lat":43.29268,"lon":5.38438,"is_reserved":false,"is_disabled":false,"rental_uris":{"android":"levelo://app?vid=a114e64a-7de3-4a16-b204-84b944764fc1","ios":"levelo://app?vid=a114e64a-7de3-4a16-b204-84b944764fc1"},"vehicle_type_id":"4","last_reported":1746115961,"current_range_meters":6000,"station_id":"ce4bh692rcd13ifvqea0","pricing_plan_id":"cebpf4jnsgd1na2vs0mg"},{"bike_id":"f9f8b940-a052-4f31-9bf5-c35913b6181a","system_id":"levelo_inurba_marseille","lat":43.26808,"lon":5.40268,"is_reserved":false,"is_disabled":false,"rental_uris":{"android":"levelo://app?vid=f9f8b940-a052-4f31-9bf5-c35913b6181a","ios":"levelo://app?vid=f9f8b940-a052-4f31-9bf5-c35913b6181a"},"vehicle_type_id":"4","last_reported":1746115961,"current_range_meters":6000,"station_id":"ce501612rcd8frsf0b60","pricing_plan_id":"cebpf4jnsgd1na2vs0mg"},{"bike_id":"f5108dfb-be79-49c8-a248-365330088c5c","system_id":"levelo_inurba_marseille","lat":43.243125,"lon":5.368275,"is_reserved":false,"is_disabled":false,"rental_uris":{"android":"levelo://app?vid=f5108dfb-be79-49c8-a248-365330088c5c","ios":"levelo://app?vid=f5108dfb-be79-49c8-a248-365330088c5c"},"vehicle_type_id":"4","last_reported":1746115961,"current_range_meters":6400,"station_id":"","pricing_plan_id":"cebpf4jnsgd1na2vs0mg"},{"bike_id":"c69bd450-eb93-46df-bee4-96eb55a4c275","system_id":"levelo_inurba_marseille","lat":43.30304,"lon":5.39202,"is_reserved":false,"is_disabled":false,"rental_uris":{"android":"levelo://app?vid=c69bd450-eb93-46df-bee4-96eb55a4c275","ios":"levelo://app?vid=c69bd450-eb93-46df-bee4-96eb55a4c275"},"vehicle_type_id":"4","last_reported":1746115961,"current_range_meters":6400,"station_id":"ce4bgkh2rcd13ifvqbk0","pricing_plan_id":"cebpf4jnsgd1na2vs0mg"},{"bike_id":"2df77a42-2401-42cf-a00a-26e15f577f43","system_id":"levelo_inurba_marseille","lat":43.29778,"lon":5.371,"is_reserved":false,"is_disabled":false,"rental_uris":{"android":"levelo://app?vid=2df77a42-2401-42cf-a00a-26e15f577f43","ios":"levelo://app?vid=2df77a42-2401-42cf-a00a-26e15f577f43"},"vehicle_type_id":"4","last_reported":1746115961,"current_range_meters":6400,"station_id":"ce4bgop2rcd13ifvqc1g","pricing_plan_id":"cebpf4jnsgd1na2vs0mg"},{"bike_id":"016b9199-97c3-4e09-95eb-8171ae75200a","system_id":"levelo_inurba_marseille","lat":43.294136,"lon":5.386146,"is_reserved":false,"is_disabled":false,"rental_uris":{"android":"levelo://app?vid=016b9199-97c3-4e09-95eb-8171ae75200a","ios":"levelo://app?vid=016b9199-97c3-4e09-95eb-8171ae75200a"},"vehicle_type_id":"4","last_reported":1746115961,"current_range_meters":6400,"station_id":"ce4bh2h2rcd13ifvqdh0","pricing_plan_id":"cebpf4jnsgd1na2vs0mg"},{"bike_id":"dd35df3e-82ff-4ea1-a07f-00b47f03b188","system_id":"levelo_inurba_marseille","lat":43.24809,"lon":5.3745,"is_reserved":false,"is_disabled":false,"rental_uris":{"android":"levelo://app?vid=dd35df3e-82ff-4ea1-a07f-00b47f03b188","ios":"levelo://app?vid=dd35df3e-82ff-4ea1-a07f-00b47f03b188"},"vehicle_type_id":"4","last_reported":1746115961,"current_range_meters":6800,"station_id":"ce4bhgh2rcd13ifvqfb0","pricing_plan_id":"cebpf4jnsgd1na2vs0mg"},{"bike_id":"794911af-369a-49ec-8bce-05621400b5bd","system_id":"levelo_inurba_marseille","lat":43.27063,"lon":5.40273,"is_reserved":false,"is_disabled":false,"rental_uris":{"android":"levelo://app?vid=794911af-369a-49ec-8bce-05621400b5bd","ios":"levelo://app?vid=794911af-369a-49ec-8bce-05621400b5bd"},"vehicle_type_id":"4","last_reported":1746115961,"current_range_meters":6800,"station_id":"ce4bhk92rcd13ifvqgc0","pricing_plan_id":"cebpf4jnsgd1na2vs0mg"},{"bike_id":"0c20722b-d210-4aa9-91a9-a261ed1b994b","system_id":"levelo_inurba_marseille","lat":43.28157,"lon":5.42662,"is_reserved":false,"is_disabled":false,"rental_uris":{"android":"levelo://app?vid=0c20722b-d210-4aa9-91a9-a261ed1b994b","ios":"levelo://app?vid=0c20722b-d210-4aa9-91a9-a261ed1b994b"},"vehicle_type_id":"4","last_reported":1746115961,"current_range_meters":6800,"station_id":"ce4bhnh2rcd13ifvqgug","pricing_plan_id":"cebpf4jnsgd1na2vs0mg"},{"bike_id":"7d6ca6f4-dce5-4f5d-bc9c-151f8820f2b0","system_id":"levelo_inurba_marseille","lat":43.2319,"lon":5.35564,"is_reserved":false,"is_disabled":false,"rental_uris":{"android":"levelo://app?vid=7d6ca6f4-dce5-4f5d-bc9c-151f8820f2b0","ios":"levelo://app?vid=7d6ca6f4-dce5-4f5d-bc9c-151f8820f2b0"},"vehicle_type_id":"4","last_reported":1746115961,"current_range_meters":7200,"station_id":"ce4bhu92rcd13ifvqi70","pricing_plan_id":"cebpf4jnsgd1na2vs0mg"},{"bike_id":"59bbe346-57c3-49ec-9206-4cc719f28741","system_id":"levelo_inurba_marseille","lat":43.23195,"lon":5.35558,"is_reserved":false,"is_disabled":false,"rental_uris":{"android":"levelo://app?vid=59bbe346-57c3-49ec-9206-4cc719f28741","ios":"levelo://app?vid=59bbe346-57c3-49ec-9206-4cc719f28741"},"vehicle_type_id":"4","last_reported":1746115961,"current_range_meters":7200,"station_id":"ce4bhu92rcd13ifvqi70","pricing_plan_id":"cebpf4jnsgd1na2vs0mg"},{"bike_id":"0a7aeeb6-a9ba-4511-8faf-dbab0c2fc2ba","system_id":"levelo_inurba_marseille","lat":43.29628,"lon":5.40598,"is_reserved":false,"is_disabled":false,"rental_uris":{"android":"levelo://app?vid=0a7aeeb6-a9ba-4511-8faf-dbab0c2fc2ba","ios":"levelo://app?vid=0a7aeeb6-a9ba-4511-8faf-dbab0c2fc2ba"},"vehicle_type_id":"4","last_reported":1746115961,"current_range_meters":8000,"station_id":"ce4bh0h2rcd13ifvqd60","pricing_plan_id":"cebpf4jnsgd1na2vs0mg"},{"bike_id":"0f029169-90ab-4982-8fbc-4a4b8aabcc34","system_id":"levelo_inurba_marseille","lat":43.27914,"lon":5.38019,"is_reserved":false,"is_disabled":false,"rental_uris":{"android":"levelo://app?vid=0f029169-90ab-4982-8fbc-4a4b8aabcc34","ios":"levelo://app?vid=0f029169-90ab-4982-8fbc-4a4b8aabcc34"},"vehicle_type_id":"4","last_reported":1746115961,"current_range_meters":8000,"station_id":"ce4bhf92rcd13ifvqf50","pricing_plan_id":"cebpf4jnsgd1na2vs0mg"},{"bike_id":"3bb8b879-36db-4acb-bac5-36baa9388276","system_id":"levelo_inurba_marseille","lat":43.260546,"lon":5.393863,"is_reserved":false,"is_disabled":false,"rental_uris":{"android":"levelo://app?vid=3bb8b879-36db-4acb-bac5-36baa9388276","ios":"levelo://app?vid=3bb8b879-36db-4acb-bac5-36baa9388276"},"vehicle_type_id":"4","last_reported":1746115961,"current_range_meters":8400,"station_id":"ce4bhh92rcd13ifvqfj0","pricing_plan_id":"cebpf4jnsgd1na2vs0mg"},{"bike_id":"eba3da75-c597-4e33-a7d0-e07c664bcb78","system_id":"levelo_inurba_marseille","lat":43.2917,"lon":5.37156,"is_reserved":false,"is_disabled":false,"rental_uris":{"android":"levelo://app?vid=eba3da75-c597-4e33-a7d0-e07c664bcb78","ios":"levelo://app?vid=eba3da75-c597-4e33-a7d0-e07c664bcb78"},"vehicle_type_id":"4","last_reported":1746115961,"current_range_meters":8800,"station_id":"ce4bha92rcd13ifvqeh0","pricing_plan_id":"cebpf4jnsgd1na2vs0mg"},{"bike_id":"a40c0d56-d376-4dfc-b334-a423e28e7765","system_id":"levelo_inurba_marseille","lat":43.32528,"lon":5.41468,"is_reserved":false,"is_disabled":false,"rental_uris":{"android":"levelo://app?vid=a40c0d56-d376-4dfc-b334-a423e28e7765","ios":"levelo://app?vid=a40c0d56-d376-4dfc-b334-a423e28e7765"},"vehicle_type_id":"4","last_reported":1746115961,"current_range_meters":8800,"station_id":"ce4bhq12rcd13ifvqhhg","pricing_plan_id":"cebpf4jnsgd1na2vs0mg"},{"bike_id":"83bd6ccf-5ade-4a5b-a957-999a181c71ae","system_id":"levelo_inurba_marseille","lat":43.25087,"lon":5.39508,"is_reserved":false,"is_disabled":false,"rental_uris":{"android":"levelo://app?vid=83bd6ccf-5ade-4a5b-a957-999a181c71ae","ios":"levelo://app?vid=83bd6ccf-5ade-4a5b-a957-999a181c71ae"},"vehicle_type_id":"4","last_reported":1746115961,"current_range_meters":9200,"station_id":"ce4bhm12rcd13ifvqgkg","pricing_plan_id":"cebpf4jnsgd1na2vs0mg"},{"bike_id":"51ef9827-05d4-4f72-abc3-c6fec8c5a095","system_id":"levelo_inurba_marseille","lat":43.23192,"lon":5.43747,"is_reserved":false,"is_disabled":false,"rental_uris":{"android":"levelo://app?vid=51ef9827-05d4-4f72-abc3-c6fec8c5a095","ios":"levelo://app?vid=51ef9827-05d4-4f72-abc3-c6fec8c5a095"},"vehicle_type_id":"4","last_reported":1746115961,"current_range_meters":9600,"station_id":"","pricing_plan_id":"cebpf4jnsgd1na2vs0mg"},{"bike_id":"7553da76-73fb-47a2-8cc7-b9f5e0850134","system_id":"levelo_inurba_marseille","lat":43.26056,"lon":5.39401,"is_reserved":false,"is_disabled":false,"rental_uris":{"android":"levelo://app?vid=7553da76-73fb-47a2-8cc7-b9f5e0850134","ios":"levelo://app?vid=7553da76-73fb-47a2-8cc7-b9f5e0850134"},"vehicle_type_id":"4","last_reported":1746115961,"current_range_meters":9600,"station_id":"ce4bhh92rcd13ifvqfj0","pricing_plan_id":"cebpf4jnsgd1na2vs0mg"},{"bike_id":"7057a1ee-c33c-48e2-b91b-1e795a753cab","system_id":"levelo_inurba_marseille","lat":43.22932,"lon":5.35383,"is_reserved":false,"is_disabled":false,"rental_uris":{"android":"levelo://app?vid=7057a1ee-c33c-48e2-b91b-1e795a753cab","ios":"levelo://app?vid=7057a1ee-c33c-48e2-b91b-1e795a753cab"},"vehicle_type_id":"4","last_reported":1746115961,"current_range_meters":9600,"station_id":"cpo3532slgdg3j2ikp40","pricing_plan_id":"cebpf4jnsgd1na2vs0mg"},{"bike_id":"7ed6a366-578e-4a99-af96-b8f2a66cb37b","system_id":"levelo_inurba_marseille","lat":43.232,"lon":5.35538,"is_reserved":false,"is_disabled":false,"rental_uris":{"android":"levelo://app?vid=7ed6a366-578e-4a99-af96-b8f2a66cb37b","ios":"levelo://app?vid=7ed6a366-578e-4a99-af96-b8f2a66cb37b"},"vehicle_type_id":"4","last_reported":1746115961,"current_range_meters":10000,"station_id":"ce4bhu92rcd13ifvqi70","pricing_plan_id":"cebpf4jnsgd1na2vs0mg"},{"bike_id":"47f6e520-6ade-45ec-bee3-62825f0f3a56","system_id":"levelo_inurba_marseille","lat":43.29423,"lon":5.38616,"is_reserved":false,"is_disabled":false,"rental_uris":{"android":"levelo://app?vid=47f6e520-6ade-45ec-bee3-62825f0f3a56","ios":"levelo://app?vid=47f6e520-6ade-45ec-bee3-62825f0f3a56"},"vehicle_type_id":"4","last_reported":1746115961,"current_range_meters":10800,"station_id":"ce4bh2h2rcd13ifvqdh0","pricing_plan_id":"cebpf4jnsgd1na2vs0mg"},{"bike_id":"d967f54c-b8c4-4d9f-87ef-b9d2e0cd1075","system_id":"levelo_inurba_marseille","lat":43.23198,"lon":5.35563,"is_reserved":false,"is_disabled":false,"rental_uris":{"android":"levelo://app?vid=d967f54c-b8c4-4d9f-87ef-b9d2e0cd1075","ios":"levelo://app?vid=d967f54c-b8c4-4d9f-87ef-b9d2e0cd1075"},"vehicle_type_id":"4","last_reported":1746115961,"current_range_meters":10800,"station_id":"ce4bhu92rcd13ifvqi70","pricing_plan_id":"cebpf4jnsgd1na2vs0mg"},{"bike_id":"02f3ffa1-c21c-484b-8c52-794024ddff00","system_id":"levelo_inurba_marseille","lat":43.22509,"lon":5.34779,"is_reserved":false,"is_disabled":false,"rental_uris":{"android":"levelo://app?vid=02f3ffa1-c21c-484b-8c52-794024ddff00","ios":"levelo://app?vid=02f3ffa1-c21c-484b-8c52-794024ddff00"},"vehicle_type_id":"4","last_reported":1746115961,"current_range_meters":10800,"station_id":"st_cvj5dfep6f1abm77gieg","pricing_plan_id":"cebpf4jnsgd1na2vs0mg"},{"bike_id":"6c515499-de4a-4457-b28f-e9a8a3927876","system_id":"levelo_inurba_marseille","lat":43.29258,"lon":5.38436,"is_reserved":false,"is_disabled":false,"rental_uris":{"android":"levelo://app?vid=6c515499-de4a-4457-b28f-e9a8a3927876","ios":"levelo://app?vid=6c515499-de4a-4457-b28f-e9a8a3927876"},"vehicle_type_id":"4","last_reported":1746115961,"current_range_meters":11200,"station_id":"ce4bh692rcd13ifvqea0","pricing_plan_id":"cebpf4jnsgd1na2vs0mg"},{"bike_id":"b6345673-6b77-4e45-8876-94fcb3838ba8","system_id":"levelo_inurba_marseille","lat":43.26559,"lon":5.3728,"is_reserved":false,"is_disabled":false,"rental_uris":{"android":"levelo://app?vid=b6345673-6b77-4e45-8876-94fcb3838ba8","ios":"levelo://app?vid=b6345673-6b77-4e45-8876-94fcb3838ba8"},"vehicle_type_id":"4","last_reported":1746115961,"current_range_meters":11200,"station_id":"ce4bhg12rcd13ifvqf70","pricing_plan_id":"cebpf4jnsgd1na2vs0mg"},{"bike_id":"34b484ab-c0f1-4e55-b51a-e2bafdafb63e","system_id":"levelo_inurba_marseille","lat":43.230596,"lon":5.354913,"is_reserved":false,"is_disabled":false,"rental_uris":{"android":"levelo://app?vid=34b484ab-c0f1-4e55-b51a-e2bafdafb63e","ios":"levelo://app?vid=34b484ab-c0f1-4e55-b51a-e2bafdafb63e"},"vehicle_type_id":"4","last_reported":1746115961,"current_range_meters":11200,"station_id":"cpo3342slgdg3j2ifvpg","pricing_plan_id":"cebpf4jnsgd1na2vs0mg"},{"bike_id":"4bb2e06d-90de-4a01-ac5e-ad0c0ee3d27f","system_id":"levelo_inurba_marseille","lat":43.2119,"lon":5.35093,"is_reserved":false,"is_disabled":false,"rental_uris":{"android":"levelo://app?vid=4bb2e06d-90de-4a01-ac5e-ad0c0ee3d27f","ios":"levelo://app?vid=4bb2e06d-90de-4a01-ac5e-ad0c0ee3d27f"},"vehicle_type_id":"4","last_reported":1746115961,"current_range_meters":11200,"station_id":"st_cvj6sg6p6f1abm77japg","pricing_plan_id":"cebpf4jnsgd1na2vs0mg"},{"bike_id":"0e22f13e-ec09-461c-b59c-8c52a96dae58","system_id":"levelo_inurba_marseille","lat":43.299833,"lon":5.371712,"is_reserved":false,"is_disabled":false,"rental_uris":{"android":"levelo://app?vid=0e22f13e-ec09-461c-b59c-8c52a96dae58","ios":"levelo://app?vid=0e22f13e-ec09-461c-b59c-8c52a96dae58"},"vehicle_type_id":"4","last_reported":1746115961,"current_range_meters":11600,"station_id":"ce4bgr92rcd13ifvqc7g","pricing_plan_id":"cebpf4jnsgd1na2vs0mg"},{"bike_id":"34abc8c7-11e6-44eb-9d1a-45f77f5daba2","system_id":"levelo_inurba_marseille","lat":43.28162,"lon":5.42627,"is_reserved":false,"is_disabled":false,"rental_uris":{"android":"levelo://app?vid=34abc8c7-11e6-44eb-9d1a-45f77f5daba2","ios":"levelo://app?vid=34abc8c7-11e6-44eb-9d1a-45f77f5daba2"},"vehicle_type_id":"4","last_reported":1746115961,"current_range_meters":11600,"station_id":"ce4bhnh2rcd13ifvqgug","pricing_plan_id":"cebpf4jnsgd1na2vs0mg"},{"bike_id":"3572999c-6e6f-49d5-b3e4-928d41a57a69","system_id":"levelo_inurba_marseille","lat":43.21203,"lon":5.35076,"is_reserved":false,"is_disabled":false,"rental_uris":{"android":"levelo://app?vid=3572999c-6e6f-49d5-b3e4-928d41a57a69","ios":"levelo://app?vid=3572999c-6e6f-49d5-b3e4-928d41a57a69"},"vehicle_type_id":"4","last_reported":1746115961,"current_range_meters":12000,"station_id":"st_cvj6sg6p6f1abm77japg","pricing_plan_id":"cebpf4jnsgd1na2vs0mg"},{"bike_id":"c19cb2d9-4c96-4055-8b95-48f4f8c0304d","system_id":"levelo_inurba_marseille","lat":43.23208,"lon":5.3559,"is_reserved":false,"is_disabled":false,"rental_uris":{"android":"levelo://app?vid=c19cb2d9-4c96-4055-8b95-48f4f8c0304d","ios":"levelo://app?vid=c19cb2d9-4c96-4055-8b95-48f4f8c0304d"},"vehicle_type_id":"4","last_reported":1746115961,"current_range_meters":12400,"station_id":"ce4bhu92rcd13ifvqi70","pricing_plan_id":"cebpf4jnsgd1na2vs0mg"},{"bike_id":"b58385b2-d1b2-4ecc-af75-eb7cf4772905","system_id":"levelo_inurba_marseille","lat":43.23074,"lon":5.35497,"is_reserved":false,"is_disabled":false,"rental_uris":{"android":"levelo://app?vid=b58385b2-d1b2-4ecc-af75-eb7cf4772905","ios":"levelo://app?vid=b58385b2-d1b2-4ecc-af75-eb7cf4772905"},"vehicle_type_id":"4","last_reported":1746115961,"current_range_meters":12800,"station_id":"cpo3342slgdg3j2ifvpg","pricing_plan_id":"cebpf4jnsgd1na2vs0mg"},{"bike_id":"79975fe6-7a9b-4070-857c-88dbdb0effd1","system_id":"levelo_inurba_marseille","lat":43.293219,"lon":5.379647,"is_reserved":false,"is_disabled":false,"rental_uris":{"android":"levelo://app?vid=79975fe6-7a9b-4070-857c-88dbdb0effd1","ios":"levelo://app?vid=79975fe6-7a9b-4070-857c-88dbdb0effd1"},"vehicle_type_id":"4","last_reported":1746115961,"current_range_meters":13600,"station_id":"ce4bgjh2rcd13ifvqbf0","pricing_plan_id":"cebpf4jnsgd1na2vs0mg"},{"bike_id":"0c0f9391-dce2-45f2-82c7-d148478773c4","system_id":"levelo_inurba_marseille","lat":43.23176,"lon":5.35483,"is_reserved":false,"is_disabled":false,"rental_uris":{"android":"levelo://app?vid=0c0f9391-dce2-45f2-82c7-d148478773c4","ios":"levelo://app?vid=0c0f9391-dce2-45f2-82c7-d148478773c4"},"vehicle_type_id":"4","last_reported":1746115961,"current_range_meters":14000,"station_id":"","pricing_plan_id":"cebpf4jnsgd1na2vs0mg"},{"bike_id":"06b44663-1ff5-4d8a-a73a-83622150a67f","system_id":"levelo_inurba_marseille","lat":43.28941,"lon":5.36398,"is_reserved":false,"is_disabled":false,"rental_uris":{"android":"levelo://app?vid=06b44663-1ff5-4d8a-a73a-83622150a67f","ios":"levelo://app?vid=06b44663-1ff5-4d8a-a73a-83622150a67f"},"vehicle_type_id":"4","last_reported":1746115961,"current_range_meters":14400,"station_id":"ce4bhc92rcd13ifvqetg","pricing_plan_id":"cebpf4jnsgd1na2vs0mg"},{"bike_id":"0b9ac188-19a7-4ad4-8279-34f1318ce56d","system_id":"levelo_inurba_marseille","lat":43.31283,"lon":5.37747,"is_reserved":false,"is_disabled":false,"rental_uris":{"android":"levelo://app?vid=0b9ac188-19a7-4ad4-8279-34f1318ce56d","ios":"levelo://app?vid=0b9ac188-19a7-4ad4-8279-34f1318ce56d"},"vehicle_type_id":"4","last_reported":1746115961,"current_range_meters":14800,"station_id":"","pricing_plan_id":"cebpf4jnsgd1na2vs0mg"},{"bike_id":"2fc92f53-90d4-4928-8557-a464069543ab","system_id":"levelo_inurba_marseille","lat":43.31704,"lon":5.3773,"is_reserved":false,"is_disabled":false,"rental_uris":{"android":"levelo://app?vid=2fc92f53-90d4-4928-8557-a464069543ab","ios":"levelo://app?vid=2fc92f53-90d4-4928-8557-a464069543ab"},"vehicle_type_id":"4","last_reported":1746115961,"current_range_meters":14800,"station_id":"ce4bgth2rcd13ifvqch0","pricing_plan_id":"cebpf4jnsgd1na2vs0mg"},{"bike_id":"b33296bb-79ef-4b23-b4f0-b9c0eb5f2543","system_id":"levelo_inurba_marseille","lat":43.25727,"lon":5.41105,"is_reserved":false,"is_disabled":false,"rental_uris":{"android":"levelo://app?vid=b33296bb-79ef-4b23-b4f0-b9c0eb5f2543","ios":"levelo://app?vid=b33296bb-79ef-4b23-b4f0-b9c0eb5f2543"},"vehicle_type_id":"4","last_reported":1746115961,"current_range_meters":14800,"station_id":"ce4bhkp2rcd13ifvqgd0","pricing_plan_id":"cebpf4jnsgd1na2vs0mg"},{"bike_id":"a96ec2a2-fcdb-4632-95c6-920e7271fc7b","system_id":"levelo_inurba_marseille","lat":43.217483,"lon":5.345996,"is_reserved":false,"is_disabled":false,"rental_uris":{"android":"levelo://app?vid=a96ec2a2-fcdb-4632-95c6-920e7271fc7b","ios":"levelo://app?vid=a96ec2a2-fcdb-4632-95c6-920e7271fc7b"},"vehicle_type_id":"4","last_reported":1746115961,"current_range_meters":14800,"station_id":"st_cvj6r9ubvosntc0bgbag","pricing_plan_id":"cebpf4jnsgd1na2vs0mg"},{"bike_id":"ce3ccd2e-6ef1-4347-967c-bbb3419b1dd6","system_id":"levelo_inurba_marseille","lat":43.21779,"lon":5.34623,"is_reserved":false,"is_disabled":false,"rental_uris":{"android":"levelo://app?vid=ce3ccd2e-6ef1-4347-967c-bbb3419b1dd6","ios":"levelo://app?vid=ce3ccd2e-6ef1-4347-967c-bbb3419b1dd6"},"vehicle_type_id":"4","last_reported":1746115961,"current_range_meters":16400,"station_id":"","pricing_plan_id":"cebpf4jnsgd1na2vs0mg"},{"bike_id":"6a6ea15a-b3c3-4ffc-8ecc-51830ac8a33e","system_id":"levelo_inurba_marseille","lat":43.2174,"lon":5.34562,"is_reserved":false,"is_disabled":false,"rental_uris":{"android":"levelo://app?vid=6a6ea15a-b3c3-4ffc-8ecc-51830ac8a33e","ios":"levelo://app?vid=6a6ea15a-b3c3-4ffc-8ecc-51830ac8a33e"},"vehicle_type_id":"4","last_reported":1746115961,"current_range_meters":16400,"station_id":"st_cvj6r9ubvosntc0bgbag","pricing_plan_id":"cebpf4jnsgd1na2vs0mg"},{"bike_id":"0fcba6aa-b627-4381-b0d8-fabafda987ba","system_id":"levelo_inurba_marseille","lat":43.212,"lon":5.35072,"is_reserved":false,"is_disabled":false,"rental_uris":{"android":"levelo://app?vid=0fcba6aa-b627-4381-b0d8-fabafda987ba","ios":"levelo://app?vid=0fcba6aa-b627-4381-b0d8-fabafda987ba"},"vehicle_type_id":"4","last_reported":1746115961,"current_range_meters":16400,"station_id":"st_cvj6sg6p6f1abm77japg","pricing_plan_id":"cebpf4jnsgd1na2vs0mg"},{"bike_id":"81f8f28f-3af0-4221-b7eb-ad4b78cc037d","system_id":"levelo_inurba_marseille","lat":43.29907,"lon":5.38133,"is_reserved":false,"is_disabled":false,"rental_uris":{"android":"levelo://app?vid=81f8f28f-3af0-4221-b7eb-ad4b78cc037d","ios":"levelo://app?vid=81f8f28f-3af0-4221-b7eb-ad4b78cc037d"},"vehicle_type_id":"4","last_reported":1746115961,"current_range_meters":17200,"station_id":"ce4bgj12rcd13ifvqbc0","pricing_plan_id":"cebpf4jnsgd1na2vs0mg"},{"bike_id":"6b2f53ba-007e-469a-bac8-5af764b227ea","system_id":"levelo_inurba_marseille","lat":43.30921,"lon":5.40144,"is_reserved":false,"is_disabled":false,"rental_uris":{"android":"levelo://app?vid=6b2f53ba-007e-469a-bac8-5af764b227ea","ios":"levelo://app?vid=6b2f53ba-007e-469a-bac8-5af764b227ea"},