{"last_updated":1731395302,"ttl":60,"version":"2.2","data":{"bikes":[{"bike_id":"2afb4c00-67cc-42f1-ae32-502f5aecb4b2","system_id":"levelo_inurba_marseille","lat":43.24081,"lon":5.37736,"is_reserved":false,"is_disabled":false,"rental_uris":{"android":"levelo://app?vid=2afb4c00-67cc-42f1-ae32-502f5aecb4b2","ios":"levelo://app?vid=2afb4c00-67cc-42f1-ae32-502f5aecb4b2"},"vehicle_type_id":"4","last_reported":1731395302,"current_range_meters":30400,"station_id":"ce4bhnp2rcd13ifvqgvg","pricing_plan_id":"cebpf4jnsgd1na2vs0mg"},{"bike_id":"55f338da-564d-4339-bcb5-5d0a4b68c4e6","system_id":"levelo_inurba_marseille","lat":43.31072,"lon":5.40092,"is_reserved":false,"is_disabled":false,"rental_uris":{"android":"levelo://app?vid=55f338da-564d-4339-bcb5-5d0a4b68c4e6","ios":"levelo://app?vid=55f338da-564d-4339-bcb5-5d0a4b68c4e6"},"vehicle_type_id":"4","last_reported":1731395302,"current_range_meters":6400,"station_id":"","pricing_plan_id":"cebpf4jnsgd1na2vs0mg"},{"bike_id":"6a970c6e-55f9-4555-92d6-30cb08773f0a","system_id":"levelo_inurba_marseille","lat":43.336,"lon":5.41027,"is_reserved":false,"is_disabled":false,"rental_uris":{"android":"levelo://app?vid=6a970c6e-55f9-4555-92d6-30cb08773f0a","ios":"levelo://app?vid=6a970c6e-55f9-4555-92d6-30cb08773f0a"},"vehicle_type_id":"4","last_reported":1731395302,"current_range_meters":24800,"station_id":"ce4bhqh2rcd13ifvqhmg","pricing_plan_id":"cebpf4jnsgd1na2vs0mg"},{"bike_id":"ca7b51c1-41f7-48c3-b99c-ac6c08ca46fd","system_id":"levelo_inurba_marseille","lat":43.27489,"lon":5.42453,"is_reserved":false,"is_disabled":false,"rental_uris":{"android":"levelo://app?vid=ca7b51c1-41f7-48c3-b99c-ac6c08ca46fd","ios":"levelo://app?vid=ca7b51c1-41f7-48c3-b99c-ac6c08ca46fd"},"vehicle_type_id":"4","last_reported":1731395302,"current_range_meters":26800,"station_id":"ce4bhn92rcd13ifvqgrg","pricing_plan_id":"cebpf4jnsgd1na2vs0mg"},{"bike_id":"46a734c9-731d-4b21-a099-1ea1e56e747b","system_id":"levelo_inurba_marseille","lat":43.2557,"lon":5.38233,"is_reserved":false,"is_disabled":false,"rental_uris":{"android":"levelo://app?vid=46a734c9-731d-4b21-a099-1ea1e56e747b","ios":"levelo://app?vid=46a734c9-731d-4b21-a099-1ea1e56e747b"},"vehicle_type_id":"4","last_reported":1731395302,"current_range_meters":33600,"station_id":"ce4bhih2rcd13ifvqfs0","pricing_plan_id":"cebpf4jnsgd1na2vs0mg"},{"bike_id":"6ac7e8f3-ecae-451a-bf85-b68ad0a05e2c","system_id":"levelo_inurba_marseille","lat":43.24068,"lon":5.37764,"is_reserved":false,"is_disabled":false,"rental_uris":{"android":"levelo://app?vid=6ac7e8f3-ecae-451a-bf85-b68ad0a05e2c","ios":"levelo://app?vid=6ac7e8f3-ecae-451a-bf85-b68ad0a05e2c"},"vehicle_type_id":"4","last_reported":1731395302,"current_range_meters":21600,"station_id":"ce4bhnp2rcd13ifvqgvg","pricing_plan_id":"cebpf4jnsgd1na2vs0mg"},{"bike_id":"4e190911-e96d-4cae-b26f-f14a38123cb6","system_id":"levelo_inurba_marseille","lat":43.2835,"lon":5.38112,"is_reserved":false,"is_disabled":false,"rental_uris":{"android":"levelo://app?vid=4e190911-e96d-4cae-b26f-f14a38123cb6","ios":"levelo://app?vid=4e190911-e96d-4cae-b26f-f14a38123cb6"},"vehicle_type_id":"4","last_reported":1731395302,"current_range_meters":31200,"station_id":"ce4bh412rcd13ifvqdr0","pricing_plan_id":"cebpf4jnsgd1na2vs0mg"},{"bike_id":"f0141f63-ee8f-471e-9b30-571026b791b5","system_id":"levelo_inurba_marseille","lat":43.2977,"lon":5.38144,"is_reserved":false,"is_disabled":false,"rental_uris":{"android":"levelo://app?vid=f0141f63-ee8f-471e-9b30-571026b791b5","ios":"levelo://app?vid=f0141f63-ee8f-471e-9b30-571026b791b5"},"vehicle_type_id":"4","last_reported":1731395302,"current_range_meters":36800,"station_id":"ce4bgip2rcd13ifvqbb0","pricing_plan_id":"cebpf4jnsgd1na2vs0mg"},{"bike_id":"a657f16a-2bc0-48c9-8fd8-a5c59151be64","system_id":"levelo_inurba_marseille","lat":43.28706,"lon":5.3795,"is_reserved":false,"is_disabled":false,"rental_uris":{"android":"levelo://app?vid=a657f16a-2bc0-48c9-8fd8-a5c59151be64","ios":"levelo://app?vid=a657f16a-2bc0-48c9-8fd8-a5c59151be64"},"vehicle_type_id":"4","last_reported":1731395302,"current_range_meters":33200,"station_id":"ce4bh9p2rcd13ifvqec0","pricing_plan_id":"cebpf4jnsgd1na2vs0mg"},{"bike_id":"fe3b5787-61b5-4e0c-9f35-e47e67d13b47","system_id":"levelo_inurba_marseille","lat":43.3059,"lon":5.39357,"is_reserved":false,"is_disabled":false,"rental_uris":{"android":"levelo://app?vid=fe3b5787-61b5-4e0c-9f35-e47e67d13b47","ios":"levelo://app?vid=fe3b5787-61b5-4e0c-9f35-e47e67d13b47"},"vehicle_type_id":"4","last_reported":1731395302,"current_range_meters":38800,"station_id":"ce4bh0p2rcd13ifvqd80","pricing_plan_id":"cebpf4jnsgd1na2vs0mg"},{"bike_id":"49effbc6-1aad-46bf-8c53-c4b5d41bdb91","system_id":"levelo_inurba_marseille","lat":43.31339,"lon":5.36698,"is_reserved":false,"is_disabled":false,"rental_uris":{"android":"levelo://app?vid=49effbc6-1aad-46bf-8c53-c4b5d41bdb91","ios":"levelo://app?vid=49effbc6-1aad-46bf-8c53-c4b5d41bdb91"},"vehicle_type_id":"4","last_reported":1731395302,"current_range_meters":29600,"station_id":"ce4bgr92rcd13ifvqc6g","pricing_plan_id":"cebpf4jnsgd1na2vs0mg"},{"bike_id":"3e392b66-91b0-4ce2-b24e-779ddf9eacb4","system_id":"levelo_inurba_marseille","lat":43.32482,"lon":5.36567,"is_reserved":false,"is_disabled":false,"rental_uris":{"android":"levelo://app?vid=3e392b66-91b0-4ce2-b24e-779ddf9eacb4","ios":"levelo://app?vid=3e392b66-91b0-4ce2-b24e-779ddf9eacb4"},"vehicle_type_id":"4","last_reported":1731395302,"current_range_meters":27200,"station_id":"ce4bhs12rcd13ifvqhvg","pricing_plan_id":"cebpf4jnsgd1na2vs0mg"},{"bike_id":"5f671af9-34ec-4500-b1fd-c7f28d715cb9","system_id":"levelo_inurba_marseille","lat":43.28723,"lon":5.36077,"is_reserved":false,"is_disabled":false,"rental_uris":{"android":"levelo://app?vid=5f671af9-34ec-4500-b1fd-c7f28d715cb9","ios":"levelo://app?vid=5f671af9-34ec-4500-b1fd-c7f28d715cb9"},"vehicle_type_id":"4","last_reported":1731395302,"current_range_meters":38800,"station_id":"cki0cbj6b192h4jlfktg","pricing_plan_id":"cebpf4jnsgd1na2vs0mg"},{"bike_id":"b5a0f60d-ed4f-4aae-8034-67433a67b848","system_id":"levelo_inurba_marseille","lat":43.29041,"lon":5.3995,"is_reserved":false,"is_disabled":false,"rental_uris":{"android":"levelo://app?vid=b5a0f60d-ed4f-4aae-8034-67433a67b848","ios":"levelo://app?vid=b5a0f60d-ed4f-4aae-8034-67433a67b848"},"vehicle_type_id":"4","last_reported":1731395302,"current_range_meters":38800,"station_id":"ce4bh392rcd13ifvqdm0","pricing_plan_id":"cebpf4jnsgd1na2vs0mg"},{"bike_id":"d58636f1-224d-48a3-ac68-59d52e30576f","system_id":"levelo_inurba_marseille","lat":43.323679,"lon":5.388811,"is_reserved":false,"is_disabled":false,"rental_uris":{"android":"levelo://app?vid=d58636f1-224d-48a3-ac68-59d52e30576f","ios":"levelo://app?vid=d58636f1-224d-48a3-ac68-59d52e30576f"},"vehicle_type_id":"4","last_reported":1731395302,"current_range_meters":30400,"station_id":"ce4bhqp2rcd13ifvqhog","pricing_plan_id":"cebpf4jnsgd1na2vs0mg"},{"bike_id":"aad201f8-4768-4529-bb34-9edba7f0114d","system_id":"levelo_inurba_marseille","lat":43.26958,"lon":5.38629,"is_reserved":false,"is_disabled":false,"rental_uris":{"android":"levelo://app?vid=aad201f8-4768-4529-bb34-9edba7f0114d","ios":"levelo://app?vid=aad201f8-4768-4529-bb34-9edba7f0114d"},"vehicle_type_id":"4","last_reported":1731395302,"current_range_meters":36000,"station_id":"ce4bhh92rcd13ifvqfh0","pricing_plan_id":"cebpf4jnsgd1na2vs0mg"},{"bike_id":"12d43724-7615-4bf8-b8cf-43c1bfe07aaf","system_id":"levelo_inurba_marseille","lat":43.28342,"lon":5.3811,"is_reserved":false,"is_disabled":false,"rental_uris":{"android":"levelo://app?vid=12d43724-7615-4bf8-b8cf-43c1bfe07aaf","ios":"levelo://app?vid=12d43724-7615-4bf8-b8cf-43c1bfe07aaf"},"vehicle_type_id":"4","last_reported":1731395302,"current_range_meters":30000,"station_id":"ce4bh412rcd13ifvqdr0","pricing_plan_id":"cebpf4jnsgd1na2vs0mg"},{"bike_id":"1b95f4e9-51ad-4d6c-92dd-b686e4369237","system_id":"levelo_inurba_marseille","lat":43.283533,"lon":5.381047,"is_reserved":false,"is_disabled":false,"rental_uris":{"android":"levelo://app?vid=1b95f4e9-51ad-4d6c-92dd-b686e4369237","ios":"levelo://app?vid=1b95f4e9-51ad-4d6c-92dd-b686e4369237"},"vehicle_type_id":"4","last_reported":1731395302,"current_range_meters":8800,"station_id":"ce4bh412rcd13ifvqdr0","pricing_plan_id":"cebpf4jnsgd1na2vs0mg"},{"bike_id":"d43bb162-952a-4b8b-bbfa-a24700d44671","system_id":"levelo_inurba_marseille","lat":43.27174,"lon":5.40992,"is_reserved":false,"is_disabled":false,"rental_uris":{"android":"levelo://app?vid=d43bb162-952a-4b8b-bbfa-a24700d44671","ios":"levelo://app?vid=d43bb162-952a-4b8b-bbfa-a24700d44671"},"vehicle_type_id":"4","last_reported":1731395302,"current_range_meters":18000,"station_id":"ce4bhl12rcd13ifvqgf0","pricing_plan_id":"cebpf4jnsgd1na2vs0mg"},{"bike_id":"a6cebce8-5cc9-4e63-856d-8b5d14b3f2bb","system_id":"levelo_inurba_marseille","lat":43.24083,"lon":5.37752,"is_reserved":false,"is_disabled":false,"rental_uris":{"android":"levelo://app?vid=a6cebce8-5cc9-4e63-856d-8b5d14b3f2bb","ios":"levelo://app?vid=a6cebce8-5cc9-4e63-856d-8b5d14b3f2bb"},"vehicle_type_id":"4","last_reported":1731395302,"current_range_meters":7200,"station_id":"ce4bhnp2rcd13ifvqgvg","pricing_plan_id":"cebpf4jnsgd1na2vs0mg"},{"bike_id":"7b62d9a1-4410-4919-b265-e09aff197a53","system_id":"levelo_inurba_marseille","lat":43.27068,"lon":5.42276,"is_reserved":false,"is_disabled":false,"rental_uris":{"android":"levelo://app?vid=7b62d9a1-4410-4919-b265-e09aff197a53","ios":"levelo://app?vid=7b62d9a1-4410-4919-b265-e09aff197a53"},"vehicle_type_id":"4","last_reported":1731395302,"current_range_meters":38800,"station_id":"ce4bhk92rcd13ifvqgb0","pricing_plan_id":"cebpf4jnsgd1na2vs0mg"},{"bike_id":"1c71ada1-5253-4c48-bc40-f9c2f0448790","system_id":"levelo_inurba_marseille","lat":43.28934,"lon":5.36406,"is_reserved":false,"is_disabled":false,"rental_uris":{"android":"levelo://app?vid=1c71ada1-5253-4c48-bc40-f9c2f0448790","ios":"levelo://app?vid=1c71ada1-5253-4c48-bc40-f9c2f0448790"},"vehicle_type_id":"4","last_reported":1731395302,"current_range_meters":18800,"station_id":"ce4bhc92rcd13ifvqetg","pricing_plan_id":"cebpf4jnsgd1na2vs0mg"},{"bike_id":"1ec31f50-d96c-47c6-9806-96f227089cd4","system_id":"levelo_inurba_marseille","lat":43.27483,"lon":5.42454,"is_reserved":false,"is_disabled":false,"rental_uris":{"android":"levelo://app?vid=1ec31f50-d96c-47c6-9806-96f227089cd4","ios":"levelo://app?vid=1ec31f50-d96c-47c6-9806-96f227089cd4"},"vehicle_type_id":"4","last_reported":1731395302,"current_range_meters":34000,"station_id":"ce4bhn92rcd13ifvqgrg","pricing_plan_id":"cebpf4jnsgd1na2vs0mg"},{"bike_id":"afc3c5b0-3896-4b74-beef-f6846cc7e6a4","system_id":"levelo_inurba_marseille","lat":43.31174,"lon":5.38712,"is_reserved":false,"is_disabled":false,"rental_uris":{"android":"levelo://app?vid=afc3c5b0-3896-4b74-beef-f6846cc7e6a4","ios":"levelo://app?vid=afc3c5b0-3896-4b74-beef-f6846cc7e6a4"},"vehicle_type_id":"4","last_reported":1731395302,"current_range_meters":38800,"station_id":"ce4bgv12rcd13ifvqcp0","pricing_plan_id":"cebpf4jnsgd1na2vs0mg"},{"bike_id":"3e8d294d-2117-43d2-9e96-a240e099e970","system_id":"levelo_inurba_marseille","lat":43.27672,"lon":5.3887,"is_reserved":false,"is_disabled":false,"rental_uris":{"android":"levelo://app?vid=3e8d294d-2117-43d2-9e96-a240e099e970","ios":"levelo://app?vid=3e8d294d-2117-43d2-9e96-a240e099e970"},"vehicle_type_id":"4","last_reported":1731395302,"current_range_meters":34800,"station_id":"ce4bhi12rcd13ifvqfo0","pricing_plan_id":"cebpf4jnsgd1na2vs0mg"},{"bike_id":"86a1e8ec-924c-482f-a632-e7f0600dca6f","system_id":"levelo_inurba_marseille","lat":43.33635,"lon":5.40967,"is_reserved":false,"is_disabled":false,"rental_uris":{"android":"levelo://app?vid=86a1e8ec-924c-482f-a632-e7f0600dca6f","ios":"levelo://app?vid=86a1e8ec-924c-482f-a632-e7f0600dca6f"},"vehicle_type_id":"4","last_reported":1731395302,"current_range_meters":38000,"station_id":"ce4bhqh2rcd13ifvqhmg","pricing_plan_id":"cebpf4jnsgd1na2vs0mg"},{"bike_id":"fe37c98d-4fe8-4b74-8d94-28bfc5cee9fc","system_id":"levelo_inurba_marseille","lat":43.27821,"lon":5.40713,"is_reserved":false,"is_disabled":false,"rental_uris":{"android":"levelo://app?vid=fe37c98d-4fe8-4b74-8d94-28bfc5cee9fc","ios":"levelo://app?vid=fe37c98d-4fe8-4b74-8d94-28bfc5cee9fc"},"vehicle_type_id":"4","last_reported":1731395302,"current_range_meters":25600,"station_id":"ce4bhnh2rcd13ifvqgtg","pricing_plan_id":"cebpf4jnsgd1na2vs0mg"},{"bike_id":"846a3966-0c2d-403b-b3bb-446222aa994e","system_id":"levelo_inurba_marseille","lat":43.290344,"lon":5.375564,"is_reserved":false,"is_disabled":false,"rental_uris":{"android":"levelo://app?vid=846a3966-0c2d-403b-b3bb-446222aa994e","ios":"levelo://app?vid=846a3966-0c2d-403b-b3bb-446222aa994e"},"vehicle_type_id":"4","last_reported":1731395302,"current_range_meters":28400,"station_id":"ce4bh692rcd13ifvqe90","pricing_plan_id":"cebpf4jnsgd1na2vs0mg"},{"bike_id":"1b046879-35cd-442b-b952-4fc484de3252","system_id":"levelo_inurba_marseille","lat":43.2953,"lon":5.38544,"is_reserved":false,"is_disabled":false,"rental_uris":{"android":"levelo://app?vid=1b046879-35cd-442b-b952-4fc484de3252","ios":"levelo://app?vid=1b046879-35cd-442b-b952-4fc484de3252"},"vehicle_type_id":"4","last_reported":1731395302,"current_range_meters":35600,"station_id":"ce4bgih2rcd13ifvqba0","pricing_plan_id":"cebpf4jnsgd1na2vs0mg"},{"bike_id":"d46ec40f-cc3d-4fe6-b9e7-3cb07f3c1980","system_id":"levelo_inurba_marseille","lat":43.27981,"lon":5.39545,"is_reserved":false,"is_disabled":false,"rental_uris":{"android":"levelo://app?vid=d46ec40f-cc3d-4fe6-b9e7-3cb07f3c1980","ios":"levelo://app?vid=d46ec40f-cc3d-4fe6-b9e7-3cb07f3c1980"},"vehicle_type_id":"4","last_reported":1731395302,"current_range_meters":33200,"station_id":"ce4bhg92rcd13ifvqf90","pricing_plan_id":"cebpf4jnsgd1na2vs0mg"},{"bike_id":"55f1a7c3-896e-434c-b890-0d70bff8f621","system_id":"levelo_inurba_marseille","lat":43.24645,"lon":5.38891,"is_reserved":false,"is_disabled":false,"rental_uris":{"android":"levelo://app?vid=55f1a7c3-896e-434c-b890-0d70bff8f621","ios":"levelo://app?vid=55f1a7c3-896e-434c-b890-0d70bff8f621"},"vehicle_type_id":"4","last_reported":1731395302,"current_range_meters":11200,"station_id":"ce4bhg12rcd13ifvqf60","pricing_plan_id":"cebpf4jnsgd1na2vs0mg"},{"bike_id":"791689bc-b073-4cdc-9869-27b338165735","system_id":"levelo_inurba_marseille","lat":43.32651,"lon":5.40984,"is_reserved":false,"is_disabled":false,"rental_uris":{"android":"levelo://app?vid=791689bc-b073-4cdc-9869-27b338165735","ios":"levelo://app?vid=791689bc-b073-4cdc-9869-27b338165735"},"vehicle_type_id":"4","last_reported":1731395302,"current_range_meters":36000,"station_id":"ce4bhpp2rcd13ifvqhgg","pricing_plan_id":"cebpf4jnsgd1na2vs0mg"},{"bike_id":"f319df9a-050c-4060-9f27-484a66d802a2","system_id":"levelo_inurba_marseille","lat":43.29026,"lon":5.39975,"is_reserved":false,"is_disabled":false,"rental_uris":{"android":"levelo://app?vid=f319df9a-050c-4060-9f27-484a66d802a2","ios":"levelo://app?vid=f319df9a-050c-4060-9f27-484a66d802a2"},"vehicle_type_id":"4","last_reported":1731395302,"current_range_meters":22400,"station_id":"ce4bh392rcd13ifvqdm0","pricing_plan_id":"cebpf4jnsgd1na2vs0mg"},{"bike_id":"a7d71a95-aff9-47f9-8c01-defabf3b40db","system_id":"levelo_inurba_marseille","lat":43.28156,"lon":5.42638,"is_reserved":false,"is_disabled":false,"rental_uris":{"android":"levelo://app?vid=a7d71a95-aff9-47f9-8c01-defabf3b40db","ios":"levelo://app?vid=a7d71a95-aff9-47f9-8c01-defabf3b40db"},"vehicle_type_id":"4","last_reported":1731395302,"current_range_meters":8000,"station_id":"ce4bhnh2rcd13ifvqgug","pricing_plan_id":"cebpf4jnsgd1na2vs0mg"},{"bike_id":"ebb4e358-f9ff-49e3-a531-88e0998a72ce","system_id":"levelo_inurba_marseille","lat":43.30593,"lon":5.39358,"is_reserved":false,"is_disabled":false,"rental_uris":{"android":"levelo://app?vid=ebb4e358-f9ff-49e3-a531-88e0998a72ce","ios":"levelo://app?vid=ebb4e358-f9ff-49e3-a531-88e0998a72ce"},"vehicle_type_id":"4","last_reported":1731395302,"current_range_meters":38400,"station_id":"ce4bh0p2rcd13ifvqd80","pricing_plan_id":"cebpf4jnsgd1na2vs0mg"},{"bike_id":"ffc8eba4-be35-43f2-b2db-219ce36ce8d6","system_id":"levelo_inurba_marseille","lat":43.29035,"lon":5.39952,"is_reserved":false,"is_disabled":false,"rental_uris":{"android":"levelo://app?vid=ffc8eba4-be35-43f2-b2db-219ce36ce8d6","ios":"levelo://app?vid=ffc8eba4-be35-43f2-b2db-219ce36ce8d6"},"vehicle_type_id":"4","last_reported":1731395302,"current_range_meters":7200,"station_id":"ce4bh392rcd13ifvqdm0","pricing_plan_id":"cebpf4jnsgd1na2vs0mg"},{"bike_id":"ec5899ca-f462-4f0a-af00-68e188e1cdc1","system_id":"levelo_inurba_marseille","lat":43.25938,"lon":5.40907,"is_reserved":false,"is_disabled":false,"rental_uris":{"android":"levelo://app?vid=ec5899ca-f462-4f0a-af00-68e188e1cdc1","ios":"levelo://app?vid=ec5899ca-f462-4f0a-af00-68e188e1cdc1"},"vehicle_type_id":"4","last_reported":1731395302,"current_range_meters":30000,"station_id":"ce4bhm92rcd13ifvqglg","pricing_plan_id":"cebpf4jnsgd1na2vs0mg"},{"bike_id":"ac866058-58cc-424f-a2d8-5116ec51e77c","system_id":"levelo_inurba_marseille","lat":43.29034,"lon":5.39946,"is_reserved":false,"is_disabled":false,"rental_uris":{"android":"levelo://app?vid=ac866058-58cc-424f-a2d8-5116ec51e77c","ios":"levelo://app?vid=ac866058-58cc-424f-a2d8-5116ec51e77c"},"vehicle_type_id":"4","last_reported":1731395302,"current_range_meters":20000,"station_id":"ce4bh392rcd13ifvqdm0","pricing_plan_id":"cebpf4jnsgd1na2vs0mg"},{"bike_id":"bda64e36-e854-4a94-9dcc-adb8e4bde50d","system_id":"levelo_inurba_marseille","lat":43.29583,"lon":5.38114,"is_reserved":false,"is_disabled":false,"rental_uris":{"android":"levelo://app?vid=bda64e36-e854-4a94-9dcc-adb8e4bde50d","ios":"levelo://app?vid=bda64e36-e854-4a94-9dcc-adb8e4bde50d"},"vehicle_type_id":"4","last_reported":1731395302,"current_range_meters":26800,"station_id":"ce4bgl12rcd13ifvqbo0","pricing_plan_id":"cebpf4jnsgd1na2vs0mg"},{"bike_id":"a8708327-2c42-4c28-94b8-76c59a2f2b2d","system_id":"levelo_inurba_marseille","lat":43.3014,"lon":5.38059,"is_reserved":false,"is_disabled":false,"rental_uris":{"android":"levelo://app?vid=a8708327-2c42-4c28-94b8-76c59a2f2b2d","ios":"levelo://app?vid=a8708327-2c42-4c28-94b8-76c59a2f2b2d"},"vehicle_type_id":"4","last_reported":1731395302,"current_range_meters":36400,"station_id":"ce4bgjp2rcd13ifvqbh0","pricing_plan_id":"cebpf4jnsgd1na2vs0mg"},{"bike_id":"48a996fa-88bc-4c10-ba89-2fc4c9f9f1d0","system_id":"levelo_inurba_marseille","lat":43.23962,"lon":5.36634,"is_reserved":false,"is_disabled":false,"rental_uris":{"android":"levelo://app?vid=48a996fa-88bc-4c10-ba89-2fc4c9f9f1d0","ios":"levelo://app?vid=48a996fa-88bc-4c10-ba89-2fc4c9f9f1d0"},"vehicle_type_id":"4","last_reported":1731395302,"current_range_meters":37600,"station_id":"ce4bhi12rcd13ifvqfp0","pricing_plan_id":"cebpf4jnsgd1na2vs0mg"},{"bike_id":"639e350b-e8f2-4cb1-be79-9adcdba8f7fa","system_id":"levelo_inurba_marseille","lat":43.28472,"lon":5.38427,"is_reserved":false,"is_disabled":false,"rental_uris":{"android":"levelo://app?vid=639e350b-e8f2-4cb1-be79-9adcdba8f7fa","ios":"levelo://app?vid=639e350b-e8f2-4cb1-be79-9adcdba8f7fa"},"vehicle_type_id":"4","last_reported":1731395302,"current_range_meters":38400,"station_id":"ce4bh512rcd13ifvqe3g","pricing_plan_id":"cebpf4jnsgd1na2vs0mg"},{"bike_id":"9d700c89-5496-4dab-9543-51503a4574e8","system_id":"levelo_inurba_marseille","lat":43.29592,"lon":5.38098,"is_reserved":false,"is_disabled":false,"rental_uris":{"android":"levelo://app?vid=9d700c89-5496-4dab-9543-51503a4574e8","ios":"levelo://app?vid=9d700c89-5496-4dab-9543-51503a4574e8"},"vehicle_type_id":"4","last_reported":1731395302,"current_range_meters":32800,"station_id":"ce4bgl12rcd13ifvqbo0","pricing_plan_id":"cebpf4jnsgd1na2vs0mg"},{"bike_id":"c976cdde-0993-47a0-9228-5a2ed120aff4","system_id":"levelo_inurba_marseille","lat":43.27556,"lon":5.38416,"is_reserved":false,"is_disabled":false,"rental_uris":{"android":"levelo://app?vid=c976cdde-0993-47a0-9228-5a2ed120aff4","ios":"levelo://app?vid=c976cdde-0993-47a0-9228-5a2ed120aff4"},"vehicle_type_id":"4","last_reported":1731395302,"current_range_meters":7200,"station_id":"ce4bhh92rcd13ifvqfi0","pricing_plan_id":"cebpf4jnsgd1na2vs0mg"},{"bike_id":"d0ef08cf-1a61-4d5a-9612-ccfee90a1e32","system_id":"levelo_inurba_marseille","lat":43.24814,"lon":5.37458,"is_reserved":false,"is_disabled":false,"rental_uris":{"android":"levelo://app?vid=d0ef08cf-1a61-4d5a-9612-ccfee90a1e32","ios":"levelo://app?vid=d0ef08cf-1a61-4d5a-9612-ccfee90a1e32"},"vehicle_type_id":"4","last_reported":1731395302,"current_range_meters":37600,"station_id":"ce4bhgh2rcd13ifvqfb0","pricing_plan_id":"cebpf4jnsgd1na2vs0mg"},{"bike_id":"92facef6-e2d0-454a-822c-e6aa26910416","system_id":"levelo_inurba_marseille","lat":43.24648,"lon":5.38904,"is_reserved":false,"is_disabled":false,"rental_uris":{"android":"levelo://app?vid=92facef6-e2d0-454a-822c-e6aa26910416","ios":"levelo://app?vid=92facef6-e2d0-454a-822c-e6aa26910416"},"vehicle_type_id":"4","last_reported":1731395302,"current_range_meters":22800,"station_id":"ce4bhg12rcd13ifvqf60","pricing_plan_id":"cebpf4jnsgd1na2vs0mg"},{"bike_id":"cc849dc6-c1c3-477a-ad2b-2f8888b16a17","system_id":"levelo_inurba_marseille","lat":43.2955,"lon":5.42281,"is_reserved":false,"is_disabled":false,"rental_uris":{"android":"levelo://app?vid=cc849dc6-c1c3-477a-ad2b-2f8888b16a17","ios":"levelo://app?vid=cc849dc6-c1c3-477a-ad2b-2f8888b16a17"},"vehicle_type_id":"4","last_reported":1731395302,"current_range_meters":28800,"station_id":"ce4bhph2rcd13ifvqhdg","pricing_plan_id":"cebpf4jnsgd1na2vs0mg"},{"bike_id":"40ee769d-1238-4013-8434-6704bade4ce4","system_id":"levelo_inurba_marseille","lat":43.33606,"lon":5.4103,"is_reserved":false,"is_disabled":false,"rental_uris":{"android":"levelo://app?vid=40ee769d-1238-4013-8434-6704bade4ce4","ios":"levelo://app?vid=40ee769d-1238-4013-8434-6704bade4ce4"},"vehicle_type_id":"4","last_reported":1731395302,"current_range_meters":32800,"station_id":"ce4bhqh2rcd13ifvqhmg","pricing_plan_id":"cebpf4jnsgd1na2vs0mg"},{"bike_id":"3469cc8c-560a-4777-a89e-390b24542b88","system_id":"levelo_inurba_marseille","lat":43.29595,"lon":5.3811,"is_reserved":false,"is_disabled":false,"rental_uris":{"android":"levelo://app?vid=3469cc8c-560a-4777-a89e-390b24542b88","ios":"levelo://app?vid=3469cc8c-560a-4777-a89e-390b24542b88"},"vehicle_type_id":"4","last_reported":1731395302,"current_range_meters":34800,"station_id":"ce4bgl12rcd13ifvqbo0","pricing_plan_id":"cebpf4jnsgd1na2vs0mg"},{"bike_id":"0b5ea244-c1b4-4869-9fcb-ed66ce2332e8","system_id":"levelo_inurba_marseille","lat":43.25821,"lon":5.39435,"is_reserved":false,"is_disabled":false,"rental_uris":{"android":"levelo://app?vid=0b5ea244-c1b4-4869-9fcb-ed66ce2332e8","ios":"levelo://app?vid=0b5ea244-c1b4-4869-9fcb-ed66ce2332e8"},"vehicle_type_id":"4","last_reported":1731395302,"current_range_meters":36800,"station_id":"ce4bhip2rcd13ifvqft0","pricing_plan_id":"cebpf4jnsgd1na2vs0mg"},{"bike_id":"0c0c226c-4311-40bc-966e-4d8a46b2c5c4","system_id":"levelo_inurba_marseille","lat":43.24073,"lon":5.37757,"is_reserved":false,"is_disabled":false,"rental_uris":{"android":"levelo://app?vid=0c0c226c-4311-40bc-966e-4d8a46b2c5c4","ios":"levelo://app?vid=0c0c226c-4311-40bc-966e-4d8a46b2c5c4"},"vehicle_type_id":"4","last_reported":1731395302,"current_range_meters":18000,"station_id":"ce4bhnp2rcd13ifvqgvg","pricing_plan_id":"cebpf4jnsgd1na2vs0mg"},{"bike_id":"ed39f7b9-0b8a-4672-ad2f-ed6ad22a9745","system_id":"levelo_inurba_marseille","lat":43.33601,"lon":5.41038,"is_reserved":false,"is_disabled":false,"rental_uris":{"android":"levelo://app?vid=ed39f7b9-0b8a-4672-ad2f-ed6ad22a9745","ios":"levelo://app?vid=ed39f7b9-0b8a-4672-ad2f-ed6ad22a9745"},"vehicle_type_id":"4","last_reported":1731395302,"current_range_meters":28400,"station_id":"ce4bhqh2rcd13ifvqhmg","pricing_plan_id":"cebpf4jnsgd1na2vs0mg"},{"bike_id":"83d27623-227b-45b4-b121-38b16d39aef2","system_id":"levelo_inurba_marseille","lat":43.24543,"lon":5.39528,"is_reserved":false,"is_disabled":false,"rental_uris":{"android":"levelo://app?vid=83d27623-227b-45b4-b121-38b16d39aef2","ios":"levelo://app?vid=83d27623-227b-45b4-b121-38b16d39aef2"},"vehicle_type_id":"4","last_reported":1731395302,"current_range_meters":31200,"station_id":"ce4bhlp2rcd13ifvqgjg","pricing_plan_id":"cebpf4jnsgd1na2vs0mg"},{"bike_id":"88ebcd25-39e9-465f-a242-ed4747e08dd3","system_id":"levelo_inurba_marseille","lat":43.3046,"lon":5.37904,"is_reserved":false,"is_disabled":false,"rental_uris":{"android":"levelo://app?vid=88ebcd25-39e9-465f-a242-ed4747e08dd3","ios":"levelo://app?vid=88ebcd25-39e9-465f-a242-ed4747e08dd3"},"vehicle_type_id":"4","last_reported":1731395302,"current_range_meters":30800,"station_id":"ce4bgup2rcd13ifvqcn0","pricing_plan_id":"cebpf4jnsgd1na2vs0mg"},{"bike_id":"0684a225-9424-4988-beb5-2bdfed8b6cc5","system_id":"levelo_inurba_marseille","lat":43.30468,"lon":5.379113,"is_reserved":false,"is_disabled":false,"rental_uris":{"android":"levelo://app?vid=0684a225-9424-4988-beb5-2bdfed8b6cc5","ios":"levelo://app?vid=0684a225-9424-4988-beb5-2bdfed8b6cc5"},"vehicle_type_id":"4","last_reported":1731395302,"current_range_meters":34800,"station_id":"ce4bgup2rcd13ifvqcn0","pricing_plan_id":"cebpf4jnsgd1na2vs0mg"},{"bike_id":"e7f46eb4-6b70-41c0-b2ec-d4f5352531c8","system_id":"levelo_inurba_marseille","lat":43.27485,"lon":5.42454,"is_reserved":false,"is_disabled":false,"rental_uris":{"android":"levelo://app?vid=e7f46eb4-6b70-41c0-b2ec-d4f5352531c8","ios":"levelo://app?vid=e7f46eb4-6b70-41c0-b2ec-d4f5352531c8"},"vehicle_type_id":"4","last_reported":1731395302,"current_range_meters":34000,"station_id":"ce4bhn92rcd13ifvqgrg","pricing_plan_id":"cebpf4jnsgd1na2vs0mg"},{"bike_id":"f6067b48-de54-4214-be06-2a3ec909ff61","system_id":"levelo_inurba_marseille","lat":43.27619,"lon":5.36109,"is_reserved":false,"is_disabled":false,"rental_uris":{"android":"levelo://app?vid=f6067b48-de54-4214-be06-2a3ec909ff61","ios":"levelo://app?vid=f6067b48-de54-4214-be06-2a3ec909ff61"},"vehicle_type_id":"4","last_reported":1731395302,"current_range_meters":36800,"station_id":"ce4bgj92rcd13ifvqbe0","pricing_plan_id":"cebpf4jnsgd1na2vs0mg"},{"bike_id":"c2c0c158-e994-4346-894a-aa2c5884f6bb","system_id":"levelo_inurba_marseille","lat":43.25489,"lon":5.37652,"is_reserved":false,"is_disabled":false,"rental_uris":{"android":"levelo://app?vid=c2c0c158-e994-4346-894a-aa2c5884f6bb","ios":"levelo://app?vid=c2c0c158-e994-4346-894a-aa2c5884f6bb"},"vehicle_type_id":"4","last_reported":1731395302,"current_range_meters":37600,"station_id":"ce4bhh12rcd13ifvqff0","pricing_plan_id":"cebpf4jnsgd1na2vs0mg"},{"bike_id":"31f7560b-0f52-4d6b-ac39-46cf0a6c1468","system_id":"levelo_inurba_marseille","lat":43.24391,"lon":5.37056,"is_reserved":false,"is_disabled":false,"rental_uris":{"android":"levelo://app?vid=31f7560b-0f52-4d6b-ac39-46cf0a6c1468","ios":"levelo://app?vid=31f7560b-0f52-4d6b-ac39-46cf0a6c1468"},"vehicle_type_id":"4","last_reported":1731395302,"current_range_meters":39200,"station_id":"ce4bhhh2rcd13ifvqfk0","pricing_plan_id":"cebpf4jnsgd1na2vs0mg"},{"bike_id":"aa3ec2fd-0efd-439c-b6af-32c66c48e006","system_id":"levelo_inurba_marseille","lat":43.24069,"lon":5.37764,"is_reserved":false,"is_disabled":false,"rental_uris":{"android":"levelo://app?vid=aa3ec2fd-0efd-439c-b6af-32c66c48e006","ios":"levelo://app?vid=aa3ec2fd-0efd-439c-b6af-32c66c48e006"},"vehicle_type_id":"4","last_reported":1731395302,"current_range_meters":16400,"station_id":"ce4bhnp2rcd13ifvqgvg","pricing_plan_id":"cebpf4jnsgd1na2vs0mg"},{"bike_id":"dd2b8768-f22e-480b-8778-9d9e6cf2b8b7","system_id":"levelo_inurba_marseille","lat":43.27441,"lon":5.39398,"is_reserved":false,"is_disabled":false,"rental_uris":{"android":"levelo://app?vid=dd2b8768-f22e-480b-8778-9d9e6cf2b8b7","ios":"levelo://app?vid=dd2b8768-f22e-480b-8778-9d9e6cf2b8b7"},"vehicle_type_id":"4","last_reported":1731395302,"current_range_meters":31200,"station_id":"ce4bhdp2rcd13ifvqf20","pricing_plan_id":"cebpf4jnsgd1na2vs0mg"},{"bike_id":"eb101efd-ef01-4c68-9587-f7629a0e8c98","system_id":"levelo_inurba_marseille","lat":43.34138,"lon":5.40906,"is_reserved":false,"is_disabled":false,"rental_uris":{"android":"levelo://app?vid=eb101efd-ef01-4c68-9587-f7629a0e8c98","ios":"levelo://app?vid=eb101efd-ef01-4c68-9587-f7629a0e8c98"},"vehicle_type_id":"4","last_reported":1731395302,"current_range_meters":22800,"station_id":"ce4bhqh2rcd13ifvqhlg","pricing_plan_id":"cebpf4jnsgd1na2vs0mg"},{"bike_id":"49b84d54-e9a8-414b-8f96-35ff1ec47098","system_id":"levelo_inurba_marseille","lat":43.24127,"lon":5.37867,"is_reserved":false,"is_disabled":false,"rental_uris":{"android":"levelo://app?vid=49b84d54-e9a8-414b-8f96-35ff1ec47098","ios":"levelo://app?vid=49b84d54-e9a8-414b-8f96-35ff1ec47098"},"vehicle_type_id":"4","last_reported":1731395302,"current_range_meters":30800,"station_id":"ce4bhnp2rcd13ifvqgvg","pricing_plan_id":"cebpf4jnsgd1na2vs0mg"},{"bike_id":"f9bfc078-b000-42ee-bc19-bcfcb8d0d2a3","system_id":"levelo_inurba_marseille","lat":43.26948,"lon":5.38624,"is_reserved":false,"is_disabled":false,"rental_uris":{"android":"levelo://app?vid=f9bfc078-b000-42ee-bc19-bcfcb8d0d2a3","ios":"levelo://app?vid=f9bfc078-b000-42ee-bc19-bcfcb8d0d2a3"},"vehicle_type_id":"4","last_reported":1731395302,"current_range_meters":14400,"station_id":"ce4bhh92rcd13ifvqfh0","pricing_plan_id":"cebpf4jnsgd1na2vs0mg"},{"bike_id":"1bf780e3-e48e-4a63-8b2a-0b57343852dd","system_id":"levelo_inurba_marseille","lat":43.2749,"lon":5.42451,"is_reserved":false,"is_disabled":false,"rental_uris":{"android":"levelo://app?vid=1bf780e3-e48e-4a63-8b2a-0b57343852dd","ios":"levelo://app?vid=1bf780e3-e48e-4a63-8b2a-0b57343852dd"},"vehicle_type_id":"4","last_reported":1731395302,"current_range_meters":34000,"station_id":"ce4bhn92rcd13ifvqgrg","pricing_plan_id":"cebpf4jnsgd1na2vs0mg"},{"bike_id":"2662e6f1-fc87-412a-a3b1-fa8c2f0a1203","system_id":"levelo_inurba_marseille","lat":43.29795,"lon":5.38087,"is_reserved":false,"is_disabled":false,"rental_uris":{"android":"levelo://app?vid=2662e6f1-fc87-412a-a3b1-fa8c2f0a1203","ios":"levelo://app?vid=2662e6f1-fc87-412a-a3b1-fa8c2f0a1203"},"vehicle_type_id":"4","last_reported":1731395302,"current_range_meters":38800,"station_id":"ce4bgip2rcd13ifvqbb0","pricing_plan_id":"cebpf4jnsgd1na2vs0mg"},{"bike_id":"f5f7adb1-08a0-41e5-84f8-4eacbb87fa6f","system_id":"levelo_inurba_marseille","lat":43.23958,"lon":5.36638,"is_reserved":false,"is_disabled":false,"rental_uris":{"android":"levelo://app?vid=f5f7adb1-08a0-41e5-84f8-4eacbb87fa6f","ios":"levelo://app?vid=f5f7adb1-08a0-41e5-84f8-4eacbb87fa6f"},"vehicle_type_id":"4","last_reported":1731395302,"current_range_meters":36400,"station_id":"ce4bhi12rcd13ifvqfp0","pricing_plan_id":"cebpf4jnsgd1na2vs0mg"},{"bike_id":"cd3763b4-c6c9-439a-8c88-6b6d78464d6e","system_id":"levelo_inurba_marseille","lat":43.337444,"lon":5.374475,"is_reserved":false,"is_disabled":false,"rental_uris":{"android":"levelo://app?vid=cd3763b4-c6c9-439a-8c88-6b6d78464d6e","ios":"levelo://app?vid=cd3763b4-c6c9-439a-8c88-6b6d78464d6e"},"vehicle_type_id":"4","last_reported":1731395302,"current_range_meters":33200,"station_id":"","pricing_plan_id":"cebpf4jnsgd1na2vs0mg"},{"bike_id":"84282a68-65cf-4cd3-a25e-37dcba7562fc","system_id":"levelo_inurba_marseille","lat":43.33027,"lon":5.39044,"is_reserved":false,"is_disabled":false,"rental_uris":{"android":"levelo://app?vid=84282a68-65cf-4cd3-a25e-37dcba7562fc","ios":"levelo://app?vid=84282a68-65cf-4cd3-a25e-37dcba7562fc"},"vehicle_type_id":"4","last_reported":1731395302,"current_range_meters":38000,"station_id":"ce4bhr92rcd13ifvqhrg","pricing_plan_id":"cebpf4jnsgd1na2vs0mg"},{"bike_id":"278e7ea9-a4f9-400f-9029-ec10e70e6e2f","system_id":"levelo_inurba_marseille","lat":43.305981,"lon":5.393626,"is_reserved":false,"is_disabled":false,"rental_uris":{"android":"levelo://app?vid=278e7ea9-a4f9-400f-9029-ec10e70e6e2f","ios":"levelo://app?vid=278e7ea9-a4f9-400f-9029-ec10e70e6e2f"},"vehicle_type_id":"4","last_reported":1731395302,"current_range_meters":35200,"station_id":"ce4bh0p2rcd13ifvqd80","pricing_plan_id":"cebpf4jnsgd1na2vs0mg"},{"bike_id":"29fd9c8f-5a7f-4c1f-9c19-eea4917c0fc8","system_id":"levelo_inurba_marseille","lat":43.25495,"lon":5.37653,"is_reserved":false,"is_disabled":false,"rental_uris":{"android":"levelo://app?vid=29fd9c8f-5a7f-4c1f-9c19-eea4917c0fc8","ios":"levelo://app?vid=29fd9c8f-5a7f-4c1f-9c19-eea4917c0fc8"},"vehicle_type_id":"4","last_reported":1731395302,"current_range_meters":37600,"station_id":"ce4bhh12rcd13ifvqff0","pricing_plan_id":"cebpf4jnsgd1na2vs0mg"},{"bike_id":"a0137993-c6ee-4d28-92be-373809a39ec9","system_id":"levelo_inurba_marseille","lat":43.317134,"lon":5.389538,"is_reserved":false,"is_disabled":false,"rental_uris":{"android":"levelo://app?vid=a0137993-c6ee-4d28-92be-373809a39ec9","ios":"levelo://app?vid=a0137993-c6ee-4d28-92be-373809a39ec9"},"vehicle_type_id":"4","last_reported":1731395302,"current_range_meters":30400,"station_id":"ce4bhqp2rcd13ifvqhng","pricing_plan_id":"cebpf4jnsgd1na2vs0mg"},{"bike_id":"fe96562b-5601-498a-af19-9d68eb44f05f","system_id":"levelo_inurba_marseille","lat":43.331737,"lon":5.403043,"is_reserved":false,"is_disabled":false,"rental_uris":{"android":"levelo://app?vid=fe96562b-5601-498a-af19-9d68eb44f05f","ios":"levelo://app?vid=fe96562b-5601-498a-af19-9d68eb44f05f"},"vehicle_type_id":"4","last_reported":1731395302,"current_range_meters":38000,"station_id":"ce4bhq12rcd13ifvqhhg","pricing_plan_id":"cebpf4jnsgd1na2vs0mg"},{"bike_id":"51e4106b-ae7d-4ceb-b87d-0c30ad9b3b74","system_id":"levelo_inurba_marseille","lat":43.33613,"lon":5.41022,"is_reserved":false,"is_disabled":false,"rental_uris":{"android":"levelo://app?vid=51e4106b-ae7d-4ceb-b87d-0c30ad9b3b74","ios":"levelo://app?vid=51e4106b-ae7d-4ceb-b87d-0c30ad9b3b74"},"vehicle_type_id":"4","last_reported":1731395302,"current_range_meters":38400,"station_id":"ce4bhqh2rcd13ifvqhmg","pricing_plan_id":"cebpf4jnsgd1na2vs0mg"},{"bike_id":"34c4e5fd-d09b-481c-889a-20f2df0a03b0","system_id":"levelo_inurba_marseille","lat":43.28156,"lon":5.42642,"is_reserved":false,"is_disabled":false,"rental_uris":{"android":"levelo://app?vid=34c4e5fd-d09b-481c-889a-20f2df0a03b0","ios":"levelo://app?vid=34c4e5fd-d09b-481c-889a-20f2df0a03b0"},"vehicle_type_id":"4","last_reported":1731395302,"current_range_meters":38400,"station_id":"ce4bhnh2rcd13ifvqgug","pricing_plan_id":"cebpf4jnsgd1na2vs0mg"},{"bike_id":"8f726adc-3e2f-4aea-8995-73eca7925980","system_id":"levelo_inurba_marseille","lat":43.28473,"lon":5.38414,"is_reserved":false,"is_disabled":false,"rental_uris":{"android":"levelo://app?vid=8f726adc-3e2f-4aea-8995-73eca7925980","ios":"levelo://app?vid=8f726adc-3e2f-4aea-8995-73eca7925980"},"vehicle_type_id":"4","last_reported":1731395302,"current_range_meters":35600,"station_id":"ce4bh512rcd13ifvqe3g","pricing_plan_id":"cebpf4jnsgd1na2vs0mg"},{"bike_id":"0d65accf-821c-4de6-8394-38c17b73e2e4","system_id":"levelo_inurba_marseille","lat":43.28718,"lon":5.36077,"is_reserved":false,"is_disabled":false,"rental_uris":{"android":"levelo://app?vid=0d65accf-821c-4de6-8394-38c17b73e2e4","ios":"levelo://app?vid=0d65accf-821c-4de6-8394-38c17b73e2e4"},"vehicle_type_id":"4","last_reported":1731395302,"current_range_meters":38800,"station_id":"cki0cbj6b192h4jlfktg","pricing_plan_id":"cebpf4jnsgd1na2vs0mg"},{"bike_id":"179ef5db-524e-49c2-8579-82888fe5a674","system_id":"levelo_inurba_marseille","lat":43.31342,"lon":5.36717,"is_reserved":false,"is_disabled":false,"rental_uris":{"android":"levelo://app?vid=179ef5db-524e-49c2-8579-82888fe5a674","ios":"levelo://app?vid=179ef5db-524e-49c2-8579-82888fe5a674"},"vehicle_type_id":"4","last_reported":1731395302,"current_range_meters":38800,"station_id":"ce4bgr92rcd13ifvqc6g","pricing_plan_id":"cebpf4jnsgd1na2vs0mg"},{"bike_id":"8b9e4e50-0d25-44d1-a11c-181613e63edd","system_id":"levelo_inurba_marseille","lat":43.28667,"lon":5.36338,"is_reserved":false,"is_disabled":false,"rental_uris":{"android":"levelo://app?vid=8b9e4e50-0d25-44d1-a11c-181613e63edd","ios":"levelo://app?vid=8b9e4e50-0d25-44d1-a11c-181613e63edd"},"vehicle_type_id":"4","last_reported":1731395302,"current_range_meters":34000,"station_id":"ce4bhah2rcd13ifvqej0","pricing_plan_id":"cebpf4jnsgd1na2vs0mg"},{"bike_id":"0eb01529-a6df-45bd-98d4-bd8131cdac6b","system_id":"levelo_inurba_marseille","lat":43.28709,"lon":5.37922,"is_reserved":false,"is_disabled":false,"rental_uris":{"android":"levelo://app?vid=0eb01529-a6df-45bd-98d4-bd8131cdac6b","ios":"levelo://app?vid=0eb01529-a6df-45bd-98d4-bd8131cdac6b"},"vehicle_type_id":"4","last_reported":1731395302,"current_range_meters":32800,"station_id":"ce4bh9p2rcd13ifvqec0","pricing_plan_id":"cebpf4jnsgd1na2vs0mg"},{"bike_id":"5283520c-90ff-426b-b795-4352ec0ae0f8","system_id":"levelo_inurba_marseille","lat":43.2695,"lon":5.38638,"is_reserved":false,"is_disabled":false,"rental_uris":{"android":"levelo://app?vid=5283520c-90ff-426b-b795-4352ec0ae0f8","ios":"levelo://app?vid=5283520c-90ff-426b-b795-4352ec0ae0f8"},"vehicle_type_id":"4","last_reported":1731395302,"current_range_meters":28000,"station_id":"ce4bhh92rcd13ifvqfh0","pricing_plan_id":"cebpf4jnsgd1na2vs0mg"},{"bike_id":"b6649fd5-6529-4736-962c-37237ff042d4","system_id":"levelo_inurba_marseille","lat":43.265597,"lon":5.390088,"is_reserved":false,"is_disabled":false,"rental_uris":{"android":"levelo://app?vid=b6649fd5-6529-4736-962c-37237ff042d4","ios":"levelo://app?vid=b6649fd5-6529-4736-962c-37237ff042d4"},"vehicle_type_id":"4","last_reported":1731395302,"current_range_meters":37600,"station_id":"ce4bhe12rcd13ifvqf30","pricing_plan_id":"cebpf4jnsgd1na2vs0mg"},{"bike_id":"da80aef1-43c9-4721-ac16-822b71753b41","system_id":"levelo_inurba_marseille","lat":43.2871,"lon":5.3793,"is_reserved":false,"is_disabled":false,"rental_uris":{"android":"levelo://app?vid=da80aef1-43c9-4721-ac16-822b71753b41","ios":"levelo://app?vid=da80aef1-43c9-4721-ac16-822b71753b41"},"vehicle_type_id":"4","last_reported":1731395302,"current_range_meters":20000,"station_id":"ce4bh9p2rcd13ifvqec0","pricing_plan_id":"cebpf4jnsgd1na2vs0mg"},{"bike_id":"ff8842a4-e3f3-4491-ba9b-b992ad2ad8f1","system_id":"levelo_inurba_marseille","lat":43.28411,"lon":5.38472,"is_reserved":false,"is_disabled":false,"rental_uris":{"android":"levelo://app?vid=ff8842a4-e3f3-4491-ba9b-b992ad2ad8f1","ios":"levelo://app?vid=ff8842a4-e3f3-4491-ba9b-b992ad2ad8f1"},"vehicle_type_id":"4","last_reported":1731395302,"current_range_meters":38800,"station_id":"","pricing_plan_id":"cebpf4jnsgd1na2vs0mg"},{"bike_id":"ae9d7d73-4856-4945-b9e2-9334740dc47e","system_id":"levelo_inurba_marseille","lat":43.27678,"lon":5.38865,"is_reserved":false,"is_disabled":false,"rental_uris":{"android":"levelo://app?vid=ae9d7d73-4856-4945-b9e2-9334740dc47e","ios":"levelo://app?vid=ae9d7d73-4856-4945-b9e2-9334740dc47e"},"vehicle_type_id":"4","last_reported":1731395302,"current_range_meters":9600,"station_id":"ce4bhi12rcd13ifvqfo0","pricing_plan_id":"cebpf4jnsgd1na2vs0mg"},{"bike_id":"6be11af8-ae51-43fa-b143-e3077cde111f","system_id":"levelo_inurba_marseille","lat":43.26953,"lon":5.38641,"is_reserved":false,"is_disabled":false,"rental_uris":{"android":"levelo://app?vid=6be11af8-ae51-43fa-b143-e3077cde111f","ios":"levelo://app?vid=6be11af8-ae51-43fa-b143-e3077cde111f"},"vehicle_type_id":"4","last_reported":1731395302,"current_range_meters":38000,"station_id":"ce4bhh92rcd13ifvqfh0","pricing_plan_id":"cebpf4jnsgd1na2vs0mg"},{"bike_id":"9a3648ab-44be-4d59-8756-da9b964dc309","system_id":"levelo_inurba_marseille","lat":43.33601,"lon":5.41036,"is_reserved":false,"is_disabled":false,"rental_uris":{"android":"levelo://app?vid=9a3648ab-44be-4d59-8756-da9b964dc309","ios":"levelo://app?vid=9a3648ab-44be-4d59-8756-da9b964dc309"},"vehicle_type_id":"4","last_reported":1731395302,"current_range_meters":2000,"station_id":"ce4bhqh2rcd13ifvqhmg","pricing_plan_id":"cebpf4jnsgd1na2vs0mg"},{"bike_id":"1d75d4ce-da07-47a0-83ad-027ef32b7b53","system_id":"levelo_inurba_marseille","lat":43.274,"lon":5.38954,"is_reserved":false,"is_disabled":false,"rental_uris":{"android":"levelo://app?vid=1d75d4ce-da07-47a0-83ad-027ef32b7b53","ios":"levelo://app?vid=1d75d4ce-da07-47a0-83ad-027ef32b7b53"},"vehicle_type_id":"4","last_reported":1731395302,"current_range_meters":16400,"station_id":"","pricing_plan_id":"cebpf4jnsgd1na2vs0mg"},{"bike_id":"f0c9b4bc-e337-4df8-8981-986948a22253","system_id":"levelo_inurba_marseille","lat":43.30154,"lon":5.38078,"is_reserved":false,"is_disabled":false,"rental_uris":{"android":"levelo://app?vid=f0c9b4bc-e337-4df8-8981-986948a22253","ios":"levelo://app?vid=f0c9b4bc-e337-4df8-8981-986948a22253"},"vehicle_type_id":"4","last_reported":1731395302,"current_range_meters":38800,"station_id":"ce4bgjp2rcd13ifvqbh0","pricing_plan_id":"cebpf4jnsgd1na2vs0mg"},{"bike_id":"628c2bff-48af-4b2d-a4ec-b3a80ae39941","system_id":"levelo_inurba_marseille","lat":43.28934,"lon":5.39633,"is_reserved":false,"is_disabled":false,"rental_uris":{"android":"levelo://app?vid=628c2bff-48af-4b2d-a4ec-b3a80ae39941","ios":"levelo://app?vid=628c2bff-48af-4b2d-a4ec-b3a80ae39941"},"vehicle_type_id":"4","last_reported":1731395302,"current_range_meters":26800,"station_id":"ce4bh3h2rcd13ifvqdn0","pricing_plan_id":"cebpf4jnsgd1na2vs0mg"},{"bike_id":"0b006fb3-804d-41b0-9b56-41fc325ad39f","system_id":"levelo_inurba_marseille","lat":43.27488,"lon":5.42454,"is_reserved":false,"is_disabled":false,"rental_uris":{"android":"levelo://app?vid=0b006fb3-804d-41b0-9b56-41fc325ad39f","ios":"levelo://app?vid=0b006fb3-804d-41b0-9b56-41fc325ad39f"},"vehicle_type_id":"4","last_reported":1731395302,"current_range_meters":38800,"station_id":"ce4bhn92rcd13ifvqgrg","pricing_plan_id":"cebpf4jnsgd1na2vs0mg"},{"bike_id":"d881a04b-7487-46c8-bcc3-e9689650446f","system_id":"levelo_inurba_marseille","lat":43.26191,"lon":5.3745,"is_reserved":false,"is_disabled":false,"rental_uris":{"android":"levelo://app?vid=d881a04b-7487-46c8-bcc3-e9689650446f","ios":"levelo://app?vid=d881a04b-7487-46c8-bcc3-e9689650446f"},"vehicle_type_id":"4","last_reported":1731395302,"current_range_meters":38000,"station_id":"ce4bhgp2rcd13ifvqfc0","pricing_plan_id":"cebpf4jnsgd1na2vs0mg"},{"bike_id":"4be7edbe-5982-45b2-a3b1-2e4ca0a06526","system_id":"levelo_inurba_marseille","lat":43.24072,"lon":5.37754,"is_reserved":false,"is_disabled":false,"rental_uris":{"android":"levelo://app?vid=4be7edbe-5982-45b2-a3b1-2e4ca0a06526","ios":"levelo://app?vid=4be7edbe-5982-45b2-a3b1-2e4ca0a06526"},"vehicle_type_id":"4","last_reported":1731395302,"current_range_meters":38800,"station_id":"ce4bhnp2rcd13ifvqgvg","pricing_plan_id":"cebpf4jnsgd1na2vs0mg"},{"bike_id":"550f848b-ada4-405a-a9af-7b11afaa578c","system_id":"levelo_inurba_marseille","lat":43.25938,"lon":5.40896,"is_reserved":false,"is_disabled":false,"rental_uris":{"android":"levelo://app?vid=550f848b-ada4-405a-a9af-7b11afaa578c","ios":"levelo://app?vid=550f848b-ada4-405a-a9af-7b11afaa578c"},"vehicle_type_id":"4","last_reported":1731395302,"current_range_meters":38000,"station_id":"ce4bhm92rcd13ifvqglg","pricing_plan_id":"cebpf4jnsgd1na2vs0mg"},{"bike_id":"eff2a8f0-413b-43b2-921c-36a2287eaee4","system_id":"levelo_inurba_marseille","lat":43.27494,"lon":5.42451,"is_reserved":false,"is_disabled":false,"rental_uris":{"android":"levelo://app?vid=eff2a8f0-413b-43b2-921c-36a2287eaee4","ios":"levelo://app?vid=eff2a8f0-413b-43b2-921c-36a2287eaee4"},"vehicle_type_id":"4","last_reported":1731395302,"current_range_meters":33200,"station_id":"ce4bhn92rcd13ifvqgrg","pricing_plan_id":"cebpf4jnsgd1na2vs0mg"},{"bike_id":"e31bc078-c380-4a24-924f-bd3fcc0e84ec","system_id":"levelo_inurba_marseille","lat":43.24656,"lon":5.38894,"is_reserved":false,"is_disabled":false,"rental_uris":{"android":"levelo://app?vid=e31bc078-c380-4a24-924f-bd3fcc0e84ec","ios":"levelo://app?vid=e31bc078-c380-4a24-924f-bd3fcc0e84ec"},"vehicle_type_id":"4","last_reported":1731395302,"current_range_meters":38800,"station_id":"ce4bhg12rcd13ifvqf60","pricing_plan_id":"cebpf4jnsgd1na2vs0mg"},{"bike_id":"348da5c4-c4fe-4df0-98e3-b5f3b4a4d069","system_id":"levelo_inurba_marseille","lat":43.30464,"lon":5.37904,"is_reserved":false,"is_disabled":false,"rental_uris":{"android":"levelo://app?vid=348da5c4-c4fe-4df0-98e3-b5f3b4a4d069","ios":"levelo://app?vid=348da5c4-c4fe-4df0-98e3-b5f3b4a4d069"},"vehicle_type_id":"4","last_reported":1731395302,"current_range_meters":39200,"station_id":"ce4bgup2rcd13ifvqcn0","pricing_plan_id":"cebpf4jnsgd1na2vs0mg"},{"bike_id":"c2cda817-43f0-435f-bd1d-0ba8e14369aa","system_id":"levelo_inurba_marseille","lat":43.24075,"lon":5.37761,"is_reserved":false,"is_disabled":false,"rental_uris":{"android":"levelo://app?vid=c2cda817-43f0-435f-bd1d-0ba8e14369aa","ios":"levelo://app?vid=c2cda817-43f0-435f-bd1d-0ba8e14369aa"},"vehicle_type_id":"4","last_reported":1731395302,"current_range_meters":37600,"station_id":"ce4bhnp2rcd13ifvqgvg","pricing_plan_id":"cebpf4jnsgd1na2vs0mg"},{"bike_id":"94f367ae-5bb7-4a9f-b1f3-6eec286ba7ac","system_id":"levelo_inurba_marseille","lat":43.30427,"lon":5.38885,"is_reserved":false,"is_disabled":false,"rental_uris":{"android":"levelo://app?vid=94f367ae-5bb7-4a9f-b1f3-6eec286ba7ac","ios":"levelo://app?vid=94f367ae-5bb7-4a9f-b1f3-6eec286ba7ac"},"vehicle_type_id":"4","last_reported":1731395302,"current_range_meters":36000,"station_id":"ce4bgk12rcd13ifvqbi0","pricing_plan_id":"cebpf4jnsgd1na2vs0mg"},{"bike_id":"31617a15-5fd6-409f-aea0-42bc03b159b0","system_id":"levelo_inurba_marseille","lat":43.29796,"lon":5.38098,"is_reserved":false,"is_disabled":false,"rental_uris":{"android":"levelo://app?vid=31617a15-5fd6-409f-aea0-42bc03b159b0","ios":"levelo://app?vid=31617a15-5fd6-409f-aea0-42bc03b159b0"},"vehicle_type_id":"4","last_reported":1731395302,"current_range_meters":39200,"station_id":"ce4bgip2rcd13ifvqbb0","pricing_plan_id":"cebpf4jnsgd1na2vs0mg"},{"bike_id":"784616cb-3dcc-4a17-ae25-f5786a0d223a","system_id":"levelo_inurba_marseille","lat":43.337444,"lon":5.374475,"is_reserved":false,"is_disabled":false,"rental_uris":{"android":"levelo://app?vid=784616cb-3dcc-4a17-ae25-f5786a0d223a","ios":"levelo://app?vid=784616cb-3dcc-4a17-ae25-f5786a0d223a"},"vehicle_type_id":"4","last_reported":1731395302,"current_range_meters":33600,"station_id":"","pricing_plan_id":"cebpf4jnsgd1na2vs0mg"},{"bike_id":"c9e1ccaf-93e0-42a0-8847-25269c17c325","system_id":"levelo_inurba_marseille","lat":43.24375,"lon":5.37073,"is_reserved":false,"is_disabled":false,"rental_uris":{"android":"levelo://app?vid=c9e1ccaf-93e0-42a0-8847-25269c17c325","ios":"levelo://app?vid=c9e1ccaf-93e0-42a0-8847-25269c17c325"},"vehicle_type_id":"4","last_reported":1731395302,"current_range_meters":37600,"station_id":"ce4bhhh2rcd13ifvqfk0","pricing_plan_id":"cebpf4jnsgd1na2vs0mg"},{"bike_id":"bbfcbce8-7188-4bb5-8aac-7d52bbdbdcf7","system_id":"levelo_inurba_marseille","lat":43.26025,"lon":5.37555,"is_reserved":false,"is_disabled":false,"rental_uris":{"android":"levelo://app?vid=bbfcbce8-7188-4bb5-8aac-7d52bbdbdcf7","ios":"levelo://app?vid=bbfcbce8-7188-4bb5-8aac-7d52bbdbdcf7"},"vehicle_type_id":"4","last_reported":1731395302,"current_range_meters":25600,"station_id":"ce4bhgh2rcd13ifvqfa0","pricing_plan_id":"cebpf4jnsgd1na2vs0mg"},{"bike_id":"28ad856b-4358-4617-977a-22a4c39ba716","system_id":"levelo_inurba_marseille","lat":43.27056,"lon":5.40258,"is_reserved":false,"is_disabled":false,"rental_uris":{"android":"levelo://app?vid=28ad856b-4358-4617-977a-22a4c39ba716","ios":"levelo://app?vid=28ad856b-4358-4617-977a-22a4c39ba716"},"vehicle_type_id":"4","last_reported":1731395302,"current_range_meters":3600,"station_id":"ce4bhk92rcd13ifvqgc0","pricing_plan_id":"cebpf4jnsgd1na2vs0mg"},{"bike_id":"a981cddb-35b3-4b69-a3bf-cfde7e96370a","system_id":"levelo_inurba_marseille","lat":43.2315,"lon":5.43716,"is_reserved":false,"is_disabled":false,"rental_uris":{"android":"levelo://app?vid=a981cddb-35b3-4b69-a3bf-cfde7e96370a","ios":"levelo://app?vid=a981cddb-35b3-4b69-a3bf-cfde7e96370a"},"vehicle_type_id":"4","last_reported":1731395302,"current_range_meters":38800,"station_id":"ce4bhmp2rcd13ifvqgog","pricing_plan_id":"cebpf4jnsgd1na2vs0mg"},{"bike_id":"38494b26-732c-4693-af81-a3cf4c4e1902","system_id":"levelo_inurba_marseille","lat":43.31368,"lon":5.37446,"is_reserved":false,"is_disabled":false,"rental_uris":{"android":"levelo://app?vid=38494b26-732c-4693-af81-a3cf4c4e1902","ios":"levelo://app?vid=38494b26-732c-4693-af81-a3cf4c4e1902"},"vehicle_type_id":"4","last_reported":1731395302,"current_range_meters":10000,"station_id":"","pricing_plan_id":"cebpf4jnsgd1na2vs0mg"},{"bike_id":"716d8f78-2204-4bd3-9a85-4e22ddc7675f","system_id":"levelo_inurba_marseille","lat":43.28342,"lon":5.38112,"is_reserved":false,"is_disabled":false,"rental_uris":{"android":"levelo://app?vid=716d8f78-2204-4bd3-9a85-4e22ddc7675f","ios":"levelo://app?vid=716d8f78-2204-4bd3-9a85-4e22ddc7675f"},"vehicle_type_id":"4","last_reported":1731395302,"current_range_meters":16800,"station_id":"ce4bh412rcd13ifvqdr0","pricing_plan_id":"cebpf4jnsgd1na2vs0mg"},{"bike_id":"01fccc49-ac40-4cc9-90fc-950d9c6dd4ba","system_id":"levelo_inurba_marseille","lat":43.30593,"lon":5.39354,"is_reserved":false,"is_disabled":false,"rental_uris":{"android":"levelo://app?vid=01fccc49-ac40-4cc9-90fc-950d9c6dd4ba","ios":"levelo://app?vid=01fccc49-ac40-4cc9-90fc-950d9c6dd4ba"},"vehicle_type_id":"4","last_reported":1731395302,"current_range_meters":28000,"station_id":"ce4bh0p2rcd13ifvqd80","pricing_plan_id":"cebpf4jnsgd1na2vs0mg"},{"bike_id":"181fa628-fd06-4339-88f4-5d411c857699","system_id":"levelo_inurba_marseille","lat":43.27061,"lon":5.42276,"is_reserved":false,"is_disabled":false,"rental_uris":{"android":"levelo://app?vid=181fa628-fd06-4339-88f4-5d411c857699","ios":"levelo://app?vid=181fa628-fd06-4339-88f4-5d411c857699"},"vehicle_type_id":"4","last_reported":1731395302,"current_range_meters":32800,"station_id":"ce4bhk92rcd13ifvqgb0","pricing_plan_id":"cebpf4jnsgd1na2vs0mg"},{"bike_id":"c638b208-79a2-445a-9178-72d27ae91021","system_id":"levelo_inurba_marseille","lat":43.28718,"lon":5.37937,"is_reserved":false,"is_disabled":false,"rental_uris":{"android":"levelo://app?vid=c638b208-79a2-445a-9178-72d27ae91021","ios":"levelo://app?vid=c638b208-79a2-445a-9178-72d27ae91021"},"vehicle_type_id":"4","last_reported":1731395302,"current_range_meters":36800,"station_id":"ce4bh9p2rcd13ifvqec0","pricing_plan_id":"cebpf4jnsgd1na2vs0mg"},{"bike_id":"d702889e-f635-4a06-938b-afd06afcb9c2","system_id":"levelo_inurba_marseille","lat":43.30151,"lon":5.38094,"is_reserved":false,"is_disabled":false,"rental_uris":{"android":"levelo://app?vid=d702889e-f635-4a06-938b-afd06afcb9c2","ios":"levelo://app?vid=d702889e-f635-4a06-938b-afd06afcb9c2"},"vehicle_type_id":"4","last_reported":1731395302,"current_range_meters":29600,"station_id":"ce4bgjp2rcd13ifvqbh0","pricing_plan_id":"cebpf4jnsgd1na2vs0mg"},{"bike_id":"38befafa-005a-48da-b8a2-6e79b9913cfd","system_id":"levelo_inurba_marseille","lat":43.30436,"lon":5.42549,"is_reserved":false,"is_disabled":false,"rental_uris":{"android":"levelo://app?vid=38befafa-005a-48da-b8a2-6e79b9913cfd","ios":"levelo://app?vid=38befafa-005a-48da-b8a2-6e79b9913cfd"},"vehicle_type_id":"4","last_reported":1731395302,"current_range_meters":2800,"station_id":"","pricing_plan_id":"cebpf4jnsgd1na2vs0mg"},{"bike_id":"778b848a-a23a-490e-b72b-ceda90c7c984","system_id":"levelo_inurba_marseille","lat":43.30127,"lon":5.38053,"is_reserved":false,"is_disabled":false,"rental_uris":{"android":"levelo://app?vid=778b848a-a23a-490e-b72b-ceda90c7c984","ios":"levelo://app?vid=778b848a-a23a-490e-b72b-ceda90c7c984"},"vehicle_type_id":"4","last_reported":1731395302,"current_range_meters":36000,"station_id":"ce4bgjp2rcd13ifvqbh0","pricing_plan_id":"cebpf4jnsgd1na2vs0mg"},{"bike_id":"83153039-4ffb-492a-abad-f2e4379d5139","system_id":"levelo_inurba_marseille","lat":43.30175,"lon":5.39439,"is_reserved":false,"is_disabled":false,"rental_uris":{"android":"levelo://app?vid=83153039-4ffb-492a-abad-f2e4379d5139","ios":"levelo://app?vid=83153039-4ffb-492a-abad-f2e4379d5139"},"vehicle_type_id":"4","last_reported":1731395302,"current_range_meters":34000,"station_id":"","pricing_plan_id":"cebpf4jnsgd1na2vs0mg"},{"bike_id":"e0dd5ad8-53cf-4379-b894-58b137568b15","system_id":"levelo_inurba_marseille","lat":43.22923,"lon":5.353803,"is_reserved":false,"is_disabled":false,"rental_uris":{"android":"levelo://app?vid=e0dd5ad8-53cf-4379-b894-58b137568b15","ios":"levelo://app?vid=e0dd5ad8-53cf-4379-b894-58b137568b15"},"vehicle_type_id":"4","last_reported":1731395302,"current_range_meters":37600,"station_id":"cpo3532slgdg3j2ikp40","pricing_plan_id":"cebpf4jnsgd1na2vs0mg"},{"bike_id":"edafd6d9-999b-4b93-bf7b-e4e0395ffa96","system_id":"levelo_inurba_marseille","lat":43.3047,"lon":5.37909,"is_reserved":false,"is_disabled":false,"rental_uris":{"android":"levelo://app?vid=edafd6d9-999b-4b93-bf7b-e4e0395ffa96","ios":"levelo://app?vid=edafd6d9-999b-4b93-bf7b-e4e0395ffa96"},"vehicle_type_id":"4","last_reported":1731395302,"current_range_meters":36800,"station_id":"ce4bgup2rcd13ifvqcn0","pricing_plan_id":"cebpf4jnsgd1na2vs0mg"},{"bike_id":"0ff30c97-d032-4bd2-b806-0ba1b23f1458","system_id":"levelo_inurba_marseille","lat":43.29896,"lon":5.43662,"is_reserved":false,"is_disabled":false,"rental_uris":{"android":"levelo://app?vid=0ff30c97-d032-4bd2-b806-0ba1b23f1458","ios":"levelo://app?vid=0ff30c97-d032-4bd2-b806-0ba1b23f1458"},"vehicle_type_id":"4","last_reported":1731395302,"current_range_meters":38800,"station_id":"ce4bhpp2rcd13ifvqhfg","pricing_plan_id":"cebpf4jnsgd1na2vs0mg"},{"bike_id":"81bbffab-2294-4802-a46f-42950b37b5d6","system_id":"levelo_inurba_marseille","lat":43.239542,"lon":5.366286,"is_reserved":false,"is_disabled":false,"rental_uris":{"android":"levelo://app?vid=81bbffab-2294-4802-a46f-42950b37b5d6","ios":"levelo://app?vid=81bbffab-2294-4802-a46f-42950b37b5d6"},"vehicle_type_id":"4","last_reported":1731395302,"current_range_meters":38000,"station_id":"ce4bhi12rcd13ifvqfp0","pricing_plan_id":"cebpf4jnsgd1na2vs0mg"},{"bike_id":"b6459786-f7ad-4308-8fc7-9d430346d23e","system_id":"levelo_inurba_marseille","lat":43.28334,"lon":5.3812,"is_reserved":false,"is_disabled":false,"rental_uris":{"android":"levelo://app?vid=b6459786-f7ad-4308-8fc7-9d430346d23e","ios":"levelo://app?vid=b6459786-f7ad-4308-8fc7-9d430346d23e"},"vehicle_type_id":"4","last_reported":1731395302,"current_range_meters":38000,"station_id":"ce4bh412rcd13ifvqdr0","pricing_plan_id":"cebpf4jnsgd1na2vs0mg"},{"bike_id":"99812fb9-8728-4d46-a1fb-c4c76320fd59","system_id":"levelo_inurba_marseille","lat":43.26562,"lon":5.38999,"is_reserved":false,"is_disabled":false,"rental_uris":{"android":"levelo://app?vid=99812fb9-8728-4d46-a1fb-c4c76320fd59","ios":"levelo://app?vid=99812fb9-8728-4d46-a1fb-c4c76320fd59"},"vehicle_type_id":"4","last_reported":1731395302,"current_range_meters":38000,"station_id":"ce4bhe12rcd13ifvqf30","pricing_plan_id":"cebpf4jnsgd1na2vs0mg"},{"bike_id":"88a7325a-e421-4e7d-8495-b42a2ef41c7b","system_id":"levelo_inurba_marseille","lat":43.24807,"lon":5.37455,"is_reserved":false,"is_disabled":false,"rental_uris":{"android":"levelo://app?vid=88a7325a-e421-4e7d-8495-b42a2ef41c7b","ios":"levelo://app?vid=88a7325a-e421-4e7d-8495-b42a2ef41c7b"},"vehicle_type_id":"4","last_reported":1731395302,"current_range_meters":37600,"station_id":"ce4bhgh2rcd13ifvqfb0","pricing_plan_id":"cebpf4jnsgd1na2vs0mg"},{"bike_id":"4fb6716b-dde1-49b6-955d-58cef6c574ce","system_id":"levelo_inurba_marseille","lat":43.27206,"lon":5.39168,"is_reserved":false,"is_disabled":false,"rental_uris":{"android":"levelo://app?vid=4fb6716b-dde1-49b6-955d-58cef6c574ce","ios":"levelo://app?vid=4fb6716b-dde1-49b6-955d-58cef6c574ce"},"vehicle_type_id":"4","last_reported":1731395302,"current_range_meters":4800,"station_id":"ce4bhhp2rcd13ifvqfm0","pricing_plan_id":"cebpf4jnsgd1na2vs0mg"},{"bike_id":"1ad18059-6844-4c57-9e5f-d21e8c650453","system_id":"levelo_inurba_marseille","lat":43.29273,"lon":5.40127,"is_reserved":false,"is_disabled":false,"rental_uris":{"android":"levelo://app?vid=1ad18059-6844-4c57-9e5f-d21e8c650453","ios":"levelo://app?vid=1ad18059-6844-4c57-9e5f-d21e8c650453"},"vehicle_type_id":"4","last_reported":1731395302,"current_range_meters":33600,"station_id":"ce4bh312rcd13ifvqdk0","pricing_plan_id":"cebpf4jnsgd1na2vs0mg"},{"bike_id":"a0bfc5a0-e8d8-49ee-a67b-49ddf3cd60be","system_id":"levelo_inurba_marseille","lat":43.25488,"lon":5.37652,"is_reserved":false,"is_disabled":false,"rental_uris":{"android":"levelo://app?vid=a0bfc5a0-e8d8-49ee-a67b-49ddf3cd60be","ios":"levelo://app?vid=a0bfc5a0-e8d8-49ee-a67b-49ddf3cd60be"},"vehicle_type_id":"4","last_reported":1731395302,"current_range_meters":38000,"station_id":"ce4bhh12rcd13ifvqff0","pricing_plan_id":"cebpf4jnsgd1na2vs0mg"},{"bike_id":"fa3f1cf5-51a1-4a91-b6b2-5af14bf9c1ff","system_id":"levelo_inurba_marseille","lat":43.28705,"lon":5.37951,"is_reserved":false,"is_disabled":false,"rental_uris":{"android":"levelo://app?vid=fa3f1cf5-51a1-4a91-b6b2-5af14bf9c1ff","ios":"levelo://app?vid=fa3f1cf5-51a1-4a91-b6b2-5af14bf9c1ff"},"vehicle_type_id":"4","last_reported":1731395302,"current_range_meters":32400,"station_id":"ce4bh9p2rcd13ifvqec0","pricing_plan_id":"cebpf4jnsgd1na2vs0mg"},{"bike_id":"77a40fef-47f6-4b51-b992-52fc730c7742","system_id":"levelo_inurba_marseille","lat":43.27316,"lon":5.39071,"is_reserved":false,"is_disabled":false,"rental_uris":{"android":"levelo://app?vid=77a40fef-47f6-4b51-b992-52fc730c7742","ios":"levelo://app?vid=77a40fef-47f6-4b51-b992-52fc730c7742"},"vehicle_type_id":"4","last_reported":1731395302,"current_range_meters":12400,"station_id":"ce4bhgp2rcd13ifvqfe0","pricing_plan_id":"cebpf4jnsgd1na2vs0mg"},{"bike_id":"18ba5f95-b81e-426f-a76f-40b4e6d72ad0","system_id":"levelo_inurba_marseille","lat":43.30305,"lon":5.36897,"is_reserved":false,"is_disabled":false,"rental_uris":{"android":"levelo://app?vid=18ba5f95-b81e-426f-a76f-40b4e6d72ad0","ios":"levelo://app?vid=18ba5f95-b81e-426f-a76f-40b4e6d72ad0"},"vehicle_type_id":"4","last_reported":1731395302,"current_range_meters":38800,"station_id":"ce4bgqh2rcd13ifvqc5g","pricing_plan_id":"cebpf4jnsgd1na2vs0mg"},{"bike_id":"d7f32fab-c3ba-407c-af47-0703303ef5eb","system_id":"levelo_inurba_marseille","lat":43.29019,"lon":5.38123,"is_reserved":false,"is_disabled":false,"rental_uris":{"android":"levelo://app?vid=d7f32fab-c3ba-407c-af47-0703303ef5eb","ios":"levelo://app?vid=d7f32fab-c3ba-407c-af47-0703303ef5eb"},"vehicle_type_id":"4","last_reported":1731395302,"current_range_meters":38400,"station_id":"ce4bh4p2rcd13ifvqe1g","pricing_plan_id":"cebpf4jnsgd1na2vs0mg"},{"bike_id":"ca470591-2acf-4dcf-8a9b-56688197c9a2","system_id":"levelo_inurba_marseille","lat":43.286554,"lon":5.363546,"is_reserved":false,"is_disabled":false,"rental_uris":{"android":"levelo://app?vid=ca470591-2acf-4dcf-8a9b-56688197c9a2","ios":"levelo://app?vid=ca470591-2acf-4dcf-8a9b-56688197c9a2"},"vehicle_type_id":"4","last_reported":1731395302,"current_range_meters":32800,"station_id":"ce4bhah2rcd13ifvqej0","pricing_plan_id":"cebpf4jnsgd1na2vs0mg"},{"bike_id":"c82de6bc-afc0-4dff-a091-f29850463deb","system_id":"levelo_inurba_marseille","lat":43.33603,"lon":5.41031,"is_reserved":false,"is_disabled":false,"rental_uris":{"android":"levelo://app?vid=c82de6bc-afc0-4dff-a091-f29850463deb","ios":"levelo://app?vid=c82de6bc-afc0-4dff-a091-f29850463deb"},"vehicle_type_id":"4","last_reported":1731395302,"current_range_meters":38800,"station_id":"ce4bhqh2rcd13ifvqhmg","pricing_plan_id":"cebpf4jnsgd1na2vs0mg"},{"bike_id":"b7fee71f-fba8-498a-aa2a-878f5bb4c213","system_id":"levelo_inurba_marseille","lat":43.28346,"lon":5.38105,"is_reserved":false,"is_disabled":false,"rental_uris":{"android":"levelo://app?vid=b7fee71f-fba8-498a-aa2a-878f5bb4c213","ios":"levelo://app?vid=b7fee71f-fba8-498a-aa2a-878f5bb4c213"},"vehicle_type_id":"4","last_reported":1731395302,"current_range_meters":6000,"station_id":"ce4bh412rcd13ifvqdr0","pricing_plan_id":"cebpf4jnsgd1na2vs0mg"},{"bike_id":"d472da1a-8683-4ffb-b8a3-2b322fb20995","system_id":"levelo_inurba_marseille","lat":43.29782,"lon":5.38087,"is_reserved":false,"is_disabled":false,"rental_uris":{"android":"levelo://app?vid=d472da1a-8683-4ffb-b8a3-2b322fb20995","ios":"levelo://app?vid=d472da1a-8683-4ffb-b8a3-2b322fb20995"},"vehicle_type_id":"4","last_reported":1731395302,"current_range_meters":33200,"station_id":"ce4bgip2rcd13ifvqbb0","pricing_plan_id":"cebpf4jnsgd1na2vs0mg"},{"bike_id":"c0b66d42-f552-4fc2-b490-5c187b5420ba","system_id":"levelo_inurba_marseille","lat":43.29781,"lon":5.38108,"is_reserved":false,"is_disabled":false,"rental_uris":{"android":"levelo://app?vid=c0b66d42-f552-4fc2-b490-5c187b5420ba","ios":"levelo://app?vid=c0b66d42-f552-4fc2-b490-5c187b5420ba"},"vehicle_type_id":"4","last_reported":1731395302,"current_range_meters":31200,"station_id":"ce4bgip2rcd13ifvqbb0","pricing_plan_id":"cebpf4jnsgd1na2vs0mg"},{"bike_id":"97cea09e-a49b-4593-aeb0-ff6c14e24ca5","system_id":"levelo_inurba_marseille","lat":43.32539,"lon":5.41427,"is_reserved":false,"is_disabled":false,"rental_uris":{"android":"levelo://app?vid=97cea09e-a49b-4593-aeb0-ff6c14e24ca5","ios":"levelo://app?vid=97cea09e-a49b-4593-aeb0-ff6c14e24ca5"},"vehicle_type_id":"4","last_reported":1731395302,"current_range_meters":11600,"station_id":"ce4bhq12rcd13ifvqhhg","pricing_plan_id":"cebpf4jnsgd1na2vs0mg"},{"bike_id":"848dd94d-487f-40ec-95f1-6363bea20405","system_id":"levelo_inurba_marseille","lat":43.27494,"lon":5.4245,"is_reserved":false,"is_disabled":false,"rental_uris":{"android":"levelo://app?vid=848dd94d-487f-40ec-95f1-6363bea20405","ios":"levelo://app?vid=848dd94d-487f-40ec-95f1-6363bea20405"},"vehicle_type_id":"4","last_reported":1731395302,"current_range_meters":36000,"station_id":"ce4bhn92rcd13ifvqgrg","pricing_plan_id":"cebpf4jnsgd1na2vs0mg"},{"bike_id":"0389f6ba-9b11-4bae-aa59-6c887bee55e5","system_id":"levelo_inurba_marseille","lat":43.32191,"lon":5.38714,"is_reserved":false,"is_disabled":false,"rental_uris":{"android":"levelo://app?vid=0389f6ba-9b11-4bae-aa59-6c887bee55e5","ios":"levelo://app?vid=0389f6ba-9b11-4bae-aa59-6c887bee55e5"},"vehicle_type_id":"4","last_reported":1731395302,"current_range_meters":29600,"station_id":"","pricing_plan_id":"cebpf4jnsgd1na2vs0mg"},{"bike_id":"6baf5df3-589c-4b94-b369-c7f503b4c378","system_id":"levelo_inurba_marseille","lat":43.30602,"lon":5.3935,"is_reserved":false,"is_disabled":false,"rental_uris":{"android":"levelo://app?vid=6baf5df3-589c-4b94-b369-c7f503b4c378","ios":"levelo://app?vid=6baf5df3-589c-4b94-b369-c7f503b4c378"},"vehicle_type_id":"4","last_reported":1731395302,"current_range_meters":32800,"station_id":"ce4bh0p2rcd13ifvqd80","pricing_plan_id":"cebpf4jnsgd1na2vs0mg"},{"bike_id":"b77037c4-8ef0-4096-ab8c-93d073709f36","system_id":"levelo_inurba_marseille","lat":43.24295,"lon":5.37546,"is_reserved":false,"is_disabled":false,"rental_uris":{"android":"levelo://app?vid=b77037c4-8ef0-4096-ab8c-93d073709f36","ios":"levelo://app?vid=b77037c4-8ef0-4096-ab8c-93d073709f36"},"vehicle_type_id":"4","last_reported":1731395302,"current_range_meters":24800,"station_id":"ce4bhc92rcd13ifvqetg","pricing_plan_id":"cebpf4jnsgd1na2vs0mg"},{"bike_id":"64cc9b41-94ae-47a6-979d-b05d16574464","system_id":"levelo_inurba_marseille","lat":43.303598,"lon":5.406,"is_reserved":false,"is_disabled":false,"rental_uris":{"android":"levelo://app?vid=64cc9b41-94ae-47a6-979d-b05d16574464","ios":"levelo://app?vid=64cc9b41-94ae-47a6-979d-b05d16574464"},"vehicle_type_id":"4","last_reported":1731395302,"current_range_meters":31200,"station_id":"ce4bhah2rcd13ifvqej0","pricing_plan_id":"cebpf4jnsgd1na2vs0mg"},{"bike_id":"7c024971-b382-45c1-b709-f9734dbed119","system_id":"levelo_inurba_marseille","lat":43.27425,"lon":5.39443,"is_reserved":false,"is_disabled":false,"rental_uris":{"android":"levelo://app?vid=7c024971-b382-45c1-b709-f9734dbed119","ios":"levelo://app?vid=7c024971-b382-45c1-b709-f9734dbed119"},"vehicle_type_id":"4","last_reported":1731395302,"current_range_meters":30000,"station_id":"ce4bhdp2rcd13ifvqf20","pricing_plan_id":"cebpf4jnsgd1na2vs0mg"},{"bike_id":"be544e3b-b78d-4017-83a1-4a358746a8ba","system_id":"levelo_inurba_marseille","lat":43.28935,"lon":5.39635,"is_reserved":false,"is_disabled":false,"rental_uris":{"android":"levelo://app?vid=be544e3b-b78d-4017-83a1-4a358746a8ba","ios":"levelo://app?vid=be544e3b-b78d-4017-83a1-4a358746a8ba"},"vehicle_type_id":"4","last_reported":1731395302,"current_range_meters":36400,"station_id":"ce4bh3h2rcd13ifvqdn0","pricing_plan_id":"cebpf4jnsgd1na2vs0mg"},{"bike_id":"87560b99-eb6a-40f4-9edc-fe0557ad2c24","system_id":"levelo_inurba_marseille","lat":43.27532,"lon":5.42789,"is_reserved":false,"is_disabled":false,"rental_uris":{"android":"levelo://app?vid=87560b99-eb6a-40f4-9edc-fe0557ad2c24","ios":"levelo://app?vid=87560b99-eb6a-40f4-9edc-fe0557ad2c24"},"vehicle_type_id":"4","last_reported":1731395302,"current_range_meters":16400,"station_id":"ce4bgvh2rcd13ifvqcs0","pricing_plan_id":"cebpf4jnsgd1na2vs0mg"},{"bike_id":"47aea41a-bbe0-424b-9b57-bc3ae1f79104","system_id":"levelo_inurba_marseille","lat":43.28332,"lon":5.38096,"is_reserved":false,"is_disabled":false,"rental_uris":{"android":"levelo://app?vid=47aea41a-bbe0-424b-9b57-bc3ae1f79104","ios":"levelo://app?vid=47aea41a-bbe0-424b-9b57-bc3ae1f79104"},"vehicle_type_id":"4","last_reported":1731395302,"current_range_meters":22000,"station_id":"ce4bh412rcd13ifvqdr0","pricing_plan_id":"cebpf4jnsgd1na2vs0mg"},{"bike_id":"dea8e24b-36b5-4c6f-a7a1-18720dbf8f12","system_id":"levelo_inurba_marseille","lat":43.32482,"lon":5.36564,"is_reserved":false,"is_disabled":false,"rental_uris":{"android":"levelo://app?vid=dea8e24b-36b5-4c6f-a7a1-18720dbf8f12","ios":"levelo://app?vid=dea8e24b-36b5-4c6f-a7a1-18720dbf8f12"},"vehicle_type_id":"4","last_reported":1731395302,"current_range_meters":37600,"station_id":"ce4bhs12rcd13ifvqhvg","pricing_plan_id":"cebpf4jnsgd1na2vs0mg"},{"bike_id":"141c2232-cbe0-4185-ad79-d7c5f01972be","system_id":"levelo_inurba_marseille","lat":43.28662,"lon":5.36354,"is_reserved":false,"is_disabled":false,"rental_uris":{"android":"levelo://app?vid=141c2232-cbe0-4185-ad79-d7c5f01972be","ios":"levelo://app?vid=141c2232-cbe0-4185-ad79-d7c5f01972be"},"vehicle_type_id":"4","last_reported":1731395302,"current_range_meters":18800,"station_id":"ce4bhah2rcd13ifvqej0","pricing_plan_id":"cebpf4jnsgd1na2vs0mg"},{"bike_id":"7bfd8bf2-aa55-4a4b-9d3d-def8c0538cf4","system_id":"levelo_inurba_marseille","lat":43.31362,"lon":5.38492,"is_reserved":false,"is_disabled":false,"rental_uris":{"android":"levelo://app?vid=7bfd8bf2-aa55-4a4b-9d3d-def8c0538cf4","ios":"levelo://app?vid=7bfd8bf2-aa55-4a4b-9d3d-def8c0538cf4"},"vehicle_type_id":"4","last_reported":1731395302,"current_range_meters":38000,"station_id":"ce4bgt92rcd13ifvqcf0","pricing_plan_id":"cebpf4jnsgd1na2vs0mg"},{"bike_id":"dafe4936-9c27-4623-8f6a-a0bb387cec06","system_id":"levelo_inurba_marseille","lat":43.29013,"lon":5.39937,"is_reserved":false,"is_disabled":false,"rental_uris":{"android":"levelo://app?vid=dafe4936-9c27-4623-8f6a-a0bb387cec06","ios":"levelo://app?vid=dafe4936-9c27-4623-8f6a-a0bb387cec06"},"vehicle_type_id":"4","last_reported":1731395302,"current_range_meters":27200,"station_id":"ce4bh392rcd13ifvqdm0","pricing_plan_id":"cebpf4jnsgd1na2vs0mg"},{"bike_id":"931714ab-bb53-496c-9deb-68c8985e7eaa","system_id":"levelo_inurba_marseille","lat":43.30466,"lon":5.37907,"is_reserved":false,"is_disabled":false,"rental_uris":{"android":"levelo://app?vid=931714ab-bb53-496c-9deb-68c8985e7eaa","ios":"levelo://app?vid=931714ab-bb53-496c-9deb-68c8985e7eaa"},"vehicle_type_id":"4","last_reported":1731395302,"current_range_meters":27200,"station_id":"ce4bgup2rcd13ifvqcn0","pricing_plan_id":"cebpf4jnsgd1na2vs0mg"},{"bike_id":"d8f025f6-f115-4e04-8acf-021f2635584b","system_id":"levelo_inurba_marseille","lat":43.28345,"lon":5.38114,"is_reserved":false,"is_disabled":false,"rental_uris":{"android":"levelo://app?vid=d8f025f6-f115-4e04-8acf-021f2635584b","ios":"levelo://app?vid=d8f025f6-f115-4e04-8acf-021f2635584b"},"vehicle_type_id":"4","last_reported":1731395302,"current_range_meters":30800,"station_id":"ce4bh412rcd13ifvqdr0","pricing_plan_id":"cebpf4jnsgd1na2vs0mg"},{"bike_id":"49d10a1c-7a23-4581-a609-d4fb8d5d6235","system_id":"levelo_inurba_marseille","lat":43.306,"lon":5.39361,"is_reserved":false,"is_disabled":false,"rental_uris":{"android":"levelo://app?vid=49d10a1c-7a23-4581-a609-d4fb8d5d6235","ios":"levelo://app?vid=49d10a1c-7a23-4581-a609-d4fb8d5d6235"},"vehicle_type_id":"4","last_reported":1731395302,"current_range_meters":38400,"station_id":"ce4bh0p2rcd13ifvqd80","pricing_plan_id":"cebpf4jnsgd1na2vs0mg"},{"bike_id":"6954822c-e825-4ac9-a721-2f29f8eeb0e7","system_id":"levelo_inurba_marseille","lat":43.30141,"lon":5.3808,"is_reserved":false,"is_disabled":false,"rental_uris":{"android":"levelo://app?vid=6954822c-e825-4ac9-a721-2f29f8eeb0e7","ios":"levelo://app?vid=6954822c-e825-4ac9-a721-2f29f8eeb0e7"},"vehicle_type_id":"4","last_reported":1731395302,"current_range_meters":36000,"station_id":"ce4bgjp2rcd13ifvqbh0","pricing_plan_id":"cebpf4jnsgd1na2vs0mg"},{"bike_id":"afa6dada-4c38-4644-a551-0a67d8df2240","system_id":"levelo_inurba_marseille","lat":43.27924,"lon":5.39577,"is_reserved":false,"is_disabled":false,"rental_uris":{"android":"levelo://app?vid=afa6dada-4c38-4644-a551-0a67d8df2240","ios":"levelo://app?vid=afa6dada-4c38-4644-a551-0a67d8df2240"},"vehicle_type_id":"4","last_reported":1731395302,"current_range_meters":29600,"station_id":"ce4bhf92rcd13ifvqf40","pricing_plan_id":"cebpf4jnsgd1na2vs0mg"},{"bike_id":"15ad8b44-55c9-4572-a02b-d7c6605dd1a3","system_id":"levelo_inurba_marseille","lat":43.25831,"lon":5.39429,"is_reserved":false,"is_disabled":false,"rental_uris":{"android":"levelo://app?vid=15ad8b44-55c9-4572-a02b-d7c6605dd1a3","ios":"levelo://app?vid=15ad8b44-55c9-4572-a02b-d7c6605dd1a3"},"vehicle_type_id":"4","last_reported":1731395302,"current_range_meters":32400,"station_id":"ce4bhip2rcd13ifvqft0","pricing_plan_id":"cebpf4jnsgd1na2vs0mg"},{"bike_id":"d5c9ae3f-c4d3-4cd5-889d-48d0c0e7f119","system_id":"levelo_inurba_marseille","lat":43.3014,"lon":5.38098,"is_reserved":false,"is_disabled":false,"rental_uris":{"android":"levelo://app?vid=d5c9ae3f-c4d3-4cd5-889d-48d0c0e7f119","ios":"levelo://app?vid=d5c9ae3f-c4d3-4cd5-889d-48d0c0e7f119"},"vehicle_type_id":"4","last_reported":1731395302,"current_range_meters":18000,"station_id":"ce4bgjp2rcd13ifvqbh0","pricing_plan_id":"cebpf4jnsgd1na2vs0mg"},{"bike_id":"5c5fa89b-483e-4b7a-a265-a2b32538bf94","system_id":"levelo_inurba_marseille","lat":43.3108,"lon":5.42434,"is_reserved":false,"is_disabled":false,"rental_uris":{"android":"levelo://app?vid=5c5fa89b-483e-4b7a-a265-a2b32538bf94","ios":"levelo://app?vid=5c5fa89b-483e-4b7a-a265-a2b32538bf94"},"vehicle_type_id":"4","last_reported":1731395302,"current_range_meters":38800,"station_id":"ce4bhp92rcd13ifvqhag","pricing_plan_id":"cebpf4jnsgd1na2vs0mg"},{"bike_id":"ebd4f82c-11dc-4dc9-8fd9-d0a742def808","system_id":"levelo_inurba_marseille","lat":43.24073,"lon":5.3776,"is_reserved":false,"is_disabled":false,"rental_uris":{"android":"levelo://app?vid=ebd4f82c-11dc-4dc9-8fd9-d0a742def808","ios":"levelo://app?vid=ebd4f82c-11dc-4dc9-8fd9-d0a742def808"},"vehicle_type_id":"4","last_reported":1731395302,"current_range_meters":24800,"station_id":"ce4bhnp2rcd13ifvqgvg","pricing_plan_id":"cebpf4jnsgd1na2vs0mg"},{"bike_id":"3a380d17-df8f-4b0b-9249-c031a1e66b20","system_id":"levelo_inurba_marseille","lat":43.25572,"lon":5.38235,"is_reserved":false,"is_disabled":false,"rental_uris":{"android":"levelo://app?vid=3a380d17-df8f-4b0b-9249-c031a1e66b20","ios":"levelo://app?vid=3a380d17-df8f-4b0b-9249-c031a1e66b20"},"vehicle_type_id":"4","last_reported":1731395302,"current_range_meters":35200,"station_id":"ce4bhih2rcd13ifvqfs0","pricing_plan_id":"cebpf4jnsgd1na2vs0mg"},{"bike_id":"3248f9d0-f007-45e7-a87b-87ac6f6afea0","system_id":"levelo_inurba_marseille","lat":43.30459,"lon":5.37905,"is_reserved":false,"is_disabled":false,"rental_uris":{"android":"levelo://app?vid=3248f9d0-f007-45e7-a87b-87ac6f6afea0","ios":"levelo://app?vid=3248f9d0-f007-45e7-a87b-87ac6f6afea0"},"vehicle_type_id":"4","last_reported":1731395302,"current_range_meters":35200,"station_id":"ce4bgup2rcd13ifvqcn0","pricing_plan_id":"cebpf4jnsgd1na2vs0mg"},{"bike_id":"036f5223-a94e-4ad8-8170-3d8ab70f5edc","system_id":"levelo_inurba_marseille","lat":43.2848,"lon":5.38544,"is_reserved":false,"is_disabled":false,"rental_uris":{"android":"levelo://app?vid=036f5223-a94e-4ad8-8170-3d8ab70f5edc","ios":"levelo://app?vid=036f5223-a94e-4ad8-8170-3d8ab70f5edc"},"vehicle_type_id":"4","last_reported":1731395302,"current_range_meters":30000,"station_id":"ce4bh8p2rcd13ifvqeb0","pricing_plan_id":"cebpf4jnsgd1na2vs0mg"},{"bike_id":"ab6a8b2e-1d37-4a8a-acab-d5ef823cba97","system_id":"levelo_inurba_marseille","lat":43.27442,"lon":5.39405,"is_reserved":false,"is_disabled":false,"rental_uris":{"android":"levelo://app?vid=ab6a8b2e-1d37-4a8a-acab-d5ef823cba97","ios":"levelo://app?vid=ab6a8b2e-1d37-4a8a-acab-d5ef823cba97"},"vehicle_type_id":"4","last_reported":1731395302,"current_range_meters":34000,"station_id":"ce4bhdp2rcd13ifvqf20","pricing_plan_id":"cebpf4jnsgd1na2vs0mg"},{"bike_id":"9f059631-bd7a-4a9c-a2a8-30a408586de8","system_id":"levelo_inurba_marseille","lat":43.29597,"lon":5.37726,"is_reserved":false,"is_disabled":false,"rental_uris":{"android":"levelo://app?vid=9f059631-bd7a-4a9c-a2a8-30a408586de8","ios":"levelo://app?vid=9f059631-bd7a-4a9c-a2a8-30a408586de8"},"vehicle_type_id":"4","last_reported":1731395302,"current_range_meters":38800,"station_id":"ce4bgi92rcd13ifvqb90","pricing_plan_id":"cebpf4jnsgd1na2vs0mg"},{"bike_id":"dae78a48-3da0-45bb-bd43-1861b1847e12","system_id":"levelo_inurba_marseille","lat":43.28345,"lon":5.38109,"is_reserved":false,"is_disabled":false,"rental_uris":{"android":"levelo://app?vid=dae78a48-3da0-45bb-bd43-1861b1847e12","ios":"levelo://app?vid=dae78a48-3da0-45bb-bd43-1861b1847e12"},"vehicle_type_id":"4","last_reported":1731395302,"current_range_meters":38000,"station_id":"ce4bh412rcd13ifvqdr0","pricing_plan_id":"cebpf4jnsgd1na2vs0mg"},{"bike_id":"4e0c47a2-aa3b-44e1-b0e3-d7699847db8b","system_id":"levelo_inurba_marseille","lat":43.27998,"lon":5.41661,"is_reserved":false,"is_disabled":false,"rental_uris":{"android":"levelo://app?vid=4e0c47a2-aa3b-44e1-b0e3-d7699847db8b","ios":"levelo://app?vid=4e0c47a2-aa3b-44e1-b0e3-d7699847db8b"},"vehicle_type_id":"4","last_reported":1731395302,"current_range_meters":28800,"station_id":"ce4bho12rcd13ifvqh1g","pricing_plan_id":"cebpf4jnsgd1na2vs0mg"},{"bike_id":"307f472c-576c-4d90-a06d-9ae8a20dafea","system_id":"levelo_inurba_marseille","lat":43.31347,"lon":5.36697,"is_reserved":false,"is_disabled":false,"rental_uris":{"android":"levelo://app?vid=307f472c-576c-4d90-a06d-9ae8a20dafea","ios":"levelo://app?vid=307f472c-576c-4d90-a06d-9ae8a20dafea"},"vehicle_type_id":"4","last_reported":1731395302,"current_range_meters":36400,"station_id":"ce4bgr92rcd13ifvqc6g","pricing_plan_id":"cebpf4jnsgd1na2vs0mg"},{"bike_id":"159fe02b-bab5-43ac-b27d-27fb04fc8c42","system_id":"levelo_inurba_marseille","lat":43.29712,"lon":5.36606,"is_reserved":false,"is_disabled":false,"rental_uris":{"android":"levelo://app?vid=159fe02b-bab5-43ac-b27d-27fb04fc8c42","ios":"levelo://app?vid=159fe02b-bab5-43ac-b27d-27fb04fc8c42"},"vehicle_type_id":"4","last_reported":1731395302,"current_range_meters":33600,"station_id":"ce4bgn12rcd13ifvqbt0","pricing_plan_id":"cebpf4jnsgd1na2vs0mg"},{"bike_id":"da4ee9a2-7d5a-4a76-9358-e8bc42011f15","system_id":"levelo_inurba_marseille","lat":43.33609,"lon":5.41017,"is_reserved":false,"is_disabled":false,"rental_uris":{"android":"levelo://app?vid=da4ee9a2-7d5a-4a76-9358-e8bc42011f15","ios":"levelo://app?vid=da4ee9a2-7d5a-4a76-9358-e8bc42011f15"},"vehicle_type_id":"4","last_reported":1731395302,"current_range_meters":38800,"station_id":"ce4bhqh2rcd13ifvqhmg","pricing_plan_id":"cebpf4jnsgd1na2vs0mg"},{"bike_id":"b2f3adca-b446-441d-a1ab-5903c30fd432","system_id":"levelo_inurba_marseille","lat":43.33772,"lon":5.37447,"is_reserved":false,"is_disabled":false,"rental_uris":{"android":"levelo://app?vid=b2f3adca-b446-441d-a1ab-5903c30fd432","ios":"levelo://app?vid=b2f3adca-b446-441d-a1ab-5903c30fd432"},"vehicle_type_id":"4","last_reported":1731395302,"current_range_meters":7200,"station_id":"","pricing_plan_id":"cebpf4jnsgd1na2vs0mg"},{"bike_id":"a3b5a7ba-a868-4847-b36d-9076e0ebe48d","system_id":"levelo_inurba_marseille","lat":43.29262,"lon":5.4013,"is_reserved":false,"is_disabled":false,"rental_uris":{"android":"levelo://app?vid=a3b5a7ba-a868-4847-b36d-9076e0ebe48d","ios":"levelo://app?vid=a3b5a7ba-a868-4847-b36d-9076e0ebe48d"},"vehicle_type_id":"4","last_reported":1731395302,"current_range_meters":20800,"station_id":"ce4bh312rcd13ifvqdk0","pricing_plan_id":"cebpf4jnsgd1na2vs0mg"},{"bike_id":"ca5db060-c02c-4c9c-85b8-fa89c45fc361","system_id":"levelo_inurba_marseille","lat":43.28152,"lon":5.42643,"is_reserved":false,"is_disabled":false,"rental_uris":{"android":"levelo://app?vid=ca5db060-c02c-4c9c-85b8-fa89c45fc361","ios":"levelo://app?vid=ca5db060-c02c-4c9c-85b8-fa89c45fc361"},"vehicle_type_id":"4","last_reported":1731395302,"current_range_meters":38800,"station_id":"ce4bhnh2rcd13ifvqgug","pricing_plan_id":"cebpf4jnsgd1na2vs0mg"},{"bike_id":"1cb296ca-e768-4ff4-9ba6-d9720f6d8c12","system_id":"levelo_inurba_marseille","lat":43.24082,"lon":5.37747,"is_reserved":false,"is_disabled":false,"rental_uris":{"android":"levelo://app?vid=1cb296ca-e768-4ff4-9ba6-d9720f6d8c12","ios":"levelo://app?vid=1cb296ca-e768-4ff4-9ba6-d9720f6d8c12"},"vehicle_type_id":"4","last_reported":1731395302,"current_range_meters":35200,"station_id":"ce4bhnp2rcd13ifvqgvg","pricing_plan_id":"cebpf4jnsgd1na2vs0mg"},{"bike_id":"3c8d9402-5602-453f-a44f-c2080c1431b8","system_id":"levelo_inurba_marseille","lat":43.27494,"lon":5.42447,"is_reserved":false,"is_disabled":false,"rental_uris":{"android":"levelo://app?vid=3c8d9402-5602-453f-a44f-c2080c1431b8","ios":"levelo://app?vid=3c8d9402-5602-453f-a44f-c2080c1431b8"},"vehicle_type_id":"4","last_reported":1731395302,"current_range_meters":38800,"station_id":"ce4bhn92rcd13ifvqgrg","pricing_plan_id":"cebpf4jnsgd1na2vs0mg"},{"bike_id":"07e8b9a8-95fb-4c1a-9d0f-998c4e89e5a9","system_id":"levelo_inurba_marseille","lat":43.30306,"lon":5.36916,"is_reserved":false,"is_disabled":false,"rental_uris":{"android":"levelo://app?vid=07e8b9a8-95fb-4c1a-9d0f-998c4e89e5a9","ios":"levelo://app?vid=07e8b9a8-95fb-4c1a-9d0f-998c4e89e5a9"},"vehicle_type_id":"4","last_reported":1731395302,"current_range_meters":35200,"station_id":"ce4bgqh2rcd13ifvqc5g","pricing_plan_id":"cebpf4jnsgd1na2vs0mg"},{"bike_id":"e8c085d8-09e1-431a-bbb8-5e4873879e38","system_id":"levelo_inurba_marseille","lat":43.274902,"lon":5.424564,"is_reserved":false,"is_disabled":false,"rental_uris":{"android":"levelo://app?vid=e8c085d8-09e1-431a-bbb8-5e4873879e38","ios":"levelo://app?vid=e8c085d8-09e1-431a-bbb8-5e4873879e38"},"vehicle_type_id":"4","last_reported":1731395302,"current_range_meters":30000,"station_id":"ce4bhn92rcd13ifvqgrg","pricing_plan_id":"cebpf4jnsgd1na2vs0mg"},{"bike_id":"49377339-d23f-4c98-ace2-764b666b50da","system_id":"levelo_inurba_marseille","lat":43.28362,"lon":5.38099,"is_reserved":false,"is_disabled":false,"rental_uris":{"android":"levelo://app?vid=49377339-d23f-4c98-ace2-764b666b50da","ios":"levelo://app?vid=49377339-d23f-4c98-ace2-764b666b50da"},"vehicle_type_id":"4","last_reported":1731395302,"current_range_meters":19600,"station_id":"ce4bh412rcd13ifvqdr0","pricing_plan_id":"cebpf4jnsgd1na2vs0mg"},{"bike_id":"abf7607e-f9dc-4663-83a2-506ca1c5839d","system_id":"levelo_inurba_marseille","lat":43.30465,"lon":5.37915,"is_reserved":false,"is_disabled":false,"rental_uris":{"android":"levelo://app?vid=abf7607e-f9dc-4663-83a2-506ca1c5839d","ios":"levelo://app?vid=abf7607e-f9dc-4663-83a2-506ca1c5839d"},"vehicle_type_id":"4","last_reported":1731395302,"current_range_meters":38800,"station_id":"ce4bgup2rcd13ifvqcn0","pricing_plan_id":"cebpf4jnsgd1na2vs0mg"},{"bike_id":"9d59599d-1ddc-4584-9619-36b075aff25d","system_id":"levelo_inurba_marseille","lat":43.2408,"lon":5.37756,"is_reserved":false,"is_disabled":false,"rental_uris":{"android":"levelo://app?vid=9d59599d-1ddc-4584-9619-36b075aff25d","ios":"levelo://app?vid=9d59599d-1ddc-4584-9619-36b075aff25d"},"vehicle_type_id":"4","last_reported":1731395302,"current_range_meters":36800,"station_id":"ce4bhnp2rcd13ifvqgvg","pricing_plan_id":"cebpf4jnsgd1na2vs0mg"},{"bike_id":"b72ca6e7-47e9-42be-9a97-b74e22acdc0e","system_id":"levelo_inurba_marseille","lat":43.32102,"lon":5.36777,"is_reserved":false,"is_disabled":false,"rental_uris":{"android":"levelo://app?vid=b72ca6e7-47e9-42be-9a97-b74e22acdc0e","ios":"levelo://app?vid=b72ca6e7-47e9-42be-9a97-b74e22acdc0e"},"vehicle_type_id":"4","last_reported":1731395302,"current_range_meters":26000,"station_id":"ce4bhrh2rcd13ifvqhug","pricing_plan_id":"cebpf4jnsgd1na2vs0mg"},{"bike_id":"0e8b328d-d250-4022-b102-700ab6c44fe0","system_id":"levelo_inurba_marseille","lat":43.28036,"lon":5.36947,"is_reserved":false,"is_disabled":false,"rental_uris":{"android":"levelo://app?vid=0e8b328d-d250-4022-b102-700ab6c44fe0","ios":"levelo://app?vid=0e8b328d-d250-4022-b102-700ab6c44fe0"},"vehicle_type_id":"4","last_reported":1731395302,"current_range_meters":36400,"station_id":"ce4bha12rcd13ifvqef0","pricing_plan_id":"cebpf4jnsgd1na2vs0mg"},{"bike_id":"5b46ce18-e7d5-4e30-8def-85cfb1b5102d","system_id":"levelo_inurba_marseille","lat":43.23149,"lon":5.43722,"is_reserved":false,"is_disabled":false,"rental_uris":{"android":"levelo://app?vid=5b46ce18-e7d5-4e30-8def-85cfb1b5102d","ios":"levelo://app?vid=5b46ce18-e7d5-4e30-8def-85cfb1b5102d"},"vehicle_type_id":"4","last_reported":1731395302,"current_range_meters":38800,"station_id":"ce4bhmp2rcd13ifvqgog","pricing_plan_id":"cebpf4jnsgd1na2vs0mg"},{"bike_id":"dad0856d-cf38-41ce-9c69-fc14f6a6fe3c","system_id":"levelo_inurba_marseille","lat":43.30543,"lon":5.36553,"is_reserved":false,"is_disabled":false,"rental_uris":{"android":"levelo://app?vid=dad0856d-cf38-41ce-9c69-fc14f6a6fe3c","ios":"levelo://app?vid=dad0856d-cf38-41ce-9c69-fc14f6a6fe3c"},"vehicle_type_id":"4","last_reported":1731395302,"current_range_meters":35200,"station_id":"ce4bgs12rcd13ifvqcag","pricing_plan_id":"cebpf4jnsgd1na2vs0mg"},{"bike_id":"d200f736-33ff-4949-a4fa-9c168ba1cf59","system_id":"levelo_inurba_marseille","lat":43.28412,"lon":5.34991,"is_reserved":false,"is_disabled":false,"rental_uris":{"android":"levelo://app?vid=d200f736-33ff-4949-a4fa-9c168ba1cf59","ios":"levelo://app?vid=d200f736-33ff-4949-a4fa-9c168ba1cf59"},"vehicle_type_id":"4","last_reported":1731395302,"current_range_meters":36800,"station_id":"ce4bhbh2rcd13ifvqepg","pricing_plan_id":"cebpf4jnsgd1na2vs0mg"},{"bike_id":"0b527259-95e9-40eb-9682-d12e542c1c63","system_id":"levelo_inurba_marseille","lat":43.31265,"lon":5.40174,"is_reserved":false,"is_disabled":false,"rental_uris":{"android":"levelo://app?vid=0b527259-95e9-40eb-9682-d12e542c1c63","ios":"levelo://app?vid=0b527259-95e9-40eb-9682-d12e542c1c63"},"vehicle_type_id":"4","last_reported":1731395302,"current_range_meters":9200,"station_id":"ce4bh092rcd13ifvqd30","pricing_plan_id":"cebpf4jnsgd1na2vs0mg"},{"bike_id":"2d005aeb-bdbb-45c7-bfa4-90e3b0706d00","system_id":"levelo_inurba_marseille","lat":43.28342,"lon":5.38106,"is_reserved":false,"is_disabled":false,"rental_uris":{"android":"levelo://app?vid=2d005aeb-bdbb-45c7-bfa4-90e3b0706d00","ios":"levelo://app?vid=2d005aeb-bdbb-45c7-bfa4-90e3b0706d00"},"vehicle_type_id":"4","last_reported":1731395302,"current_range_meters":28800,"station_id":"ce4bh412rcd13ifvqdr0","pricing_plan_id":"cebpf4jnsgd1na2vs0mg"},{"bike_id":"472a58d4-53a2-4cd2-ba8f-e97b6e3d63d1","system_id":"levelo_inurba_marseille","lat":43.29565,"lon":5.39976,"is_reserved":false,"is_disabled":false,"rental_uris":{"android":"levelo://app?vid=472a58d4-53a2-4cd2-ba8f-e97b6e3d63d1","ios":"levelo://app?vid=472a58d4-53a2-4cd2-ba8f-e97b6e3d63d1"},"vehicle_type_id":"4","last_reported":1731395302,"current_range_meters":15200,"station_id":"ce4bh312rcd13ifvqdj0","pricing_plan_id":"cebpf4jnsgd1na2vs0mg"},{"bike_id":"0828155a-0414-43d7-8cd8-ac8c3b8ed352","system_id":"levelo_inurba_marseille","lat":43.24081,"lon":5.37751,"is_reserved":false,"is_disabled":false,"rental_uris":{"android":"levelo://app?vid=0828155a-0414-43d7-8cd8-ac8c3b8ed352","ios":"levelo://app?vid=0828155a-0414-43d7-8cd8-ac8c3b8ed352"},"vehicle_type_id":"4","last_reported":1731395302,"current_range_meters":36400,"station_id":"ce4bhnp2rcd13ifvqgvg","pricing_plan_id":"cebpf4jnsgd1na2vs0mg"},{"bike_id":"a782ee39-8025-47c5-bca9-236a6b29b898","system_id":"levelo_inurba_marseille","lat":43.3127,"lon":5.40173,"is_reserved":false,"is_disabled":false,"rental_uris":{"android":"levelo://app?vid=a782ee39-8025-47c5-bca9-236a6b29b898","ios":"levelo://app?vid=a782ee39-8025-47c5-bca9-236a6b29b898"},"vehicle_type_id":"4","last_reported":1731395302,"current_range_meters":29600,"station_id":"ce4bh092rcd13ifvqd30","pricing_plan_id":"cebpf4jnsgd1na2vs0mg"},{"bike_id":"2c507cd7-54ef-475c-8faa-961482f8a251","system_id":"levelo_inurba_marseille","lat":43.29561,"lon":5.4229,"is_reserved":false,"is_disabled":false,"rental_uris":{"android":"levelo://app?vid=2c507cd7-54ef-475c-8faa-961482f8a251","ios":"levelo://app?vid=2c507cd7-54ef-475c-8faa-961482f8a251"},"vehicle_type_id":"4","last_reported":1731395302,"current_range_meters":24000,"station_id":"ce4bhph2rcd13ifvqhdg","pricing_plan_id":"cebpf4jnsgd1na2vs0mg"},{"bike_id":"3ee03585-6871-46ae-8e29-826fc8ed046b","system_id":"levelo_inurba_marseille","lat":43.3111,"lon":5.37757,"is_reserved":false,"is_disabled":false,"rental_uris":{"android":"levelo://app?vid=3ee03585-6871-46ae-8e29-826fc8ed046b","ios":"levelo://app?vid=3ee03585-6871-46ae-8e29-826fc8ed046b"},"vehicle_type_id":"4","last_reported":1731395302,"current_range_meters":38800,"station_id":"ce4bgn92rcd13ifvqbvg","pricing_plan_id":"cebpf4jnsgd1na2vs0mg"},{"bike_id":"bbf9823c-0b18-4994-a232-2b7ce0a92a74","system_id":"levelo_inurba_marseille","lat":43.32477,"lon":5.36561,"is_reserved":false,"is_disabled":false,"rental_uris":{"android":"levelo://app?vid=bbf9823c-0b18-4994-a232-2b7ce0a92a74","ios":"levelo://app?vid=bbf9823c-0b18-4994-a232-2b7ce0a92a74"},"vehicle_type_id":"4","last_reported":1731395302,"current_range_meters":27600,"station_id":"ce4bhs12rcd13ifvqhvg","pricing_plan_id":"cebpf4jnsgd1na2vs0mg"},{"bike_id":"0fc89414-443f-4ed0-9e84-53b95f15d2ff","system_id":"levelo_inurba_marseille","lat":43.27996,"lon":5.4,"is_reserved":false,"is_disabled":false,"rental_uris":{"android":"levelo://app?vid=0fc89414-443f-4ed0-9e84-53b95f15d2ff","ios":"levelo://app?vid=0fc89414-443f-4ed0-9e84-53b95f15d2ff"},"vehicle_type_id":"4","last_reported":1731395302,"current_range_meters":37600,"station_id":"ce4bho92rcd13ifvqh4g","pricing_plan_id":"cebpf4jnsgd1na2vs0mg"},{"bike_id":"232d56ba-d48b-4792-891e-74b530a9640f","system_id":"levelo_inurba_marseille","lat":43.30219,"lon":5.39473,"is_reserved":false,"is_disabled":false,"rental_uris":{"android":"levelo://app?vid=232d56ba-d48b-4792-891e-74b530a9640f","ios":"levelo://app?vid=232d56ba-d48b-4792-891e-74b530a9640f"},"vehicle_type_id":"4","last_reported":1731395302,"current_range_meters":38400,"station_id":"ce4bh0p2rcd13ifvqd70","pricing_plan_id":"cebpf4jnsgd1na2vs0mg"},{"bike_id":"56336af0-3345-4d21-acc8-14daad65336a","system_id":"levelo_inurba_marseille","lat":43.281524,"lon":5.426465,"is_reserved":false,"is_disabled":false,"rental_uris":{"android":"levelo://app?vid=56336af0-3345-4d21-acc8-14daad65336a","ios":"levelo://app?vid=56336af0-3345-4d21-acc8-14daad65336a"},"vehicle_type_id":"4","last_reported":1731395302,"current_range_meters":38000,"station_id":"ce4bhnh2rcd13ifvqgug","pricing_plan_id":"cebpf4jnsgd1na2vs0mg"},{"bike_id":"c02a192e-5825-44fe-a0c9-fd04411f4ff2","system_id":"levelo_inurba_marseille","lat":43.25006,"lon":5.38918,"is_reserved":false,"is_disabled":false,"rental_uris":{"android":"levelo://app?vid=c02a192e-5825-44fe-a0c9-fd04411f4ff2","ios":"levelo://app?vid=c02a192e-5825-44fe-a0c9-fd04411f4ff2"},"vehicle_type_id":"4","last_reported":1731395302,"current_range_meters":20800,"station_id":"ce4bhgp2rcd13ifvqfd0","pricing_plan_id":"cebpf4jnsgd1na2vs0mg"},{"bike_id":"8564a029-0f18-40bc-864c-912d4bb23313","system_id":"levelo_inurba_marseille","lat":43.244325,"lon":5.378855,"is_reserved":false,"is_disabled":false,"rental_uris":{"android":"levelo://app?vid=8564a029-0f18-40bc-864c-912d4bb23313","ios":"levelo://app?vid=8564a029-0f18-40bc-864c-912d4bb23313"},"vehicle_type_id":"4","last_reported":1731395302,"current_range_meters":36400,"station_id":"","pricing_plan_id":"cebpf4jnsgd1na2vs0mg"},{"bike_id":"7d660311-8950-4e46-b2b3-b2efab189c0c","system_id":"levelo_inurba_marseille","lat":43.30465,"lon":5.37913,"is_reserved":false,"is_disabled":false,"rental_uris":{"android":"levelo://app?vid=7d660311-8950-4e46-b2b3-b2efab189c0c","ios":"levelo://app?vid=7d660311-8950-4e46-b2b3-b2efab189c0c"},"vehicle_type_id":"4","last_reported":1731395302,"current_range_meters":39200,"station_id":"ce4bgup2rcd13ifvqcn0","pricing_plan_id":"cebpf4jnsgd1na2vs0mg"},{"bike_id":"feb86f62-2c80-4064-8e38-33c5534046da","system_id":"levelo_inurba_marseille","lat":43.28187,"lon":5.39884,"is_reserved":false,"is_disabled":false,"rental_uris":{"android":"levelo://app?vid=feb86f62-2c80-4064-8e38-33c5534046da","ios":"levelo://app?vid=feb86f62-2c80-4064-8e38-33c5534046da"},"vehicle_type_id":"4","last_reported":1731395302,"current_range_meters":12000,"station_id":"","pricing_plan_id":"cebpf4jnsgd1na2vs0mg"},{"bike_id":"c755ce56-b797-4db4-b77f-66af599d7c95","system_id":"levelo_inurba_marseille","lat":43.2407,"lon":5.3776,"is_reserved":false,"is_disabled":false,"rental_uris":{"android":"levelo://app?vid=c755ce56-b797-4db4-b77f-66af599d7c95","ios":"levelo://app?vid=c755ce56-b797-4db4-b77f-66af599d7c95"},"vehicle_type_id":"4","last_reported":1731395302,"current_range_meters":14400,"station_id":"ce4bhnp2rcd13ifvqgvg","pricing_plan_id":"cebpf4jnsgd1na2vs0mg"},{"bike_id":"4ab6243d-537b-41d6-b4eb-30056754e752","system_id":"levelo_inurba_marseille","lat":43.23193,"lon":5.3555,"is_reserved":false,"is_disabled":false,"rental_uris":{"android":"levelo://app?vid=4ab6243d-537b-41d6-b4eb-30056754e752","ios":"levelo://app?vid=4ab6243d-537b-41d6-b4eb-30056754e752"},"vehicle_type_id":"4","last_reported":1731395302,"current_range_meters":38000,"station_id":"ce4bhu92rcd13ifvqi70","pricing_plan_id":"cebpf4jnsgd1na2vs0mg"},{"bike_id":"d3377a1e-52db-45c8-af35-1e82c98e5fba","system_id":"levelo_inurba_marseille","lat":43.24067,"lon":5.37767,"is_reserved":false,"is_disabled":false,"rental_uris":{"android":"levelo://app?vid=d3377a1e-52db-45c8-af35-1e82c98e5fba","ios":"levelo://app?vid=d3377a1e-52db-45c8-af35-1e82c98e5fba"},"vehicle_type_id":"4","last_reported":1731395302,"current_range_meters":34000,"station_id":"ce4bhnp2rcd13ifvqgvg","pricing_plan_id":"cebpf4jnsgd1na2vs0mg"},{"bike_id":"1a7bfdf9-9209-4b32-bcef-a58a740a9396","system_id":"levelo_inurba_marseille","lat":43.30136,"lon":5.38089,"is_reserved":false,"is_disabled":false,"rental_uris":{"android":"levelo://app?vid=1a7bfdf9-9209-4b32-bcef-a58a740a9396","ios":"levelo://app?vid=1a7bfdf9-9209-4b32-bcef-a58a740a9396"},"vehicle_type_id":"4","last_reported":1731395302,"current_range_meters":27600,"station_id":"ce4bgjp2rcd13ifvqbh0","pricing_plan_id":"cebpf4jnsgd1na2vs0mg"},{"bike_id":"24dd6264-6610-466c-8f31-025e0915af00","system_id":"levelo_inurba_marseille","lat":43.28342,"lon":5.38112,"is_reserved":false,"is_disabled":false,"rental_uris":{"android":"levelo://app?vid=24dd6264-6610-466c-8f31-025e0915af00","ios":"levelo://app?vid=24dd6264-6610-466c-8f31-025e0915af00"},"vehicle_type_id":"4","last_reported":1731395302,"current_range_meters":24400,"station_id":"ce4bh412rcd13ifvqdr0","pricing_plan_id":"cebpf4jnsgd1na2vs0mg"},{"bike_id":"c81086fa-5249-4b6f-8bc9-955296cd767b","system_id":"levelo_inurba_marseille","lat":43.28339,"lon":5.38111,"is_reserved":false,"is_disabled":false,"rental_uris":{"android":"levelo://app?vid=c81086fa-5249-4b6f-8bc9-955296cd767b","ios":"levelo://app?vid=c81086fa-5249-4b6f-8bc9-955296cd767b"},"vehicle_type_id":"4","last_reported":1731395302,"current_range_meters":15200,"station_id":"ce4bh412rcd13ifvqdr0","pricing_plan_id":"cebpf4jnsgd1na2vs0mg"},{"bike_id":"1048326d-15a3-47bb-b1ed-5e1e84213221","system_id":"levelo_inurba_marseille","lat":43.23153,"lon":5.43719,"is_reserved":false,"is_disabled":false,"rental_uris":{"android":"levelo://app?vid=1048326d-15a3-47bb-b1ed-5e1e84213221","ios":"levelo://app?vid=1048326d-15a3-47bb-b1ed-5e1e84213221"},"vehicle_type_id":"4","last_reported":1731395302,"current_range_meters":20000,"station_id":"ce4bhmp2rcd13ifvqgog","pricing_plan_id":"cebpf4jnsgd1na2vs0mg"},{"bike_id":"9adc6d71-e14e-4f44-8449-04052269af02","system_id":"levelo_inurba_marseille","lat":43.29254,"lon":5.4016,"is_reserved":false,"is_disabled":false,"rental_uris":{"android":"levelo://app?vid=9adc6d71-e14e-4f44-8449-04052269af02","ios":"levelo://app?vid=9adc6d71-e14e-4f44-8449-04052269af02"},"vehicle_type_id":"4","last_reported":1731395302,"current_range_meters":28000,"station_id":"ce4bh312rcd13ifvqdk0","pricing_plan_id":"cebpf4jnsgd1na2vs0mg"},{"bike_id":"e49dcc20-9b23-48be-a861-7e1f900c51c8","system_id":"levelo_inurba_marseille","lat":43.30588,"lon":5.39357,"is_reserved":false,"is_disabled":false,"rental_uris":{"android":"levelo://app?vid=e49dcc20-9b23-48be-a861-7e1f900c51c8","ios":"levelo://app?vid=e49dcc20-9b23-48be-a861-7e1f900c51c8"},"vehicle_type_id":"4","last_reported":1731395302,"current_range_meters":32000,"station_id":"ce4bh0p2rcd13ifvqd80","pricing_plan_id":"cebpf4jnsgd1na2vs0mg"},{"bike_id":"5cb3547d-5919-49c8-9621-92bb6be20901","system_id":"levelo_inurba_marseille","lat":43.27374,"lon":5.3626,"is_reserved":false,"is_disabled":false,"rental_uris":{"android":"levelo://app?vid=5cb3547d-5919-49c8-9621-92bb6be20901","ios":"levelo://app?vid=5cb3547d-5919-49c8-9621-92bb6be20901"},"vehicle_type_id":"4","last_reported":1731395302,"current_range_meters":39200,"station_id":"ce4bhbh2rcd13ifvqeo0","pricing_plan_id":"cebpf4jnsgd1na2vs0mg"},{"bike_id":"d4ccd00e-4893-4f6a-8c53-378b4aab8a93","system_id":"levelo_inurba_marseille","lat":43.29265,"lon":5.40137,"is_reserved":false,"is_disabled":false,"rental_uris":{"android":"levelo://app?vid=d4ccd00e-4893-4f6a-8c53-378b4aab8a93","ios":"levelo://app?vid=d4ccd00e-4893-4f6a-8c53-378b4aab8a93"},"vehicle_type_id":"4","last_reported":1731395302,"current_range_meters":38800,"station_id":"ce4bh312rcd13ifvqdk0","pricing_plan_id":"cebpf4jnsgd1na2vs0mg"},{"bike_id":"9fc4ae71-fb45-4cb9-b04d-6391ce3281bb","system_id":"levelo_inurba_marseille","lat":43.28941,"lon":5.39632,"is_reserved":false,"is_disabled":false,"rental_uris":{"android":"levelo://app?vid=9fc4ae71-fb45-4cb9-b04d-6391ce3281bb","ios":"levelo://app?vid=9fc4ae71-fb45-4cb9-b04d-6391ce3281bb"},"vehicle_type_id":"4","last_reported":1731395302,"current_range_meters":38400,"station_id":"ce4bh3h2rcd13ifvqdn0","pricing_plan_id":"cebpf4jnsgd1na2vs0mg"},{"bike_id":"f303ae1b-2ca2-4508-96f1-394c97712783","system_id":"levelo_inurba_marseille","lat":43.24075,"lon":5.37755,"is_reserved":false,"is_disabled":false,"rental_uris":{"android":"levelo://app?vid=f303ae1b-2ca2-4508-96f1-394c97712783","ios":"levelo://app?vid=f303ae1b-2ca2-4508-96f1-394c97712783"},"vehicle_type_id":"4","last_reported":1731395302,"current_range_meters":36400,"station_id":"ce4bhnp2rcd13ifvqgvg","pricing_plan_id":"cebpf4jnsgd1na2vs0mg"},{"bike_id":"817d203e-0903-4f85-b55d-9a964ba9eac6","system_id":"levelo_inurba_marseille","lat":43.24387,"lon":5.37054,"is_reserved":false,"is_disabled":false,"rental_uris":{"android":"levelo://app?vid=817d203e-0903-4f85-b55d-9a964ba9eac6","ios":"levelo://app?vid=817d203e-0903-4f85-b55d-9a964ba9eac6"},"vehicle_type_id":"4","last_reported":1731395302,"current_range_meters":38400,"station_id":"ce4bhhh2rcd13ifvqfk0","pricing_plan_id":"cebpf4jnsgd1na2vs0mg"},{"bike_id":"2ece88f5-36e3-4ade-be42-6166164f7857","system_id":"levelo_inurba_marseille","lat":43.314898,"lon":5.373134,"is_reserved":false,"is_disabled":false,"rental_uris":{"android":"levelo://app?vid=2ece88f5-36e3-4ade-be42-6166164f7857","ios":"levelo://app?vid=2ece88f5-36e3-4ade-be42-6166164f7857"},"vehicle_type_id":"4","last_reported":1731395302,"current_range_meters":16000,"station_id":"ce4bgt12rcd13ifvqcd0","pricing_plan_id":"cebpf4jnsgd1na2vs0mg"},{"bike_id":"70bd8fea-75ba-4384-a152-f4fb88e9ef69","system_id":"levelo_inurba_marseille","lat":43.24081,"lon":5.37765,"is_reserved":false,"is_disabled":false,"rental_uris":{"android":"levelo://app?vid=70bd8fea-75ba-4384-a152-f4fb88e9ef69","ios":"levelo://app?vid=70bd8fea-75ba-4384-a152-f4fb88e9ef69"},"vehicle_type_id":"4","last_reported":1731395302,"current_range_meters":25600,"station_id":"ce4bhnp2rcd13ifvqgvg","pricing_plan_id":"cebpf4jnsgd1na2vs0mg"},{"bike_id":"1407339b-5c23-447a-a4b6-84d5e81e95ba","system_id":"levelo_inurba_marseille","lat":43.27496,"lon":5.42458,"is_reserved":false,"is_disabled":false,"rental_uris":{"android":"levelo://app?vid=1407339b-5c23-447a-a4b6-84d5e81e95ba","ios":"levelo://app?vid=1407339b-5c23-447a-a4b6-84d5e81e95ba"},"vehicle_type_id":"4","last_reported":1731395302,"current_range_meters":33200,"station_id":"ce4bhn92rcd13ifvqgrg","pricing_plan_id":"cebpf4jnsgd1na2vs0mg"},{"bike_id":"b16943e1-6e4b-4767-8789-7da828786277","system_id":"levelo_inurba_marseille","lat":43.341757,"lon":5.386153,"is_reserved":false,"is_disabled":false,"rental_uris":{"android":"levelo://app?vid=b16943e1-6e4b-4767-8789-7da828786277","ios":"levelo://app?vid=b16943e1-6e4b-4767-8789-7da828786277"},"vehicle_type_id":"4","last_reported":1731395302,"current_range_meters":9200,"station_id":"","pricing_plan_id":"cebpf4jnsgd1na2vs0mg"},{"bike_id":"490e9f96-59c8-44f0-a43a-acb947a010f2","system_id":"levelo_inurba_marseille","lat":43.283407,"lon":5.381155,"is_reserved":false,"is_disabled":false,"rental_uris":{"android":"levelo://app?vid=490e9f96-59c8-44f0-a43a-acb947a010f2","ios":"levelo://app?vid=490e9f96-59c8-44f0-a43a-acb947a010f2"},"vehicle_type_id":"4","last_reported":1731395302,"current_range_meters":38800,"station_id":"ce4bh412rcd13ifvqdr0","pricing_plan_id":"cebpf4jnsgd1na2vs0mg"},{"bike_id":"5c9fd4f3-a229-4997-9d0b-28bc98c6ef84","system_id":"levelo_inurba_marseille","lat":43.28472,"lon":5.38577,"is_reserved":false,"is_disabled":false,"rental_uris":{"android":"levelo://app?vid=5c9fd4f3-a229-4997-9d0b-28bc98c6ef84","ios":"levelo://app?vid=5c9fd4f3-a229-4997-9d0b-28bc98c6ef84"},"vehicle_type_id":"4","last_reported":1731395302,"current_range_meters":30800,"station_id":"ce4bh8p2rcd13ifvqeb0","pricing_plan_id":"cebpf4jnsgd1na2vs0mg"},{"bike_id":"a9ffe976-500f-4a19-abf9-8c56e5b76f9a","system_id":"levelo_inurba_marseille","lat":43.29718,"lon":5.37692,"is_reserved":false,"is_disabled":false,"rental_uris":{"android":"levelo://app?vid=a9ffe976-500f-4a19-abf9-8c56e5b76f9a","ios":"levelo://app?vid=a9ffe976-500f-4a19-abf9-8c56e5b76f9a"},"vehicle_type_id":"4","last_reported":1731395302,"current_range_meters":35600,"station_id":"ce4bgkh2rcd13ifvqbl0","pricing_plan_id":"cebpf4jnsgd1na2vs0mg"},{"bike_id":"80a34046-ee1d-4a2d-b135-3760b3f5ba25","system_id":"levelo_inurba_marseille","lat":43.240775,"lon":5.377419,"is_reserved":false,"is_disabled":false,"rental_uris":{"android":"levelo://app?vid=80a34046-ee1d-4a2d-b135-3760b3f5ba25","ios":"levelo://app?vid=80a34046-ee1d-4a2d-b135-3760b3f5ba25"},"vehicle_type_id":"4","last_reported":1731395302,"current_range_meters":39200,"station_id":"ce4bhnp2rcd13ifvqgvg","pricing_plan_id":"cebpf4jnsgd1na2vs0mg"},{"bike_id":"c40be0d2-4a53-40a6-8416-c4499a9d23ec","system_id":"levelo_inurba_marseille","lat":43.27959,"lon":5.4105,"is_reserved":false,"is_disabled":false,"rental_uris":{"android":"levelo://app?vid=c40be0d2-4a53-40a6-8416-c4499a9d23ec","ios":"levelo://app?vid=c40be0d2-4a53-40a6-8416-c4499a9d23ec"},"vehicle_type_id":"4","last_reported":1731395302,"current_range_meters":6000,"station_id":"ce4bhnp2rcd13ifvqh0g","pricing_plan_id":"cebpf4jnsgd1na2vs0mg"},