{"last_updated":1750623069,"ttl":60,"version":"2.2","data":{"bikes":[{"bike_id":"3da29fb8-fc97-44c6-b9ac-31dd456b2fd4","system_id":"levelo_inurba_marseille","lat":43.33771,"lon":5.37424,"is_reserved":false,"is_disabled":true,"rental_uris":{"android":"levelo://app?vid=3da29fb8-fc97-44c6-b9ac-31dd456b2fd4","ios":"levelo://app?vid=3da29fb8-fc97-44c6-b9ac-31dd456b2fd4"},"vehicle_type_id":"4","last_reported":1750623069,"current_range_meters":0,"station_id":"","pricing_plan_id":"cebpf4jnsgd1na2vs0mg"},{"bike_id":"01861ad8-a8d7-4be6-816e-651927c87584","system_id":"levelo_inurba_marseille","lat":43.33751,"lon":5.37456,"is_reserved":false,"is_disabled":true,"rental_uris":{"android":"levelo://app?vid=01861ad8-a8d7-4be6-816e-651927c87584","ios":"levelo://app?vid=01861ad8-a8d7-4be6-816e-651927c87584"},"vehicle_type_id":"4","last_reported":1750623069,"current_range_meters":0,"station_id":"","pricing_plan_id":"cebpf4jnsgd1na2vs0mg"},{"bike_id":"8aac1d05-8d34-4cb9-9043-c80980ff219d","system_id":"levelo_inurba_marseille","lat":43.25225,"lon":5.4188,"is_reserved":false,"is_disabled":true,"rental_uris":{"android":"levelo://app?vid=8aac1d05-8d34-4cb9-9043-c80980ff219d","ios":"levelo://app?vid=8aac1d05-8d34-4cb9-9043-c80980ff219d"},"vehicle_type_id":"4","last_reported":1750623069,"current_range_meters":0,"station_id":"","pricing_plan_id":"cebpf4jnsgd1na2vs0mg"},{"bike_id":"f0a1d594-9817-42ab-a8d6-aea4947e8858","system_id":"levelo_inurba_marseille","lat":43.2883,"lon":5.43409,"is_reserved":false,"is_disabled":true,"rental_uris":{"android":"levelo://app?vid=f0a1d594-9817-42ab-a8d6-aea4947e8858","ios":"levelo://app?vid=f0a1d594-9817-42ab-a8d6-aea4947e8858"},"vehicle_type_id":"4","last_reported":1750623069,"current_range_meters":0,"station_id":"","pricing_plan_id":"cebpf4jnsgd1na2vs0mg"},{"bike_id":"a9d9cd09-97bc-41a1-a7d2-9efd26a899fd","system_id":"levelo_inurba_marseille","lat":43.321516,"lon":5.374279,"is_reserved":false,"is_disabled":true,"rental_uris":{"android":"levelo://app?vid=a9d9cd09-97bc-41a1-a7d2-9efd26a899fd","ios":"levelo://app?vid=a9d9cd09-97bc-41a1-a7d2-9efd26a899fd"},"vehicle_type_id":"4","last_reported":1750623069,"current_range_meters":0,"station_id":"","pricing_plan_id":"cebpf4jnsgd1na2vs0mg"},{"bike_id":"62a493c7-4534-4419-ad43-0582de34a72a","system_id":"levelo_inurba_marseille","lat":43.21366,"lon":5.355183,"is_reserved":false,"is_disabled":true,"rental_uris":{"android":"levelo://app?vid=62a493c7-4534-4419-ad43-0582de34a72a","ios":"levelo://app?vid=62a493c7-4534-4419-ad43-0582de34a72a"},"vehicle_type_id":"4","last_reported":1750623069,"current_range_meters":0,"station_id":"","pricing_plan_id":"cebpf4jnsgd1na2vs0mg"},{"bike_id":"78cadf9c-78ea-4730-9a8b-b1f24c25cc9e","system_id":"levelo_inurba_marseille","lat":43.29978,"lon":5.40193,"is_reserved":false,"is_disabled":true,"rental_uris":{"android":"levelo://app?vid=78cadf9c-78ea-4730-9a8b-b1f24c25cc9e","ios":"levelo://app?vid=78cadf9c-78ea-4730-9a8b-b1f24c25cc9e"},"vehicle_type_id":"4","last_reported":1750623069,"current_range_meters":0,"station_id":"","pricing_plan_id":"cebpf4jnsgd1na2vs0mg"},{"bike_id":"ffa6bd9a-2058-4b26-a35e-7647d43580d8","system_id":"levelo_inurba_marseille","lat":43.26439,"lon":5.37326,"is_reserved":false,"is_disabled":true,"rental_uris":{"android":"levelo://app?vid=ffa6bd9a-2058-4b26-a35e-7647d43580d8","ios":"levelo://app?vid=ffa6bd9a-2058-4b26-a35e-7647d43580d8"},"vehicle_type_id":"4","last_reported":1750623069,"current_range_meters":0,"station_id":"","pricing_plan_id":"cebpf4jnsgd1na2vs0mg"},{"bike_id":"3a3a1818-f20a-442b-bfcf-0e0a18008f43","system_id":"levelo_inurba_marseille","lat":43.26607,"lon":5.37469,"is_reserved":false,"is_disabled":true,"rental_uris":{"android":"levelo://app?vid=3a3a1818-f20a-442b-bfcf-0e0a18008f43","ios":"levelo://app?vid=3a3a1818-f20a-442b-bfcf-0e0a18008f43"},"vehicle_type_id":"4","last_reported":1750623069,"current_range_meters":0,"station_id":"","pricing_plan_id":"cebpf4jnsgd1na2vs0mg"},{"bike_id":"88393bee-2e8a-437d-b0b1-4aa69b0186dc","system_id":"levelo_inurba_marseille","lat":43.24767,"lon":5.40167,"is_reserved":false,"is_disabled":true,"rental_uris":{"android":"levelo://app?vid=88393bee-2e8a-437d-b0b1-4aa69b0186dc","ios":"levelo://app?vid=88393bee-2e8a-437d-b0b1-4aa69b0186dc"},"vehicle_type_id":"4","last_reported":1750623069,"current_range_meters":0,"station_id":"","pricing_plan_id":"cebpf4jnsgd1na2vs0mg"},{"bike_id":"d6609b4f-333b-43c1-9ebe-8726f5e76e88","system_id":"levelo_inurba_marseille","lat":43.337444,"lon":5.374475,"is_reserved":false,"is_disabled":true,"rental_uris":{"android":"levelo://app?vid=d6609b4f-333b-43c1-9ebe-8726f5e76e88","ios":"levelo://app?vid=d6609b4f-333b-43c1-9ebe-8726f5e76e88"},"vehicle_type_id":"4","last_reported":1750623069,"current_range_meters":0,"station_id":"","pricing_plan_id":"cebpf4jnsgd1na2vs0mg"},{"bike_id":"e8b2899a-4211-4f31-b803-6ec5b4d26202","system_id":"levelo_inurba_marseille","lat":43.275759,"lon":5.396996,"is_reserved":false,"is_disabled":true,"rental_uris":{"android":"levelo://app?vid=e8b2899a-4211-4f31-b803-6ec5b4d26202","ios":"levelo://app?vid=e8b2899a-4211-4f31-b803-6ec5b4d26202"},"vehicle_type_id":"4","last_reported":1750623069,"current_range_meters":0,"station_id":"","pricing_plan_id":"cebpf4jnsgd1na2vs0mg"},{"bike_id":"0c86cdad-b64a-47bf-ba91-5b398064181c","system_id":"levelo_inurba_marseille","lat":43.38478,"lon":5.35858,"is_reserved":false,"is_disabled":true,"rental_uris":{"android":"levelo://app?vid=0c86cdad-b64a-47bf-ba91-5b398064181c","ios":"levelo://app?vid=0c86cdad-b64a-47bf-ba91-5b398064181c"},"vehicle_type_id":"4","last_reported":1750623069,"current_range_meters":0,"station_id":"","pricing_plan_id":"cebpf4jnsgd1na2vs0mg"},{"bike_id":"a660f123-5085-48d0-8097-80c9f49d017c","system_id":"levelo_inurba_marseille","lat":43.2996,"lon":5.38504,"is_reserved":false,"is_disabled":true,"rental_uris":{"android":"levelo://app?vid=a660f123-5085-48d0-8097-80c9f49d017c","ios":"levelo://app?vid=a660f123-5085-48d0-8097-80c9f49d017c"},"vehicle_type_id":"4","last_reported":1750623069,"current_range_meters":0,"station_id":"ce4bgj92rcd13ifvqbd0","pricing_plan_id":"cebpf4jnsgd1na2vs0mg"},{"bike_id":"007797bd-cdac-46de-a98f-535b7d287d05","system_id":"levelo_inurba_marseille","lat":43.294098,"lon":5.386211,"is_reserved":false,"is_disabled":true,"rental_uris":{"android":"levelo://app?vid=007797bd-cdac-46de-a98f-535b7d287d05","ios":"levelo://app?vid=007797bd-cdac-46de-a98f-535b7d287d05"},"vehicle_type_id":"4","last_reported":1750623069,"current_range_meters":0,"station_id":"ce4bh2h2rcd13ifvqdh0","pricing_plan_id":"cebpf4jnsgd1na2vs0mg"},{"bike_id":"afac5d6a-a129-4650-82f0-a8c914f62a6b","system_id":"levelo_inurba_marseille","lat":43.29269,"lon":5.40121,"is_reserved":false,"is_disabled":true,"rental_uris":{"android":"levelo://app?vid=afac5d6a-a129-4650-82f0-a8c914f62a6b","ios":"levelo://app?vid=afac5d6a-a129-4650-82f0-a8c914f62a6b"},"vehicle_type_id":"4","last_reported":1750623069,"current_range_meters":0,"station_id":"ce4bh312rcd13ifvqdk0","pricing_plan_id":"cebpf4jnsgd1na2vs0mg"},{"bike_id":"ccc9c881-1a9b-4a3c-934c-613fe9a10547","system_id":"levelo_inurba_marseille","lat":43.29434,"lon":5.39761,"is_reserved":false,"is_disabled":true,"rental_uris":{"android":"levelo://app?vid=ccc9c881-1a9b-4a3c-934c-613fe9a10547","ios":"levelo://app?vid=ccc9c881-1a9b-4a3c-934c-613fe9a10547"},"vehicle_type_id":"4","last_reported":1750623069,"current_range_meters":0,"station_id":"ce4bh3h2rcd13ifvqdo0","pricing_plan_id":"cebpf4jnsgd1na2vs0mg"},{"bike_id":"64414de7-1d80-4aa0-9a14-0ccb73591932","system_id":"levelo_inurba_marseille","lat":43.29073,"lon":5.37158,"is_reserved":false,"is_disabled":true,"rental_uris":{"android":"levelo://app?vid=64414de7-1d80-4aa0-9a14-0ccb73591932","ios":"levelo://app?vid=64414de7-1d80-4aa0-9a14-0ccb73591932"},"vehicle_type_id":"4","last_reported":1750623069,"current_range_meters":0,"station_id":"ce4bh5p2rcd13ifvqe4g","pricing_plan_id":"cebpf4jnsgd1na2vs0mg"},{"bike_id":"0d03687f-6f3b-4d5f-904e-03f018b1a013","system_id":"levelo_inurba_marseille","lat":43.27065,"lon":5.40268,"is_reserved":false,"is_disabled":true,"rental_uris":{"android":"levelo://app?vid=0d03687f-6f3b-4d5f-904e-03f018b1a013","ios":"levelo://app?vid=0d03687f-6f3b-4d5f-904e-03f018b1a013"},"vehicle_type_id":"4","last_reported":1750623069,"current_range_meters":0,"station_id":"ce4bhk92rcd13ifvqgc0","pricing_plan_id":"cebpf4jnsgd1na2vs0mg"},{"bike_id":"95ec3c75-eff0-4411-bcd7-59c655a6140b","system_id":"levelo_inurba_marseille","lat":43.27181,"lon":5.40989,"is_reserved":false,"is_disabled":true,"rental_uris":{"android":"levelo://app?vid=95ec3c75-eff0-4411-bcd7-59c655a6140b","ios":"levelo://app?vid=95ec3c75-eff0-4411-bcd7-59c655a6140b"},"vehicle_type_id":"4","last_reported":1750623069,"current_range_meters":0,"station_id":"ce4bhl12rcd13ifvqgf0","pricing_plan_id":"cebpf4jnsgd1na2vs0mg"},{"bike_id":"38144b96-f41d-4943-9aa2-2fd5ad49785a","system_id":"levelo_inurba_marseille","lat":43.25105,"lon":5.40331,"is_reserved":false,"is_disabled":true,"rental_uris":{"android":"levelo://app?vid=38144b96-f41d-4943-9aa2-2fd5ad49785a","ios":"levelo://app?vid=38144b96-f41d-4943-9aa2-2fd5ad49785a"},"vehicle_type_id":"4","last_reported":1750623069,"current_range_meters":0,"station_id":"ce4bhlh2rcd13ifvqgig","pricing_plan_id":"cebpf4jnsgd1na2vs0mg"},{"bike_id":"c03aa44c-e095-4866-be6c-ea76e7946445","system_id":"levelo_inurba_marseille","lat":43.26262,"lon":5.40466,"is_reserved":false,"is_disabled":true,"rental_uris":{"android":"levelo://app?vid=c03aa44c-e095-4866-be6c-ea76e7946445","ios":"levelo://app?vid=c03aa44c-e095-4866-be6c-ea76e7946445"},"vehicle_type_id":"4","last_reported":1750623069,"current_range_meters":0,"station_id":"ce4bhmh2rcd13ifvqgmg","pricing_plan_id":"cebpf4jnsgd1na2vs0mg"},{"bike_id":"b9ececc3-df67-4fdb-a749-7596e1fe05ec","system_id":"levelo_inurba_marseille","lat":43.21744,"lon":5.34603,"is_reserved":false,"is_disabled":true,"rental_uris":{"android":"levelo://app?vid=b9ececc3-df67-4fdb-a749-7596e1fe05ec","ios":"levelo://app?vid=b9ececc3-df67-4fdb-a749-7596e1fe05ec"},"vehicle_type_id":"4","last_reported":1750623069,"current_range_meters":0,"station_id":"st_cvj6r9ubvosntc0bgbag","pricing_plan_id":"cebpf4jnsgd1na2vs0mg"},{"bike_id":"79fb8f08-70bc-44ce-a791-315f31845671","system_id":"levelo_inurba_marseille","lat":43.21754,"lon":5.34581,"is_reserved":false,"is_disabled":true,"rental_uris":{"android":"levelo://app?vid=79fb8f08-70bc-44ce-a791-315f31845671","ios":"levelo://app?vid=79fb8f08-70bc-44ce-a791-315f31845671"},"vehicle_type_id":"4","last_reported":1750623069,"current_range_meters":0,"station_id":"st_cvj6r9ubvosntc0bgbag","pricing_plan_id":"cebpf4jnsgd1na2vs0mg"},{"bike_id":"cd8e5c3a-9fb6-42e6-89ef-7a7f913f81a8","system_id":"levelo_inurba_marseille","lat":43.21215,"lon":5.35087,"is_reserved":false,"is_disabled":true,"rental_uris":{"android":"levelo://app?vid=cd8e5c3a-9fb6-42e6-89ef-7a7f913f81a8","ios":"levelo://app?vid=cd8e5c3a-9fb6-42e6-89ef-7a7f913f81a8"},"vehicle_type_id":"4","last_reported":1750623069,"current_range_meters":0,"station_id":"st_cvj6sg6p6f1abm77japg","pricing_plan_id":"cebpf4jnsgd1na2vs0mg"},{"bike_id":"84bfcf02-9930-4894-9fbc-8142cf69ef9f","system_id":"levelo_inurba_marseille","lat":43.27926,"lon":5.41227,"is_reserved":false,"is_disabled":true,"rental_uris":{"android":"levelo://app?vid=84bfcf02-9930-4894-9fbc-8142cf69ef9f","ios":"levelo://app?vid=84bfcf02-9930-4894-9fbc-8142cf69ef9f"},"vehicle_type_id":"4","last_reported":1750623069,"current_range_meters":400,"station_id":"","pricing_plan_id":"cebpf4jnsgd1na2vs0mg"},{"bike_id":"10201cfc-b366-4d12-b8c4-b3d20c668ec8","system_id":"levelo_inurba_marseille","lat":43.30934,"lon":5.36862,"is_reserved":false,"is_disabled":true,"rental_uris":{"android":"levelo://app?vid=10201cfc-b366-4d12-b8c4-b3d20c668ec8","ios":"levelo://app?vid=10201cfc-b366-4d12-b8c4-b3d20c668ec8"},"vehicle_type_id":"4","last_reported":1750623069,"current_range_meters":400,"station_id":"ce4bgn92rcd13ifvqbvg","pricing_plan_id":"cebpf4jnsgd1na2vs0mg"},{"bike_id":"546c4351-547a-4a53-bffa-7da27ffabac4","system_id":"levelo_inurba_marseille","lat":43.303009,"lon":5.392068,"is_reserved":false,"is_disabled":false,"rental_uris":{"android":"levelo://app?vid=546c4351-547a-4a53-bffa-7da27ffabac4","ios":"levelo://app?vid=546c4351-547a-4a53-bffa-7da27ffabac4"},"vehicle_type_id":"4","last_reported":1750623069,"current_range_meters":800,"station_id":"ce4bgkh2rcd13ifvqbk0","pricing_plan_id":"cebpf4jnsgd1na2vs0mg"},{"bike_id":"8335294e-4f96-44f5-b5ee-20e8ab2ff4d2","system_id":"levelo_inurba_marseille","lat":43.30631,"lon":5.40068,"is_reserved":false,"is_disabled":true,"rental_uris":{"android":"levelo://app?vid=8335294e-4f96-44f5-b5ee-20e8ab2ff4d2","ios":"levelo://app?vid=8335294e-4f96-44f5-b5ee-20e8ab2ff4d2"},"vehicle_type_id":"4","last_reported":1750623069,"current_range_meters":800,"station_id":"ce4bh112rcd13ifvqda0","pricing_plan_id":"cebpf4jnsgd1na2vs0mg"},{"bike_id":"4946364a-2e7a-4c86-a68f-68fd86b8c6b6","system_id":"levelo_inurba_marseille","lat":43.26001,"lon":5.37337,"is_reserved":false,"is_disabled":true,"rental_uris":{"android":"levelo://app?vid=4946364a-2e7a-4c86-a68f-68fd86b8c6b6","ios":"levelo://app?vid=4946364a-2e7a-4c86-a68f-68fd86b8c6b6"},"vehicle_type_id":"4","last_reported":1750623069,"current_range_meters":1200,"station_id":"","pricing_plan_id":"cebpf4jnsgd1na2vs0mg"},{"bike_id":"e8ebcc9f-1f40-447e-ad90-811fbee40b99","system_id":"levelo_inurba_marseille","lat":43.29012,"lon":5.39973,"is_reserved":false,"is_disabled":true,"rental_uris":{"android":"levelo://app?vid=e8ebcc9f-1f40-447e-ad90-811fbee40b99","ios":"levelo://app?vid=e8ebcc9f-1f40-447e-ad90-811fbee40b99"},"vehicle_type_id":"4","last_reported":1750623069,"current_range_meters":1200,"station_id":"ce4bh392rcd13ifvqdm0","pricing_plan_id":"cebpf4jnsgd1na2vs0mg"},{"bike_id":"b189de25-561b-45f6-ba0a-8de67a007686","system_id":"levelo_inurba_marseille","lat":43.2848,"lon":5.38414,"is_reserved":false,"is_disabled":true,"rental_uris":{"android":"levelo://app?vid=b189de25-561b-45f6-ba0a-8de67a007686","ios":"levelo://app?vid=b189de25-561b-45f6-ba0a-8de67a007686"},"vehicle_type_id":"4","last_reported":1750623069,"current_range_meters":1200,"station_id":"ce4bh512rcd13ifvqe3g","pricing_plan_id":"cebpf4jnsgd1na2vs0mg"},{"bike_id":"200e2aee-203f-4da7-988e-deccdb5c3d97","system_id":"levelo_inurba_marseille","lat":43.26797,"lon":5.39415,"is_reserved":false,"is_disabled":true,"rental_uris":{"android":"levelo://app?vid=200e2aee-203f-4da7-988e-deccdb5c3d97","ios":"levelo://app?vid=200e2aee-203f-4da7-988e-deccdb5c3d97"},"vehicle_type_id":"4","last_reported":1750623069,"current_range_meters":1200,"station_id":"ce4bhh12rcd13ifvqfg0","pricing_plan_id":"cebpf4jnsgd1na2vs0mg"},{"bike_id":"b8a3b0f5-87a5-4b34-b11d-e13ecb046662","system_id":"levelo_inurba_marseille","lat":43.2407,"lon":5.37764,"is_reserved":false,"is_disabled":false,"rental_uris":{"android":"levelo://app?vid=b8a3b0f5-87a5-4b34-b11d-e13ecb046662","ios":"levelo://app?vid=b8a3b0f5-87a5-4b34-b11d-e13ecb046662"},"vehicle_type_id":"4","last_reported":1750623069,"current_range_meters":1200,"station_id":"ce4bhnp2rcd13ifvqgvg","pricing_plan_id":"cebpf4jnsgd1na2vs0mg"},{"bike_id":"96531201-1a71-4e4d-a7a8-06333cfe5ace","system_id":"levelo_inurba_marseille","lat":43.2998,"lon":5.37171,"is_reserved":false,"is_disabled":true,"rental_uris":{"android":"levelo://app?vid=96531201-1a71-4e4d-a7a8-06333cfe5ace","ios":"levelo://app?vid=96531201-1a71-4e4d-a7a8-06333cfe5ace"},"vehicle_type_id":"4","last_reported":1750623069,"current_range_meters":1600,"station_id":"ce4bgr92rcd13ifvqc7g","pricing_plan_id":"cebpf4jnsgd1na2vs0mg"},{"bike_id":"7a8fa551-4cb8-4cf2-980a-5934e7ee4c5e","system_id":"levelo_inurba_marseille","lat":43.30878,"lon":5.39629,"is_reserved":false,"is_disabled":true,"rental_uris":{"android":"levelo://app?vid=7a8fa551-4cb8-4cf2-980a-5934e7ee4c5e","ios":"levelo://app?vid=7a8fa551-4cb8-4cf2-980a-5934e7ee4c5e"},"vehicle_type_id":"4","last_reported":1750623069,"current_range_meters":1600,"station_id":"ce4bh012rcd13ifvqcv0","pricing_plan_id":"cebpf4jnsgd1na2vs0mg"},{"bike_id":"c595d0e1-c778-4abe-9c79-a9dd74f54e27","system_id":"levelo_inurba_marseille","lat":43.24468,"lon":5.37225,"is_reserved":false,"is_disabled":true,"rental_uris":{"android":"levelo://app?vid=c595d0e1-c778-4abe-9c79-a9dd74f54e27","ios":"levelo://app?vid=c595d0e1-c778-4abe-9c79-a9dd74f54e27"},"vehicle_type_id":"4","last_reported":1750623069,"current_range_meters":2000,"station_id":"","pricing_plan_id":"cebpf4jnsgd1na2vs0mg"},{"bike_id":"9be4979e-bedd-4966-843f-5f92ed01dcbb","system_id":"levelo_inurba_marseille","lat":43.29902,"lon":5.43662,"is_reserved":false,"is_disabled":true,"rental_uris":{"android":"levelo://app?vid=9be4979e-bedd-4966-843f-5f92ed01dcbb","ios":"levelo://app?vid=9be4979e-bedd-4966-843f-5f92ed01dcbb"},"vehicle_type_id":"4","last_reported":1750623069,"current_range_meters":2000,"station_id":"ce4bhpp2rcd13ifvqhfg","pricing_plan_id":"cebpf4jnsgd1na2vs0mg"},{"bike_id":"25da5059-e196-4e56-a259-0e9fb4089fa7","system_id":"levelo_inurba_marseille","lat":43.32366,"lon":5.38885,"is_reserved":false,"is_disabled":false,"rental_uris":{"android":"levelo://app?vid=25da5059-e196-4e56-a259-0e9fb4089fa7","ios":"levelo://app?vid=25da5059-e196-4e56-a259-0e9fb4089fa7"},"vehicle_type_id":"4","last_reported":1750623069,"current_range_meters":3200,"station_id":"ce4bhqp2rcd13ifvqhog","pricing_plan_id":"cebpf4jnsgd1na2vs0mg"},{"bike_id":"a8b80f08-3afd-421f-b266-d37bc70b2321","system_id":"levelo_inurba_marseille","lat":43.211962,"lon":5.350662,"is_reserved":false,"is_disabled":false,"rental_uris":{"android":"levelo://app?vid=a8b80f08-3afd-421f-b266-d37bc70b2321","ios":"levelo://app?vid=a8b80f08-3afd-421f-b266-d37bc70b2321"},"vehicle_type_id":"4","last_reported":1750623069,"current_range_meters":3200,"station_id":"st_cvj6sg6p6f1abm77japg","pricing_plan_id":"cebpf4jnsgd1na2vs0mg"},{"bike_id":"ee3f3104-aa49-4c37-b029-6b369d1439b0","system_id":"levelo_inurba_marseille","lat":43.32759,"lon":5.36717,"is_reserved":false,"is_disabled":false,"rental_uris":{"android":"levelo://app?vid=ee3f3104-aa49-4c37-b029-6b369d1439b0","ios":"levelo://app?vid=ee3f3104-aa49-4c37-b029-6b369d1439b0"},"vehicle_type_id":"4","last_reported":1750623069,"current_range_meters":3600,"station_id":"","pricing_plan_id":"cebpf4jnsgd1na2vs0mg"},{"bike_id":"b703ff50-fba6-4a52-b9e2-96c2d06b1fc5","system_id":"levelo_inurba_marseille","lat":43.29706,"lon":5.36604,"is_reserved":false,"is_disabled":false,"rental_uris":{"android":"levelo://app?vid=b703ff50-fba6-4a52-b9e2-96c2d06b1fc5","ios":"levelo://app?vid=b703ff50-fba6-4a52-b9e2-96c2d06b1fc5"},"vehicle_type_id":"4","last_reported":1750623069,"current_range_meters":3600,"station_id":"ce4bgn12rcd13ifvqbt0","pricing_plan_id":"cebpf4jnsgd1na2vs0mg"},{"bike_id":"c9ead8ca-9052-42bd-ac11-2b8fb1b9b1d5","system_id":"levelo_inurba_marseille","lat":43.29787,"lon":5.3934,"is_reserved":false,"is_disabled":false,"rental_uris":{"android":"levelo://app?vid=c9ead8ca-9052-42bd-ac11-2b8fb1b9b1d5","ios":"levelo://app?vid=c9ead8ca-9052-42bd-ac11-2b8fb1b9b1d5"},"vehicle_type_id":"4","last_reported":1750623069,"current_range_meters":3600,"station_id":"chh1huq6cuj3fo74tm60","pricing_plan_id":"cebpf4jnsgd1na2vs0mg"},{"bike_id":"0a63aceb-67dc-475e-95e7-912d716e1445","system_id":"levelo_inurba_marseille","lat":43.27703,"lon":5.415398,"is_reserved":false,"is_disabled":false,"rental_uris":{"android":"levelo://app?vid=0a63aceb-67dc-475e-95e7-912d716e1445","ios":"levelo://app?vid=0a63aceb-67dc-475e-95e7-912d716e1445"},"vehicle_type_id":"4","last_reported":1750623069,"current_range_meters":4000,"station_id":"","pricing_plan_id":"cebpf4jnsgd1na2vs0mg"},{"bike_id":"182bb1e5-61e1-41b8-9e29-4e495ec71a77","system_id":"levelo_inurba_marseille","lat":43.29933,"lon":5.36545,"is_reserved":false,"is_disabled":false,"rental_uris":{"android":"levelo://app?vid=182bb1e5-61e1-41b8-9e29-4e495ec71a77","ios":"levelo://app?vid=182bb1e5-61e1-41b8-9e29-4e495ec71a77"},"vehicle_type_id":"4","last_reported":1750623069,"current_range_meters":4000,"station_id":"ce4bgm92rcd13ifvqbr0","pricing_plan_id":"cebpf4jnsgd1na2vs0mg"},{"bike_id":"95e532f4-abb1-4836-922d-922e0a167069","system_id":"levelo_inurba_marseille","lat":43.28851,"lon":5.39313,"is_reserved":false,"is_disabled":false,"rental_uris":{"android":"levelo://app?vid=95e532f4-abb1-4836-922d-922e0a167069","ios":"levelo://app?vid=95e532f4-abb1-4836-922d-922e0a167069"},"vehicle_type_id":"4","last_reported":1750623069,"current_range_meters":4000,"station_id":"ce4bh2p2rcd13ifvqdi0","pricing_plan_id":"cebpf4jnsgd1na2vs0mg"},{"bike_id":"f1eb298a-4e9b-43e5-a93f-9417dec50a0c","system_id":"levelo_inurba_marseille","lat":43.26936,"lon":5.38921,"is_reserved":false,"is_disabled":false,"rental_uris":{"android":"levelo://app?vid=f1eb298a-4e9b-43e5-a93f-9417dec50a0c","ios":"levelo://app?vid=f1eb298a-4e9b-43e5-a93f-9417dec50a0c"},"vehicle_type_id":"4","last_reported":1750623069,"current_range_meters":4000,"station_id":"ce4bhhh2rcd13ifvqfl0","pricing_plan_id":"cebpf4jnsgd1na2vs0mg"},{"bike_id":"936489bd-846b-4781-8770-4ef9a2356928","system_id":"levelo_inurba_marseille","lat":43.27821,"lon":5.40731,"is_reserved":false,"is_disabled":false,"rental_uris":{"android":"levelo://app?vid=936489bd-846b-4781-8770-4ef9a2356928","ios":"levelo://app?vid=936489bd-846b-4781-8770-4ef9a2356928"},"vehicle_type_id":"4","last_reported":1750623069,"current_range_meters":4000,"station_id":"ce4bhnh2rcd13ifvqgtg","pricing_plan_id":"cebpf4jnsgd1na2vs0mg"},{"bike_id":"21451f1b-d22c-4598-9b56-52fc8e8ead7e","system_id":"levelo_inurba_marseille","lat":43.31164,"lon":5.38718,"is_reserved":false,"is_disabled":false,"rental_uris":{"android":"levelo://app?vid=21451f1b-d22c-4598-9b56-52fc8e8ead7e","ios":"levelo://app?vid=21451f1b-d22c-4598-9b56-52fc8e8ead7e"},"vehicle_type_id":"4","last_reported":1750623069,"current_range_meters":4400,"station_id":"ce4bgv12rcd13ifvqcp0","pricing_plan_id":"cebpf4jnsgd1na2vs0mg"},{"bike_id":"21865613-5ced-4bc2-bc7b-eb079db75831","system_id":"levelo_inurba_marseille","lat":43.30892,"lon":5.39688,"is_reserved":false,"is_disabled":false,"rental_uris":{"android":"levelo://app?vid=21865613-5ced-4bc2-bc7b-eb079db75831","ios":"levelo://app?vid=21865613-5ced-4bc2-bc7b-eb079db75831"},"vehicle_type_id":"4","last_reported":1750623069,"current_range_meters":4400,"station_id":"ce4bh012rcd13ifvqcv0","pricing_plan_id":"cebpf4jnsgd1na2vs0mg"},{"bike_id":"bcd7b88e-e030-454b-9998-eb2cadf89fef","system_id":"levelo_inurba_marseille","lat":43.28571,"lon":5.39526,"is_reserved":false,"is_disabled":false,"rental_uris":{"android":"levelo://app?vid=bcd7b88e-e030-454b-9998-eb2cadf89fef","ios":"levelo://app?vid=bcd7b88e-e030-454b-9998-eb2cadf89fef"},"vehicle_type_id":"4","last_reported":1750623069,"current_range_meters":4400,"station_id":"ce4bh292rcd13ifvqdg0","pricing_plan_id":"cebpf4jnsgd1na2vs0mg"},{"bike_id":"5cf0f29a-d891-4663-a58e-143d65256252","system_id":"levelo_inurba_marseille","lat":43.26794,"lon":5.3941,"is_reserved":false,"is_disabled":false,"rental_uris":{"android":"levelo://app?vid=5cf0f29a-d891-4663-a58e-143d65256252","ios":"levelo://app?vid=5cf0f29a-d891-4663-a58e-143d65256252"},"vehicle_type_id":"4","last_reported":1750623069,"current_range_meters":4400,"station_id":"ce4bhh12rcd13ifvqfg0","pricing_plan_id":"cebpf4jnsgd1na2vs0mg"},{"bike_id":"16f3ef69-3b7d-4ba1-aec1-d3328ff10c13","system_id":"levelo_inurba_marseille","lat":43.26932,"lon":5.38916,"is_reserved":false,"is_disabled":false,"rental_uris":{"android":"levelo://app?vid=16f3ef69-3b7d-4ba1-aec1-d3328ff10c13","ios":"levelo://app?vid=16f3ef69-3b7d-4ba1-aec1-d3328ff10c13"},"vehicle_type_id":"4","last_reported":1750623069,"current_range_meters":4400,"station_id":"ce4bhhh2rcd13ifvqfl0","pricing_plan_id":"cebpf4jnsgd1na2vs0mg"},{"bike_id":"37298be6-94f2-48ec-bbf6-b9e3e329410b","system_id":"levelo_inurba_marseille","lat":43.28482,"lon":5.38413,"is_reserved":false,"is_disabled":false,"rental_uris":{"android":"levelo://app?vid=37298be6-94f2-48ec-bbf6-b9e3e329410b","ios":"levelo://app?vid=37298be6-94f2-48ec-bbf6-b9e3e329410b"},"vehicle_type_id":"4","last_reported":1750623069,"current_range_meters":4800,"station_id":"ce4bh512rcd13ifvqe3g","pricing_plan_id":"cebpf4jnsgd1na2vs0mg"},{"bike_id":"af1591e9-f0f4-4343-a025-187018317a01","system_id":"levelo_inurba_marseille","lat":43.25939,"lon":5.40904,"is_reserved":false,"is_disabled":false,"rental_uris":{"android":"levelo://app?vid=af1591e9-f0f4-4343-a025-187018317a01","ios":"levelo://app?vid=af1591e9-f0f4-4343-a025-187018317a01"},"vehicle_type_id":"4","last_reported":1750623069,"current_range_meters":4800,"station_id":"ce4bhm92rcd13ifvqglg","pricing_plan_id":"cebpf4jnsgd1na2vs0mg"},{"bike_id":"9ace839a-8f6a-42dc-8b3d-02f2206f7b1c","system_id":"levelo_inurba_marseille","lat":43.30351,"lon":5.418818,"is_reserved":false,"is_disabled":false,"rental_uris":{"android":"levelo://app?vid=9ace839a-8f6a-42dc-8b3d-02f2206f7b1c","ios":"levelo://app?vid=9ace839a-8f6a-42dc-8b3d-02f2206f7b1c"},"vehicle_type_id":"4","last_reported":1750623069,"current_range_meters":5600,"station_id":"ce4bhop2rcd13ifvqh7g","pricing_plan_id":"cebpf4jnsgd1na2vs0mg"},{"bike_id":"6e3f565f-e310-4f6d-8ad0-85a20fc2573b","system_id":"levelo_inurba_marseille","lat":43.30897,"lon":5.37142,"is_reserved":false,"is_disabled":false,"rental_uris":{"android":"levelo://app?vid=6e3f565f-e310-4f6d-8ad0-85a20fc2573b","ios":"levelo://app?vid=6e3f565f-e310-4f6d-8ad0-85a20fc2573b"},"vehicle_type_id":"4","last_reported":1750623069,"current_range_meters":6000,"station_id":"ce4bguh2rcd13ifvqckg","pricing_plan_id":"cebpf4jnsgd1na2vs0mg"},{"bike_id":"12c7fc9f-7c7b-4185-9b2f-badd0c17e36b","system_id":"levelo_inurba_marseille","lat":43.24756,"lon":5.37455,"is_reserved":false,"is_disabled":false,"rental_uris":{"android":"levelo://app?vid=12c7fc9f-7c7b-4185-9b2f-badd0c17e36b","ios":"levelo://app?vid=12c7fc9f-7c7b-4185-9b2f-badd0c17e36b"},"vehicle_type_id":"4","last_reported":1750623069,"current_range_meters":6000,"station_id":"ce4bhgh2rcd13ifvqfb0","pricing_plan_id":"cebpf4jnsgd1na2vs0mg"},{"bike_id":"e5447d9c-1f95-4c4f-aa3d-93efba085606","system_id":"levelo_inurba_marseille","lat":43.251151,"lon":5.403185,"is_reserved":false,"is_disabled":false,"rental_uris":{"android":"levelo://app?vid=e5447d9c-1f95-4c4f-aa3d-93efba085606","ios":"levelo://app?vid=e5447d9c-1f95-4c4f-aa3d-93efba085606"},"vehicle_type_id":"4","last_reported":1750623069,"current_range_meters":6000,"station_id":"ce4bhlh2rcd13ifvqgig","pricing_plan_id":"cebpf4jnsgd1na2vs0mg"},{"bike_id":"76e411d0-6239-49dd-a78c-6b0c13f2d8c4","system_id":"levelo_inurba_marseille","lat":43.25089,"lon":5.39521,"is_reserved":false,"is_disabled":false,"rental_uris":{"android":"levelo://app?vid=76e411d0-6239-49dd-a78c-6b0c13f2d8c4","ios":"levelo://app?vid=76e411d0-6239-49dd-a78c-6b0c13f2d8c4"},"vehicle_type_id":"4","last_reported":1750623069,"current_range_meters":6000,"station_id":"ce4bhm12rcd13ifvqgkg","pricing_plan_id":"cebpf4jnsgd1na2vs0mg"},{"bike_id":"6c7d5f2d-fd11-422c-acc4-74dbc0fb02c2","system_id":"levelo_inurba_marseille","lat":43.298994,"lon":5.436655,"is_reserved":false,"is_disabled":false,"rental_uris":{"android":"levelo://app?vid=6c7d5f2d-fd11-422c-acc4-74dbc0fb02c2","ios":"levelo://app?vid=6c7d5f2d-fd11-422c-acc4-74dbc0fb02c2"},"vehicle_type_id":"4","last_reported":1750623069,"current_range_meters":6000,"station_id":"ce4bhpp2rcd13ifvqhfg","pricing_plan_id":"cebpf4jnsgd1na2vs0mg"},{"bike_id":"2ce9d16a-5d9d-472c-9cc3-2569e28a32a9","system_id":"levelo_inurba_marseille","lat":43.288361,"lon":5.392237,"is_reserved":false,"is_disabled":false,"rental_uris":{"android":"levelo://app?vid=2ce9d16a-5d9d-472c-9cc3-2569e28a32a9","ios":"levelo://app?vid=2ce9d16a-5d9d-472c-9cc3-2569e28a32a9"},"vehicle_type_id":"4","last_reported":1750623069,"current_range_meters":6800,"station_id":"ce4bh2p2rcd13ifvqdi0","pricing_plan_id":"cebpf4jnsgd1na2vs0mg"},{"bike_id":"3af8e414-6142-4432-a6dc-f481c7269c68","system_id":"levelo_inurba_marseille","lat":43.23131,"lon":5.36617,"is_reserved":false,"is_disabled":false,"rental_uris":{"android":"levelo://app?vid=3af8e414-6142-4432-a6dc-f481c7269c68","ios":"levelo://app?vid=3af8e414-6142-4432-a6dc-f481c7269c68"},"vehicle_type_id":"4","last_reported":1750623069,"current_range_meters":7200,"station_id":"","pricing_plan_id":"cebpf4jnsgd1na2vs0mg"},{"bike_id":"22c0f42a-e8f9-4382-86b0-14a26f9adafa","system_id":"levelo_inurba_marseille","lat":43.295258,"lon":5.38536,"is_reserved":false,"is_disabled":false,"rental_uris":{"android":"levelo://app?vid=22c0f42a-e8f9-4382-86b0-14a26f9adafa","ios":"levelo://app?vid=22c0f42a-e8f9-4382-86b0-14a26f9adafa"},"vehicle_type_id":"4","last_reported":1750623069,"current_range_meters":7200,"station_id":"ce4bgih2rcd13ifvqba0","pricing_plan_id":"cebpf4jnsgd1na2vs0mg"},{"bike_id":"0ccd24b7-588b-4acd-b1f4-59a71facf9e8","system_id":"levelo_inurba_marseille","lat":43.25115,"lon":5.40331,"is_reserved":false,"is_disabled":false,"rental_uris":{"android":"levelo://app?vid=0ccd24b7-588b-4acd-b1f4-59a71facf9e8","ios":"levelo://app?vid=0ccd24b7-588b-4acd-b1f4-59a71facf9e8"},"vehicle_type_id":"4","last_reported":1750623069,"current_range_meters":7200,"station_id":"ce4bhlh2rcd13ifvqgig","pricing_plan_id":"cebpf4jnsgd1na2vs0mg"},{"bike_id":"d4e8ecc2-bfd2-4813-96c2-dd9e4b1c1145","system_id":"levelo_inurba_marseille","lat":43.32322,"lon":5.40642,"is_reserved":false,"is_disabled":false,"rental_uris":{"android":"levelo://app?vid=d4e8ecc2-bfd2-4813-96c2-dd9e4b1c1145","ios":"levelo://app?vid=d4e8ecc2-bfd2-4813-96c2-dd9e4b1c1145"},"vehicle_type_id":"4","last_reported":1750623069,"current_range_meters":7200,"station_id":"ce4bhq92rcd13ifvqhjg","pricing_plan_id":"cebpf4jnsgd1na2vs0mg"},{"bike_id":"e277578f-266b-4bf6-ad23-e46d4fe5d03a","system_id":"levelo_inurba_marseille","lat":43.22927,"lon":5.35366,"is_reserved":false,"is_disabled":false,"rental_uris":{"android":"levelo://app?vid=e277578f-266b-4bf6-ad23-e46d4fe5d03a","ios":"levelo://app?vid=e277578f-266b-4bf6-ad23-e46d4fe5d03a"},"vehicle_type_id":"4","last_reported":1750623069,"current_range_meters":7200,"station_id":"cpo3532slgdg3j2ikp40","pricing_plan_id":"cebpf4jnsgd1na2vs0mg"},{"bike_id":"a22aa312-0025-4f42-88e2-b1e95e79340f","system_id":"levelo_inurba_marseille","lat":43.31636,"lon":5.38351,"is_reserved":false,"is_disabled":false,"rental_uris":{"android":"levelo://app?vid=a22aa312-0025-4f42-88e2-b1e95e79340f","ios":"levelo://app?vid=a22aa312-0025-4f42-88e2-b1e95e79340f"},"vehicle_type_id":"4","last_reported":1750623069,"current_range_meters":8000,"station_id":"","pricing_plan_id":"cebpf4jnsgd1na2vs0mg"},{"bike_id":"3e326ed2-f43c-4a32-875c-375808e53452","system_id":"levelo_inurba_marseille","lat":43.31065,"lon":5.38348,"is_reserved":false,"is_disabled":false,"rental_uris":{"android":"levelo://app?vid=3e326ed2-f43c-4a32-875c-375808e53452","ios":"levelo://app?vid=3e326ed2-f43c-4a32-875c-375808e53452"},"vehicle_type_id":"4","last_reported":1750623069,"current_range_meters":8000,"station_id":"ce4bgv92rcd13ifvqcr0","pricing_plan_id":"cebpf4jnsgd1na2vs0mg"},{"bike_id":"3ccd6039-1011-44ac-8642-62ac29816731","system_id":"levelo_inurba_marseille","lat":43.28917,"lon":5.38389,"is_reserved":false,"is_disabled":false,"rental_uris":{"android":"levelo://app?vid=3ccd6039-1011-44ac-8642-62ac29816731","ios":"levelo://app?vid=3ccd6039-1011-44ac-8642-62ac29816731"},"vehicle_type_id":"4","last_reported":1750623069,"current_range_meters":8000,"station_id":"ce4bh612rcd13ifvqe6g","pricing_plan_id":"cebpf4jnsgd1na2vs0mg"},{"bike_id":"2460bdfc-baea-45e5-9f51-4be6cc8872c8","system_id":"levelo_inurba_marseille","lat":43.25111,"lon":5.40331,"is_reserved":false,"is_disabled":false,"rental_uris":{"android":"levelo://app?vid=2460bdfc-baea-45e5-9f51-4be6cc8872c8","ios":"levelo://app?vid=2460bdfc-baea-45e5-9f51-4be6cc8872c8"},"vehicle_type_id":"4","last_reported":1750623069,"current_range_meters":8000,"station_id":"ce4bhlh2rcd13ifvqgig","pricing_plan_id":"cebpf4jnsgd1na2vs0mg"},{"bike_id":"f9354a40-b1e4-4f31-b41f-b4f4322e83f6","system_id":"levelo_inurba_marseille","lat":43.23184,"lon":5.39984,"is_reserved":false,"is_disabled":false,"rental_uris":{"android":"levelo://app?vid=f9354a40-b1e4-4f31-b41f-b4f4322e83f6","ios":"levelo://app?vid=f9354a40-b1e4-4f31-b41f-b4f4322e83f6"},"vehicle_type_id":"4","last_reported":1750623069,"current_range_meters":8000,"station_id":"ce4bhn12rcd13ifvqgqg","pricing_plan_id":"cebpf4jnsgd1na2vs0mg"},{"bike_id":"2c1f50d0-6c14-4914-80f0-394d143111f5","system_id":"levelo_inurba_marseille","lat":43.311493,"lon":5.383185,"is_reserved":false,"is_disabled":false,"rental_uris":{"android":"levelo://app?vid=2c1f50d0-6c14-4914-80f0-394d143111f5","ios":"levelo://app?vid=2c1f50d0-6c14-4914-80f0-394d143111f5"},"vehicle_type_id":"4","last_reported":1750623069,"current_range_meters":8400,"station_id":"","pricing_plan_id":"cebpf4jnsgd1na2vs0mg"},{"bike_id":"eb6f2948-a0af-47db-98b5-9dcccfd7e23a","system_id":"levelo_inurba_marseille","lat":43.29978,"lon":5.3718,"is_reserved":false,"is_disabled":false,"rental_uris":{"android":"levelo://app?vid=eb6f2948-a0af-47db-98b5-9dcccfd7e23a","ios":"levelo://app?vid=eb6f2948-a0af-47db-98b5-9dcccfd7e23a"},"vehicle_type_id":"4","last_reported":1750623069,"current_range_meters":8400,"station_id":"ce4bgr92rcd13ifvqc7g","pricing_plan_id":"cebpf4jnsgd1na2vs0mg"},{"bike_id":"30accb69-8c74-4ebb-8b11-293f9fd66a16","system_id":"levelo_inurba_marseille","lat":43.311228,"lon":5.377695,"is_reserved":false,"is_disabled":false,"rental_uris":{"android":"levelo://app?vid=30accb69-8c74-4ebb-8b11-293f9fd66a16","ios":"levelo://app?vid=30accb69-8c74-4ebb-8b11-293f9fd66a16"},"vehicle_type_id":"4","last_reported":1750623069,"current_range_meters":8400,"station_id":"ce4bgt92rcd13ifvqcg0","pricing_plan_id":"cebpf4jnsgd1na2vs0mg"},{"bike_id":"c5da561c-a1ae-4488-8841-96efbd123feb","system_id":"levelo_inurba_marseille","lat":43.25116,"lon":5.40295,"is_reserved":false,"is_disabled":false,"rental_uris":{"android":"levelo://app?vid=c5da561c-a1ae-4488-8841-96efbd123feb","ios":"levelo://app?vid=c5da561c-a1ae-4488-8841-96efbd123feb"},"vehicle_type_id":"4","last_reported":1750623069,"current_range_meters":8400,"station_id":"ce4bhlh2rcd13ifvqgig","pricing_plan_id":"cebpf4jnsgd1na2vs0mg"},{"bike_id":"1af10d64-7b0e-4324-af96-d8bf17e75f81","system_id":"levelo_inurba_marseille","lat":43.22931,"lon":5.35388,"is_reserved":false,"is_disabled":false,"rental_uris":{"android":"levelo://app?vid=1af10d64-7b0e-4324-af96-d8bf17e75f81","ios":"levelo://app?vid=1af10d64-7b0e-4324-af96-d8bf17e75f81"},"vehicle_type_id":"4","last_reported":1750623069,"current_range_meters":8400,"station_id":"cpo3532slgdg3j2ikp40","pricing_plan_id":"cebpf4jnsgd1na2vs0mg"},{"bike_id":"87a543ff-2fc9-401c-a6cb-22a9c259333f","system_id":"levelo_inurba_marseille","lat":43.31271,"lon":5.40163,"is_reserved":false,"is_disabled":false,"rental_uris":{"android":"levelo://app?vid=87a543ff-2fc9-401c-a6cb-22a9c259333f","ios":"levelo://app?vid=87a543ff-2fc9-401c-a6cb-22a9c259333f"},"vehicle_type_id":"4","last_reported":1750623069,"current_range_meters":8800,"station_id":"ce4bh092rcd13ifvqd30","pricing_plan_id":"cebpf4jnsgd1na2vs0mg"},{"bike_id":"a1f769ac-6962-43ab-b110-edeca89cefa4","system_id":"levelo_inurba_marseille","lat":43.28339,"lon":5.38102,"is_reserved":false,"is_disabled":false,"rental_uris":{"android":"levelo://app?vid=a1f769ac-6962-43ab-b110-edeca89cefa4","ios":"levelo://app?vid=a1f769ac-6962-43ab-b110-edeca89cefa4"},"vehicle_type_id":"4","last_reported":1750623069,"current_range_meters":8800,"station_id":"ce4bh412rcd13ifvqdr0","pricing_plan_id":"cebpf4jnsgd1na2vs0mg"},{"bike_id":"46c5a4dc-276d-4d77-b69d-0694ca1c71ca","system_id":"levelo_inurba_marseille","lat":43.28082,"lon":5.39654,"is_reserved":false,"is_disabled":false,"rental_uris":{"android":"levelo://app?vid=46c5a4dc-276d-4d77-b69d-0694ca1c71ca","ios":"levelo://app?vid=46c5a4dc-276d-4d77-b69d-0694ca1c71ca"},"vehicle_type_id":"4","last_reported":1750623069,"current_range_meters":8800,"station_id":"ce4bho12rcd13ifvqh2g","pricing_plan_id":"cebpf4jnsgd1na2vs0mg"},{"bike_id":"f48425cf-611c-4160-aff9-97d658cfa133","system_id":"levelo_inurba_marseille","lat":43.337299,"lon":5.391977,"is_reserved":false,"is_disabled":false,"rental_uris":{"android":"levelo://app?vid=f48425cf-611c-4160-aff9-97d658cfa133","ios":"levelo://app?vid=f48425cf-611c-4160-aff9-97d658cfa133"},"vehicle_type_id":"4","last_reported":1750623069,"current_range_meters":8800,"station_id":"ce4bhr92rcd13ifvqhsg","pricing_plan_id":"cebpf4jnsgd1na2vs0mg"},{"bike_id":"b7036bc1-c072-4f36-9c66-21ff695540f4","system_id":"levelo_inurba_marseille","lat":43.247,"lon":5.3943,"is_reserved":false,"is_disabled":false,"rental_uris":{"android":"levelo://app?vid=b7036bc1-c072-4f36-9c66-21ff695540f4","ios":"levelo://app?vid=b7036bc1-c072-4f36-9c66-21ff695540f4"},"vehicle_type_id":"4","last_reported":1750623069,"current_range_meters":9200,"station_id":"","pricing_plan_id":"cebpf4jnsgd1na2vs0mg"},{"bike_id":"9e86667a-f014-4963-83d0-eb13606cd18f","system_id":"levelo_inurba_marseille","lat":43.2954,"lon":5.38534,"is_reserved":false,"is_disabled":false,"rental_uris":{"android":"levelo://app?vid=9e86667a-f014-4963-83d0-eb13606cd18f","ios":"levelo://app?vid=9e86667a-f014-4963-83d0-eb13606cd18f"},"vehicle_type_id":"4","last_reported":1750623069,"current_range_meters":9200,"station_id":"ce4bgih2rcd13ifvqba0","pricing_plan_id":"cebpf4jnsgd1na2vs0mg"},{"bike_id":"dbe45b1c-7e5b-408a-830e-cf970983314f","system_id":"levelo_inurba_marseille","lat":43.27372,"lon":5.36259,"is_reserved":false,"is_disabled":false,"rental_uris":{"android":"levelo://app?vid=dbe45b1c-7e5b-408a-830e-cf970983314f","ios":"levelo://app?vid=dbe45b1c-7e5b-408a-830e-cf970983314f"},"vehicle_type_id":"4","last_reported":1750623069,"current_range_meters":9200,"station_id":"ce4bhbh2rcd13ifvqeo0","pricing_plan_id":"cebpf4jnsgd1na2vs0mg"},{"bike_id":"375bdeca-c6af-44f1-be41-11111793b576","system_id":"levelo_inurba_marseille","lat":43.25085,"lon":5.39515,"is_reserved":false,"is_disabled":false,"rental_uris":{"android":"levelo://app?vid=375bdeca-c6af-44f1-be41-11111793b576","ios":"levelo://app?vid=375bdeca-c6af-44f1-be41-11111793b576"},"vehicle_type_id":"4","last_reported":1750623069,"current_range_meters":9200,"station_id":"ce4bhm12rcd13ifvqgkg","pricing_plan_id":"cebpf4jnsgd1na2vs0mg"},{"bike_id":"91f7dd34-7acd-48f4-af20-4d1aec847a2f","system_id":"levelo_inurba_marseille","lat":43.32362,"lon":5.38895,"is_reserved":false,"is_disabled":false,"rental_uris":{"android":"levelo://app?vid=91f7dd34-7acd-48f4-af20-4d1aec847a2f","ios":"levelo://app?vid=91f7dd34-7acd-48f4-af20-4d1aec847a2f"},"vehicle_type_id":"4","last_reported":1750623069,"current_range_meters":9200,"station_id":"ce4bhqp2rcd13ifvqhog","pricing_plan_id":"cebpf4jnsgd1na2vs0mg"},{"bike_id":"e672c7ab-9539-485a-b360-1e12bbab178b","system_id":"levelo_inurba_marseille","lat":43.30333,"lon":5.43496,"is_reserved":false,"is_disabled":false,"rental_uris":{"android":"levelo://app?vid=e672c7ab-9539-485a-b360-1e12bbab178b","ios":"levelo://app?vid=e672c7ab-9539-485a-b360-1e12bbab178b"},"vehicle_type_id":"4","last_reported":1750623069,"current_range_meters":9600,"station_id":"","pricing_plan_id":"cebpf4jnsgd1na2vs0mg"},{"bike_id":"ef9037aa-2f15-4b9c-b0f3-a015270955b1","system_id":"levelo_inurba_marseille","lat":43.2718,"lon":5.40995,"is_reserved":false,"is_disabled":false,"rental_uris":{"android":"levelo://app?vid=ef9037aa-2f15-4b9c-b0f3-a015270955b1","ios":"levelo://app?vid=ef9037aa-2f15-4b9c-b0f3-a015270955b1"},"vehicle_type_id":"4","last_reported":1750623069,"current_range_meters":9600,"station_id":"ce4bhl12rcd13ifvqgf0","pricing_plan_id":"cebpf4jnsgd1na2vs0mg"},{"bike_id":"d77dc2bc-2892-40a6-b23e-b059c9de1c1c","system_id":"levelo_inurba_marseille","lat":43.25106,"lon":5.40315,"is_reserved":false,"is_disabled":false,"rental_uris":{"android":"levelo://app?vid=d77dc2bc-2892-40a6-b23e-b059c9de1c1c","ios":"levelo://app?vid=d77dc2bc-2892-40a6-b23e-b059c9de1c1c"},"vehicle_type_id":"4","last_reported":1750623069,"current_range_meters":9600,"station_id":"ce4bhlh2rcd13ifvqgig","pricing_plan_id":"cebpf4jnsgd1na2vs0mg"},{"bike_id":"242baff6-2cd3-441f-a7ad-08f8c6f12d44","system_id":"levelo_inurba_marseille","lat":43.25095,"lon":5.39502,"is_reserved":false,"is_disabled":false,"rental_uris":{"android":"levelo://app?vid=242baff6-2cd3-441f-a7ad-08f8c6f12d44","ios":"levelo://app?vid=242baff6-2cd3-441f-a7ad-08f8c6f12d44"},"vehicle_type_id":"4","last_reported":1750623069,"current_range_meters":9600,"station_id":"ce4bhm12rcd13ifvqgkg","pricing_plan_id":"cebpf4jnsgd1na2vs0mg"},{"bike_id":"82ece343-2a43-4fda-8ae5-3e96c1e508fc","system_id":"levelo_inurba_marseille","lat":43.29011,"lon":5.38128,"is_reserved":false,"is_disabled":false,"rental_uris":{"android":"levelo://app?vid=82ece343-2a43-4fda-8ae5-3e96c1e508fc","ios":"levelo://app?vid=82ece343-2a43-4fda-8ae5-3e96c1e508fc"},"vehicle_type_id":"4","last_reported":1750623069,"current_range_meters":10000,"station_id":"ce4bh4p2rcd13ifvqe1g","pricing_plan_id":"cebpf4jnsgd1na2vs0mg"},{"bike_id":"1c55850a-ceff-4c71-bb5c-672e39b58a21","system_id":"levelo_inurba_marseille","lat":43.28484,"lon":5.38412,"is_reserved":false,"is_disabled":false,"rental_uris":{"android":"levelo://app?vid=1c55850a-ceff-4c71-bb5c-672e39b58a21","ios":"levelo://app?vid=1c55850a-ceff-4c71-bb5c-672e39b58a21"},"vehicle_type_id":"4","last_reported":1750623069,"current_range_meters":10000,"station_id":"ce4bh512rcd13ifvqe3g","pricing_plan_id":"cebpf4jnsgd1na2vs0mg"},{"bike_id":"26809d2f-03a7-4928-9006-d464a7e17820","system_id":"levelo_inurba_marseille","lat":43.27944,"lon":5.41058,"is_reserved":false,"is_disabled":false,"rental_uris":{"android":"levelo://app?vid=26809d2f-03a7-4928-9006-d464a7e17820","ios":"levelo://app?vid=26809d2f-03a7-4928-9006-d464a7e17820"},"vehicle_type_id":"4","last_reported":1750623069,"current_range_meters":10000,"station_id":"ce4bhnp2rcd13ifvqh0g","pricing_plan_id":"cebpf4jnsgd1na2vs0mg"},{"bike_id":"34b6d1a9-f2ec-47c7-82bd-893928a6f7ab","system_id":"levelo_inurba_marseille","lat":43.33726,"lon":5.39172,"is_reserved":false,"is_disabled":false,"rental_uris":{"android":"levelo://app?vid=34b6d1a9-f2ec-47c7-82bd-893928a6f7ab","ios":"levelo://app?vid=34b6d1a9-f2ec-47c7-82bd-893928a6f7ab"},"vehicle_type_id":"4","last_reported":1750623069,"current_range_meters":10000,"station_id":"ce4bhr92rcd13ifvqhsg","pricing_plan_id":"cebpf4jnsgd1na2vs0mg"},{"bike_id":"1b1c0002-ad22-4d98-90fd-8bb1b3113095","system_id":"levelo_inurba_marseille","lat":43.28044,"lon":5.36939,"is_reserved":false,"is_disabled":false,"rental_uris":{"android":"levelo://app?vid=1b1c0002-ad22-4d98-90fd-8bb1b3113095","ios":"levelo://app?vid=1b1c0002-ad22-4d98-90fd-8bb1b3113095"},"vehicle_type_id":"4","last_reported":1750623069,"current_range_meters":10800,"station_id":"ce4bha12rcd13ifvqef0","pricing_plan_id":"cebpf4jnsgd1na2vs0mg"},{"bike_id":"8786914a-96f9-4a95-bedc-3b8236965256","system_id":"levelo_inurba_marseille","lat":43.33612,"lon":5.41035,"is_reserved":false,"is_disabled":false,"rental_uris":{"android":"levelo://app?vid=8786914a-96f9-4a95-bedc-3b8236965256","ios":"levelo://app?vid=8786914a-96f9-4a95-bedc-3b8236965256"},"vehicle_type_id":"4","last_reported":1750623069,"current_range_meters":10800,"station_id":"ce4bhqh2rcd13ifvqhmg","pricing_plan_id":"cebpf4jnsgd1na2vs0mg"},{"bike_id":"7bc36bc5-993c-4ad6-afc4-312ce6aad640","system_id":"levelo_inurba_marseille","lat":43.23191,"lon":5.35553,"is_reserved":false,"is_disabled":false,"rental_uris":{"android":"levelo://app?vid=7bc36bc5-993c-4ad6-afc4-312ce6aad640","ios":"levelo://app?vid=7bc36bc5-993c-4ad6-afc4-312ce6aad640"},"vehicle_type_id":"4","last_reported":1750623069,"current_range_meters":10800,"station_id":"ce4bhu92rcd13ifvqi70","pricing_plan_id":"cebpf4jnsgd1na2vs0mg"},{"bike_id":"8d197929-9fd5-4312-a5f7-b6d7fc6475a8","system_id":"levelo_inurba_marseille","lat":43.23525,"lon":5.36005,"is_reserved":false,"is_disabled":false,"rental_uris":{"android":"levelo://app?vid=8d197929-9fd5-4312-a5f7-b6d7fc6475a8","ios":"levelo://app?vid=8d197929-9fd5-4312-a5f7-b6d7fc6475a8"},"vehicle_type_id":"4","last_reported":1750623069,"current_range_meters":11200,"station_id":"","pricing_plan_id":"cebpf4jnsgd1na2vs0mg"},{"bike_id":"eb8e0445-594f-44a0-85cb-9b475413e1ad","system_id":"levelo_inurba_marseille","lat":43.2955,"lon":5.42288,"is_reserved":false,"is_disabled":false,"rental_uris":{"android":"levelo://app?vid=eb8e0445-594f-44a0-85cb-9b475413e1ad","ios":"levelo://app?vid=eb8e0445-594f-44a0-85cb-9b475413e1ad"},"vehicle_type_id":"4","last_reported":1750623069,"current_range_meters":11200,"station_id":"ce4bhph2rcd13ifvqhdg","pricing_plan_id":"cebpf4jnsgd1na2vs0mg"},{"bike_id":"a9e5e555-fdaf-49c0-b286-f0f2659b17d0","system_id":"levelo_inurba_marseille","lat":43.28316,"lon":5.43217,"is_reserved":false,"is_disabled":false,"rental_uris":{"android":"levelo://app?vid=a9e5e555-fdaf-49c0-b286-f0f2659b17d0","ios":"levelo://app?vid=a9e5e555-fdaf-49c0-b286-f0f2659b17d0"},"vehicle_type_id":"4","last_reported":1750623069,"current_range_meters":11600,"station_id":"","pricing_plan_id":"cebpf4jnsgd1na2vs0mg"},{"bike_id":"ffbb0c22-3f4e-4cdb-a0e5-79e3b9f3e1a2","system_id":"levelo_inurba_marseille","lat":43.33769,"lon":5.37469,"is_reserved":false,"is_disabled":false,"rental_uris":{"android":"levelo://app?vid=ffbb0c22-3f4e-4cdb-a0e5-79e3b9f3e1a2","ios":"levelo://app?vid=ffbb0c22-3f4e-4cdb-a0e5-79e3b9f3e1a2"},"vehicle_type_id":"4","last_reported":1750623069,"current_range_meters":11600,"station_id":"","pricing_plan_id":"cebpf4jnsgd1na2vs0mg"},{"bike_id":"8aa38e35-e914-41b9-86ad-22656fa65434","system_id":"levelo_inurba_marseille","lat":43.31323,"lon":5.39689,"is_reserved":false,"is_disabled":false,"rental_uris":{"android":"levelo://app?vid=8aa38e35-e914-41b9-86ad-22656fa65434","ios":"levelo://app?vid=8aa38e35-e914-41b9-86ad-22656fa65434"},"vehicle_type_id":"4","last_reported":1750623069,"current_range_meters":11600,"station_id":"ce4bgvp2rcd13ifvqcu0","pricing_plan_id":"cebpf4jnsgd1na2vs0mg"},{"bike_id":"39988140-2e74-4762-a55a-6a38b36f1815","system_id":"levelo_inurba_marseille","lat":43.30209,"lon":5.3947,"is_reserved":false,"is_disabled":false,"rental_uris":{"android":"levelo://app?vid=39988140-2e74-4762-a55a-6a38b36f1815","ios":"levelo://app?vid=39988140-2e74-4762-a55a-6a38b36f1815"},"vehicle_type_id":"4","last_reported":1750623069,"current_range_meters":11600,"station_id":"ce4bh0p2rcd13ifvqd70","pricing_plan_id":"cebpf4jnsgd1na2vs0mg"},{"bike_id":"1c8be612-2009-43ae-a81c-7317b1acea59","system_id":"levelo_inurba_marseille","lat":43.28104,"lon":5.37833,"is_reserved":false,"is_disabled":false,"rental_uris":{"android":"levelo://app?vid=1c8be612-2009-43ae-a81c-7317b1acea59","ios":"levelo://app?vid=1c8be612-2009-43ae-a81c-7317b1acea59"},"vehicle_type_id":"4","last_reported":1750623069,"current_range_meters":11600,"station_id":"ce4bha12rcd13ifvqee0","pricing_plan_id":"cebpf4jnsgd1na2vs0mg"},{"bike_id":"ee732236-7037-4a85-823f-b20e1e6cd0b0","system_id":"levelo_inurba_marseille","lat":43.26565,"lon":5.38997,"is_reserved":false,"is_disabled":false,"rental_uris":{"android":"levelo://app?vid=ee732236-7037-4a85-823f-b20e1e6cd0b0","ios":"levelo://app?vid=ee732236-7037-4a85-823f-b20e1e6cd0b0"},"vehicle_type_id":"4","last_reported":1750623069,"current_range_meters":11600,"station_id":"ce4bhe12rcd13ifvqf30","pricing_plan_id":"cebpf4jnsgd1na2vs0mg"},{"bike_id":"27baa199-32e7-491b-844f-7dbc09918d14","system_id":"levelo_inurba_marseille","lat":43.31883,"lon":5.4073,"is_reserved":false,"is_disabled":false,"rental_uris":{"android":"levelo://app?vid=27baa199-32e7-491b-844f-7dbc09918d14","ios":"levelo://app?vid=27baa199-32e7-491b-844f-7dbc09918d14"},"vehicle_type_id":"4","last_reported":1750623069,"current_range_meters":11600,"station_id":"ce4bhq12rcd13ifvqhig","pricing_plan_id":"cebpf4jnsgd1na2vs0mg"},{"bike_id":"4fe6f2a2-2769-48cc-bfee-59f0bb3affdd","system_id":"levelo_inurba_marseille","lat":43.2885,"lon":5.39303,"is_reserved":false,"is_disabled":false,"rental_uris":{"android":"levelo://app?vid=4fe6f2a2-2769-48cc-bfee-59f0bb3affdd","ios":"levelo://app?vid=4fe6f2a2-2769-48cc-bfee-59f0bb3affdd"},"vehicle_type_id":"4","last_reported":1750623069,"current_range_meters":12000,"station_id":"ce4bh2p2rcd13ifvqdi0","pricing_plan_id":"cebpf4jnsgd1na2vs0mg"},{"bike_id":"f10e38ce-c08a-4001-873a-ec3e8846285a","system_id":"levelo_inurba_marseille","lat":43.329038,"lon":5.38048,"is_reserved":false,"is_disabled":false,"rental_uris":{"android":"levelo://app?vid=f10e38ce-c08a-4001-873a-ec3e8846285a","ios":"levelo://app?vid=f10e38ce-c08a-4001-873a-ec3e8846285a"},"vehicle_type_id":"4","last_reported":1750623069,"current_range_meters":12400,"station_id":"","pricing_plan_id":"cebpf4jnsgd1na2vs0mg"},{"bike_id":"75cd8511-a3a9-4f2a-a7b7-29e4349e52f4","system_id":"levelo_inurba_marseille","lat":43.28699,"lon":5.37377,"is_reserved":false,"is_disabled":false,"rental_uris":{"android":"levelo://app?vid=75cd8511-a3a9-4f2a-a7b7-29e4349e52f4","ios":"levelo://app?vid=75cd8511-a3a9-4f2a-a7b7-29e4349e52f4"},"vehicle_type_id":"4","last_reported":1750623069,"current_range_meters":12400,"station_id":"ce4bh3p2rcd13ifvqdq0","pricing_plan_id":"cebpf4jnsgd1na2vs0mg"},{"bike_id":"3b77e227-568e-4f31-a5db-ffc2adfa1d53","system_id":"levelo_inurba_marseille","lat":43.28928,"lon":5.38407,"is_reserved":false,"is_disabled":false,"rental_uris":{"android":"levelo://app?vid=3b77e227-568e-4f31-a5db-ffc2adfa1d53","ios":"levelo://app?vid=3b77e227-568e-4f31-a5db-ffc2adfa1d53"},"vehicle_type_id":"4","last_reported":1750623069,"current_range_meters":12400,"station_id":"ce4bh612rcd13ifvqe6g","pricing_plan_id":"cebpf4jnsgd1na2vs0mg"},{"bike_id":"301ca1de-5ab6-40c8-802e-4abec08c6c2d","system_id":"levelo_inurba_marseille","lat":43.28139,"lon":5.42651,"is_reserved":false,"is_disabled":false,"rental_uris":{"android":"levelo://app?vid=301ca1de-5ab6-40c8-802e-4abec08c6c2d","ios":"levelo://app?vid=301ca1de-5ab6-40c8-802e-4abec08c6c2d"},"vehicle_type_id":"4","last_reported":1750623069,"current_range_meters":12400,"station_id":"ce4bhnh2rcd13ifvqgug","pricing_plan_id":"cebpf4jnsgd1na2vs0mg"},{"bike_id":"9f717de1-1bdd-451d-87f7-e377b1f9ef70","system_id":"levelo_inurba_marseille","lat":43.337278,"lon":5.39182,"is_reserved":false,"is_disabled":false,"rental_uris":{"android":"levelo://app?vid=9f717de1-1bdd-451d-87f7-e377b1f9ef70","ios":"levelo://app?vid=9f717de1-1bdd-451d-87f7-e377b1f9ef70"},"vehicle_type_id":"4","last_reported":1750623069,"current_range_meters":12400,"station_id":"ce4bhr92rcd13ifvqhsg","pricing_plan_id":"cebpf4jnsgd1na2vs0mg"},{"bike_id":"82bf6d7e-8a88-4235-833d-2e72a7344354","system_id":"levelo_inurba_marseille","lat":43.2706,"lon":5.40256,"is_reserved":false,"is_disabled":false,"rental_uris":{"android":"levelo://app?vid=82bf6d7e-8a88-4235-833d-2e72a7344354","ios":"levelo://app?vid=82bf6d7e-8a88-4235-833d-2e72a7344354"},"vehicle_type_id":"4","last_reported":1750623069,"current_range_meters":12800,"station_id":"ce4bhk92rcd13ifvqgc0","pricing_plan_id":"cebpf4jnsgd1na2vs0mg"},{"bike_id":"edf584b7-ce48-45b4-b77d-22ed2849f4c7","system_id":"levelo_inurba_marseille","lat":43.3266,"lon":5.40978,"is_reserved":false,"is_disabled":false,"rental_uris":{"android":"levelo://app?vid=edf584b7-ce48-45b4-b77d-22ed2849f4c7","ios":"levelo://app?vid=edf584b7-ce48-45b4-b77d-22ed2849f4c7"},"vehicle_type_id":"4","last_reported":1750623069,"current_range_meters":12800,"station_id":"ce4bhpp2rcd13ifvqhgg","pricing_plan_id":"cebpf4jnsgd1na2vs0mg"},{"bike_id":"53e3cac3-c637-4e25-be10-c2eee629a6ba","system_id":"levelo_inurba_marseille","lat":43.229312,"lon":5.353682,"is_reserved":false,"is_disabled":false,"rental_uris":{"android":"levelo://app?vid=53e3cac3-c637-4e25-be10-c2eee629a6ba","ios":"levelo://app?vid=53e3cac3-c637-4e25-be10-c2eee629a6ba"},"vehicle_type_id":"4","last_reported":1750623069,"current_range_meters":12800,"station_id":"cpo3532slgdg3j2ikp40","pricing_plan_id":"cebpf4jnsgd1na2vs0mg"},{"bike_id":"70764641-799a-4261-99bd-903918c1b74a","system_id":"levelo_inurba_marseille","lat":43.32879,"lon":5.3833,"is_reserved":false,"is_disabled":false,"rental_uris":{"android":"levelo://app?vid=70764641-799a-4261-99bd-903918c1b74a","ios":"levelo://app?vid=70764641-799a-4261-99bd-903918c1b74a"},"vehicle_type_id":"4","last_reported":1750623069,"current_range_meters":13600,"station_id":"","pricing_plan_id":"cebpf4jnsgd1na2vs0mg"},{"bike_id":"a5776123-4a96-48f3-82f5-4650d5d3c58d","system_id":"levelo_inurba_marseille","lat":43.29292,"lon":5.38409,"is_reserved":false,"is_disabled":false,"rental_uris":{"android":"levelo://app?vid=a5776123-4a96-48f3-82f5-4650d5d3c58d","ios":"levelo://app?vid=a5776123-4a96-48f3-82f5-4650d5d3c58d"},"vehicle_type_id":"4","last_reported":1750623069,"current_range_meters":13600,"station_id":"ce4bh692rcd13ifvqea0","pricing_plan_id":"cebpf4jnsgd1na2vs0mg"},{"bike_id":"1bdd5453-f15f-460f-9774-a3f55c93ccdd","system_id":"levelo_inurba_marseille","lat":43.29908,"lon":5.37623,"is_reserved":false,"is_disabled":false,"rental_uris":{"android":"levelo://app?vid=1bdd5453-f15f-460f-9774-a3f55c93ccdd","ios":"levelo://app?vid=1bdd5453-f15f-460f-9774-a3f55c93ccdd"},"vehicle_type_id":"4","last_reported":1750623069,"current_range_meters":14000,"station_id":"","pricing_plan_id":"cebpf4jnsgd1na2vs0mg"},{"bike_id":"08b3acbc-b439-44c6-be26-9ecc0d248309","system_id":"levelo_inurba_marseille","lat":43.31111,"lon":5.37753,"is_reserved":false,"is_disabled":false,"rental_uris":{"android":"levelo://app?vid=08b3acbc-b439-44c6-be26-9ecc0d248309","ios":"levelo://app?vid=08b3acbc-b439-44c6-be26-9ecc0d248309"},"vehicle_type_id":"4","last_reported":1750623069,"current_range_meters":14000,"station_id":"ce4bgt92rcd13ifvqcg0","pricing_plan_id":"cebpf4jnsgd1na2vs0mg"},{"bike_id":"ff22b66c-926e-465d-81fa-f84e8e9fc0f9","system_id":"levelo_inurba_marseille","lat":43.30927,"lon":5.40143,"is_reserved":false,"is_disabled":false,"rental_uris":{"android":"levelo://app?vid=ff22b66c-926e-465d-81fa-f84e8e9fc0f9","ios":"levelo://app?vid=ff22b66c-926e-465d-81fa-f84e8e9fc0f9"},"vehicle_type_id":"4","last_reported":1750623069,"current_range_meters":14000,"station_id":"ce4bgvp2rcd13ifvqct0","pricing_plan_id":"cebpf4jnsgd1na2vs0mg"},{"bike_id":"b0e00e74-e143-4d8f-a15a-9b0a47bb6b7d","system_id":"levelo_inurba_marseille","lat":43.24664,"lon":5.38164,"is_reserved":false,"is_disabled":false,"rental_uris":{"android":"levelo://app?vid=b0e00e74-e143-4d8f-a15a-9b0a47bb6b7d","ios":"levelo://app?vid=b0e00e74-e143-4d8f-a15a-9b0a47bb6b7d"},"vehicle_type_id":"4","last_reported":1750623069,"current_range_meters":14000,"station_id":"ce4bhih2rcd13ifvqfr0","pricing_plan_id":"cebpf4jnsgd1na2vs0mg"},{"bike_id":"d9a2cc53-a50b-4569-83ad-ae1b7bad8a6a","system_id":"levelo_inurba_marseille","lat":43.269296,"lon":5.402988,"is_reserved":false,"is_disabled":false,"rental_uris":{"android":"levelo://app?vid=d9a2cc53-a50b-4569-83ad-ae1b7bad8a6a","ios":"levelo://app?vid=d9a2cc53-a50b-4569-83ad-ae1b7bad8a6a"},"vehicle_type_id":"4","last_reported":1750623069,"current_range_meters":14000,"station_id":"cjm6bp8fraef2m0cb0m0","pricing_plan_id":"cebpf4jnsgd1na2vs0mg"},{"bike_id":"1c00ed5c-d23b-4f3b-b478-c16a1e956047","system_id":"levelo_inurba_marseille","lat":43.25528,"lon":5.40958,"is_reserved":false,"is_disabled":false,"rental_uris":{"android":"levelo://app?vid=1c00ed5c-d23b-4f3b-b478-c16a1e956047","ios":"levelo://app?vid=1c00ed5c-d23b-4f3b-b478-c16a1e956047"},"vehicle_type_id":"4","last_reported":1750623069,"current_range_meters":14400,"station_id":"","pricing_plan_id":"cebpf4jnsgd1na2vs0mg"},{"bike_id":"2304da2a-ad68-4502-9060-ab8866fad6ac","system_id":"levelo_inurba_marseille","lat":43.23195,"lon":5.39987,"is_reserved":false,"is_disabled":false,"rental_uris":{"android":"levelo://app?vid=2304da2a-ad68-4502-9060-ab8866fad6ac","ios":"levelo://app?vid=2304da2a-ad68-4502-9060-ab8866fad6ac"},"vehicle_type_id":"4","last_reported":1750623069,"current_range_meters":14400,"station_id":"ce4bhn12rcd13ifvqgqg","pricing_plan_id":"cebpf4jnsgd1na2vs0mg"},{"bike_id":"01f87fe3-9914-47f9-8103-0ddf84c3393a","system_id":"levelo_inurba_marseille","lat":43.28156,"lon":5.42638,"is_reserved":false,"is_disabled":false,"rental_uris":{"android":"levelo://app?vid=01f87fe3-9914-47f9-8103-0ddf84c3393a","ios":"levelo://app?vid=01f87fe3-9914-47f9-8103-0ddf84c3393a"},"vehicle_type_id":"4","last_reported":1750623069,"current_range_meters":14400,"station_id":"ce4bhnh2rcd13ifvqgug","pricing_plan_id":"cebpf4jnsgd1na2vs0mg"},{"bike_id":"fa3d2d3a-d497-401e-931b-c139fa7b297a","system_id":"levelo_inurba_marseille","lat":43.32054,"lon":5.41562,"is_reserved":false,"is_disabled":false,"rental_uris":{"android":"levelo://app?vid=fa3d2d3a-d497-401e-931b-c139fa7b297a","ios":"levelo://app?vid=fa3d2d3a-d497-401e-931b-c139fa7b297a"},"vehicle_type_id":"4","last_reported":1750623069,"current_range_meters":14400,"station_id":"ce4bhq92rcd13ifvqhkg","pricing_plan_id":"cebpf4jnsgd1na2vs0mg"},{"bike_id":"f764cf5d-3d90-4b85-aef1-f70a7923b78b","system_id":"levelo_inurba_marseille","lat":43.29531,"lon":5.38537,"is_reserved":false,"is_disabled":false,"rental_uris":{"android":"levelo://app?vid=f764cf5d-3d90-4b85-aef1-f70a7923b78b","ios":"levelo://app?vid=f764cf5d-3d90-4b85-aef1-f70a7923b78b"},"vehicle_type_id":"4","last_reported":1750623069,"current_range_meters":15200,"station_id":"ce4bgih2rcd13ifvqba0","pricing_plan_id":"cebpf4jnsgd1na2vs0mg"},{"bike_id":"6f78b9d2-452b-49b7-8380-60455db17e6d","system_id":"levelo_inurba_marseille","lat":43.29882,"lon":5.38895,"is_reserved":false,"is_disabled":false,"rental_uris":{"android":"levelo://app?vid=6f78b9d2-452b-49b7-8380-60455db17e6d","ios":"levelo://app?vid=6f78b9d2-452b-49b7-8380-60455db17e6d"},"vehicle_type_id":"4","last_reported":1750623069,"current_range_meters":15200,"station_id":"ce4bh392rcd13ifvqdl0","pricing_plan_id":"cebpf4jnsgd1na2vs0mg"},{"bike_id":"9b02d498-1113-42dd-abe8-5af105b91dd7","system_id":"levelo_inurba_marseille","lat":43.32033,"lon":5.41552,"is_reserved":false,"is_disabled":false,"rental_uris":{"android":"levelo://app?vid=9b02d498-1113-42dd-abe8-5af105b91dd7","ios":"levelo://app?vid=9b02d498-1113-42dd-abe8-5af105b91dd7"},"vehicle_type_id":"4","last_reported":1750623069,"current_range_meters":15200,"station_id":"ce4bhq92rcd13ifvqhkg","pricing_plan_id":"cebpf4jnsgd1na2vs0mg"},{"bike_id":"b121b815-4832-48cb-be5c-48bedc9fea93","system_id":"levelo_inurba_marseille","lat":43.25666,"lon":5.4095,"is_reserved":false,"is_disabled":false,"rental_uris":{"android":"levelo://app?vid=b121b815-4832-48cb-be5c-48bedc9fea93","ios":"levelo://app?vid=b121b815-4832-48cb-be5c-48bedc9fea93"},"vehicle_type_id":"4","last_reported":1750623069,"current_range_meters":16000,"station_id":"","pricing_plan_id":"cebpf4jnsgd1na2vs0mg"},{"bike_id":"e6f63928-a8c6-44dc-9fff-ab5d383ecd3e","system_id":"levelo_inurba_marseille","lat":43.27915,"lon":5.39588,"is_reserved":false,"is_disabled":false,"rental_uris":{"android":"levelo://app?vid=e6f63928-a8c6-44dc-9fff-ab5d383ecd3e","ios":"levelo://app?vid=e6f63928-a8c6-44dc-9fff-ab5d383ecd3e"},"vehicle_type_id":"4","last_reported":1750623069,"current_range_meters":16000,"station_id":"ce4bhf92rcd13ifvqf40","pricing_plan_id":"cebpf4jnsgd1na2vs0mg"},{"bike_id":"79259168-1d8c-4e6f-9cad-e661d0aff006","system_id":"levelo_inurba_marseille","lat":43.27087,"lon":5.42266,"is_reserved":false,"is_disabled":false,"rental_uris":{"android":"levelo://app?vid=79259168-1d8c-4e6f-9cad-e661d0aff006","ios":"levelo://app?vid=79259168-1d8c-4e6f-9cad-e661d0aff006"},"vehicle_type_id":"4","last_reported":1750623069,"current_range_meters":16000,"station_id":"ce4bhk92rcd13ifvqgb0","pricing_plan_id":"cebpf4jnsgd1na2vs0mg"},{"bike_id":"62bc633f-e44e-4c91-bdeb-3d857efe0461","system_id":"levelo_inurba_marseille","lat":43.30646,"lon":5.40093,"is_reserved":false,"is_disabled":false,"rental_uris":{"android":"levelo://app?vid=62bc633f-e44e-4c91-bdeb-3d857efe0461","ios":"levelo://app?vid=62bc633f-e44e-4c91-bdeb-3d857efe0461"},"vehicle_type_id":"4","last_reported":1750623069,"current_range_meters":16400,"station_id":"ce4bh112rcd13ifvqda0","pricing_plan_id":"cebpf4jnsgd1na2vs0mg"},{"bike_id":"0db63c97-df1d-4b83-bb26-94871fb77556","system_id":"levelo_inurba_marseille","lat":43.29572,"lon":5.39977,"is_reserved":false,"is_disabled":false,"rental_uris":{"android":"levelo://app?vid=0db63c97-df1d-4b83-bb26-94871fb77556","ios":"levelo://app?vid=0db63c97-df1d-4b83-bb26-94871fb77556"},"vehicle_type_id":"4","last_reported":1750623069,"current_range_meters":16400,"station_id":"ce4bh312rcd13ifvqdj0","pricing_plan_id":"cebpf4jnsgd1na2vs0mg"},{"bike_id":"20138b2f-ab8a-497f-826a-87cc8c9361a7","system_id":"levelo_inurba_marseille","lat":43.28923,"lon":5.38394,"is_reserved":false,"is_disabled":false,"rental_uris":{"android":"levelo://app?vid=20138b2f-ab8a-497f-826a-87cc8c9361a7","ios":"levelo://app?vid=20138b2f-ab8a-497f-826a-87cc8c9361a7"},"vehicle_type_id":"4","last_reported":1750623069,"current_range_meters":16400,"station_id":"ce4bh612rcd13ifvqe6g","pricing_plan_id":"cebpf4jnsgd1na2vs0mg"},{"bike_id":"832ded37-2b79-4790-b400-e20541e56307","system_id":"levelo_inurba_marseille","lat":43.2707,"lon":5.422785,"is_reserved":false,"is_disabled":false,"rental_uris":{"android":"levelo://app?vid=832ded37-2b79-4790-b400-e20541e56307","ios":"levelo://app?vid=832ded37-2b79-4790-b400-e20541e56307"},"vehicle_type_id":"4","last_reported":1750623069,"current_range_meters":16400,"station_id":"ce4bhk92rcd13ifvqgb0","pricing_plan_id":"cebpf4jnsgd1na2vs0mg"},{"bike_id":"d607d11f-5761-45ce-a5f8-8583a3c6faea","system_id":"levelo_inurba_marseille","lat":43.29551,"lon":5.42297,"is_reserved":false,"is_disabled":false,"rental_uris":{"android":"levelo://app?vid=d607d11f-5761-45ce-a5f8-8583a3c6faea","ios":"levelo://app?vid=d607d11f-5761-45ce-a5f8-8583a3c6faea"},"vehicle_type_id":"4","last_reported":1750623069,"current_range_meters":16400,"station_id":"ce4bhph2rcd13ifvqhdg","pricing_plan_id":"cebpf4jnsgd1na2vs0mg"},{"bike_id":"51aedf2b-5fdb-4ba9-a409-884ed1175a94","system_id":"levelo_inurba_marseille","lat":43.29532,"lon":5.38543,"is_reserved":false,"is_disabled":false,"rental_uris":{"android":"levelo://app?vid=51aedf2b-5fdb-4ba9-a409-884ed1175a94","ios":"levelo://app?vid=51aedf2b-5fdb-4ba9-a409-884ed1175a94"},"vehicle_type_id":"4","last_reported":1750623069,"current_range_meters":16800,"station_id":"ce4bgih2rcd13ifvqba0","pricing_plan_id":"cebpf4jnsgd1na2vs0mg"},{"bike_id":"05a8b876-4f71-45de-85d1-1ca743cbba75","system_id":"levelo_inurba_marseille","lat":43.29264,"lon":5.38439,"is_reserved":false,"is_disabled":false,"rental_uris":{"android":"levelo://app?vid=05a8b876-4f71-45de-85d1-1ca743cbba75","ios":"levelo://app?vid=05a8b876-4f71-45de-85d1-1ca743cbba75"},"vehicle_type_id":"4","last_reported":1750623069,"current_range_meters":16800,"station_id":"ce4bh692rcd13ifvqea0","pricing_plan_id":"cebpf4jnsgd1na2vs0mg"},{"bike_id":"a2b2c7b5-deaa-4ce2-847d-7795ca026356","system_id":"levelo_inurba_marseille","lat":43.26208,"lon":5.37448,"is_reserved":false,"is_disabled":false,"rental_uris":{"android":"levelo://app?vid=a2b2c7b5-deaa-4ce2-847d-7795ca026356","ios":"levelo://app?vid=a2b2c7b5-deaa-4ce2-847d-7795ca026356"},"vehicle_type_id":"4","last_reported":1750623069,"current_range_meters":17200,"station_id":"","pricing_plan_id":"cebpf4jnsgd1na2vs0mg"},{"bike_id":"3a67b8c6-99af-4b43-b509-6629e4b227f9","system_id":"levelo_inurba_marseille","lat":43.23184,"lon":5.39975,"is_reserved":false,"is_disabled":false,"rental_uris":{"android":"levelo://app?vid=3a67b8c6-99af-4b43-b509-6629e4b227f9","ios":"levelo://app?vid=3a67b8c6-99af-4b43-b509-6629e4b227f9"},"vehicle_type_id":"4","last_reported":1750623069,"current_range_meters":17200,"station_id":"ce4bhn12rcd13ifvqgqg","pricing_plan_id":"cebpf4jnsgd1na2vs0mg"},{"bike_id":"540733a3-d7a4-4ea1-8f30-4f5cb70e6f87","system_id":"levelo_inurba_marseille","lat":43.28856,"lon":5.39321,"is_reserved":false,"is_disabled":false,"rental_uris":{"android":"levelo://app?vid=540733a3-d7a4-4ea1-8f30-4f5cb70e6f87","ios":"levelo://app?vid=540733a3-d7a4-4ea1-8f30-4f5cb70e6f87"},"vehicle_type_id":"4","last_reported":1750623069,"current_range_meters":17600,"station_id":"ce4bh2p2rcd13ifvqdi0","pricing_plan_id":"cebpf4jnsgd1na2vs0mg"},{"bike_id":"4137cb76-5bdd-4523-bafb-393e2350515b","system_id":"levelo_inurba_marseille","lat":43.2885,"lon":5.39303,"is_reserved":false,"is_disabled":false,"rental_uris":{"android":"levelo://app?vid=4137cb76-5bdd-4523-bafb-393e2350515b","ios":"levelo://app?vid=4137cb76-5bdd-4523-bafb-393e2350515b"},"vehicle_type_id":"4","last_reported":1750623069,"current_range_meters":17600,"station_id":"ce4bh2p2rcd13ifvqdi0","pricing_plan_id":"cebpf4jnsgd1na2vs0mg"},{"bike_id":"a050ba08-f8bf-4186-a346-d2cc0171bc77","system_id":"levelo_inurba_marseille","lat":43.26572,"lon":5.38999,"is_reserved":false,"is_disabled":false,"rental_uris":{"android":"levelo://app?vid=a050ba08-f8bf-4186-a346-d2cc0171bc77","ios":"levelo://app?vid=a050ba08-f8bf-4186-a346-d2cc0171bc77"},"vehicle_type_id":"4","last_reported":1750623069,"current_range_meters":17600,"station_id":"ce4bhe12rcd13ifvqf30","pricing_plan_id":"cebpf4jnsgd1na2vs0mg"},{"bike_id":"919117ec-dfa3-49b0-a386-dae65a4f6981","system_id":"levelo_inurba_marseille","lat":43.278097,"lon":5.407097,"is_reserved":false,"is_disabled":false,"rental_uris":{"android":"levelo://app?vid=919117ec-dfa3-49b0-a386-dae65a4f6981","ios":"levelo://app?vid=919117ec-dfa3-49b0-a386-dae65a4f6981"},"vehicle_type_id":"4","last_reported":1750623069,"current_range_meters":17600,"station_id":"ce4bhnh2rcd13ifvqgtg","pricing_plan_id":"cebpf4jnsgd1na2vs0mg"},{"bike_id":"e3c98ea9-5ede-4f57-8f11-2e25041a9538","system_id":"levelo_inurba_marseille","lat":43.29898,"lon":5.43649,"is_reserved":false,"is_disabled":false,"rental_uris":{"android":"levelo://app?vid=e3c98ea9-5ede-4f57-8f11-2e25041a9538","ios":"levelo://app?vid=e3c98ea9-5ede-4f57-8f11-2e25041a9538"},"vehicle_type_id":"4","last_reported":1750623069,"current_range_meters":17600,"station_id":"ce4bhpp2rcd13ifvqhfg","pricing_plan_id":"cebpf4jnsgd1na2vs0mg"},{"bike_id":"626ac495-54ad-41f0-b536-ada31824cc51","system_id":"levelo_inurba_marseille","lat":43.31989,"lon":5.381344,"is_reserved":false,"is_disabled":false,"rental_uris":{"android":"levelo://app?vid=626ac495-54ad-41f0-b536-ada31824cc51","ios":"levelo://app?vid=626ac495-54ad-41f0-b536-ada31824cc51"},"vehicle_type_id":"4","last_reported":1750623069,"current_range_meters":17600,"station_id":"ce4bhr12rcd13ifvqhpg","pricing_plan_id":"cebpf4jnsgd1na2vs0mg"},{"bike_id":"8a87d231-cf36-4b92-8127-9e9e3ca8ca4b","system_id":"levelo_inurba_marseille","lat":43.29213,"lon":5.3596,"is_reserved":false,"is_disabled":false,"rental_uris":{"android":"levelo://app?vid=8a87d231-cf36-4b92-8127-9e9e3ca8ca4b","ios":"levelo://app?vid=8a87d231-cf36-4b92-8127-9e9e3ca8ca4b"},"vehicle_type_id":"4","last_reported":1750623069,"current_range_meters":18000,"station_id":"","pricing_plan_id":"cebpf4jnsgd1na2vs0mg"},{"bike_id":"05e22e9f-4625-4402-8009-925d4757000d","system_id":"levelo_inurba_marseille","lat":43.30898,"lon":5.39648,"is_reserved":false,"is_disabled":false,"rental_uris":{"android":"levelo://app?vid=05e22e9f-4625-4402-8009-925d4757000d","ios":"levelo://app?vid=05e22e9f-4625-4402-8009-925d4757000d"},"vehicle_type_id":"4","last_reported":1750623069,"current_range_meters":18000,"station_id":"ce4bh012rcd13ifvqcv0","pricing_plan_id":"cebpf4jnsgd1na2vs0mg"},{"bike_id":"33824772-1575-494a-9f97-0f8b6a247e30","system_id":"levelo_inurba_marseille","lat":43.25113,"lon":5.40314,"is_reserved":false,"is_disabled":false,"rental_uris":{"android":"levelo://app?vid=33824772-1575-494a-9f97-0f8b6a247e30","ios":"levelo://app?vid=33824772-1575-494a-9f97-0f8b6a247e30"},"vehicle_type_id":"4","last_reported":1750623069,"current_range_meters":18000,"station_id":"ce4bhlh2rcd13ifvqgig","pricing_plan_id":"cebpf4jnsgd1na2vs0mg"},{"bike_id":"9e96d4ae-1656-4a29-a889-2e6689d3616d","system_id":"levelo_inurba_marseille","lat":43.29364,"lon":5.37838,"is_reserved":false,"is_disabled":false,"rental_uris":{"android":"levelo://app?vid=9e96d4ae-1656-4a29-a889-2e6689d3616d","ios":"levelo://app?vid=9e96d4ae-1656-4a29-a889-2e6689d3616d"},"vehicle_type_id":"4","last_reported":1750623069,"current_range_meters":18800,"station_id":"ce4bgjh2rcd13ifvqbf0","pricing_plan_id":"cebpf4jnsgd1na2vs0mg"},{"bike_id":"b9769865-6587-4841-88e2-1e945d8f3bdb","system_id":"levelo_inurba_marseille","lat":43.31698,"lon":5.37751,"is_reserved":false,"is_disabled":false,"rental_uris":{"android":"levelo://app?vid=b9769865-6587-4841-88e2-1e945d8f3bdb","ios":"levelo://app?vid=b9769865-6587-4841-88e2-1e945d8f3bdb"},"vehicle_type_id":"4","last_reported":1750623069,"current_range_meters":18800,"station_id":"ce4bgth2rcd13ifvqch0","pricing_plan_id":"cebpf4jnsgd1na2vs0mg"},{"bike_id":"fd5421c9-ec18-4c16-8b19-2d9418526f71","system_id":"levelo_inurba_marseille","lat":43.288463,"lon":5.388052,"is_reserved":false,"is_disabled":false,"rental_uris":{"android":"levelo://app?vid=fd5421c9-ec18-4c16-8b19-2d9418526f71","ios":"levelo://app?vid=fd5421c9-ec18-4c16-8b19-2d9418526f71"},"vehicle_type_id":"4","last_reported":1750623069,"current_range_meters":18800,"station_id":"ce4bh4p2rcd13ifvqe0g","pricing_plan_id":"cebpf4jnsgd1na2vs0mg"},{"bike_id":"3f5feefb-afac-4fae-bf96-2312f50939a4","system_id":"levelo_inurba_marseille","lat":43.2119,"lon":5.35069,"is_reserved":false,"is_disabled":false,"rental_uris":{"android":"levelo://app?vid=3f5feefb-afac-4fae-bf96-2312f50939a4","ios":"levelo://app?vid=3f5feefb-afac-4fae-bf96-2312f50939a4"},"vehicle_type_id":"4","last_reported":1750623069,"current_range_meters":18800,"station_id":"st_cvj6sg6p6f1abm77japg","pricing_plan_id":"cebpf4jnsgd1na2vs0mg"},{"bike_id":"3d9803ef-16c2-4bc9-8458-3ff5c135c924","system_id":"levelo_inurba_marseille","lat":43.29534,"lon":5.38531,"is_reserved":false,"is_disabled":false,"rental_uris":{"android":"levelo://app?vid=3d9803ef-16c2-4bc9-8458-3ff5c135c924","ios":"levelo://app?vid=3d9803ef-16c2-4bc9-8458-3ff5c135c924"},"vehicle_type_id":"4","last_reported":1750623069,"current_range_meters":19200,"station_id":"ce4bgih2rcd13ifvqba0","pricing_plan_id":"cebpf4jnsgd1na2vs0mg"},{"bike_id":"a112428a-f5d6-40bd-ab42-8b50fb52b183","system_id":"levelo_inurba_marseille","lat":43.28921,"lon":5.38375,"is_reserved":false,"is_disabled":false,"rental_uris":{"android":"levelo://app?vid=a112428a-f5d6-40bd-ab42-8b50fb52b183","ios":"levelo://app?vid=a112428a-f5d6-40bd-ab42-8b50fb52b183"},"vehicle_type_id":"4","last_reported":1750623069,"current_range_meters":19200,"station_id":"ce4bh612rcd13ifvqe6g","pricing_plan_id":"cebpf4jnsgd1na2vs0mg"},{"bike_id":"d3b4acd1-475d-43e1-bb04-3b5b22c96457","system_id":"levelo_inurba_marseille","lat":43.29899,"lon":5.43663,"is_reserved":false,"is_disabled":false,"rental_uris":{"android":"levelo://app?vid=d3b4acd1-475d-43e1-bb04-3b5b22c96457","ios":"levelo://app?vid=d3b4acd1-475d-43e1-bb04-3b5b22c96457"},"vehicle_type_id":"4","last_reported":1750623069,"current_range_meters":19200,"station_id":"ce4bhpp2rcd13ifvqhfg","pricing_plan_id":"cebpf4jnsgd1na2vs0mg"},{"bike_id":"3225a87e-50f2-404f-adf9-8c9e8acc92fd","system_id":"levelo_inurba_marseille","lat":43.32042,"lon":5.41554,"is_reserved":false,"is_disabled":false,"rental_uris":{"android":"levelo://app?vid=3225a87e-50f2-404f-adf9-8c9e8acc92fd","ios":"levelo://app?vid=3225a87e-50f2-404f-adf9-8c9e8acc92fd"},"vehicle_type_id":"4","last_reported":1750623069,"current_range_meters":19200,"station_id":"ce4bhq92rcd13ifvqhkg","pricing_plan_id":"cebpf4jnsgd1na2vs0mg"},{"bike_id":"d0be259b-be7e-4bb6-a7b3-9a6146208036","system_id":"levelo_inurba_marseille","lat":43.29786,"lon":5.39326,"is_reserved":false,"is_disabled":false,"rental_uris":{"android":"levelo://app?vid=d0be259b-be7e-4bb6-a7b3-9a6146208036","ios":"levelo://app?vid=d0be259b-be7e-4bb6-a7b3-9a6146208036"},"vehicle_type_id":"4","last_reported":1750623069,"current_range_meters":19200,"station_id":"chh1huq6cuj3fo74tm60","pricing_plan_id":"cebpf4jnsgd1na2vs0mg"},{"bike_id":"0783249e-9f70-464a-b769-adb77239d765","system_id":"levelo_inurba_marseille","lat":43.21185,"lon":5.35069,"is_reserved":false,"is_disabled":false,"rental_uris":{"android":"levelo://app?vid=0783249e-9f70-464a-b769-adb77239d765","ios":"levelo://app?vid=0783249e-9f70-464a-b769-adb77239d765"},"vehicle_type_id":"4","last_reported":1750623069,"current_range_meters":19200,"station_id":"st_cvj6sg6p6f1abm77japg","pricing_plan_id":"cebpf4jnsgd1na2vs0mg"},{"bike_id":"82448f7a-4113-4a09-9244-84136dc1b898","system_id":"levelo_inurba_marseille","lat":43.29568,"lon":5.39941,"is_reserved":false,"is_disabled":false,"rental_uris":{"android":"levelo://app?vid=82448f7a-4113-4a09-9244-84136dc1b898","ios":"levelo://app?vid=82448f7a-4113-4a09-9244-84136dc1b898"},"vehicle_type_id":"4","last_reported":1750623069,"current_range_meters":19600,"station_id":"ce4bh312rcd13ifvqdj0","pricing_plan_id":"cebpf4jnsgd1na2vs0mg"},{"bike_id":"1ebd4062-42cf-48fe-928e-21887664addf","system_id":"levelo_inurba_marseille","lat":43.29017,"lon":5.38129,"is_reserved":false,"is_disabled":false,"rental_uris":{"android":"levelo://app?vid=1ebd4062-42cf-48fe-928e-21887664addf","ios":"levelo://app?vid=1ebd4062-42cf-48fe-928e-21887664addf"},"vehicle_type_id":"4","last_reported":1750623069,"current_range_meters":19600,"station_id":"ce4bh4p2rcd13ifvqe1g","pricing_plan_id":"cebpf4jnsgd1na2vs0mg"},{"bike_id":"c3b67a3c-755c-43da-b7f2-a4d8a045bf9d","system_id":"levelo_inurba_marseille","lat":43.21197,"lon":5.35069,"is_reserved":false,"is_disabled":false,"rental_uris":{"android":"levelo://app?vid=c3b67a3c-755c-43da-b7f2-a4d8a045bf9d","ios":"levelo://app?vid=c3b67a3c-755c-43da-b7f2-a4d8a045bf9d"},"vehicle_type_id":"4","last_reported":1750623069,"current_range_meters":19600,"station_id":"st_cvj6sg6p6f1abm77japg","pricing_plan_id":"cebpf4jnsgd1na2vs0mg"},{"bike_id":"ff359b06-e82b-4518-b602-f9c62162a27d","system_id":"levelo_inurba_marseille","lat":43.21207,"lon":5.35053,"is_reserved":false,"is_disabled":false,"rental_uris":{"android":"levelo://app?vid=ff359b06-e82b-4518-b602-f9c62162a27d","ios":"levelo://app?vid=ff359b06-e82b-4518-b602-f9c62162a27d"},"vehicle_type_id":"4","last_reported":1750623069,"current_range_meters":19600,"station_id":"st_cvj6sg6p6f1abm77japg","pricing_plan_id":"cebpf4jnsgd1na2vs0mg"},{"bike_id":"66fe660e-bbbe-4cd1-b5fb-9344c71cb66e","system_id":"levelo_inurba_marseille","lat":43.21194,"lon":5.35072,"is_reserved":false,"is_disabled":false,"rental_uris":{"android":"levelo://app?vid=66fe660e-bbbe-4cd1-b5fb-9344c71cb66e","ios":"levelo://app?vid=66fe660e-bbbe-4cd1-b5fb-9344c71cb66e"},"vehicle_type_id":"4","last_reported":1750623069,"current_range_meters":19600,"station_id":"st_cvj6sg6p6f1abm77japg","pricing_plan_id":"cebpf4jnsgd1na2vs0mg"},{"bike_id":"7bd7ab6e-0284-4340-acb8-397b5bd3427c","system_id":"levelo_inurba_marseille","lat":43.32005,"lon":5.36834,"is_reserved":false,"is_disabled":false,"rental_uris":{"android":"levelo://app?vid=7bd7ab6e-0284-4340-acb8-397b5bd3427c","ios":"levelo://app?vid=7bd7ab6e-0284-4340-acb8-397b5bd3427c"},"vehicle_type_id":"4","last_reported":1750623069,"current_range_meters":20000,"station_id":"","pricing_plan_id":"cebpf4jnsgd1na2vs0mg"},{"bike_id":"88d8d507-27ba-4ebe-967f-7a3c51dff882","system_id":"levelo_inurba_marseille","lat":43.31277,"lon":5.40146,"is_reserved":false,"is_disabled":false,"rental_uris":{"android":"levelo://app?vid=88d8d507-27ba-4ebe-967f-7a3c51dff882","ios":"levelo://app?vid=88d8d507-27ba-4ebe-967f-7a3c51dff882"},"vehicle_type_id":"4","last_reported":1750623069,"current_range_meters":20000,"station_id":"ce4bh092rcd13ifvqd30","pricing_plan_id":"cebpf4jnsgd1na2vs0mg"},{"bike_id":"b8fe5a54-8a05-492a-b9ad-d602fad243a1","system_id":"levelo_inurba_marseille","lat":43.29035,"lon":5.39938,"is_reserved":false,"is_disabled":false,"rental_uris":{"android":"levelo://app?vid=b8fe5a54-8a05-492a-b9ad-d602fad243a1","ios":"levelo://app?vid=b8fe5a54-8a05-492a-b9ad-d602fad243a1"},"vehicle_type_id":"4","last_reported":1750623069,"current_range_meters":20000,"station_id":"ce4bh392rcd13ifvqdm0","pricing_plan_id":"cebpf4jnsgd1na2vs0mg"},{"bike_id":"3fc2129e-2a9f-4217-9974-da22ce4bc1ad","system_id":"levelo_inurba_marseille","lat":43.28936,"lon":5.39627,"is_reserved":false,"is_disabled":false,"rental_uris":{"android":"levelo://app?vid=3fc2129e-2a9f-4217-9974-da22ce4bc1ad","ios":"levelo://app?vid=3fc2129e-2a9f-4217-9974-da22ce4bc1ad"},"vehicle_type_id":"4","last_reported":1750623069,"current_range_meters":20000,"station_id":"ce4bh3h2rcd13ifvqdn0","pricing_plan_id":"cebpf4jnsgd1na2vs0mg"},{"bike_id":"63396fc2-0e78-415d-87f3-f93f5ec23ae2","system_id":"levelo_inurba_marseille","lat":43.29431,"lon":5.39756,"is_reserved":false,"is_disabled":false,"rental_uris":{"android":"levelo://app?vid=63396fc2-0e78-415d-87f3-f93f5ec23ae2","ios":"levelo://app?vid=63396fc2-0e78-415d-87f3-f93f5ec23ae2"},"vehicle_type_id":"4","last_reported":1750623069,"current_range_meters":20000,"station_id":"ce4bh3h2rcd13ifvqdo0","pricing_plan_id":"cebpf4jnsgd1na2vs0mg"},{"bike_id":"056c38c4-f832-4c0e-a32f-b9a8a2f0b04e","system_id":"levelo_inurba_marseille","lat":43.28406,"lon":5.37521,"is_reserved":false,"is_disabled":false,"rental_uris":{"android":"levelo://app?vid=056c38c4-f832-4c0e-a32f-b9a8a2f0b04e","ios":"levelo://app?vid=056c38c4-f832-4c0e-a32f-b9a8a2f0b04e"},"vehicle_type_id":"4","last_reported":1750623069,"current_range_meters":20000,"station_id":"ce4bh412rcd13ifvqds0","pricing_plan_id":"cebpf4jnsgd1na2vs0mg"},{"bike_id":"545f2fb5-5e4e-4fe1-810c-4d6931357800","system_id":"levelo_inurba_marseille","lat":43.25089,"lon":5.39521,"is_reserved":false,"is_disabled":false,"rental_uris":{"android":"levelo://app?vid=545f2fb5-5e4e-4fe1-810c-4d6931357800","ios":"levelo://app?vid=545f2fb5-5e4e-4fe1-810c-4d6931357800"},"vehicle_type_id":"4","last_reported":1750623069,"current_range_meters":20000,"station_id":"ce4bhm12rcd13ifvqgkg","pricing_plan_id":"cebpf4jnsgd1na2vs0mg"},{"bike_id":"801c2515-e061-4ec1-b305-97c3a566a070","system_id":"levelo_inurba_marseille","lat":43.21195,"lon":5.35074,"is_reserved":false,"is_disabled":false,"rental_uris":{"android":"levelo://app?vid=801c2515-e061-4ec1-b305-97c3a566a070","ios":"levelo://app?vid=801c2515-e061-4ec1-b305-97c3a566a070"},"vehicle_type_id":"4","last_reported":1750623069,"current_range_meters":20000,"station_id":"st_cvj6sg6p6f1abm77japg","pricing_plan_id":"cebpf4jnsgd1na2vs0mg"},{"bike_id":"ebc75b93-ffdb-4a09-8639-55e818852ec6","system_id":"levelo_inurba_marseille","lat":43.30326,"lon":5.40429,"is_reserved":false,"is_disabled":false,"rental_uris":{"android":"levelo://app?vid=ebc75b93-ffdb-4a09-8639-55e818852ec6","ios":"levelo://app?vid=ebc75b93-ffdb-4a09-8639-55e818852ec6"},"vehicle_type_id":"4","last_reported":1750623069,"current_range_meters":20400,"station_id":"ce4bh012rcd13ifvqd10","pricing_plan_id":"cebpf4jnsgd1na2vs0mg"},{"bike_id":"1369d592-f3e6-4790-a251-b84b6654be44","system_id":"levelo_inurba_marseille","lat":43.34141,"lon":5.40906,"is_reserved":false,"is_disabled":false,"rental_uris":{"android":"levelo://app?vid=1369d592-f3e6-4790-a251-b84b6654be44","ios":"levelo://app?vid=1369d592-f3e6-4790-a251-b84b6654be44"},"vehicle_type_id":"4","last_reported":1750623069,"current_range_meters":20400,"station_id":"ce4bhqh2rcd13ifvqhlg","pricing_plan_id":"cebpf4jnsgd1na2vs0mg"},{"bike_id":"1b6b7481-7c7e-4e18-aa7a-a9c9d3ff263f","system_id":"levelo_inurba_marseille","lat":43.25727,"lon":5.41104,"is_reserved":false,"is_disabled":false,"rental_uris":{"android":"levelo://app?vid=1b6b7481-7c7e-4e18-aa7a-a9c9d3ff263f","ios":"levelo://app?vid=1b6b7481-7c7e-4e18-aa7a-a9c9d3ff263f"},"vehicle_type_id":"4","last_reported":1750623069,"current_range_meters":20800,"station_id":"ce4bhkp2rcd13ifvqgd0","pricing_plan_id":"cebpf4jnsgd1na2vs0mg"},{"bike_id":"6f4563aa-8d8b-4957-8a70-f2d305ec13ac","system_id":"levelo_inurba_marseille","lat":43.31713,"lon":5.43708,"is_reserved":false,"is_disabled":false,"rental_uris":{"android":"levelo://app?vid=6f4563aa-8d8b-4957-8a70-f2d305ec13ac","ios":"levelo://app?vid=6f4563aa-8d8b-4957-8a70-f2d305ec13ac"},"vehicle_type_id":"4","last_reported":1750623069,"current_range_meters":20800,"station_id":"ce4bhp92rcd13ifvqhcg","pricing_plan_id":"cebpf4jnsgd1na2vs0mg"},{"bike_id":"41303162-9cca-494f-94f8-c5c6a60ca008","system_id":"levelo_inurba_marseille","lat":43.32658,"lon":5.41003,"is_reserved":false,"is_disabled":false,"rental_uris":{"android":"levelo://app?vid=41303162-9cca-494f-94f8-c5c6a60ca008","ios":"levelo://app?vid=41303162-9cca-494f-94f8-c5c6a60ca008"},"vehicle_type_id":"4","last_reported":1750623069,"current_range_meters":20800,"station_id":"ce4bhpp2rcd13ifvqhgg","pricing_plan_id":"cebpf4jnsgd1na2vs0mg"},{"bike_id":"606c2064-97a8-4c3b-b7a5-01001674df3a","system_id":"levelo_inurba_marseille","lat":43.32054,"lon":5.41549,"is_reserved":false,"is_disabled":false,"rental_uris":{"android":"levelo://app?vid=606c2064-97a8-4c3b-b7a5-01001674df3a","ios":"levelo://app?vid=606c2064-97a8-4c3b-b7a5-01001674df3a"},"vehicle_type_id":"4","last_reported":1750623069,"current_range_meters":20800,"station_id":"ce4bhq92rcd13ifvqhkg","pricing_plan_id":"cebpf4jnsgd1na2vs0mg"},{"bike_id":"32614d9e-46c8-46cd-80fd-42222b78f4df","system_id":"levelo_inurba_marseille","lat":43.29531,"lon":5.38546,"is_reserved":false,"is_disabled":false,"rental_uris":{"android":"levelo://app?vid=32614d9e-46c8-46cd-80fd-42222b78f4df","ios":"levelo://app?vid=32614d9e-46c8-46cd-80fd-42222b78f4df"},"vehicle_type_id":"4","last_reported":1750623069,"current_range_meters":21600,"station_id":"ce4bgih2rcd13ifvqba0","pricing_plan_id":"cebpf4jnsgd1na2vs0mg"},{"bike_id":"03daf052-a439-481c-a869-060bd7798ff7","system_id":"levelo_inurba_marseille","lat":43.29021,"lon":5.3864,"is_reserved":false,"is_disabled":false,"rental_uris":{"android":"levelo://app?vid=03daf052-a439-481c-a869-060bd7798ff7","ios":"levelo://app?vid=03daf052-a439-481c-a869-060bd7798ff7"},"vehicle_type_id":"4","last_reported":1750623069,"current_range_meters":21600,"station_id":"ce4bh4p2rcd13ifvqe0g","pricing_plan_id":"cebpf4jnsgd1na2vs0mg"},{"bike_id":"dc820804-7243-4a5c-a3f2-42257aedca33","system_id":"levelo_inurba_marseille","lat":43.29036,"lon":5.37562,"is_reserved":false,"is_disabled":false,"rental_uris":{"android":"levelo://app?vid=dc820804-7243-4a5c-a3f2-42257aedca33","ios":"levelo://app?vid=dc820804-7243-4a5c-a3f2-42257aedca33"},"vehicle_type_id":"4","last_reported":1750623069,"current_range_meters":21600,"station_id":"ce4bh692rcd13ifvqe90","pricing_plan_id":"cebpf4jnsgd1na2vs0mg"},{"bike_id":"7f645385-71ee-4fab-9b34-7befb56d29a6","system_id":"levelo_inurba_marseille","lat":43.21189,"lon":5.35076,"is_reserved":false,"is_disabled":false,"rental_uris":{"android":"levelo://app?vid=7f645385-71ee-4fab-9b34-7befb56d29a6","ios":"levelo://app?vid=7f645385-71ee-4fab-9b34-7befb56d29a6"},"vehicle_type_id":"4","last_reported":1750623069,"current_range_meters":21600,"station_id":"st_cvj6sg6p6f1abm77japg","pricing_plan_id":"cebpf4jnsgd1na2vs0mg"},{"bike_id":"54444b8f-d57a-484e-9745-51c29014a1a2","system_id":"levelo_inurba_marseille","lat":43.2954,"lon":5.38541,"is_reserved":false,"is_disabled":false,"rental_uris":{"android":"levelo://app?vid=54444b8f-d57a-484e-9745-51c29014a1a2","ios":"levelo://app?vid=54444b8f-d57a-484e-9745-51c29014a1a2"},"vehicle_type_id":"4","last_reported":1750623069,"current_range_meters":22000,"station_id":"ce4bgih2rcd13ifvqba0","pricing_plan_id":"cebpf4jnsgd1na2vs0mg"},{"bike_id":"5a3248ea-8295-4032-80ae-4f05f60d3d01","system_id":"levelo_inurba_marseille","lat":43.30326,"lon":5.40455,"is_reserved":false,"is_disabled":false,"rental_uris":{"android":"levelo://app?vid=5a3248ea-8295-4032-80ae-4f05f60d3d01","ios":"levelo://app?vid=5a3248ea-8295-4032-80ae-4f05f60d3d01"},"vehicle_type_id":"4","last_reported":1750623069,"current_range_meters":22000,"station_id":"ce4bh012rcd13ifvqd10","pricing_plan_id":"cebpf4jnsgd1na2vs0mg"},{"bike_id":"965f18de-bc60-4a90-ace1-47f700cdeb49","system_id":"levelo_inurba_marseille","lat":43.24064,"lon":5.37762,"is_reserved":false,"is_disabled":false,"rental_uris":{"android":"levelo://app?vid=965f18de-bc60-4a90-ace1-47f700cdeb49","ios":"levelo://app?vid=965f18de-bc60-4a90-ace1-47f700cdeb49"},"vehicle_type_id":"4","last_reported":1750623069,"current_range_meters":22000,"station_id":"ce4bhnp2rcd13ifvqgvg","pricing_plan_id":"cebpf4jnsgd1na2vs0mg"},{"bike_id":"75bd9e47-d8b8-4475-9785-a5841d04b334","system_id":"levelo_inurba_marseille","lat":43.30533,"lon":5.38426,"is_reserved":false,"is_disabled":false,"rental_uris":{"android":"levelo://app?vid=75bd9e47-d8b8-4475-9785-a5841d04b334","ios":"levelo://app?vid=75bd9e47-d8b8-4475-9785-a5841d04b334"},"vehicle_type_id":"4","last_reported":1750623069,"current_range_meters":22400,"station_id":"ce4bgg92rcd13ifvqb30","pricing_plan_id":"cebpf4jnsgd1na2vs0mg"},{"bike_id":"8d215494-dadc-4ea8-830e-4bbedc0b26d9","system_id":"levelo_inurba_marseille","lat":43.30257,"lon":5.40059,"is_reserved":false,"is_disabled":false,"rental_uris":{"android":"levelo://app?vid=8d215494-dadc-4ea8-830e-4bbedc0b26d9","ios":"levelo://app?vid=8d215494-dadc-4ea8-830e-4bbedc0b26d9"},"vehicle_type_id":"4","last_reported":1750623069,"current_range_meters":22400,"station_id":"ce4bgvh2rcd13ifvqcs0","pricing_plan_id":"cebpf4jnsgd1na2vs0mg"},{"bike_id":"7745839b-b2dd-407a-9360-a232cb4db7cd","system_id":"levelo_inurba_marseille","lat":43.29256,"lon":5.4088,"is_reserved":false,"is_disabled":false,"rental_uris":{"android":"levelo://app?vid=7745839b-b2dd-407a-9360-a232cb4db7cd","ios":"levelo://app?vid=7745839b-b2dd-407a-9360-a232cb4db7cd"},"vehicle_type_id":"4","last_reported":1750623069,"current_range_meters":22400,"station_id":"ce4bh192rcd13ifvqdc0","pricing_plan_id":"cebpf4jnsgd1na2vs0mg"},{"bike_id":"7141c2fd-8f15-41d6-8b7a-4a51a99beecb","system_id":"levelo_inurba_marseille","lat":43.28158,"lon":5.42642,"is_reserved":false,"is_disabled":false,"rental_uris":{"android":"levelo://app?vid=7141c2fd-8f15-41d6-8b7a-4a51a99beecb","ios":"levelo://app?vid=7141c2fd-8f15-41d6-8b7a-4a51a99beecb"},"vehicle_type_id":"4","last_reported":1750623069,"current_range_meters":22400,"station_id":"ce4bhnh2rcd13ifvqgug","pricing_plan_id":"cebpf4jnsgd1na2vs0mg"},{"bike_id":"6cee847f-159f-45ce-b91d-8b69d37ae043","system_id":"levelo_inurba_marseille","lat":43.337444,"lon":5.374475,"is_reserved":false,"is_disabled":false,"rental_uris":{"android":"levelo://app?vid=6cee847f-159f-45ce-b91d-8b69d37ae043","ios":"levelo://app?vid=6cee847f-159f-45ce-b91d-8b69d37ae043"},"vehicle_type_id":"4","last_reported":1750623069,"current_range_meters":22800,"station_id":"","pricing_plan_id":"cebpf4jnsgd1na2vs0mg"},{"bike_id":"1b7c832d-970e-4e20-b020-e7c23209ab06","system_id":"levelo_inurba_marseille","lat":43.29267,"lon":5.37627,"is_reserved":false,"is_disabled":false,"rental_uris":{"android":"levelo://app?vid=1b7c832d-970e-4e20-b020-e7c23209ab06","ios":"levelo://app?vid=1b7c832d-970e-4e20-b020-e7c23209ab06"},"vehicle_type_id":"4","last_reported":1750623069,"current_range_meters":22800,"station_id":"ce4bgi12rcd13ifvqb80","pricing_plan_id":"cebpf4jnsgd1na2vs0mg"},{"bike_id":"3796cd51-f0c6-46a4-b7e7-48eea01d9e62","system_id":"levelo_inurba_marseille","lat":43.29522,"lon":5.39397,"is_reserved":false,"is_disabled":false,"rental_uris":{"android":"levelo://app?vid=3796cd51-f0c6-46a4-b7e7-48eea01d9e62","ios":"levelo://app?vid=3796cd51-f0c6-46a4-b7e7-48eea01d9e62"},"vehicle_type_id":"4","last_reported":1750623069,"current_range_meters":22800,"station_id":"ce4bh292rcd13ifvqdf0","pricing_plan_id":"cebpf4jnsgd1na2vs0mg"},{"bike_id":"88cbc16b-a55d-4b55-998a-1a65e17bc0dc","system_id":"levelo_inurba_marseille","lat":43.28403,"lon":5.37504,"is_reserved":false,"is_disabled":false,"rental_uris":{"android":"levelo://app?vid=88cbc16b-a55d-4b55-998a-1a65e17bc0dc","ios":"levelo://app?vid=88cbc16b-a55d-4b55-998a-1a65e17bc0dc"},"vehicle_type_id":"4","last_reported":1750623069,"current_range_meters":22800,"station_id":"ce4bh412rcd13ifvqds0","pricing_plan_id":"cebpf4jnsgd1na2vs0mg"},{"bike_id":"cc55cce9-0644-42a9-af84-b6cad4d04f14","system_id":"levelo_inurba_marseille","lat":43.341433,"lon":5.408997,"is_reserved":false,"is_disabled":false,"rental_uris":{"android":"levelo://app?vid=cc55cce9-0644-42a9-af84-b6cad4d04f14","ios":"levelo://app?vid=cc55cce9-0644-42a9-af84-b6cad4d04f14"},"vehicle_type_id":"4","last_reported":1750623069,"current_range_meters":22800,"station_id":"ce4bhqh2rcd13ifvqhlg","pricing_plan_id":"cebpf4jnsgd1na2vs0mg"},{"bike_id":"4f0a96cc-d096-451e-82d4-fd58f0c124a0","system_id":"levelo_inurba_marseille","lat":43.31218,"lon":5.36841,"is_reserved":false,"is_disabled":false,"rental_uris":{"android":"levelo://app?vid=4f0a96cc-d096-451e-82d4-fd58f0c124a0","ios":"levelo://app?vid=4f0a96cc-d096-451e-82d4-fd58f0c124a0"},"vehicle_type_id":"4","last_reported":1750623069,"current_range_meters":23200,"station_id":"ce4bgl92rcd13ifvqbq0","pricing_plan_id":"cebpf4jnsgd1na2vs0mg"},{"bike_id":"9c3caf14-a6df-4a7d-9db2-2aa2723ea924","system_id":"levelo_inurba_marseille","lat":43.28936,"lon":5.39625,"is_reserved":false,"is_disabled":false,"rental_uris":{"android":"levelo://app?vid=9c3caf14-a6df-4a7d-9db2-2aa2723ea924","ios":"levelo://app?vid=9c3caf14-a6df-4a7d-9db2-2aa2723ea924"},"vehicle_type_id":"4","last_reported":1750623069,"current_range_meters":23200,"station_id":"ce4bh3h2rcd13ifvqdn0","pricing_plan_id":"cebpf4jnsgd1na2vs0mg"},{"bike_id":"78a7826c-cce2-4fa0-85fe-7e5ba10a1c41","system_id":"levelo_inurba_marseille","lat":43.29195,"lon":5.39324,"is_reserved":false,"is_disabled":false,"rental_uris":{"android":"levelo://app?vid=78a7826c-cce2-4fa0-85fe-7e5ba10a1c41","ios":"levelo://app?vid=78a7826c-cce2-4fa0-85fe-7e5ba10a1c41"},"vehicle_type_id":"4","last_reported":1750623069,"current_range_meters":24000,"station_id":"ce4bh192rcd13ifvqdd0","pricing_plan_id":"cebpf4jnsgd1na2vs0mg"},{"bike_id":"a2943dfb-41a3-4789-9e2f-57129c7aba66","system_id":"levelo_inurba_marseille","lat":43.284,"lon":5.37508,"is_reserved":false,"is_disabled":false,"rental_uris":{"android":"levelo://app?vid=a2943dfb-41a3-4789-9e2f-57129c7aba66","ios":"levelo://app?vid=a2943dfb-41a3-4789-9e2f-57129c7aba66"},"vehicle_type_id":"4","last_reported":1750623069,"current_range_meters":24000,"station_id":"ce4bh412rcd13ifvqds0","pricing_plan_id":"cebpf4jnsgd1na2vs0mg"},{"bike_id":"a2aa56cd-db50-4baf-814b-3885c3184552","system_id":"levelo_inurba_marseille","lat":43.26228,"lon":5.40451,"is_reserved":false,"is_disabled":false,"rental_uris":{"android":"levelo://app?vid=a2aa56cd-db50-4baf-814b-3885c3184552","ios":"levelo://app?vid=a2aa56cd-db50-4baf-814b-3885c3184552"},"vehicle_type_id":"4","last_reported":1750623069,"current_range_meters":24000,"station_id":"ce4bhmh2rcd13ifvqgmg","pricing_plan_id":"cebpf4jnsgd1na2vs0mg"},{"bike_id":"4220f526-8daf-4545-85ea-612064ddbf51","system_id":"levelo_inurba_marseille","lat":43.2944,"lon":5.39745,"is_reserved":false,"is_disabled":false,"rental_uris":{"android":"levelo://app?vid=4220f526-8daf-4545-85ea-612064ddbf51","ios":"levelo://app?vid=4220f526-8daf-4545-85ea-612064ddbf51"},"vehicle_type_id":"4","last_reported":1750623069,"current_range_meters":24400,"station_id":"ce4bh3h2rcd13ifvqdo0","pricing_plan_id":"cebpf4jnsgd1na2vs0mg"},{"bike_id":"8db14248-216b-4336-b19a-1d33401179f3","system_id":"levelo_inurba_marseille","lat":43.29015,"lon":5.38124,"is_reserved":false,"is_disabled":false,"rental_uris":{"android":"levelo://app?vid=8db14248-216b-4336-b19a-1d33401179f3","ios":"levelo://app?vid=8db14248-216b-4336-b19a-1d33401179f3"},"vehicle_type_id":"4","last_reported":1750623069,"current_range_meters":24400,"station_id":"ce4bh4p2rcd13ifvqe1g","pricing_plan_id":"cebpf4jnsgd1na2vs0mg"},{"bike_id":"1101e9eb-0609-4645-b829-bcce043272ea","system_id":"levelo_inurba_marseille","lat":43.29264,"lon":5.38444,"is_reserved":false,"is_disabled":false,"rental_uris":{"android":"levelo://app?vid=1101e9eb-0609-4645-b829-bcce043272ea","ios":"levelo://app?vid=1101e9eb-0609-4645-b829-bcce043272ea"},"vehicle_type_id":"4","last_reported":1750623069,"current_range_meters":24400,"station_id":"ce4bh692rcd13ifvqea0","pricing_plan_id":"cebpf4jnsgd1na2vs0mg"},{"bike_id":"ca8d97b3-72b3-41de-9cab-1288a40e1671","system_id":"levelo_inurba_marseille","lat":43.27492,"lon":5.42453,"is_reserved":false,"is_disabled":false,"rental_uris":{"android":"levelo://app?vid=ca8d97b3-72b3-41de-9cab-1288a40e1671","ios":"levelo://app?vid=ca8d97b3-72b3-41de-9cab-1288a40e1671"},"vehicle_type_id":"4","last_reported":1750623069,"current_range_meters":24400,"station_id":"ce4bhn92rcd13ifvqgrg","pricing_plan_id":"cebpf4jnsgd1na2vs0mg"},{"bike_id":"26a14eba-87a9-47b8-9607-30bd0042d428","system_id":"levelo_inurba_marseille","lat":43.31428,"lon":5.39514,"is_reserved":false,"is_disabled":false,"rental_uris":{"android":"levelo://app?vid=26a14eba-87a9-47b8-9607-30bd0042d428","ios":"levelo://app?vid=26a14eba-87a9-47b8-9607-30bd0042d428"},"vehicle_type_id":"4","last_reported":1750623069,"current_range_meters":24800,"station_id":"","pricing_plan_id":"cebpf4jnsgd1na2vs0mg"},{"bike_id":"25af2bc8-0779-428a-bd7b-c726c4d6ecdd","system_id":"levelo_inurba_marseille","lat":43.30536,"lon":5.38424,"is_reserved":false,"is_disabled":false,"rental_uris":{"android":"levelo://app?vid=25af2bc8-0779-428a-bd7b-c726c4d6ecdd","ios":"levelo://app?vid=25af2bc8-0779-428a-bd7b-c726c4d6ecdd"},"vehicle_type_id":"4","last_reported":1750623069,"current_range_meters":24800,"station_id":"ce4bgg92rcd13ifvqb30","pricing_plan_id":"cebpf4jnsgd1na2vs0mg"},{"bike_id":"60fa7cec-ed91-486b-8717-1a66361918fe","system_id":"levelo_inurba_marseille","lat":43.30089,"lon":5.39064,"is_reserved":false,"is_disabled":false,"rental_uris":{"android":"levelo://app?vid=60fa7cec-ed91-486b-8717-1a66361918fe","ios":"levelo://app?vid=60fa7cec-ed91-486b-8717-1a66361918fe"},"vehicle_type_id":"4","last_reported":1750623069,"current_range_meters":24800,"station_id":"ce4bh192rcd13ifvqdb0","pricing_plan_id":"cebpf4jnsgd1na2vs0mg"},{"bike_id":"e90401e9-d3ff-447f-b382-462cc3c40483","system_id":"levelo_inurba_marseille","lat":43.26783,"lon":5.39421,"is_reserved":false,"is_disabled":false,"rental_uris":{"android":"levelo://app?vid=e90401e9-d3ff-447f-b382-462cc3c40483","ios":"levelo://app?vid=e90401e9-d3ff-447f-b382-462cc3c40483"},"vehicle_type_id":"4","last_reported":1750623069,"current_range_meters":24800,"station_id":"ce4bhh12rcd13ifvqfg0","pricing_plan_id":"cebpf4jnsgd1na2vs0mg"},{"bike_id":"1caac38d-78e8-4abc-9980-80e70a6c811b","system_id":"levelo_inurba_marseille","lat":43.25113,"lon":5.40324,"is_reserved":false,"is_disabled":false,"rental_uris":{"android":"levelo://app?vid=1caac38d-78e8-4abc-9980-80e70a6c811b","ios":"levelo://app?vid=1caac38d-78e8-4abc-9980-80e70a6c811b"},"vehicle_type_id":"4","last_reported":1750623069,"current_range_meters":24800,"station_id":"ce4bhlh2rcd13ifvqgig","pricing_plan_id":"cebpf4jnsgd1na2vs0mg"},{"bike_id":"3ad2c51e-e03d-40af-8d22-1d09a5c77834","system_id":"levelo_inurba_marseille","lat":43.28704,"lon":5.3998,"is_reserved":false,"is_disabled":false,"rental_uris":{"android":"levelo://app?vid=3ad2c51e-e03d-40af-8d22-1d09a5c77834","ios":"levelo://app?vid=3ad2c51e-e03d-40af-8d22-1d09a5c77834"},"vehicle_type_id":"4","last_reported":1750623069,"current_range_meters":24800,"station_id":"ce4bho92rcd13ifvqh3g","pricing_plan_id":"cebpf4jnsgd1na2vs0mg"},{"bike_id":"b03d4bd4-5497-4b6b-8e6f-07ebe37a9fa6","system_id":"levelo_inurba_marseille","lat":43.2119,"lon":5.35056,"is_reserved":false,"is_disabled":false,"rental_uris":{"android":"levelo://app?vid=b03d4bd4-5497-4b6b-8e6f-07ebe37a9fa6","ios":"levelo://app?vid=b03d4bd4-5497-4b6b-8e6f-07ebe37a9fa6"},"vehicle_type_id":"4","last_reported":1750623069,"current_range_meters":24800,"station_id":"st_cvj6sg6p6f1abm77japg","pricing_plan_id":"cebpf4jnsgd1na2vs0mg"},{"bike_id":"fc51201e-ccc9-480c-b888-3581ed46440d","system_id":"levelo_inurba_marseille","lat":43.304322,"lon":5.397492,"is_reserved":false,"is_disabled":false,"rental_uris":{"android":"levelo://app?vid=fc51201e-ccc9-480c-b888-3581ed46440d","ios":"levelo://app?vid=fc51201e-ccc9-480c-b888-3581ed46440d"},"vehicle_type_id":"4","last_reported":1750623069,"current_range_meters":25200,"station_id":"ce4bh012rcd13ifvqcv0","pricing_plan_id":"cebpf4jnsgd1na2vs0mg"},{"bike_id":"36da551a-7b20-4f71-a725-e5da2829e797","system_id":"levelo_inurba_marseille","lat":43.28154,"lon":5.42646,"is_reserved":false,"is_disabled":false,"rental_uris":{"android":"levelo://app?vid=36da551a-7b20-4f71-a725-e5da2829e797","ios":"levelo://app?vid=36da551a-7b20-4f71-a725-e5da2829e797"},"vehicle_type_id":"4","last_reported":1750623069,"current_range_meters":25200,"station_id":"ce4bhnh2rcd13ifvqgug","pricing_plan_id":"cebpf4jnsgd1na2vs0mg"},{"bike_id":"1603a6d9-248f-4a88-bb78-1037aaef78cb","system_id":"levelo_inurba_marseille","lat":43.26939,"lon":5.40258,"is_reserved":false,"is_disabled":false,"rental_uris":{"android":"levelo://app?vid=1603a6d9-248f-4a88-bb78-1037aaef78cb","ios":"levelo://app?vid=1603a6d9-248f-4a88-bb78-1037aaef78cb"},"vehicle_type_id":"4","last_reported":1750623069,"current_range_meters":25200,"station_id":"cjm6bp8fraef2m0cb0m0","pricing_plan_id":"cebpf4jnsgd1na2vs0mg"},{"bike_id":"cfb611d8-7d0d-42cd-a251-1a2ee16225ff","system_id":"levelo_inurba_marseille","lat":43.2119,"lon":5.35068,"is_reserved":false,"is_disabled":false,"rental_uris":{"android":"levelo://app?vid=cfb611d8-7d0d-42cd-a251-1a2ee16225ff","ios":"levelo://app?vid=cfb611d8-7d0d-42cd-a251-1a2ee16225ff"},"vehicle_type_id":"4","last_reported":1750623069,"current_range_meters":25200,"station_id":"st_cvj6sg6p6f1abm77japg","pricing_plan_id":"cebpf4jnsgd1na2vs0mg"},{"bike_id":"8f434907-2407-4d85-9ebf-a560a1e05608","system_id":"levelo_inurba_marseille","lat":43.31059,"lon":5.3835,"is_reserved":false,"is_disabled":false,"rental_uris":{"android":"levelo://app?vid=8f434907-2407-4d85-9ebf-a560a1e05608","ios":"levelo://app?vid=8f434907-2407-4d85-9ebf-a560a1e05608"},"vehicle_type_id":"4","last_reported":1750623069,"current_range_meters":25600,"station_id":"ce4bgv92rcd13ifvqcr0","pricing_plan_id":"cebpf4jnsgd1na2vs0mg"},{"bike_id":"3bf5d7e2-31bb-434e-b3fb-242d93eceb2a","system_id":"levelo_inurba_marseille","lat":43.29032,"lon":5.38648,"is_reserved":false,"is_disabled":false,"rental_uris":{"android":"levelo://app?vid=3bf5d7e2-31bb-434e-b3fb-242d93eceb2a","ios":"levelo://app?vid=3bf5d7e2-31bb-434e-b3fb-242d93eceb2a"},"vehicle_type_id":"4","last_reported":1750623069,"current_range_meters":25600,"station_id":"ce4bh4p2rcd13ifvqe0g","pricing_plan_id":"cebpf4jnsgd1na2vs0mg"},{"bike_id":"63fcd036-c374-4293-88bd-94501ac30baa","system_id":"levelo_inurba_marseille","lat":43.25277,"lon":5.37598,"is_reserved":false,"is_disabled":false,"rental_uris":{"android":"levelo://app?vid=63fcd036-c374-4293-88bd-94501ac30baa","ios":"levelo://app?vid=63fcd036-c374-4293-88bd-94501ac30baa"},"vehicle_type_id":"4","last_reported":1750623069,"current_range_meters":25600,"station_id":"ce4bhgh2rcd13ifvqfb0","pricing_plan_id":"cebpf4jnsgd1na2vs0mg"},{"bike_id":"c45de9de-c5b6-424d-9051-eeed229789b9","system_id":"levelo_inurba_marseille","lat":43.29957,"lon":5.3886,"is_reserved":false,"is_disabled":false,"rental_uris":{"android":"levelo://app?vid=c45de9de-c5b6-424d-9051-eeed229789b9","ios":"levelo://app?vid=c45de9de-c5b6-424d-9051-eeed229789b9"},"vehicle_type_id":"4","last_reported":1750623069,"current_range_meters":26000,"station_id":"","pricing_plan_id":"cebpf4jnsgd1na2vs0mg"},{"bike_id":"0a81c5f1-75d9-4e6a-b692-f79f2bb82eda","system_id":"levelo_inurba_marseille","lat":43.31479,"lon":5.37309,"is_reserved":false,"is_disabled":false,"rental_uris":{"android":"levelo://app?vid=0a81c5f1-75d9-4e6a-b692-f79f2bb82eda","ios":"levelo://app?vid=0a81c5f1-75d9-4e6a-b692-f79f2bb82eda"},"vehicle_type_id":"4","last_reported":1750623069,"current_range_meters":26000,"station_id":"ce4bgt12rcd13ifvqcd0","pricing_plan_id":"cebpf4jnsgd1na2vs0mg"},