{"last_updated":1693066043,"ttl":30,"version":"2.2","data":{"bikes":[{"bike_id":"95dc1dba-ff80-4347-a1eb-6f3b2999a1d3","system_id":"levelo_inurba_marseille","lat":43.313391,"lon":5.36706,"is_reserved":false,"is_disabled":false,"rental_uris":{"android":"levelo://app?vid=95dc1dba-ff80-4347-a1eb-6f3b2999a1d3","ios":"levelo://app?vid=95dc1dba-ff80-4347-a1eb-6f3b2999a1d3"},"vehicle_type_id":"4","last_reported":1693066043,"current_range_meters":30400,"station_id":"ce4bgr92rcd13ifvqc6g","pricing_plan_id":"free"},{"bike_id":"507c0db6-06cf-4065-865e-fe630915f321","system_id":"levelo_inurba_marseille","lat":43.313391,"lon":5.36706,"is_reserved":false,"is_disabled":false,"rental_uris":{"android":"levelo://app?vid=507c0db6-06cf-4065-865e-fe630915f321","ios":"levelo://app?vid=507c0db6-06cf-4065-865e-fe630915f321"},"vehicle_type_id":"4","last_reported":1693066043,"current_range_meters":31200,"station_id":"ce4bgr92rcd13ifvqc6g","pricing_plan_id":"free"},{"bike_id":"c1e0977b-c6a9-41ce-9b05-f6dc365173c4","system_id":"levelo_inurba_marseille","lat":43.31341,"lon":5.367098,"is_reserved":false,"is_disabled":false,"rental_uris":{"android":"levelo://app?vid=c1e0977b-c6a9-41ce-9b05-f6dc365173c4","ios":"levelo://app?vid=c1e0977b-c6a9-41ce-9b05-f6dc365173c4"},"vehicle_type_id":"4","last_reported":1693066043,"current_range_meters":30800,"station_id":"ce4bgr92rcd13ifvqc6g","pricing_plan_id":"free"},{"bike_id":"d5ab019b-3955-48c4-8601-5e6f20fa1c02","system_id":"levelo_inurba_marseille","lat":43.31341,"lon":5.367098,"is_reserved":false,"is_disabled":false,"rental_uris":{"android":"levelo://app?vid=d5ab019b-3955-48c4-8601-5e6f20fa1c02","ios":"levelo://app?vid=d5ab019b-3955-48c4-8601-5e6f20fa1c02"},"vehicle_type_id":"4","last_reported":1693066043,"current_range_meters":30800,"station_id":"ce4bgr92rcd13ifvqc6g","pricing_plan_id":"free"},{"bike_id":"f22ca441-4e4e-4660-b824-b2f46943e54d","system_id":"levelo_inurba_marseille","lat":43.312239,"lon":5.368562,"is_reserved":false,"is_disabled":false,"rental_uris":{"android":"levelo://app?vid=f22ca441-4e4e-4660-b824-b2f46943e54d","ios":"levelo://app?vid=f22ca441-4e4e-4660-b824-b2f46943e54d"},"vehicle_type_id":"4","last_reported":1693066043,"current_range_meters":31600,"station_id":"ce4bgl92rcd13ifvqbq0","pricing_plan_id":"free"},{"bike_id":"65674239-bfb7-4928-84de-b7277febf7c2","system_id":"levelo_inurba_marseille","lat":43.31218,"lon":5.36852,"is_reserved":false,"is_disabled":false,"rental_uris":{"android":"levelo://app?vid=65674239-bfb7-4928-84de-b7277febf7c2","ios":"levelo://app?vid=65674239-bfb7-4928-84de-b7277febf7c2"},"vehicle_type_id":"4","last_reported":1693066043,"current_range_meters":31200,"station_id":"ce4bgl92rcd13ifvqbq0","pricing_plan_id":"free"},{"bike_id":"20d3cd1c-18f2-4c6a-9434-ef986322e064","system_id":"levelo_inurba_marseille","lat":43.31222,"lon":5.36855,"is_reserved":false,"is_disabled":false,"rental_uris":{"android":"levelo://app?vid=20d3cd1c-18f2-4c6a-9434-ef986322e064","ios":"levelo://app?vid=20d3cd1c-18f2-4c6a-9434-ef986322e064"},"vehicle_type_id":"4","last_reported":1693066043,"current_range_meters":10000,"station_id":"ce4bgl92rcd13ifvqbq0","pricing_plan_id":"free"},{"bike_id":"411ed42b-7c46-4b07-aa4c-ad2dbdf2293c","system_id":"levelo_inurba_marseille","lat":43.31224,"lon":5.36858,"is_reserved":false,"is_disabled":false,"rental_uris":{"android":"levelo://app?vid=411ed42b-7c46-4b07-aa4c-ad2dbdf2293c","ios":"levelo://app?vid=411ed42b-7c46-4b07-aa4c-ad2dbdf2293c"},"vehicle_type_id":"4","last_reported":1693066043,"current_range_meters":19200,"station_id":"ce4bgl92rcd13ifvqbq0","pricing_plan_id":"free"},{"bike_id":"bd3edb46-3c66-47bd-ad0b-841f404d14dc","system_id":"levelo_inurba_marseille","lat":43.309076,"lon":5.368465,"is_reserved":false,"is_disabled":false,"rental_uris":{"android":"levelo://app?vid=bd3edb46-3c66-47bd-ad0b-841f404d14dc","ios":"levelo://app?vid=bd3edb46-3c66-47bd-ad0b-841f404d14dc"},"vehicle_type_id":"4","last_reported":1693066043,"current_range_meters":28000,"station_id":"ce4bgn92rcd13ifvqbvg","pricing_plan_id":"free"},{"bike_id":"1679480f-336d-451d-90ca-f8617b0ae61e","system_id":"levelo_inurba_marseille","lat":43.309076,"lon":5.368465,"is_reserved":false,"is_disabled":false,"rental_uris":{"android":"levelo://app?vid=1679480f-336d-451d-90ca-f8617b0ae61e","ios":"levelo://app?vid=1679480f-336d-451d-90ca-f8617b0ae61e"},"vehicle_type_id":"4","last_reported":1693066043,"current_range_meters":18400,"station_id":"ce4bgn92rcd13ifvqbvg","pricing_plan_id":"free"},{"bike_id":"e3c4aad0-7b99-4a09-ad94-863437ff0df5","system_id":"levelo_inurba_marseille","lat":43.31402,"lon":5.37255,"is_reserved":false,"is_disabled":false,"rental_uris":{"android":"levelo://app?vid=e3c4aad0-7b99-4a09-ad94-863437ff0df5","ios":"levelo://app?vid=e3c4aad0-7b99-4a09-ad94-863437ff0df5"},"vehicle_type_id":"4","last_reported":1693066043,"current_range_meters":8400,"station_id":"","pricing_plan_id":"free"},{"bike_id":"d2be997d-44d2-40a5-bb20-02aeaaf65fa5","system_id":"levelo_inurba_marseille","lat":43.314811,"lon":5.373103,"is_reserved":false,"is_disabled":false,"rental_uris":{"android":"levelo://app?vid=d2be997d-44d2-40a5-bb20-02aeaaf65fa5","ios":"levelo://app?vid=d2be997d-44d2-40a5-bb20-02aeaaf65fa5"},"vehicle_type_id":"4","last_reported":1693066043,"current_range_meters":31600,"station_id":"ce4bgt12rcd13ifvqcd0","pricing_plan_id":"free"},{"bike_id":"9c97cd16-0de5-44f9-99a5-2fc5d48d4863","system_id":"levelo_inurba_marseille","lat":43.314811,"lon":5.373104,"is_reserved":false,"is_disabled":false,"rental_uris":{"android":"levelo://app?vid=9c97cd16-0de5-44f9-99a5-2fc5d48d4863","ios":"levelo://app?vid=9c97cd16-0de5-44f9-99a5-2fc5d48d4863"},"vehicle_type_id":"4","last_reported":1693066043,"current_range_meters":23200,"station_id":"ce4bgt12rcd13ifvqcd0","pricing_plan_id":"free"},{"bike_id":"b636be90-9a7c-4ddc-8c55-37e206ee619d","system_id":"levelo_inurba_marseille","lat":43.314811,"lon":5.373104,"is_reserved":false,"is_disabled":false,"rental_uris":{"android":"levelo://app?vid=b636be90-9a7c-4ddc-8c55-37e206ee619d","ios":"levelo://app?vid=b636be90-9a7c-4ddc-8c55-37e206ee619d"},"vehicle_type_id":"4","last_reported":1693066043,"current_range_meters":14400,"station_id":"ce4bgt12rcd13ifvqcd0","pricing_plan_id":"free"},{"bike_id":"3673344f-6c18-43c3-aa38-552a3473484a","system_id":"levelo_inurba_marseille","lat":43.309039,"lon":5.371797,"is_reserved":false,"is_disabled":false,"rental_uris":{"android":"levelo://app?vid=3673344f-6c18-43c3-aa38-552a3473484a","ios":"levelo://app?vid=3673344f-6c18-43c3-aa38-552a3473484a"},"vehicle_type_id":"4","last_reported":1693066043,"current_range_meters":1600,"station_id":"ce4bguh2rcd13ifvqckg","pricing_plan_id":"free"},{"bike_id":"8390e882-d47e-43ed-b1a5-22d3c46c4819","system_id":"levelo_inurba_marseille","lat":43.305714,"lon":5.365633,"is_reserved":false,"is_disabled":false,"rental_uris":{"android":"levelo://app?vid=8390e882-d47e-43ed-b1a5-22d3c46c4819","ios":"levelo://app?vid=8390e882-d47e-43ed-b1a5-22d3c46c4819"},"vehicle_type_id":"4","last_reported":1693066043,"current_range_meters":21200,"station_id":"ce4bgs12rcd13ifvqcag","pricing_plan_id":"free"},{"bike_id":"acff5013-6581-45fd-99e3-c91b544b0700","system_id":"levelo_inurba_marseille","lat":43.306131,"lon":5.372365,"is_reserved":false,"is_disabled":false,"rental_uris":{"android":"levelo://app?vid=acff5013-6581-45fd-99e3-c91b544b0700","ios":"levelo://app?vid=acff5013-6581-45fd-99e3-c91b544b0700"},"vehicle_type_id":"4","last_reported":1693066043,"current_range_meters":26000,"station_id":"ce4bgqh2rcd13ifvqc4g","pricing_plan_id":"free"},{"bike_id":"5e76627d-89f8-41b7-adfa-8bc4bc270b7a","system_id":"levelo_inurba_marseille","lat":43.311125,"lon":5.377624,"is_reserved":false,"is_disabled":false,"rental_uris":{"android":"levelo://app?vid=5e76627d-89f8-41b7-adfa-8bc4bc270b7a","ios":"levelo://app?vid=5e76627d-89f8-41b7-adfa-8bc4bc270b7a"},"vehicle_type_id":"4","last_reported":1693066043,"current_range_meters":0,"station_id":"ce4bgt92rcd13ifvqcg0","pricing_plan_id":"free"},{"bike_id":"daec13e2-4670-467f-a8b3-7eef8534d4f8","system_id":"levelo_inurba_marseille","lat":43.307945,"lon":5.376487,"is_reserved":false,"is_disabled":false,"rental_uris":{"android":"levelo://app?vid=daec13e2-4670-467f-a8b3-7eef8534d4f8","ios":"levelo://app?vid=daec13e2-4670-467f-a8b3-7eef8534d4f8"},"vehicle_type_id":"4","last_reported":1693066043,"current_range_meters":0,"station_id":"ce4bgv92rcd13ifvqcq0","pricing_plan_id":"free"},{"bike_id":"0aa9816b-a243-4957-9b2f-7ecf7fe13a29","system_id":"levelo_inurba_marseille","lat":43.317075,"lon":5.377367,"is_reserved":false,"is_disabled":false,"rental_uris":{"android":"levelo://app?vid=0aa9816b-a243-4957-9b2f-7ecf7fe13a29","ios":"levelo://app?vid=0aa9816b-a243-4957-9b2f-7ecf7fe13a29"},"vehicle_type_id":"4","last_reported":1693066043,"current_range_meters":31600,"station_id":"ce4bgth2rcd13ifvqch0","pricing_plan_id":"free"},{"bike_id":"dfffee21-139f-464a-9d31-f0998da35f19","system_id":"levelo_inurba_marseille","lat":43.317075,"lon":5.377367,"is_reserved":false,"is_disabled":false,"rental_uris":{"android":"levelo://app?vid=dfffee21-139f-464a-9d31-f0998da35f19","ios":"levelo://app?vid=dfffee21-139f-464a-9d31-f0998da35f19"},"vehicle_type_id":"4","last_reported":1693066043,"current_range_meters":20800,"station_id":"ce4bgth2rcd13ifvqch0","pricing_plan_id":"free"},{"bike_id":"7aed7dd7-64c1-4f32-9021-f1e41eefb4fe","system_id":"levelo_inurba_marseille","lat":43.31051,"lon":5.37878,"is_reserved":false,"is_disabled":false,"rental_uris":{"android":"levelo://app?vid=7aed7dd7-64c1-4f32-9021-f1e41eefb4fe","ios":"levelo://app?vid=7aed7dd7-64c1-4f32-9021-f1e41eefb4fe"},"vehicle_type_id":"4","last_reported":1693066043,"current_range_meters":13600,"station_id":"","pricing_plan_id":"free"},{"bike_id":"b56dc17a-bf91-47f8-b8dc-ca3b96253446","system_id":"levelo_inurba_marseille","lat":43.31533,"lon":5.38039,"is_reserved":false,"is_disabled":false,"rental_uris":{"android":"levelo://app?vid=b56dc17a-bf91-47f8-b8dc-ca3b96253446","ios":"levelo://app?vid=b56dc17a-bf91-47f8-b8dc-ca3b96253446"},"vehicle_type_id":"4","last_reported":1693066043,"current_range_meters":16800,"station_id":"ce4bhsp2rcd13ifvqi50","pricing_plan_id":"free"},{"bike_id":"5247ba31-1c15-4a04-83f4-a8eedaaf6152","system_id":"levelo_inurba_marseille","lat":43.30803,"lon":5.38147,"is_reserved":false,"is_disabled":false,"rental_uris":{"android":"levelo://app?vid=5247ba31-1c15-4a04-83f4-a8eedaaf6152","ios":"levelo://app?vid=5247ba31-1c15-4a04-83f4-a8eedaaf6152"},"vehicle_type_id":"4","last_reported":1693066043,"current_range_meters":28000,"station_id":"ce4bgt12rcd13ifvqce0","pricing_plan_id":"free"},{"bike_id":"6bbd08c1-2369-41f9-8aa0-da45b8b05274","system_id":"levelo_inurba_marseille","lat":43.308012,"lon":5.381511,"is_reserved":false,"is_disabled":false,"rental_uris":{"android":"levelo://app?vid=6bbd08c1-2369-41f9-8aa0-da45b8b05274","ios":"levelo://app?vid=6bbd08c1-2369-41f9-8aa0-da45b8b05274"},"vehicle_type_id":"4","last_reported":1693066043,"current_range_meters":11600,"station_id":"ce4bgt12rcd13ifvqce0","pricing_plan_id":"free"},{"bike_id":"ff9b2535-32be-46c8-a99d-ea3097cec0a5","system_id":"levelo_inurba_marseille","lat":43.30782,"lon":5.38161,"is_reserved":false,"is_disabled":false,"rental_uris":{"android":"levelo://app?vid=ff9b2535-32be-46c8-a99d-ea3097cec0a5","ios":"levelo://app?vid=ff9b2535-32be-46c8-a99d-ea3097cec0a5"},"vehicle_type_id":"4","last_reported":1693066043,"current_range_meters":27200,"station_id":"ce4bgt12rcd13ifvqce0","pricing_plan_id":"free"},{"bike_id":"3f81c7a6-2d47-4af8-86e8-c6771d5f8763","system_id":"levelo_inurba_marseille","lat":43.308012,"lon":5.381511,"is_reserved":false,"is_disabled":false,"rental_uris":{"android":"levelo://app?vid=3f81c7a6-2d47-4af8-86e8-c6771d5f8763","ios":"levelo://app?vid=3f81c7a6-2d47-4af8-86e8-c6771d5f8763"},"vehicle_type_id":"4","last_reported":1693066043,"current_range_meters":18800,"station_id":"ce4bgt12rcd13ifvqce0","pricing_plan_id":"free"},{"bike_id":"90f8346d-5be0-4d04-a9e9-40bb10d7a019","system_id":"levelo_inurba_marseille","lat":43.304606,"lon":5.379026,"is_reserved":false,"is_disabled":false,"rental_uris":{"android":"levelo://app?vid=90f8346d-5be0-4d04-a9e9-40bb10d7a019","ios":"levelo://app?vid=90f8346d-5be0-4d04-a9e9-40bb10d7a019"},"vehicle_type_id":"4","last_reported":1693066043,"current_range_meters":4000,"station_id":"ce4bgup2rcd13ifvqcn0","pricing_plan_id":"free"},{"bike_id":"a707963a-e29d-4d81-8271-bf5a93d0ee07","system_id":"levelo_inurba_marseille","lat":43.302784,"lon":5.377158,"is_reserved":false,"is_disabled":false,"rental_uris":{"android":"levelo://app?vid=a707963a-e29d-4d81-8271-bf5a93d0ee07","ios":"levelo://app?vid=a707963a-e29d-4d81-8271-bf5a93d0ee07"},"vehicle_type_id":"4","last_reported":1693066043,"current_range_meters":19600,"station_id":"ce4bguh2rcd13ifvqcj0","pricing_plan_id":"free"},{"bike_id":"c7a72889-083e-4b93-b5ea-24760adc43c4","system_id":"levelo_inurba_marseille","lat":43.31999,"lon":5.38159,"is_reserved":false,"is_disabled":false,"rental_uris":{"android":"levelo://app?vid=c7a72889-083e-4b93-b5ea-24760adc43c4","ios":"levelo://app?vid=c7a72889-083e-4b93-b5ea-24760adc43c4"},"vehicle_type_id":"4","last_reported":1693066043,"current_range_meters":8000,"station_id":"ce4bhr12rcd13ifvqhpg","pricing_plan_id":"free"},{"bike_id":"d7f586a0-e69a-4f5b-98e6-f1752ef0846e","system_id":"levelo_inurba_marseille","lat":43.32002,"lon":5.3816,"is_reserved":false,"is_disabled":false,"rental_uris":{"android":"levelo://app?vid=d7f586a0-e69a-4f5b-98e6-f1752ef0846e","ios":"levelo://app?vid=d7f586a0-e69a-4f5b-98e6-f1752ef0846e"},"vehicle_type_id":"4","last_reported":1693066043,"current_range_meters":14400,"station_id":"ce4bhr12rcd13ifvqhpg","pricing_plan_id":"free"},{"bike_id":"f65dc56a-dc08-485f-8e2b-314af8c13f49","system_id":"levelo_inurba_marseille","lat":43.299411,"lon":5.365614,"is_reserved":false,"is_disabled":false,"rental_uris":{"android":"levelo://app?vid=f65dc56a-dc08-485f-8e2b-314af8c13f49","ios":"levelo://app?vid=f65dc56a-dc08-485f-8e2b-314af8c13f49"},"vehicle_type_id":"4","last_reported":1693066043,"current_range_meters":14800,"station_id":"","pricing_plan_id":"free"},{"bike_id":"8cc32464-46a5-407d-b0e5-e9d8c9c9f4e6","system_id":"levelo_inurba_marseille","lat":43.299222,"lon":5.365554,"is_reserved":false,"is_disabled":false,"rental_uris":{"android":"levelo://app?vid=8cc32464-46a5-407d-b0e5-e9d8c9c9f4e6","ios":"levelo://app?vid=8cc32464-46a5-407d-b0e5-e9d8c9c9f4e6"},"vehicle_type_id":"4","last_reported":1693066043,"current_range_meters":0,"station_id":"ce4bgm92rcd13ifvqbr0","pricing_plan_id":"free"},{"bike_id":"31320822-40dc-4b96-aaa3-13be6e3b4a44","system_id":"levelo_inurba_marseille","lat":43.298433,"lon":5.362774,"is_reserved":false,"is_disabled":false,"rental_uris":{"android":"levelo://app?vid=31320822-40dc-4b96-aaa3-13be6e3b4a44","ios":"levelo://app?vid=31320822-40dc-4b96-aaa3-13be6e3b4a44"},"vehicle_type_id":"4","last_reported":1693066043,"current_range_meters":14400,"station_id":"ce4bgpp2rcd13ifvqc3g","pricing_plan_id":"free"},{"bike_id":"ea628102-f413-4421-a451-01c3055a1ca3","system_id":"levelo_inurba_marseille","lat":43.305364,"lon":5.384119,"is_reserved":false,"is_disabled":false,"rental_uris":{"android":"levelo://app?vid=ea628102-f413-4421-a451-01c3055a1ca3","ios":"levelo://app?vid=ea628102-f413-4421-a451-01c3055a1ca3"},"vehicle_type_id":"4","last_reported":1693066043,"current_range_meters":22400,"station_id":"ce4bgg92rcd13ifvqb30","pricing_plan_id":"free"},{"bike_id":"d33833fc-1832-4a43-8c70-5bbddc275d7d","system_id":"levelo_inurba_marseille","lat":43.299243,"lon":5.37481,"is_reserved":false,"is_disabled":false,"rental_uris":{"android":"levelo://app?vid=d33833fc-1832-4a43-8c70-5bbddc275d7d","ios":"levelo://app?vid=d33833fc-1832-4a43-8c70-5bbddc275d7d"},"vehicle_type_id":"4","last_reported":1693066043,"current_range_meters":30800,"station_id":"ce4bgjh2rcd13ifvqbg0","pricing_plan_id":"free"},{"bike_id":"35eec3a1-aa54-4990-8eb4-78e6c0dd24d0","system_id":"levelo_inurba_marseille","lat":43.299243,"lon":5.374807,"is_reserved":false,"is_disabled":false,"rental_uris":{"android":"levelo://app?vid=35eec3a1-aa54-4990-8eb4-78e6c0dd24d0","ios":"levelo://app?vid=35eec3a1-aa54-4990-8eb4-78e6c0dd24d0"},"vehicle_type_id":"4","last_reported":1693066043,"current_range_meters":29600,"station_id":"ce4bgjh2rcd13ifvqbg0","pricing_plan_id":"free"},{"bike_id":"2f9e2def-2173-4eb4-a460-9a385f59debe","system_id":"levelo_inurba_marseille","lat":43.299243,"lon":5.37481,"is_reserved":false,"is_disabled":false,"rental_uris":{"android":"levelo://app?vid=2f9e2def-2173-4eb4-a460-9a385f59debe","ios":"levelo://app?vid=2f9e2def-2173-4eb4-a460-9a385f59debe"},"vehicle_type_id":"4","last_reported":1693066043,"current_range_meters":31600,"station_id":"ce4bgjh2rcd13ifvqbg0","pricing_plan_id":"free"},{"bike_id":"74bb8e6c-4d66-4dad-992e-bd7bea15b2f1","system_id":"levelo_inurba_marseille","lat":43.311648,"lon":5.387257,"is_reserved":false,"is_disabled":false,"rental_uris":{"android":"levelo://app?vid=74bb8e6c-4d66-4dad-992e-bd7bea15b2f1","ios":"levelo://app?vid=74bb8e6c-4d66-4dad-992e-bd7bea15b2f1"},"vehicle_type_id":"4","last_reported":1693066043,"current_range_meters":0,"station_id":"ce4bgv12rcd13ifvqcp0","pricing_plan_id":"free"},{"bike_id":"7713fce6-61f5-48dd-a139-0a91fcbcc973","system_id":"levelo_inurba_marseille","lat":43.32828,"lon":5.3668,"is_reserved":false,"is_disabled":false,"rental_uris":{"android":"levelo://app?vid=7713fce6-61f5-48dd-a139-0a91fcbcc973","ios":"levelo://app?vid=7713fce6-61f5-48dd-a139-0a91fcbcc973"},"vehicle_type_id":"4","last_reported":1693066043,"current_range_meters":30800,"station_id":"ce4bhs92rcd13ifvqi0g","pricing_plan_id":"free"},{"bike_id":"8057ac88-8d25-428e-84e9-d8292b70b67a","system_id":"levelo_inurba_marseille","lat":43.328371,"lon":5.366909,"is_reserved":false,"is_disabled":false,"rental_uris":{"android":"levelo://app?vid=8057ac88-8d25-428e-84e9-d8292b70b67a","ios":"levelo://app?vid=8057ac88-8d25-428e-84e9-d8292b70b67a"},"vehicle_type_id":"4","last_reported":1693066043,"current_range_meters":31200,"station_id":"ce4bhs92rcd13ifvqi0g","pricing_plan_id":"free"},{"bike_id":"cd446b24-0605-47e8-a42c-868f9f929a8b","system_id":"levelo_inurba_marseille","lat":43.32828,"lon":5.36669,"is_reserved":false,"is_disabled":false,"rental_uris":{"android":"levelo://app?vid=cd446b24-0605-47e8-a42c-868f9f929a8b","ios":"levelo://app?vid=cd446b24-0605-47e8-a42c-868f9f929a8b"},"vehicle_type_id":"4","last_reported":1693066043,"current_range_meters":29600,"station_id":"ce4bhs92rcd13ifvqi0g","pricing_plan_id":"free"},{"bike_id":"b2a6fc0b-fe04-43b7-8835-223f314ba282","system_id":"levelo_inurba_marseille","lat":43.32829,"lon":5.366933,"is_reserved":false,"is_disabled":false,"rental_uris":{"android":"levelo://app?vid=b2a6fc0b-fe04-43b7-8835-223f314ba282","ios":"levelo://app?vid=b2a6fc0b-fe04-43b7-8835-223f314ba282"},"vehicle_type_id":"4","last_reported":1693066043,"current_range_meters":22800,"station_id":"ce4bhs92rcd13ifvqi0g","pricing_plan_id":"free"},{"bike_id":"2ddc5d1c-4a62-4d0b-b125-a6c57642f6bb","system_id":"levelo_inurba_marseille","lat":43.328371,"lon":5.366909,"is_reserved":false,"is_disabled":false,"rental_uris":{"android":"levelo://app?vid=2ddc5d1c-4a62-4d0b-b125-a6c57642f6bb","ios":"levelo://app?vid=2ddc5d1c-4a62-4d0b-b125-a6c57642f6bb"},"vehicle_type_id":"4","last_reported":1693066043,"current_range_meters":26000,"station_id":"ce4bhs92rcd13ifvqi0g","pricing_plan_id":"free"},{"bike_id":"e14011d4-70c8-482b-a069-d20f8cb9b36a","system_id":"levelo_inurba_marseille","lat":43.32832,"lon":5.36683,"is_reserved":false,"is_disabled":false,"rental_uris":{"android":"levelo://app?vid=e14011d4-70c8-482b-a069-d20f8cb9b36a","ios":"levelo://app?vid=e14011d4-70c8-482b-a069-d20f8cb9b36a"},"vehicle_type_id":"4","last_reported":1693066043,"current_range_meters":8000,"station_id":"ce4bhs92rcd13ifvqi0g","pricing_plan_id":"free"},{"bike_id":"704c0286-52b4-4880-abba-175a138f0784","system_id":"levelo_inurba_marseille","lat":43.32832,"lon":5.36676,"is_reserved":false,"is_disabled":false,"rental_uris":{"android":"levelo://app?vid=704c0286-52b4-4880-abba-175a138f0784","ios":"levelo://app?vid=704c0286-52b4-4880-abba-175a138f0784"},"vehicle_type_id":"4","last_reported":1693066043,"current_range_meters":22400,"station_id":"ce4bhs92rcd13ifvqi0g","pricing_plan_id":"free"},{"bike_id":"dd789220-e7b5-42c1-b9dc-dc4243148021","system_id":"levelo_inurba_marseille","lat":43.29711,"lon":5.36599,"is_reserved":false,"is_disabled":false,"rental_uris":{"android":"levelo://app?vid=dd789220-e7b5-42c1-b9dc-dc4243148021","ios":"levelo://app?vid=dd789220-e7b5-42c1-b9dc-dc4243148021"},"vehicle_type_id":"4","last_reported":1693066043,"current_range_meters":31200,"station_id":"ce4bgn12rcd13ifvqbt0","pricing_plan_id":"free"},{"bike_id":"bd0bd295-6ecc-40c4-a4d0-89f645593756","system_id":"levelo_inurba_marseille","lat":43.297163,"lon":5.365866,"is_reserved":false,"is_disabled":false,"rental_uris":{"android":"levelo://app?vid=bd0bd295-6ecc-40c4-a4d0-89f645593756","ios":"levelo://app?vid=bd0bd295-6ecc-40c4-a4d0-89f645593756"},"vehicle_type_id":"4","last_reported":1693066043,"current_range_meters":23600,"station_id":"ce4bgn12rcd13ifvqbt0","pricing_plan_id":"free"},{"bike_id":"2cfa568d-dec9-47b6-8ca8-47bf71d2e02e","system_id":"levelo_inurba_marseille","lat":43.29678,"lon":5.37292,"is_reserved":false,"is_disabled":false,"rental_uris":{"android":"levelo://app?vid=2cfa568d-dec9-47b6-8ca8-47bf71d2e02e","ios":"levelo://app?vid=2cfa568d-dec9-47b6-8ca8-47bf71d2e02e"},"vehicle_type_id":"4","last_reported":1693066043,"current_range_meters":27200,"station_id":"ce4bgk12rcd13ifvqbj0","pricing_plan_id":"free"},{"bike_id":"d3139180-8ba9-4c91-b6e4-8baae3c22113","system_id":"levelo_inurba_marseille","lat":43.296131,"lon":5.370791,"is_reserved":false,"is_disabled":false,"rental_uris":{"android":"levelo://app?vid=d3139180-8ba9-4c91-b6e4-8baae3c22113","ios":"levelo://app?vid=d3139180-8ba9-4c91-b6e4-8baae3c22113"},"vehicle_type_id":"4","last_reported":1693066043,"current_range_meters":31600,"station_id":"ce4bgnh2rcd13ifvqc0g","pricing_plan_id":"free"},{"bike_id":"65d934c8-ea94-404c-b991-a012f59c0b64","system_id":"levelo_inurba_marseille","lat":43.296131,"lon":5.370773,"is_reserved":false,"is_disabled":false,"rental_uris":{"android":"levelo://app?vid=65d934c8-ea94-404c-b991-a012f59c0b64","ios":"levelo://app?vid=65d934c8-ea94-404c-b991-a012f59c0b64"},"vehicle_type_id":"4","last_reported":1693066043,"current_range_meters":28800,"station_id":"ce4bgnh2rcd13ifvqc0g","pricing_plan_id":"free"},{"bike_id":"c2ab02d0-be30-4157-bf79-41b8f5ddffa2","system_id":"levelo_inurba_marseille","lat":43.29573,"lon":5.367355,"is_reserved":false,"is_disabled":false,"rental_uris":{"android":"levelo://app?vid=c2ab02d0-be30-4157-bf79-41b8f5ddffa2","ios":"levelo://app?vid=c2ab02d0-be30-4157-bf79-41b8f5ddffa2"},"vehicle_type_id":"4","last_reported":1693066043,"current_range_meters":21600,"station_id":"ce4bgph2rcd13ifvqc2g","pricing_plan_id":"free"},{"bike_id":"00c9ff7a-2276-4f60-ad40-74ade17aedff","system_id":"levelo_inurba_marseille","lat":43.309589,"lon":5.390258,"is_reserved":false,"is_disabled":false,"rental_uris":{"android":"levelo://app?vid=00c9ff7a-2276-4f60-ad40-74ade17aedff","ios":"levelo://app?vid=00c9ff7a-2276-4f60-ad40-74ade17aedff"},"vehicle_type_id":"4","last_reported":1693066043,"current_range_meters":14400,"station_id":"ce4bgup2rcd13ifvqco0","pricing_plan_id":"free"},{"bike_id":"2c93ce6f-c5e1-4ec9-9941-ebb7469bb8f2","system_id":"levelo_inurba_marseille","lat":43.317557,"lon":5.390173,"is_reserved":false,"is_disabled":false,"rental_uris":{"android":"levelo://app?vid=2c93ce6f-c5e1-4ec9-9941-ebb7469bb8f2","ios":"levelo://app?vid=2c93ce6f-c5e1-4ec9-9941-ebb7469bb8f2"},"vehicle_type_id":"4","last_reported":1693066043,"current_range_meters":32000,"station_id":"ce4bhqp2rcd13ifvqhng","pricing_plan_id":"free"},{"bike_id":"89f7f089-ec62-4cd7-aee5-a20760195e67","system_id":"levelo_inurba_marseille","lat":43.317557,"lon":5.390173,"is_reserved":false,"is_disabled":false,"rental_uris":{"android":"levelo://app?vid=89f7f089-ec62-4cd7-aee5-a20760195e67","ios":"levelo://app?vid=89f7f089-ec62-4cd7-aee5-a20760195e67"},"vehicle_type_id":"4","last_reported":1693066043,"current_range_meters":1200,"station_id":"ce4bhqp2rcd13ifvqhng","pricing_plan_id":"free"},{"bike_id":"d2612f93-4d67-4063-bece-84f523bf8653","system_id":"levelo_inurba_marseille","lat":43.317557,"lon":5.390173,"is_reserved":false,"is_disabled":false,"rental_uris":{"android":"levelo://app?vid=d2612f93-4d67-4063-bece-84f523bf8653","ios":"levelo://app?vid=d2612f93-4d67-4063-bece-84f523bf8653"},"vehicle_type_id":"4","last_reported":1693066043,"current_range_meters":31600,"station_id":"ce4bhqp2rcd13ifvqhng","pricing_plan_id":"free"},{"bike_id":"64ecbfc8-ff67-4eb0-b8ff-1234008507fa","system_id":"levelo_inurba_marseille","lat":43.317557,"lon":5.390173,"is_reserved":false,"is_disabled":false,"rental_uris":{"android":"levelo://app?vid=64ecbfc8-ff67-4eb0-b8ff-1234008507fa","ios":"levelo://app?vid=64ecbfc8-ff67-4eb0-b8ff-1234008507fa"},"vehicle_type_id":"4","last_reported":1693066043,"current_range_meters":26000,"station_id":"ce4bhqp2rcd13ifvqhng","pricing_plan_id":"free"},{"bike_id":"af178ebc-bfb6-4579-b69e-90d5a38926ae","system_id":"levelo_inurba_marseille","lat":43.295748,"lon":5.37522,"is_reserved":false,"is_disabled":false,"rental_uris":{"android":"levelo://app?vid=af178ebc-bfb6-4579-b69e-90d5a38926ae","ios":"levelo://app?vid=af178ebc-bfb6-4579-b69e-90d5a38926ae"},"vehicle_type_id":"4","last_reported":1693066043,"current_range_meters":18800,"station_id":"ce4bgh92rcd13ifvqb50","pricing_plan_id":"free"},{"bike_id":"80f46a23-f899-4c3e-bd09-0a3f6f8a006c","system_id":"levelo_inurba_marseille","lat":43.295748,"lon":5.37522,"is_reserved":false,"is_disabled":false,"rental_uris":{"android":"levelo://app?vid=80f46a23-f899-4c3e-bd09-0a3f6f8a006c","ios":"levelo://app?vid=80f46a23-f899-4c3e-bd09-0a3f6f8a006c"},"vehicle_type_id":"4","last_reported":1693066043,"current_range_meters":17200,"station_id":"ce4bgh92rcd13ifvqb50","pricing_plan_id":"free"},{"bike_id":"952a19e7-6602-41c3-942f-79cfb514366f","system_id":"levelo_inurba_marseille","lat":43.29612,"lon":5.37725,"is_reserved":false,"is_disabled":false,"rental_uris":{"android":"levelo://app?vid=952a19e7-6602-41c3-942f-79cfb514366f","ios":"levelo://app?vid=952a19e7-6602-41c3-942f-79cfb514366f"},"vehicle_type_id":"4","last_reported":1693066043,"current_range_meters":30400,"station_id":"ce4bgi92rcd13ifvqb90","pricing_plan_id":"free"},{"bike_id":"50c30328-193c-4e2d-a69b-d326c5235437","system_id":"levelo_inurba_marseille","lat":43.299707,"lon":5.384859,"is_reserved":false,"is_disabled":false,"rental_uris":{"android":"levelo://app?vid=50c30328-193c-4e2d-a69b-d326c5235437","ios":"levelo://app?vid=50c30328-193c-4e2d-a69b-d326c5235437"},"vehicle_type_id":"4","last_reported":1693066043,"current_range_meters":12800,"station_id":"ce4bgj92rcd13ifvqbd0","pricing_plan_id":"free"},{"bike_id":"81d4e095-46c1-4349-83a5-99f310375080","system_id":"levelo_inurba_marseille","lat":43.299724,"lon":5.384848,"is_reserved":false,"is_disabled":false,"rental_uris":{"android":"levelo://app?vid=81d4e095-46c1-4349-83a5-99f310375080","ios":"levelo://app?vid=81d4e095-46c1-4349-83a5-99f310375080"},"vehicle_type_id":"4","last_reported":1693066043,"current_range_meters":18000,"station_id":"ce4bgj92rcd13ifvqbd0","pricing_plan_id":"free"},{"bike_id":"ff8e1b33-68b8-4603-a1a6-4b680650059e","system_id":"levelo_inurba_marseille","lat":43.2997,"lon":5.38489,"is_reserved":false,"is_disabled":false,"rental_uris":{"android":"levelo://app?vid=ff8e1b33-68b8-4603-a1a6-4b680650059e","ios":"levelo://app?vid=ff8e1b33-68b8-4603-a1a6-4b680650059e"},"vehicle_type_id":"4","last_reported":1693066043,"current_range_meters":18000,"station_id":"ce4bgj92rcd13ifvqbd0","pricing_plan_id":"free"},{"bike_id":"22f9286e-4107-4ca2-8d76-1062c1c92275","system_id":"levelo_inurba_marseille","lat":43.299707,"lon":5.384859,"is_reserved":false,"is_disabled":false,"rental_uris":{"android":"levelo://app?vid=22f9286e-4107-4ca2-8d76-1062c1c92275","ios":"levelo://app?vid=22f9286e-4107-4ca2-8d76-1062c1c92275"},"vehicle_type_id":"4","last_reported":1693066043,"current_range_meters":29200,"station_id":"ce4bgj92rcd13ifvqbd0","pricing_plan_id":"free"},{"bike_id":"ffa0e0c2-a576-4441-892a-c27ecfe486ab","system_id":"levelo_inurba_marseille","lat":43.299724,"lon":5.384848,"is_reserved":false,"is_disabled":false,"rental_uris":{"android":"levelo://app?vid=ffa0e0c2-a576-4441-892a-c27ecfe486ab","ios":"levelo://app?vid=ffa0e0c2-a576-4441-892a-c27ecfe486ab"},"vehicle_type_id":"4","last_reported":1693066043,"current_range_meters":20800,"station_id":"ce4bgj92rcd13ifvqbd0","pricing_plan_id":"free"},{"bike_id":"f85cf4cd-c26c-4118-b197-0a9cc26b670d","system_id":"levelo_inurba_marseille","lat":43.29954,"lon":5.38477,"is_reserved":false,"is_disabled":false,"rental_uris":{"android":"levelo://app?vid=f85cf4cd-c26c-4118-b197-0a9cc26b670d","ios":"levelo://app?vid=f85cf4cd-c26c-4118-b197-0a9cc26b670d"},"vehicle_type_id":"4","last_reported":1693066043,"current_range_meters":7600,"station_id":"ce4bgj92rcd13ifvqbd0","pricing_plan_id":"free"},{"bike_id":"d5617c91-87e1-4b53-a36a-d851ab8b7ccd","system_id":"levelo_inurba_marseille","lat":43.29963,"lon":5.38496,"is_reserved":false,"is_disabled":false,"rental_uris":{"android":"levelo://app?vid=d5617c91-87e1-4b53-a36a-d851ab8b7ccd","ios":"levelo://app?vid=d5617c91-87e1-4b53-a36a-d851ab8b7ccd"},"vehicle_type_id":"4","last_reported":1693066043,"current_range_meters":2400,"station_id":"ce4bgj92rcd13ifvqbd0","pricing_plan_id":"free"},{"bike_id":"329b52da-6179-4119-8885-76b50cbdc2a9","system_id":"levelo_inurba_marseille","lat":43.30049,"lon":5.38659,"is_reserved":false,"is_disabled":false,"rental_uris":{"android":"levelo://app?vid=329b52da-6179-4119-8885-76b50cbdc2a9","ios":"levelo://app?vid=329b52da-6179-4119-8885-76b50cbdc2a9"},"vehicle_type_id":"4","last_reported":1693066043,"current_range_meters":22800,"station_id":"","pricing_plan_id":"free"},{"bike_id":"7b694443-f8bd-415b-8543-e7ff248e2b5f","system_id":"levelo_inurba_marseille","lat":43.32363,"lon":5.38877,"is_reserved":false,"is_disabled":false,"rental_uris":{"android":"levelo://app?vid=7b694443-f8bd-415b-8543-e7ff248e2b5f","ios":"levelo://app?vid=7b694443-f8bd-415b-8543-e7ff248e2b5f"},"vehicle_type_id":"4","last_reported":1693066043,"current_range_meters":13600,"station_id":"ce4bhqp2rcd13ifvqhog","pricing_plan_id":"free"},{"bike_id":"00883cd9-a56a-4720-bb55-237d0136a4a1","system_id":"levelo_inurba_marseille","lat":43.32362,"lon":5.38879,"is_reserved":false,"is_disabled":false,"rental_uris":{"android":"levelo://app?vid=00883cd9-a56a-4720-bb55-237d0136a4a1","ios":"levelo://app?vid=00883cd9-a56a-4720-bb55-237d0136a4a1"},"vehicle_type_id":"4","last_reported":1693066043,"current_range_meters":16000,"station_id":"ce4bhqp2rcd13ifvqhog","pricing_plan_id":"free"},{"bike_id":"75062327-6bb2-4b70-929c-121c9bb2e34a","system_id":"levelo_inurba_marseille","lat":43.32372,"lon":5.38872,"is_reserved":false,"is_disabled":false,"rental_uris":{"android":"levelo://app?vid=75062327-6bb2-4b70-929c-121c9bb2e34a","ios":"levelo://app?vid=75062327-6bb2-4b70-929c-121c9bb2e34a"},"vehicle_type_id":"4","last_reported":1693066043,"current_range_meters":15200,"station_id":"ce4bhqp2rcd13ifvqhog","pricing_plan_id":"free"},{"bike_id":"773671d0-a9df-475a-8f82-695fb6c0c52f","system_id":"levelo_inurba_marseille","lat":43.32367,"lon":5.388836,"is_reserved":false,"is_disabled":false,"rental_uris":{"android":"levelo://app?vid=773671d0-a9df-475a-8f82-695fb6c0c52f","ios":"levelo://app?vid=773671d0-a9df-475a-8f82-695fb6c0c52f"},"vehicle_type_id":"4","last_reported":1693066043,"current_range_meters":25200,"station_id":"ce4bhqp2rcd13ifvqhog","pricing_plan_id":"free"},{"bike_id":"cacd3475-4f52-4393-95ca-751300d3437b","system_id":"levelo_inurba_marseille","lat":43.29608,"lon":5.38095,"is_reserved":false,"is_disabled":false,"rental_uris":{"android":"levelo://app?vid=cacd3475-4f52-4393-95ca-751300d3437b","ios":"levelo://app?vid=cacd3475-4f52-4393-95ca-751300d3437b"},"vehicle_type_id":"4","last_reported":1693066043,"current_range_meters":800,"station_id":"ce4bgl12rcd13ifvqbo0","pricing_plan_id":"free"},{"bike_id":"6533c646-1091-4458-9ef2-bc9d36dce22d","system_id":"levelo_inurba_marseille","lat":43.29302,"lon":5.3745,"is_reserved":false,"is_disabled":false,"rental_uris":{"android":"levelo://app?vid=6533c646-1091-4458-9ef2-bc9d36dce22d","ios":"levelo://app?vid=6533c646-1091-4458-9ef2-bc9d36dce22d"},"vehicle_type_id":"4","last_reported":1693066043,"current_range_meters":28800,"station_id":"ce4bgi12rcd13ifvqb70","pricing_plan_id":"free"},{"bike_id":"17192000-73f0-4897-a935-204defae7535","system_id":"levelo_inurba_marseille","lat":43.30593,"lon":5.39347,"is_reserved":false,"is_disabled":false,"rental_uris":{"android":"levelo://app?vid=17192000-73f0-4897-a935-204defae7535","ios":"levelo://app?vid=17192000-73f0-4897-a935-204defae7535"},"vehicle_type_id":"4","last_reported":1693066043,"current_range_meters":22800,"station_id":"ce4bh0p2rcd13ifvqd80","pricing_plan_id":"free"},{"bike_id":"7a262686-a908-4623-9742-950bc6cda7a4","system_id":"levelo_inurba_marseille","lat":43.30591,"lon":5.39349,"is_reserved":false,"is_disabled":false,"rental_uris":{"android":"levelo://app?vid=7a262686-a908-4623-9742-950bc6cda7a4","ios":"levelo://app?vid=7a262686-a908-4623-9742-950bc6cda7a4"},"vehicle_type_id":"4","last_reported":1693066043,"current_range_meters":21600,"station_id":"ce4bh0p2rcd13ifvqd80","pricing_plan_id":"free"},{"bike_id":"38fef587-7cc5-4800-b069-87b8f296a10a","system_id":"levelo_inurba_marseille","lat":43.293009,"lon":5.374584,"is_reserved":false,"is_disabled":false,"rental_uris":{"android":"levelo://app?vid=38fef587-7cc5-4800-b069-87b8f296a10a","ios":"levelo://app?vid=38fef587-7cc5-4800-b069-87b8f296a10a"},"vehicle_type_id":"4","last_reported":1693066043,"current_range_meters":31600,"station_id":"ce4bgi12rcd13ifvqb70","pricing_plan_id":"free"},{"bike_id":"0778cae4-95d9-4627-b295-e81d4ea29ff1","system_id":"levelo_inurba_marseille","lat":43.305994,"lon":5.393687,"is_reserved":false,"is_disabled":false,"rental_uris":{"android":"levelo://app?vid=0778cae4-95d9-4627-b295-e81d4ea29ff1","ios":"levelo://app?vid=0778cae4-95d9-4627-b295-e81d4ea29ff1"},"vehicle_type_id":"4","last_reported":1693066043,"current_range_meters":15600,"station_id":"ce4bh0p2rcd13ifvqd80","pricing_plan_id":"free"},{"bike_id":"1f5fad7d-6769-4904-bd20-50bec363f98f","system_id":"levelo_inurba_marseille","lat":43.30303,"lon":5.39181,"is_reserved":false,"is_disabled":false,"rental_uris":{"android":"levelo://app?vid=1f5fad7d-6769-4904-bd20-50bec363f98f","ios":"levelo://app?vid=1f5fad7d-6769-4904-bd20-50bec363f98f"},"vehicle_type_id":"4","last_reported":1693066043,"current_range_meters":8400,"station_id":"ce4bgkh2rcd13ifvqbk0","pricing_plan_id":"free"},{"bike_id":"6875ac5a-b24b-4300-843e-0eccd281b8e4","system_id":"levelo_inurba_marseille","lat":43.305994,"lon":5.393687,"is_reserved":false,"is_disabled":false,"rental_uris":{"android":"levelo://app?vid=6875ac5a-b24b-4300-843e-0eccd281b8e4","ios":"levelo://app?vid=6875ac5a-b24b-4300-843e-0eccd281b8e4"},"vehicle_type_id":"4","last_reported":1693066043,"current_range_meters":22000,"station_id":"ce4bh0p2rcd13ifvqd80","pricing_plan_id":"free"},{"bike_id":"1c8fae2e-6bc7-4d9d-84f9-18f5cb0c6789","system_id":"levelo_inurba_marseille","lat":43.30298,"lon":5.39196,"is_reserved":false,"is_disabled":false,"rental_uris":{"android":"levelo://app?vid=1c8fae2e-6bc7-4d9d-84f9-18f5cb0c6789","ios":"levelo://app?vid=1c8fae2e-6bc7-4d9d-84f9-18f5cb0c6789"},"vehicle_type_id":"4","last_reported":1693066043,"current_range_meters":12400,"station_id":"ce4bgkh2rcd13ifvqbk0","pricing_plan_id":"free"},{"bike_id":"6f0aa8b9-fbe6-4ca5-aea1-7fb5a0474493","system_id":"levelo_inurba_marseille","lat":43.305994,"lon":5.393687,"is_reserved":false,"is_disabled":false,"rental_uris":{"android":"levelo://app?vid=6f0aa8b9-fbe6-4ca5-aea1-7fb5a0474493","ios":"levelo://app?vid=6f0aa8b9-fbe6-4ca5-aea1-7fb5a0474493"},"vehicle_type_id":"4","last_reported":1693066043,"current_range_meters":7600,"station_id":"ce4bh0p2rcd13ifvqd80","pricing_plan_id":"free"},{"bike_id":"3b590639-0ade-4f7b-a5e1-8492f85c75b7","system_id":"levelo_inurba_marseille","lat":43.30302,"lon":5.3921,"is_reserved":false,"is_disabled":false,"rental_uris":{"android":"levelo://app?vid=3b590639-0ade-4f7b-a5e1-8492f85c75b7","ios":"levelo://app?vid=3b590639-0ade-4f7b-a5e1-8492f85c75b7"},"vehicle_type_id":"4","last_reported":1693066043,"current_range_meters":0,"station_id":"","pricing_plan_id":"free"},{"bike_id":"0724f352-a262-45b7-9b71-9a09ff17d945","system_id":"levelo_inurba_marseille","lat":43.30306,"lon":5.39213,"is_reserved":false,"is_disabled":false,"rental_uris":{"android":"levelo://app?vid=0724f352-a262-45b7-9b71-9a09ff17d945","ios":"levelo://app?vid=0724f352-a262-45b7-9b71-9a09ff17d945"},"vehicle_type_id":"4","last_reported":1693066043,"current_range_meters":12000,"station_id":"ce4bgkh2rcd13ifvqbk0","pricing_plan_id":"free"},{"bike_id":"dd2ebffd-cefa-4bc2-99f9-f108caea227d","system_id":"levelo_inurba_marseille","lat":43.2936,"lon":5.37835,"is_reserved":false,"is_disabled":false,"rental_uris":{"android":"levelo://app?vid=dd2ebffd-cefa-4bc2-99f9-f108caea227d","ios":"levelo://app?vid=dd2ebffd-cefa-4bc2-99f9-f108caea227d"},"vehicle_type_id":"4","last_reported":1693066043,"current_range_meters":31200,"station_id":"ce4bgjh2rcd13ifvqbf0","pricing_plan_id":"free"},{"bike_id":"59d4a7cc-c4d8-47e1-a63f-2e26b5d209c3","system_id":"levelo_inurba_marseille","lat":43.2936,"lon":5.37835,"is_reserved":false,"is_disabled":false,"rental_uris":{"android":"levelo://app?vid=59d4a7cc-c4d8-47e1-a63f-2e26b5d209c3","ios":"levelo://app?vid=59d4a7cc-c4d8-47e1-a63f-2e26b5d209c3"},"vehicle_type_id":"4","last_reported":1693066043,"current_range_meters":31200,"station_id":"ce4bgjh2rcd13ifvqbf0","pricing_plan_id":"free"},{"bike_id":"047c17db-a72d-4760-aa2e-dae46fd26798","system_id":"levelo_inurba_marseille","lat":43.30085,"lon":5.390856,"is_reserved":false,"is_disabled":false,"rental_uris":{"android":"levelo://app?vid=047c17db-a72d-4760-aa2e-dae46fd26798","ios":"levelo://app?vid=047c17db-a72d-4760-aa2e-dae46fd26798"},"vehicle_type_id":"4","last_reported":1693066043,"current_range_meters":4400,"station_id":"ce4bh192rcd13ifvqdb0","pricing_plan_id":"free"},{"bike_id":"76742965-10f2-4bea-bc79-bbea4204b3c7","system_id":"levelo_inurba_marseille","lat":43.292311,"lon":5.360731,"is_reserved":false,"is_disabled":false,"rental_uris":{"android":"levelo://app?vid=76742965-10f2-4bea-bc79-bbea4204b3c7","ios":"levelo://app?vid=76742965-10f2-4bea-bc79-bbea4204b3c7"},"vehicle_type_id":"4","last_reported":1693066043,"current_range_meters":0,"station_id":"ce4bhbh2rcd13ifvqeqg","pricing_plan_id":"free"},{"bike_id":"957189c5-5f5c-4bee-b12c-ed295634b686","system_id":"levelo_inurba_marseille","lat":43.298764,"lon":5.388973,"is_reserved":false,"is_disabled":false,"rental_uris":{"android":"levelo://app?vid=957189c5-5f5c-4bee-b12c-ed295634b686","ios":"levelo://app?vid=957189c5-5f5c-4bee-b12c-ed295634b686"},"vehicle_type_id":"4","last_reported":1693066043,"current_range_meters":11600,"station_id":"ce4bh392rcd13ifvqdl0","pricing_plan_id":"free"},{"bike_id":"c91edfae-2a78-49b4-b202-71d958f3d6e6","system_id":"levelo_inurba_marseille","lat":43.30948,"lon":5.39625,"is_reserved":false,"is_disabled":false,"rental_uris":{"android":"levelo://app?vid=c91edfae-2a78-49b4-b202-71d958f3d6e6","ios":"levelo://app?vid=c91edfae-2a78-49b4-b202-71d958f3d6e6"},"vehicle_type_id":"4","last_reported":1693066043,"current_range_meters":22800,"station_id":"","pricing_plan_id":"free"},{"bike_id":"3144a3aa-a47a-471c-b70b-a2b2e2097bfd","system_id":"levelo_inurba_marseille","lat":43.309038,"lon":5.396546,"is_reserved":false,"is_disabled":false,"rental_uris":{"android":"levelo://app?vid=3144a3aa-a47a-471c-b70b-a2b2e2097bfd","ios":"levelo://app?vid=3144a3aa-a47a-471c-b70b-a2b2e2097bfd"},"vehicle_type_id":"4","last_reported":1693066043,"current_range_meters":26400,"station_id":"ce4bh012rcd13ifvqcv0","pricing_plan_id":"free"},{"bike_id":"c480fd50-ad85-4c8d-8845-3b271c2334fe","system_id":"levelo_inurba_marseille","lat":43.31317,"lon":5.39697,"is_reserved":false,"is_disabled":false,"rental_uris":{"android":"levelo://app?vid=c480fd50-ad85-4c8d-8845-3b271c2334fe","ios":"levelo://app?vid=c480fd50-ad85-4c8d-8845-3b271c2334fe"},"vehicle_type_id":"4","last_reported":1693066043,"current_range_meters":16400,"station_id":"ce4bgvp2rcd13ifvqcu0","pricing_plan_id":"free"},{"bike_id":"e5317f16-6ea4-4282-b61c-883c1dd053c4","system_id":"levelo_inurba_marseille","lat":43.290779,"lon":5.371482,"is_reserved":false,"is_disabled":false,"rental_uris":{"android":"levelo://app?vid=e5317f16-6ea4-4282-b61c-883c1dd053c4","ios":"levelo://app?vid=e5317f16-6ea4-4282-b61c-883c1dd053c4"},"vehicle_type_id":"4","last_reported":1693066043,"current_range_meters":11600,"station_id":"ce4bh5p2rcd13ifvqe4g","pricing_plan_id":"free"},{"bike_id":"dcde9497-1080-4869-8c76-036a764d82ef","system_id":"levelo_inurba_marseille","lat":43.29424,"lon":5.38614,"is_reserved":false,"is_disabled":false,"rental_uris":{"android":"levelo://app?vid=dcde9497-1080-4869-8c76-036a764d82ef","ios":"levelo://app?vid=dcde9497-1080-4869-8c76-036a764d82ef"},"vehicle_type_id":"4","last_reported":1693066043,"current_range_meters":20000,"station_id":"ce4bh2h2rcd13ifvqdh0","pricing_plan_id":"free"},{"bike_id":"488ec4d2-0e57-4600-9224-19842e6bd7d0","system_id":"levelo_inurba_marseille","lat":43.290327,"lon":5.375711,"is_reserved":false,"is_disabled":false,"rental_uris":{"android":"levelo://app?vid=488ec4d2-0e57-4600-9224-19842e6bd7d0","ios":"levelo://app?vid=488ec4d2-0e57-4600-9224-19842e6bd7d0"},"vehicle_type_id":"4","last_reported":1693066043,"current_range_meters":27200,"station_id":"ce4bh692rcd13ifvqe90","pricing_plan_id":"free"},{"bike_id":"63e0cddd-0bdc-43ce-b50a-073210595e7e","system_id":"levelo_inurba_marseille","lat":43.289184,"lon":5.366408,"is_reserved":false,"is_disabled":false,"rental_uris":{"android":"levelo://app?vid=63e0cddd-0bdc-43ce-b50a-073210595e7e","ios":"levelo://app?vid=63e0cddd-0bdc-43ce-b50a-073210595e7e"},"vehicle_type_id":"4","last_reported":1693066043,"current_range_meters":24800,"station_id":"ce4bhap2rcd13ifvqek0","pricing_plan_id":"free"},{"bike_id":"2f93318d-a393-4e93-88c9-60d3ec241b0e","system_id":"levelo_inurba_marseille","lat":43.289184,"lon":5.366408,"is_reserved":false,"is_disabled":false,"rental_uris":{"android":"levelo://app?vid=2f93318d-a393-4e93-88c9-60d3ec241b0e","ios":"levelo://app?vid=2f93318d-a393-4e93-88c9-60d3ec241b0e"},"vehicle_type_id":"4","last_reported":1693066043,"current_range_meters":31600,"station_id":"ce4bhap2rcd13ifvqek0","pricing_plan_id":"free"},{"bike_id":"b739adc8-46ce-4314-8449-b661ac31f753","system_id":"levelo_inurba_marseille","lat":43.289468,"lon":5.363719,"is_reserved":false,"is_disabled":false,"rental_uris":{"android":"levelo://app?vid=b739adc8-46ce-4314-8449-b661ac31f753","ios":"levelo://app?vid=b739adc8-46ce-4314-8449-b661ac31f753"},"vehicle_type_id":"4","last_reported":1693066043,"current_range_meters":22400,"station_id":"ce4bhc92rcd13ifvqetg","pricing_plan_id":"free"},{"bike_id":"9a0b8fb5-8330-41d7-8c6e-b9463857c807","system_id":"levelo_inurba_marseille","lat":43.304274,"lon":5.397513,"is_reserved":false,"is_disabled":false,"rental_uris":{"android":"levelo://app?vid=9a0b8fb5-8330-41d7-8c6e-b9463857c807","ios":"levelo://app?vid=9a0b8fb5-8330-41d7-8c6e-b9463857c807"},"vehicle_type_id":"4","last_reported":1693066043,"current_range_meters":14800,"station_id":"ce4bh092rcd13ifvqd20","pricing_plan_id":"free"},{"bike_id":"ba609e06-26ff-49e4-9351-b340e50f1f0e","system_id":"levelo_inurba_marseille","lat":43.304296,"lon":5.397513,"is_reserved":false,"is_disabled":false,"rental_uris":{"android":"levelo://app?vid=ba609e06-26ff-49e4-9351-b340e50f1f0e","ios":"levelo://app?vid=ba609e06-26ff-49e4-9351-b340e50f1f0e"},"vehicle_type_id":"4","last_reported":1693066043,"current_range_meters":16400,"station_id":"ce4bh092rcd13ifvqd20","pricing_plan_id":"free"},{"bike_id":"6093d433-f9d6-48fe-897b-a1be7c29ef34","system_id":"levelo_inurba_marseille","lat":43.29008,"lon":5.35616,"is_reserved":false,"is_disabled":false,"rental_uris":{"android":"levelo://app?vid=6093d433-f9d6-48fe-897b-a1be7c29ef34","ios":"levelo://app?vid=6093d433-f9d6-48fe-897b-a1be7c29ef34"},"vehicle_type_id":"4","last_reported":1693066043,"current_range_meters":31200,"station_id":"ce4bhb92rcd13ifvqen0","pricing_plan_id":"free"},{"bike_id":"1895038e-acdb-4d35-aa35-e1291f23a30a","system_id":"levelo_inurba_marseille","lat":43.290103,"lon":5.356114,"is_reserved":false,"is_disabled":false,"rental_uris":{"android":"levelo://app?vid=1895038e-acdb-4d35-aa35-e1291f23a30a","ios":"levelo://app?vid=1895038e-acdb-4d35-aa35-e1291f23a30a"},"vehicle_type_id":"4","last_reported":1693066043,"current_range_meters":31200,"station_id":"ce4bhb92rcd13ifvqen0","pricing_plan_id":"free"},{"bike_id":"1c07e25f-84db-4513-bedb-11b97c6ec9b6","system_id":"levelo_inurba_marseille","lat":43.330442,"lon":5.389148,"is_reserved":false,"is_disabled":false,"rental_uris":{"android":"levelo://app?vid=1c07e25f-84db-4513-bedb-11b97c6ec9b6","ios":"levelo://app?vid=1c07e25f-84db-4513-bedb-11b97c6ec9b6"},"vehicle_type_id":"4","last_reported":1693066043,"current_range_meters":24000,"station_id":"ce4bhr92rcd13ifvqhrg","pricing_plan_id":"free"},{"bike_id":"a4df99ce-0488-49dd-a888-94686f562e88","system_id":"levelo_inurba_marseille","lat":43.290104,"lon":5.356111,"is_reserved":false,"is_disabled":false,"rental_uris":{"android":"levelo://app?vid=a4df99ce-0488-49dd-a888-94686f562e88","ios":"levelo://app?vid=a4df99ce-0488-49dd-a888-94686f562e88"},"vehicle_type_id":"4","last_reported":1693066043,"current_range_meters":30000,"station_id":"ce4bhb92rcd13ifvqen0","pricing_plan_id":"free"},{"bike_id":"21b0e3fb-12da-4f1b-9676-3ccdf41e7914","system_id":"levelo_inurba_marseille","lat":43.29535,"lon":5.39027,"is_reserved":false,"is_disabled":false,"rental_uris":{"android":"levelo://app?vid=21b0e3fb-12da-4f1b-9676-3ccdf41e7914","ios":"levelo://app?vid=21b0e3fb-12da-4f1b-9676-3ccdf41e7914"},"vehicle_type_id":"4","last_reported":1693066043,"current_range_meters":12400,"station_id":"ce4bh3p2rcd13ifvqdp0","pricing_plan_id":"free"},{"bike_id":"a2aad08c-8838-46f5-b8fe-4ce46f558881","system_id":"levelo_inurba_marseille","lat":43.297815,"lon":5.393548,"is_reserved":false,"is_disabled":false,"rental_uris":{"android":"levelo://app?vid=a2aad08c-8838-46f5-b8fe-4ce46f558881","ios":"levelo://app?vid=a2aad08c-8838-46f5-b8fe-4ce46f558881"},"vehicle_type_id":"4","last_reported":1693066043,"current_range_meters":28000,"station_id":"chh1huq6cuj3fo74tm60","pricing_plan_id":"free"},{"bike_id":"15e7f70f-0085-4223-985c-0f3579431cf3","system_id":"levelo_inurba_marseille","lat":43.28861,"lon":5.35862,"is_reserved":false,"is_disabled":false,"rental_uris":{"android":"levelo://app?vid=15e7f70f-0085-4223-985c-0f3579431cf3","ios":"levelo://app?vid=15e7f70f-0085-4223-985c-0f3579431cf3"},"vehicle_type_id":"4","last_reported":1693066043,"current_range_meters":25600,"station_id":"ce4bhb12rcd13ifvqem0","pricing_plan_id":"free"},{"bike_id":"326a75a0-bd1a-4843-b465-85c955b25713","system_id":"levelo_inurba_marseille","lat":43.28848,"lon":5.35836,"is_reserved":false,"is_disabled":false,"rental_uris":{"android":"levelo://app?vid=326a75a0-bd1a-4843-b465-85c955b25713","ios":"levelo://app?vid=326a75a0-bd1a-4843-b465-85c955b25713"},"vehicle_type_id":"4","last_reported":1693066043,"current_range_meters":0,"station_id":"ce4bhb12rcd13ifvqem0","pricing_plan_id":"free"},{"bike_id":"093db93b-5453-41f0-b235-e32d752da502","system_id":"levelo_inurba_marseille","lat":43.30936,"lon":5.40139,"is_reserved":false,"is_disabled":false,"rental_uris":{"android":"levelo://app?vid=093db93b-5453-41f0-b235-e32d752da502","ios":"levelo://app?vid=093db93b-5453-41f0-b235-e32d752da502"},"vehicle_type_id":"4","last_reported":1693066043,"current_range_meters":14400,"station_id":"ce4bgvp2rcd13ifvqct0","pricing_plan_id":"free"},{"bike_id":"16b01de2-4268-47e0-b02b-e8bfbc69fc58","system_id":"levelo_inurba_marseille","lat":43.309371,"lon":5.401449,"is_reserved":false,"is_disabled":false,"rental_uris":{"android":"levelo://app?vid=16b01de2-4268-47e0-b02b-e8bfbc69fc58","ios":"levelo://app?vid=16b01de2-4268-47e0-b02b-e8bfbc69fc58"},"vehicle_type_id":"4","last_reported":1693066043,"current_range_meters":18000,"station_id":"ce4bgvp2rcd13ifvqct0","pricing_plan_id":"free"},{"bike_id":"0c3fe754-7f33-4abd-bf78-51a9b801cc34","system_id":"levelo_inurba_marseille","lat":43.3377,"lon":5.37427,"is_reserved":false,"is_disabled":false,"rental_uris":{"android":"levelo://app?vid=0c3fe754-7f33-4abd-bf78-51a9b801cc34","ios":"levelo://app?vid=0c3fe754-7f33-4abd-bf78-51a9b801cc34"},"vehicle_type_id":"4","last_reported":1693066043,"current_range_meters":14800,"station_id":"","pricing_plan_id":"free"},{"bike_id":"ff3fbcd8-9a1e-4dbc-9b88-49aa60bcdca4","system_id":"levelo_inurba_marseille","lat":43.30149,"lon":5.39866,"is_reserved":false,"is_disabled":false,"rental_uris":{"android":"levelo://app?vid=ff3fbcd8-9a1e-4dbc-9b88-49aa60bcdca4","ios":"levelo://app?vid=ff3fbcd8-9a1e-4dbc-9b88-49aa60bcdca4"},"vehicle_type_id":"4","last_reported":1693066043,"current_range_meters":0,"station_id":"ce4bh0h2rcd13ifvqd40","pricing_plan_id":"free"},{"bike_id":"939b235e-d06d-4751-8b59-dc278a37dcae","system_id":"levelo_inurba_marseille","lat":43.290336,"lon":5.386425,"is_reserved":false,"is_disabled":false,"rental_uris":{"android":"levelo://app?vid=939b235e-d06d-4751-8b59-dc278a37dcae","ios":"levelo://app?vid=939b235e-d06d-4751-8b59-dc278a37dcae"},"vehicle_type_id":"4","last_reported":1693066043,"current_range_meters":14800,"station_id":"ce4bh4p2rcd13ifvqe0g","pricing_plan_id":"free"},{"bike_id":"2365150f-73ab-4507-aea4-76016e6109c8","system_id":"levelo_inurba_marseille","lat":43.286593,"lon":5.363346,"is_reserved":false,"is_disabled":false,"rental_uris":{"android":"levelo://app?vid=2365150f-73ab-4507-aea4-76016e6109c8","ios":"levelo://app?vid=2365150f-73ab-4507-aea4-76016e6109c8"},"vehicle_type_id":"4","last_reported":1693066043,"current_range_meters":31600,"station_id":"ce4bhah2rcd13ifvqej0","pricing_plan_id":"free"},{"bike_id":"936e6275-9f06-4c56-b4c0-3aa51ea5bad5","system_id":"levelo_inurba_marseille","lat":43.295196,"lon":5.39397,"is_reserved":false,"is_disabled":false,"rental_uris":{"android":"levelo://app?vid=936e6275-9f06-4c56-b4c0-3aa51ea5bad5","ios":"levelo://app?vid=936e6275-9f06-4c56-b4c0-3aa51ea5bad5"},"vehicle_type_id":"4","last_reported":1693066043,"current_range_meters":30000,"station_id":"ce4bh292rcd13ifvqdf0","pricing_plan_id":"free"},{"bike_id":"75199276-b705-4ad7-b6a9-49aeaa84628a","system_id":"levelo_inurba_marseille","lat":43.286591,"lon":5.363346,"is_reserved":false,"is_disabled":false,"rental_uris":{"android":"levelo://app?vid=75199276-b705-4ad7-b6a9-49aeaa84628a","ios":"levelo://app?vid=75199276-b705-4ad7-b6a9-49aeaa84628a"},"vehicle_type_id":"4","last_reported":1693066043,"current_range_meters":30400,"station_id":"ce4bhah2rcd13ifvqej0","pricing_plan_id":"free"},{"bike_id":"02195b37-defe-4def-9d4e-7885f6cd815b","system_id":"levelo_inurba_marseille","lat":43.295196,"lon":5.39397,"is_reserved":false,"is_disabled":false,"rental_uris":{"android":"levelo://app?vid=02195b37-defe-4def-9d4e-7885f6cd815b","ios":"levelo://app?vid=02195b37-defe-4def-9d4e-7885f6cd815b"},"vehicle_type_id":"4","last_reported":1693066043,"current_range_meters":29200,"station_id":"ce4bh292rcd13ifvqdf0","pricing_plan_id":"free"},{"bike_id":"c117ed81-9577-4a91-b12d-2b8fd625cdaa","system_id":"levelo_inurba_marseille","lat":43.295194,"lon":5.39397,"is_reserved":false,"is_disabled":false,"rental_uris":{"android":"levelo://app?vid=c117ed81-9577-4a91-b12d-2b8fd625cdaa","ios":"levelo://app?vid=c117ed81-9577-4a91-b12d-2b8fd625cdaa"},"vehicle_type_id":"4","last_reported":1693066043,"current_range_meters":20400,"station_id":"ce4bh292rcd13ifvqdf0","pricing_plan_id":"free"},{"bike_id":"0da14e18-63de-42de-9352-d54ec3be96fa","system_id":"levelo_inurba_marseille","lat":43.302759,"lon":5.400793,"is_reserved":false,"is_disabled":false,"rental_uris":{"android":"levelo://app?vid=0da14e18-63de-42de-9352-d54ec3be96fa","ios":"levelo://app?vid=0da14e18-63de-42de-9352-d54ec3be96fa"},"vehicle_type_id":"4","last_reported":1693066043,"current_range_meters":5200,"station_id":"ce4bgvh2rcd13ifvqcs0","pricing_plan_id":"free"},{"bike_id":"83e5270c-6e46-4da4-bee9-09a873efdb5a","system_id":"levelo_inurba_marseille","lat":43.286039,"lon":5.370679,"is_reserved":false,"is_disabled":false,"rental_uris":{"android":"levelo://app?vid=83e5270c-6e46-4da4-bee9-09a873efdb5a","ios":"levelo://app?vid=83e5270c-6e46-4da4-bee9-09a873efdb5a"},"vehicle_type_id":"4","last_reported":1693066043,"current_range_meters":28800,"station_id":"ce4bht12rcd13ifvqi60","pricing_plan_id":"free"},{"bike_id":"c6383863-2c04-4511-9a4b-a00a12397e80","system_id":"levelo_inurba_marseille","lat":43.286039,"lon":5.370679,"is_reserved":false,"is_disabled":false,"rental_uris":{"android":"levelo://app?vid=c6383863-2c04-4511-9a4b-a00a12397e80","ios":"levelo://app?vid=c6383863-2c04-4511-9a4b-a00a12397e80"},"vehicle_type_id":"4","last_reported":1693066043,"current_range_meters":28400,"station_id":"ce4bht12rcd13ifvqi60","pricing_plan_id":"free"},{"bike_id":"4f4f4705-3dc4-4aaa-9b64-f4f007885c6d","system_id":"levelo_inurba_marseille","lat":43.287185,"lon":5.379373,"is_reserved":false,"is_disabled":false,"rental_uris":{"android":"levelo://app?vid=4f4f4705-3dc4-4aaa-9b64-f4f007885c6d","ios":"levelo://app?vid=4f4f4705-3dc4-4aaa-9b64-f4f007885c6d"},"vehicle_type_id":"4","last_reported":1693066043,"current_range_meters":20800,"station_id":"ce4bh9p2rcd13ifvqec0","pricing_plan_id":"free"},{"bike_id":"4fb11fe2-a350-46e8-a31f-af96326f9b88","system_id":"levelo_inurba_marseille","lat":43.287184,"lon":5.37937,"is_reserved":false,"is_disabled":false,"rental_uris":{"android":"levelo://app?vid=4fb11fe2-a350-46e8-a31f-af96326f9b88","ios":"levelo://app?vid=4fb11fe2-a350-46e8-a31f-af96326f9b88"},"vehicle_type_id":"4","last_reported":1693066043,"current_range_meters":9600,"station_id":"ce4bh9p2rcd13ifvqec0","pricing_plan_id":"free"},{"bike_id":"d7cc21f7-80a1-4e20-8104-0df0b380ab29","system_id":"levelo_inurba_marseille","lat":43.287185,"lon":5.379373,"is_reserved":false,"is_disabled":false,"rental_uris":{"android":"levelo://app?vid=d7cc21f7-80a1-4e20-8104-0df0b380ab29","ios":"levelo://app?vid=d7cc21f7-80a1-4e20-8104-0df0b380ab29"},"vehicle_type_id":"4","last_reported":1693066043,"current_range_meters":17600,"station_id":"ce4bh9p2rcd13ifvqec0","pricing_plan_id":"free"},{"bike_id":"7da9e437-1e79-4b5f-9ab0-65254ac17dd7","system_id":"levelo_inurba_marseille","lat":43.31649,"lon":5.40438,"is_reserved":false,"is_disabled":false,"rental_uris":{"android":"levelo://app?vid=7da9e437-1e79-4b5f-9ab0-65254ac17dd7","ios":"levelo://app?vid=7da9e437-1e79-4b5f-9ab0-65254ac17dd7"},"vehicle_type_id":"4","last_reported":1693066043,"current_range_meters":12800,"station_id":"ce4bh012rcd13ifvqd00","pricing_plan_id":"free"},{"bike_id":"5109a7da-449f-4b36-985a-4922c2859201","system_id":"levelo_inurba_marseille","lat":43.28633,"lon":5.35086,"is_reserved":false,"is_disabled":false,"rental_uris":{"android":"levelo://app?vid=5109a7da-449f-4b36-985a-4922c2859201","ios":"levelo://app?vid=5109a7da-449f-4b36-985a-4922c2859201"},"vehicle_type_id":"4","last_reported":1693066043,"current_range_meters":31600,"station_id":"ce4bhch2rcd13ifvqeug","pricing_plan_id":"free"},{"bike_id":"2363d3b5-6c15-401a-a59c-ee80bd4af927","system_id":"levelo_inurba_marseille","lat":43.28415,"lon":5.37522,"is_reserved":false,"is_disabled":false,"rental_uris":{"android":"levelo://app?vid=2363d3b5-6c15-401a-a59c-ee80bd4af927","ios":"levelo://app?vid=2363d3b5-6c15-401a-a59c-ee80bd4af927"},"vehicle_type_id":"4","last_reported":1693066043,"current_range_meters":0,"station_id":"ce4bh412rcd13ifvqds0","pricing_plan_id":"free"},{"bike_id":"fbafa583-df2f-4beb-bbab-161640a3afd5","system_id":"levelo_inurba_marseille","lat":43.337168,"lon":5.391825,"is_reserved":false,"is_disabled":false,"rental_uris":{"android":"levelo://app?vid=fbafa583-df2f-4beb-bbab-161640a3afd5","ios":"levelo://app?vid=fbafa583-df2f-4beb-bbab-161640a3afd5"},"vehicle_type_id":"4","last_reported":1693066043,"current_range_meters":14800,"station_id":"ce4bhr92rcd13ifvqhsg","pricing_plan_id":"free"},{"bike_id":"67d31a5e-e022-4a43-8753-e0f746914c41","system_id":"levelo_inurba_marseille","lat":43.33723,"lon":5.3918,"is_reserved":false,"is_disabled":false,"rental_uris":{"android":"levelo://app?vid=67d31a5e-e022-4a43-8753-e0f746914c41","ios":"levelo://app?vid=67d31a5e-e022-4a43-8753-e0f746914c41"},"vehicle_type_id":"4","last_reported":1693066043,"current_range_meters":24800,"station_id":"ce4bhr92rcd13ifvqhsg","pricing_plan_id":"free"},{"bike_id":"cb01a8a3-0d33-478d-bbe8-f8f6720769cc","system_id":"levelo_inurba_marseille","lat":43.33728,"lon":5.39178,"is_reserved":false,"is_disabled":false,"rental_uris":{"android":"levelo://app?vid=cb01a8a3-0d33-478d-bbe8-f8f6720769cc","ios":"levelo://app?vid=cb01a8a3-0d33-478d-bbe8-f8f6720769cc"},"vehicle_type_id":"4","last_reported":1693066043,"current_range_meters":22400,"station_id":"ce4bhr92rcd13ifvqhsg","pricing_plan_id":"free"},{"bike_id":"8320de35-3946-4a47-9f14-9a6122ee86fc","system_id":"levelo_inurba_marseille","lat":43.323464,"lon":5.406297,"is_reserved":false,"is_disabled":false,"rental_uris":{"android":"levelo://app?vid=8320de35-3946-4a47-9f14-9a6122ee86fc","ios":"levelo://app?vid=8320de35-3946-4a47-9f14-9a6122ee86fc"},"vehicle_type_id":"4","last_reported":1693066043,"current_range_meters":31600,"station_id":"ce4bhq92rcd13ifvqhjg","pricing_plan_id":"free"},{"bike_id":"b79037f8-5eba-48e9-808a-72ef86cb97be","system_id":"levelo_inurba_marseille","lat":43.323464,"lon":5.406297,"is_reserved":false,"is_disabled":false,"rental_uris":{"android":"levelo://app?vid=b79037f8-5eba-48e9-808a-72ef86cb97be","ios":"levelo://app?vid=b79037f8-5eba-48e9-808a-72ef86cb97be"},"vehicle_type_id":"4","last_reported":1693066043,"current_range_meters":31200,"station_id":"ce4bhq92rcd13ifvqhjg","pricing_plan_id":"free"},{"bike_id":"261eaadf-6347-42f2-b9c2-72bd0b4a7c63","system_id":"levelo_inurba_marseille","lat":43.337168,"lon":5.391825,"is_reserved":false,"is_disabled":false,"rental_uris":{"android":"levelo://app?vid=261eaadf-6347-42f2-b9c2-72bd0b4a7c63","ios":"levelo://app?vid=261eaadf-6347-42f2-b9c2-72bd0b4a7c63"},"vehicle_type_id":"4","last_reported":1693066043,"current_range_meters":29600,"station_id":"ce4bhr92rcd13ifvqhsg","pricing_plan_id":"free"},{"bike_id":"531d6e23-0278-4a54-a610-21397a86f1a4","system_id":"levelo_inurba_marseille","lat":43.337168,"lon":5.391825,"is_reserved":false,"is_disabled":false,"rental_uris":{"android":"levelo://app?vid=531d6e23-0278-4a54-a610-21397a86f1a4","ios":"levelo://app?vid=531d6e23-0278-4a54-a610-21397a86f1a4"},"vehicle_type_id":"4","last_reported":1693066043,"current_range_meters":24400,"station_id":"ce4bhr92rcd13ifvqhsg","pricing_plan_id":"free"},{"bike_id":"180b8d82-e769-43df-afb4-0eaef17259b0","system_id":"levelo_inurba_marseille","lat":43.33732,"lon":5.39184,"is_reserved":false,"is_disabled":false,"rental_uris":{"android":"levelo://app?vid=180b8d82-e769-43df-afb4-0eaef17259b0","ios":"levelo://app?vid=180b8d82-e769-43df-afb4-0eaef17259b0"},"vehicle_type_id":"4","last_reported":1693066043,"current_range_meters":16800,"station_id":"ce4bhr92rcd13ifvqhsg","pricing_plan_id":"free"},{"bike_id":"db7ab961-c1f9-47c0-81c9-6839f354a493","system_id":"levelo_inurba_marseille","lat":43.323464,"lon":5.406297,"is_reserved":false,"is_disabled":false,"rental_uris":{"android":"levelo://app?vid=db7ab961-c1f9-47c0-81c9-6839f354a493","ios":"levelo://app?vid=db7ab961-c1f9-47c0-81c9-6839f354a493"},"vehicle_type_id":"4","last_reported":1693066043,"current_range_meters":31600,"station_id":"ce4bhq92rcd13ifvqhjg","pricing_plan_id":"free"},{"bike_id":"7e4b49c2-f4de-4644-9176-19b326f1db26","system_id":"levelo_inurba_marseille","lat":43.33717,"lon":5.391857,"is_reserved":false,"is_disabled":false,"rental_uris":{"android":"levelo://app?vid=7e4b49c2-f4de-4644-9176-19b326f1db26","ios":"levelo://app?vid=7e4b49c2-f4de-4644-9176-19b326f1db26"},"vehicle_type_id":"4","last_reported":1693066043,"current_range_meters":23600,"station_id":"ce4bhr92rcd13ifvqhsg","pricing_plan_id":"free"},{"bike_id":"b9178fa1-3d9f-472a-a834-0e7c633bb4af","system_id":"levelo_inurba_marseille","lat":43.33736,"lon":5.39191,"is_reserved":false,"is_disabled":false,"rental_uris":{"android":"levelo://app?vid=b9178fa1-3d9f-472a-a834-0e7c633bb4af","ios":"levelo://app?vid=b9178fa1-3d9f-472a-a834-0e7c633bb4af"},"vehicle_type_id":"4","last_reported":1693066043,"current_range_meters":10400,"station_id":"ce4bhr92rcd13ifvqhsg","pricing_plan_id":"free"},{"bike_id":"414290bd-353b-41b2-bd9a-1d3c2c5739df","system_id":"levelo_inurba_marseille","lat":43.284793,"lon":5.384113,"is_reserved":false,"is_disabled":false,"rental_uris":{"android":"levelo://app?vid=414290bd-353b-41b2-bd9a-1d3c2c5739df","ios":"levelo://app?vid=414290bd-353b-41b2-bd9a-1d3c2c5739df"},"vehicle_type_id":"4","last_reported":1693066043,"current_range_meters":30400,"station_id":"ce4bh512rcd13ifvqe3g","pricing_plan_id":"free"},{"bike_id":"81207e02-e329-4cea-9b6c-33ba9c0267d2","system_id":"levelo_inurba_marseille","lat":43.284787,"lon":5.384116,"is_reserved":false,"is_disabled":false,"rental_uris":{"android":"levelo://app?vid=81207e02-e329-4cea-9b6c-33ba9c0267d2","ios":"levelo://app?vid=81207e02-e329-4cea-9b6c-33ba9c0267d2"},"vehicle_type_id":"4","last_reported":1693066043,"current_range_meters":31600,"station_id":"ce4bh512rcd13ifvqe3g","pricing_plan_id":"free"},{"bike_id":"8f1bb7ca-fcdd-4904-84f5-ac3f2d2671e6","system_id":"levelo_inurba_marseille","lat":43.32549,"lon":5.40548,"is_reserved":false,"is_disabled":false,"rental_uris":{"android":"levelo://app?vid=8f1bb7ca-fcdd-4904-84f5-ac3f2d2671e6","ios":"levelo://app?vid=8f1bb7ca-fcdd-4904-84f5-ac3f2d2671e6"},"vehicle_type_id":"4","last_reported":1693066043,"current_range_meters":6400,"station_id":"","pricing_plan_id":"free"},{"bike_id":"7b6f38e1-a68c-4a6b-b306-26cd89546fb7","system_id":"levelo_inurba_marseille","lat":43.29804,"lon":5.40417,"is_reserved":false,"is_disabled":false,"rental_uris":{"android":"levelo://app?vid=7b6f38e1-a68c-4a6b-b306-26cd89546fb7","ios":"levelo://app?vid=7b6f38e1-a68c-4a6b-b306-26cd89546fb7"},"vehicle_type_id":"4","last_reported":1693066043,"current_range_meters":31200,"station_id":"ce4bh112rcd13ifvqd90","pricing_plan_id":"free"},{"bike_id":"e76d3d27-44b6-4431-8479-20d3cb9df82f","system_id":"levelo_inurba_marseille","lat":43.28428,"lon":5.34988,"is_reserved":false,"is_disabled":false,"rental_uris":{"android":"levelo://app?vid=e76d3d27-44b6-4431-8479-20d3cb9df82f","ios":"levelo://app?vid=e76d3d27-44b6-4431-8479-20d3cb9df82f"},"vehicle_type_id":"4","last_reported":1693066043,"current_range_meters":30400,"station_id":"ce4bhbh2rcd13ifvqepg","pricing_plan_id":"free"},{"bike_id":"f50aca5f-cf5b-4020-925f-826a2e34874f","system_id":"levelo_inurba_marseille","lat":43.28939,"lon":5.39624,"is_reserved":false,"is_disabled":false,"rental_uris":{"android":"levelo://app?vid=f50aca5f-cf5b-4020-925f-826a2e34874f","ios":"levelo://app?vid=f50aca5f-cf5b-4020-925f-826a2e34874f"},"vehicle_type_id":"4","last_reported":1693066043,"current_range_meters":31200,"station_id":"ce4bh3h2rcd13ifvqdn0","pricing_plan_id":"free"},{"bike_id":"6e57ee41-a96c-4e53-bcfe-2a351f169066","system_id":"levelo_inurba_marseille","lat":43.2804,"lon":5.36948,"is_reserved":false,"is_disabled":false,"rental_uris":{"android":"levelo://app?vid=6e57ee41-a96c-4e53-bcfe-2a351f169066","ios":"levelo://app?vid=6e57ee41-a96c-4e53-bcfe-2a351f169066"},"vehicle_type_id":"4","last_reported":1693066043,"current_range_meters":19200,"station_id":"","pricing_plan_id":"free"},{"bike_id":"b2e02c9d-b093-4a44-925f-564f67a93ecc","system_id":"levelo_inurba_marseille","lat":43.2804,"lon":5.3695,"is_reserved":false,"is_disabled":false,"rental_uris":{"android":"levelo://app?vid=b2e02c9d-b093-4a44-925f-564f67a93ecc","ios":"levelo://app?vid=b2e02c9d-b093-4a44-925f-564f67a93ecc"},"vehicle_type_id":"4","last_reported":1693066043,"current_range_meters":23600,"station_id":"ce4bha12rcd13ifvqef0","pricing_plan_id":"free"},{"bike_id":"db48ea5a-548e-4b6b-8ea8-057278151d74","system_id":"levelo_inurba_marseille","lat":43.28039,"lon":5.369297,"is_reserved":false,"is_disabled":false,"rental_uris":{"android":"levelo://app?vid=db48ea5a-548e-4b6b-8ea8-057278151d74","ios":"levelo://app?vid=db48ea5a-548e-4b6b-8ea8-057278151d74"},"vehicle_type_id":"4","last_reported":1693066043,"current_range_meters":28800,"station_id":"ce4bha12rcd13ifvqef0","pricing_plan_id":"free"},{"bike_id":"1c38bebb-39db-46ff-9dcf-d962a0556658","system_id":"levelo_inurba_marseille","lat":43.28039,"lon":5.369297,"is_reserved":false,"is_disabled":false,"rental_uris":{"android":"levelo://app?vid=1c38bebb-39db-46ff-9dcf-d962a0556658","ios":"levelo://app?vid=1c38bebb-39db-46ff-9dcf-d962a0556658"},"vehicle_type_id":"4","last_reported":1693066043,"current_range_meters":27600,"station_id":"ce4bha12rcd13ifvqef0","pricing_plan_id":"free"},{"bike_id":"06e56c65-b555-4c51-814f-5c311712dd13","system_id":"levelo_inurba_marseille","lat":43.28039,"lon":5.369297,"is_reserved":false,"is_disabled":false,"rental_uris":{"android":"levelo://app?vid=06e56c65-b555-4c51-814f-5c311712dd13","ios":"levelo://app?vid=06e56c65-b555-4c51-814f-5c311712dd13"},"vehicle_type_id":"4","last_reported":1693066043,"current_range_meters":8400,"station_id":"ce4bha12rcd13ifvqef0","pricing_plan_id":"free"},{"bike_id":"af99224a-ae56-4f9b-8495-b53bcfd99100","system_id":"levelo_inurba_marseille","lat":43.28039,"lon":5.369297,"is_reserved":false,"is_disabled":false,"rental_uris":{"android":"levelo://app?vid=af99224a-ae56-4f9b-8495-b53bcfd99100","ios":"levelo://app?vid=af99224a-ae56-4f9b-8495-b53bcfd99100"},"vehicle_type_id":"4","last_reported":1693066043,"current_range_meters":26400,"station_id":"ce4bha12rcd13ifvqef0","pricing_plan_id":"free"},{"bike_id":"9f46cfde-4f76-4076-bade-5765c2d3d473","system_id":"levelo_inurba_marseille","lat":43.28027,"lon":5.3694,"is_reserved":false,"is_disabled":false,"rental_uris":{"android":"levelo://app?vid=9f46cfde-4f76-4076-bade-5765c2d3d473","ios":"levelo://app?vid=9f46cfde-4f76-4076-bade-5765c2d3d473"},"vehicle_type_id":"4","last_reported":1693066043,"current_range_meters":31200,"station_id":"ce4bha12rcd13ifvqef0","pricing_plan_id":"free"},{"bike_id":"16ac6369-9c55-4e24-9b69-fc75ec0230fc","system_id":"levelo_inurba_marseille","lat":43.28127,"lon":5.37835,"is_reserved":false,"is_disabled":false,"rental_uris":{"android":"levelo://app?vid=16ac6369-9c55-4e24-9b69-fc75ec0230fc","ios":"levelo://app?vid=16ac6369-9c55-4e24-9b69-fc75ec0230fc"},"vehicle_type_id":"4","last_reported":1693066043,"current_range_meters":22400,"station_id":"ce4bha12rcd13ifvqee0","pricing_plan_id":"free"},{"bike_id":"68d56449-71bf-4b41-bad7-3ac519682042","system_id":"levelo_inurba_marseille","lat":43.284462,"lon":5.392121,"is_reserved":false,"is_disabled":false,"rental_uris":{"android":"levelo://app?vid=68d56449-71bf-4b41-bad7-3ac519682042","ios":"levelo://app?vid=68d56449-71bf-4b41-bad7-3ac519682042"},"vehicle_type_id":"4","last_reported":1693066043,"current_range_meters":800,"station_id":"ce4bhoh2rcd13ifvqh5g","pricing_plan_id":"free"},{"bike_id":"2dbf7aad-8c79-4af0-b2e0-2fbc5162540f","system_id":"levelo_inurba_marseille","lat":43.32647,"lon":5.40988,"is_reserved":false,"is_disabled":false,"rental_uris":{"android":"levelo://app?vid=2dbf7aad-8c79-4af0-b2e0-2fbc5162540f","ios":"levelo://app?vid=2dbf7aad-8c79-4af0-b2e0-2fbc5162540f"},"vehicle_type_id":"4","last_reported":1693066043,"current_range_meters":20800,"station_id":"ce4bhpp2rcd13ifvqhgg","pricing_plan_id":"free"},{"bike_id":"17e4815d-6188-4d0c-94a9-14be3b87a2e6","system_id":"levelo_inurba_marseille","lat":43.32658,"lon":5.40987,"is_reserved":false,"is_disabled":false,"rental_uris":{"android":"levelo://app?vid=17e4815d-6188-4d0c-94a9-14be3b87a2e6","ios":"levelo://app?vid=17e4815d-6188-4d0c-94a9-14be3b87a2e6"},"vehicle_type_id":"4","last_reported":1693066043,"current_range_meters":14800,"station_id":"ce4bhpp2rcd13ifvqhgg","pricing_plan_id":"free"},{"bike_id":"344e649a-445d-4dd0-8309-c9344b22c2b8","system_id":"levelo_inurba_marseille","lat":43.32657,"lon":5.40991,"is_reserved":false,"is_disabled":false,"rental_uris":{"android":"levelo://app?vid=344e649a-445d-4dd0-8309-c9344b22c2b8","ios":"levelo://app?vid=344e649a-445d-4dd0-8309-c9344b22c2b8"},"vehicle_type_id":"4","last_reported":1693066043,"current_range_meters":21600,"station_id":"ce4bhpp2rcd13ifvqhgg","pricing_plan_id":"free"},{"bike_id":"37f77438-4719-4735-a53c-550f0e280269","system_id":"levelo_inurba_marseille","lat":43.30426,"lon":5.41264,"is_reserved":false,"is_disabled":false,"rental_uris":{"android":"levelo://app?vid=37f77438-4719-4735-a53c-550f0e280269","ios":"levelo://app?vid=37f77438-4719-4735-a53c-550f0e280269"},"vehicle_type_id":"4","last_reported":1693066043,"current_range_meters":31200,"station_id":"ce4bhop2rcd13ifvqh8g","pricing_plan_id":"free"},{"bike_id":"a75a9d4b-b42c-4e86-b393-030be18770b7","system_id":"levelo_inurba_marseille","lat":43.30421,"lon":5.41274,"is_reserved":false,"is_disabled":false,"rental_uris":{"android":"levelo://app?vid=a75a9d4b-b42c-4e86-b393-030be18770b7","ios":"levelo://app?vid=a75a9d4b-b42c-4e86-b393-030be18770b7"},"vehicle_type_id":"4","last_reported":1693066043,"current_range_meters":31200,"station_id":"ce4bhop2rcd13ifvqh8g","pricing_plan_id":"free"},{"bike_id":"9ba8ac73-d2f3-4716-b995-1cf0ea79f3fc","system_id":"levelo_inurba_marseille","lat":43.30415,"lon":5.41274,"is_reserved":false,"is_disabled":false,"rental_uris":{"android":"levelo://app?vid=9ba8ac73-d2f3-4716-b995-1cf0ea79f3fc","ios":"levelo://app?vid=9ba8ac73-d2f3-4716-b995-1cf0ea79f3fc"},"vehicle_type_id":"4","last_reported":1693066043,"current_range_meters":31200,"station_id":"ce4bhop2rcd13ifvqh8g","pricing_plan_id":"free"},{"bike_id":"7f386664-a3cc-4805-ba94-759d24037a82","system_id":"levelo_inurba_marseille","lat":43.30418,"lon":5.4128,"is_reserved":false,"is_disabled":false,"rental_uris":{"android":"levelo://app?vid=7f386664-a3cc-4805-ba94-759d24037a82","ios":"levelo://app?vid=7f386664-a3cc-4805-ba94-759d24037a82"},"vehicle_type_id":"4","last_reported":1693066043,"current_range_meters":26800,"station_id":"ce4bhop2rcd13ifvqh8g","pricing_plan_id":"free"},{"bike_id":"905c7781-4598-4ceb-b7e6-922aab7c9592","system_id":"levelo_inurba_marseille","lat":43.30422,"lon":5.41282,"is_reserved":false,"is_disabled":false,"rental_uris":{"android":"levelo://app?vid=905c7781-4598-4ceb-b7e6-922aab7c9592","ios":"levelo://app?vid=905c7781-4598-4ceb-b7e6-922aab7c9592"},"vehicle_type_id":"4","last_reported":1693066043,"current_range_meters":28400,"station_id":"ce4bhop2rcd13ifvqh8g","pricing_plan_id":"free"},{"bike_id":"e20ad91a-08c9-491a-ba38-7e367465e30f","system_id":"levelo_inurba_marseille","lat":43.279087,"lon":5.380114,"is_reserved":false,"is_disabled":false,"rental_uris":{"android":"levelo://app?vid=e20ad91a-08c9-491a-ba38-7e367465e30f","ios":"levelo://app?vid=e20ad91a-08c9-491a-ba38-7e367465e30f"},"vehicle_type_id":"4","last_reported":1693066043,"current_range_meters":19600,"station_id":"ce4bhf92rcd13ifvqf50","pricing_plan_id":"free"},{"bike_id":"8472a371-ba7d-407a-8666-f7d233d84813","system_id":"levelo_inurba_marseille","lat":43.279087,"lon":5.380114,"is_reserved":false,"is_disabled":false,"rental_uris":{"android":"levelo://app?vid=8472a371-ba7d-407a-8666-f7d233d84813","ios":"levelo://app?vid=8472a371-ba7d-407a-8666-f7d233d84813"},"vehicle_type_id":"4","last_reported":1693066043,"current_range_meters":24400,"station_id":"ce4bhf92rcd13ifvqf50","pricing_plan_id":"free"},{"bike_id":"9313f3f7-0553-42c9-a9b1-b70f96124687","system_id":"levelo_inurba_marseille","lat":43.29965,"lon":5.41312,"is_reserved":false,"is_disabled":false,"rental_uris":{"android":"levelo://app?vid=9313f3f7-0553-42c9-a9b1-b70f96124687","ios":"levelo://app?vid=9313f3f7-0553-42c9-a9b1-b70f96124687"},"vehicle_type_id":"4","last_reported":1693066043,"current_range_meters":31200,"station_id":"ce4bhp12rcd13ifvqh9g","pricing_plan_id":"free"},{"bike_id":"aefa222d-1382-497e-a3c7-161a0d95bdb4","system_id":"levelo_inurba_marseille","lat":43.29963,"lon":5.41319,"is_reserved":false,"is_disabled":false,"rental_uris":{"android":"levelo://app?vid=aefa222d-1382-497e-a3c7-161a0d95bdb4","ios":"levelo://app?vid=aefa222d-1382-497e-a3c7-161a0d95bdb4"},"vehicle_type_id":"4","last_reported":1693066043,"current_range_meters":31200,"station_id":"ce4bhp12rcd13ifvqh9g","pricing_plan_id":"free"},{"bike_id":"04dcf2d0-b79f-43e7-a8ac-7f59e1101c20","system_id":"levelo_inurba_marseille","lat":43.320045,"lon":5.415046,"is_reserved":false,"is_disabled":false,"rental_uris":{"android":"levelo://app?vid=04dcf2d0-b79f-43e7-a8ac-7f59e1101c20","ios":"levelo://app?vid=04dcf2d0-b79f-43e7-a8ac-7f59e1101c20"},"vehicle_type_id":"4","last_reported":1693066043,"current_range_meters":31600,"station_id":"ce4bhq92rcd13ifvqhkg","pricing_plan_id":"free"},{"bike_id":"12788446-de45-45d3-b8fe-e7718bd1c32e","system_id":"levelo_inurba_marseille","lat":43.32054,"lon":5.41547,"is_reserved":false,"is_disabled":false,"rental_uris":{"android":"levelo://app?vid=12788446-de45-45d3-b8fe-e7718bd1c32e","ios":"levelo://app?vid=12788446-de45-45d3-b8fe-e7718bd1c32e"},"vehicle_type_id":"4","last_reported":1693066043,"current_range_meters":28400,"station_id":"ce4bhq92rcd13ifvqhkg","pricing_plan_id":"free"},{"bike_id":"c327718a-8fe6-4791-a349-aba0f8f94e82","system_id":"levelo_inurba_marseille","lat":43.279742,"lon":5.38744,"is_reserved":false,"is_disabled":false,"rental_uris":{"android":"levelo://app?vid=c327718a-8fe6-4791-a349-aba0f8f94e82","ios":"levelo://app?vid=c327718a-8fe6-4791-a349-aba0f8f94e82"},"vehicle_type_id":"4","last_reported":1693066043,"current_range_meters":24400,"station_id":"ce4bhg12rcd13ifvqf80","pricing_plan_id":"free"},{"bike_id":"f4219b32-6655-4f16-9089-17ca2946fea9","system_id":"levelo_inurba_marseille","lat":43.32067,"lon":5.41563,"is_reserved":false,"is_disabled":false,"rental_uris":{"android":"levelo://app?vid=f4219b32-6655-4f16-9089-17ca2946fea9","ios":"levelo://app?vid=f4219b32-6655-4f16-9089-17ca2946fea9"},"vehicle_type_id":"4","last_reported":1693066043,"current_range_meters":30800,"station_id":"ce4bhq92rcd13ifvqhkg","pricing_plan_id":"free"},{"bike_id":"3563d8b3-8312-4911-80be-32759d84381f","system_id":"levelo_inurba_marseille","lat":43.32516,"lon":5.41444,"is_reserved":false,"is_disabled":false,"rental_uris":{"android":"levelo://app?vid=3563d8b3-8312-4911-80be-32759d84381f","ios":"levelo://app?vid=3563d8b3-8312-4911-80be-32759d84381f"},"vehicle_type_id":"4","last_reported":1693066043,"current_range_meters":24000,"station_id":"ce4bhq12rcd13ifvqhhg","pricing_plan_id":"free"},{"bike_id":"775cba35-3aae-40a2-8856-0651a7be924e","system_id":"levelo_inurba_marseille","lat":43.275625,"lon":5.384392,"is_reserved":false,"is_disabled":false,"rental_uris":{"android":"levelo://app?vid=775cba35-3aae-40a2-8856-0651a7be924e","ios":"levelo://app?vid=775cba35-3aae-40a2-8856-0651a7be924e"},"vehicle_type_id":"4","last_reported":1693066043,"current_range_meters":13600,"station_id":"ce4bhh92rcd13ifvqfi0","pricing_plan_id":"free"},{"bike_id":"3d2fbc1a-f7d8-4fde-aadc-ec6bd8447b97","system_id":"levelo_inurba_marseille","lat":43.278401,"lon":5.392152,"is_reserved":false,"is_disabled":false,"rental_uris":{"android":"levelo://app?vid=3d2fbc1a-f7d8-4fde-aadc-ec6bd8447b97","ios":"levelo://app?vid=3d2fbc1a-f7d8-4fde-aadc-ec6bd8447b97"},"vehicle_type_id":"4","last_reported":1693066043,"current_range_meters":18000,"station_id":"ce4bhjp2rcd13ifvqga0","pricing_plan_id":"free"},{"bike_id":"ed22aae5-2f17-44e5-9132-a62ff19a2e0f","system_id":"levelo_inurba_marseille","lat":43.278401,"lon":5.392152,"is_reserved":false,"is_disabled":false,"rental_uris":{"android":"levelo://app?vid=ed22aae5-2f17-44e5-9132-a62ff19a2e0f","ios":"levelo://app?vid=ed22aae5-2f17-44e5-9132-a62ff19a2e0f"},"vehicle_type_id":"4","last_reported":1693066043,"current_range_meters":18800,"station_id":"ce4bhjp2rcd13ifvqga0","pricing_plan_id":"free"},{"bike_id":"01ce2da3-e8b0-462d-8416-0c5ba61c759b","system_id":"levelo_inurba_marseille","lat":43.278314,"lon":5.391993,"is_reserved":false,"is_disabled":false,"rental_uris":{"android":"levelo://app?vid=01ce2da3-e8b0-462d-8416-0c5ba61c759b","ios":"levelo://app?vid=01ce2da3-e8b0-462d-8416-0c5ba61c759b"},"vehicle_type_id":"4","last_reported":1693066043,"current_range_meters":31200,"station_id":"ce4bhjp2rcd13ifvqga0","pricing_plan_id":"free"},{"bike_id":"93178ba8-e52d-4faa-b675-db5332c24189","system_id":"levelo_inurba_marseille","lat":43.275625,"lon":5.384392,"is_reserved":false,"is_disabled":false,"rental_uris":{"android":"levelo://app?vid=93178ba8-e52d-4faa-b675-db5332c24189","ios":"levelo://app?vid=93178ba8-e52d-4faa-b675-db5332c24189"},"vehicle_type_id":"4","last_reported":1693066043,"current_range_meters":24400,"station_id":"ce4bhh92rcd13ifvqfi0","pricing_plan_id":"free"},{"bike_id":"39b5b5cf-86ef-48ea-a176-58e554756417","system_id":"levelo_inurba_marseille","lat":43.273613,"lon":5.362705,"is_reserved":false,"is_disabled":false,"rental_uris":{"android":"levelo://app?vid=39b5b5cf-86ef-48ea-a176-58e554756417","ios":"levelo://app?vid=39b5b5cf-86ef-48ea-a176-58e554756417"},"vehicle_type_id":"4","last_reported":1693066043,"current_range_meters":31600,"station_id":"ce4bhbh2rcd13ifvqeo0","pricing_plan_id":"free"},{"bike_id":"c4c8bff3-da22-41d0-ba01-a86d70139f34","system_id":"levelo_inurba_marseille","lat":43.275625,"lon":5.384392,"is_reserved":false,"is_disabled":false,"rental_uris":{"android":"levelo://app?vid=c4c8bff3-da22-41d0-ba01-a86d70139f34","ios":"levelo://app?vid=c4c8bff3-da22-41d0-ba01-a86d70139f34"},"vehicle_type_id":"4","last_reported":1693066043,"current_range_meters":6800,"station_id":"ce4bhh92rcd13ifvqfi0","pricing_plan_id":"free"},{"bike_id":"19d6600b-0614-4368-ad58-b69e055ded6c","system_id":"levelo_inurba_marseille","lat":43.33612,"lon":5.410321,"is_reserved":false,"is_disabled":false,"rental_uris":{"android":"levelo://app?vid=19d6600b-0614-4368-ad58-b69e055ded6c","ios":"levelo://app?vid=19d6600b-0614-4368-ad58-b69e055ded6c"},"vehicle_type_id":"4","last_reported":1693066043,"current_range_meters":30800,"station_id":"ce4bhqh2rcd13ifvqhmg","pricing_plan_id":"free"},{"bike_id":"cca21038-7a31-4cfa-b61b-72304ec64573","system_id":"levelo_inurba_marseille","lat":43.336134,"lon":5.410341,"is_reserved":false,"is_disabled":false,"rental_uris":{"android":"levelo://app?vid=cca21038-7a31-4cfa-b61b-72304ec64573","ios":"levelo://app?vid=cca21038-7a31-4cfa-b61b-72304ec64573"},"vehicle_type_id":"4","last_reported":1693066043,"current_range_meters":31600,"station_id":"ce4bhqh2rcd13ifvqhmg","pricing_plan_id":"free"},{"bike_id":"9278726e-fbb6-4d1c-afd8-9bbbcc5e3810","system_id":"levelo_inurba_marseille","lat":43.336134,"lon":5.410341,"is_reserved":false,"is_disabled":false,"rental_uris":{"android":"levelo://app?vid=9278726e-fbb6-4d1c-afd8-9bbbcc5e3810","ios":"levelo://app?vid=9278726e-fbb6-4d1c-afd8-9bbbcc5e3810"},"vehicle_type_id":"4","last_reported":1693066043,"current_range_meters":30800,"station_id":"ce4bhqh2rcd13ifvqhmg","pricing_plan_id":"free"},{"bike_id":"66c3aeb9-8f56-4cc3-9c9a-aab43780a097","system_id":"levelo_inurba_marseille","lat":43.33612,"lon":5.410321,"is_reserved":false,"is_disabled":false,"rental_uris":{"android":"levelo://app?vid=66c3aeb9-8f56-4cc3-9c9a-aab43780a097","ios":"levelo://app?vid=66c3aeb9-8f56-4cc3-9c9a-aab43780a097"},"vehicle_type_id":"4","last_reported":1693066043,"current_range_meters":31600,"station_id":"ce4bhqh2rcd13ifvqhmg","pricing_plan_id":"free"},{"bike_id":"2c002134-e4d2-41d1-b436-28e8e2ea24ca","system_id":"levelo_inurba_marseille","lat":43.276769,"lon":5.388787,"is_reserved":false,"is_disabled":false,"rental_uris":{"android":"levelo://app?vid=2c002134-e4d2-41d1-b436-28e8e2ea24ca","ios":"levelo://app?vid=2c002134-e4d2-41d1-b436-28e8e2ea24ca"},"vehicle_type_id":"4","last_reported":1693066043,"current_range_meters":28800,"station_id":"ce4bhi12rcd13ifvqfo0","pricing_plan_id":"free"},{"bike_id":"81e91cfe-a4c6-471d-a4ac-cdb60671a384","system_id":"levelo_inurba_marseille","lat":43.27663,"lon":5.38889,"is_reserved":false,"is_disabled":false,"rental_uris":{"android":"levelo://app?vid=81e91cfe-a4c6-471d-a4ac-cdb60671a384","ios":"levelo://app?vid=81e91cfe-a4c6-471d-a4ac-cdb60671a384"},"vehicle_type_id":"4","last_reported":1693066043,"current_range_meters":28400,"station_id":"ce4bhi12rcd13ifvqfo0","pricing_plan_id":"free"},{"bike_id":"46646ba4-465b-4f91-9db7-439c19cff1c5","system_id":"levelo_inurba_marseille","lat":43.27883,"lon":5.39507,"is_reserved":false,"is_disabled":false,"rental_uris":{"android":"levelo://app?vid=46646ba4-465b-4f91-9db7-439c19cff1c5","ios":"levelo://app?vid=46646ba4-465b-4f91-9db7-439c19cff1c5"},"vehicle_type_id":"4","last_reported":1693066043,"current_range_meters":25600,"station_id":"","pricing_plan_id":"free"},{"bike_id":"e4fae5a9-25ea-454e-bcab-9d6c183b0bfe","system_id":"levelo_inurba_marseille","lat":43.310785,"lon":5.424305,"is_reserved":false,"is_disabled":false,"rental_uris":{"android":"levelo://app?vid=e4fae5a9-25ea-454e-bcab-9d6c183b0bfe","ios":"levelo://app?vid=e4fae5a9-25ea-454e-bcab-9d6c183b0bfe"},"vehicle_type_id":"4","last_reported":1693066043,"current_range_meters":13200,"station_id":"ce4bhp92rcd13ifvqhag","pricing_plan_id":"free"},{"bike_id":"9e1b75ef-9c6d-41fd-980d-cd3c637889ef","system_id":"levelo_inurba_marseille","lat":43.317121,"lon":5.423936,"is_reserved":false,"is_disabled":false,"rental_uris":{"android":"levelo://app?vid=9e1b75ef-9c6d-41fd-980d-cd3c637889ef","ios":"levelo://app?vid=9e1b75ef-9c6d-41fd-980d-cd3c637889ef"},"vehicle_type_id":"4","last_reported":1693066043,"current_range_meters":29200,"station_id":"ce4bhp92rcd13ifvqhbg","pricing_plan_id":"free"},{"bike_id":"080fdba3-3b29-4a8d-9b97-8c90649b9aa1","system_id":"levelo_inurba_marseille","lat":43.317121,"lon":5.423936,"is_reserved":false,"is_disabled":false,"rental_uris":{"android":"levelo://app?vid=080fdba3-3b29-4a8d-9b97-8c90649b9aa1","ios":"levelo://app?vid=080fdba3-3b29-4a8d-9b97-8c90649b9aa1"},"vehicle_type_id":"4","last_reported":1693066043,"current_range_meters":30400,"station_id":"ce4bhp92rcd13ifvqhbg","pricing_plan_id":"free"},{"bike_id":"e8e1c99c-2429-4133-8cc0-95715fa6ef0b","system_id":"levelo_inurba_marseille","lat":43.310785,"lon":5.424305,"is_reserved":false,"is_disabled":false,"rental_uris":{"android":"levelo://app?vid=e8e1c99c-2429-4133-8cc0-95715fa6ef0b","ios":"levelo://app?vid=e8e1c99c-2429-4133-8cc0-95715fa6ef0b"},"vehicle_type_id":"4","last_reported":1693066043,"current_range_meters":25200,"station_id":"ce4bhp92rcd13ifvqhag","pricing_plan_id":"free"},{"bike_id":"450df05c-e2ec-406d-9e53-1cd3a7c5a8f4","system_id":"levelo_inurba_marseille","lat":43.34136,"lon":5.40898,"is_reserved":false,"is_disabled":false,"rental_uris":{"android":"levelo://app?vid=450df05c-e2ec-406d-9e53-1cd3a7c5a8f4","ios":"levelo://app?vid=450df05c-e2ec-406d-9e53-1cd3a7c5a8f4"},"vehicle_type_id":"4","last_reported":1693066043,"current_range_meters":7600,"station_id":"ce4bhqh2rcd13ifvqhlg","pricing_plan_id":"free"},{"bike_id":"67c71529-c420-4fcb-9268-639cae704f90","system_id":"levelo_inurba_marseille","lat":43.34143,"lon":5.40898,"is_reserved":false,"is_disabled":false,"rental_uris":{"android":"levelo://app?vid=67c71529-c420-4fcb-9268-639cae704f90","ios":"levelo://app?vid=67c71529-c420-4fcb-9268-639cae704f90"},"vehicle_type_id":"4","last_reported":1693066043,"current_range_meters":29600,"station_id":"ce4bhqh2rcd13ifvqhlg","pricing_plan_id":"free"},{"bike_id":"ce5e959b-48e0-480e-994b-c9b4a87e8547","system_id":"levelo_inurba_marseille","lat":43.34142,"lon":5.409,"is_reserved":false,"is_disabled":false,"rental_uris":{"android":"levelo://app?vid=ce5e959b-48e0-480e-994b-c9b4a87e8547","ios":"levelo://app?vid=ce5e959b-48e0-480e-994b-c9b4a87e8547"},"vehicle_type_id":"4","last_reported":1693066043,"current_range_meters":18400,"station_id":"ce4bhqh2rcd13ifvqhlg","pricing_plan_id":"free"},{"bike_id":"735e3849-26f0-4caf-bb19-1fc657bac7c7","system_id":"levelo_inurba_marseille","lat":43.34142,"lon":5.40901,"is_reserved":false,"is_disabled":false,"rental_uris":{"android":"levelo://app?vid=735e3849-26f0-4caf-bb19-1fc657bac7c7","ios":"levelo://app?vid=735e3849-26f0-4caf-bb19-1fc657bac7c7"},"vehicle_type_id":"4","last_reported":1693066043,"current_range_meters":20400,"station_id":"ce4bhqh2rcd13ifvqhlg","pricing_plan_id":"free"},{"bike_id":"8ddb69cb-8f57-4c3c-bc3e-37fd98e75be7","system_id":"levelo_inurba_marseille","lat":43.34142,"lon":5.40904,"is_reserved":false,"is_disabled":false,"rental_uris":{"android":"levelo://app?vid=8ddb69cb-8f57-4c3c-bc3e-37fd98e75be7","ios":"levelo://app?vid=8ddb69cb-8f57-4c3c-bc3e-37fd98e75be7"},"vehicle_type_id":"4","last_reported":1693066043,"current_range_meters":2400,"station_id":"ce4bhqh2rcd13ifvqhlg","pricing_plan_id":"free"},{"bike_id":"e70b76ea-5268-4e50-abe3-2f0407cbacc6","system_id":"levelo_inurba_marseille","lat":43.340804,"lon":5.410219,"is_reserved":false,"is_disabled":false,"rental_uris":{"android":"levelo://app?vid=e70b76ea-5268-4e50-abe3-2f0407cbacc6","ios":"levelo://app?vid=e70b76ea-5268-4e50-abe3-2f0407cbacc6"},"vehicle_type_id":"4","last_reported":1693066043,"current_range_meters":22400,"station_id":"ce4bhqh2rcd13ifvqhlg","pricing_plan_id":"free"},{"bike_id":"56fae68c-5275-441a-9dc9-be69facb353e","system_id":"levelo_inurba_marseille","lat":43.34144,"lon":5.40905,"is_reserved":false,"is_disabled":false,"rental_uris":{"android":"levelo://app?vid=56fae68c-5275-441a-9dc9-be69facb353e","ios":"levelo://app?vid=56fae68c-5275-441a-9dc9-be69facb353e"},"vehicle_type_id":"4","last_reported":1693066043,"current_range_meters":16000,"station_id":"ce4bhqh2rcd13ifvqhlg","pricing_plan_id":"free"},{"bike_id":"b3e5f6f6-fdda-43cf-915e-bb162824458b","system_id":"levelo_inurba_marseille","lat":43.340804,"lon":5.410219,"is_reserved":false,"is_disabled":false,"rental_uris":{"android":"levelo://app?vid=b3e5f6f6-fdda-43cf-915e-bb162824458b","ios":"levelo://app?vid=b3e5f6f6-fdda-43cf-915e-bb162824458b"},"vehicle_type_id":"4","last_reported":1693066043,"current_range_meters":12400,"station_id":"ce4bhqh2rcd13ifvqhlg","pricing_plan_id":"free"},{"bike_id":"76f9f427-5fce-454b-a9f9-ac21cebba9f4","system_id":"levelo_inurba_marseille","lat":43.34144,"lon":5.40907,"is_reserved":false,"is_disabled":false,"rental_uris":{"android":"levelo://app?vid=76f9f427-5fce-454b-a9f9-ac21cebba9f4","ios":"levelo://app?vid=76f9f427-5fce-454b-a9f9-ac21cebba9f4"},"vehicle_type_id":"4","last_reported":1693066043,"current_range_meters":15600,"station_id":"ce4bhqh2rcd13ifvqhlg","pricing_plan_id":"free"},{"bike_id":"aee6c311-4dd8-42c2-a236-8e8ef20ad03e","system_id":"levelo_inurba_marseille","lat":43.34147,"lon":5.40907,"is_reserved":false,"is_disabled":false,"rental_uris":{"android":"levelo://app?vid=aee6c311-4dd8-42c2-a236-8e8ef20ad03e","ios":"levelo://app?vid=aee6c311-4dd8-42c2-a236-8e8ef20ad03e"},"vehicle_type_id":"4","last_reported":1693066043,"current_range_meters":16000,"station_id":"ce4bhqh2rcd13ifvqhlg","pricing_plan_id":"free"},{"bike_id":"262542b3-a0f3-4a54-95f6-f034c91a9b7a","system_id":"levelo_inurba_marseille","lat":43.34146,"lon":5.4091,"is_reserved":false,"is_disabled":false,"rental_uris":{"android":"levelo://app?vid=262542b3-a0f3-4a54-95f6-f034c91a9b7a","ios":"levelo://app?vid=262542b3-a0f3-4a54-95f6-f034c91a9b7a"},"vehicle_type_id":"4","last_reported":1693066043,"current_range_meters":30000,"station_id":"ce4bhqh2rcd13ifvqhlg","pricing_plan_id":"free"},{"bike_id":"73c58ad4-9273-4758-8948-6e207a6d1385","system_id":"levelo_inurba_marseille","lat":43.34151,"lon":5.40907,"is_reserved":false,"is_disabled":false,"rental_uris":{"android":"levelo://app?vid=73c58ad4-9273-4758-8948-6e207a6d1385","ios":"levelo://app?vid=73c58ad4-9273-4758-8948-6e207a6d1385"},"vehicle_type_id":"4","last_reported":1693066043,"current_range_meters":17600,"station_id":"ce4bhqh2rcd13ifvqhlg","pricing_plan_id":"free"},{"bike_id":"934eee78-4c10-4200-9ad0-d19c62a3a572","system_id":"levelo_inurba_marseille","lat":43.27362,"lon":5.39045,"is_reserved":false,"is_disabled":false,"rental_uris":{"android":"levelo://app?vid=934eee78-4c10-4200-9ad0-d19c62a3a572","ios":"levelo://app?vid=934eee78-4c10-4200-9ad0-d19c62a3a572"},"vehicle_type_id":"4","last_reported":1693066043,"current_range_meters":29600,"station_id":"","pricing_plan_id":"free"},{"bike_id":"30152c7c-032f-456e-932a-168d0867bb39","system_id":"levelo_inurba_marseille","lat":43.27349,"lon":5.391,"is_reserved":false,"is_disabled":false,"rental_uris":{"android":"levelo://app?vid=30152c7c-032f-456e-932a-168d0867bb39","ios":"levelo://app?vid=30152c7c-032f-456e-932a-168d0867bb39"},"vehicle_type_id":"4","last_reported":1693066043,"current_range_meters":18400,"station_id":"ce4bhgp2rcd13ifvqfe0","pricing_plan_id":"free"},{"bike_id":"9e90081e-18d4-448a-8ad6-2f78c5f3281a","system_id":"levelo_inurba_marseille","lat":43.27338,"lon":5.39093,"is_reserved":false,"is_disabled":false,"rental_uris":{"android":"levelo://app?vid=9e90081e-18d4-448a-8ad6-2f78c5f3281a","ios":"levelo://app?vid=9e90081e-18d4-448a-8ad6-2f78c5f3281a"},"vehicle_type_id":"4","last_reported":1693066043,"current_range_meters":9200,"station_id":"ce4bhgp2rcd13ifvqfe0","pricing_plan_id":"free"},{"bike_id":"098c6da6-ba2e-41f5-be05-d07cc382597a","system_id":"levelo_inurba_marseille","lat":43.274103,"lon":5.394016,"is_reserved":false,"is_disabled":false,"rental_uris":{"android":"levelo://app?vid=098c6da6-ba2e-41f5-be05-d07cc382597a","ios":"levelo://app?vid=098c6da6-ba2e-41f5-be05-d07cc382597a"},"vehicle_type_id":"4","last_reported":1693066043,"current_range_meters":20400,"station_id":"ce4bhdp2rcd13ifvqf20","pricing_plan_id":"free"},{"bike_id":"c1d8b3c0-b8bc-4c81-b2de-9e77dff292f1","system_id":"levelo_inurba_marseille","lat":43.273248,"lon":5.390713,"is_reserved":false,"is_disabled":false,"rental_uris":{"android":"levelo://app?vid=c1d8b3c0-b8bc-4c81-b2de-9e77dff292f1","ios":"levelo://app?vid=c1d8b3c0-b8bc-4c81-b2de-9e77dff292f1"},"vehicle_type_id":"4","last_reported":1693066043,"current_range_meters":13600,"station_id":"ce4bhgp2rcd13ifvqfd0","pricing_plan_id":"free"},{"bike_id":"df69c421-75ff-45ee-b05d-1ea5b3c083e0","system_id":"levelo_inurba_marseille","lat":43.273125,"lon":5.390731,"is_reserved":false,"is_disabled":false,"rental_uris":{"android":"levelo://app?vid=df69c421-75ff-45ee-b05d-1ea5b3c083e0","ios":"levelo://app?vid=df69c421-75ff-45ee-b05d-1ea5b3c083e0"},"vehicle_type_id":"4","last_reported":1693066043,"current_range_meters":27600,"station_id":"ce4bhgp2rcd13ifvqfe0","pricing_plan_id":"free"},{"bike_id":"195716b0-2d7f-4f1b-a248-46e228afe9c0","system_id":"levelo_inurba_marseille","lat":43.27321,"lon":5.39079,"is_reserved":false,"is_disabled":false,"rental_uris":{"android":"levelo://app?vid=195716b0-2d7f-4f1b-a248-46e228afe9c0","ios":"levelo://app?vid=195716b0-2d7f-4f1b-a248-46e228afe9c0"},"vehicle_type_id":"4","last_reported":1693066043,"current_range_meters":16800,"station_id":"ce4bhgp2rcd13ifvqfe0","pricing_plan_id":"free"},{"bike_id":"79a390b9-cdeb-4ed1-ae41-c68153f783cb","system_id":"levelo_inurba_marseille","lat":43.2732,"lon":5.39076,"is_reserved":false,"is_disabled":false,"rental_uris":{"android":"levelo://app?vid=79a390b9-cdeb-4ed1-ae41-c68153f783cb","ios":"levelo://app?vid=79a390b9-cdeb-4ed1-ae41-c68153f783cb"},"vehicle_type_id":"4","last_reported":1693066043,"current_range_meters":9200,"station_id":"ce4bhgp2rcd13ifvqfe0","pricing_plan_id":"free"},{"bike_id":"2c976e80-f9d2-4976-910a-793c2fd5642b","system_id":"levelo_inurba_marseille","lat":43.27319,"lon":5.39079,"is_reserved":false,"is_disabled":false,"rental_uris":{"android":"levelo://app?vid=2c976e80-f9d2-4976-910a-793c2fd5642b","ios":"levelo://app?vid=2c976e80-f9d2-4976-910a-793c2fd5642b"},"vehicle_type_id":"4","last_reported":1693066043,"current_range_meters":13200,"station_id":"ce4bhgp2rcd13ifvqfe0","pricing_plan_id":"free"},{"bike_id":"7e5a7f5a-1f23-4a5c-a3f3-8f4ee7d1fdfb","system_id":"levelo_inurba_marseille","lat":43.27319,"lon":5.39081,"is_reserved":false,"is_disabled":false,"rental_uris":{"android":"levelo://app?vid=7e5a7f5a-1f23-4a5c-a3f3-8f4ee7d1fdfb","ios":"levelo://app?vid=7e5a7f5a-1f23-4a5c-a3f3-8f4ee7d1fdfb"},"vehicle_type_id":"4","last_reported":1693066043,"current_range_meters":2000,"station_id":"ce4bhgp2rcd13ifvqfe0","pricing_plan_id":"free"},{"bike_id":"74b961bc-816f-4939-8a12-abd3a14df3af","system_id":"levelo_inurba_marseille","lat":43.273129,"lon":5.390725,"is_reserved":false,"is_disabled":false,"rental_uris":{"android":"levelo://app?vid=74b961bc-816f-4939-8a12-abd3a14df3af","ios":"levelo://app?vid=74b961bc-816f-4939-8a12-abd3a14df3af"},"vehicle_type_id":"4","last_reported":1693066043,"current_range_meters":16000,"station_id":"ce4bhgp2rcd13ifvqfe0","pricing_plan_id":"free"},{"bike_id":"1d24f8f6-7355-46c2-ae98-8b7502360736","system_id":"levelo_inurba_marseille","lat":43.27323,"lon":5.39096,"is_reserved":false,"is_disabled":false,"rental_uris":{"android":"levelo://app?vid=1d24f8f6-7355-46c2-ae98-8b7502360736","ios":"levelo://app?vid=1d24f8f6-7355-46c2-ae98-8b7502360736"},"vehicle_type_id":"4","last_reported":1693066043,"current_range_meters":11600,"station_id":"ce4bhgp2rcd13ifvqfe0","pricing_plan_id":"free"},{"bike_id":"ec7785ac-1417-412f-937d-43901d5c9055","system_id":"levelo_inurba_marseille","lat":43.273103,"lon":5.390585,"is_reserved":false,"is_disabled":false,"rental_uris":{"android":"levelo://app?vid=ec7785ac-1417-412f-937d-43901d5c9055","ios":"levelo://app?vid=ec7785ac-1417-412f-937d-43901d5c9055"},"vehicle_type_id":"4","last_reported":1693066043,"current_range_meters":2000,"station_id":"ce4bhgp2rcd13ifvqfe0","pricing_plan_id":"free"},{"bike_id":"076c6c72-d1f4-4083-8c99-acccacb28dbc","system_id":"levelo_inurba_marseille","lat":43.273103,"lon":5.390585,"is_reserved":false,"is_disabled":false,"rental_uris":{"android":"levelo://app?vid=076c6c72-d1f4-4083-8c99-acccacb28dbc","ios":"levelo://app?vid=076c6c72-d1f4-4083-8c99-acccacb28dbc"},"vehicle_type_id":"4","last_reported":1693066043,"current_range_meters":400,"station_id":"ce4bhgp2rcd13ifvqfe0","pricing_plan_id":"free"},{"bike_id":"c5190a39-1711-4c67-954c-1bcad225251d","system_id":"levelo_inurba_marseille","lat":43.273129,"lon":5.390725,"is_reserved":false,"is_disabled":false,"rental_uris":{"android":"levelo://app?vid=c5190a39-1711-4c67-954c-1bcad225251d","ios":"levelo://app?vid=c5190a39-1711-4c67-954c-1bcad225251d"},"vehicle_type_id":"4","last_reported":1693066043,"current_range_meters":28000,"station_id":"ce4bhgp2rcd13ifvqfe0","pricing_plan_id":"free"},{"bike_id":"39d50455-178a-4b17-b055-08293ab90f4e","system_id":"levelo_inurba_marseille","lat":43.273129,"lon":5.390725,"is_reserved":false,"is_disabled":false,"rental_uris":{"android":"levelo://app?vid=39d50455-178a-4b17-b055-08293ab90f4e","ios":"levelo://app?vid=39d50455-178a-4b17-b055-08293ab90f4e"},"vehicle_type_id":"4","last_reported":1693066043,"current_range_meters":20800,"station_id":"ce4bhgp2rcd13ifvqfe0","pricing_plan_id":"free"},{"bike_id":"d15c8508-d417-4726-b605-ec30f5fdbcec","system_id":"levelo_inurba_marseille","lat":43.273129,"lon":5.390725,"is_reserved":false,"is_disabled":false,"rental_uris":{"android":"levelo://app?vid=d15c8508-d417-4726-b605-ec30f5fdbcec","ios":"levelo://app?vid=d15c8508-d417-4726-b605-ec30f5fdbcec"},"vehicle_type_id":"4","last_reported":1693066043,"current_range_meters":22400,"station_id":"ce4bhgp2rcd13ifvqfe0","pricing_plan_id":"free"},{"bike_id":"ecab50a2-2585-4dff-b2ef-3e11af39ad2f","system_id":"levelo_inurba_marseille","lat":43.273125,"lon":5.390731,"is_reserved":false,"is_disabled":false,"rental_uris":{"android":"levelo://app?vid=ecab50a2-2585-4dff-b2ef-3e11af39ad2f","ios":"levelo://app?vid=ecab50a2-2585-4dff-b2ef-3e11af39ad2f"},"vehicle_type_id":"4","last_reported":1693066043,"current_range_meters":20400,"station_id":"ce4bhgp2rcd13ifvqfe0","pricing_plan_id":"free"},{"bike_id":"7571da9e-0f60-40f9-9e1d-4e2cbe77ac19","system_id":"levelo_inurba_marseille","lat":43.274099,"lon":5.394019,"is_reserved":false,"is_disabled":false,"rental_uris":{"android":"levelo://app?vid=7571da9e-0f60-40f9-9e1d-4e2cbe77ac19","ios":"levelo://app?vid=7571da9e-0f60-40f9-9e1d-4e2cbe77ac19"},"vehicle_type_id":"4","last_reported":1693066043,"current_range_meters":0,"station_id":"ce4bhdp2rcd13ifvqf20","pricing_plan_id":"free"},{"bike_id":"d38cdd53-5062-4d0e-a60d-8478aa4dcd8e","system_id":"levelo_inurba_marseille","lat":43.274103,"lon":5.394016,"is_reserved":false,"is_disabled":false,"rental_uris":{"android":"levelo://app?vid=d38cdd53-5062-4d0e-a60d-8478aa4dcd8e","ios":"levelo://app?vid=d38cdd53-5062-4d0e-a60d-8478aa4dcd8e"},"vehicle_type_id":"4","last_reported":1693066043,"current_range_meters":22800,"station_id":"ce4bhdp2rcd13ifvqf20","pricing_plan_id":"free"},{"bike_id":"f117aef7-b5c7-411f-ac8c-478989af72bb","system_id":"levelo_inurba_marseille","lat":43.27309,"lon":5.39092,"is_reserved":false,"is_disabled":false,"rental_uris":{"android":"levelo://app?vid=f117aef7-b5c7-411f-ac8c-478989af72bb","ios":"levelo://app?vid=f117aef7-b5c7-411f-ac8c-478989af72bb"},"vehicle_type_id":"4","last_reported":1693066043,"current_range_meters":800,"station_id":"ce4bhgp2rcd13ifvqfe0","pricing_plan_id":"free"},{"bike_id":"94b5096e-ae59-411e-8821-73ae288ec1ac","system_id":"levelo_inurba_marseille","lat":43.27307,"lon":5.39091,"is_reserved":false,"is_disabled":false,"rental_uris":{"android":"levelo://app?vid=94b5096e-ae59-411e-8821-73ae288ec1ac","ios":"levelo://app?vid=94b5096e-ae59-411e-8821-73ae288ec1ac"},"vehicle_type_id":"4","last_reported":1693066043,"current_range_meters":0,"station_id":"ce4bhgp2rcd13ifvqfe0","pricing_plan_id":"free"},{"bike_id":"a316edc3-212f-4579-9ca3-c2e67e5663a9","system_id":"levelo_inurba_marseille","lat":43.274099,"lon":5.394019,"is_reserved":false,"is_disabled":false,"rental_uris":{"android":"levelo://app?vid=a316edc3-212f-4579-9ca3-c2e67e5663a9","ios":"levelo://app?vid=a316edc3-212f-4579-9ca3-c2e67e5663a9"},"vehicle_type_id":"4","last_reported":1693066043,"current_range_meters":12000,"station_id":"ce4bhdp2rcd13ifvqf20","pricing_plan_id":"free"},{"bike_id":"a4a1bea7-98ef-4c7c-b4f5-8df8a63df6ef","system_id":"levelo_inurba_marseille","lat":43.273125,"lon":5.390731,"is_reserved":false,"is_disabled":false,"rental_uris":{"android":"levelo://app?vid=a4a1bea7-98ef-4c7c-b4f5-8df8a63df6ef","ios":"levelo://app?vid=a4a1bea7-98ef-4c7c-b4f5-8df8a63df6ef"},"vehicle_type_id":"4","last_reported":1693066043,"current_range_meters":26800,"station_id":"ce4bhgp2rcd13ifvqfe0","pricing_plan_id":"free"},{"bike_id":"4f5996f0-eb0c-4866-821d-f17f1e63e4f5","system_id":"levelo_inurba_marseille","lat":43.30413,"lon":5.42544,"is_reserved":false,"is_disabled":false,"rental_uris":{"android":"levelo://app?vid=4f5996f0-eb0c-4866-821d-f17f1e63e4f5","ios":"levelo://app?vid=4f5996f0-eb0c-4866-821d-f17f1e63e4f5"},"vehicle_type_id":"4","last_reported":1693066043,"current_range_meters":22000,"station_id":"ce4bhoh2rcd13ifvqh6g","pricing_plan_id":"free"},{"bike_id":"0cfbd22e-cbf0-455c-ac27-ef9e7936a3fe","system_id":"levelo_inurba_marseille","lat":43.295523,"lon":5.422926,"is_reserved":false,"is_disabled":false,"rental_uris":{"android":"levelo://app?vid=0cfbd22e-cbf0-455c-ac27-ef9e7936a3fe","ios":"levelo://app?vid=0cfbd22e-cbf0-455c-ac27-ef9e7936a3fe"},"vehicle_type_id":"4","last_reported":1693066043,"current_range_meters":21600,"station_id":"ce4bhph2rcd13ifvqhdg","pricing_plan_id":"free"},{"bike_id":"b8b7deac-5ccb-429f-94cc-e60a512bc4ab","system_id":"levelo_inurba_marseille","lat":43.295511,"lon":5.422926,"is_reserved":false,"is_disabled":false,"rental_uris":{"android":"levelo://app?vid=b8b7deac-5ccb-429f-94cc-e60a512bc4ab","ios":"levelo://app?vid=b8b7deac-5ccb-429f-94cc-e60a512bc4ab"},