{"last_updated":1758748110,"ttl":60,"version":"2.2","data":{"bikes":[{"bike_id":"6b9f0764-c485-4988-8c0c-ad62f3c786a6","system_id":"levelo_inurba_marseille","lat":43.30422,"lon":5.41277,"is_reserved":false,"is_disabled":false,"rental_uris":{"android":"levelo://app?vid=6b9f0764-c485-4988-8c0c-ad62f3c786a6","ios":"levelo://app?vid=6b9f0764-c485-4988-8c0c-ad62f3c786a6"},"vehicle_type_id":"4","last_reported":1758748110,"current_range_meters":2800,"station_id":"ce4bhop2rcd13ifvqh8g","pricing_plan_id":"cebpf4jnsgd1na2vs0mg"},{"bike_id":"cb6bf7d2-2ed1-47c4-b0a7-9c935f0ebf1a","system_id":"levelo_inurba_marseille","lat":43.26876,"lon":5.40654,"is_reserved":false,"is_disabled":false,"rental_uris":{"android":"levelo://app?vid=cb6bf7d2-2ed1-47c4-b0a7-9c935f0ebf1a","ios":"levelo://app?vid=cb6bf7d2-2ed1-47c4-b0a7-9c935f0ebf1a"},"vehicle_type_id":"4","last_reported":1758748110,"current_range_meters":3200,"station_id":"","pricing_plan_id":"cebpf4jnsgd1na2vs0mg"},{"bike_id":"cac889cb-42f6-46ba-8604-9a52d251ed42","system_id":"levelo_inurba_marseille","lat":43.32729,"lon":5.39239,"is_reserved":false,"is_disabled":false,"rental_uris":{"android":"levelo://app?vid=cac889cb-42f6-46ba-8604-9a52d251ed42","ios":"levelo://app?vid=cac889cb-42f6-46ba-8604-9a52d251ed42"},"vehicle_type_id":"4","last_reported":1758748110,"current_range_meters":3600,"station_id":"","pricing_plan_id":"cebpf4jnsgd1na2vs0mg"},{"bike_id":"e6aade80-6736-4b7b-a0e5-8533fbd91fe7","system_id":"levelo_inurba_marseille","lat":43.27548,"lon":5.38432,"is_reserved":false,"is_disabled":false,"rental_uris":{"android":"levelo://app?vid=e6aade80-6736-4b7b-a0e5-8533fbd91fe7","ios":"levelo://app?vid=e6aade80-6736-4b7b-a0e5-8533fbd91fe7"},"vehicle_type_id":"4","last_reported":1758748110,"current_range_meters":6800,"station_id":"ce4bhh92rcd13ifvqfi0","pricing_plan_id":"cebpf4jnsgd1na2vs0mg"},{"bike_id":"770246a4-9e76-4bd3-9690-082e4c925b94","system_id":"levelo_inurba_marseille","lat":43.24082,"lon":5.37755,"is_reserved":false,"is_disabled":false,"rental_uris":{"android":"levelo://app?vid=770246a4-9e76-4bd3-9690-082e4c925b94","ios":"levelo://app?vid=770246a4-9e76-4bd3-9690-082e4c925b94"},"vehicle_type_id":"4","last_reported":1758748110,"current_range_meters":4000,"station_id":"ce4bhnp2rcd13ifvqgvg","pricing_plan_id":"cebpf4jnsgd1na2vs0mg"},{"bike_id":"3e03311f-71cb-4585-89e0-8c2df6803aef","system_id":"levelo_inurba_marseille","lat":43.28941,"lon":5.3839,"is_reserved":false,"is_disabled":false,"rental_uris":{"android":"levelo://app?vid=3e03311f-71cb-4585-89e0-8c2df6803aef","ios":"levelo://app?vid=3e03311f-71cb-4585-89e0-8c2df6803aef"},"vehicle_type_id":"4","last_reported":1758748110,"current_range_meters":4000,"station_id":"ce4bh612rcd13ifvqe6g","pricing_plan_id":"cebpf4jnsgd1na2vs0mg"},{"bike_id":"1efddf8d-578f-4e4c-8c3f-e3a8bd592ba4","system_id":"levelo_inurba_marseille","lat":43.29978,"lon":5.37426,"is_reserved":false,"is_disabled":false,"rental_uris":{"android":"levelo://app?vid=1efddf8d-578f-4e4c-8c3f-e3a8bd592ba4","ios":"levelo://app?vid=1efddf8d-578f-4e4c-8c3f-e3a8bd592ba4"},"vehicle_type_id":"4","last_reported":1758748110,"current_range_meters":4400,"station_id":"","pricing_plan_id":"cebpf4jnsgd1na2vs0mg"},{"bike_id":"b4d06773-deee-4efc-94d6-aab78fe3e478","system_id":"levelo_inurba_marseille","lat":43.32049,"lon":5.41543,"is_reserved":false,"is_disabled":false,"rental_uris":{"android":"levelo://app?vid=b4d06773-deee-4efc-94d6-aab78fe3e478","ios":"levelo://app?vid=b4d06773-deee-4efc-94d6-aab78fe3e478"},"vehicle_type_id":"4","last_reported":1758748110,"current_range_meters":4400,"station_id":"ce4bhq92rcd13ifvqhkg","pricing_plan_id":"cebpf4jnsgd1na2vs0mg"},{"bike_id":"962b15bf-a341-4469-9450-c0428eb337e2","system_id":"levelo_inurba_marseille","lat":43.231637,"lon":5.437036,"is_reserved":false,"is_disabled":true,"rental_uris":{"android":"levelo://app?vid=962b15bf-a341-4469-9450-c0428eb337e2","ios":"levelo://app?vid=962b15bf-a341-4469-9450-c0428eb337e2"},"vehicle_type_id":"4","last_reported":1758748110,"current_range_meters":4400,"station_id":"ce4bhmp2rcd13ifvqgog","pricing_plan_id":"cebpf4jnsgd1na2vs0mg"},{"bike_id":"355e741c-878f-4775-9222-3a4d87cf17a7","system_id":"levelo_inurba_marseille","lat":43.24702,"lon":5.38213,"is_reserved":false,"is_disabled":true,"rental_uris":{"android":"levelo://app?vid=355e741c-878f-4775-9222-3a4d87cf17a7","ios":"levelo://app?vid=355e741c-878f-4775-9222-3a4d87cf17a7"},"vehicle_type_id":"4","last_reported":1758748110,"current_range_meters":4800,"station_id":"ce4bhih2rcd13ifvqfr0","pricing_plan_id":"cebpf4jnsgd1na2vs0mg"},{"bike_id":"c95e0c05-dd94-491f-8092-9c7978400114","system_id":"levelo_inurba_marseille","lat":43.33467,"lon":5.36247,"is_reserved":false,"is_disabled":false,"rental_uris":{"android":"levelo://app?vid=c95e0c05-dd94-491f-8092-9c7978400114","ios":"levelo://app?vid=c95e0c05-dd94-491f-8092-9c7978400114"},"vehicle_type_id":"4","last_reported":1758748110,"current_range_meters":5600,"station_id":"ce4bhs12rcd13ifvqhvg","pricing_plan_id":"cebpf4jnsgd1na2vs0mg"},{"bike_id":"939538dc-20bd-4d94-8a10-8e1e0a179bc7","system_id":"levelo_inurba_marseille","lat":43.331548,"lon":5.377771,"is_reserved":false,"is_disabled":false,"rental_uris":{"android":"levelo://app?vid=939538dc-20bd-4d94-8a10-8e1e0a179bc7","ios":"levelo://app?vid=939538dc-20bd-4d94-8a10-8e1e0a179bc7"},"vehicle_type_id":"4","last_reported":1758748110,"current_range_meters":5600,"station_id":"","pricing_plan_id":"cebpf4jnsgd1na2vs0mg"},{"bike_id":"4b00aab8-f089-4d98-a94b-57e9a8415070","system_id":"levelo_inurba_marseille","lat":43.28425,"lon":5.34977,"is_reserved":false,"is_disabled":false,"rental_uris":{"android":"levelo://app?vid=4b00aab8-f089-4d98-a94b-57e9a8415070","ios":"levelo://app?vid=4b00aab8-f089-4d98-a94b-57e9a8415070"},"vehicle_type_id":"4","last_reported":1758748110,"current_range_meters":6000,"station_id":"ce4bhbh2rcd13ifvqepg","pricing_plan_id":"cebpf4jnsgd1na2vs0mg"},{"bike_id":"d4a9794a-c032-4b5b-9103-754c3e7a6b0e","system_id":"levelo_inurba_marseille","lat":43.29529,"lon":5.39404,"is_reserved":false,"is_disabled":false,"rental_uris":{"android":"levelo://app?vid=d4a9794a-c032-4b5b-9103-754c3e7a6b0e","ios":"levelo://app?vid=d4a9794a-c032-4b5b-9103-754c3e7a6b0e"},"vehicle_type_id":"4","last_reported":1758748110,"current_range_meters":6800,"station_id":"ce4bh292rcd13ifvqdf0","pricing_plan_id":"cebpf4jnsgd1na2vs0mg"},{"bike_id":"5fca7966-0629-44d2-9d2c-821b514d3cf1","system_id":"levelo_inurba_marseille","lat":43.32039,"lon":5.41552,"is_reserved":false,"is_disabled":false,"rental_uris":{"android":"levelo://app?vid=5fca7966-0629-44d2-9d2c-821b514d3cf1","ios":"levelo://app?vid=5fca7966-0629-44d2-9d2c-821b514d3cf1"},"vehicle_type_id":"4","last_reported":1758748110,"current_range_meters":6800,"station_id":"ce4bhq92rcd13ifvqhkg","pricing_plan_id":"cebpf4jnsgd1na2vs0mg"},{"bike_id":"da968367-d236-4fd8-b208-427680a1eadf","system_id":"levelo_inurba_marseille","lat":43.29935,"lon":5.3655,"is_reserved":false,"is_disabled":false,"rental_uris":{"android":"levelo://app?vid=da968367-d236-4fd8-b208-427680a1eadf","ios":"levelo://app?vid=da968367-d236-4fd8-b208-427680a1eadf"},"vehicle_type_id":"4","last_reported":1758748110,"current_range_meters":6800,"station_id":"ce4bgm92rcd13ifvqbr0","pricing_plan_id":"cebpf4jnsgd1na2vs0mg"},{"bike_id":"c0e09fcd-6eb3-4487-95c6-c6f132f39de3","system_id":"levelo_inurba_marseille","lat":43.22519,"lon":5.34838,"is_reserved":false,"is_disabled":false,"rental_uris":{"android":"levelo://app?vid=c0e09fcd-6eb3-4487-95c6-c6f132f39de3","ios":"levelo://app?vid=c0e09fcd-6eb3-4487-95c6-c6f132f39de3"},"vehicle_type_id":"4","last_reported":1758748110,"current_range_meters":6800,"station_id":"","pricing_plan_id":"cebpf4jnsgd1na2vs0mg"},{"bike_id":"207f992a-acfe-4c0b-82d1-0f7fcf61aa0c","system_id":"levelo_inurba_marseille","lat":43.2418,"lon":5.397,"is_reserved":false,"is_disabled":true,"rental_uris":{"android":"levelo://app?vid=207f992a-acfe-4c0b-82d1-0f7fcf61aa0c","ios":"levelo://app?vid=207f992a-acfe-4c0b-82d1-0f7fcf61aa0c"},"vehicle_type_id":"4","last_reported":1758748110,"current_range_meters":6800,"station_id":"ce4bhn12rcd13ifvqgpg","pricing_plan_id":"cebpf4jnsgd1na2vs0mg"},{"bike_id":"e40c5577-3291-42b6-8ff5-8c952f16ee31","system_id":"levelo_inurba_marseille","lat":43.31477,"lon":5.37316,"is_reserved":false,"is_disabled":false,"rental_uris":{"android":"levelo://app?vid=e40c5577-3291-42b6-8ff5-8c952f16ee31","ios":"levelo://app?vid=e40c5577-3291-42b6-8ff5-8c952f16ee31"},"vehicle_type_id":"4","last_reported":1758748110,"current_range_meters":6800,"station_id":"ce4bgt12rcd13ifvqcd0","pricing_plan_id":"cebpf4jnsgd1na2vs0mg"},{"bike_id":"9446425e-0a86-42ae-bc3c-f72ad738e590","system_id":"levelo_inurba_marseille","lat":43.33647,"lon":5.36299,"is_reserved":false,"is_disabled":false,"rental_uris":{"android":"levelo://app?vid=9446425e-0a86-42ae-bc3c-f72ad738e590","ios":"levelo://app?vid=9446425e-0a86-42ae-bc3c-f72ad738e590"},"vehicle_type_id":"4","last_reported":1758748110,"current_range_meters":7200,"station_id":"","pricing_plan_id":"cebpf4jnsgd1na2vs0mg"},{"bike_id":"9615b0cc-320a-4aeb-8906-90f8e0d2d533","system_id":"levelo_inurba_marseille","lat":43.279197,"lon":5.395804,"is_reserved":false,"is_disabled":false,"rental_uris":{"android":"levelo://app?vid=9615b0cc-320a-4aeb-8906-90f8e0d2d533","ios":"levelo://app?vid=9615b0cc-320a-4aeb-8906-90f8e0d2d533"},"vehicle_type_id":"4","last_reported":1758748110,"current_range_meters":7200,"station_id":"ce4bhf92rcd13ifvqf40","pricing_plan_id":"cebpf4jnsgd1na2vs0mg"},{"bike_id":"578f4c42-fa16-464e-ad13-e76aefab08c4","system_id":"levelo_inurba_marseille","lat":43.30428,"lon":5.38887,"is_reserved":false,"is_disabled":false,"rental_uris":{"android":"levelo://app?vid=578f4c42-fa16-464e-ad13-e76aefab08c4","ios":"levelo://app?vid=578f4c42-fa16-464e-ad13-e76aefab08c4"},"vehicle_type_id":"4","last_reported":1758748110,"current_range_meters":7200,"station_id":"ce4bgk12rcd13ifvqbi0","pricing_plan_id":"cebpf4jnsgd1na2vs0mg"},{"bike_id":"f2bd1194-ae35-4f7a-9611-f7d70129a0c2","system_id":"levelo_inurba_marseille","lat":43.28006,"lon":5.41681,"is_reserved":false,"is_disabled":false,"rental_uris":{"android":"levelo://app?vid=f2bd1194-ae35-4f7a-9611-f7d70129a0c2","ios":"levelo://app?vid=f2bd1194-ae35-4f7a-9611-f7d70129a0c2"},"vehicle_type_id":"4","last_reported":1758748110,"current_range_meters":7200,"station_id":"ce4bho12rcd13ifvqh1g","pricing_plan_id":"cebpf4jnsgd1na2vs0mg"},{"bike_id":"ab5ee92b-26ae-4da8-b9db-ca4f79f388d3","system_id":"levelo_inurba_marseille","lat":43.28625,"lon":5.351,"is_reserved":false,"is_disabled":false,"rental_uris":{"android":"levelo://app?vid=ab5ee92b-26ae-4da8-b9db-ca4f79f388d3","ios":"levelo://app?vid=ab5ee92b-26ae-4da8-b9db-ca4f79f388d3"},"vehicle_type_id":"4","last_reported":1758748110,"current_range_meters":7200,"station_id":"ce4bhch2rcd13ifvqeug","pricing_plan_id":"cebpf4jnsgd1na2vs0mg"},{"bike_id":"ea93c4e7-0906-4128-b4fc-1b4c74a5c843","system_id":"levelo_inurba_marseille","lat":43.24828,"lon":5.37466,"is_reserved":false,"is_disabled":true,"rental_uris":{"android":"levelo://app?vid=ea93c4e7-0906-4128-b4fc-1b4c74a5c843","ios":"levelo://app?vid=ea93c4e7-0906-4128-b4fc-1b4c74a5c843"},"vehicle_type_id":"4","last_reported":1758748110,"current_range_meters":8000,"station_id":"ce4bhgh2rcd13ifvqfb0","pricing_plan_id":"cebpf4jnsgd1na2vs0mg"},{"bike_id":"8b690cb9-57af-44fd-b3bf-d26e7f5ee42a","system_id":"levelo_inurba_marseille","lat":43.2836,"lon":5.381,"is_reserved":false,"is_disabled":false,"rental_uris":{"android":"levelo://app?vid=8b690cb9-57af-44fd-b3bf-d26e7f5ee42a","ios":"levelo://app?vid=8b690cb9-57af-44fd-b3bf-d26e7f5ee42a"},"vehicle_type_id":"4","last_reported":1758748110,"current_range_meters":8000,"station_id":"ce4bh412rcd13ifvqdr0","pricing_plan_id":"cebpf4jnsgd1na2vs0mg"},{"bike_id":"9d505302-1cab-4939-a0f5-80e81b9b7a5f","system_id":"levelo_inurba_marseille","lat":43.29276,"lon":5.36846,"is_reserved":false,"is_disabled":false,"rental_uris":{"android":"levelo://app?vid=9d505302-1cab-4939-a0f5-80e81b9b7a5f","ios":"levelo://app?vid=9d505302-1cab-4939-a0f5-80e81b9b7a5f"},"vehicle_type_id":"4","last_reported":1758748110,"current_range_meters":8000,"station_id":"ce4bhbp2rcd13ifvqesg","pricing_plan_id":"cebpf4jnsgd1na2vs0mg"},{"bike_id":"5f7a5080-e77c-4892-a096-c578510b27d0","system_id":"levelo_inurba_marseille","lat":43.2794,"lon":5.41046,"is_reserved":false,"is_disabled":true,"rental_uris":{"android":"levelo://app?vid=5f7a5080-e77c-4892-a096-c578510b27d0","ios":"levelo://app?vid=5f7a5080-e77c-4892-a096-c578510b27d0"},"vehicle_type_id":"4","last_reported":1758748110,"current_range_meters":8400,"station_id":"ce4bhnp2rcd13ifvqh0g","pricing_plan_id":"cebpf4jnsgd1na2vs0mg"},{"bike_id":"7c0482c3-9253-4d1b-b4f3-be55cdb7721d","system_id":"levelo_inurba_marseille","lat":43.33757,"lon":5.37466,"is_reserved":false,"is_disabled":false,"rental_uris":{"android":"levelo://app?vid=7c0482c3-9253-4d1b-b4f3-be55cdb7721d","ios":"levelo://app?vid=7c0482c3-9253-4d1b-b4f3-be55cdb7721d"},"vehicle_type_id":"4","last_reported":1758748110,"current_range_meters":8400,"station_id":"","pricing_plan_id":"cebpf4jnsgd1na2vs0mg"},{"bike_id":"ef25b7f5-39c6-4d67-bbf7-c65cbad0c0d8","system_id":"levelo_inurba_marseille","lat":43.28014,"lon":5.41646,"is_reserved":false,"is_disabled":false,"rental_uris":{"android":"levelo://app?vid=ef25b7f5-39c6-4d67-bbf7-c65cbad0c0d8","ios":"levelo://app?vid=ef25b7f5-39c6-4d67-bbf7-c65cbad0c0d8"},"vehicle_type_id":"4","last_reported":1758748110,"current_range_meters":8400,"station_id":"ce4bho12rcd13ifvqh1g","pricing_plan_id":"cebpf4jnsgd1na2vs0mg"},{"bike_id":"4ce67155-9f15-4130-9400-f86685d8ecda","system_id":"levelo_inurba_marseille","lat":43.29761,"lon":5.36546,"is_reserved":false,"is_disabled":false,"rental_uris":{"android":"levelo://app?vid=4ce67155-9f15-4130-9400-f86685d8ecda","ios":"levelo://app?vid=4ce67155-9f15-4130-9400-f86685d8ecda"},"vehicle_type_id":"4","last_reported":1758748110,"current_range_meters":8400,"station_id":"","pricing_plan_id":"cebpf4jnsgd1na2vs0mg"},{"bike_id":"6765fb53-f230-4b9a-9587-f0ec689c6027","system_id":"levelo_inurba_marseille","lat":43.28066,"lon":5.39631,"is_reserved":false,"is_disabled":false,"rental_uris":{"android":"levelo://app?vid=6765fb53-f230-4b9a-9587-f0ec689c6027","ios":"levelo://app?vid=6765fb53-f230-4b9a-9587-f0ec689c6027"},"vehicle_type_id":"4","last_reported":1758748110,"current_range_meters":8400,"station_id":"ce4bho12rcd13ifvqh2g","pricing_plan_id":"cebpf4jnsgd1na2vs0mg"},{"bike_id":"f233e75a-1d26-40db-aa22-c33363658fb1","system_id":"levelo_inurba_marseille","lat":43.29202,"lon":5.39317,"is_reserved":false,"is_disabled":false,"rental_uris":{"android":"levelo://app?vid=f233e75a-1d26-40db-aa22-c33363658fb1","ios":"levelo://app?vid=f233e75a-1d26-40db-aa22-c33363658fb1"},"vehicle_type_id":"4","last_reported":1758748110,"current_range_meters":8400,"station_id":"ce4bh192rcd13ifvqdd0","pricing_plan_id":"cebpf4jnsgd1na2vs0mg"},{"bike_id":"9c4a7bdb-c552-4dfd-8efb-40b9e0b0b147","system_id":"levelo_inurba_marseille","lat":43.309,"lon":5.36746,"is_reserved":false,"is_disabled":false,"rental_uris":{"android":"levelo://app?vid=9c4a7bdb-c552-4dfd-8efb-40b9e0b0b147","ios":"levelo://app?vid=9c4a7bdb-c552-4dfd-8efb-40b9e0b0b147"},"vehicle_type_id":"4","last_reported":1758748110,"current_range_meters":8400,"station_id":"","pricing_plan_id":"cebpf4jnsgd1na2vs0mg"},{"bike_id":"775eef17-75f5-4088-9ebb-23eb3ff8093e","system_id":"levelo_inurba_marseille","lat":43.26552,"lon":5.37286,"is_reserved":false,"is_disabled":false,"rental_uris":{"android":"levelo://app?vid=775eef17-75f5-4088-9ebb-23eb3ff8093e","ios":"levelo://app?vid=775eef17-75f5-4088-9ebb-23eb3ff8093e"},"vehicle_type_id":"4","last_reported":1758748110,"current_range_meters":8400,"station_id":"ce4bhg12rcd13ifvqf70","pricing_plan_id":"cebpf4jnsgd1na2vs0mg"},{"bike_id":"a4644197-2cbe-4db6-b1fb-8197670c015f","system_id":"levelo_inurba_marseille","lat":43.26201,"lon":5.40434,"is_reserved":false,"is_disabled":false,"rental_uris":{"android":"levelo://app?vid=a4644197-2cbe-4db6-b1fb-8197670c015f","ios":"levelo://app?vid=a4644197-2cbe-4db6-b1fb-8197670c015f"},"vehicle_type_id":"4","last_reported":1758748110,"current_range_meters":8400,"station_id":"ce4bhmh2rcd13ifvqgmg","pricing_plan_id":"cebpf4jnsgd1na2vs0mg"},{"bike_id":"43d57fd4-047e-4ac8-97e5-ec9b96239472","system_id":"levelo_inurba_marseille","lat":43.33231,"lon":5.39821,"is_reserved":false,"is_disabled":false,"rental_uris":{"android":"levelo://app?vid=43d57fd4-047e-4ac8-97e5-ec9b96239472","ios":"levelo://app?vid=43d57fd4-047e-4ac8-97e5-ec9b96239472"},"vehicle_type_id":"4","last_reported":1758748110,"current_range_meters":8400,"station_id":"","pricing_plan_id":"cebpf4jnsgd1na2vs0mg"},{"bike_id":"f4c0456a-c976-498e-865c-e8aae0c0f9e0","system_id":"levelo_inurba_marseille","lat":43.28446,"lon":5.359,"is_reserved":false,"is_disabled":false,"rental_uris":{"android":"levelo://app?vid=f4c0456a-c976-498e-865c-e8aae0c0f9e0","ios":"levelo://app?vid=f4c0456a-c976-498e-865c-e8aae0c0f9e0"},"vehicle_type_id":"4","last_reported":1758748110,"current_range_meters":8800,"station_id":"ce4bhah2rcd13ifvqei0","pricing_plan_id":"cebpf4jnsgd1na2vs0mg"},{"bike_id":"1846e412-a89b-48c3-8a86-f911e8ea2c2e","system_id":"levelo_inurba_marseille","lat":43.21222,"lon":5.3507,"is_reserved":false,"is_disabled":false,"rental_uris":{"android":"levelo://app?vid=1846e412-a89b-48c3-8a86-f911e8ea2c2e","ios":"levelo://app?vid=1846e412-a89b-48c3-8a86-f911e8ea2c2e"},"vehicle_type_id":"4","last_reported":1758748110,"current_range_meters":8800,"station_id":"st_cvj6sg6p6f1abm77japg","pricing_plan_id":"cebpf4jnsgd1na2vs0mg"},{"bike_id":"a9bedea1-2f15-43de-b33d-e0f7b6b2b260","system_id":"levelo_inurba_marseille","lat":43.26191,"lon":5.37454,"is_reserved":false,"is_disabled":false,"rental_uris":{"android":"levelo://app?vid=a9bedea1-2f15-43de-b33d-e0f7b6b2b260","ios":"levelo://app?vid=a9bedea1-2f15-43de-b33d-e0f7b6b2b260"},"vehicle_type_id":"4","last_reported":1758748110,"current_range_meters":8800,"station_id":"ce4bhgp2rcd13ifvqfc0","pricing_plan_id":"cebpf4jnsgd1na2vs0mg"},{"bike_id":"e35dc3d8-0dfe-4bd4-87f7-5d3ca8bee4e5","system_id":"levelo_inurba_marseille","lat":43.250814,"lon":5.425774,"is_reserved":false,"is_disabled":false,"rental_uris":{"android":"levelo://app?vid=e35dc3d8-0dfe-4bd4-87f7-5d3ca8bee4e5","ios":"levelo://app?vid=e35dc3d8-0dfe-4bd4-87f7-5d3ca8bee4e5"},"vehicle_type_id":"4","last_reported":1758748110,"current_range_meters":9200,"station_id":"","pricing_plan_id":"cebpf4jnsgd1na2vs0mg"},{"bike_id":"b2a1e5ba-8a76-45db-9a24-e979e6cb0171","system_id":"levelo_inurba_marseille","lat":43.27991,"lon":5.41663,"is_reserved":false,"is_disabled":false,"rental_uris":{"android":"levelo://app?vid=b2a1e5ba-8a76-45db-9a24-e979e6cb0171","ios":"levelo://app?vid=b2a1e5ba-8a76-45db-9a24-e979e6cb0171"},"vehicle_type_id":"4","last_reported":1758748110,"current_range_meters":9600,"station_id":"ce4bho12rcd13ifvqh1g","pricing_plan_id":"cebpf4jnsgd1na2vs0mg"},{"bike_id":"0df75e72-c8b2-4ed4-bb38-339f4f3a1611","system_id":"levelo_inurba_marseille","lat":43.27644,"lon":5.38889,"is_reserved":false,"is_disabled":true,"rental_uris":{"android":"levelo://app?vid=0df75e72-c8b2-4ed4-bb38-339f4f3a1611","ios":"levelo://app?vid=0df75e72-c8b2-4ed4-bb38-339f4f3a1611"},"vehicle_type_id":"4","last_reported":1758748110,"current_range_meters":9600,"station_id":"ce4bhi12rcd13ifvqfo0","pricing_plan_id":"cebpf4jnsgd1na2vs0mg"},{"bike_id":"514b5fdb-f81d-41c3-afe2-e88866964916","system_id":"levelo_inurba_marseille","lat":43.25093,"lon":5.3948,"is_reserved":false,"is_disabled":true,"rental_uris":{"android":"levelo://app?vid=514b5fdb-f81d-41c3-afe2-e88866964916","ios":"levelo://app?vid=514b5fdb-f81d-41c3-afe2-e88866964916"},"vehicle_type_id":"4","last_reported":1758748110,"current_range_meters":9600,"station_id":"ce4bhm12rcd13ifvqgkg","pricing_plan_id":"cebpf4jnsgd1na2vs0mg"},{"bike_id":"e4bf5015-afdf-4490-a6dc-cad1a4aaea5a","system_id":"levelo_inurba_marseille","lat":43.29052,"lon":5.35918,"is_reserved":false,"is_disabled":false,"rental_uris":{"android":"levelo://app?vid=e4bf5015-afdf-4490-a6dc-cad1a4aaea5a","ios":"levelo://app?vid=e4bf5015-afdf-4490-a6dc-cad1a4aaea5a"},"vehicle_type_id":"4","last_reported":1758748110,"current_range_meters":10000,"station_id":"ce4bha92rcd13ifvqeg0","pricing_plan_id":"cebpf4jnsgd1na2vs0mg"},{"bike_id":"3f236d9e-3659-4c78-9ea5-23354a41fdb9","system_id":"levelo_inurba_marseille","lat":43.29058,"lon":5.37161,"is_reserved":false,"is_disabled":false,"rental_uris":{"android":"levelo://app?vid=3f236d9e-3659-4c78-9ea5-23354a41fdb9","ios":"levelo://app?vid=3f236d9e-3659-4c78-9ea5-23354a41fdb9"},"vehicle_type_id":"4","last_reported":1758748110,"current_range_meters":10000,"station_id":"ce4bh5p2rcd13ifvqe4g","pricing_plan_id":"cebpf4jnsgd1na2vs0mg"},{"bike_id":"00550308-26e1-4a71-9df2-013d0d759bc4","system_id":"levelo_inurba_marseille","lat":43.29898,"lon":5.43668,"is_reserved":false,"is_disabled":false,"rental_uris":{"android":"levelo://app?vid=00550308-26e1-4a71-9df2-013d0d759bc4","ios":"levelo://app?vid=00550308-26e1-4a71-9df2-013d0d759bc4"},"vehicle_type_id":"4","last_reported":1758748110,"current_range_meters":10000,"station_id":"ce4bhpp2rcd13ifvqhfg","pricing_plan_id":"cebpf4jnsgd1na2vs0mg"},{"bike_id":"fdcf815f-664f-4c9a-95e4-3f4c39596470","system_id":"levelo_inurba_marseille","lat":43.28453,"lon":5.35893,"is_reserved":false,"is_disabled":false,"rental_uris":{"android":"levelo://app?vid=fdcf815f-664f-4c9a-95e4-3f4c39596470","ios":"levelo://app?vid=fdcf815f-664f-4c9a-95e4-3f4c39596470"},"vehicle_type_id":"4","last_reported":1758748110,"current_range_meters":10800,"station_id":"ce4bhah2rcd13ifvqei0","pricing_plan_id":"cebpf4jnsgd1na2vs0mg"},{"bike_id":"35b29339-dba8-4e1a-a84b-b2cb4cbeab88","system_id":"levelo_inurba_marseille","lat":43.31069,"lon":5.40089,"is_reserved":false,"is_disabled":false,"rental_uris":{"android":"levelo://app?vid=35b29339-dba8-4e1a-a84b-b2cb4cbeab88","ios":"levelo://app?vid=35b29339-dba8-4e1a-a84b-b2cb4cbeab88"},"vehicle_type_id":"4","last_reported":1758748110,"current_range_meters":10800,"station_id":"","pricing_plan_id":"cebpf4jnsgd1na2vs0mg"},{"bike_id":"54f1c92b-94a0-4513-88e2-cfe0e09ba6ac","system_id":"levelo_inurba_marseille","lat":43.33022,"lon":5.390451,"is_reserved":false,"is_disabled":false,"rental_uris":{"android":"levelo://app?vid=54f1c92b-94a0-4513-88e2-cfe0e09ba6ac","ios":"levelo://app?vid=54f1c92b-94a0-4513-88e2-cfe0e09ba6ac"},"vehicle_type_id":"4","last_reported":1758748110,"current_range_meters":10800,"station_id":"ce4bhr92rcd13ifvqhrg","pricing_plan_id":"cebpf4jnsgd1na2vs0mg"},{"bike_id":"9feb0e0f-24fa-4463-b0f3-30472830c043","system_id":"levelo_inurba_marseille","lat":43.31757,"lon":5.39002,"is_reserved":false,"is_disabled":true,"rental_uris":{"android":"levelo://app?vid=9feb0e0f-24fa-4463-b0f3-30472830c043","ios":"levelo://app?vid=9feb0e0f-24fa-4463-b0f3-30472830c043"},"vehicle_type_id":"4","last_reported":1758748110,"current_range_meters":11200,"station_id":"ce4bhqp2rcd13ifvqhng","pricing_plan_id":"cebpf4jnsgd1na2vs0mg"},{"bike_id":"b5097eea-9912-4be2-9cf9-14c224c5fab6","system_id":"levelo_inurba_marseille","lat":43.232012,"lon":5.355504,"is_reserved":false,"is_disabled":false,"rental_uris":{"android":"levelo://app?vid=b5097eea-9912-4be2-9cf9-14c224c5fab6","ios":"levelo://app?vid=b5097eea-9912-4be2-9cf9-14c224c5fab6"},"vehicle_type_id":"4","last_reported":1758748110,"current_range_meters":11200,"station_id":"ce4bhu92rcd13ifvqi70","pricing_plan_id":"cebpf4jnsgd1na2vs0mg"},{"bike_id":"9b797e54-058e-4a0e-8b63-b3ad21cd3c60","system_id":"levelo_inurba_marseille","lat":43.28101,"lon":5.37852,"is_reserved":false,"is_disabled":false,"rental_uris":{"android":"levelo://app?vid=9b797e54-058e-4a0e-8b63-b3ad21cd3c60","ios":"levelo://app?vid=9b797e54-058e-4a0e-8b63-b3ad21cd3c60"},"vehicle_type_id":"4","last_reported":1758748110,"current_range_meters":11200,"station_id":"ce4bha12rcd13ifvqee0","pricing_plan_id":"cebpf4jnsgd1na2vs0mg"},{"bike_id":"2b142924-375d-48cb-93a3-16a1b9bf5e94","system_id":"levelo_inurba_marseille","lat":43.28611,"lon":5.35103,"is_reserved":false,"is_disabled":false,"rental_uris":{"android":"levelo://app?vid=2b142924-375d-48cb-93a3-16a1b9bf5e94","ios":"levelo://app?vid=2b142924-375d-48cb-93a3-16a1b9bf5e94"},"vehicle_type_id":"4","last_reported":1758748110,"current_range_meters":11200,"station_id":"ce4bhch2rcd13ifvqeug","pricing_plan_id":"cebpf4jnsgd1na2vs0mg"},{"bike_id":"d6c0e3d3-87e1-4a29-83c6-b068f2e1dc6c","system_id":"levelo_inurba_marseille","lat":43.24386,"lon":5.37065,"is_reserved":false,"is_disabled":false,"rental_uris":{"android":"levelo://app?vid=d6c0e3d3-87e1-4a29-83c6-b068f2e1dc6c","ios":"levelo://app?vid=d6c0e3d3-87e1-4a29-83c6-b068f2e1dc6c"},"vehicle_type_id":"4","last_reported":1758748110,"current_range_meters":11200,"station_id":"ce4bhhh2rcd13ifvqfk0","pricing_plan_id":"cebpf4jnsgd1na2vs0mg"},{"bike_id":"438ead59-de14-4fa0-a61d-03a70a4122ae","system_id":"levelo_inurba_marseille","lat":43.97269,"lon":4.89111,"is_reserved":false,"is_disabled":true,"rental_uris":{"android":"levelo://app?vid=438ead59-de14-4fa0-a61d-03a70a4122ae","ios":"levelo://app?vid=438ead59-de14-4fa0-a61d-03a70a4122ae"},"vehicle_type_id":"4","last_reported":1758748110,"current_range_meters":11200,"station_id":"","pricing_plan_id":"cebpf4jnsgd1na2vs0mg"},{"bike_id":"835e662b-b33c-402f-a6b1-f536681d6490","system_id":"levelo_inurba_marseille","lat":43.28413,"lon":5.34982,"is_reserved":false,"is_disabled":false,"rental_uris":{"android":"levelo://app?vid=835e662b-b33c-402f-a6b1-f536681d6490","ios":"levelo://app?vid=835e662b-b33c-402f-a6b1-f536681d6490"},"vehicle_type_id":"4","last_reported":1758748110,"current_range_meters":11200,"station_id":"ce4bhbh2rcd13ifvqepg","pricing_plan_id":"cebpf4jnsgd1na2vs0mg"},{"bike_id":"7981bd57-1a91-436b-8601-50130d20e8be","system_id":"levelo_inurba_marseille","lat":43.21221,"lon":5.35064,"is_reserved":false,"is_disabled":false,"rental_uris":{"android":"levelo://app?vid=7981bd57-1a91-436b-8601-50130d20e8be","ios":"levelo://app?vid=7981bd57-1a91-436b-8601-50130d20e8be"},"vehicle_type_id":"4","last_reported":1758748110,"current_range_meters":11600,"station_id":"st_cvj6sg6p6f1abm77japg","pricing_plan_id":"cebpf4jnsgd1na2vs0mg"},{"bike_id":"8c7fb638-aa89-4dc5-b652-77ceb015b905","system_id":"levelo_inurba_marseille","lat":43.24953,"lon":5.40505,"is_reserved":false,"is_disabled":false,"rental_uris":{"android":"levelo://app?vid=8c7fb638-aa89-4dc5-b652-77ceb015b905","ios":"levelo://app?vid=8c7fb638-aa89-4dc5-b652-77ceb015b905"},"vehicle_type_id":"4","last_reported":1758748110,"current_range_meters":11600,"station_id":"st_d2ngiaodas8pm72gd1h0","pricing_plan_id":"cebpf4jnsgd1na2vs0mg"},{"bike_id":"6c387d9c-fb50-41ae-b4f4-22ff8d86fe09","system_id":"levelo_inurba_marseille","lat":43.28474,"lon":5.35898,"is_reserved":false,"is_disabled":false,"rental_uris":{"android":"levelo://app?vid=6c387d9c-fb50-41ae-b4f4-22ff8d86fe09","ios":"levelo://app?vid=6c387d9c-fb50-41ae-b4f4-22ff8d86fe09"},"vehicle_type_id":"4","last_reported":1758748110,"current_range_meters":11600,"station_id":"ce4bhah2rcd13ifvqei0","pricing_plan_id":"cebpf4jnsgd1na2vs0mg"},{"bike_id":"c89e96e6-c0b7-49ff-b8e6-77a8927b2a39","system_id":"levelo_inurba_marseille","lat":43.26566,"lon":5.37285,"is_reserved":false,"is_disabled":false,"rental_uris":{"android":"levelo://app?vid=c89e96e6-c0b7-49ff-b8e6-77a8927b2a39","ios":"levelo://app?vid=c89e96e6-c0b7-49ff-b8e6-77a8927b2a39"},"vehicle_type_id":"4","last_reported":1758748110,"current_range_meters":11600,"station_id":"ce4bhg12rcd13ifvqf70","pricing_plan_id":"cebpf4jnsgd1na2vs0mg"},{"bike_id":"06c10839-75c7-457b-804b-f341157fb4f3","system_id":"levelo_inurba_marseille","lat":43.25093,"lon":5.40476,"is_reserved":false,"is_disabled":false,"rental_uris":{"android":"levelo://app?vid=06c10839-75c7-457b-804b-f341157fb4f3","ios":"levelo://app?vid=06c10839-75c7-457b-804b-f341157fb4f3"},"vehicle_type_id":"4","last_reported":1758748110,"current_range_meters":11600,"station_id":"","pricing_plan_id":"cebpf4jnsgd1na2vs0mg"},{"bike_id":"b047061a-80fe-4f53-a37f-a97017dc2f10","system_id":"levelo_inurba_marseille","lat":43.29263,"lon":5.40911,"is_reserved":false,"is_disabled":true,"rental_uris":{"android":"levelo://app?vid=b047061a-80fe-4f53-a37f-a97017dc2f10","ios":"levelo://app?vid=b047061a-80fe-4f53-a37f-a97017dc2f10"},"vehicle_type_id":"4","last_reported":1758748110,"current_range_meters":11600,"station_id":"ce4bh192rcd13ifvqdc0","pricing_plan_id":"cebpf4jnsgd1na2vs0mg"},{"bike_id":"77c1a294-f1c8-4ee4-8b89-6024e504a421","system_id":"levelo_inurba_marseille","lat":43.30265,"lon":5.4008,"is_reserved":false,"is_disabled":false,"rental_uris":{"android":"levelo://app?vid=77c1a294-f1c8-4ee4-8b89-6024e504a421","ios":"levelo://app?vid=77c1a294-f1c8-4ee4-8b89-6024e504a421"},"vehicle_type_id":"4","last_reported":1758748110,"current_range_meters":11600,"station_id":"ce4bgvh2rcd13ifvqcs0","pricing_plan_id":"cebpf4jnsgd1na2vs0mg"},{"bike_id":"943f4a81-0a8c-43a3-b65e-eb7ef547a72c","system_id":"levelo_inurba_marseille","lat":43.28437,"lon":5.38419,"is_reserved":false,"is_disabled":true,"rental_uris":{"android":"levelo://app?vid=943f4a81-0a8c-43a3-b65e-eb7ef547a72c","ios":"levelo://app?vid=943f4a81-0a8c-43a3-b65e-eb7ef547a72c"},"vehicle_type_id":"4","last_reported":1758748110,"current_range_meters":11600,"station_id":"ce4bh512rcd13ifvqe3g","pricing_plan_id":"cebpf4jnsgd1na2vs0mg"},{"bike_id":"1629c0bb-1458-4ec4-b827-6e11adac4ce4","system_id":"levelo_inurba_marseille","lat":43.29875,"lon":5.39731,"is_reserved":false,"is_disabled":false,"rental_uris":{"android":"levelo://app?vid=1629c0bb-1458-4ec4-b827-6e11adac4ce4","ios":"levelo://app?vid=1629c0bb-1458-4ec4-b827-6e11adac4ce4"},"vehicle_type_id":"4","last_reported":1758748110,"current_range_meters":11600,"station_id":"ce4bh0h2rcd13ifvqd50","pricing_plan_id":"cebpf4jnsgd1na2vs0mg"},{"bike_id":"92a00638-62d2-4c4e-b268-733b0dcfef48","system_id":"levelo_inurba_marseille","lat":43.30896,"lon":5.3964,"is_reserved":false,"is_disabled":false,"rental_uris":{"android":"levelo://app?vid=92a00638-62d2-4c4e-b268-733b0dcfef48","ios":"levelo://app?vid=92a00638-62d2-4c4e-b268-733b0dcfef48"},"vehicle_type_id":"4","last_reported":1758748110,"current_range_meters":12000,"station_id":"ce4bh012rcd13ifvqcv0","pricing_plan_id":"cebpf4jnsgd1na2vs0mg"},{"bike_id":"a851cae0-b395-441e-9dd1-21300baf3396","system_id":"levelo_inurba_marseille","lat":43.31521,"lon":5.38685,"is_reserved":false,"is_disabled":false,"rental_uris":{"android":"levelo://app?vid=a851cae0-b395-441e-9dd1-21300baf3396","ios":"levelo://app?vid=a851cae0-b395-441e-9dd1-21300baf3396"},"vehicle_type_id":"4","last_reported":1758748110,"current_range_meters":12000,"station_id":"","pricing_plan_id":"cebpf4jnsgd1na2vs0mg"},{"bike_id":"3a319be7-fef3-40df-96fe-6bdc37dc7081","system_id":"levelo_inurba_marseille","lat":43.28081,"lon":5.37853,"is_reserved":false,"is_disabled":false,"rental_uris":{"android":"levelo://app?vid=3a319be7-fef3-40df-96fe-6bdc37dc7081","ios":"levelo://app?vid=3a319be7-fef3-40df-96fe-6bdc37dc7081"},"vehicle_type_id":"4","last_reported":1758748110,"current_range_meters":12000,"station_id":"ce4bha12rcd13ifvqee0","pricing_plan_id":"cebpf4jnsgd1na2vs0mg"},{"bike_id":"fca2cd76-1e31-47dc-b6ce-18776c40295a","system_id":"levelo_inurba_marseille","lat":43.27375,"lon":5.36257,"is_reserved":false,"is_disabled":false,"rental_uris":{"android":"levelo://app?vid=fca2cd76-1e31-47dc-b6ce-18776c40295a","ios":"levelo://app?vid=fca2cd76-1e31-47dc-b6ce-18776c40295a"},"vehicle_type_id":"4","last_reported":1758748110,"current_range_meters":12000,"station_id":"ce4bhbh2rcd13ifvqeo0","pricing_plan_id":"cebpf4jnsgd1na2vs0mg"},{"bike_id":"5fbe240b-53fb-428d-978a-e46e6a2551ae","system_id":"levelo_inurba_marseille","lat":43.2557,"lon":5.38238,"is_reserved":false,"is_disabled":false,"rental_uris":{"android":"levelo://app?vid=5fbe240b-53fb-428d-978a-e46e6a2551ae","ios":"levelo://app?vid=5fbe240b-53fb-428d-978a-e46e6a2551ae"},"vehicle_type_id":"4","last_reported":1758748110,"current_range_meters":12000,"station_id":"ce4bhih2rcd13ifvqfs0","pricing_plan_id":"cebpf4jnsgd1na2vs0mg"},{"bike_id":"450844ba-2fc2-47be-9959-8fee61f07fb6","system_id":"levelo_inurba_marseille","lat":43.31741,"lon":5.39024,"is_reserved":false,"is_disabled":false,"rental_uris":{"android":"levelo://app?vid=450844ba-2fc2-47be-9959-8fee61f07fb6","ios":"levelo://app?vid=450844ba-2fc2-47be-9959-8fee61f07fb6"},"vehicle_type_id":"4","last_reported":1758748110,"current_range_meters":12400,"station_id":"ce4bhqp2rcd13ifvqhng","pricing_plan_id":"cebpf4jnsgd1na2vs0mg"},{"bike_id":"1221f52f-da48-4205-afc8-b6dd9d4b3e5e","system_id":"levelo_inurba_marseille","lat":43.25752,"lon":5.41095,"is_reserved":false,"is_disabled":true,"rental_uris":{"android":"levelo://app?vid=1221f52f-da48-4205-afc8-b6dd9d4b3e5e","ios":"levelo://app?vid=1221f52f-da48-4205-afc8-b6dd9d4b3e5e"},"vehicle_type_id":"4","last_reported":1758748110,"current_range_meters":12400,"station_id":"ce4bhkp2rcd13ifvqgd0","pricing_plan_id":"cebpf4jnsgd1na2vs0mg"},{"bike_id":"3691c0cf-36ed-43b8-827f-94c03aaba0ea","system_id":"levelo_inurba_marseille","lat":43.24663,"lon":5.3816,"is_reserved":false,"is_disabled":false,"rental_uris":{"android":"levelo://app?vid=3691c0cf-36ed-43b8-827f-94c03aaba0ea","ios":"levelo://app?vid=3691c0cf-36ed-43b8-827f-94c03aaba0ea"},"vehicle_type_id":"4","last_reported":1758748110,"current_range_meters":12400,"station_id":"ce4bhih2rcd13ifvqfr0","pricing_plan_id":"cebpf4jnsgd1na2vs0mg"},{"bike_id":"33fd34d3-5132-48b1-818a-de7a5bf429d3","system_id":"levelo_inurba_marseille","lat":43.30465,"lon":5.37901,"is_reserved":false,"is_disabled":false,"rental_uris":{"android":"levelo://app?vid=33fd34d3-5132-48b1-818a-de7a5bf429d3","ios":"levelo://app?vid=33fd34d3-5132-48b1-818a-de7a5bf429d3"},"vehicle_type_id":"4","last_reported":1758748110,"current_range_meters":12400,"station_id":"ce4bgup2rcd13ifvqcn0","pricing_plan_id":"cebpf4jnsgd1na2vs0mg"},{"bike_id":"fb1e7de3-cddb-408a-9b04-937333e8e1b1","system_id":"levelo_inurba_marseille","lat":43.258241,"lon":5.39439,"is_reserved":false,"is_disabled":false,"rental_uris":{"android":"levelo://app?vid=fb1e7de3-cddb-408a-9b04-937333e8e1b1","ios":"levelo://app?vid=fb1e7de3-cddb-408a-9b04-937333e8e1b1"},"vehicle_type_id":"4","last_reported":1758748110,"current_range_meters":12400,"station_id":"ce4bhip2rcd13ifvqft0","pricing_plan_id":"cebpf4jnsgd1na2vs0mg"},{"bike_id":"36b070bb-df09-4433-b99c-aab79ada22d5","system_id":"levelo_inurba_marseille","lat":43.29287,"lon":5.3744,"is_reserved":false,"is_disabled":false,"rental_uris":{"android":"levelo://app?vid=36b070bb-df09-4433-b99c-aab79ada22d5","ios":"levelo://app?vid=36b070bb-df09-4433-b99c-aab79ada22d5"},"vehicle_type_id":"4","last_reported":1758748110,"current_range_meters":12400,"station_id":"","pricing_plan_id":"cebpf4jnsgd1na2vs0mg"},{"bike_id":"f9af076b-c426-46f0-97f6-f6a5a530c8e2","system_id":"levelo_inurba_marseille","lat":43.33189,"lon":5.39844,"is_reserved":false,"is_disabled":false,"rental_uris":{"android":"levelo://app?vid=f9af076b-c426-46f0-97f6-f6a5a530c8e2","ios":"levelo://app?vid=f9af076b-c426-46f0-97f6-f6a5a530c8e2"},"vehicle_type_id":"4","last_reported":1758748110,"current_range_meters":12400,"station_id":"","pricing_plan_id":"cebpf4jnsgd1na2vs0mg"},{"bike_id":"dfc6616d-fac8-446b-b270-4ca8177f4872","system_id":"levelo_inurba_marseille","lat":43.24094,"lon":5.37762,"is_reserved":false,"is_disabled":false,"rental_uris":{"android":"levelo://app?vid=dfc6616d-fac8-446b-b270-4ca8177f4872","ios":"levelo://app?vid=dfc6616d-fac8-446b-b270-4ca8177f4872"},"vehicle_type_id":"4","last_reported":1758748110,"current_range_meters":12800,"station_id":"ce4bhnp2rcd13ifvqgvg","pricing_plan_id":"cebpf4jnsgd1na2vs0mg"},{"bike_id":"ae4d123c-65ee-4c52-8933-f4b14d3f9582","system_id":"levelo_inurba_marseille","lat":43.22567,"lon":5.41631,"is_reserved":false,"is_disabled":false,"rental_uris":{"android":"levelo://app?vid=ae4d123c-65ee-4c52-8933-f4b14d3f9582","ios":"levelo://app?vid=ae4d123c-65ee-4c52-8933-f4b14d3f9582"},"vehicle_type_id":"4","last_reported":1758748110,"current_range_meters":12800,"station_id":"st_d2o4gvlbi1j2169b742g","pricing_plan_id":"cebpf4jnsgd1na2vs0mg"},{"bike_id":"ef00c611-56e3-4d87-83a8-6fad9627913a","system_id":"levelo_inurba_marseille","lat":43.308894,"lon":5.371943,"is_reserved":false,"is_disabled":false,"rental_uris":{"android":"levelo://app?vid=ef00c611-56e3-4d87-83a8-6fad9627913a","ios":"levelo://app?vid=ef00c611-56e3-4d87-83a8-6fad9627913a"},"vehicle_type_id":"4","last_reported":1758748110,"current_range_meters":12800,"station_id":"ce4bguh2rcd13ifvqckg","pricing_plan_id":"cebpf4jnsgd1na2vs0mg"},{"bike_id":"64a2bc6b-1f25-463e-afca-0e04794c3245","system_id":"levelo_inurba_marseille","lat":43.28842,"lon":5.39304,"is_reserved":false,"is_disabled":false,"rental_uris":{"android":"levelo://app?vid=64a2bc6b-1f25-463e-afca-0e04794c3245","ios":"levelo://app?vid=64a2bc6b-1f25-463e-afca-0e04794c3245"},"vehicle_type_id":"4","last_reported":1758748110,"current_range_meters":14400,"station_id":"ce4bh2p2rcd13ifvqdi0","pricing_plan_id":"cebpf4jnsgd1na2vs0mg"},{"bike_id":"b3e95158-1f24-4a27-a73a-d79e0a465478","system_id":"levelo_inurba_marseille","lat":43.24093,"lon":5.37751,"is_reserved":false,"is_disabled":false,"rental_uris":{"android":"levelo://app?vid=b3e95158-1f24-4a27-a73a-d79e0a465478","ios":"levelo://app?vid=b3e95158-1f24-4a27-a73a-d79e0a465478"},"vehicle_type_id":"4","last_reported":1758748110,"current_range_meters":13600,"station_id":"ce4bhnp2rcd13ifvqgvg","pricing_plan_id":"cebpf4jnsgd1na2vs0mg"},{"bike_id":"bf1244d3-d7e7-45bd-8580-d0cbc34b36e3","system_id":"levelo_inurba_marseille","lat":43.22569,"lon":5.41621,"is_reserved":false,"is_disabled":false,"rental_uris":{"android":"levelo://app?vid=bf1244d3-d7e7-45bd-8580-d0cbc34b36e3","ios":"levelo://app?vid=bf1244d3-d7e7-45bd-8580-d0cbc34b36e3"},"vehicle_type_id":"4","last_reported":1758748110,"current_range_meters":13600,"station_id":"st_d2o4gvlbi1j2169b742g","pricing_plan_id":"cebpf4jnsgd1na2vs0mg"},{"bike_id":"54ccf239-cc66-4c0e-b76a-bd48f1ad4081","system_id":"levelo_inurba_marseille","lat":43.28454,"lon":5.35882,"is_reserved":false,"is_disabled":false,"rental_uris":{"android":"levelo://app?vid=54ccf239-cc66-4c0e-b76a-bd48f1ad4081","ios":"levelo://app?vid=54ccf239-cc66-4c0e-b76a-bd48f1ad4081"},"vehicle_type_id":"4","last_reported":1758748110,"current_range_meters":13600,"station_id":"ce4bhah2rcd13ifvqei0","pricing_plan_id":"cebpf4jnsgd1na2vs0mg"},{"bike_id":"e1f6ea02-3dcd-4760-958d-a4be47a2bc76","system_id":"levelo_inurba_marseille","lat":43.24653,"lon":5.38904,"is_reserved":false,"is_disabled":false,"rental_uris":{"android":"levelo://app?vid=e1f6ea02-3dcd-4760-958d-a4be47a2bc76","ios":"levelo://app?vid=e1f6ea02-3dcd-4760-958d-a4be47a2bc76"},"vehicle_type_id":"4","last_reported":1758748110,"current_range_meters":13600,"station_id":"ce4bhg12rcd13ifvqf60","pricing_plan_id":"cebpf4jnsgd1na2vs0mg"},{"bike_id":"21a23fb5-d051-4ee2-9c58-8985930c04d5","system_id":"levelo_inurba_marseille","lat":43.28423,"lon":5.37522,"is_reserved":false,"is_disabled":false,"rental_uris":{"android":"levelo://app?vid=21a23fb5-d051-4ee2-9c58-8985930c04d5","ios":"levelo://app?vid=21a23fb5-d051-4ee2-9c58-8985930c04d5"},"vehicle_type_id":"4","last_reported":1758748110,"current_range_meters":13600,"station_id":"ce4bh412rcd13ifvqds0","pricing_plan_id":"cebpf4jnsgd1na2vs0mg"},{"bike_id":"7b29c2cb-e408-4ca2-aa92-cf2f3baae3b8","system_id":"levelo_inurba_marseille","lat":43.28403,"lon":5.37516,"is_reserved":false,"is_disabled":false,"rental_uris":{"android":"levelo://app?vid=7b29c2cb-e408-4ca2-aa92-cf2f3baae3b8","ios":"levelo://app?vid=7b29c2cb-e408-4ca2-aa92-cf2f3baae3b8"},"vehicle_type_id":"4","last_reported":1758748110,"current_range_meters":13600,"station_id":"ce4bh412rcd13ifvqds0","pricing_plan_id":"cebpf4jnsgd1na2vs0mg"},{"bike_id":"2b0b8fbc-a3da-47ac-b7eb-4f8784dc48ba","system_id":"levelo_inurba_marseille","lat":43.28846,"lon":5.3933,"is_reserved":false,"is_disabled":false,"rental_uris":{"android":"levelo://app?vid=2b0b8fbc-a3da-47ac-b7eb-4f8784dc48ba","ios":"levelo://app?vid=2b0b8fbc-a3da-47ac-b7eb-4f8784dc48ba"},"vehicle_type_id":"4","last_reported":1758748110,"current_range_meters":13600,"station_id":"ce4bh2p2rcd13ifvqdi0","pricing_plan_id":"cebpf4jnsgd1na2vs0mg"},{"bike_id":"16cee2f9-0604-4f00-85ee-c5690b0410f0","system_id":"levelo_inurba_marseille","lat":43.28613,"lon":5.35111,"is_reserved":false,"is_disabled":false,"rental_uris":{"android":"levelo://app?vid=16cee2f9-0604-4f00-85ee-c5690b0410f0","ios":"levelo://app?vid=16cee2f9-0604-4f00-85ee-c5690b0410f0"},"vehicle_type_id":"4","last_reported":1758748110,"current_range_meters":13600,"station_id":"ce4bhch2rcd13ifvqeug","pricing_plan_id":"cebpf4jnsgd1na2vs0mg"},{"bike_id":"184d3264-28db-493e-9b19-28536a9710c4","system_id":"levelo_inurba_marseille","lat":43.3117,"lon":5.387206,"is_reserved":false,"is_disabled":false,"rental_uris":{"android":"levelo://app?vid=184d3264-28db-493e-9b19-28536a9710c4","ios":"levelo://app?vid=184d3264-28db-493e-9b19-28536a9710c4"},"vehicle_type_id":"4","last_reported":1758748110,"current_range_meters":14000,"station_id":"ce4bgv12rcd13ifvqcp0","pricing_plan_id":"cebpf4jnsgd1na2vs0mg"},{"bike_id":"3cb1dae7-6bcd-41e5-b1b7-c1d25c751a99","system_id":"levelo_inurba_marseille","lat":43.337594,"lon":5.374419,"is_reserved":false,"is_disabled":false,"rental_uris":{"android":"levelo://app?vid=3cb1dae7-6bcd-41e5-b1b7-c1d25c751a99","ios":"levelo://app?vid=3cb1dae7-6bcd-41e5-b1b7-c1d25c751a99"},"vehicle_type_id":"4","last_reported":1758748110,"current_range_meters":14000,"station_id":"","pricing_plan_id":"cebpf4jnsgd1na2vs0mg"},{"bike_id":"57b14c92-2a17-45b3-beb1-cbb460ef441b","system_id":"levelo_inurba_marseille","lat":43.23189,"lon":5.39988,"is_reserved":false,"is_disabled":false,"rental_uris":{"android":"levelo://app?vid=57b14c92-2a17-45b3-beb1-cbb460ef441b","ios":"levelo://app?vid=57b14c92-2a17-45b3-beb1-cbb460ef441b"},"vehicle_type_id":"4","last_reported":1758748110,"current_range_meters":14000,"station_id":"ce4bhn12rcd13ifvqgqg","pricing_plan_id":"cebpf4jnsgd1na2vs0mg"},{"bike_id":"12ed2972-a6ca-466e-8899-3c913323c726","system_id":"levelo_inurba_marseille","lat":43.31323,"lon":5.39683,"is_reserved":false,"is_disabled":false,"rental_uris":{"android":"levelo://app?vid=12ed2972-a6ca-466e-8899-3c913323c726","ios":"levelo://app?vid=12ed2972-a6ca-466e-8899-3c913323c726"},"vehicle_type_id":"4","last_reported":1758748110,"current_range_meters":14000,"station_id":"ce4bgvp2rcd13ifvqcu0","pricing_plan_id":"cebpf4jnsgd1na2vs0mg"},{"bike_id":"dfcf43be-07e6-48c0-8f2c-e82165ca59a8","system_id":"levelo_inurba_marseille","lat":43.29041,"lon":5.35908,"is_reserved":false,"is_disabled":false,"rental_uris":{"android":"levelo://app?vid=dfcf43be-07e6-48c0-8f2c-e82165ca59a8","ios":"levelo://app?vid=dfcf43be-07e6-48c0-8f2c-e82165ca59a8"},"vehicle_type_id":"4","last_reported":1758748110,"current_range_meters":14000,"station_id":"ce4bha92rcd13ifvqeg0","pricing_plan_id":"cebpf4jnsgd1na2vs0mg"},{"bike_id":"de83e61b-c8f4-491e-b547-85f0ca33222e","system_id":"levelo_inurba_marseille","lat":43.31163,"lon":5.38725,"is_reserved":false,"is_disabled":false,"rental_uris":{"android":"levelo://app?vid=de83e61b-c8f4-491e-b547-85f0ca33222e","ios":"levelo://app?vid=de83e61b-c8f4-491e-b547-85f0ca33222e"},"vehicle_type_id":"4","last_reported":1758748110,"current_range_meters":14000,"station_id":"ce4bgv12rcd13ifvqcp0","pricing_plan_id":"cebpf4jnsgd1na2vs0mg"},{"bike_id":"74371604-17e0-44a6-8b5f-08bd83d4999a","system_id":"levelo_inurba_marseille","lat":43.30299,"lon":5.36906,"is_reserved":false,"is_disabled":false,"rental_uris":{"android":"levelo://app?vid=74371604-17e0-44a6-8b5f-08bd83d4999a","ios":"levelo://app?vid=74371604-17e0-44a6-8b5f-08bd83d4999a"},"vehicle_type_id":"4","last_reported":1758748110,"current_range_meters":14000,"station_id":"ce4bgqh2rcd13ifvqc5g","pricing_plan_id":"cebpf4jnsgd1na2vs0mg"},{"bike_id":"6dab74f5-a51f-4792-bde6-c10b4d072be5","system_id":"levelo_inurba_marseille","lat":43.28423,"lon":5.37518,"is_reserved":false,"is_disabled":false,"rental_uris":{"android":"levelo://app?vid=6dab74f5-a51f-4792-bde6-c10b4d072be5","ios":"levelo://app?vid=6dab74f5-a51f-4792-bde6-c10b4d072be5"},"vehicle_type_id":"4","last_reported":1758748110,"current_range_meters":14000,"station_id":"ce4bh412rcd13ifvqds0","pricing_plan_id":"cebpf4jnsgd1na2vs0mg"},{"bike_id":"e19472f1-87e0-4943-97f3-e785d2a10054","system_id":"levelo_inurba_marseille","lat":43.28858,"lon":5.42524,"is_reserved":false,"is_disabled":false,"rental_uris":{"android":"levelo://app?vid=e19472f1-87e0-4943-97f3-e785d2a10054","ios":"levelo://app?vid=e19472f1-87e0-4943-97f3-e785d2a10054"},"vehicle_type_id":"4","last_reported":1758748110,"current_range_meters":14000,"station_id":"","pricing_plan_id":"cebpf4jnsgd1na2vs0mg"},{"bike_id":"3a83ddcd-ce03-4ed4-a7fa-b273c2464f02","system_id":"levelo_inurba_marseille","lat":43.27984,"lon":5.3637,"is_reserved":false,"is_disabled":false,"rental_uris":{"android":"levelo://app?vid=3a83ddcd-ce03-4ed4-a7fa-b273c2464f02","ios":"levelo://app?vid=3a83ddcd-ce03-4ed4-a7fa-b273c2464f02"},"vehicle_type_id":"4","last_reported":1758748110,"current_range_meters":14000,"station_id":"","pricing_plan_id":"cebpf4jnsgd1na2vs0mg"},{"bike_id":"2edaff00-298a-43bb-9b1b-fbee07f158c1","system_id":"levelo_inurba_marseille","lat":43.32182,"lon":5.36915,"is_reserved":false,"is_disabled":false,"rental_uris":{"android":"levelo://app?vid=2edaff00-298a-43bb-9b1b-fbee07f158c1","ios":"levelo://app?vid=2edaff00-298a-43bb-9b1b-fbee07f158c1"},"vehicle_type_id":"4","last_reported":1758748110,"current_range_meters":14000,"station_id":"ce4bhrh2rcd13ifvqhug","pricing_plan_id":"cebpf4jnsgd1na2vs0mg"},{"bike_id":"c42c050b-47c4-4f21-9a10-dbc3bcb405b0","system_id":"levelo_inurba_marseille","lat":43.24649,"lon":5.38889,"is_reserved":false,"is_disabled":false,"rental_uris":{"android":"levelo://app?vid=c42c050b-47c4-4f21-9a10-dbc3bcb405b0","ios":"levelo://app?vid=c42c050b-47c4-4f21-9a10-dbc3bcb405b0"},"vehicle_type_id":"4","last_reported":1758748110,"current_range_meters":14400,"station_id":"ce4bhg12rcd13ifvqf60","pricing_plan_id":"cebpf4jnsgd1na2vs0mg"},{"bike_id":"6a63109c-681c-45ba-a458-1cc31b34131a","system_id":"levelo_inurba_marseille","lat":43.30213,"lon":5.36627,"is_reserved":false,"is_disabled":false,"rental_uris":{"android":"levelo://app?vid=6a63109c-681c-45ba-a458-1cc31b34131a","ios":"levelo://app?vid=6a63109c-681c-45ba-a458-1cc31b34131a"},"vehicle_type_id":"4","last_reported":1758748110,"current_range_meters":14400,"station_id":"ce4bgrh2rcd13ifvqc8g","pricing_plan_id":"cebpf4jnsgd1na2vs0mg"},{"bike_id":"ddfb472e-a737-4716-a37b-8a211ce071c9","system_id":"levelo_inurba_marseille","lat":43.32337,"lon":5.40624,"is_reserved":false,"is_disabled":false,"rental_uris":{"android":"levelo://app?vid=ddfb472e-a737-4716-a37b-8a211ce071c9","ios":"levelo://app?vid=ddfb472e-a737-4716-a37b-8a211ce071c9"},"vehicle_type_id":"4","last_reported":1758748110,"current_range_meters":14400,"station_id":"ce4bhq92rcd13ifvqhjg","pricing_plan_id":"cebpf4jnsgd1na2vs0mg"},{"bike_id":"50c03ce7-6089-4ca2-9f23-f4c8c568a597","system_id":"levelo_inurba_marseille","lat":43.337716,"lon":5.374292,"is_reserved":false,"is_disabled":false,"rental_uris":{"android":"levelo://app?vid=50c03ce7-6089-4ca2-9f23-f4c8c568a597","ios":"levelo://app?vid=50c03ce7-6089-4ca2-9f23-f4c8c568a597"},"vehicle_type_id":"4","last_reported":1758748110,"current_range_meters":14400,"station_id":"","pricing_plan_id":"cebpf4jnsgd1na2vs0mg"},{"bike_id":"e4ea70ff-e6f8-4d87-afa2-75015ab3fd96","system_id":"levelo_inurba_marseille","lat":43.25854,"lon":5.39902,"is_reserved":false,"is_disabled":false,"rental_uris":{"android":"levelo://app?vid=e4ea70ff-e6f8-4d87-afa2-75015ab3fd96","ios":"levelo://app?vid=e4ea70ff-e6f8-4d87-afa2-75015ab3fd96"},"vehicle_type_id":"4","last_reported":1758748110,"current_range_meters":14400,"station_id":"ce4bhl92rcd13ifvqghg","pricing_plan_id":"cebpf4jnsgd1na2vs0mg"},{"bike_id":"c7f6a08b-c655-4213-b2ba-7d02e7f382fe","system_id":"levelo_inurba_marseille","lat":43.27988,"lon":5.39483,"is_reserved":false,"is_disabled":false,"rental_uris":{"android":"levelo://app?vid=c7f6a08b-c655-4213-b2ba-7d02e7f382fe","ios":"levelo://app?vid=c7f6a08b-c655-4213-b2ba-7d02e7f382fe"},"vehicle_type_id":"4","last_reported":1758748110,"current_range_meters":14400,"station_id":"","pricing_plan_id":"cebpf4jnsgd1na2vs0mg"},{"bike_id":"ce18a3e7-112a-4844-b7b2-263591bca985","system_id":"levelo_inurba_marseille","lat":43.30924,"lon":5.40147,"is_reserved":false,"is_disabled":false,"rental_uris":{"android":"levelo://app?vid=ce18a3e7-112a-4844-b7b2-263591bca985","ios":"levelo://app?vid=ce18a3e7-112a-4844-b7b2-263591bca985"},"vehicle_type_id":"4","last_reported":1758748110,"current_range_meters":14400,"station_id":"ce4bgvp2rcd13ifvqct0","pricing_plan_id":"cebpf4jnsgd1na2vs0mg"},{"bike_id":"c48b68a7-4bb0-4cce-80c1-342b1070ee71","system_id":"levelo_inurba_marseille","lat":43.29572,"lon":5.39961,"is_reserved":false,"is_disabled":false,"rental_uris":{"android":"levelo://app?vid=c48b68a7-4bb0-4cce-80c1-342b1070ee71","ios":"levelo://app?vid=c48b68a7-4bb0-4cce-80c1-342b1070ee71"},"vehicle_type_id":"4","last_reported":1758748110,"current_range_meters":14400,"station_id":"ce4bh312rcd13ifvqdj0","pricing_plan_id":"cebpf4jnsgd1na2vs0mg"},{"bike_id":"4bf9263f-c878-4811-a813-8bc47b9757ff","system_id":"levelo_inurba_marseille","lat":43.28005,"lon":5.41659,"is_reserved":false,"is_disabled":false,"rental_uris":{"android":"levelo://app?vid=4bf9263f-c878-4811-a813-8bc47b9757ff","ios":"levelo://app?vid=4bf9263f-c878-4811-a813-8bc47b9757ff"},"vehicle_type_id":"4","last_reported":1758748110,"current_range_meters":14400,"station_id":"ce4bho12rcd13ifvqh1g","pricing_plan_id":"cebpf4jnsgd1na2vs0mg"},{"bike_id":"1f1e9245-9355-4652-aa9a-8a02bdb086d8","system_id":"levelo_inurba_marseille","lat":43.30732,"lon":5.42442,"is_reserved":false,"is_disabled":false,"rental_uris":{"android":"levelo://app?vid=1f1e9245-9355-4652-aa9a-8a02bdb086d8","ios":"levelo://app?vid=1f1e9245-9355-4652-aa9a-8a02bdb086d8"},"vehicle_type_id":"4","last_reported":1758748110,"current_range_meters":14400,"station_id":"st_cvj6ca6bvosntc0bfgr0","pricing_plan_id":"cebpf4jnsgd1na2vs0mg"},{"bike_id":"486abade-dd76-4cb8-828f-1a286c8b56d7","system_id":"levelo_inurba_marseille","lat":43.295772,"lon":5.367429,"is_reserved":false,"is_disabled":false,"rental_uris":{"android":"levelo://app?vid=486abade-dd76-4cb8-828f-1a286c8b56d7","ios":"levelo://app?vid=486abade-dd76-4cb8-828f-1a286c8b56d7"},"vehicle_type_id":"4","last_reported":1758748110,"current_range_meters":14800,"station_id":"","pricing_plan_id":"cebpf4jnsgd1na2vs0mg"},{"bike_id":"023ee22e-363d-4688-800c-ab4b215e4623","system_id":"levelo_inurba_marseille","lat":43.27747,"lon":5.38916,"is_reserved":false,"is_disabled":true,"rental_uris":{"android":"levelo://app?vid=023ee22e-363d-4688-800c-ab4b215e4623","ios":"levelo://app?vid=023ee22e-363d-4688-800c-ab4b215e4623"},"vehicle_type_id":"4","last_reported":1758748110,"current_range_meters":14800,"station_id":"","pricing_plan_id":"cebpf4jnsgd1na2vs0mg"},{"bike_id":"3bfe53d1-d3c5-4a31-b5ae-9d72f9621960","system_id":"levelo_inurba_marseille","lat":43.28566,"lon":5.39496,"is_reserved":false,"is_disabled":false,"rental_uris":{"android":"levelo://app?vid=3bfe53d1-d3c5-4a31-b5ae-9d72f9621960","ios":"levelo://app?vid=3bfe53d1-d3c5-4a31-b5ae-9d72f9621960"},"vehicle_type_id":"4","last_reported":1758748110,"current_range_meters":14800,"station_id":"ce4bh292rcd13ifvqdg0","pricing_plan_id":"cebpf4jnsgd1na2vs0mg"},{"bike_id":"8eae954c-dab6-4303-94f5-569e1c483f62","system_id":"levelo_inurba_marseille","lat":43.29456,"lon":5.40743,"is_reserved":false,"is_disabled":false,"rental_uris":{"android":"levelo://app?vid=8eae954c-dab6-4303-94f5-569e1c483f62","ios":"levelo://app?vid=8eae954c-dab6-4303-94f5-569e1c483f62"},"vehicle_type_id":"4","last_reported":1758748110,"current_range_meters":14800,"station_id":"","pricing_plan_id":"cebpf4jnsgd1na2vs0mg"},{"bike_id":"0e9ca394-4351-4bf8-a641-f4e5215baf20","system_id":"levelo_inurba_marseille","lat":43.28316,"lon":5.35062,"is_reserved":false,"is_disabled":false,"rental_uris":{"android":"levelo://app?vid=0e9ca394-4351-4bf8-a641-f4e5215baf20","ios":"levelo://app?vid=0e9ca394-4351-4bf8-a641-f4e5215baf20"},"vehicle_type_id":"4","last_reported":1758748110,"current_range_meters":14800,"station_id":"ce4bhbp2rcd13ifvqerg","pricing_plan_id":"cebpf4jnsgd1na2vs0mg"},{"bike_id":"002673c7-e49b-40c2-82da-6cf2f4393eb8","system_id":"levelo_inurba_marseille","lat":43.30469,"lon":5.37894,"is_reserved":false,"is_disabled":true,"rental_uris":{"android":"levelo://app?vid=002673c7-e49b-40c2-82da-6cf2f4393eb8","ios":"levelo://app?vid=002673c7-e49b-40c2-82da-6cf2f4393eb8"},"vehicle_type_id":"4","last_reported":1758748110,"current_range_meters":14800,"station_id":"ce4bgup2rcd13ifvqcn0","pricing_plan_id":"cebpf4jnsgd1na2vs0mg"},{"bike_id":"8584eb3e-f7b4-4300-97fe-005a37d8d75b","system_id":"levelo_inurba_marseille","lat":43.3679,"lon":5.36291,"is_reserved":false,"is_disabled":false,"rental_uris":{"android":"levelo://app?vid=8584eb3e-f7b4-4300-97fe-005a37d8d75b","ios":"levelo://app?vid=8584eb3e-f7b4-4300-97fe-005a37d8d75b"},"vehicle_type_id":"4","last_reported":1758748110,"current_range_meters":14800,"station_id":"","pricing_plan_id":"cebpf4jnsgd1na2vs0mg"},{"bike_id":"b6842a0b-8ac8-4de8-9374-356f1dbbba44","system_id":"levelo_inurba_marseille","lat":43.29203,"lon":5.39322,"is_reserved":false,"is_disabled":false,"rental_uris":{"android":"levelo://app?vid=b6842a0b-8ac8-4de8-9374-356f1dbbba44","ios":"levelo://app?vid=b6842a0b-8ac8-4de8-9374-356f1dbbba44"},"vehicle_type_id":"4","last_reported":1758748110,"current_range_meters":15200,"station_id":"ce4bh192rcd13ifvqdd0","pricing_plan_id":"cebpf4jnsgd1na2vs0mg"},{"bike_id":"bbe3a2f7-0720-4aa2-8d0a-06d205c17b49","system_id":"levelo_inurba_marseille","lat":43.29204,"lon":5.39325,"is_reserved":false,"is_disabled":false,"rental_uris":{"android":"levelo://app?vid=bbe3a2f7-0720-4aa2-8d0a-06d205c17b49","ios":"levelo://app?vid=bbe3a2f7-0720-4aa2-8d0a-06d205c17b49"},"vehicle_type_id":"4","last_reported":1758748110,"current_range_meters":15200,"station_id":"ce4bh192rcd13ifvqdd0","pricing_plan_id":"cebpf4jnsgd1na2vs0mg"},{"bike_id":"7a856d18-ebf6-47a3-9894-d78cbeaa8126","system_id":"levelo_inurba_marseille","lat":43.3015,"lon":5.37412,"is_reserved":false,"is_disabled":false,"rental_uris":{"android":"levelo://app?vid=7a856d18-ebf6-47a3-9894-d78cbeaa8126","ios":"levelo://app?vid=7a856d18-ebf6-47a3-9894-d78cbeaa8126"},"vehicle_type_id":"4","last_reported":1758748110,"current_range_meters":15200,"station_id":"ce4bgs92rcd13ifvqcc0","pricing_plan_id":"cebpf4jnsgd1na2vs0mg"},{"bike_id":"129c8450-4cca-4e9f-b9f6-538b0080ad49","system_id":"levelo_inurba_marseille","lat":43.32557,"lon":5.38921,"is_reserved":false,"is_disabled":false,"rental_uris":{"android":"levelo://app?vid=129c8450-4cca-4e9f-b9f6-538b0080ad49","ios":"levelo://app?vid=129c8450-4cca-4e9f-b9f6-538b0080ad49"},"vehicle_type_id":"4","last_reported":1758748110,"current_range_meters":15200,"station_id":"","pricing_plan_id":"cebpf4jnsgd1na2vs0mg"},{"bike_id":"ad9a6248-1b43-4fc5-bfba-44f7d3067aab","system_id":"levelo_inurba_marseille","lat":43.21205,"lon":5.35064,"is_reserved":false,"is_disabled":false,"rental_uris":{"android":"levelo://app?vid=ad9a6248-1b43-4fc5-bfba-44f7d3067aab","ios":"levelo://app?vid=ad9a6248-1b43-4fc5-bfba-44f7d3067aab"},"vehicle_type_id":"4","last_reported":1758748110,"current_range_meters":15200,"station_id":"st_cvj6sg6p6f1abm77japg","pricing_plan_id":"cebpf4jnsgd1na2vs0mg"},{"bike_id":"9da64c51-b54b-4aa7-9bdf-4c3ce5e7c3d7","system_id":"levelo_inurba_marseille","lat":43.24803,"lon":5.37454,"is_reserved":false,"is_disabled":false,"rental_uris":{"android":"levelo://app?vid=9da64c51-b54b-4aa7-9bdf-4c3ce5e7c3d7","ios":"levelo://app?vid=9da64c51-b54b-4aa7-9bdf-4c3ce5e7c3d7"},"vehicle_type_id":"4","last_reported":1758748110,"current_range_meters":15200,"station_id":"ce4bhgh2rcd13ifvqfb0","pricing_plan_id":"cebpf4jnsgd1na2vs0mg"},{"bike_id":"719ea5c7-c127-4c2e-bb85-3b5f46a408f7","system_id":"levelo_inurba_marseille","lat":43.30623,"lon":5.37202,"is_reserved":false,"is_disabled":false,"rental_uris":{"android":"levelo://app?vid=719ea5c7-c127-4c2e-bb85-3b5f46a408f7","ios":"levelo://app?vid=719ea5c7-c127-4c2e-bb85-3b5f46a408f7"},"vehicle_type_id":"4","last_reported":1758748110,"current_range_meters":15200,"station_id":"ce4bgqh2rcd13ifvqc4g","pricing_plan_id":"cebpf4jnsgd1na2vs0mg"},{"bike_id":"d8d6f31a-c510-424a-9731-839758fd1c1d","system_id":"levelo_inurba_marseille","lat":43.24647,"lon":5.38901,"is_reserved":false,"is_disabled":false,"rental_uris":{"android":"levelo://app?vid=d8d6f31a-c510-424a-9731-839758fd1c1d","ios":"levelo://app?vid=d8d6f31a-c510-424a-9731-839758fd1c1d"},"vehicle_type_id":"4","last_reported":1758748110,"current_range_meters":16000,"station_id":"ce4bhg12rcd13ifvqf60","pricing_plan_id":"cebpf4jnsgd1na2vs0mg"},{"bike_id":"0334c664-c853-4f38-a46f-30751b2874a4","system_id":"levelo_inurba_marseille","lat":43.29026,"lon":5.35924,"is_reserved":false,"is_disabled":true,"rental_uris":{"android":"levelo://app?vid=0334c664-c853-4f38-a46f-30751b2874a4","ios":"levelo://app?vid=0334c664-c853-4f38-a46f-30751b2874a4"},"vehicle_type_id":"4","last_reported":1758748110,"current_range_meters":16000,"station_id":"ce4bha92rcd13ifvqeg0","pricing_plan_id":"cebpf4jnsgd1na2vs0mg"},{"bike_id":"2bd2a176-8590-4e06-8b8c-a96b49b7b36a","system_id":"levelo_inurba_marseille","lat":43.262237,"lon":5.404538,"is_reserved":false,"is_disabled":false,"rental_uris":{"android":"levelo://app?vid=2bd2a176-8590-4e06-8b8c-a96b49b7b36a","ios":"levelo://app?vid=2bd2a176-8590-4e06-8b8c-a96b49b7b36a"},"vehicle_type_id":"4","last_reported":1758748110,"current_range_meters":16000,"station_id":"","pricing_plan_id":"cebpf4jnsgd1na2vs0mg"},{"bike_id":"6ce97256-6e29-4ee4-b817-ac92bdd5aea1","system_id":"levelo_inurba_marseille","lat":43.22534,"lon":5.34835,"is_reserved":false,"is_disabled":false,"rental_uris":{"android":"levelo://app?vid=6ce97256-6e29-4ee4-b817-ac92bdd5aea1","ios":"levelo://app?vid=6ce97256-6e29-4ee4-b817-ac92bdd5aea1"},"vehicle_type_id":"4","last_reported":1758748110,"current_range_meters":16000,"station_id":"","pricing_plan_id":"cebpf4jnsgd1na2vs0mg"},{"bike_id":"f5c852b2-548c-4ba5-a23e-58341d1949a6","system_id":"levelo_inurba_marseille","lat":43.21745,"lon":5.34616,"is_reserved":false,"is_disabled":false,"rental_uris":{"android":"levelo://app?vid=f5c852b2-548c-4ba5-a23e-58341d1949a6","ios":"levelo://app?vid=f5c852b2-548c-4ba5-a23e-58341d1949a6"},"vehicle_type_id":"4","last_reported":1758748110,"current_range_meters":16000,"station_id":"st_cvj6r9ubvosntc0bgbag","pricing_plan_id":"cebpf4jnsgd1na2vs0mg"},{"bike_id":"dfd31644-2152-4a53-bac8-d7cf0032bec5","system_id":"levelo_inurba_marseille","lat":43.30331,"lon":5.40433,"is_reserved":false,"is_disabled":false,"rental_uris":{"android":"levelo://app?vid=dfd31644-2152-4a53-bac8-d7cf0032bec5","ios":"levelo://app?vid=dfd31644-2152-4a53-bac8-d7cf0032bec5"},"vehicle_type_id":"4","last_reported":1758748110,"current_range_meters":16000,"station_id":"ce4bh012rcd13ifvqd10","pricing_plan_id":"cebpf4jnsgd1na2vs0mg"},{"bike_id":"a6ad0c6c-868d-42f3-ba54-573e1a175a36","system_id":"levelo_inurba_marseille","lat":43.263,"lon":5.41416,"is_reserved":false,"is_disabled":false,"rental_uris":{"android":"levelo://app?vid=a6ad0c6c-868d-42f3-ba54-573e1a175a36","ios":"levelo://app?vid=a6ad0c6c-868d-42f3-ba54-573e1a175a36"},"vehicle_type_id":"4","last_reported":1758748110,"current_range_meters":16000,"station_id":"","pricing_plan_id":"cebpf4jnsgd1na2vs0mg"},{"bike_id":"8f68b7ad-c96a-48a8-9f6e-33e7e1084763","system_id":"levelo_inurba_marseille","lat":43.2602,"lon":5.41733,"is_reserved":false,"is_disabled":false,"rental_uris":{"android":"levelo://app?vid=8f68b7ad-c96a-48a8-9f6e-33e7e1084763","ios":"levelo://app?vid=8f68b7ad-c96a-48a8-9f6e-33e7e1084763"},"vehicle_type_id":"4","last_reported":1758748110,"current_range_meters":16000,"station_id":"","pricing_plan_id":"cebpf4jnsgd1na2vs0mg"},{"bike_id":"67f7d9d6-622e-481d-a11b-40ae8c5487e4","system_id":"levelo_inurba_marseille","lat":43.2871,"lon":5.39991,"is_reserved":false,"is_disabled":false,"rental_uris":{"android":"levelo://app?vid=67f7d9d6-622e-481d-a11b-40ae8c5487e4","ios":"levelo://app?vid=67f7d9d6-622e-481d-a11b-40ae8c5487e4"},"vehicle_type_id":"4","last_reported":1758748110,"current_range_meters":16000,"station_id":"ce4bho92rcd13ifvqh3g","pricing_plan_id":"cebpf4jnsgd1na2vs0mg"},{"bike_id":"f0c5386a-9938-4d6a-81e8-14ec0c5e2580","system_id":"levelo_inurba_marseille","lat":43.32243,"lon":5.38563,"is_reserved":false,"is_disabled":false,"rental_uris":{"android":"levelo://app?vid=f0c5386a-9938-4d6a-81e8-14ec0c5e2580","ios":"levelo://app?vid=f0c5386a-9938-4d6a-81e8-14ec0c5e2580"},"vehicle_type_id":"4","last_reported":1758748110,"current_range_meters":16000,"station_id":"","pricing_plan_id":"cebpf4jnsgd1na2vs0mg"},{"bike_id":"a3383983-1a81-4f66-8f19-2363b98e3729","system_id":"levelo_inurba_marseille","lat":43.26545,"lon":5.38994,"is_reserved":false,"is_disabled":true,"rental_uris":{"android":"levelo://app?vid=a3383983-1a81-4f66-8f19-2363b98e3729","ios":"levelo://app?vid=a3383983-1a81-4f66-8f19-2363b98e3729"},"vehicle_type_id":"4","last_reported":1758748110,"current_range_meters":16000,"station_id":"ce4bhe12rcd13ifvqf30","pricing_plan_id":"cebpf4jnsgd1na2vs0mg"},{"bike_id":"003515e8-8117-44bb-979d-5f47e8d50fda","system_id":"levelo_inurba_marseille","lat":43.30655,"lon":5.37555,"is_reserved":false,"is_disabled":false,"rental_uris":{"android":"levelo://app?vid=003515e8-8117-44bb-979d-5f47e8d50fda","ios":"levelo://app?vid=003515e8-8117-44bb-979d-5f47e8d50fda"},"vehicle_type_id":"4","last_reported":1758748110,"current_range_meters":16400,"station_id":"","pricing_plan_id":"cebpf4jnsgd1na2vs0mg"},{"bike_id":"773120ee-4b20-40c4-a0a2-2f51bab15783","system_id":"levelo_inurba_marseille","lat":43.30624,"lon":5.37243,"is_reserved":false,"is_disabled":false,"rental_uris":{"android":"levelo://app?vid=773120ee-4b20-40c4-a0a2-2f51bab15783","ios":"levelo://app?vid=773120ee-4b20-40c4-a0a2-2f51bab15783"},"vehicle_type_id":"4","last_reported":1758748110,"current_range_meters":16400,"station_id":"ce4bgqh2rcd13ifvqc4g","pricing_plan_id":"cebpf4jnsgd1na2vs0mg"},{"bike_id":"ea8d0177-eedf-42b9-895a-a8a8b2bbc1f2","system_id":"levelo_inurba_marseille","lat":43.32109,"lon":5.36783,"is_reserved":false,"is_disabled":false,"rental_uris":{"android":"levelo://app?vid=ea8d0177-eedf-42b9-895a-a8a8b2bbc1f2","ios":"levelo://app?vid=ea8d0177-eedf-42b9-895a-a8a8b2bbc1f2"},"vehicle_type_id":"4","last_reported":1758748110,"current_range_meters":16400,"station_id":"ce4bhrh2rcd13ifvqhug","pricing_plan_id":"cebpf4jnsgd1na2vs0mg"},{"bike_id":"429b97eb-f7cc-4d35-b219-e8e26e3f47e0","system_id":"levelo_inurba_marseille","lat":43.27373,"lon":5.36209,"is_reserved":false,"is_disabled":false,"rental_uris":{"android":"levelo://app?vid=429b97eb-f7cc-4d35-b219-e8e26e3f47e0","ios":"levelo://app?vid=429b97eb-f7cc-4d35-b219-e8e26e3f47e0"},"vehicle_type_id":"4","last_reported":1758748110,"current_range_meters":16400,"station_id":"","pricing_plan_id":"cebpf4jnsgd1na2vs0mg"},{"bike_id":"50220bcd-7598-49dd-8e55-cf70e0c0ef0f","system_id":"levelo_inurba_marseille","lat":43.30776,"lon":5.37649,"is_reserved":false,"is_disabled":false,"rental_uris":{"android":"levelo://app?vid=50220bcd-7598-49dd-8e55-cf70e0c0ef0f","ios":"levelo://app?vid=50220bcd-7598-49dd-8e55-cf70e0c0ef0f"},"vehicle_type_id":"4","last_reported":1758748110,"current_range_meters":16400,"station_id":"ce4bgv92rcd13ifvqcq0","pricing_plan_id":"cebpf4jnsgd1na2vs0mg"},{"bike_id":"e9740af2-24d7-435f-a517-026daef1c6d1","system_id":"levelo_inurba_marseille","lat":43.27993,"lon":5.41671,"is_reserved":false,"is_disabled":false,"rental_uris":{"android":"levelo://app?vid=e9740af2-24d7-435f-a517-026daef1c6d1","ios":"levelo://app?vid=e9740af2-24d7-435f-a517-026daef1c6d1"},"vehicle_type_id":"4","last_reported":1758748110,"current_range_meters":16400,"station_id":"ce4bho12rcd13ifvqh1g","pricing_plan_id":"cebpf4jnsgd1na2vs0mg"},{"bike_id":"02494f43-44d2-412a-99ed-6e9d0efd245a","system_id":"levelo_inurba_marseille","lat":43.2903,"lon":5.38131,"is_reserved":false,"is_disabled":false,"rental_uris":{"android":"levelo://app?vid=02494f43-44d2-412a-99ed-6e9d0efd245a","ios":"levelo://app?vid=02494f43-44d2-412a-99ed-6e9d0efd245a"},"vehicle_type_id":"4","last_reported":1758748110,"current_range_meters":16400,"station_id":"ce4bh4p2rcd13ifvqe1g","pricing_plan_id":"cebpf4jnsgd1na2vs0mg"},{"bike_id":"2148876e-7d74-4e4f-a053-dabe58773f97","system_id":"levelo_inurba_marseille","lat":43.29014,"lon":5.35614,"is_reserved":false,"is_disabled":false,"rental_uris":{"android":"levelo://app?vid=2148876e-7d74-4e4f-a053-dabe58773f97","ios":"levelo://app?vid=2148876e-7d74-4e4f-a053-dabe58773f97"},"vehicle_type_id":"4","last_reported":1758748110,"current_range_meters":16400,"station_id":"ce4bhb92rcd13ifvqen0","pricing_plan_id":"cebpf4jnsgd1na2vs0mg"},{"bike_id":"7f26efef-5bca-4964-9649-a135cb9baf4f","system_id":"levelo_inurba_marseille","lat":43.25088,"lon":5.3952,"is_reserved":false,"is_disabled":false,"rental_uris":{"android":"levelo://app?vid=7f26efef-5bca-4964-9649-a135cb9baf4f","ios":"levelo://app?vid=7f26efef-5bca-4964-9649-a135cb9baf4f"},"vehicle_type_id":"4","last_reported":1758748110,"current_range_meters":16400,"station_id":"ce4bhm12rcd13ifvqgkg","pricing_plan_id":"cebpf4jnsgd1na2vs0mg"},{"bike_id":"d2be082e-bd73-4203-addb-18871b3a9587","system_id":"levelo_inurba_marseille","lat":43.29416,"lon":5.37472,"is_reserved":false,"is_disabled":false,"rental_uris":{"android":"levelo://app?vid=d2be082e-bd73-4203-addb-18871b3a9587","ios":"levelo://app?vid=d2be082e-bd73-4203-addb-18871b3a9587"},"vehicle_type_id":"4","last_reported":1758748110,"current_range_meters":16400,"station_id":"","pricing_plan_id":"cebpf4jnsgd1na2vs0mg"},{"bike_id":"6caa89c6-2658-4ac8-8d83-c6001f5f980c","system_id":"levelo_inurba_marseille","lat":43.25568,"lon":5.38228,"is_reserved":false,"is_disabled":false,"rental_uris":{"android":"levelo://app?vid=6caa89c6-2658-4ac8-8d83-c6001f5f980c","ios":"levelo://app?vid=6caa89c6-2658-4ac8-8d83-c6001f5f980c"},"vehicle_type_id":"4","last_reported":1758748110,"current_range_meters":16400,"station_id":"ce4bhih2rcd13ifvqfs0","pricing_plan_id":"cebpf4jnsgd1na2vs0mg"},{"bike_id":"d0adbe0e-530c-459f-a8f7-4893256ebdff","system_id":"levelo_inurba_marseille","lat":43.30232,"lon":5.36634,"is_reserved":false,"is_disabled":false,"rental_uris":{"android":"levelo://app?vid=d0adbe0e-530c-459f-a8f7-4893256ebdff","ios":"levelo://app?vid=d0adbe0e-530c-459f-a8f7-4893256ebdff"},"vehicle_type_id":"4","last_reported":1758748110,"current_range_meters":16400,"station_id":"ce4bgrh2rcd13ifvqc8g","pricing_plan_id":"cebpf4jnsgd1na2vs0mg"},{"bike_id":"d6d2b751-767f-4d34-8b88-ebc97e2bbad2","system_id":"levelo_inurba_marseille","lat":43.288557,"lon":5.358473,"is_reserved":false,"is_disabled":false,"rental_uris":{"android":"levelo://app?vid=d6d2b751-767f-4d34-8b88-ebc97e2bbad2","ios":"levelo://app?vid=d6d2b751-767f-4d34-8b88-ebc97e2bbad2"},"vehicle_type_id":"4","last_reported":1758748110,"current_range_meters":16400,"station_id":"ce4bhb12rcd13ifvqem0","pricing_plan_id":"cebpf4jnsgd1na2vs0mg"},{"bike_id":"46923300-e0d3-40c1-8c76-7dadc761100f","system_id":"levelo_inurba_marseille","lat":43.289682,"lon":5.35588,"is_reserved":false,"is_disabled":false,"rental_uris":{"android":"levelo://app?vid=46923300-e0d3-40c1-8c76-7dadc761100f","ios":"levelo://app?vid=46923300-e0d3-40c1-8c76-7dadc761100f"},"vehicle_type_id":"4","last_reported":1758748110,"current_range_meters":16400,"station_id":"ce4bhb92rcd13ifvqen0","pricing_plan_id":"cebpf4jnsgd1na2vs0mg"},{"bike_id":"212de2eb-8bbc-413c-b204-9fe1facd76e8","system_id":"levelo_inurba_marseille","lat":43.313193,"lon":5.378203,"is_reserved":false,"is_disabled":false,"rental_uris":{"android":"levelo://app?vid=212de2eb-8bbc-413c-b204-9fe1facd76e8","ios":"levelo://app?vid=212de2eb-8bbc-413c-b204-9fe1facd76e8"},"vehicle_type_id":"4","last_reported":1758748110,"current_range_meters":16400,"station_id":"","pricing_plan_id":"cebpf4jnsgd1na2vs0mg"},{"bike_id":"3255fea1-6939-4f52-b767-cf7f36067590","system_id":"levelo_inurba_marseille","lat":43.28449,"lon":5.39204,"is_reserved":false,"is_disabled":false,"rental_uris":{"android":"levelo://app?vid=3255fea1-6939-4f52-b767-cf7f36067590","ios":"levelo://app?vid=3255fea1-6939-4f52-b767-cf7f36067590"},"vehicle_type_id":"4","last_reported":1758748110,"current_range_meters":16800,"station_id":"ce4bhoh2rcd13ifvqh5g","pricing_plan_id":"cebpf4jnsgd1na2vs0mg"},{"bike_id":"283d5195-11be-4ac9-acee-f01d159d5f4e","system_id":"levelo_inurba_marseille","lat":43.3061,"lon":5.37221,"is_reserved":false,"is_disabled":false,"rental_uris":{"android":"levelo://app?vid=283d5195-11be-4ac9-acee-f01d159d5f4e","ios":"levelo://app?vid=283d5195-11be-4ac9-acee-f01d159d5f4e"},"vehicle_type_id":"4","last_reported":1758748110,"current_range_meters":16800,"station_id":"ce4bgqh2rcd13ifvqc4g","pricing_plan_id":"cebpf4jnsgd1na2vs0mg"},{"bike_id":"09246469-7d4f-4c3b-834b-82484362627a","system_id":"levelo_inurba_marseille","lat":43.31326,"lon":5.39696,"is_reserved":false,"is_disabled":false,"rental_uris":{"android":"levelo://app?vid=09246469-7d4f-4c3b-834b-82484362627a","ios":"levelo://app?vid=09246469-7d4f-4c3b-834b-82484362627a"},"vehicle_type_id":"4","last_reported":1758748110,"current_range_meters":16800,"station_id":"ce4bgvp2rcd13ifvqcu0","pricing_plan_id":"cebpf4jnsgd1na2vs0mg"},{"bike_id":"7490d0f9-a3b1-4e32-8e4b-05d367f07d8a","system_id":"levelo_inurba_marseille","lat":43.30134,"lon":5.39881,"is_reserved":false,"is_disabled":true,"rental_uris":{"android":"levelo://app?vid=7490d0f9-a3b1-4e32-8e4b-05d367f07d8a","ios":"levelo://app?vid=7490d0f9-a3b1-4e32-8e4b-05d367f07d8a"},"vehicle_type_id":"4","last_reported":1758748110,"current_range_meters":16800,"station_id":"ce4bh0h2rcd13ifvqd40","pricing_plan_id":"cebpf4jnsgd1na2vs0mg"},{"bike_id":"29237101-5788-433a-a817-fd7db1732b5b","system_id":"levelo_inurba_marseille","lat":43.28405,"lon":5.37506,"is_reserved":false,"is_disabled":false,"rental_uris":{"android":"levelo://app?vid=29237101-5788-433a-a817-fd7db1732b5b","ios":"levelo://app?vid=29237101-5788-433a-a817-fd7db1732b5b"},"vehicle_type_id":"4","last_reported":1758748110,"current_range_meters":16800,"station_id":"ce4bh412rcd13ifvqds0","pricing_plan_id":"cebpf4jnsgd1na2vs0mg"},{"bike_id":"63b3daeb-cf1c-4aa8-97b1-d5b690f0ac49","system_id":"levelo_inurba_marseille","lat":43.28114,"lon":5.43216,"is_reserved":false,"is_disabled":false,"rental_uris":{"android":"levelo://app?vid=63b3daeb-cf1c-4aa8-97b1-d5b690f0ac49","ios":"levelo://app?vid=63b3daeb-cf1c-4aa8-97b1-d5b690f0ac49"},"vehicle_type_id":"4","last_reported":1758748110,"current_range_meters":16800,"station_id":"","pricing_plan_id":"cebpf4jnsgd1na2vs0mg"},{"bike_id":"d3207f81-01a1-429a-832a-552720f64cb8","system_id":"levelo_inurba_marseille","lat":43.25163,"lon":5.40329,"is_reserved":false,"is_disabled":false,"rental_uris":{"android":"levelo://app?vid=d3207f81-01a1-429a-832a-552720f64cb8","ios":"levelo://app?vid=d3207f81-01a1-429a-832a-552720f64cb8"},"vehicle_type_id":"4","last_reported":1758748110,"current_range_meters":16800,"station_id":"","pricing_plan_id":"cebpf4jnsgd1na2vs0mg"},{"bike_id":"2ac23a64-1b3f-47a9-9b15-e124400b880c","system_id":"levelo_inurba_marseille","lat":43.29226,"lon":5.3915,"is_reserved":false,"is_disabled":false,"rental_uris":{"android":"levelo://app?vid=2ac23a64-1b3f-47a9-9b15-e124400b880c","ios":"levelo://app?vid=2ac23a64-1b3f-47a9-9b15-e124400b880c"},"vehicle_type_id":"4","last_reported":1758748110,"current_range_meters":17200,"station_id":"","pricing_plan_id":"cebpf4jnsgd1na2vs0mg"},{"bike_id":"327c041e-5c9e-4b0d-a97c-a2dbaab036ae","system_id":"levelo_inurba_marseille","lat":43.32827,"lon":5.4115,"is_reserved":false,"is_disabled":false,"rental_uris":{"android":"levelo://app?vid=327c041e-5c9e-4b0d-a97c-a2dbaab036ae","ios":"levelo://app?vid=327c041e-5c9e-4b0d-a97c-a2dbaab036ae"},"vehicle_type_id":"4","last_reported":1758748110,"current_range_meters":17200,"station_id":"","pricing_plan_id":"cebpf4jnsgd1na2vs0mg"},{"bike_id":"4f3eac28-3960-42b2-9a7f-65e76c3daab8","system_id":"levelo_inurba_marseille","lat":43.24654,"lon":5.38899,"is_reserved":false,"is_disabled":false,"rental_uris":{"android":"levelo://app?vid=4f3eac28-3960-42b2-9a7f-65e76c3daab8","ios":"levelo://app?vid=4f3eac28-3960-42b2-9a7f-65e76c3daab8"},"vehicle_type_id":"4","last_reported":1758748110,"current_range_meters":17200,"station_id":"ce4bhg12rcd13ifvqf60","pricing_plan_id":"cebpf4jnsgd1na2vs0mg"},{"bike_id":"50e50ce9-ae57-4870-80a4-dbb918849641","system_id":"levelo_inurba_marseille","lat":43.28031,"lon":5.36945,"is_reserved":false,"is_disabled":false,"rental_uris":{"android":"levelo://app?vid=50e50ce9-ae57-4870-80a4-dbb918849641","ios":"levelo://app?vid=50e50ce9-ae57-4870-80a4-dbb918849641"},"vehicle_type_id":"4","last_reported":1758748110,"current_range_meters":17200,"station_id":"ce4bha12rcd13ifvqef0","pricing_plan_id":"cebpf4jnsgd1na2vs0mg"},{"bike_id":"0c16ac8a-a536-4d89-a0b4-2803631fd83e","system_id":"levelo_inurba_marseille","lat":43.25004,"lon":5.38925,"is_reserved":false,"is_disabled":false,"rental_uris":{"android":"levelo://app?vid=0c16ac8a-a536-4d89-a0b4-2803631fd83e","ios":"levelo://app?vid=0c16ac8a-a536-4d89-a0b4-2803631fd83e"},"vehicle_type_id":"4","last_reported":1758748110,"current_range_meters":17200,"station_id":"ce4bhgp2rcd13ifvqfd0","pricing_plan_id":"cebpf4jnsgd1na2vs0mg"},{"bike_id":"1ac1636f-9c6f-485c-826f-3384bffce9ca","system_id":"levelo_inurba_marseille","lat":43.30641,"lon":5.40078,"is_reserved":false,"is_disabled":false,"rental_uris":{"android":"levelo://app?vid=1ac1636f-9c6f-485c-826f-3384bffce9ca","ios":"levelo://app?vid=1ac1636f-9c6f-485c-826f-3384bffce9ca"},"vehicle_type_id":"4","last_reported":1758748110,"current_range_meters":17200,"station_id":"ce4bh112rcd13ifvqda0","pricing_plan_id":"cebpf4jnsgd1na2vs0mg"},{"bike_id":"5b4db061-9d56-47f7-91cb-6fac30c33de1","system_id":"levelo_inurba_marseille","lat":43.31332,"lon":5.39712,"is_reserved":false,"is_disabled":false,"rental_uris":{"android":"levelo://app?vid=5b4db061-9d56-47f7-91cb-6fac30c33de1","ios":"levelo://app?vid=5b4db061-9d56-47f7-91cb-6fac30c33de1"},"vehicle_type_id":"4","last_reported":1758748110,"current_range_meters":17200,"station_id":"ce4bgvp2rcd13ifvqcu0","pricing_plan_id":"cebpf4jnsgd1na2vs0mg"},{"bike_id":"e5b43297-fe27-4140-bf26-2075a1593595","system_id":"levelo_inurba_marseille","lat":43.27375,"lon":5.36252,"is_reserved":false,"is_disabled":false,"rental_uris":{"android":"levelo://app?vid=e5b43297-fe27-4140-bf26-2075a1593595","ios":"levelo://app?vid=e5b43297-fe27-4140-bf26-2075a1593595"},"vehicle_type_id":"4","last_reported":1758748110,"current_range_meters":17200,"station_id":"ce4bhbh2rcd13ifvqeo0","pricing_plan_id":"cebpf4jnsgd1na2vs0mg"},{"bike_id":"fd4b0929-5dae-4f92-bfeb-801c6778a0f5","system_id":"levelo_inurba_marseille","lat":43.26557,"lon":5.37233,"is_reserved":false,"is_disabled":true,"rental_uris":{"android":"levelo://app?vid=fd4b0929-5dae-4f92-bfeb-801c6778a0f5","ios":"levelo://app?vid=fd4b0929-5dae-4f92-bfeb-801c6778a0f5"},"vehicle_type_id":"4","last_reported":1758748110,"current_range_meters":17200,"station_id":"ce4bhg12rcd13ifvqf70","pricing_plan_id":"cebpf4jnsgd1na2vs0mg"},{"bike_id":"9eb727ae-2cb0-4f4d-86c8-3b9778c4fef7","system_id":"levelo_inurba_marseille","lat":43.265576,"lon":5.372825,"is_reserved":false,"is_disabled":false,"rental_uris":{"android":"levelo://app?vid=9eb727ae-2cb0-4f4d-86c8-3b9778c4fef7","ios":"levelo://app?vid=9eb727ae-2cb0-4f4d-86c8-3b9778c4fef7"},"vehicle_type_id":"4","last_reported":1758748110,"current_range_meters":17200,"station_id":"ce4bhi12rcd13ifvqfq0","pricing_plan_id":"cebpf4jnsgd1na2vs0mg"},{"bike_id":"7ab01b52-acb1-4c63-963d-8157eea5300e","system_id":"levelo_inurba_marseille","lat":43.30654,"lon":5.40094,"is_reserved":false,"is_disabled":false,"rental_uris":{"android":"levelo://app?vid=7ab01b52-acb1-4c63-963d-8157eea5300e","ios":"levelo://app?vid=7ab01b52-acb1-4c63-963d-8157eea5300e"},"vehicle_type_id":"4","last_reported":1758748110,"current_range_meters":17200,"station_id":"ce4bh112rcd13ifvqda0","pricing_plan_id":"cebpf4jnsgd1na2vs0mg"},{"bike_id":"e5303607-da03-4ac7-b81e-b332ede84cf7","system_id":"levelo_inurba_marseille","lat":43.3131,"lon":5.37818,"is_reserved":false,"is_disabled":false,"rental_uris":{"android":"levelo://app?vid=e5303607-da03-4ac7-b81e-b332ede84cf7","ios":"levelo://app?vid=e5303607-da03-4ac7-b81e-b332ede84cf7"},"vehicle_type_id":"4","last_reported":1758748110,"current_range_meters":17200,"station_id":"","pricing_plan_id":"cebpf4jnsgd1na2vs0mg"},{"bike_id":"3cff57a9-0297-4c38-90c2-c8e480a601b4","system_id":"levelo_inurba_marseille","lat":43.30937,"lon":5.4015,"is_reserved":false,"is_disabled":false,"rental_uris":{"android":"levelo://app?vid=3cff57a9-0297-4c38-90c2-c8e480a601b4","ios":"levelo://app?vid=3cff57a9-0297-4c38-90c2-c8e480a601b4"},"vehicle_type_id":"4","last_reported":1758748110,"current_range_meters":17200,"station_id":"ce4bgvp2rcd13ifvqct0","pricing_plan_id":"cebpf4jnsgd1na2vs0mg"},{"bike_id":"725b1ff1-3894-44f1-a38e-91bc39cbab7e","system_id":"levelo_inurba_marseille","lat":43.24648,"lon":5.43153,"is_reserved":false,"is_disabled":false,"rental_uris":{"android":"levelo://app?vid=725b1ff1-3894-44f1-a38e-91bc39cbab7e","ios":"levelo://app?vid=725b1ff1-3894-44f1-a38e-91bc39cbab7e"},"vehicle_type_id":"4","last_reported":1758748110,"current_range_meters":17600,"station_id":"st_d2m6c4gdas8pm72e190g","pricing_plan_id":"cebpf4jnsgd1na2vs0mg"},{"bike_id":"c65b7e44-d645-4483-a796-483c71850089","system_id":"levelo_inurba_marseille","lat":43.29198,"lon":5.39312,"is_reserved":false,"is_disabled":false,"rental_uris":{"android":"levelo://app?vid=c65b7e44-d645-4483-a796-483c71850089","ios":"levelo://app?vid=c65b7e44-d645-4483-a796-483c71850089"},"vehicle_type_id":"4","last_reported":1758748110,"current_range_meters":17600,"station_id":"ce4bh192rcd13ifvqdd0","pricing_plan_id":"cebpf4jnsgd1na2vs0mg"},{"bike_id":"fb0ff235-24d6-4191-ac4a-0a0458f72144","system_id":"levelo_inurba_marseille","lat":43.28708,"lon":5.360887,"is_reserved":false,"is_disabled":false,"rental_uris":{"android":"levelo://app?vid=fb0ff235-24d6-4191-ac4a-0a0458f72144","ios":"levelo://app?vid=fb0ff235-24d6-4191-ac4a-0a0458f72144"},"vehicle_type_id":"4","last_reported":1758748110,"current_range_meters":17600,"station_id":"cki0cbj6b192h4jlfktg","pricing_plan_id":"cebpf4jnsgd1na2vs0mg"},{"bike_id":"f799cfee-8db6-47d0-9211-1dd04a3e1a27","system_id":"levelo_inurba_marseille","lat":43.24201,"lon":5.39685,"is_reserved":false,"is_disabled":true,"rental_uris":{"android":"levelo://app?vid=f799cfee-8db6-47d0-9211-1dd04a3e1a27","ios":"levelo://app?vid=f799cfee-8db6-47d0-9211-1dd04a3e1a27"},"vehicle_type_id":"4","last_reported":1758748110,"current_range_meters":17600,"station_id":"ce4bhn12rcd13ifvqgpg","pricing_plan_id":"cebpf4jnsgd1na2vs0mg"},{"bike_id":"7291f26c-4df3-4b94-863a-36ab55dd7149","system_id":"levelo_inurba_marseille","lat":43.29968,"lon":5.37543,"is_reserved":false,"is_disabled":false,"rental_uris":{"android":"levelo://app?vid=7291f26c-4df3-4b94-863a-36ab55dd7149","ios":"levelo://app?vid=7291f26c-4df3-4b94-863a-36ab55dd7149"},"vehicle_type_id":"4","last_reported":1758748110,"current_range_meters":17600,"station_id":"","pricing_plan_id":"cebpf4jnsgd1na2vs0mg"},{"bike_id":"dc7fa399-fb5d-440b-a32d-44e55286b2f4","system_id":"levelo_inurba_marseille","lat":43.30662,"lon":5.40073,"is_reserved":false,"is_disabled":false,"rental_uris":{"android":"levelo://app?vid=dc7fa399-fb5d-440b-a32d-44e55286b2f4","ios":"levelo://app?vid=dc7fa399-fb5d-440b-a32d-44e55286b2f4"},"vehicle_type_id":"4","last_reported":1758748110,"current_range_meters":17600,"station_id":"ce4bh112rcd13ifvqda0","pricing_plan_id":"cebpf4jnsgd1na2vs0mg"},{"bike_id":"f3557076-508d-4f04-8eb6-883d65d6828f","system_id":"levelo_inurba_marseille","lat":43.25087,"lon":5.39515,"is_reserved":false,"is_disabled":false,"rental_uris":{"android":"levelo://app?vid=f3557076-508d-4f04-8eb6-883d65d6828f","ios":"levelo://app?vid=f3557076-508d-4f04-8eb6-883d65d6828f"},"vehicle_type_id":"4","last_reported":1758748110,"current_range_meters":17600,"station_id":"ce4bhm12rcd13ifvqgkg","pricing_plan_id":"cebpf4jnsgd1na2vs0mg"},{"bike_id":"d31d856a-933d-49cf-948f-ce03657dfc74","system_id":"levelo_inurba_marseille","lat":43.28426,"lon":5.34979,"is_reserved":false,"is_disabled":false,"rental_uris":{"android":"levelo://app?vid=d31d856a-933d-49cf-948f-ce03657dfc74","ios":"levelo://app?vid=d31d856a-933d-49cf-948f-ce03657dfc74"},"vehicle_type_id":"4","last_reported":1758748110,"current_range_meters":17600,"station_id":"ce4bhbh2rcd13ifvqepg","pricing_plan_id":"cebpf4jnsgd1na2vs0mg"},{"bike_id":"1ec3f682-f068-4472-8329-000c712f0903","system_id":"levelo_inurba_marseille","lat":43.310803,"lon":5.424319,"is_reserved":false,"is_disabled":false,"rental_uris":{"android":"levelo://app?vid=1ec3f682-f068-4472-8329-000c712f0903","ios":"levelo://app?vid=1ec3f682-f068-4472-8329-000c712f0903"},"vehicle_type_id":"4","last_reported":1758748110,"current_range_meters":17600,"station_id":"","pricing_plan_id":"cebpf4jnsgd1na2vs0mg"},{"bike_id":"ac4b2135-ac2b-485e-810c-8c848dfa977c","system_id":"levelo_inurba_marseille","lat":43.28427,"lon":5.38393,"is_reserved":false,"is_disabled":false,"rental_uris":{"android":"levelo://app?vid=ac4b2135-ac2b-485e-810c-8c848dfa977c","ios":"levelo://app?vid=ac4b2135-ac2b-485e-810c-8c848dfa977c"},"vehicle_type_id":"4","last_reported":1758748110,"current_range_meters":18000,"station_id":"ce4bh512rcd13ifvqe3g","pricing_plan_id":"cebpf4jnsgd1na2vs0mg"},{"bike_id":"64211e92-ecd5-4428-a86b-6e8946c6a668","system_id":"levelo_inurba_marseille","lat":43.24668,"lon":5.38892,"is_reserved":false,"is_disabled":false,"rental_uris":{"android":"levelo://app?vid=64211e92-ecd5-4428-a86b-6e8946c6a668","ios":"levelo://app?vid=64211e92-ecd5-4428-a86b-6e8946c6a668"},"vehicle_type_id":"4","last_reported":1758748110,"current_range_meters":18000,"station_id":"ce4bhg12rcd13ifvqf60","pricing_plan_id":"cebpf4jnsgd1na2vs0mg"},{"bike_id":"cc4853e4-daf2-4d66-b4f7-4288340a6cae","system_id":"levelo_inurba_marseille","lat":43.29055,"lon":5.35906,"is_reserved":false,"is_disabled":false,"rental_uris":{"android":"levelo://app?vid=cc4853e4-daf2-4d66-b4f7-4288340a6cae","ios":"levelo://app?vid=cc4853e4-daf2-4d66-b4f7-4288340a6cae"},"vehicle_type_id":"4","last_reported":1758748110,"current_range_meters":18000,"station_id":"ce4bha92rcd13ifvqeg0","pricing_plan_id":"cebpf4jnsgd1na2vs0mg"},{"bike_id":"d55f7cff-ce18-4107-992e-8cb8fb12b05f","system_id":"levelo_inurba_marseille","lat":43.23155,"lon":5.35333,"is_reserved":false,"is_disabled":false,"rental_uris":{"android":"levelo://app?vid=d55f7cff-ce18-4107-992e-8cb8fb12b05f","ios":"levelo://app?vid=d55f7cff-ce18-4107-992e-8cb8fb12b05f"},"vehicle_type_id":"4","last_reported":1758748110,"current_range_meters":18000,"station_id":"ce4bhu92rcd13ifvqi70","pricing_plan_id":"cebpf4jnsgd1na2vs0mg"},{"bike_id":"f897d300-643c-4c7a-951b-f56d70ef23ca","system_id":"levelo_inurba_marseille","lat":43.30283,"lon":5.39097,"is_reserved":false,"is_disabled":false,"rental_uris":{"android":"levelo://app?vid=f897d300-643c-4c7a-951b-f56d70ef23ca","ios":"levelo://app?vid=f897d300-643c-4c7a-951b-f56d70ef23ca"},"vehicle_type_id":"4","last_reported":1758748110,"current_range_meters":18000,"station_id":"","pricing_plan_id":"cebpf4jnsgd1na2vs0mg"},{"bike_id":"4830eb8c-c891-4385-a9a3-13366a07f622","system_id":"levelo_inurba_marseille","lat":43.30807,"lon":5.38145,"is_reserved":false,"is_disabled":false,"rental_uris":{"android":"levelo://app?vid=4830eb8c-c891-4385-a9a3-13366a07f622","ios":"levelo://app?vid=4830eb8c-c891-4385-a9a3-13366a07f622"},"vehicle_type_id":"4","last_reported":1758748110,"current_range_meters":18000,"station_id":"ce4bgt12rcd13ifvqce0","pricing_plan_id":"cebpf4jnsgd1na2vs0mg"},{"bike_id":"c4ff0fec-5a54-407a-bd92-c60d12a99a14","system_id":"levelo_inurba_marseille","lat":43.27079,"lon":5.42274,"is_reserved":false,"is_disabled":false,"rental_uris":{"android":"levelo://app?vid=c4ff0fec-5a54-407a-bd92-c60d12a99a14","ios":"levelo://app?vid=c4ff0fec-5a54-407a-bd92-c60d12a99a14"},"vehicle_type_id":"4","last_reported":1758748110,"current_range_meters":18000,"station_id":"ce4bhk92rcd13ifvqgb0","pricing_plan_id":"cebpf4jnsgd1na2vs0mg"},{"bike_id":"041cd397-24ab-4e04-af23-07b961e161f4","system_id":"levelo_inurba_marseille","lat":43.337444,"lon":5.374475,"is_reserved":false,"is_disabled":false,"rental_uris":{"android":"levelo://app?vid=041cd397-24ab-4e04-af23-07b961e161f4","ios":"levelo://app?vid=041cd397-24ab-4e04-af23-07b961e161f4"},"vehicle_type_id":"4","last_reported":1758748110,"current_range_meters":18000,"station_id":"","pricing_plan_id":"cebpf4jnsgd1na2vs0mg"},{"bike_id":"4381822b-e4a8-41c2-a189-9d550bf65381","system_id":"levelo_inurba_marseille","lat":43.23212,"lon":5.39946,"is_reserved":false,"is_disabled":false,"rental_uris":{"android":"levelo://app?vid=4381822b-e4a8-41c2-a189-9d550bf65381","ios":"levelo://app?vid=4381822b-e4a8-41c2-a189-9d550bf65381"},"vehicle_type_id":"4","last_reported":1758748110,"current_range_meters":18000,"station_id":"","pricing_plan_id":"cebpf4jnsgd1na2vs0mg"},{"bike_id":"459199d4-a1d0-404f-b542-8737a00444e2","system_id":"levelo_inurba_marseille","lat":43.29559,"lon":5.39955,"is_reserved":false,"is_disabled":false,"rental_uris":{"android":"levelo://app?vid=459199d4-a1d0-404f-b542-8737a00444e2","ios":"levelo://app?vid=459199d4-a1d0-404f-b542-8737a00444e2"},"vehicle_type_id":"4","last_reported":1758748110,"current_range_meters":18000,"station_id":"ce4bh312rcd13ifvqdj0","pricing_plan_id":"cebpf4jnsgd1na2vs0mg"},{"bike_id":"a87939ff-0770-48be-b369-07dd400e1d82","system_id":"levelo_inurba_marseille","lat":43.27946,"lon":5.41052,"is_reserved":false,"is_disabled":false,"rental_uris":{"android":"levelo://app?vid=a87939ff-0770-48be-b369-07dd400e1d82","ios":"levelo://app?vid=a87939ff-0770-48be-b369-07dd400e1d82"},"vehicle_type_id":"4","last_reported":1758748110,"current_range_meters":18000,"station_id":"ce4bhnp2rcd13ifvqh0g","pricing_plan_id":"cebpf4jnsgd1na2vs0mg"},{"bike_id":"f536fd07-c962-417f-96ac-4a5917c4d608","system_id":"levelo_inurba_marseille","lat":43.31329,"lon":5.39692,"is_reserved":false,"is_disabled":false,"rental_uris":{"android":"levelo://app?vid=f536fd07-c962-417f-96ac-4a5917c4d608","ios":"levelo://app?vid=f536fd07-c962-417f-96ac-4a5917c4d608"},"vehicle_type_id":"4","last_reported":1758748110,"current_range_meters":18800,"station_id":"ce4bgvp2rcd13ifvqcu0","pricing_plan_id":"cebpf4jnsgd1na2vs0mg"},{"bike_id":"913292dc-4dbb-46f0-a364-c192977f6f16","system_id":"levelo_inurba_marseille","lat":43.30271,"lon":5.37705,"is_reserved":false,"is_disabled":false,"rental_uris":{"android":"levelo://app?vid=913292dc-4dbb-46f0-a364-c192977f6f16","ios":"levelo://app?vid=913292dc-4dbb-46f0-a364-c192977f6f16"},"vehicle_type_id":"4","last_reported":1758748110,"current_range_meters":18800,"station_id":"ce4bguh2rcd13ifvqcj0","pricing_plan_id":"cebpf4jnsgd1na2vs0mg"},{"bike_id":"c9121eb6-7b22-4021-a840-f81a7189c2b1","system_id":"levelo_inurba_marseille","lat":43.27569,"lon":5.38425,"is_reserved":false,"is_disabled":false,"rental_uris":{"android":"levelo://app?vid=c9121eb6-7b22-4021-a840-f81a7189c2b1","ios":"levelo://app?vid=c9121eb6-7b22-4021-a840-f81a7189c2b1"},"vehicle_type_id":"4","last_reported":1758748110,"current_range_meters":18800,"station_id":"ce4bhh92rcd13ifvqfi0","pricing_plan_id":"cebpf4jnsgd1na2vs0mg"},{"bike_id":"cf64f5a1-85bb-4012-acd5-309d066b1fe7","system_id":"levelo_inurba_marseille","lat":43.24194,"lon":5.39706,"is_reserved":false,"is_disabled":true,"rental_uris":{"android":"levelo://app?vid=cf64f5a1-85bb-4012-acd5-309d066b1fe7","ios":"levelo://app?vid=cf64f5a1-85bb-4012-acd5-309d066b1fe7"},"vehicle_type_id":"4","last_reported":1758748110,"current_range_meters":18800,"station_id":"ce4bhn12rcd13ifvqgpg","pricing_plan_id":"cebpf4jnsgd1na2vs0mg"},{"bike_id":"b2b53a8e-662e-455b-9973-baf6c5af5a6e","system_id":"levelo_inurba_marseille","lat":43.2844,"lon":5.39177,"is_reserved":false,"is_disabled":false,"rental_uris":{"android":"levelo://app?vid=b2b53a8e-662e-455b-9973-baf6c5af5a6e","ios":"levelo://app?vid=b2b53a8e-662e-455b-9973-baf6c5af5a6e"},"vehicle_type_id":"4","last_reported":1758748110,"current_range_meters":18800,"station_id":"ce4bhoh2rcd13ifvqh5g","pricing_plan_id":"cebpf4jnsgd1na2vs0mg"},{"bike_id":"70318c82-7ace-4d55-991f-f6d93948f025","system_id":"levelo_inurba_marseille","lat":43.28691,"lon":5.36096,"is_reserved":false,"is_disabled":false,"rental_uris":{"android":"levelo://app?vid=70318c82-7ace-4d55-991f-f6d93948f025","ios":"levelo://app?vid=70318c82-7ace-4d55-991f-f6d93948f025"},"vehicle_type_id":"4","last_reported":1758748110,"current_range_meters":18800,"station_id":"cki0cbj6b192h4jlfktg","pricing_plan_id":"cebpf4jnsgd1na2vs0mg"},{"bike_id":"b6ff3672-4e7c-404c-ab2a-bd902cf95e14","system_id":"levelo_inurba_marseille","lat":43.26844,"lon":5.4068,"is_reserved":false,"is_disabled":false,"rental_uris":{"android":"levelo://app?vid=b6ff3672-4e7c-404c-ab2a-bd902cf95e14","ios":"levelo://app?vid=b6ff3672-4e7c-404c-ab2a-bd902cf95e14"},"vehicle_type_id":"4","last_reported":1758748110,"current_range_meters":18800,"station_id":"","pricing_plan_id":"cebpf4jnsgd1na2vs0mg"},{"bike_id":"f1b27cac-251c-4fc5-a807-79ccbf762b85","system_id":"levelo_inurba_marseille","lat":43.28038,"lon":5.36954,"is_reserved":false,"is_disabled":false,"rental_uris":{"android":"levelo://app?vid=f1b27cac-251c-4fc5-a807-79ccbf762b85","ios":"levelo://app?vid=f1b27cac-251c-4fc5-a807-79ccbf762b85"},"vehicle_type_id":"4","last_reported":1758748110,"current_range_meters":19200,"station_id":"ce4bha12rcd13ifvqef0","pricing_plan_id":"cebpf4jnsgd1na2vs0mg"},{"bike_id":"26660b86-1d45-4991-a1fd-bc1e09c063f5","system_id":"levelo_inurba_marseille","lat":43.2846,"lon":5.35888,"is_reserved":false,"is_disabled":false,"rental_uris":{"android":"levelo://app?vid=26660b86-1d45-4991-a1fd-bc1e09c063f5","ios":"levelo://app?vid=26660b86-1d45-4991-a1fd-bc1e09c063f5"},"vehicle_type_id":"4","last_reported":1758748110,"current_range_meters":19200,"station_id":"ce4bhah2rcd13ifvqei0","pricing_plan_id":"cebpf4jnsgd1na2vs0mg"},{"bike_id":"bdff1536-f36c-4917-9aef-b9364dd074f4","system_id":"levelo_inurba_marseille","lat":43.258675,"lon":5.398907,"is_reserved":false,"is_disabled":false,"rental_uris":{"android":"levelo://app?vid=bdff1536-f36c-4917-9aef-b9364dd074f4","ios":"levelo://app?vid=bdff1536-f36c-4917-9aef-b9364dd074f4"},"vehicle_type_id":"4","last_reported":1758748110,"current_range_meters":19200,"station_id":"","pricing_plan_id":"cebpf4jnsgd1na2vs0mg"},{"bike_id":"e272de5d-c37b-4836-8081-748ba206ef88","system_id":"levelo_inurba_marseille","lat":43.28,"lon":5.41676,"is_reserved":false,"is_disabled":false,"rental_uris":{"android":"levelo://app?vid=e272de5d-c37b-4836-8081-748ba206ef88","ios":"levelo://app?vid=e272de5d-c37b-4836-8081-748ba206ef88"},"vehicle_type_id":"4","last_reported":1758748110,"current_range_meters":19200,"station_id":"ce4bho12rcd13ifvqh1g","pricing_plan_id":"cebpf4jnsgd1na2vs0mg"},{"bike_id":"8e4d93ed-d24c-438d-94c2-4e040142fb9b","system_id":"levelo_inurba_marseille","lat":43.240808,"lon":5.377482,"is_reserved":false,"is_disabled":false,"rental_uris":{"android":"levelo://app?vid=8e4d93ed-d24c-438d-94c2-4e040142fb9b","ios":"levelo://app?vid=8e4d93ed-d24c-438d-94c2-4e040142fb9b"},"vehicle_type_id":"4","last_reported":1758748110,"current_range_meters":19200,"station_id":"ce4bhnp2rcd13ifvqgvg","pricing_plan_id":"cebpf4jnsgd1na2vs0mg"},{"bike_id":"8a814355-0928-4ff3-a45b-7143d8f6343c","system_id":"levelo_inurba_marseille","lat":43.27913,"lon":5.39578,"is_reserved":false,"is_disabled":false,"rental_uris":{"android":"levelo://app?vid=8a814355-0928-4ff3-a45b-7143d8f6343c","ios":"levelo://app?vid=8a814355-0928-4ff3-a45b-7143d8f6343c"},"vehicle_type_id":"4","last_reported":1758748110,"current_range_meters":19200,"station_id":"ce4bhf92rcd13ifvqf40","pricing_plan_id":"cebpf4jnsgd1na2vs0mg"},{"bike_id":"dec5e3d0-16cf-4f61-8905-2078866bf757","system_id":"levelo_inurba_marseille","lat":43.250842,"lon":5.39538,"is_reserved":false,"is_disabled":false,"rental_uris":{"android":"levelo://app?vid=dec5e3d0-16cf-4f61-8905-2078866bf757","ios":"levelo://app?vid=dec5e3d0-16cf-4f61-8905-2078866bf757"},"vehicle_type_id":"4","last_reported":1758748110,"current_range_meters":19200,"station_id":"ce4bhm12rcd13ifvqgkg","pricing_plan_id":"cebpf4jnsgd1na2vs0mg"},{"bike_id":"798e130f-3fa3-4c7f-9d50-1593ee52bcc6","system_id":"levelo_inurba_marseille","lat":43.25349,"lon":5.42161,"is_reserved":false,"is_disabled":false,"rental_uris":{"android":"levelo://app?vid=798e130f-3fa3-4c7f-9d50-1593ee52bcc6","ios":"levelo://app?vid=798e130f-3fa3-4c7f-9d50-1593ee52bcc6"},"vehicle_type_id":"4","last_reported":1758748110,"current_range_meters":19200,"station_id":"st_d2m65c5bi1j21697t3ng","pricing_plan_id":"cebpf4jnsgd1na2vs0mg"},{"bike_id":"e057ed06-7726-49c5-b64e-a5c5c1b5c579","system_id":"levelo_inurba_marseille","lat":43.2951,"lon":5.3904,"is_reserved":false,"is_disabled":false,"rental_uris":{"android":"levelo://app?vid=e057ed06-7726-49c5-b64e-a5c5c1b5c579","ios":"levelo://app?vid=e057ed06-7726-49c5-b64e-a5c5c1b5c579"},"vehicle_type_id":"4","last_reported":1758748110,"current_range_meters":19200,"station_id":"ce4bh3p2rcd13ifvqdp0","pricing_plan_id":"cebpf4jnsgd1na2vs0mg"},{"bike_id":"aeed3918-fdae-4871-8c0a-816086537fe4","system_id":"levelo_inurba_marseille","lat":43.29785,"lon":5.38105,"is_reserved":false,"is_disabled":false,"rental_uris":{"android":"levelo://app?vid=aeed3918-fdae-4871-8c0a-816086537fe4","ios":"levelo://app?vid=aeed3918-fdae-4871-8c0a-816086537fe4"},"vehicle_type_id":"4","last_reported":1758748110,"current_range_meters":19600,"station_id":"ce4bgip2rcd13ifvqbb0","pricing_plan_id":"cebpf4jnsgd1na2vs0mg"},{"bike_id":"6bca8a1a-def3-481f-9bd1-545243e3ff03","system_id":"levelo_inurba_marseille","lat":43.30785,"lon":5.38147,"is_reserved":false,"is_disabled":false,"rental_uris":{"android":"levelo://app?vid=6bca8a1a-def3-481f-9bd1-545243e3ff03","ios":"levelo://app?vid=6bca8a1a-def3-481f-9bd1-545243e3ff03"},"vehicle_type_id":"4","last_reported":1758748110,"current_range_meters":19600,"station_id":"ce4bgt12rcd13ifvqce0","pricing_plan_id":"cebpf4jnsgd1na2vs0mg"},{"bike_id":"8bceee3e-dc63-488a-a8b7-d05f76221940","system_id":"levelo_inurba_marseille","lat":43.29161,"lon":5.35808,"is_reserved":false,"is_disabled":false,"rental_uris":{"android":"levelo://app?vid=8bceee3e-dc63-488a-a8b7-d05f76221940","ios":"levelo://app?vid=8bceee3e-dc63-488a-a8b7-d05f76221940"},"vehicle_type_id":"4","last_reported":1758748110,"current_range_meters":19600,"station_id":"ce4bhb12rcd13ifvqel0","pricing_plan_id":"cebpf4jnsgd1na2vs0mg"},{"bike_id":"a00b258b-edcd-4c76-89d0-c26cce99668a","system_id":"levelo_inurba_marseille","lat":43.28864,"lon":5.35851,"is_reserved":false,"is_disabled":false,"rental_uris":{"android":"levelo://app?vid=a00b258b-edcd-4c76-89d0-c26cce99668a","ios":"levelo://app?vid=a00b258b-edcd-4c76-89d0-c26cce99668a"},"vehicle_type_id":"4","last_reported":1758748110,"current_range_meters":19600,"station_id":"ce4bhb12rcd13ifvqem0","pricing_plan_id":"cebpf4jnsgd1na2vs0mg"},{"bike_id":"0e7b2911-bdcb-4428-81e8-895837a179e9","system_id":"levelo_inurba_marseille","lat":43.24958,"lon":5.40495,"is_reserved":false,"is_disabled":false,"rental_uris":{"android":"levelo://app?vid=0e7b2911-bdcb-4428-81e8-895837a179e9","ios":"levelo://app?vid=0e7b2911-bdcb-4428-81e8-895837a179e9"},"vehicle_type_id":"4","last_reported":1758748110,"current_range_meters":19600,"station_id":"st_d2ngiaodas8pm72gd1h0","pricing_plan_id":"cebpf4jnsgd1na2vs0mg"},{"bike_id":"237d670d-1d71-4e5a-9874-9ef01d2c1669","system_id":"levelo_inurba_marseille","lat":43.23069,"lon":5.3549,"is_reserved":false,"is_disabled":false,"rental_uris":{"android":"levelo://app?vid=237d670d-1d71-4e5a-9874-9ef01d2c1669","ios":"levelo://app?vid=237d670d-1d71-4e5a-9874-9ef01d2c1669"},"vehicle_type_id":"4","last_reported":1758748110,"current_range_meters":19600,"station_id":"cpo3342slgdg3j2ifvpg","pricing_plan_id":"cebpf4jnsgd1na2vs0mg"},{"bike_id":"d2c32aa4-eb6d-4037-b4bc-16b296387f88","system_id":"levelo_inurba_marseille","lat":43.246508,"lon":5.388915,"is_reserved":false,"is_disabled":false,"rental_uris":{"android":"levelo://app?vid=d2c32aa4-eb6d-4037-b4bc-16b296387f88","ios":"levelo://app?vid=d2c32aa4-eb6d-4037-b4bc-16b296387f88"},"vehicle_type_id":"4","last_reported":1758748110,"current_range_meters":19600,"station_id":"ce4bhg12rcd13ifvqf60","pricing_plan_id":"cebpf4jnsgd1na2vs0mg"},{"bike_id":"003e09f5-a6a7-4791-8008-50d2094462ce","system_id":"levelo_inurba_marseille","lat":43.26062,"lon":5.39398,"is_reserved":false,"is_disabled":false,"rental_uris":{"android":"levelo://app?vid=003e09f5-a6a7-4791-8008-50d2094462ce","ios":"levelo://app?vid=003e09f5-a6a7-4791-8008-50d2094462ce"},"vehicle_type_id":"4","last_reported":1758748110,"current_range_meters":19600,"station_id":"ce4bhh92rcd13ifvqfj0","pricing_plan_id":"cebpf4jnsgd1na2vs0mg"},{"bike_id":"a57b3feb-2354-42fe-87fd-e8fcee3a0260","system_id":"levelo_inurba_marseille","lat":43.26953,"lon":5.40241,"is_reserved":false,"is_disabled":false,"rental_uris":{"android":"levelo://app?vid=a57b3feb-2354-42fe-87fd-e8fcee3a0260","ios":"levelo://app?vid=a57b3feb-2354-42fe-87fd-e8fcee3a0260"},"vehicle_type_id":"4","last_reported":1758748110,"current_range_meters":19600,"station_id":"","pricing_plan_id":"cebpf4jnsgd1na2vs0mg"},{"bike_id":"d492fa29-4072-4929-8af9-ffc5ae600ec3","system_id":"levelo_inurba_marseille","lat":43.27058,"lon":5.40259,"is_reserved":false,"is_disabled":false,"rental_uris":{"android":"levelo://app?vid=d492fa29-4072-4929-8af9-ffc5ae600ec3","ios":"levelo://app?vid=d492fa29-4072-4929-8af9-ffc5ae600ec3"},"vehicle_type_id":"4","last_reported":1758748110,"current_range_meters":20000,"station_id":"ce4bhk92rcd13ifvqgc0","pricing_plan_id":"cebpf4jnsgd1na2vs0mg"},{"bike_id":"047cbadf-61f3-4710-bf13-d3db7d81e87a","system_id":"levelo_inurba_marseille","lat":43.30121,"lon":5.38787,"is_reserved":false,"is_disabled":true,"rental_uris":{"android":"levelo://app?vid=047cbadf-61f3-4710-bf13-d3db7d81e87a","ios":"levelo://app?vid=047cbadf-61f3-4710-bf13-d3db7d81e87a"},"vehicle_type_id":"4","last_reported":1758748110,"current_range_meters":20000,"station_id":"ce4bghh2rcd13ifvqb60","pricing_plan_id":"cebpf4jnsgd1na2vs0mg"},{"bike_id":"93f65578-1782-4b9e-81d0-160013f60bcd","system_id":"levelo_inurba_marseille","lat":43.24386,"lon":5.37062,"is_reserved":false,"is_disabled":false,"rental_uris":{"android":"levelo://app?vid=93f65578-1782-4b9e-81d0-160013f60bcd","ios":"levelo://app?vid=93f65578-1782-4b9e-81d0-160013f60bcd"},"vehicle_type_id":"4","last_reported":1758748110,"current_range_meters":20000,"station_id":"ce4bhhh2rcd13ifvqfk0","pricing_plan_id":"cebpf4jnsgd1na2vs0mg"},{"bike_id":"651e2e9b-bd0f-4c36-a9f6-1eed696b508d","system_id":"levelo_inurba_marseille","lat":43.3303,"lon":5.39031,"is_reserved":false,"is_disabled":false,"rental_uris":{"android":"levelo://app?vid=651e2e9b-bd0f-4c36-a9f6-1eed696b508d","ios":"levelo://app?vid=651e2e9b-bd0f-4c36-a9f6-1eed696b508d"},"vehicle_type_id":"4","last_reported":1758748110,"current_range_meters":20000,"station_id":"ce4bhr92rcd13ifvqhrg","pricing_plan_id":"cebpf4jnsgd1na2vs0mg"},{"bike_id":"1aa556a3-94a4-4e2d-aab4-98b7c796a33e","system_id":"levelo_inurba_marseille","lat":43.28703,"lon":5.37382,"is_reserved":false,"is_disabled":false,"rental_uris":{"android":"levelo://app?vid=1aa556a3-94a4-4e2d-aab4-98b7c796a33e","ios":"levelo://app?vid=1aa556a3-94a4-4e2d-aab4-98b7c796a33e"},