{"last_updated":1737986967,"ttl":60,"version":"2.2","data":{"bikes":[{"bike_id":"cb675d55-e5c8-4982-aca6-2a4540f10435","system_id":"levelo_inurba_marseille","lat":43.29865,"lon":5.36286,"is_reserved":false,"is_disabled":false,"rental_uris":{"android":"levelo://app?vid=cb675d55-e5c8-4982-aca6-2a4540f10435","ios":"levelo://app?vid=cb675d55-e5c8-4982-aca6-2a4540f10435"},"vehicle_type_id":"4","last_reported":1737986967,"current_range_meters":12800,"station_id":"ce4bgpp2rcd13ifvqc3g","pricing_plan_id":"cebpf4jnsgd1na2vs0mg"},{"bike_id":"d04636c5-0ea2-4c95-a7e1-8fca9023ee75","system_id":"levelo_inurba_marseille","lat":43.32282,"lon":5.38257,"is_reserved":false,"is_disabled":false,"rental_uris":{"android":"levelo://app?vid=d04636c5-0ea2-4c95-a7e1-8fca9023ee75","ios":"levelo://app?vid=d04636c5-0ea2-4c95-a7e1-8fca9023ee75"},"vehicle_type_id":"4","last_reported":1737986967,"current_range_meters":35200,"station_id":"ce4bhr12rcd13ifvqhqg","pricing_plan_id":"cebpf4jnsgd1na2vs0mg"},{"bike_id":"1b566214-4d36-4645-9d7d-28bb6feccfe1","system_id":"levelo_inurba_marseille","lat":43.29091,"lon":5.38151,"is_reserved":false,"is_disabled":false,"rental_uris":{"android":"levelo://app?vid=1b566214-4d36-4645-9d7d-28bb6feccfe1","ios":"levelo://app?vid=1b566214-4d36-4645-9d7d-28bb6feccfe1"},"vehicle_type_id":"4","last_reported":1737986967,"current_range_meters":36400,"station_id":"ce4bh512rcd13ifvqe2g","pricing_plan_id":"cebpf4jnsgd1na2vs0mg"},{"bike_id":"22fdda07-29f7-4097-aa7c-457566d3caba","system_id":"levelo_inurba_marseille","lat":43.2501,"lon":5.39578,"is_reserved":false,"is_disabled":false,"rental_uris":{"android":"levelo://app?vid=22fdda07-29f7-4097-aa7c-457566d3caba","ios":"levelo://app?vid=22fdda07-29f7-4097-aa7c-457566d3caba"},"vehicle_type_id":"4","last_reported":1737986967,"current_range_meters":22000,"station_id":"","pricing_plan_id":"cebpf4jnsgd1na2vs0mg"},{"bike_id":"f9ea3b7d-3e08-41ce-9f28-17237eb201ee","system_id":"levelo_inurba_marseille","lat":43.27492,"lon":5.42457,"is_reserved":false,"is_disabled":true,"rental_uris":{"android":"levelo://app?vid=f9ea3b7d-3e08-41ce-9f28-17237eb201ee","ios":"levelo://app?vid=f9ea3b7d-3e08-41ce-9f28-17237eb201ee"},"vehicle_type_id":"4","last_reported":1737986967,"current_range_meters":0,"station_id":"ce4bhn92rcd13ifvqgrg","pricing_plan_id":"cebpf4jnsgd1na2vs0mg"},{"bike_id":"d999704f-e81a-492f-bc4f-4f7e2ff7e922","system_id":"levelo_inurba_marseille","lat":43.25732,"lon":5.41111,"is_reserved":false,"is_disabled":false,"rental_uris":{"android":"levelo://app?vid=d999704f-e81a-492f-bc4f-4f7e2ff7e922","ios":"levelo://app?vid=d999704f-e81a-492f-bc4f-4f7e2ff7e922"},"vehicle_type_id":"4","last_reported":1737986967,"current_range_meters":38800,"station_id":"ce4bhkp2rcd13ifvqgd0","pricing_plan_id":"cebpf4jnsgd1na2vs0mg"},{"bike_id":"58d9e3df-28a3-4560-b2cd-4d33fefbd544","system_id":"levelo_inurba_marseille","lat":43.28351,"lon":5.38099,"is_reserved":false,"is_disabled":false,"rental_uris":{"android":"levelo://app?vid=58d9e3df-28a3-4560-b2cd-4d33fefbd544","ios":"levelo://app?vid=58d9e3df-28a3-4560-b2cd-4d33fefbd544"},"vehicle_type_id":"4","last_reported":1737986967,"current_range_meters":11600,"station_id":"ce4bh412rcd13ifvqdr0","pricing_plan_id":"cebpf4jnsgd1na2vs0mg"},{"bike_id":"dd704602-b2bd-4f89-9213-a81ce54a9d13","system_id":"levelo_inurba_marseille","lat":43.30551,"lon":5.36543,"is_reserved":false,"is_disabled":false,"rental_uris":{"android":"levelo://app?vid=dd704602-b2bd-4f89-9213-a81ce54a9d13","ios":"levelo://app?vid=dd704602-b2bd-4f89-9213-a81ce54a9d13"},"vehicle_type_id":"4","last_reported":1737986967,"current_range_meters":27200,"station_id":"ce4bgs12rcd13ifvqcag","pricing_plan_id":"cebpf4jnsgd1na2vs0mg"},{"bike_id":"4bd5de1a-99c3-4b8a-ac3d-e4e0c9fc1d4a","system_id":"levelo_inurba_marseille","lat":43.32111,"lon":5.36775,"is_reserved":false,"is_disabled":false,"rental_uris":{"android":"levelo://app?vid=4bd5de1a-99c3-4b8a-ac3d-e4e0c9fc1d4a","ios":"levelo://app?vid=4bd5de1a-99c3-4b8a-ac3d-e4e0c9fc1d4a"},"vehicle_type_id":"4","last_reported":1737986967,"current_range_meters":8400,"station_id":"ce4bhrh2rcd13ifvqhug","pricing_plan_id":"cebpf4jnsgd1na2vs0mg"},{"bike_id":"e15a9c54-1119-4626-8beb-0f6abafef573","system_id":"levelo_inurba_marseille","lat":43.27967,"lon":5.41047,"is_reserved":false,"is_disabled":false,"rental_uris":{"android":"levelo://app?vid=e15a9c54-1119-4626-8beb-0f6abafef573","ios":"levelo://app?vid=e15a9c54-1119-4626-8beb-0f6abafef573"},"vehicle_type_id":"4","last_reported":1737986967,"current_range_meters":26800,"station_id":"ce4bhnp2rcd13ifvqh0g","pricing_plan_id":"cebpf4jnsgd1na2vs0mg"},{"bike_id":"30e19aed-21c0-4e2e-b5de-2be87060f860","system_id":"levelo_inurba_marseille","lat":43.28182,"lon":5.4269,"is_reserved":false,"is_disabled":false,"rental_uris":{"android":"levelo://app?vid=30e19aed-21c0-4e2e-b5de-2be87060f860","ios":"levelo://app?vid=30e19aed-21c0-4e2e-b5de-2be87060f860"},"vehicle_type_id":"4","last_reported":1737986967,"current_range_meters":34000,"station_id":"ce4bhnh2rcd13ifvqgug","pricing_plan_id":"cebpf4jnsgd1na2vs0mg"},{"bike_id":"b4419126-4220-4032-9f30-f1b65ff8aafb","system_id":"levelo_inurba_marseille","lat":43.29367,"lon":5.37827,"is_reserved":false,"is_disabled":false,"rental_uris":{"android":"levelo://app?vid=b4419126-4220-4032-9f30-f1b65ff8aafb","ios":"levelo://app?vid=b4419126-4220-4032-9f30-f1b65ff8aafb"},"vehicle_type_id":"4","last_reported":1737986967,"current_range_meters":35600,"station_id":"ce4bgjh2rcd13ifvqbf0","pricing_plan_id":"cebpf4jnsgd1na2vs0mg"},{"bike_id":"d6755dc8-d9a9-49dc-8a8f-22ec6b86e111","system_id":"levelo_inurba_marseille","lat":43.28168,"lon":5.42663,"is_reserved":false,"is_disabled":false,"rental_uris":{"android":"levelo://app?vid=d6755dc8-d9a9-49dc-8a8f-22ec6b86e111","ios":"levelo://app?vid=d6755dc8-d9a9-49dc-8a8f-22ec6b86e111"},"vehicle_type_id":"4","last_reported":1737986967,"current_range_meters":29600,"station_id":"ce4bhnh2rcd13ifvqgug","pricing_plan_id":"cebpf4jnsgd1na2vs0mg"},{"bike_id":"22fe6381-bfa8-481c-9415-4e6666169356","system_id":"levelo_inurba_marseille","lat":43.26554,"lon":5.38999,"is_reserved":false,"is_disabled":false,"rental_uris":{"android":"levelo://app?vid=22fe6381-bfa8-481c-9415-4e6666169356","ios":"levelo://app?vid=22fe6381-bfa8-481c-9415-4e6666169356"},"vehicle_type_id":"4","last_reported":1737986967,"current_range_meters":26000,"station_id":"ce4bhe12rcd13ifvqf30","pricing_plan_id":"cebpf4jnsgd1na2vs0mg"},{"bike_id":"aca49ba4-a20e-424d-8e10-ceb29e666756","system_id":"levelo_inurba_marseille","lat":43.26953,"lon":5.3864,"is_reserved":false,"is_disabled":false,"rental_uris":{"android":"levelo://app?vid=aca49ba4-a20e-424d-8e10-ceb29e666756","ios":"levelo://app?vid=aca49ba4-a20e-424d-8e10-ceb29e666756"},"vehicle_type_id":"4","last_reported":1737986967,"current_range_meters":39200,"station_id":"ce4bhh92rcd13ifvqfh0","pricing_plan_id":"cebpf4jnsgd1na2vs0mg"},{"bike_id":"90cc3ddf-83e9-4f36-b3ac-3eaa190119e5","system_id":"levelo_inurba_marseille","lat":43.28477,"lon":5.38546,"is_reserved":false,"is_disabled":false,"rental_uris":{"android":"levelo://app?vid=90cc3ddf-83e9-4f36-b3ac-3eaa190119e5","ios":"levelo://app?vid=90cc3ddf-83e9-4f36-b3ac-3eaa190119e5"},"vehicle_type_id":"4","last_reported":1737986967,"current_range_meters":38400,"station_id":"ce4bh8p2rcd13ifvqeb0","pricing_plan_id":"cebpf4jnsgd1na2vs0mg"},{"bike_id":"c96545e6-b3fa-4a6b-836e-d89ea478e5d1","system_id":"levelo_inurba_marseille","lat":43.24995,"lon":5.38917,"is_reserved":false,"is_disabled":false,"rental_uris":{"android":"levelo://app?vid=c96545e6-b3fa-4a6b-836e-d89ea478e5d1","ios":"levelo://app?vid=c96545e6-b3fa-4a6b-836e-d89ea478e5d1"},"vehicle_type_id":"4","last_reported":1737986967,"current_range_meters":38800,"station_id":"ce4bhgp2rcd13ifvqfd0","pricing_plan_id":"cebpf4jnsgd1na2vs0mg"},{"bike_id":"cfff1edf-189f-4cb0-80dd-22014a7dc63a","system_id":"levelo_inurba_marseille","lat":43.24823,"lon":5.37449,"is_reserved":false,"is_disabled":false,"rental_uris":{"android":"levelo://app?vid=cfff1edf-189f-4cb0-80dd-22014a7dc63a","ios":"levelo://app?vid=cfff1edf-189f-4cb0-80dd-22014a7dc63a"},"vehicle_type_id":"4","last_reported":1737986967,"current_range_meters":25200,"station_id":"ce4bhgh2rcd13ifvqfb0","pricing_plan_id":"cebpf4jnsgd1na2vs0mg"},{"bike_id":"234d8b67-2684-4782-94a0-5114e75a4c6a","system_id":"levelo_inurba_marseille","lat":43.30473,"lon":5.37905,"is_reserved":false,"is_disabled":false,"rental_uris":{"android":"levelo://app?vid=234d8b67-2684-4782-94a0-5114e75a4c6a","ios":"levelo://app?vid=234d8b67-2684-4782-94a0-5114e75a4c6a"},"vehicle_type_id":"4","last_reported":1737986967,"current_range_meters":39200,"station_id":"ce4bgup2rcd13ifvqcn0","pricing_plan_id":"cebpf4jnsgd1na2vs0mg"},{"bike_id":"5a6503ca-c2c6-4dbe-a6f7-68e5f1916ac2","system_id":"levelo_inurba_marseille","lat":43.298781,"lon":5.436587,"is_reserved":false,"is_disabled":false,"rental_uris":{"android":"levelo://app?vid=5a6503ca-c2c6-4dbe-a6f7-68e5f1916ac2","ios":"levelo://app?vid=5a6503ca-c2c6-4dbe-a6f7-68e5f1916ac2"},"vehicle_type_id":"4","last_reported":1737986967,"current_range_meters":38800,"station_id":"ce4bhpp2rcd13ifvqhfg","pricing_plan_id":"cebpf4jnsgd1na2vs0mg"},{"bike_id":"f8adc56c-618c-40e3-8e9c-d02e5afd96f6","system_id":"levelo_inurba_marseille","lat":43.28732,"lon":5.3999,"is_reserved":false,"is_disabled":false,"rental_uris":{"android":"levelo://app?vid=f8adc56c-618c-40e3-8e9c-d02e5afd96f6","ios":"levelo://app?vid=f8adc56c-618c-40e3-8e9c-d02e5afd96f6"},"vehicle_type_id":"4","last_reported":1737986967,"current_range_meters":38400,"station_id":"ce4bho92rcd13ifvqh3g","pricing_plan_id":"cebpf4jnsgd1na2vs0mg"},{"bike_id":"ac5c6c76-0f5f-4a03-9b20-21bc424125e8","system_id":"levelo_inurba_marseille","lat":43.29876,"lon":5.39736,"is_reserved":false,"is_disabled":false,"rental_uris":{"android":"levelo://app?vid=ac5c6c76-0f5f-4a03-9b20-21bc424125e8","ios":"levelo://app?vid=ac5c6c76-0f5f-4a03-9b20-21bc424125e8"},"vehicle_type_id":"4","last_reported":1737986967,"current_range_meters":38400,"station_id":"ce4bh0h2rcd13ifvqd50","pricing_plan_id":"cebpf4jnsgd1na2vs0mg"},{"bike_id":"0926501a-5d9d-4380-b9dc-b5a302e3613a","system_id":"levelo_inurba_marseille","lat":43.30293,"lon":5.39204,"is_reserved":false,"is_disabled":false,"rental_uris":{"android":"levelo://app?vid=0926501a-5d9d-4380-b9dc-b5a302e3613a","ios":"levelo://app?vid=0926501a-5d9d-4380-b9dc-b5a302e3613a"},"vehicle_type_id":"4","last_reported":1737986967,"current_range_meters":36800,"station_id":"ce4bgkh2rcd13ifvqbk0","pricing_plan_id":"cebpf4jnsgd1na2vs0mg"},{"bike_id":"0a92203c-f359-43d7-b64c-94cf2f6187fe","system_id":"levelo_inurba_marseille","lat":43.29797,"lon":5.38097,"is_reserved":false,"is_disabled":false,"rental_uris":{"android":"levelo://app?vid=0a92203c-f359-43d7-b64c-94cf2f6187fe","ios":"levelo://app?vid=0a92203c-f359-43d7-b64c-94cf2f6187fe"},"vehicle_type_id":"4","last_reported":1737986967,"current_range_meters":36400,"station_id":"ce4bgip2rcd13ifvqbb0","pricing_plan_id":"cebpf4jnsgd1na2vs0mg"},{"bike_id":"a1a2450d-e8db-4c04-9d40-a4709700435c","system_id":"levelo_inurba_marseille","lat":43.3107,"lon":5.37742,"is_reserved":false,"is_disabled":false,"rental_uris":{"android":"levelo://app?vid=a1a2450d-e8db-4c04-9d40-a4709700435c","ios":"levelo://app?vid=a1a2450d-e8db-4c04-9d40-a4709700435c"},"vehicle_type_id":"4","last_reported":1737986967,"current_range_meters":34800,"station_id":"","pricing_plan_id":"cebpf4jnsgd1na2vs0mg"},{"bike_id":"e36a4602-82e3-44ba-9635-f30a8e900634","system_id":"levelo_inurba_marseille","lat":43.23155,"lon":5.43702,"is_reserved":false,"is_disabled":true,"rental_uris":{"android":"levelo://app?vid=e36a4602-82e3-44ba-9635-f30a8e900634","ios":"levelo://app?vid=e36a4602-82e3-44ba-9635-f30a8e900634"},"vehicle_type_id":"4","last_reported":1737986967,"current_range_meters":0,"station_id":"ce4bhmp2rcd13ifvqgog","pricing_plan_id":"cebpf4jnsgd1na2vs0mg"},{"bike_id":"86205309-d3b2-4a63-9380-524c5a6d3507","system_id":"levelo_inurba_marseille","lat":43.29252,"lon":5.38439,"is_reserved":false,"is_disabled":false,"rental_uris":{"android":"levelo://app?vid=86205309-d3b2-4a63-9380-524c5a6d3507","ios":"levelo://app?vid=86205309-d3b2-4a63-9380-524c5a6d3507"},"vehicle_type_id":"4","last_reported":1737986967,"current_range_meters":19200,"station_id":"ce4bh692rcd13ifvqea0","pricing_plan_id":"cebpf4jnsgd1na2vs0mg"},{"bike_id":"648d03c8-b834-4bef-b4b9-dd6d71c00d30","system_id":"levelo_inurba_marseille","lat":43.29897,"lon":5.3813,"is_reserved":false,"is_disabled":false,"rental_uris":{"android":"levelo://app?vid=648d03c8-b834-4bef-b4b9-dd6d71c00d30","ios":"levelo://app?vid=648d03c8-b834-4bef-b4b9-dd6d71c00d30"},"vehicle_type_id":"4","last_reported":1737986967,"current_range_meters":33200,"station_id":"ce4bgj12rcd13ifvqbc0","pricing_plan_id":"cebpf4jnsgd1na2vs0mg"},{"bike_id":"501442b0-17c1-4376-bd6e-f68e697411d2","system_id":"levelo_inurba_marseille","lat":43.29375,"lon":5.37867,"is_reserved":false,"is_disabled":false,"rental_uris":{"android":"levelo://app?vid=501442b0-17c1-4376-bd6e-f68e697411d2","ios":"levelo://app?vid=501442b0-17c1-4376-bd6e-f68e697411d2"},"vehicle_type_id":"4","last_reported":1737986967,"current_range_meters":30400,"station_id":"ce4bgjh2rcd13ifvqbf0","pricing_plan_id":"cebpf4jnsgd1na2vs0mg"},{"bike_id":"452fd38b-e4df-488e-a149-ed77d30c3f47","system_id":"levelo_inurba_marseille","lat":43.30141,"lon":5.38803,"is_reserved":false,"is_disabled":false,"rental_uris":{"android":"levelo://app?vid=452fd38b-e4df-488e-a149-ed77d30c3f47","ios":"levelo://app?vid=452fd38b-e4df-488e-a149-ed77d30c3f47"},"vehicle_type_id":"4","last_reported":1737986967,"current_range_meters":38800,"station_id":"ce4bghh2rcd13ifvqb60","pricing_plan_id":"cebpf4jnsgd1na2vs0mg"},{"bike_id":"653d8d6e-7fce-4665-8f1b-562f4e723745","system_id":"levelo_inurba_marseille","lat":43.29038,"lon":5.38627,"is_reserved":false,"is_disabled":false,"rental_uris":{"android":"levelo://app?vid=653d8d6e-7fce-4665-8f1b-562f4e723745","ios":"levelo://app?vid=653d8d6e-7fce-4665-8f1b-562f4e723745"},"vehicle_type_id":"4","last_reported":1737986967,"current_range_meters":36800,"station_id":"ce4bh4p2rcd13ifvqe0g","pricing_plan_id":"cebpf4jnsgd1na2vs0mg"},{"bike_id":"b2a77bcb-8636-4783-bb85-a20e6eec5fb2","system_id":"levelo_inurba_marseille","lat":43.27673,"lon":5.38913,"is_reserved":false,"is_disabled":false,"rental_uris":{"android":"levelo://app?vid=b2a77bcb-8636-4783-bb85-a20e6eec5fb2","ios":"levelo://app?vid=b2a77bcb-8636-4783-bb85-a20e6eec5fb2"},"vehicle_type_id":"4","last_reported":1737986967,"current_range_meters":30000,"station_id":"ce4bhi12rcd13ifvqfo0","pricing_plan_id":"cebpf4jnsgd1na2vs0mg"},{"bike_id":"4dc565cc-a3bd-411f-a8e9-38ac6331d3d4","system_id":"levelo_inurba_marseille","lat":43.23066,"lon":5.35492,"is_reserved":false,"is_disabled":false,"rental_uris":{"android":"levelo://app?vid=4dc565cc-a3bd-411f-a8e9-38ac6331d3d4","ios":"levelo://app?vid=4dc565cc-a3bd-411f-a8e9-38ac6331d3d4"},"vehicle_type_id":"4","last_reported":1737986967,"current_range_meters":4000,"station_id":"cpo3342slgdg3j2ifvpg","pricing_plan_id":"cebpf4jnsgd1na2vs0mg"},{"bike_id":"1387f3a8-728e-4bdc-977f-c1b044bf7c2a","system_id":"levelo_inurba_marseille","lat":43.30565,"lon":5.36537,"is_reserved":false,"is_disabled":false,"rental_uris":{"android":"levelo://app?vid=1387f3a8-728e-4bdc-977f-c1b044bf7c2a","ios":"levelo://app?vid=1387f3a8-728e-4bdc-977f-c1b044bf7c2a"},"vehicle_type_id":"4","last_reported":1737986967,"current_range_meters":38800,"station_id":"ce4bgs12rcd13ifvqcag","pricing_plan_id":"cebpf4jnsgd1na2vs0mg"},{"bike_id":"16604ce2-2308-4ae4-8ca9-662cb69b8150","system_id":"levelo_inurba_marseille","lat":43.31993,"lon":5.38137,"is_reserved":false,"is_disabled":false,"rental_uris":{"android":"levelo://app?vid=16604ce2-2308-4ae4-8ca9-662cb69b8150","ios":"levelo://app?vid=16604ce2-2308-4ae4-8ca9-662cb69b8150"},"vehicle_type_id":"4","last_reported":1737986967,"current_range_meters":35600,"station_id":"ce4bhr12rcd13ifvqhpg","pricing_plan_id":"cebpf4jnsgd1na2vs0mg"},{"bike_id":"6adc5ca7-0c2c-4563-b34e-99dac6c709d8","system_id":"levelo_inurba_marseille","lat":43.2989,"lon":5.37824,"is_reserved":false,"is_disabled":true,"rental_uris":{"android":"levelo://app?vid=6adc5ca7-0c2c-4563-b34e-99dac6c709d8","ios":"levelo://app?vid=6adc5ca7-0c2c-4563-b34e-99dac6c709d8"},"vehicle_type_id":"4","last_reported":1737986967,"current_range_meters":0,"station_id":"","pricing_plan_id":"cebpf4jnsgd1na2vs0mg"},{"bike_id":"35253051-607a-4f9b-b4b9-a430eb6c0e8c","system_id":"levelo_inurba_marseille","lat":43.28975,"lon":5.37827,"is_reserved":false,"is_disabled":false,"rental_uris":{"android":"levelo://app?vid=35253051-607a-4f9b-b4b9-a430eb6c0e8c","ios":"levelo://app?vid=35253051-607a-4f9b-b4b9-a430eb6c0e8c"},"vehicle_type_id":"4","last_reported":1737986967,"current_range_meters":34800,"station_id":"ce4bh9p2rcd13ifvqed0","pricing_plan_id":"cebpf4jnsgd1na2vs0mg"},{"bike_id":"576620ef-2a1b-476f-bb41-86a5ed362c07","system_id":"levelo_inurba_marseille","lat":43.28674,"lon":5.38675,"is_reserved":false,"is_disabled":false,"rental_uris":{"android":"levelo://app?vid=576620ef-2a1b-476f-bb41-86a5ed362c07","ios":"levelo://app?vid=576620ef-2a1b-476f-bb41-86a5ed362c07"},"vehicle_type_id":"4","last_reported":1737986967,"current_range_meters":14800,"station_id":"ce4bh492rcd13ifvqdug","pricing_plan_id":"cebpf4jnsgd1na2vs0mg"},{"bike_id":"6160634f-0378-409c-8e4f-bdc4e23b68ed","system_id":"levelo_inurba_marseille","lat":43.28098,"lon":5.37853,"is_reserved":false,"is_disabled":false,"rental_uris":{"android":"levelo://app?vid=6160634f-0378-409c-8e4f-bdc4e23b68ed","ios":"levelo://app?vid=6160634f-0378-409c-8e4f-bdc4e23b68ed"},"vehicle_type_id":"4","last_reported":1737986967,"current_range_meters":38800,"station_id":"ce4bha12rcd13ifvqee0","pricing_plan_id":"cebpf4jnsgd1na2vs0mg"},{"bike_id":"aa84763a-1cc7-4c1c-a4e5-928c84ccff9e","system_id":"levelo_inurba_marseille","lat":43.26942,"lon":5.38646,"is_reserved":false,"is_disabled":false,"rental_uris":{"android":"levelo://app?vid=aa84763a-1cc7-4c1c-a4e5-928c84ccff9e","ios":"levelo://app?vid=aa84763a-1cc7-4c1c-a4e5-928c84ccff9e"},"vehicle_type_id":"4","last_reported":1737986967,"current_range_meters":21600,"station_id":"ce4bhh92rcd13ifvqfh0","pricing_plan_id":"cebpf4jnsgd1na2vs0mg"},{"bike_id":"c7830262-ea23-45f4-9a23-990ed17ebf09","system_id":"levelo_inurba_marseille","lat":43.29805,"lon":5.39754,"is_reserved":false,"is_disabled":true,"rental_uris":{"android":"levelo://app?vid=c7830262-ea23-45f4-9a23-990ed17ebf09","ios":"levelo://app?vid=c7830262-ea23-45f4-9a23-990ed17ebf09"},"vehicle_type_id":"4","last_reported":1737986967,"current_range_meters":0,"station_id":"","pricing_plan_id":"cebpf4jnsgd1na2vs0mg"},{"bike_id":"5391c181-a086-4212-a5bf-32331815a848","system_id":"levelo_inurba_marseille","lat":43.31344,"lon":5.39699,"is_reserved":false,"is_disabled":false,"rental_uris":{"android":"levelo://app?vid=5391c181-a086-4212-a5bf-32331815a848","ios":"levelo://app?vid=5391c181-a086-4212-a5bf-32331815a848"},"vehicle_type_id":"4","last_reported":1737986967,"current_range_meters":4800,"station_id":"ce4bgvp2rcd13ifvqcu0","pricing_plan_id":"cebpf4jnsgd1na2vs0mg"},{"bike_id":"90602957-4c91-4e57-b63f-015fd55e350f","system_id":"levelo_inurba_marseille","lat":43.29086,"lon":5.38133,"is_reserved":false,"is_disabled":false,"rental_uris":{"android":"levelo://app?vid=90602957-4c91-4e57-b63f-015fd55e350f","ios":"levelo://app?vid=90602957-4c91-4e57-b63f-015fd55e350f"},"vehicle_type_id":"4","last_reported":1737986967,"current_range_meters":37600,"station_id":"ce4bh512rcd13ifvqe2g","pricing_plan_id":"cebpf4jnsgd1na2vs0mg"},{"bike_id":"7fc942fc-b8cf-424a-806f-ec87840357cf","system_id":"levelo_inurba_marseille","lat":43.27174,"lon":5.40998,"is_reserved":false,"is_disabled":false,"rental_uris":{"android":"levelo://app?vid=7fc942fc-b8cf-424a-806f-ec87840357cf","ios":"levelo://app?vid=7fc942fc-b8cf-424a-806f-ec87840357cf"},"vehicle_type_id":"4","last_reported":1737986967,"current_range_meters":36000,"station_id":"ce4bhl12rcd13ifvqgf0","pricing_plan_id":"cebpf4jnsgd1na2vs0mg"},{"bike_id":"83ab2271-68aa-4e51-92e2-d89b2328d98b","system_id":"levelo_inurba_marseille","lat":43.30586,"lon":5.36724,"is_reserved":false,"is_disabled":false,"rental_uris":{"android":"levelo://app?vid=83ab2271-68aa-4e51-92e2-d89b2328d98b","ios":"levelo://app?vid=83ab2271-68aa-4e51-92e2-d89b2328d98b"},"vehicle_type_id":"4","last_reported":1737986967,"current_range_meters":35600,"station_id":"ce4bgrp2rcd13ifvqc9g","pricing_plan_id":"cebpf4jnsgd1na2vs0mg"},{"bike_id":"5a504fe4-0ab6-4eed-b9ef-e27131441d67","system_id":"levelo_inurba_marseille","lat":43.30348,"lon":5.37903,"is_reserved":false,"is_disabled":false,"rental_uris":{"android":"levelo://app?vid=5a504fe4-0ab6-4eed-b9ef-e27131441d67","ios":"levelo://app?vid=5a504fe4-0ab6-4eed-b9ef-e27131441d67"},"vehicle_type_id":"4","last_reported":1737986967,"current_range_meters":25200,"station_id":"","pricing_plan_id":"cebpf4jnsgd1na2vs0mg"},{"bike_id":"11ba3b1e-84b5-4609-901b-fe845e306d2e","system_id":"levelo_inurba_marseille","lat":43.32454,"lon":5.3658,"is_reserved":false,"is_disabled":false,"rental_uris":{"android":"levelo://app?vid=11ba3b1e-84b5-4609-901b-fe845e306d2e","ios":"levelo://app?vid=11ba3b1e-84b5-4609-901b-fe845e306d2e"},"vehicle_type_id":"4","last_reported":1737986967,"current_range_meters":33600,"station_id":"ce4bhs12rcd13ifvqhvg","pricing_plan_id":"cebpf4jnsgd1na2vs0mg"},{"bike_id":"a96a9c3f-8052-41b8-ab4f-9251ab3e7399","system_id":"levelo_inurba_marseille","lat":43.28349,"lon":5.381,"is_reserved":false,"is_disabled":false,"rental_uris":{"android":"levelo://app?vid=a96a9c3f-8052-41b8-ab4f-9251ab3e7399","ios":"levelo://app?vid=a96a9c3f-8052-41b8-ab4f-9251ab3e7399"},"vehicle_type_id":"4","last_reported":1737986967,"current_range_meters":27600,"station_id":"ce4bh412rcd13ifvqdr0","pricing_plan_id":"cebpf4jnsgd1na2vs0mg"},{"bike_id":"eb36c5e8-c3c0-476d-b060-7034657a00b5","system_id":"levelo_inurba_marseille","lat":43.25715,"lon":5.41115,"is_reserved":false,"is_disabled":false,"rental_uris":{"android":"levelo://app?vid=eb36c5e8-c3c0-476d-b060-7034657a00b5","ios":"levelo://app?vid=eb36c5e8-c3c0-476d-b060-7034657a00b5"},"vehicle_type_id":"4","last_reported":1737986967,"current_range_meters":17200,"station_id":"ce4bhkp2rcd13ifvqgd0","pricing_plan_id":"cebpf4jnsgd1na2vs0mg"},{"bike_id":"142dd747-734f-4980-a166-385cc1d79171","system_id":"levelo_inurba_marseille","lat":43.29608,"lon":5.38107,"is_reserved":false,"is_disabled":true,"rental_uris":{"android":"levelo://app?vid=142dd747-734f-4980-a166-385cc1d79171","ios":"levelo://app?vid=142dd747-734f-4980-a166-385cc1d79171"},"vehicle_type_id":"4","last_reported":1737986967,"current_range_meters":400,"station_id":"ce4bgl12rcd13ifvqbo0","pricing_plan_id":"cebpf4jnsgd1na2vs0mg"},{"bike_id":"c9782c3d-3762-45ca-afe5-56710c6ca513","system_id":"levelo_inurba_marseille","lat":43.2648,"lon":5.39533,"is_reserved":false,"is_disabled":false,"rental_uris":{"android":"levelo://app?vid=c9782c3d-3762-45ca-afe5-56710c6ca513","ios":"levelo://app?vid=c9782c3d-3762-45ca-afe5-56710c6ca513"},"vehicle_type_id":"4","last_reported":1737986967,"current_range_meters":38000,"station_id":"ce4bhi12rcd13ifvqfq0","pricing_plan_id":"cebpf4jnsgd1na2vs0mg"},{"bike_id":"2a0ef1a5-19d2-45c5-aba4-81560bb7dcb8","system_id":"levelo_inurba_marseille","lat":43.29629,"lon":5.40593,"is_reserved":false,"is_disabled":false,"rental_uris":{"android":"levelo://app?vid=2a0ef1a5-19d2-45c5-aba4-81560bb7dcb8","ios":"levelo://app?vid=2a0ef1a5-19d2-45c5-aba4-81560bb7dcb8"},"vehicle_type_id":"4","last_reported":1737986967,"current_range_meters":8000,"station_id":"ce4bh0h2rcd13ifvqd60","pricing_plan_id":"cebpf4jnsgd1na2vs0mg"},{"bike_id":"9838cc78-2b53-49d3-ae13-82df62c4fd64","system_id":"levelo_inurba_marseille","lat":43.28406,"lon":5.40936,"is_reserved":false,"is_disabled":true,"rental_uris":{"android":"levelo://app?vid=9838cc78-2b53-49d3-ae13-82df62c4fd64","ios":"levelo://app?vid=9838cc78-2b53-49d3-ae13-82df62c4fd64"},"vehicle_type_id":"4","last_reported":1737986967,"current_range_meters":0,"station_id":"","pricing_plan_id":"cebpf4jnsgd1na2vs0mg"},{"bike_id":"afd325af-36c6-449e-b7e4-6c20481f77d6","system_id":"levelo_inurba_marseille","lat":43.29621,"lon":5.38091,"is_reserved":false,"is_disabled":false,"rental_uris":{"android":"levelo://app?vid=afd325af-36c6-449e-b7e4-6c20481f77d6","ios":"levelo://app?vid=afd325af-36c6-449e-b7e4-6c20481f77d6"},"vehicle_type_id":"4","last_reported":1737986967,"current_range_meters":9600,"station_id":"ce4bgl12rcd13ifvqbo0","pricing_plan_id":"cebpf4jnsgd1na2vs0mg"},{"bike_id":"f3a886a3-500d-4d32-a120-4a7101c0f911","system_id":"levelo_inurba_marseille","lat":43.26926,"lon":5.40252,"is_reserved":false,"is_disabled":false,"rental_uris":{"android":"levelo://app?vid=f3a886a3-500d-4d32-a120-4a7101c0f911","ios":"levelo://app?vid=f3a886a3-500d-4d32-a120-4a7101c0f911"},"vehicle_type_id":"4","last_reported":1737986967,"current_range_meters":38800,"station_id":"cjm6bp8fraef2m0cb0m0","pricing_plan_id":"cebpf4jnsgd1na2vs0mg"},{"bike_id":"266bce9b-ceec-4725-a357-412807926d04","system_id":"levelo_inurba_marseille","lat":43.28451,"lon":5.35898,"is_reserved":false,"is_disabled":false,"rental_uris":{"android":"levelo://app?vid=266bce9b-ceec-4725-a357-412807926d04","ios":"levelo://app?vid=266bce9b-ceec-4725-a357-412807926d04"},"vehicle_type_id":"4","last_reported":1737986967,"current_range_meters":35200,"station_id":"ce4bhah2rcd13ifvqei0","pricing_plan_id":"cebpf4jnsgd1na2vs0mg"},{"bike_id":"0ce0e85a-6d1e-4094-a1ee-38b907875a57","system_id":"levelo_inurba_marseille","lat":43.29003,"lon":5.37542,"is_reserved":false,"is_disabled":false,"rental_uris":{"android":"levelo://app?vid=0ce0e85a-6d1e-4094-a1ee-38b907875a57","ios":"levelo://app?vid=0ce0e85a-6d1e-4094-a1ee-38b907875a57"},"vehicle_type_id":"4","last_reported":1737986967,"current_range_meters":24800,"station_id":"ce4bh692rcd13ifvqe90","pricing_plan_id":"cebpf4jnsgd1na2vs0mg"},{"bike_id":"df05eb4a-164c-45fe-8261-1308961a41f3","system_id":"levelo_inurba_marseille","lat":43.281093,"lon":5.37855,"is_reserved":false,"is_disabled":false,"rental_uris":{"android":"levelo://app?vid=df05eb4a-164c-45fe-8261-1308961a41f3","ios":"levelo://app?vid=df05eb4a-164c-45fe-8261-1308961a41f3"},"vehicle_type_id":"4","last_reported":1737986967,"current_range_meters":35200,"station_id":"ce4bha12rcd13ifvqee0","pricing_plan_id":"cebpf4jnsgd1na2vs0mg"},{"bike_id":"8b7e99ea-0844-4687-b0a5-b9c64dedb3b0","system_id":"levelo_inurba_marseille","lat":43.29262,"lon":5.38424,"is_reserved":false,"is_disabled":false,"rental_uris":{"android":"levelo://app?vid=8b7e99ea-0844-4687-b0a5-b9c64dedb3b0","ios":"levelo://app?vid=8b7e99ea-0844-4687-b0a5-b9c64dedb3b0"},"vehicle_type_id":"4","last_reported":1737986967,"current_range_meters":22400,"station_id":"ce4bh692rcd13ifvqea0","pricing_plan_id":"cebpf4jnsgd1na2vs0mg"},{"bike_id":"2e0a8b86-b457-48a0-8577-213b01080398","system_id":"levelo_inurba_marseille","lat":43.23206,"lon":5.35549,"is_reserved":false,"is_disabled":false,"rental_uris":{"android":"levelo://app?vid=2e0a8b86-b457-48a0-8577-213b01080398","ios":"levelo://app?vid=2e0a8b86-b457-48a0-8577-213b01080398"},"vehicle_type_id":"4","last_reported":1737986967,"current_range_meters":38800,"station_id":"ce4bhu92rcd13ifvqi70","pricing_plan_id":"cebpf4jnsgd1na2vs0mg"},{"bike_id":"d2e14334-91cf-4683-8086-fad56bb3beac","system_id":"levelo_inurba_marseille","lat":43.30538,"lon":5.36525,"is_reserved":false,"is_disabled":false,"rental_uris":{"android":"levelo://app?vid=d2e14334-91cf-4683-8086-fad56bb3beac","ios":"levelo://app?vid=d2e14334-91cf-4683-8086-fad56bb3beac"},"vehicle_type_id":"4","last_reported":1737986967,"current_range_meters":25200,"station_id":"ce4bgs12rcd13ifvqcag","pricing_plan_id":"cebpf4jnsgd1na2vs0mg"},{"bike_id":"10d47146-d4b2-4916-befd-b233de062c52","system_id":"levelo_inurba_marseille","lat":43.27628,"lon":5.36108,"is_reserved":false,"is_disabled":false,"rental_uris":{"android":"levelo://app?vid=10d47146-d4b2-4916-befd-b233de062c52","ios":"levelo://app?vid=10d47146-d4b2-4916-befd-b233de062c52"},"vehicle_type_id":"4","last_reported":1737986967,"current_range_meters":9600,"station_id":"ce4bgj92rcd13ifvqbe0","pricing_plan_id":"cebpf4jnsgd1na2vs0mg"},{"bike_id":"d979d8d2-ec65-47af-9229-e4270aab279a","system_id":"levelo_inurba_marseille","lat":43.23077,"lon":5.35493,"is_reserved":false,"is_disabled":false,"rental_uris":{"android":"levelo://app?vid=d979d8d2-ec65-47af-9229-e4270aab279a","ios":"levelo://app?vid=d979d8d2-ec65-47af-9229-e4270aab279a"},"vehicle_type_id":"4","last_reported":1737986967,"current_range_meters":27600,"station_id":"cpo3342slgdg3j2ifvpg","pricing_plan_id":"cebpf4jnsgd1na2vs0mg"},{"bike_id":"689861d0-6f71-4ea0-a024-f23cf4b0663e","system_id":"levelo_inurba_marseille","lat":43.3057,"lon":5.36521,"is_reserved":false,"is_disabled":false,"rental_uris":{"android":"levelo://app?vid=689861d0-6f71-4ea0-a024-f23cf4b0663e","ios":"levelo://app?vid=689861d0-6f71-4ea0-a024-f23cf4b0663e"},"vehicle_type_id":"4","last_reported":1737986967,"current_range_meters":29600,"station_id":"ce4bgs12rcd13ifvqcag","pricing_plan_id":"cebpf4jnsgd1na2vs0mg"},{"bike_id":"2b98495a-891d-4aca-9713-4c133c7457b1","system_id":"levelo_inurba_marseille","lat":43.28722,"lon":5.37958,"is_reserved":false,"is_disabled":false,"rental_uris":{"android":"levelo://app?vid=2b98495a-891d-4aca-9713-4c133c7457b1","ios":"levelo://app?vid=2b98495a-891d-4aca-9713-4c133c7457b1"},"vehicle_type_id":"4","last_reported":1737986967,"current_range_meters":39200,"station_id":"ce4bh9p2rcd13ifvqec0","pricing_plan_id":"cebpf4jnsgd1na2vs0mg"},{"bike_id":"d43bd9f9-e07d-4876-8853-8109acdc89d9","system_id":"levelo_inurba_marseille","lat":43.29785,"lon":5.40412,"is_reserved":false,"is_disabled":false,"rental_uris":{"android":"levelo://app?vid=d43bd9f9-e07d-4876-8853-8109acdc89d9","ios":"levelo://app?vid=d43bd9f9-e07d-4876-8853-8109acdc89d9"},"vehicle_type_id":"4","last_reported":1737986967,"current_range_meters":39200,"station_id":"ce4bh112rcd13ifvqd90","pricing_plan_id":"cebpf4jnsgd1na2vs0mg"},{"bike_id":"208b9aff-e4aa-4202-9cfa-c801b23f279c","system_id":"levelo_inurba_marseille","lat":43.28356,"lon":5.38105,"is_reserved":false,"is_disabled":false,"rental_uris":{"android":"levelo://app?vid=208b9aff-e4aa-4202-9cfa-c801b23f279c","ios":"levelo://app?vid=208b9aff-e4aa-4202-9cfa-c801b23f279c"},"vehicle_type_id":"4","last_reported":1737986967,"current_range_meters":38800,"station_id":"ce4bh412rcd13ifvqdr0","pricing_plan_id":"cebpf4jnsgd1na2vs0mg"},{"bike_id":"0e18c49b-d8e0-4fef-b0f7-ad67d4b19bb5","system_id":"levelo_inurba_marseille","lat":43.30438,"lon":5.3975,"is_reserved":false,"is_disabled":false,"rental_uris":{"android":"levelo://app?vid=0e18c49b-d8e0-4fef-b0f7-ad67d4b19bb5","ios":"levelo://app?vid=0e18c49b-d8e0-4fef-b0f7-ad67d4b19bb5"},"vehicle_type_id":"4","last_reported":1737986967,"current_range_meters":31200,"station_id":"ce4bh092rcd13ifvqd20","pricing_plan_id":"cebpf4jnsgd1na2vs0mg"},{"bike_id":"ae00de2f-f31f-40c5-afd5-77a43823ef3d","system_id":"levelo_inurba_marseille","lat":43.33045,"lon":5.39037,"is_reserved":false,"is_disabled":false,"rental_uris":{"android":"levelo://app?vid=ae00de2f-f31f-40c5-afd5-77a43823ef3d","ios":"levelo://app?vid=ae00de2f-f31f-40c5-afd5-77a43823ef3d"},"vehicle_type_id":"4","last_reported":1737986967,"current_range_meters":38000,"station_id":"ce4bhr92rcd13ifvqhrg","pricing_plan_id":"cebpf4jnsgd1na2vs0mg"},{"bike_id":"c75ee025-407d-4559-b6dc-6fbf47f31966","system_id":"levelo_inurba_marseille","lat":43.3229,"lon":5.38267,"is_reserved":false,"is_disabled":false,"rental_uris":{"android":"levelo://app?vid=c75ee025-407d-4559-b6dc-6fbf47f31966","ios":"levelo://app?vid=c75ee025-407d-4559-b6dc-6fbf47f31966"},"vehicle_type_id":"4","last_reported":1737986967,"current_range_meters":22000,"station_id":"ce4bhr12rcd13ifvqhqg","pricing_plan_id":"cebpf4jnsgd1na2vs0mg"},{"bike_id":"dfa3282a-f6e4-4f0c-81ab-9ea08b28ffea","system_id":"levelo_inurba_marseille","lat":43.28921,"lon":5.38387,"is_reserved":false,"is_disabled":false,"rental_uris":{"android":"levelo://app?vid=dfa3282a-f6e4-4f0c-81ab-9ea08b28ffea","ios":"levelo://app?vid=dfa3282a-f6e4-4f0c-81ab-9ea08b28ffea"},"vehicle_type_id":"4","last_reported":1737986967,"current_range_meters":8000,"station_id":"ce4bh612rcd13ifvqe6g","pricing_plan_id":"cebpf4jnsgd1na2vs0mg"},{"bike_id":"fb708c3b-66e2-401e-839e-8d1bb25b5e2b","system_id":"levelo_inurba_marseille","lat":43.3049,"lon":5.37903,"is_reserved":false,"is_disabled":false,"rental_uris":{"android":"levelo://app?vid=fb708c3b-66e2-401e-839e-8d1bb25b5e2b","ios":"levelo://app?vid=fb708c3b-66e2-401e-839e-8d1bb25b5e2b"},"vehicle_type_id":"4","last_reported":1737986967,"current_range_meters":37600,"station_id":"ce4bgup2rcd13ifvqcn0","pricing_plan_id":"cebpf4jnsgd1na2vs0mg"},{"bike_id":"d6a801c4-a651-4f81-a19a-d70f1c451d0f","system_id":"levelo_inurba_marseille","lat":43.30544,"lon":5.36525,"is_reserved":false,"is_disabled":false,"rental_uris":{"android":"levelo://app?vid=d6a801c4-a651-4f81-a19a-d70f1c451d0f","ios":"levelo://app?vid=d6a801c4-a651-4f81-a19a-d70f1c451d0f"},"vehicle_type_id":"4","last_reported":1737986967,"current_range_meters":18000,"station_id":"ce4bgs12rcd13ifvqcag","pricing_plan_id":"cebpf4jnsgd1na2vs0mg"},{"bike_id":"75214a19-3086-4aab-8ba6-a177978da634","system_id":"levelo_inurba_marseille","lat":43.29896,"lon":5.4367,"is_reserved":false,"is_disabled":false,"rental_uris":{"android":"levelo://app?vid=75214a19-3086-4aab-8ba6-a177978da634","ios":"levelo://app?vid=75214a19-3086-4aab-8ba6-a177978da634"},"vehicle_type_id":"4","last_reported":1737986967,"current_range_meters":38800,"station_id":"ce4bhpp2rcd13ifvqhfg","pricing_plan_id":"cebpf4jnsgd1na2vs0mg"},{"bike_id":"30bbb00e-1612-4a25-b2e9-c8ad656fb58a","system_id":"levelo_inurba_marseille","lat":43.33738,"lon":5.39169,"is_reserved":false,"is_disabled":false,"rental_uris":{"android":"levelo://app?vid=30bbb00e-1612-4a25-b2e9-c8ad656fb58a","ios":"levelo://app?vid=30bbb00e-1612-4a25-b2e9-c8ad656fb58a"},"vehicle_type_id":"4","last_reported":1737986967,"current_range_meters":38800,"station_id":"ce4bhr92rcd13ifvqhsg","pricing_plan_id":"cebpf4jnsgd1na2vs0mg"},{"bike_id":"887816bd-51b2-4867-b788-cf8bf7d80444","system_id":"levelo_inurba_marseille","lat":43.33745,"lon":5.39175,"is_reserved":false,"is_disabled":false,"rental_uris":{"android":"levelo://app?vid=887816bd-51b2-4867-b788-cf8bf7d80444","ios":"levelo://app?vid=887816bd-51b2-4867-b788-cf8bf7d80444"},"vehicle_type_id":"4","last_reported":1737986967,"current_range_meters":30000,"station_id":"ce4bhr92rcd13ifvqhsg","pricing_plan_id":"cebpf4jnsgd1na2vs0mg"},{"bike_id":"4cb596df-44fd-4741-9495-cfdb53019931","system_id":"levelo_inurba_marseille","lat":43.23159,"lon":5.43713,"is_reserved":false,"is_disabled":false,"rental_uris":{"android":"levelo://app?vid=4cb596df-44fd-4741-9495-cfdb53019931","ios":"levelo://app?vid=4cb596df-44fd-4741-9495-cfdb53019931"},"vehicle_type_id":"4","last_reported":1737986967,"current_range_meters":26800,"station_id":"ce4bhmp2rcd13ifvqgog","pricing_plan_id":"cebpf4jnsgd1na2vs0mg"},{"bike_id":"bcc149d8-6418-4b80-b7f4-9e41a4dc2c09","system_id":"levelo_inurba_marseille","lat":43.30555,"lon":5.36524,"is_reserved":false,"is_disabled":false,"rental_uris":{"android":"levelo://app?vid=bcc149d8-6418-4b80-b7f4-9e41a4dc2c09","ios":"levelo://app?vid=bcc149d8-6418-4b80-b7f4-9e41a4dc2c09"},"vehicle_type_id":"4","last_reported":1737986967,"current_range_meters":35600,"station_id":"ce4bgs12rcd13ifvqcag","pricing_plan_id":"cebpf4jnsgd1na2vs0mg"},{"bike_id":"7e75ec61-2677-4a6a-80b3-987eab312c3e","system_id":"levelo_inurba_marseille","lat":43.29606,"lon":5.38103,"is_reserved":false,"is_disabled":false,"rental_uris":{"android":"levelo://app?vid=7e75ec61-2677-4a6a-80b3-987eab312c3e","ios":"levelo://app?vid=7e75ec61-2677-4a6a-80b3-987eab312c3e"},"vehicle_type_id":"4","last_reported":1737986967,"current_range_meters":38400,"station_id":"ce4bgl12rcd13ifvqbo0","pricing_plan_id":"cebpf4jnsgd1na2vs0mg"},{"bike_id":"acf4cec9-04b2-432c-83ba-19cc7ebac443","system_id":"levelo_inurba_marseille","lat":43.29037,"lon":5.38134,"is_reserved":false,"is_disabled":true,"rental_uris":{"android":"levelo://app?vid=acf4cec9-04b2-432c-83ba-19cc7ebac443","ios":"levelo://app?vid=acf4cec9-04b2-432c-83ba-19cc7ebac443"},"vehicle_type_id":"4","last_reported":1737986967,"current_range_meters":23200,"station_id":"ce4bh4p2rcd13ifvqe1g","pricing_plan_id":"cebpf4jnsgd1na2vs0mg"},{"bike_id":"3c9c9088-9c27-4609-bc62-8218c0dc2be8","system_id":"levelo_inurba_marseille","lat":43.23203,"lon":5.35558,"is_reserved":false,"is_disabled":false,"rental_uris":{"android":"levelo://app?vid=3c9c9088-9c27-4609-bc62-8218c0dc2be8","ios":"levelo://app?vid=3c9c9088-9c27-4609-bc62-8218c0dc2be8"},"vehicle_type_id":"4","last_reported":1737986967,"current_range_meters":37600,"station_id":"ce4bhu92rcd13ifvqi70","pricing_plan_id":"cebpf4jnsgd1na2vs0mg"},{"bike_id":"8a4fd9c1-126f-44bd-8919-7cf37f162b5e","system_id":"levelo_inurba_marseille","lat":43.28099,"lon":5.42526,"is_reserved":false,"is_disabled":false,"rental_uris":{"android":"levelo://app?vid=8a4fd9c1-126f-44bd-8919-7cf37f162b5e","ios":"levelo://app?vid=8a4fd9c1-126f-44bd-8919-7cf37f162b5e"},"vehicle_type_id":"4","last_reported":1737986967,"current_range_meters":30800,"station_id":"ce4bhnh2rcd13ifvqgug","pricing_plan_id":"cebpf4jnsgd1na2vs0mg"},{"bike_id":"02a65308-936d-4187-b4db-c0afc2d3e10c","system_id":"levelo_inurba_marseille","lat":43.25901,"lon":5.4087,"is_reserved":false,"is_disabled":false,"rental_uris":{"android":"levelo://app?vid=02a65308-936d-4187-b4db-c0afc2d3e10c","ios":"levelo://app?vid=02a65308-936d-4187-b4db-c0afc2d3e10c"},"vehicle_type_id":"4","last_reported":1737986967,"current_range_meters":38000,"station_id":"ce4bhm92rcd13ifvqglg","pricing_plan_id":"cebpf4jnsgd1na2vs0mg"},{"bike_id":"5ef42bac-1a09-4f8c-9fe8-ab058034fe56","system_id":"levelo_inurba_marseille","lat":43.29885,"lon":5.43648,"is_reserved":false,"is_disabled":false,"rental_uris":{"android":"levelo://app?vid=5ef42bac-1a09-4f8c-9fe8-ab058034fe56","ios":"levelo://app?vid=5ef42bac-1a09-4f8c-9fe8-ab058034fe56"},"vehicle_type_id":"4","last_reported":1737986967,"current_range_meters":38800,"station_id":"ce4bhpp2rcd13ifvqhfg","pricing_plan_id":"cebpf4jnsgd1na2vs0mg"},{"bike_id":"753c3ea2-d8b6-423c-b75c-0eb720ec3bbf","system_id":"levelo_inurba_marseille","lat":43.27568,"lon":5.3842,"is_reserved":false,"is_disabled":false,"rental_uris":{"android":"levelo://app?vid=753c3ea2-d8b6-423c-b75c-0eb720ec3bbf","ios":"levelo://app?vid=753c3ea2-d8b6-423c-b75c-0eb720ec3bbf"},"vehicle_type_id":"4","last_reported":1737986967,"current_range_meters":37600,"station_id":"ce4bhh92rcd13ifvqfi0","pricing_plan_id":"cebpf4jnsgd1na2vs0mg"},{"bike_id":"84c145c3-c63a-4d22-b8d5-94f667a178c4","system_id":"levelo_inurba_marseille","lat":43.28103,"lon":5.37859,"is_reserved":false,"is_disabled":false,"rental_uris":{"android":"levelo://app?vid=84c145c3-c63a-4d22-b8d5-94f667a178c4","ios":"levelo://app?vid=84c145c3-c63a-4d22-b8d5-94f667a178c4"},"vehicle_type_id":"4","last_reported":1737986967,"current_range_meters":10800,"station_id":"ce4bha12rcd13ifvqee0","pricing_plan_id":"cebpf4jnsgd1na2vs0mg"},{"bike_id":"0e15d77d-1543-419f-bfee-5bc37433fa77","system_id":"levelo_inurba_marseille","lat":43.30368,"lon":5.37719,"is_reserved":false,"is_disabled":false,"rental_uris":{"android":"levelo://app?vid=0e15d77d-1543-419f-bfee-5bc37433fa77","ios":"levelo://app?vid=0e15d77d-1543-419f-bfee-5bc37433fa77"},"vehicle_type_id":"4","last_reported":1737986967,"current_range_meters":37600,"station_id":"","pricing_plan_id":"cebpf4jnsgd1na2vs0mg"},{"bike_id":"d29433a3-e75f-45c4-b35e-23017dccdb61","system_id":"levelo_inurba_marseille","lat":43.25077,"lon":5.39512,"is_reserved":false,"is_disabled":false,"rental_uris":{"android":"levelo://app?vid=d29433a3-e75f-45c4-b35e-23017dccdb61","ios":"levelo://app?vid=d29433a3-e75f-45c4-b35e-23017dccdb61"},"vehicle_type_id":"4","last_reported":1737986967,"current_range_meters":32000,"station_id":"ce4bhm12rcd13ifvqgkg","pricing_plan_id":"cebpf4jnsgd1na2vs0mg"},{"bike_id":"45568187-d384-4625-ae97-7275220b13ab","system_id":"levelo_inurba_marseille","lat":43.31371,"lon":5.38495,"is_reserved":false,"is_disabled":false,"rental_uris":{"android":"levelo://app?vid=45568187-d384-4625-ae97-7275220b13ab","ios":"levelo://app?vid=45568187-d384-4625-ae97-7275220b13ab"},"vehicle_type_id":"4","last_reported":1737986967,"current_range_meters":30400,"station_id":"ce4bgt92rcd13ifvqcf0","pricing_plan_id":"cebpf4jnsgd1na2vs0mg"},{"bike_id":"8707dca8-5fb6-4e35-a1ec-1f30a01fea05","system_id":"levelo_inurba_marseille","lat":43.29573,"lon":5.42291,"is_reserved":false,"is_disabled":false,"rental_uris":{"android":"levelo://app?vid=8707dca8-5fb6-4e35-a1ec-1f30a01fea05","ios":"levelo://app?vid=8707dca8-5fb6-4e35-a1ec-1f30a01fea05"},"vehicle_type_id":"4","last_reported":1737986967,"current_range_meters":38800,"station_id":"ce4bhph2rcd13ifvqhdg","pricing_plan_id":"cebpf4jnsgd1na2vs0mg"},{"bike_id":"b5f9da4a-0440-436b-86f5-ecc367051a64","system_id":"levelo_inurba_marseille","lat":43.29842,"lon":5.36279,"is_reserved":false,"is_disabled":false,"rental_uris":{"android":"levelo://app?vid=b5f9da4a-0440-436b-86f5-ecc367051a64","ios":"levelo://app?vid=b5f9da4a-0440-436b-86f5-ecc367051a64"},"vehicle_type_id":"4","last_reported":1737986967,"current_range_meters":30800,"station_id":"ce4bgpp2rcd13ifvqc3g","pricing_plan_id":"cebpf4jnsgd1na2vs0mg"},{"bike_id":"4bfd37c7-7991-4351-a7ca-51760d85e8d6","system_id":"levelo_inurba_marseille","lat":43.28577,"lon":5.39499,"is_reserved":false,"is_disabled":false,"rental_uris":{"android":"levelo://app?vid=4bfd37c7-7991-4351-a7ca-51760d85e8d6","ios":"levelo://app?vid=4bfd37c7-7991-4351-a7ca-51760d85e8d6"},"vehicle_type_id":"4","last_reported":1737986967,"current_range_meters":38800,"station_id":"ce4bh292rcd13ifvqdg0","pricing_plan_id":"cebpf4jnsgd1na2vs0mg"},{"bike_id":"ec50d851-d167-489c-aa47-6a993f35251b","system_id":"levelo_inurba_marseille","lat":43.29818,"lon":5.38095,"is_reserved":false,"is_disabled":false,"rental_uris":{"android":"levelo://app?vid=ec50d851-d167-489c-aa47-6a993f35251b","ios":"levelo://app?vid=ec50d851-d167-489c-aa47-6a993f35251b"},"vehicle_type_id":"4","last_reported":1737986967,"current_range_meters":38400,"station_id":"ce4bgip2rcd13ifvqbb0","pricing_plan_id":"cebpf4jnsgd1na2vs0mg"},{"bike_id":"683634b6-a9aa-4806-a38f-1edd083d479f","system_id":"levelo_inurba_marseille","lat":43.29789,"lon":5.381,"is_reserved":false,"is_disabled":false,"rental_uris":{"android":"levelo://app?vid=683634b6-a9aa-4806-a38f-1edd083d479f","ios":"levelo://app?vid=683634b6-a9aa-4806-a38f-1edd083d479f"},"vehicle_type_id":"4","last_reported":1737986967,"current_range_meters":22400,"station_id":"ce4bgip2rcd13ifvqbb0","pricing_plan_id":"cebpf4jnsgd1na2vs0mg"},{"bike_id":"2256710f-428a-4b6c-afaf-f485da875c48","system_id":"levelo_inurba_marseille","lat":43.28628,"lon":5.35094,"is_reserved":false,"is_disabled":false,"rental_uris":{"android":"levelo://app?vid=2256710f-428a-4b6c-afaf-f485da875c48","ios":"levelo://app?vid=2256710f-428a-4b6c-afaf-f485da875c48"},"vehicle_type_id":"4","last_reported":1737986967,"current_range_meters":19600,"station_id":"ce4bhch2rcd13ifvqeug","pricing_plan_id":"cebpf4jnsgd1na2vs0mg"},{"bike_id":"ab2c796a-c23b-4a3a-9534-777b873d6a05","system_id":"levelo_inurba_marseille","lat":43.24168,"lon":5.36399,"is_reserved":false,"is_disabled":false,"rental_uris":{"android":"levelo://app?vid=ab2c796a-c23b-4a3a-9534-777b873d6a05","ios":"levelo://app?vid=ab2c796a-c23b-4a3a-9534-777b873d6a05"},"vehicle_type_id":"4","last_reported":1737986967,"current_range_meters":22400,"station_id":"cpo36qri1sfpv3e86is0","pricing_plan_id":"cebpf4jnsgd1na2vs0mg"},{"bike_id":"9d01ac1d-f000-4abb-9a72-7b68ff9d60b7","system_id":"levelo_inurba_marseille","lat":43.30949,"lon":5.38996,"is_reserved":false,"is_disabled":false,"rental_uris":{"android":"levelo://app?vid=9d01ac1d-f000-4abb-9a72-7b68ff9d60b7","ios":"levelo://app?vid=9d01ac1d-f000-4abb-9a72-7b68ff9d60b7"},"vehicle_type_id":"4","last_reported":1737986967,"current_range_meters":38800,"station_id":"ce4bgup2rcd13ifvqco0","pricing_plan_id":"cebpf4jnsgd1na2vs0mg"},{"bike_id":"e2a8d0be-1945-4d70-8515-7cde3a6cda5c","system_id":"levelo_inurba_marseille","lat":43.28467,"lon":5.38547,"is_reserved":false,"is_disabled":false,"rental_uris":{"android":"levelo://app?vid=e2a8d0be-1945-4d70-8515-7cde3a6cda5c","ios":"levelo://app?vid=e2a8d0be-1945-4d70-8515-7cde3a6cda5c"},"vehicle_type_id":"4","last_reported":1737986967,"current_range_meters":38800,"station_id":"ce4bh8p2rcd13ifvqeb0","pricing_plan_id":"cebpf4jnsgd1na2vs0mg"},{"bike_id":"5fecc68f-993f-403a-b01f-310bc7fe5b45","system_id":"levelo_inurba_marseille","lat":43.29897,"lon":5.3973,"is_reserved":false,"is_disabled":false,"rental_uris":{"android":"levelo://app?vid=5fecc68f-993f-403a-b01f-310bc7fe5b45","ios":"levelo://app?vid=5fecc68f-993f-403a-b01f-310bc7fe5b45"},"vehicle_type_id":"4","last_reported":1737986967,"current_range_meters":39200,"station_id":"ce4bh0h2rcd13ifvqd50","pricing_plan_id":"cebpf4jnsgd1na2vs0mg"},{"bike_id":"32778fbb-5606-4264-841f-c8160ed30ae8","system_id":"levelo_inurba_marseille","lat":43.30956,"lon":5.40151,"is_reserved":false,"is_disabled":false,"rental_uris":{"android":"levelo://app?vid=32778fbb-5606-4264-841f-c8160ed30ae8","ios":"levelo://app?vid=32778fbb-5606-4264-841f-c8160ed30ae8"},"vehicle_type_id":"4","last_reported":1737986967,"current_range_meters":27600,"station_id":"ce4bgvp2rcd13ifvqct0","pricing_plan_id":"cebpf4jnsgd1na2vs0mg"},{"bike_id":"6d72bc46-08ee-4661-b6e3-5061a90532af","system_id":"levelo_inurba_marseille","lat":43.29268,"lon":5.38437,"is_reserved":false,"is_disabled":false,"rental_uris":{"android":"levelo://app?vid=6d72bc46-08ee-4661-b6e3-5061a90532af","ios":"levelo://app?vid=6d72bc46-08ee-4661-b6e3-5061a90532af"},"vehicle_type_id":"4","last_reported":1737986967,"current_range_meters":22800,"station_id":"ce4bh692rcd13ifvqea0","pricing_plan_id":"cebpf4jnsgd1na2vs0mg"},{"bike_id":"0399208a-0ae4-4114-a545-81dadc8a561b","system_id":"levelo_inurba_marseille","lat":43.28739,"lon":5.36086,"is_reserved":false,"is_disabled":false,"rental_uris":{"android":"levelo://app?vid=0399208a-0ae4-4114-a545-81dadc8a561b","ios":"levelo://app?vid=0399208a-0ae4-4114-a545-81dadc8a561b"},"vehicle_type_id":"4","last_reported":1737986967,"current_range_meters":39200,"station_id":"cki0cbj6b192h4jlfktg","pricing_plan_id":"cebpf4jnsgd1na2vs0mg"},{"bike_id":"1c10e06c-5656-40fb-b44d-69bd09fef240","system_id":"levelo_inurba_marseille","lat":43.25017,"lon":5.38942,"is_reserved":false,"is_disabled":false,"rental_uris":{"android":"levelo://app?vid=1c10e06c-5656-40fb-b44d-69bd09fef240","ios":"levelo://app?vid=1c10e06c-5656-40fb-b44d-69bd09fef240"},"vehicle_type_id":"4","last_reported":1737986967,"current_range_meters":20400,"station_id":"ce4bhgp2rcd13ifvqfd0","pricing_plan_id":"cebpf4jnsgd1na2vs0mg"},{"bike_id":"b8af3afe-e03d-4e36-83a9-6193299222b5","system_id":"levelo_inurba_marseille","lat":43.29259,"lon":5.40908,"is_reserved":false,"is_disabled":false,"rental_uris":{"android":"levelo://app?vid=b8af3afe-e03d-4e36-83a9-6193299222b5","ios":"levelo://app?vid=b8af3afe-e03d-4e36-83a9-6193299222b5"},"vehicle_type_id":"4","last_reported":1737986967,"current_range_meters":13600,"station_id":"ce4bh192rcd13ifvqdc0","pricing_plan_id":"cebpf4jnsgd1na2vs0mg"},{"bike_id":"1c35c755-8b1c-439e-8798-f1a001a3969d","system_id":"levelo_inurba_marseille","lat":43.28115,"lon":5.37845,"is_reserved":false,"is_disabled":false,"rental_uris":{"android":"levelo://app?vid=1c35c755-8b1c-439e-8798-f1a001a3969d","ios":"levelo://app?vid=1c35c755-8b1c-439e-8798-f1a001a3969d"},"vehicle_type_id":"4","last_reported":1737986967,"current_range_meters":38400,"station_id":"ce4bha12rcd13ifvqee0","pricing_plan_id":"cebpf4jnsgd1na2vs0mg"},{"bike_id":"84c29870-d5ee-4bb1-bb91-42582a1a5dcb","system_id":"levelo_inurba_marseille","lat":43.30932,"lon":5.40139,"is_reserved":false,"is_disabled":false,"rental_uris":{"android":"levelo://app?vid=84c29870-d5ee-4bb1-bb91-42582a1a5dcb","ios":"levelo://app?vid=84c29870-d5ee-4bb1-bb91-42582a1a5dcb"},"vehicle_type_id":"4","last_reported":1737986967,"current_range_meters":38800,"station_id":"ce4bgvp2rcd13ifvqct0","pricing_plan_id":"cebpf4jnsgd1na2vs0mg"},{"bike_id":"1215536e-8e5b-4442-b4f3-50d477e17382","system_id":"levelo_inurba_marseille","lat":43.29817,"lon":5.38092,"is_reserved":false,"is_disabled":false,"rental_uris":{"android":"levelo://app?vid=1215536e-8e5b-4442-b4f3-50d477e17382","ios":"levelo://app?vid=1215536e-8e5b-4442-b4f3-50d477e17382"},"vehicle_type_id":"4","last_reported":1737986967,"current_range_meters":28000,"station_id":"ce4bgip2rcd13ifvqbb0","pricing_plan_id":"cebpf4jnsgd1na2vs0mg"},{"bike_id":"5f59fe26-afd4-4848-8f29-478d07cd6079","system_id":"levelo_inurba_marseille","lat":43.290466,"lon":5.375776,"is_reserved":false,"is_disabled":false,"rental_uris":{"android":"levelo://app?vid=5f59fe26-afd4-4848-8f29-478d07cd6079","ios":"levelo://app?vid=5f59fe26-afd4-4848-8f29-478d07cd6079"},"vehicle_type_id":"4","last_reported":1737986967,"current_range_meters":32000,"station_id":"ce4bh692rcd13ifvqe90","pricing_plan_id":"cebpf4jnsgd1na2vs0mg"},{"bike_id":"3c0836bb-c5da-44ee-bd40-2ce4962bb8f7","system_id":"levelo_inurba_marseille","lat":43.287,"lon":5.39997,"is_reserved":false,"is_disabled":false,"rental_uris":{"android":"levelo://app?vid=3c0836bb-c5da-44ee-bd40-2ce4962bb8f7","ios":"levelo://app?vid=3c0836bb-c5da-44ee-bd40-2ce4962bb8f7"},"vehicle_type_id":"4","last_reported":1737986967,"current_range_meters":32000,"station_id":"ce4bho92rcd13ifvqh3g","pricing_plan_id":"cebpf4jnsgd1na2vs0mg"},{"bike_id":"8ff14717-0c49-4da7-a485-3411811742b9","system_id":"levelo_inurba_marseille","lat":43.29032,"lon":5.38124,"is_reserved":false,"is_disabled":false,"rental_uris":{"android":"levelo://app?vid=8ff14717-0c49-4da7-a485-3411811742b9","ios":"levelo://app?vid=8ff14717-0c49-4da7-a485-3411811742b9"},"vehicle_type_id":"4","last_reported":1737986967,"current_range_meters":18800,"station_id":"ce4bh4p2rcd13ifvqe1g","pricing_plan_id":"cebpf4jnsgd1na2vs0mg"},{"bike_id":"971c02df-90d5-4965-b3fb-dccf83f36ae7","system_id":"levelo_inurba_marseille","lat":43.28722,"lon":5.37936,"is_reserved":false,"is_disabled":false,"rental_uris":{"android":"levelo://app?vid=971c02df-90d5-4965-b3fb-dccf83f36ae7","ios":"levelo://app?vid=971c02df-90d5-4965-b3fb-dccf83f36ae7"},"vehicle_type_id":"4","last_reported":1737986967,"current_range_meters":22000,"station_id":"ce4bh9p2rcd13ifvqec0","pricing_plan_id":"cebpf4jnsgd1na2vs0mg"},{"bike_id":"fb718f77-42be-4664-9cdd-65305dc1c1ba","system_id":"levelo_inurba_marseille","lat":43.23182,"lon":5.39993,"is_reserved":false,"is_disabled":false,"rental_uris":{"android":"levelo://app?vid=fb718f77-42be-4664-9cdd-65305dc1c1ba","ios":"levelo://app?vid=fb718f77-42be-4664-9cdd-65305dc1c1ba"},"vehicle_type_id":"4","last_reported":1737986967,"current_range_meters":20000,"station_id":"ce4bhn12rcd13ifvqgqg","pricing_plan_id":"cebpf4jnsgd1na2vs0mg"},{"bike_id":"65544741-ccad-4fec-b358-0a12628434d5","system_id":"levelo_inurba_marseille","lat":43.2397,"lon":5.36612,"is_reserved":false,"is_disabled":false,"rental_uris":{"android":"levelo://app?vid=65544741-ccad-4fec-b358-0a12628434d5","ios":"levelo://app?vid=65544741-ccad-4fec-b358-0a12628434d5"},"vehicle_type_id":"4","last_reported":1737986967,"current_range_meters":10800,"station_id":"ce4bhi12rcd13ifvqfp0","pricing_plan_id":"cebpf4jnsgd1na2vs0mg"},{"bike_id":"1346ff93-9ddb-4093-aa5d-b6cb09dfef3c","system_id":"levelo_inurba_marseille","lat":43.28626,"lon":5.35104,"is_reserved":false,"is_disabled":false,"rental_uris":{"android":"levelo://app?vid=1346ff93-9ddb-4093-aa5d-b6cb09dfef3c","ios":"levelo://app?vid=1346ff93-9ddb-4093-aa5d-b6cb09dfef3c"},"vehicle_type_id":"4","last_reported":1737986967,"current_range_meters":38000,"station_id":"ce4bhch2rcd13ifvqeug","pricing_plan_id":"cebpf4jnsgd1na2vs0mg"},{"bike_id":"3ae9f9a6-f47d-4658-9c8b-5b2511eac482","system_id":"levelo_inurba_marseille","lat":43.33602,"lon":5.41028,"is_reserved":false,"is_disabled":false,"rental_uris":{"android":"levelo://app?vid=3ae9f9a6-f47d-4658-9c8b-5b2511eac482","ios":"levelo://app?vid=3ae9f9a6-f47d-4658-9c8b-5b2511eac482"},"vehicle_type_id":"4","last_reported":1737986967,"current_range_meters":38800,"station_id":"ce4bhqh2rcd13ifvqhmg","pricing_plan_id":"cebpf4jnsgd1na2vs0mg"},{"bike_id":"1d29e75c-7e1e-408c-8ece-b7be92eb3fbf","system_id":"levelo_inurba_marseille","lat":43.32544,"lon":5.41448,"is_reserved":false,"is_disabled":false,"rental_uris":{"android":"levelo://app?vid=1d29e75c-7e1e-408c-8ece-b7be92eb3fbf","ios":"levelo://app?vid=1d29e75c-7e1e-408c-8ece-b7be92eb3fbf"},"vehicle_type_id":"4","last_reported":1737986967,"current_range_meters":38800,"station_id":"ce4bhq12rcd13ifvqhhg","pricing_plan_id":"cebpf4jnsgd1na2vs0mg"},{"bike_id":"e2fc5691-9d94-4ba4-8117-f9634d902d96","system_id":"levelo_inurba_marseille","lat":43.26054,"lon":5.39403,"is_reserved":false,"is_disabled":false,"rental_uris":{"android":"levelo://app?vid=e2fc5691-9d94-4ba4-8117-f9634d902d96","ios":"levelo://app?vid=e2fc5691-9d94-4ba4-8117-f9634d902d96"},"vehicle_type_id":"4","last_reported":1737986967,"current_range_meters":16000,"station_id":"ce4bhh92rcd13ifvqfj0","pricing_plan_id":"cebpf4jnsgd1na2vs0mg"},{"bike_id":"76a03fe2-6853-42db-8972-77b89a64555b","system_id":"levelo_inurba_marseille","lat":43.32124,"lon":5.36792,"is_reserved":false,"is_disabled":true,"rental_uris":{"android":"levelo://app?vid=76a03fe2-6853-42db-8972-77b89a64555b","ios":"levelo://app?vid=76a03fe2-6853-42db-8972-77b89a64555b"},"vehicle_type_id":"4","last_reported":1737986967,"current_range_meters":25200,"station_id":"ce4bhrh2rcd13ifvqhug","pricing_plan_id":"cebpf4jnsgd1na2vs0mg"},{"bike_id":"f07253c8-6648-4865-8bec-733f295fbeac","system_id":"levelo_inurba_marseille","lat":43.28498,"lon":5.38553,"is_reserved":false,"is_disabled":false,"rental_uris":{"android":"levelo://app?vid=f07253c8-6648-4865-8bec-733f295fbeac","ios":"levelo://app?vid=f07253c8-6648-4865-8bec-733f295fbeac"},"vehicle_type_id":"4","last_reported":1737986967,"current_range_meters":34800,"station_id":"ce4bh8p2rcd13ifvqeb0","pricing_plan_id":"cebpf4jnsgd1na2vs0mg"},{"bike_id":"b01b0706-3a3a-4ff1-ac0d-6b17e48eff7a","system_id":"levelo_inurba_marseille","lat":43.231923,"lon":5.35556,"is_reserved":false,"is_disabled":false,"rental_uris":{"android":"levelo://app?vid=b01b0706-3a3a-4ff1-ac0d-6b17e48eff7a","ios":"levelo://app?vid=b01b0706-3a3a-4ff1-ac0d-6b17e48eff7a"},"vehicle_type_id":"4","last_reported":1737986967,"current_range_meters":36800,"station_id":"ce4bhu92rcd13ifvqi70","pricing_plan_id":"cebpf4jnsgd1na2vs0mg"},{"bike_id":"25927537-ebfd-4ad0-914a-6d68f96d9be7","system_id":"levelo_inurba_marseille","lat":43.30791,"lon":5.37643,"is_reserved":false,"is_disabled":false,"rental_uris":{"android":"levelo://app?vid=25927537-ebfd-4ad0-914a-6d68f96d9be7","ios":"levelo://app?vid=25927537-ebfd-4ad0-914a-6d68f96d9be7"},"vehicle_type_id":"4","last_reported":1737986967,"current_range_meters":36400,"station_id":"ce4bgv92rcd13ifvqcq0","pricing_plan_id":"cebpf4jnsgd1na2vs0mg"},{"bike_id":"88d10282-8a2b-4fe8-8d14-c1d8cc334bc4","system_id":"levelo_inurba_marseille","lat":43.30894,"lon":5.39662,"is_reserved":false,"is_disabled":false,"rental_uris":{"android":"levelo://app?vid=88d10282-8a2b-4fe8-8d14-c1d8cc334bc4","ios":"levelo://app?vid=88d10282-8a2b-4fe8-8d14-c1d8cc334bc4"},"vehicle_type_id":"4","last_reported":1737986967,"current_range_meters":24800,"station_id":"ce4bh012rcd13ifvqcv0","pricing_plan_id":"cebpf4jnsgd1na2vs0mg"},{"bike_id":"8ec8b6fa-9e93-4b54-9125-9cb4dc49a696","system_id":"levelo_inurba_marseille","lat":43.24653,"lon":5.3889,"is_reserved":false,"is_disabled":false,"rental_uris":{"android":"levelo://app?vid=8ec8b6fa-9e93-4b54-9125-9cb4dc49a696","ios":"levelo://app?vid=8ec8b6fa-9e93-4b54-9125-9cb4dc49a696"},"vehicle_type_id":"4","last_reported":1737986967,"current_range_meters":5600,"station_id":"ce4bhg12rcd13ifvqf60","pricing_plan_id":"cebpf4jnsgd1na2vs0mg"},{"bike_id":"9a2c29eb-58e8-4af0-90cf-1e7374decf8b","system_id":"levelo_inurba_marseille","lat":43.3237,"lon":5.38891,"is_reserved":false,"is_disabled":false,"rental_uris":{"android":"levelo://app?vid=9a2c29eb-58e8-4af0-90cf-1e7374decf8b","ios":"levelo://app?vid=9a2c29eb-58e8-4af0-90cf-1e7374decf8b"},"vehicle_type_id":"4","last_reported":1737986967,"current_range_meters":30400,"station_id":"ce4bhqp2rcd13ifvqhog","pricing_plan_id":"cebpf4jnsgd1na2vs0mg"},{"bike_id":"82268c69-bcd8-49fb-91ea-6277b4711aa7","system_id":"levelo_inurba_marseille","lat":43.25551,"lon":5.3979,"is_reserved":false,"is_disabled":false,"rental_uris":{"android":"levelo://app?vid=82268c69-bcd8-49fb-91ea-6277b4711aa7","ios":"levelo://app?vid=82268c69-bcd8-49fb-91ea-6277b4711aa7"},"vehicle_type_id":"4","last_reported":1737986967,"current_range_meters":26000,"station_id":"","pricing_plan_id":"cebpf4jnsgd1na2vs0mg"},{"bike_id":"38c43852-cfec-437a-bfdd-eeb205b66bcd","system_id":"levelo_inurba_marseille","lat":43.3052,"lon":5.36527,"is_reserved":false,"is_disabled":false,"rental_uris":{"android":"levelo://app?vid=38c43852-cfec-437a-bfdd-eeb205b66bcd","ios":"levelo://app?vid=38c43852-cfec-437a-bfdd-eeb205b66bcd"},"vehicle_type_id":"4","last_reported":1737986967,"current_range_meters":37600,"station_id":"","pricing_plan_id":"cebpf4jnsgd1na2vs0mg"},{"bike_id":"915df6a6-30bf-4e90-9efc-34ebcb795923","system_id":"levelo_inurba_marseille","lat":43.28451,"lon":5.35875,"is_reserved":false,"is_disabled":false,"rental_uris":{"android":"levelo://app?vid=915df6a6-30bf-4e90-9efc-34ebcb795923","ios":"levelo://app?vid=915df6a6-30bf-4e90-9efc-34ebcb795923"},"vehicle_type_id":"4","last_reported":1737986967,"current_range_meters":8000,"station_id":"ce4bhah2rcd13ifvqei0","pricing_plan_id":"cebpf4jnsgd1na2vs0mg"},{"bike_id":"24cfb25a-4e6b-44c9-aa4f-740815d4798b","system_id":"levelo_inurba_marseille","lat":43.30296,"lon":5.36907,"is_reserved":false,"is_disabled":false,"rental_uris":{"android":"levelo://app?vid=24cfb25a-4e6b-44c9-aa4f-740815d4798b","ios":"levelo://app?vid=24cfb25a-4e6b-44c9-aa4f-740815d4798b"},"vehicle_type_id":"4","last_reported":1737986967,"current_range_meters":32800,"station_id":"ce4bgqh2rcd13ifvqc5g","pricing_plan_id":"cebpf4jnsgd1na2vs0mg"},{"bike_id":"26e37699-eff4-43e7-811f-f2f24182e176","system_id":"levelo_inurba_marseille","lat":43.2978,"lon":5.37103,"is_reserved":false,"is_disabled":false,"rental_uris":{"android":"levelo://app?vid=26e37699-eff4-43e7-811f-f2f24182e176","ios":"levelo://app?vid=26e37699-eff4-43e7-811f-f2f24182e176"},"vehicle_type_id":"4","last_reported":1737986967,"current_range_meters":24400,"station_id":"ce4bgop2rcd13ifvqc1g","pricing_plan_id":"cebpf4jnsgd1na2vs0mg"},{"bike_id":"01e1773c-3be5-489f-b890-a0907a952fb7","system_id":"levelo_inurba_marseille","lat":43.30467,"lon":5.379,"is_reserved":false,"is_disabled":false,"rental_uris":{"android":"levelo://app?vid=01e1773c-3be5-489f-b890-a0907a952fb7","ios":"levelo://app?vid=01e1773c-3be5-489f-b890-a0907a952fb7"},"vehicle_type_id":"4","last_reported":1737986967,"current_range_meters":38400,"station_id":"ce4bgup2rcd13ifvqcn0","pricing_plan_id":"cebpf4jnsgd1na2vs0mg"},{"bike_id":"6a3ee740-c358-4353-9ed2-b202f1a70414","system_id":"levelo_inurba_marseille","lat":43.30793,"lon":5.37634,"is_reserved":false,"is_disabled":false,"rental_uris":{"android":"levelo://app?vid=6a3ee740-c358-4353-9ed2-b202f1a70414","ios":"levelo://app?vid=6a3ee740-c358-4353-9ed2-b202f1a70414"},"vehicle_type_id":"4","last_reported":1737986967,"current_range_meters":27200,"station_id":"ce4bgv92rcd13ifvqcq0","pricing_plan_id":"cebpf4jnsgd1na2vs0mg"},{"bike_id":"48eaf086-a58e-442a-ac63-1b1e74c4ac84","system_id":"levelo_inurba_marseille","lat":43.31707,"lon":5.43689,"is_reserved":false,"is_disabled":false,"rental_uris":{"android":"levelo://app?vid=48eaf086-a58e-442a-ac63-1b1e74c4ac84","ios":"levelo://app?vid=48eaf086-a58e-442a-ac63-1b1e74c4ac84"},"vehicle_type_id":"4","last_reported":1737986967,"current_range_meters":39200,"station_id":"ce4bhp92rcd13ifvqhcg","pricing_plan_id":"cebpf4jnsgd1na2vs0mg"},{"bike_id":"7fd84b68-8795-4b64-88b1-cc544e1d0969","system_id":"levelo_inurba_marseille","lat":43.28273,"lon":5.35065,"is_reserved":false,"is_disabled":false,"rental_uris":{"android":"levelo://app?vid=7fd84b68-8795-4b64-88b1-cc544e1d0969","ios":"levelo://app?vid=7fd84b68-8795-4b64-88b1-cc544e1d0969"},"vehicle_type_id":"4","last_reported":1737986967,"current_range_meters":38800,"station_id":"ce4bhbp2rcd13ifvqerg","pricing_plan_id":"cebpf4jnsgd1na2vs0mg"},{"bike_id":"e3a8c37a-1260-4cb5-8745-29572e44cf9c","system_id":"levelo_inurba_marseille","lat":43.3015,"lon":5.38089,"is_reserved":false,"is_disabled":false,"rental_uris":{"android":"levelo://app?vid=e3a8c37a-1260-4cb5-8745-29572e44cf9c","ios":"levelo://app?vid=e3a8c37a-1260-4cb5-8745-29572e44cf9c"},"vehicle_type_id":"4","last_reported":1737986967,"current_range_meters":30800,"station_id":"ce4bgjp2rcd13ifvqbh0","pricing_plan_id":"cebpf4jnsgd1na2vs0mg"},{"bike_id":"c0fa03c0-61d9-4ebe-94ca-0c4f7021aa52","system_id":"levelo_inurba_marseille","lat":43.30473,"lon":5.37903,"is_reserved":false,"is_disabled":false,"rental_uris":{"android":"levelo://app?vid=c0fa03c0-61d9-4ebe-94ca-0c4f7021aa52","ios":"levelo://app?vid=c0fa03c0-61d9-4ebe-94ca-0c4f7021aa52"},"vehicle_type_id":"4","last_reported":1737986967,"current_range_meters":37600,"station_id":"ce4bgup2rcd13ifvqcn0","pricing_plan_id":"cebpf4jnsgd1na2vs0mg"},{"bike_id":"73b16524-5bad-446d-b480-50c2aae535df","system_id":"levelo_inurba_marseille","lat":43.29899,"lon":5.39764,"is_reserved":false,"is_disabled":false,"rental_uris":{"android":"levelo://app?vid=73b16524-5bad-446d-b480-50c2aae535df","ios":"levelo://app?vid=73b16524-5bad-446d-b480-50c2aae535df"},"vehicle_type_id":"4","last_reported":1737986967,"current_range_meters":37600,"station_id":"ce4bh0h2rcd13ifvqd50","pricing_plan_id":"cebpf4jnsgd1na2vs0mg"},{"bike_id":"ff68af14-5554-4f8d-a3de-4549d987f602","system_id":"levelo_inurba_marseille","lat":43.29886,"lon":5.43675,"is_reserved":false,"is_disabled":false,"rental_uris":{"android":"levelo://app?vid=ff68af14-5554-4f8d-a3de-4549d987f602","ios":"levelo://app?vid=ff68af14-5554-4f8d-a3de-4549d987f602"},"vehicle_type_id":"4","last_reported":1737986967,"current_range_meters":38800,"station_id":"ce4bhpp2rcd13ifvqhfg","pricing_plan_id":"cebpf4jnsgd1na2vs0mg"},{"bike_id":"75c7a652-25ad-4961-99e9-d34790c80f49","system_id":"levelo_inurba_marseille","lat":43.25,"lon":5.38934,"is_reserved":false,"is_disabled":false,"rental_uris":{"android":"levelo://app?vid=75c7a652-25ad-4961-99e9-d34790c80f49","ios":"levelo://app?vid=75c7a652-25ad-4961-99e9-d34790c80f49"},"vehicle_type_id":"4","last_reported":1737986967,"current_range_meters":11200,"station_id":"ce4bhgp2rcd13ifvqfd0","pricing_plan_id":"cebpf4jnsgd1na2vs0mg"},{"bike_id":"15f2d21c-44c0-47fd-8a70-111ecb374805","system_id":"levelo_inurba_marseille","lat":43.27807,"lon":5.40685,"is_reserved":false,"is_disabled":false,"rental_uris":{"android":"levelo://app?vid=15f2d21c-44c0-47fd-8a70-111ecb374805","ios":"levelo://app?vid=15f2d21c-44c0-47fd-8a70-111ecb374805"},"vehicle_type_id":"4","last_reported":1737986967,"current_range_meters":36000,"station_id":"ce4bhnh2rcd13ifvqgtg","pricing_plan_id":"cebpf4jnsgd1na2vs0mg"},{"bike_id":"80f5ff8e-07d9-450a-a18c-a529f01c2db6","system_id":"levelo_inurba_marseille","lat":43.30933,"lon":5.40144,"is_reserved":false,"is_disabled":false,"rental_uris":{"android":"levelo://app?vid=80f5ff8e-07d9-450a-a18c-a529f01c2db6","ios":"levelo://app?vid=80f5ff8e-07d9-450a-a18c-a529f01c2db6"},"vehicle_type_id":"4","last_reported":1737986967,"current_range_meters":32000,"station_id":"ce4bgvp2rcd13ifvqct0","pricing_plan_id":"cebpf4jnsgd1na2vs0mg"},{"bike_id":"d2c40c3f-6384-4e2d-85f6-b3bc648b180f","system_id":"levelo_inurba_marseille","lat":43.29559,"lon":5.37515,"is_reserved":false,"is_disabled":false,"rental_uris":{"android":"levelo://app?vid=d2c40c3f-6384-4e2d-85f6-b3bc648b180f","ios":"levelo://app?vid=d2c40c3f-6384-4e2d-85f6-b3bc648b180f"},"vehicle_type_id":"4","last_reported":1737986967,"current_range_meters":38800,"station_id":"ce4bgh92rcd13ifvqb50","pricing_plan_id":"cebpf4jnsgd1na2vs0mg"},{"bike_id":"e02cc181-fae8-4627-9070-19cdd3303066","system_id":"levelo_inurba_marseille","lat":43.29801,"lon":5.40413,"is_reserved":false,"is_disabled":false,"rental_uris":{"android":"levelo://app?vid=e02cc181-fae8-4627-9070-19cdd3303066","ios":"levelo://app?vid=e02cc181-fae8-4627-9070-19cdd3303066"},"vehicle_type_id":"4","last_reported":1737986967,"current_range_meters":39200,"station_id":"ce4bh112rcd13ifvqd90","pricing_plan_id":"cebpf4jnsgd1na2vs0mg"},{"bike_id":"d3819e08-6202-484f-8693-2f025bec4323","system_id":"levelo_inurba_marseille","lat":43.29256,"lon":5.40918,"is_reserved":false,"is_disabled":false,"rental_uris":{"android":"levelo://app?vid=d3819e08-6202-484f-8693-2f025bec4323","ios":"levelo://app?vid=d3819e08-6202-484f-8693-2f025bec4323"},"vehicle_type_id":"4","last_reported":1737986967,"current_range_meters":38800,"station_id":"ce4bh192rcd13ifvqdc0","pricing_plan_id":"cebpf4jnsgd1na2vs0mg"},{"bike_id":"86b498e3-784c-4315-9910-77930c320efa","system_id":"levelo_inurba_marseille","lat":43.28602,"lon":5.37055,"is_reserved":false,"is_disabled":false,"rental_uris":{"android":"levelo://app?vid=86b498e3-784c-4315-9910-77930c320efa","ios":"levelo://app?vid=86b498e3-784c-4315-9910-77930c320efa"},"vehicle_type_id":"4","last_reported":1737986967,"current_range_meters":37600,"station_id":"ce4bht12rcd13ifvqi60","pricing_plan_id":"cebpf4jnsgd1na2vs0mg"},{"bike_id":"9f96bd76-c0d8-44b8-ac27-436f2c99a4b8","system_id":"levelo_inurba_marseille","lat":43.279077,"lon":5.380134,"is_reserved":false,"is_disabled":false,"rental_uris":{"android":"levelo://app?vid=9f96bd76-c0d8-44b8-ac27-436f2c99a4b8","ios":"levelo://app?vid=9f96bd76-c0d8-44b8-ac27-436f2c99a4b8"},"vehicle_type_id":"4","last_reported":1737986967,"current_range_meters":11600,"station_id":"ce4bhf92rcd13ifvqf50","pricing_plan_id":"cebpf4jnsgd1na2vs0mg"},{"bike_id":"aa4a7bc4-17d1-48c8-8c93-012dd74c52c3","system_id":"levelo_inurba_marseille","lat":43.30563,"lon":5.36533,"is_reserved":false,"is_disabled":false,"rental_uris":{"android":"levelo://app?vid=aa4a7bc4-17d1-48c8-8c93-012dd74c52c3","ios":"levelo://app?vid=aa4a7bc4-17d1-48c8-8c93-012dd74c52c3"},"vehicle_type_id":"4","last_reported":1737986967,"current_range_meters":8400,"station_id":"ce4bgs12rcd13ifvqcag","pricing_plan_id":"cebpf4jnsgd1na2vs0mg"},{"bike_id":"8c772f1a-bac2-41fc-878f-d0d152dc8c92","system_id":"levelo_inurba_marseille","lat":43.29179,"lon":5.38229,"is_reserved":false,"is_disabled":false,"rental_uris":{"android":"levelo://app?vid=8c772f1a-bac2-41fc-878f-d0d152dc8c92","ios":"levelo://app?vid=8c772f1a-bac2-41fc-878f-d0d152dc8c92"},"vehicle_type_id":"4","last_reported":1737986967,"current_range_meters":5600,"station_id":"","pricing_plan_id":"cebpf4jnsgd1na2vs0mg"},{"bike_id":"6d301d54-3fe2-456f-9752-1a1a8fa0c2b5","system_id":"levelo_inurba_marseille","lat":43.31361,"lon":5.36696,"is_reserved":false,"is_disabled":false,"rental_uris":{"android":"levelo://app?vid=6d301d54-3fe2-456f-9752-1a1a8fa0c2b5","ios":"levelo://app?vid=6d301d54-3fe2-456f-9752-1a1a8fa0c2b5"},"vehicle_type_id":"4","last_reported":1737986967,"current_range_meters":39200,"station_id":"ce4bgr92rcd13ifvqc6g","pricing_plan_id":"cebpf4jnsgd1na2vs0mg"},{"bike_id":"5c99bd0c-c4d6-4fc0-9d3f-c7b324c14588","system_id":"levelo_inurba_marseille","lat":43.28996,"lon":5.3784,"is_reserved":false,"is_disabled":false,"rental_uris":{"android":"levelo://app?vid=5c99bd0c-c4d6-4fc0-9d3f-c7b324c14588","ios":"levelo://app?vid=5c99bd0c-c4d6-4fc0-9d3f-c7b324c14588"},"vehicle_type_id":"4","last_reported":1737986967,"current_range_meters":38800,"station_id":"ce4bh9p2rcd13ifvqed0","pricing_plan_id":"cebpf4jnsgd1na2vs0mg"},{"bike_id":"e0b66328-c7be-4c2a-a646-3cc592e2be2c","system_id":"levelo_inurba_marseille","lat":43.29029,"lon":5.35918,"is_reserved":false,"is_disabled":false,"rental_uris":{"android":"levelo://app?vid=e0b66328-c7be-4c2a-a646-3cc592e2be2c","ios":"levelo://app?vid=e0b66328-c7be-4c2a-a646-3cc592e2be2c"},"vehicle_type_id":"4","last_reported":1737986967,"current_range_meters":30400,"station_id":"ce4bha92rcd13ifvqeg0","pricing_plan_id":"cebpf4jnsgd1na2vs0mg"},{"bike_id":"bb99704f-e033-4ae8-a7fb-29e6cc77930e","system_id":"levelo_inurba_marseille","lat":43.28079,"lon":5.39656,"is_reserved":false,"is_disabled":false,"rental_uris":{"android":"levelo://app?vid=bb99704f-e033-4ae8-a7fb-29e6cc77930e","ios":"levelo://app?vid=bb99704f-e033-4ae8-a7fb-29e6cc77930e"},"vehicle_type_id":"4","last_reported":1737986967,"current_range_meters":37600,"station_id":"ce4bho12rcd13ifvqh2g","pricing_plan_id":"cebpf4jnsgd1na2vs0mg"},{"bike_id":"60c1776e-2b3e-4e37-aa79-eab693ee2ee4","system_id":"levelo_inurba_marseille","lat":43.29932,"lon":5.36537,"is_reserved":false,"is_disabled":false,"rental_uris":{"android":"levelo://app?vid=60c1776e-2b3e-4e37-aa79-eab693ee2ee4","ios":"levelo://app?vid=60c1776e-2b3e-4e37-aa79-eab693ee2ee4"},"vehicle_type_id":"4","last_reported":1737986967,"current_range_meters":17200,"station_id":"ce4bgm92rcd13ifvqbr0","pricing_plan_id":"cebpf4jnsgd1na2vs0mg"},{"bike_id":"f9173de2-2fa5-436f-a76b-3c96bd571284","system_id":"levelo_inurba_marseille","lat":43.29811,"lon":5.40451,"is_reserved":false,"is_disabled":false,"rental_uris":{"android":"levelo://app?vid=f9173de2-2fa5-436f-a76b-3c96bd571284","ios":"levelo://app?vid=f9173de2-2fa5-436f-a76b-3c96bd571284"},"vehicle_type_id":"4","last_reported":1737986967,"current_range_meters":38800,"station_id":"ce4bh112rcd13ifvqd90","pricing_plan_id":"cebpf4jnsgd1na2vs0mg"},{"bike_id":"ff8c5f03-8df1-452e-8199-05709542d458","system_id":"levelo_inurba_marseille","lat":43.30267,"lon":5.369,"is_reserved":false,"is_disabled":false,"rental_uris":{"android":"levelo://app?vid=ff8c5f03-8df1-452e-8199-05709542d458","ios":"levelo://app?vid=ff8c5f03-8df1-452e-8199-05709542d458"},"vehicle_type_id":"4","last_reported":1737986967,"current_range_meters":26000,"station_id":"ce4bgqh2rcd13ifvqc5g","pricing_plan_id":"cebpf4jnsgd1na2vs0mg"},{"bike_id":"c9bab0ad-8a1a-49b4-ace1-a3def6f513e0","system_id":"levelo_inurba_marseille","lat":43.30936,"lon":5.40166,"is_reserved":false,"is_disabled":false,"rental_uris":{"android":"levelo://app?vid=c9bab0ad-8a1a-49b4-ace1-a3def6f513e0","ios":"levelo://app?vid=c9bab0ad-8a1a-49b4-ace1-a3def6f513e0"},"vehicle_type_id":"4","last_reported":1737986967,"current_range_meters":38800,"station_id":"ce4bgvp2rcd13ifvqct0","pricing_plan_id":"cebpf4jnsgd1na2vs0mg"},{"bike_id":"ce7496b9-3a07-4d4e-974e-09d44b1427a4","system_id":"levelo_inurba_marseille","lat":43.2848,"lon":5.38426,"is_reserved":false,"is_disabled":false,"rental_uris":{"android":"levelo://app?vid=ce7496b9-3a07-4d4e-974e-09d44b1427a4","ios":"levelo://app?vid=ce7496b9-3a07-4d4e-974e-09d44b1427a4"},"vehicle_type_id":"4","last_reported":1737986967,"current_range_meters":10800,"station_id":"ce4bh512rcd13ifvqe3g","pricing_plan_id":"cebpf4jnsgd1na2vs0mg"},{"bike_id":"4d71d27f-d4ba-4df0-be30-b3d2959fc5b0","system_id":"levelo_inurba_marseille","lat":43.29439,"lon":5.38586,"is_reserved":false,"is_disabled":false,"rental_uris":{"android":"levelo://app?vid=4d71d27f-d4ba-4df0-be30-b3d2959fc5b0","ios":"levelo://app?vid=4d71d27f-d4ba-4df0-be30-b3d2959fc5b0"},"vehicle_type_id":"4","last_reported":1737986967,"current_range_meters":6800,"station_id":"ce4bh8p2rcd13ifvqeb0","pricing_plan_id":"cebpf4jnsgd1na2vs0mg"},{"bike_id":"26c5f55d-b689-44ba-bcbe-576c29c6025c","system_id":"levelo_inurba_marseille","lat":43.33732,"lon":5.39185,"is_reserved":false,"is_disabled":false,"rental_uris":{"android":"levelo://app?vid=26c5f55d-b689-44ba-bcbe-576c29c6025c","ios":"levelo://app?vid=26c5f55d-b689-44ba-bcbe-576c29c6025c"},"vehicle_type_id":"4","last_reported":1737986967,"current_range_meters":24800,"station_id":"ce4bhr92rcd13ifvqhsg","pricing_plan_id":"cebpf4jnsgd1na2vs0mg"},{"bike_id":"0b6f18d5-146b-44c4-a3ea-4029df8b8e75","system_id":"levelo_inurba_marseille","lat":43.27794,"lon":5.40667,"is_reserved":false,"is_disabled":false,"rental_uris":{"android":"levelo://app?vid=0b6f18d5-146b-44c4-a3ea-4029df8b8e75","ios":"levelo://app?vid=0b6f18d5-146b-44c4-a3ea-4029df8b8e75"},"vehicle_type_id":"4","last_reported":1737986967,"current_range_meters":38800,"station_id":"ce4bhnh2rcd13ifvqgtg","pricing_plan_id":"cebpf4jnsgd1na2vs0mg"},{"bike_id":"a3e863d6-8d05-494c-9f61-d6d238677401","system_id":"levelo_inurba_marseille","lat":43.2695,"lon":5.38636,"is_reserved":false,"is_disabled":false,"rental_uris":{"android":"levelo://app?vid=a3e863d6-8d05-494c-9f61-d6d238677401","ios":"levelo://app?vid=a3e863d6-8d05-494c-9f61-d6d238677401"},"vehicle_type_id":"4","last_reported":1737986967,"current_range_meters":22000,"station_id":"ce4bhh92rcd13ifvqfh0","pricing_plan_id":"cebpf4jnsgd1na2vs0mg"},{"bike_id":"bbc29a64-5b04-45e7-a25a-b329b015caac","system_id":"levelo_inurba_marseille","lat":43.29377,"lon":5.37857,"is_reserved":false,"is_disabled":false,"rental_uris":{"android":"levelo://app?vid=bbc29a64-5b04-45e7-a25a-b329b015caac","ios":"levelo://app?vid=bbc29a64-5b04-45e7-a25a-b329b015caac"},"vehicle_type_id":"4","last_reported":1737986967,"current_range_meters":24000,"station_id":"ce4bgjh2rcd13ifvqbf0","pricing_plan_id":"cebpf4jnsgd1na2vs0mg"},{"bike_id":"4ee7a4b2-dea3-4f4a-a76b-2d1e4fcbcafe","system_id":"levelo_inurba_marseille","lat":43.28482,"lon":5.38538,"is_reserved":false,"is_disabled":true,"rental_uris":{"android":"levelo://app?vid=4ee7a4b2-dea3-4f4a-a76b-2d1e4fcbcafe","ios":"levelo://app?vid=4ee7a4b2-dea3-4f4a-a76b-2d1e4fcbcafe"},"vehicle_type_id":"4","last_reported":1737986967,"current_range_meters":1600,"station_id":"ce4bh8p2rcd13ifvqeb0","pricing_plan_id":"cebpf4jnsgd1na2vs0mg"},{"bike_id":"c772779b-3b78-4143-a73c-c60232eed73c","system_id":"levelo_inurba_marseille","lat":43.3254,"lon":5.41466,"is_reserved":false,"is_disabled":false,"rental_uris":{"android":"levelo://app?vid=c772779b-3b78-4143-a73c-c60232eed73c","ios":"levelo://app?vid=c772779b-3b78-4143-a73c-c60232eed73c"},"vehicle_type_id":"4","last_reported":1737986967,"current_range_meters":35600,"station_id":"ce4bhq12rcd13ifvqhhg","pricing_plan_id":"cebpf4jnsgd1na2vs0mg"},{"bike_id":"78f8a76b-5269-4460-a81a-cc068532193c","system_id":"levelo_inurba_marseille","lat":43.30476,"lon":5.37909,"is_reserved":false,"is_disabled":false,"rental_uris":{"android":"levelo://app?vid=78f8a76b-5269-4460-a81a-cc068532193c","ios":"levelo://app?vid=78f8a76b-5269-4460-a81a-cc068532193c"},"vehicle_type_id":"4","last_reported":1737986967,"current_range_meters":26000,"station_id":"ce4bgup2rcd13ifvqcn0","pricing_plan_id":"cebpf4jnsgd1na2vs0mg"},{"bike_id":"01f5cfe7-92a2-479c-9790-08beb4add5f5","system_id":"levelo_inurba_marseille","lat":43.29834,"lon":5.38095,"is_reserved":false,"is_disabled":false,"rental_uris":{"android":"levelo://app?vid=01f5cfe7-92a2-479c-9790-08beb4add5f5","ios":"levelo://app?vid=01f5cfe7-92a2-479c-9790-08beb4add5f5"},"vehicle_type_id":"4","last_reported":1737986967,"current_range_meters":39200,"station_id":"ce4bgip2rcd13ifvqbb0","pricing_plan_id":"cebpf4jnsgd1na2vs0mg"},{"bike_id":"e3e26aee-15e1-425c-a48f-db58aa520742","system_id":"levelo_inurba_marseille","lat":43.23075,"lon":5.35494,"is_reserved":false,"is_disabled":false,"rental_uris":{"android":"levelo://app?vid=e3e26aee-15e1-425c-a48f-db58aa520742","ios":"levelo://app?vid=e3e26aee-15e1-425c-a48f-db58aa520742"},"vehicle_type_id":"4","last_reported":1737986967,"current_range_meters":38800,"station_id":"cpo3342slgdg3j2ifvpg","pricing_plan_id":"cebpf4jnsgd1na2vs0mg"},{"bike_id":"414e9e87-13c8-4dd8-9df6-7723400a2d87","system_id":"levelo_inurba_marseille","lat":43.25897,"lon":5.40841,"is_reserved":false,"is_disabled":false,"rental_uris":{"android":"levelo://app?vid=414e9e87-13c8-4dd8-9df6-7723400a2d87","ios":"levelo://app?vid=414e9e87-13c8-4dd8-9df6-7723400a2d87"},"vehicle_type_id":"4","last_reported":1737986967,"current_range_meters":38800,"station_id":"","pricing_plan_id":"cebpf4jnsgd1na2vs0mg"},{"bike_id":"4f0d564d-d2c5-4d63-8272-ec4ed8b18df2","system_id":"levelo_inurba_marseille","lat":43.25933,"lon":5.4092,"is_reserved":false,"is_disabled":false,"rental_uris":{"android":"levelo://app?vid=4f0d564d-d2c5-4d63-8272-ec4ed8b18df2","ios":"levelo://app?vid=4f0d564d-d2c5-4d63-8272-ec4ed8b18df2"},"vehicle_type_id":"4","last_reported":1737986967,"current_range_meters":30800,"station_id":"ce4bhm92rcd13ifvqglg","pricing_plan_id":"cebpf4jnsgd1na2vs0mg"},{"bike_id":"7c78a755-c7f5-4f07-a96b-621451d47948","system_id":"levelo_inurba_marseille","lat":43.29916,"lon":5.43688,"is_reserved":false,"is_disabled":false,"rental_uris":{"android":"levelo://app?vid=7c78a755-c7f5-4f07-a96b-621451d47948","ios":"levelo://app?vid=7c78a755-c7f5-4f07-a96b-621451d47948"},"vehicle_type_id":"4","last_reported":1737986967,"current_range_meters":27600,"station_id":"ce4bhpp2rcd13ifvqhfg","pricing_plan_id":"cebpf4jnsgd1na2vs0mg"},{"bike_id":"8400879d-33a5-4d4b-a222-8873fd1245ce","system_id":"levelo_inurba_marseille","lat":43.25502,"lon":5.37651,"is_reserved":false,"is_disabled":false,"rental_uris":{"android":"levelo://app?vid=8400879d-33a5-4d4b-a222-8873fd1245ce","ios":"levelo://app?vid=8400879d-33a5-4d4b-a222-8873fd1245ce"},"vehicle_type_id":"4","last_reported":1737986967,"current_range_meters":36400,"station_id":"ce4bhh12rcd13ifvqff0","pricing_plan_id":"cebpf4jnsgd1na2vs0mg"},{"bike_id":"e1d2b012-55a7-44cf-ae4a-384d38b76e20","system_id":"levelo_inurba_marseille","lat":43.26218,"lon":5.37452,"is_reserved":false,"is_disabled":false,"rental_uris":{"android":"levelo://app?vid=e1d2b012-55a7-44cf-ae4a-384d38b76e20","ios":"levelo://app?vid=e1d2b012-55a7-44cf-ae4a-384d38b76e20"},"vehicle_type_id":"4","last_reported":1737986967,"current_range_meters":35600,"station_id":"ce4bhgp2rcd13ifvqfc0","pricing_plan_id":"cebpf4jnsgd1na2vs0mg"},{"bike_id":"900407a7-75f0-4cd6-8c5d-8390a10e969b","system_id":"levelo_inurba_marseille","lat":43.29348,"lon":5.37857,"is_reserved":false,"is_disabled":false,"rental_uris":{"android":"levelo://app?vid=900407a7-75f0-4cd6-8c5d-8390a10e969b","ios":"levelo://app?vid=900407a7-75f0-4cd6-8c5d-8390a10e969b"},"vehicle_type_id":"4","last_reported":1737986967,"current_range_meters":38800,"station_id":"ce4bgjh2rcd13ifvqbf0","pricing_plan_id":"cebpf4jnsgd1na2vs0mg"},{"bike_id":"74760170-6b49-496b-8088-5b1a48629d0e","system_id":"levelo_inurba_marseille","lat":43.24173,"lon":5.39726,"is_reserved":false,"is_disabled":false,"rental_uris":{"android":"levelo://app?vid=74760170-6b49-496b-8088-5b1a48629d0e","ios":"levelo://app?vid=74760170-6b49-496b-8088-5b1a48629d0e"},"vehicle_type_id":"4","last_reported":1737986967,"current_range_meters":28000,"station_id":"ce4bhn12rcd13ifvqgpg","pricing_plan_id":"cebpf4jnsgd1na2vs0mg"},{"bike_id":"6a31feba-7476-487c-8c92-368bd1c7fe77","system_id":"levelo_inurba_marseille","lat":43.25108,"lon":5.40322,"is_reserved":false,"is_disabled":false,"rental_uris":{"android":"levelo://app?vid=6a31feba-7476-487c-8c92-368bd1c7fe77","ios":"levelo://app?vid=6a31feba-7476-487c-8c92-368bd1c7fe77"},"vehicle_type_id":"4","last_reported":1737986967,"current_range_meters":16800,"station_id":"ce4bhlh2rcd13ifvqgig","pricing_plan_id":"cebpf4jnsgd1na2vs0mg"},{"bike_id":"a48a4fa8-387b-4ecc-bc7a-c3f07822bf47","system_id":"levelo_inurba_marseille","lat":43.27077,"lon":5.39245,"is_reserved":false,"is_disabled":true,"rental_uris":{"android":"levelo://app?vid=a48a4fa8-387b-4ecc-bc7a-c3f07822bf47","ios":"levelo://app?vid=a48a4fa8-387b-4ecc-bc7a-c3f07822bf47"},"vehicle_type_id":"4","last_reported":1737986967,"current_range_meters":0,"station_id":"","pricing_plan_id":"cebpf4jnsgd1na2vs0mg"},{"bike_id":"e30db756-0831-4170-9ebb-5007ad177c75","system_id":"levelo_inurba_marseille","lat":43.28465,"lon":5.3589,"is_reserved":false,"is_disabled":false,"rental_uris":{"android":"levelo://app?vid=e30db756-0831-4170-9ebb-5007ad177c75","ios":"levelo://app?vid=e30db756-0831-4170-9ebb-5007ad177c75"},"vehicle_type_id":"4","last_reported":1737986967,"current_range_meters":38400,"station_id":"ce4bhah2rcd13ifvqei0","pricing_plan_id":"cebpf4jnsgd1na2vs0mg"},{"bike_id":"a8d0380b-0a88-41c3-845f-e00ffb2cbc88","system_id":"levelo_inurba_marseille","lat":43.27986,"lon":5.4001,"is_reserved":false,"is_disabled":true,"rental_uris":{"android":"levelo://app?vid=a8d0380b-0a88-41c3-845f-e00ffb2cbc88","ios":"levelo://app?vid=a8d0380b-0a88-41c3-845f-e00ffb2cbc88"},"vehicle_type_id":"4","last_reported":1737986967,"current_range_meters":30000,"station_id":"ce4bho92rcd13ifvqh4g","pricing_plan_id":"cebpf4jnsgd1na2vs0mg"},{"bike_id":"ab4b2f25-068f-4c1f-b709-3c0cbf337322","system_id":"levelo_inurba_marseille","lat":43.23153,"lon":5.43715,"is_reserved":false,"is_disabled":false,"rental_uris":{"android":"levelo://app?vid=ab4b2f25-068f-4c1f-b709-3c0cbf337322","ios":"levelo://app?vid=ab4b2f25-068f-4c1f-b709-3c0cbf337322"},"vehicle_type_id":"4","last_reported":1737986967,"current_range_meters":38800,"station_id":"ce4bhmp2rcd13ifvqgog","pricing_plan_id":"cebpf4jnsgd1na2vs0mg"},{"bike_id":"94229cda-4639-49c7-9106-bc4cbf3a3095","system_id":"levelo_inurba_marseille","lat":43.26246,"lon":5.40431,"is_reserved":false,"is_disabled":false,"rental_uris":{"android":"levelo://app?vid=94229cda-4639-49c7-9106-bc4cbf3a3095","ios":"levelo://app?vid=94229cda-4639-49c7-9106-bc4cbf3a3095"},"vehicle_type_id":"4","last_reported":1737986967,"current_range_meters":5600,"station_id":"","pricing_plan_id":"cebpf4jnsgd1na2vs0mg"},{"bike_id":"9c09af66-30f1-488d-910d-a8a905d02871","system_id":"levelo_inurba_marseille","lat":43.294,"lon":5.37931,"is_reserved":false,"is_disabled":true,"rental_uris":{"android":"levelo://app?vid=9c09af66-30f1-488d-910d-a8a905d02871","ios":"levelo://app?vid=9c09af66-30f1-488d-910d-a8a905d02871"},"vehicle_type_id":"4","last_reported":1737986967,"current_range_meters":0,"station_id":"","pricing_plan_id":"cebpf4jnsgd1na2vs0mg"},{"bike_id":"eeb5c2ce-d53b-4fa4-802b-ad1eddee0227","system_id":"levelo_inurba_marseille","lat":43.29523,"lon":5.37503,"is_reserved":false,"is_disabled":false,"rental_uris":{"android":"levelo://app?vid=eeb5c2ce-d53b-4fa4-802b-ad1eddee0227","ios":"levelo://app?vid=eeb5c2ce-d53b-4fa4-802b-ad1eddee0227"},"vehicle_type_id":"4","last_reported":1737986967,"current_range_meters":34800,"station_id":"ce4bgkp2rcd13ifvqbmg","pricing_plan_id":"cebpf4jnsgd1na2vs0mg"},{"bike_id":"22e948b1-900e-4a5c-9a5a-b682c4d5119c","system_id":"levelo_inurba_marseille","lat":43.231515,"lon":5.43721,"is_reserved":false,"is_disabled":false,"rental_uris":{"android":"levelo://app?vid=22e948b1-900e-4a5c-9a5a-b682c4d5119c","ios":"levelo://app?vid=22e948b1-900e-4a5c-9a5a-b682c4d5119c"},"vehicle_type_id":"4","last_reported":1737986967,"current_range_meters":24400,"station_id":"ce4bhmp2rcd13ifvqgog","pricing_plan_id":"cebpf4jnsgd1na2vs0mg"},{"bike_id":"af11d72a-309f-4d86-93b0-f50e6ca780fd","system_id":"levelo_inurba_marseille","lat":43.29793,"lon":5.38089,"is_reserved":false,"is_disabled":false,"rental_uris":{"android":"levelo://app?vid=af11d72a-309f-4d86-93b0-f50e6ca780fd","ios":"levelo://app?vid=af11d72a-309f-4d86-93b0-f50e6ca780fd"},"vehicle_type_id":"4","last_reported":1737986967,"current_range_meters":18000,"station_id":"ce4bgip2rcd13ifvqbb0","pricing_plan_id":"cebpf4jnsgd1na2vs0mg"},{"bike_id":"c438c788-2c8f-4eda-8233-a8485c23c4af","system_id":"levelo_inurba_marseille","lat":43.304229,"lon":5.412944,"is_reserved":false,"is_disabled":true,"rental_uris":{"android":"levelo://app?vid=c438c788-2c8f-4eda-8233-a8485c23c4af","ios":"levelo://app?vid=c438c788-2c8f-4eda-8233-a8485c23c4af"},"vehicle_type_id":"4","last_reported":1737986967,"current_range_meters":0,"station_id":"ce4bhop2rcd13ifvqh8g","pricing_plan_id":"cebpf4jnsgd1na2vs0mg"},{"bike_id":"c2be73b7-5288-4722-9067-c8e77bf6e2a3","system_id":"levelo_inurba_marseille","lat":43.29028,"lon":5.38137,"is_reserved":false,"is_disabled":false,"rental_uris":{"android":"levelo://app?vid=c2be73b7-5288-4722-9067-c8e77bf6e2a3","ios":"levelo://app?vid=c2be73b7-5288-4722-9067-c8e77bf6e2a3"},"vehicle_type_id":"4","last_reported":1737986967,"current_range_meters":36400,"station_id":"ce4bh4p2rcd13ifvqe1g","pricing_plan_id":"cebpf4jnsgd1na2vs0mg"},{"bike_id":"2e1f41c8-ee04-4d5e-b989-f8d2ceb8944f","system_id":"levelo_inurba_marseille","lat":43.25021,"lon":5.38935,"is_reserved":false,"is_disabled":false,"rental_uris":{"android":"levelo://app?vid=2e1f41c8-ee04-4d5e-b989-f8d2ceb8944f","ios":"levelo://app?vid=2e1f41c8-ee04-4d5e-b989-f8d2ceb8944f"},"vehicle_type_id":"4","last_reported":1737986967,"current_range_meters":26800,"station_id":"ce4bhgp2rcd13ifvqfd0","pricing_plan_id":"cebpf4jnsgd1na2vs0mg"},{"bike_id":"714bad54-c98e-48d1-9514-98a6d8144d82","system_id":"levelo_inurba_marseille","lat":43.309579,"lon":5.390337,"is_reserved":false,"is_disabled":false,"rental_uris":{"android":"levelo://app?vid=714bad54-c98e-48d1-9514-98a6d8144d82","ios":"levelo://app?vid=714bad54-c98e-48d1-9514-98a6d8144d82"},"vehicle_type_id":"4","last_reported":1737986967,"current_range_meters":25200,"station_id":"ce4bgup2rcd13ifvqco0","pricing_plan_id":"cebpf4jnsgd1na2vs0mg"},{"bike_id":"680f1831-190b-4a69-ac07-c5913441d214","system_id":"levelo_inurba_marseille","lat":43.30882,"lon":5.39645,"is_reserved":false,"is_disabled":false,"rental_uris":{"android":"levelo://app?vid=680f1831-190b-4a69-ac07-c5913441d214","ios":"levelo://app?vid=680f1831-190b-4a69-ac07-c5913441d214"},"vehicle_type_id":"4","last_reported":1737986967,"current_range_meters":36800,"station_id":"ce4bh012rcd13ifvqcv0","pricing_plan_id":"cebpf4jnsgd1na2vs0mg"},{"bike_id":"c0e9afac-3027-4e6b-b5e9-3196c155323d","system_id":"levelo_inurba_marseille","lat":43.32489,"lon":5.36558,"is_reserved":false,"is_disabled":false,"rental_uris":{"android":"levelo://app?vid=c0e9afac-3027-4e6b-b5e9-3196c155323d","ios":"levelo://app?vid=c0e9afac-3027-4e6b-b5e9-3196c155323d"},"vehicle_type_id":"4","last_reported":1737986967,"current_range_meters":17600,"station_id":"ce4bhs12rcd13ifvqhvg","pricing_plan_id":"cebpf4jnsgd1na2vs0mg"},{"bike_id":"1a8846b4-de58-401a-91e1-0dd464e262c9","system_id":"levelo_inurba_marseille","lat":43.29093,"lon":5.38165,"is_reserved":false,"is_disabled":false,"rental_uris":{"android":"levelo://app?vid=1a8846b4-de58-401a-91e1-0dd464e262c9","ios":"levelo://app?vid=1a8846b4-de58-401a-91e1-0dd464e262c9"},"vehicle_type_id":"4","last_reported":1737986967,"current_range_meters":36800,"station_id":"ce4bh512rcd13ifvqe2g","pricing_plan_id":"cebpf4jnsgd1na2vs0mg"},{"bike_id":"5c77f4d0-4bb3-4a26-bc92-b4bb99af68bf","system_id":"levelo_inurba_marseille","lat":43.29805,"lon":5.38082,"is_reserved":false,"is_disabled":false,"rental_uris":{"android":"levelo://app?vid=5c77f4d0-4bb3-4a26-bc92-b4bb99af68bf","ios":"levelo://app?vid=5c77f4d0-4bb3-4a26-bc92-b4bb99af68bf"},"vehicle_type_id":"4","last_reported":1737986967,"current_range_meters":38800,"station_id":"ce4bgip2rcd13ifvqbb0","pricing_plan_id":"cebpf4jnsgd1na2vs0mg"},{"bike_id":"ee0b4cd5-99fe-4d06-bec7-ab86f35f9695","system_id":"levelo_inurba_marseille","lat":43.29083,"lon":5.38149,"is_reserved":false,"is_disabled":false,"rental_uris":{"android":"levelo://app?vid=ee0b4cd5-99fe-4d06-bec7-ab86f35f9695","ios":"levelo://app?vid=ee0b4cd5-99fe-4d06-bec7-ab86f35f9695"},"vehicle_type_id":"4","last_reported":1737986967,"current_range_meters":28000,"station_id":"ce4bh512rcd13ifvqe2g","pricing_plan_id":"cebpf4jnsgd1na2vs0mg"},{"bike_id":"3d98c6ce-e80d-46e8-b577-648cd8c28632","system_id":"levelo_inurba_marseille","lat":43.34699,"lon":5.34741,"is_reserved":false,"is_disabled":true,"rental_uris":{"android":"levelo://app?vid=3d98c6ce-e80d-46e8-b577-648cd8c28632","ios":"levelo://app?vid=3d98c6ce-e80d-46e8-b577-648cd8c28632"},"vehicle_type_id":"4","last_reported":1737986967,"current_range_meters":0,"station_id":"","pricing_plan_id":"cebpf4jnsgd1na2vs0mg"},{"bike_id":"b477601f-58e3-435c-b0eb-668c4a2ba4db","system_id":"levelo_inurba_marseille","lat":43.33757,"lon":5.37492,"is_reserved":false,"is_disabled":true,"rental_uris":{"android":"levelo://app?vid=b477601f-58e3-435c-b0eb-668c4a2ba4db","ios":"levelo://app?vid=b477601f-58e3-435c-b0eb-668c4a2ba4db"},"vehicle_type_id":"4","last_reported":1737986967,"current_range_meters":36000,"station_id":"","pricing_plan_id":"cebpf4jnsgd1na2vs0mg"},{"bike_id":"a47bb96c-8b72-4f0c-b810-e2652abe0975","system_id":"levelo_inurba_marseille","lat":43.31476,"lon":5.37377,"is_reserved":false,"is_disabled":false,"rental_uris":{"android":"levelo://app?vid=a47bb96c-8b72-4f0c-b810-e2652abe0975","ios":"levelo://app?vid=a47bb96c-8b72-4f0c-b810-e2652abe0975"},"vehicle_type_id":"4","last_reported":1737986967,"current_range_meters":14400,"station_id":"","pricing_plan_id":"cebpf4jnsgd1na2vs0mg"},{"bike_id":"16cba4e1-cb10-44ef-b1a1-eca95385335f","system_id":"levelo_inurba_marseille","lat":43.28427,"lon":5.34988,"is_reserved":false,"is_disabled":true,"rental_uris":{"android":"levelo://app?vid=16cba4e1-cb10-44ef-b1a1-eca95385335f","ios":"levelo://app?vid=16cba4e1-cb10-44ef-b1a1-eca95385335f"},"vehicle_type_id":"4","last_reported":1737986967,"current_range_meters":35600,"station_id":"ce4bhbh2rcd13ifvqepg","pricing_plan_id":"cebpf4jnsgd1na2vs0mg"},{"bike_id":"9c6c808c-2344-4484-b654-8a68fb115aa6","system_id":"levelo_inurba_marseille","lat":43.311584,"lon":5.369372,"is_reserved":false,"is_disabled":false,"rental_uris":{"android":"levelo://app?vid=9c6c808c-2344-4484-b654-8a68fb115aa6","ios":"levelo://app?vid=9c6c808c-2344-4484-b654-8a68fb115aa6"},"vehicle_type_id":"4","last_reported":1737986967,"current_range_meters":34000,"station_id":"","pricing_plan_id":"cebpf4jnsgd1na2vs0mg"},{"bike_id":"113c17b0-d505-4210-9a61-061acdf4489f","system_id":"levelo_inurba_marseille","lat":43.30491,"lon":5.37911,"is_reserved":false,"is_disabled":false,"rental_uris":{"android":"levelo://app?vid=113c17b0-d505-4210-9a61-061acdf4489f","ios":"levelo://app?vid=113c17b0-d505-4210-9a61-061acdf4489f"},"vehicle_type_id":"4","last_reported":1737986967,"current_range_meters":10800,"station_id":"ce4bgup2rcd13ifvqcn0","pricing_plan_id":"cebpf4jnsgd1na2vs0mg"},{"bike_id":"9307df25-cc6d-45fb-af52-7a3bcf343e82","system_id":"levelo_inurba_marseille","lat":43.2654,"lon":5.37269,"is_reserved":false,"is_disabled":false,"rental_uris":{"android":"levelo://app?vid=9307df25-cc6d-45fb-af52-7a3bcf343e82","ios":"levelo://app?vid=9307df25-cc6d-45fb-af52-7a3bcf343e82"},"vehicle_type_id":"4","last_reported":1737986967,"current_range_meters":18800,"station_id":"ce4bhg12rcd13ifvqf70","pricing_plan_id":"cebpf4jnsgd1na2vs0mg"},{"bike_id":"f972a488-1777-4d74-b63f-8f38aa546bd1","system_id":"levelo_inurba_marseille","lat":43.255164,"lon":5.382136,"is_reserved":false,"is_disabled":false,"rental_uris":{"android":"levelo://app?vid=f972a488-1777-4d74-b63f-8f38aa546bd1","ios":"levelo://app?vid=f972a488-1777-4d74-b63f-8f38aa546bd1"},"vehicle_type_id":"4","last_reported":1737986967,"current_range_meters":10000,"station_id":"ce4bhih2rcd13ifvqfs0","pricing_plan_id":"cebpf4jnsgd1na2vs0mg"},{"bike_id":"8fc5f132-29ed-47c1-bff0-bf17728d82ae","system_id":"levelo_inurba_marseille","lat":43.29373,"lon":5.37843,"is_reserved":false,"is_disabled":true,"rental_uris":{"android":"levelo://app?vid=8fc5f132-29ed-47c1-bff0-bf17728d82ae","ios":"levelo://app?vid=8fc5f132-29ed-47c1-bff0-bf17728d82ae"},"vehicle_type_id":"4","last_reported":1737986967,"current_range_meters":29600,"station_id":"ce4bgjh2rcd13ifvqbf0","pricing_plan_id":"cebpf4jnsgd1na2vs0mg"},{"bike_id":"6a19a6ad-734f-4532-8ad6-46b0065425bf","system_id":"levelo_inurba_marseille","lat":43.32057,"lon":5.41475,"is_reserved":false,"is_disabled":false,"rental_uris":{"android":"levelo://app?vid=6a19a6ad-734f-4532-8ad6-46b0065425bf","ios":"levelo://app?vid=6a19a6ad-734f-4532-8ad6-46b0065425bf"},"vehicle_type_id":"4","last_reported":1737986967,"current_range_meters":37600,"station_id":"ce4bhq92rcd13ifvqhkg","pricing_plan_id":"cebpf4jnsgd1na2vs0mg"},{"bike_id":"d8cce9ce-62f6-4e49-9e6a-45800716cd40","system_id":"levelo_inurba_marseille","lat":43.28929,"lon":5.3962,"is_reserved":false,"is_disabled":false,"rental_uris":{"android":"levelo://app?vid=d8cce9ce-62f6-4e49-9e6a-45800716cd40","ios":"levelo://app?vid=d8cce9ce-62f6-4e49-9e6a-45800716cd40"},"vehicle_type_id":"4","last_reported":1737986967,"current_range_meters":6400,"station_id":"ce4bh3h2rcd13ifvqdn0","pricing_plan_id":"cebpf4jnsgd1na2vs0mg"},{"bike_id":"3c270993-1bed-439f-9f22-8871b74379ef","system_id":"levelo_inurba_marseille","lat":43.28003,"lon":5.40022,"is_reserved":false,"is_disabled":false,"rental_uris":{"android":"levelo://app?vid=3c270993-1bed-439f-9f22-8871b74379ef","ios":"levelo://app?vid=3c270993-1bed-439f-9f22-8871b74379ef"},"vehicle_type_id":"4","last_reported":1737986967,"current_range_meters":14800,"station_id":"ce4bho92rcd13ifvqh4g","pricing_plan_id":"cebpf4jnsgd1na2vs0mg"},{"bike_id":"736e0873-6058-4924-9571-5b54a33ece39","system_id":"levelo_inurba_marseille","lat":43.28974,"lon":5.37827,"is_reserved":false,"is_disabled":false,"rental_uris":{"android":"levelo://app?vid=736e0873-6058-4924-9571-5b54a33ece39","ios":"levelo://app?vid=736e0873-6058-4924-9571-5b54a33ece39"},"vehicle_type_id":"4","last_reported":1737986967,"current_range_meters":30000,"station_id":"ce4bh9p2rcd13ifvqed0","pricing_plan_id":"cebpf4jnsgd1na2vs0mg"},{"bike_id":"63121853-d3ae-48b9-933c-579cf2441cbf","system_id":"levelo_inurba_marseille","lat":43.28454,"lon":5.35885,"is_reserved":false,"is_disabled":false,"rental_uris":{"android":"levelo://app?vid=63121853-d3ae-48b9-933c-579cf2441cbf","ios":"levelo://app?vid=63121853-d3ae-48b9-933c-579cf2441cbf"},"vehicle_type_id":"4","last_reported":1737986967,"current_range_meters":38000,"station_id":"ce4bhah2rcd13ifvqei0","pricing_plan_id":"cebpf4jnsgd1na2vs0mg"},{"bike_id":"79cfbf55-97ec-4a5b-af3a-38bd70f71f3a","system_id":"levelo_inurba_marseille","lat":43.23196,"lon":5.35556,"is_reserved":false,"is_disabled":false,"rental_uris":{"android":"levelo://app?vid=79cfbf55-97ec-4a5b-af3a-38bd70f71f3a","ios":"levelo://app?vid=79cfbf55-97ec-4a5b-af3a-38bd70f71f3a"},"vehicle_type_id":"4","last_reported":1737986967,"current_range_meters":11200,"station_id":"ce4bhu92rcd13ifvqi70","pricing_plan_id":"cebpf4jnsgd1na2vs0mg"},{"bike_id":"16d24164-299e-4258-9525-c5ffdbd5c047","system_id":"levelo_inurba_marseille","lat":43.26188,"lon":5.37909,"is_reserved":false,"is_disabled":false,"rental_uris":{"android":"levelo://app?vid=16d24164-299e-4258-9525-c5ffdbd5c047","ios":"levelo://app?vid=16d24164-299e-4258-9525-c5ffdbd5c047"},"vehicle_type_id":"4","last_reported":1737986967,"current_range_meters":33600,"station_id":"ce4bhjp2rcd13ifvqg90","pricing_plan_id":"cebpf4jnsgd1na2vs0mg"},{"bike_id":"f4a67fd7-7ba0-462e-b321-724410a83bc3","system_id":"levelo_inurba_marseille","lat":43.28644,"lon":5.35093,"is_reserved":false,"is_disabled":false,"rental_uris":{"android":"levelo://app?vid=f4a67fd7-7ba0-462e-b321-724410a83bc3","ios":"levelo://app?vid=f4a67fd7-7ba0-462e-b321-724410a83bc3"},"vehicle_type_id":"4","last_reported":1737986967,"current_range_meters":36800,"station_id":"ce4bhch2rcd13ifvqeug","pricing_plan_id":"cebpf4jnsgd1na2vs0mg"},{"bike_id":"b6cf29ee-e36f-4e61-bf84-be250d596322","system_id":"levelo_inurba_marseille","lat":43.2508,"lon":5.39524,"is_reserved":false,"is_disabled":false,"rental_uris":{"android":"levelo://app?vid=b6cf29ee-e36f-4e61-bf84-be250d596322","ios":"levelo://app?vid=b6cf29ee-e36f-4e61-bf84-be250d596322"},"vehicle_type_id":"4","last_reported":1737986967,"current_range_meters":18000,"station_id":"ce4bhm12rcd13ifvqgkg","pricing_plan_id":"cebpf4jnsgd1na2vs0mg"},{"bike_id":"a531e49c-bf0e-404d-b31b-e8ddb39ea5e0","system_id":"levelo_inurba_marseille","lat":43.278123,"lon":5.407097,"is_reserved":false,"is_disabled":false,"rental_uris":{"android":"levelo://app?vid=a531e49c-bf0e-404d-b31b-e8ddb39ea5e0","ios":"levelo://app?vid=a531e49c-bf0e-404d-b31b-e8ddb39ea5e0"},"vehicle_type_id":"4","last_reported":1737986967,"current_range_meters":28800,"station_id":"ce4bhnh2rcd13ifvqgtg","pricing_plan_id":"cebpf4jnsgd1na2vs0mg"},{"bike_id":"3d64d7d2-3259-40ac-8d44-5551c7d82c8a","system_id":"levelo_inurba_marseille","lat":43.23149,"lon":5.43714,"is_reserved":false,"is_disabled":false,"rental_uris":{"android":"levelo://app?vid=3d64d7d2-3259-40ac-8d44-5551c7d82c8a","ios":"levelo://app?vid=3d64d7d2-3259-40ac-8d44-5551c7d82c8a"},"vehicle_type_id":"4","last_reported":1737986967,"current_range_meters":32000,"station_id":"ce4bhmp2rcd13ifvqgog","pricing_plan_id":"cebpf4jnsgd1na2vs0mg"},{"bike_id":"a1208657-f52b-49e0-8b88-08532b2847d6","system_id":"levelo_inurba_marseille","lat":43.26778,"lon":5.39401,"is_reserved":false,"is_disabled":false,"rental_uris":{"android":"levelo://app?vid=a1208657-f52b-49e0-8b88-08532b2847d6","ios":"levelo://app?vid=a1208657-f52b-49e0-8b88-08532b2847d6"},"vehicle_type_id":"4","last_reported":1737986967,"current_range_meters":28400,"station_id":"ce4bhh12rcd13ifvqfg0","pricing_plan_id":"cebpf4jnsgd1na2vs0mg"},{"bike_id":"4008c5d4-accb-4981-8933-9e85f4cde128","system_id":"levelo_inurba_marseille","lat":43.23204,"lon":5.3556,"is_reserved":false,"is_disabled":false,"rental_uris":{"android":"levelo://app?vid=4008c5d4-accb-4981-8933-9e85f4cde128","ios":"levelo://app?vid=4008c5d4-accb-4981-8933-9e85f4cde128"},"vehicle_type_id":"4","last_reported":1737986967,"current_range_meters":17200,"station_id":"ce4bhu92rcd13ifvqi70","pricing_plan_id":"cebpf4jnsgd1na2vs0mg"},{"bike_id":"4b97fadc-60a8-46a0-ba51-350631f405f8","system_id":"levelo_inurba_marseille","lat":43.2692,"lon":5.40239,"is_reserved":false,"is_disabled":false,"rental_uris":{"android":"levelo://app?vid=4b97fadc-60a8-46a0-ba51-350631f405f8","ios":"levelo://app?vid=4b97fadc-60a8-46a0-ba51-350631f405f8"},"vehicle_type_id":"4","last_reported":1737986967,"current_range_meters":37600,"station_id":"cjm6bp8fraef2m0cb0m0","pricing_plan_id":"cebpf4jnsgd1na2vs0mg"},{"bike_id":"5ec42b4c-3b21-4334-9677-fb9c44d772bd","system_id":"levelo_inurba_marseille","lat":43.28626,"lon":5.35105,"is_reserved":false,"is_disabled":false,"rental_uris":{"android":"levelo://app?vid=5ec42b4c-3b21-4334-9677-fb9c44d772bd","ios":"levelo://app?vid=5ec42b4c-3b21-4334-9677-fb9c44d772bd"},"vehicle_type_id":"4","last_reported":1737986967,"current_range_meters":7200,"station_id":"ce4bhch2rcd13ifvqeug","pricing_plan_id":"cebpf4jnsgd1na2vs0mg"},{"bike_id":"fecdd18a-aee3-46cf-b9f6-4c07ce305fcf","system_id":"levelo_inurba_marseille","lat":43.30208,"lon":5.39462,"is_reserved":false,"is_disabled":false,"rental_uris":{"android":"levelo://app?vid=fecdd18a-aee3-46cf-b9f6-4c07ce305fcf","ios":"levelo://app?vid=fecdd18a-aee3-46cf-b9f6-4c07ce305fcf"},"vehicle_type_id":"4","last_reported":1737986967,"current_range_meters":32800,"station_id":"ce4bh0p2rcd13ifvqd70","pricing_plan_id":"cebpf4jnsgd1na2vs0mg"},{"bike_id":"4f5a043f-533b-49c2-9c2a-1503d4a5ec2d","system_id":"levelo_inurba_marseille","lat":43.28033,"lon":5.36941,"is_reserved":false,"is_disabled":false,"rental_uris":{"android":"levelo://app?vid=4f5a043f-533b-49c2-9c2a-1503d4a5ec2d","ios":"levelo://app?vid=4f5a043f-533b-49c2-9c2a-1503d4a5ec2d"},"vehicle_type_id":"4","last_reported":1737986967,"current_range_meters":20800,"station_id":"ce4bha12rcd13ifvqef0","pricing_plan_id":"cebpf4jnsgd1na2vs0mg"},{"bike_id":"01d4a71b-96eb-473c-8ed0-7576563a8204","system_id":"levelo_inurba_marseille","lat":43.29372,"lon":5.37848,"is_reserved":false,"is_disabled":false,"rental_uris":{"android":"levelo://app?vid=01d4a71b-96eb-473c-8ed0-7576563a8204","ios":"levelo://app?vid=01d4a71b-96eb-473c-8ed0-7576563a8204"},"vehicle_type_id":"4","last_reported":1737986967,"current_range_meters":9200,"station_id":"ce4bgjh2rcd13ifvqbf0","pricing_plan_id":"cebpf4jnsgd1na2vs0mg"},{"bike_id":"74b98b9d-33c5-4daa-8644-f469fbfdd6eb","system_id":"levelo_inurba_marseille","lat":43.25868,"lon":5.39898,"is_reserved":false,"is_disabled":false,"rental_uris":{"android":"levelo://app?vid=74b98b9d-33c5-4daa-8644-f469fbfdd6eb","ios":"levelo://app?vid=74b98b9d-33c5-4daa-8644-f469fbfdd6eb"},