{"last_updated":1736759460,"ttl":60,"version":"2.2","data":{"bikes":[{"bike_id":"73c91127-67e0-422f-8568-4d52dd016d1c","system_id":"levelo_inurba_marseille","lat":43.32473,"lon":5.36542,"is_reserved":false,"is_disabled":false,"rental_uris":{"android":"levelo://app?vid=73c91127-67e0-422f-8568-4d52dd016d1c","ios":"levelo://app?vid=73c91127-67e0-422f-8568-4d52dd016d1c"},"vehicle_type_id":"4","last_reported":1736759460,"current_range_meters":12800,"station_id":"ce4bhs12rcd13ifvqhvg","pricing_plan_id":"cebpf4jnsgd1na2vs0mg"},{"bike_id":"603e9aa2-2e36-4a39-aea3-018b1a0429c2","system_id":"levelo_inurba_marseille","lat":43.24071,"lon":5.3776,"is_reserved":false,"is_disabled":false,"rental_uris":{"android":"levelo://app?vid=603e9aa2-2e36-4a39-aea3-018b1a0429c2","ios":"levelo://app?vid=603e9aa2-2e36-4a39-aea3-018b1a0429c2"},"vehicle_type_id":"4","last_reported":1736759460,"current_range_meters":28800,"station_id":"ce4bhnp2rcd13ifvqgvg","pricing_plan_id":"cebpf4jnsgd1na2vs0mg"},{"bike_id":"3e2a0fc6-295e-4a34-ab81-d2a0920baf45","system_id":"levelo_inurba_marseille","lat":43.27994,"lon":5.40016,"is_reserved":false,"is_disabled":false,"rental_uris":{"android":"levelo://app?vid=3e2a0fc6-295e-4a34-ab81-d2a0920baf45","ios":"levelo://app?vid=3e2a0fc6-295e-4a34-ab81-d2a0920baf45"},"vehicle_type_id":"4","last_reported":1736759460,"current_range_meters":18800,"station_id":"ce4bho92rcd13ifvqh4g","pricing_plan_id":"cebpf4jnsgd1na2vs0mg"},{"bike_id":"acbcebf9-c541-4938-9819-ce556c78935a","system_id":"levelo_inurba_marseille","lat":43.25941,"lon":5.40916,"is_reserved":false,"is_disabled":false,"rental_uris":{"android":"levelo://app?vid=acbcebf9-c541-4938-9819-ce556c78935a","ios":"levelo://app?vid=acbcebf9-c541-4938-9819-ce556c78935a"},"vehicle_type_id":"4","last_reported":1736759460,"current_range_meters":32000,"station_id":"ce4bhm92rcd13ifvqglg","pricing_plan_id":"cebpf4jnsgd1na2vs0mg"},{"bike_id":"b974e9dc-f694-42ee-a66f-f9a9d923e09b","system_id":"levelo_inurba_marseille","lat":43.31355,"lon":5.38549,"is_reserved":false,"is_disabled":false,"rental_uris":{"android":"levelo://app?vid=b974e9dc-f694-42ee-a66f-f9a9d923e09b","ios":"levelo://app?vid=b974e9dc-f694-42ee-a66f-f9a9d923e09b"},"vehicle_type_id":"4","last_reported":1736759460,"current_range_meters":34800,"station_id":"ce4bgt92rcd13ifvqcf0","pricing_plan_id":"cebpf4jnsgd1na2vs0mg"},{"bike_id":"73a06f76-fb63-4b48-a702-d3db82d41550","system_id":"levelo_inurba_marseille","lat":43.24649,"lon":5.38892,"is_reserved":false,"is_disabled":false,"rental_uris":{"android":"levelo://app?vid=73a06f76-fb63-4b48-a702-d3db82d41550","ios":"levelo://app?vid=73a06f76-fb63-4b48-a702-d3db82d41550"},"vehicle_type_id":"4","last_reported":1736759460,"current_range_meters":38800,"station_id":"ce4bhg12rcd13ifvqf60","pricing_plan_id":"cebpf4jnsgd1na2vs0mg"},{"bike_id":"b5dfa1bf-dcc5-4fbc-853e-622e764bb302","system_id":"levelo_inurba_marseille","lat":43.29578,"lon":5.36746,"is_reserved":false,"is_disabled":false,"rental_uris":{"android":"levelo://app?vid=b5dfa1bf-dcc5-4fbc-853e-622e764bb302","ios":"levelo://app?vid=b5dfa1bf-dcc5-4fbc-853e-622e764bb302"},"vehicle_type_id":"4","last_reported":1736759460,"current_range_meters":37600,"station_id":"ce4bgph2rcd13ifvqc2g","pricing_plan_id":"cebpf4jnsgd1na2vs0mg"},{"bike_id":"595f553c-848b-4b5a-bc07-537509a3b82b","system_id":"levelo_inurba_marseille","lat":43.3042,"lon":5.39749,"is_reserved":false,"is_disabled":false,"rental_uris":{"android":"levelo://app?vid=595f553c-848b-4b5a-bc07-537509a3b82b","ios":"levelo://app?vid=595f553c-848b-4b5a-bc07-537509a3b82b"},"vehicle_type_id":"4","last_reported":1736759460,"current_range_meters":28000,"station_id":"ce4bh092rcd13ifvqd20","pricing_plan_id":"cebpf4jnsgd1na2vs0mg"},{"bike_id":"52b34702-0dce-4372-b662-e45e1618cde4","system_id":"levelo_inurba_marseille","lat":43.313,"lon":5.36704,"is_reserved":false,"is_disabled":false,"rental_uris":{"android":"levelo://app?vid=52b34702-0dce-4372-b662-e45e1618cde4","ios":"levelo://app?vid=52b34702-0dce-4372-b662-e45e1618cde4"},"vehicle_type_id":"4","last_reported":1736759460,"current_range_meters":35200,"station_id":"ce4bgr92rcd13ifvqc6g","pricing_plan_id":"cebpf4jnsgd1na2vs0mg"},{"bike_id":"6f159896-776d-419c-ba79-7243c169a2d8","system_id":"levelo_inurba_marseille","lat":43.29795,"lon":5.38099,"is_reserved":false,"is_disabled":false,"rental_uris":{"android":"levelo://app?vid=6f159896-776d-419c-ba79-7243c169a2d8","ios":"levelo://app?vid=6f159896-776d-419c-ba79-7243c169a2d8"},"vehicle_type_id":"4","last_reported":1736759460,"current_range_meters":38800,"station_id":"ce4bgip2rcd13ifvqbb0","pricing_plan_id":"cebpf4jnsgd1na2vs0mg"},{"bike_id":"15df4899-6207-496a-8c37-ac953b2dff2b","system_id":"levelo_inurba_marseille","lat":43.30519,"lon":5.36696,"is_reserved":false,"is_disabled":false,"rental_uris":{"android":"levelo://app?vid=15df4899-6207-496a-8c37-ac953b2dff2b","ios":"levelo://app?vid=15df4899-6207-496a-8c37-ac953b2dff2b"},"vehicle_type_id":"4","last_reported":1736759460,"current_range_meters":35200,"station_id":"ce4bgrp2rcd13ifvqc9g","pricing_plan_id":"cebpf4jnsgd1na2vs0mg"},{"bike_id":"5bb5758f-37be-496e-ac0a-3712e6b43125","system_id":"levelo_inurba_marseille","lat":43.26197,"lon":5.37934,"is_reserved":false,"is_disabled":false,"rental_uris":{"android":"levelo://app?vid=5bb5758f-37be-496e-ac0a-3712e6b43125","ios":"levelo://app?vid=5bb5758f-37be-496e-ac0a-3712e6b43125"},"vehicle_type_id":"4","last_reported":1736759460,"current_range_meters":38800,"station_id":"ce4bhjp2rcd13ifvqg90","pricing_plan_id":"cebpf4jnsgd1na2vs0mg"},{"bike_id":"a6c0c725-1398-48eb-9012-8871e806d9ff","system_id":"levelo_inurba_marseille","lat":43.25732,"lon":5.41128,"is_reserved":false,"is_disabled":false,"rental_uris":{"android":"levelo://app?vid=a6c0c725-1398-48eb-9012-8871e806d9ff","ios":"levelo://app?vid=a6c0c725-1398-48eb-9012-8871e806d9ff"},"vehicle_type_id":"4","last_reported":1736759460,"current_range_meters":38000,"station_id":"ce4bhkp2rcd13ifvqgd0","pricing_plan_id":"cebpf4jnsgd1na2vs0mg"},{"bike_id":"6ba53d8a-7aed-4e82-aa8e-de48e43b55a1","system_id":"levelo_inurba_marseille","lat":43.26032,"lon":5.375524,"is_reserved":false,"is_disabled":false,"rental_uris":{"android":"levelo://app?vid=6ba53d8a-7aed-4e82-aa8e-de48e43b55a1","ios":"levelo://app?vid=6ba53d8a-7aed-4e82-aa8e-de48e43b55a1"},"vehicle_type_id":"4","last_reported":1736759460,"current_range_meters":38000,"station_id":"ce4bhgh2rcd13ifvqfa0","pricing_plan_id":"cebpf4jnsgd1na2vs0mg"},{"bike_id":"eef7da32-c1ce-4bb8-ad34-65e94b05905f","system_id":"levelo_inurba_marseille","lat":43.26777,"lon":5.39558,"is_reserved":false,"is_disabled":false,"rental_uris":{"android":"levelo://app?vid=eef7da32-c1ce-4bb8-ad34-65e94b05905f","ios":"levelo://app?vid=eef7da32-c1ce-4bb8-ad34-65e94b05905f"},"vehicle_type_id":"4","last_reported":1736759460,"current_range_meters":26800,"station_id":"ce4bhh12rcd13ifvqfg0","pricing_plan_id":"cebpf4jnsgd1na2vs0mg"},{"bike_id":"bedfce0e-3b55-4239-8833-c5d32209acc6","system_id":"levelo_inurba_marseille","lat":43.27976,"lon":5.38736,"is_reserved":false,"is_disabled":false,"rental_uris":{"android":"levelo://app?vid=bedfce0e-3b55-4239-8833-c5d32209acc6","ios":"levelo://app?vid=bedfce0e-3b55-4239-8833-c5d32209acc6"},"vehicle_type_id":"4","last_reported":1736759460,"current_range_meters":38000,"station_id":"ce4bhg12rcd13ifvqf80","pricing_plan_id":"cebpf4jnsgd1na2vs0mg"},{"bike_id":"8a0a63c5-a4ea-4b70-8b87-5cf7d310b8f8","system_id":"levelo_inurba_marseille","lat":43.30345,"lon":5.37781,"is_reserved":false,"is_disabled":false,"rental_uris":{"android":"levelo://app?vid=8a0a63c5-a4ea-4b70-8b87-5cf7d310b8f8","ios":"levelo://app?vid=8a0a63c5-a4ea-4b70-8b87-5cf7d310b8f8"},"vehicle_type_id":"4","last_reported":1736759460,"current_range_meters":17600,"station_id":"ce4bguh2rcd13ifvqcj0","pricing_plan_id":"cebpf4jnsgd1na2vs0mg"},{"bike_id":"7ef2be12-0b00-4e18-aaf8-eb20c7337086","system_id":"levelo_inurba_marseille","lat":43.27493,"lon":5.42457,"is_reserved":false,"is_disabled":false,"rental_uris":{"android":"levelo://app?vid=7ef2be12-0b00-4e18-aaf8-eb20c7337086","ios":"levelo://app?vid=7ef2be12-0b00-4e18-aaf8-eb20c7337086"},"vehicle_type_id":"4","last_reported":1736759460,"current_range_meters":16000,"station_id":"ce4bhn92rcd13ifvqgrg","pricing_plan_id":"cebpf4jnsgd1na2vs0mg"},{"bike_id":"b5c8f85c-e9ae-462e-b017-013eb2d5b68f","system_id":"levelo_inurba_marseille","lat":43.23152,"lon":5.43717,"is_reserved":false,"is_disabled":false,"rental_uris":{"android":"levelo://app?vid=b5c8f85c-e9ae-462e-b017-013eb2d5b68f","ios":"levelo://app?vid=b5c8f85c-e9ae-462e-b017-013eb2d5b68f"},"vehicle_type_id":"4","last_reported":1736759460,"current_range_meters":14800,"station_id":"ce4bhmp2rcd13ifvqgog","pricing_plan_id":"cebpf4jnsgd1na2vs0mg"},{"bike_id":"f6184cbf-c92f-4cd9-a4bc-725ea8804222","system_id":"levelo_inurba_marseille","lat":43.34141,"lon":5.40893,"is_reserved":false,"is_disabled":false,"rental_uris":{"android":"levelo://app?vid=f6184cbf-c92f-4cd9-a4bc-725ea8804222","ios":"levelo://app?vid=f6184cbf-c92f-4cd9-a4bc-725ea8804222"},"vehicle_type_id":"4","last_reported":1736759460,"current_range_meters":38800,"station_id":"ce4bhqh2rcd13ifvqhlg","pricing_plan_id":"cebpf4jnsgd1na2vs0mg"},{"bike_id":"25201559-3be6-490e-b049-639df5366fcd","system_id":"levelo_inurba_marseille","lat":43.29977,"lon":5.38496,"is_reserved":false,"is_disabled":true,"rental_uris":{"android":"levelo://app?vid=25201559-3be6-490e-b049-639df5366fcd","ios":"levelo://app?vid=25201559-3be6-490e-b049-639df5366fcd"},"vehicle_type_id":"4","last_reported":1736759460,"current_range_meters":6800,"station_id":"ce4bgj92rcd13ifvqbd0","pricing_plan_id":"cebpf4jnsgd1na2vs0mg"},{"bike_id":"9fa9af50-b1c9-4c3e-bb7d-5ab93a672243","system_id":"levelo_inurba_marseille","lat":43.33588,"lon":5.41026,"is_reserved":false,"is_disabled":false,"rental_uris":{"android":"levelo://app?vid=9fa9af50-b1c9-4c3e-bb7d-5ab93a672243","ios":"levelo://app?vid=9fa9af50-b1c9-4c3e-bb7d-5ab93a672243"},"vehicle_type_id":"4","last_reported":1736759460,"current_range_meters":39200,"station_id":"ce4bhqh2rcd13ifvqhmg","pricing_plan_id":"cebpf4jnsgd1na2vs0mg"},{"bike_id":"c91de1b2-4581-4fe0-965a-97b6e325ecb1","system_id":"levelo_inurba_marseille","lat":43.295002,"lon":5.387436,"is_reserved":false,"is_disabled":false,"rental_uris":{"android":"levelo://app?vid=c91de1b2-4581-4fe0-965a-97b6e325ecb1","ios":"levelo://app?vid=c91de1b2-4581-4fe0-965a-97b6e325ecb1"},"vehicle_type_id":"4","last_reported":1736759460,"current_range_meters":36800,"station_id":"ce4bh3p2rcd13ifvqdp0","pricing_plan_id":"cebpf4jnsgd1na2vs0mg"},{"bike_id":"2ea2c228-0940-42c6-a0d3-d8191be146e6","system_id":"levelo_inurba_marseille","lat":43.30569,"lon":5.36713,"is_reserved":false,"is_disabled":false,"rental_uris":{"android":"levelo://app?vid=2ea2c228-0940-42c6-a0d3-d8191be146e6","ios":"levelo://app?vid=2ea2c228-0940-42c6-a0d3-d8191be146e6"},"vehicle_type_id":"4","last_reported":1736759460,"current_range_meters":38800,"station_id":"ce4bgrp2rcd13ifvqc9g","pricing_plan_id":"cebpf4jnsgd1na2vs0mg"},{"bike_id":"fff8389d-6087-44cb-8fc5-14fabbfc71ae","system_id":"levelo_inurba_marseille","lat":43.30322,"lon":5.369,"is_reserved":false,"is_disabled":false,"rental_uris":{"android":"levelo://app?vid=fff8389d-6087-44cb-8fc5-14fabbfc71ae","ios":"levelo://app?vid=fff8389d-6087-44cb-8fc5-14fabbfc71ae"},"vehicle_type_id":"4","last_reported":1736759460,"current_range_meters":10000,"station_id":"ce4bgqh2rcd13ifvqc5g","pricing_plan_id":"cebpf4jnsgd1na2vs0mg"},{"bike_id":"6a8dc65c-8c47-4239-8815-8efa2acdc338","system_id":"levelo_inurba_marseille","lat":43.279906,"lon":5.416558,"is_reserved":false,"is_disabled":true,"rental_uris":{"android":"levelo://app?vid=6a8dc65c-8c47-4239-8815-8efa2acdc338","ios":"levelo://app?vid=6a8dc65c-8c47-4239-8815-8efa2acdc338"},"vehicle_type_id":"4","last_reported":1736759460,"current_range_meters":4400,"station_id":"ce4bho12rcd13ifvqh1g","pricing_plan_id":"cebpf4jnsgd1na2vs0mg"},{"bike_id":"c86d9c16-1561-4fa1-b1e8-86be7167bc59","system_id":"levelo_inurba_marseille","lat":43.28699,"lon":5.40007,"is_reserved":false,"is_disabled":false,"rental_uris":{"android":"levelo://app?vid=c86d9c16-1561-4fa1-b1e8-86be7167bc59","ios":"levelo://app?vid=c86d9c16-1561-4fa1-b1e8-86be7167bc59"},"vehicle_type_id":"4","last_reported":1736759460,"current_range_meters":16000,"station_id":"ce4bho92rcd13ifvqh3g","pricing_plan_id":"cebpf4jnsgd1na2vs0mg"},{"bike_id":"94d00723-79f7-443c-bc62-0c89ddbb1d1c","system_id":"levelo_inurba_marseille","lat":43.28164,"lon":5.42649,"is_reserved":false,"is_disabled":true,"rental_uris":{"android":"levelo://app?vid=94d00723-79f7-443c-bc62-0c89ddbb1d1c","ios":"levelo://app?vid=94d00723-79f7-443c-bc62-0c89ddbb1d1c"},"vehicle_type_id":"4","last_reported":1736759460,"current_range_meters":22000,"station_id":"ce4bhnh2rcd13ifvqgug","pricing_plan_id":"cebpf4jnsgd1na2vs0mg"},{"bike_id":"940aece2-a797-446d-8b67-18bd06afe715","system_id":"levelo_inurba_marseille","lat":43.25837,"lon":5.39427,"is_reserved":false,"is_disabled":false,"rental_uris":{"android":"levelo://app?vid=940aece2-a797-446d-8b67-18bd06afe715","ios":"levelo://app?vid=940aece2-a797-446d-8b67-18bd06afe715"},"vehicle_type_id":"4","last_reported":1736759460,"current_range_meters":38800,"station_id":"ce4bhip2rcd13ifvqft0","pricing_plan_id":"cebpf4jnsgd1na2vs0mg"},{"bike_id":"1d1453ac-9920-4217-9a89-34f1fcade485","system_id":"levelo_inurba_marseille","lat":43.231528,"lon":5.437136,"is_reserved":false,"is_disabled":false,"rental_uris":{"android":"levelo://app?vid=1d1453ac-9920-4217-9a89-34f1fcade485","ios":"levelo://app?vid=1d1453ac-9920-4217-9a89-34f1fcade485"},"vehicle_type_id":"4","last_reported":1736759460,"current_range_meters":8400,"station_id":"ce4bhmp2rcd13ifvqgog","pricing_plan_id":"cebpf4jnsgd1na2vs0mg"},{"bike_id":"130d2a94-5f4d-4438-ac45-22bd2c35af25","system_id":"levelo_inurba_marseille","lat":43.31331,"lon":5.36744,"is_reserved":false,"is_disabled":false,"rental_uris":{"android":"levelo://app?vid=130d2a94-5f4d-4438-ac45-22bd2c35af25","ios":"levelo://app?vid=130d2a94-5f4d-4438-ac45-22bd2c35af25"},"vehicle_type_id":"4","last_reported":1736759460,"current_range_meters":28000,"station_id":"ce4bgr92rcd13ifvqc6g","pricing_plan_id":"cebpf4jnsgd1na2vs0mg"},{"bike_id":"e35d110b-0ca6-4c99-b711-04ba364d3860","system_id":"levelo_inurba_marseille","lat":43.2319,"lon":5.35566,"is_reserved":false,"is_disabled":false,"rental_uris":{"android":"levelo://app?vid=e35d110b-0ca6-4c99-b711-04ba364d3860","ios":"levelo://app?vid=e35d110b-0ca6-4c99-b711-04ba364d3860"},"vehicle_type_id":"4","last_reported":1736759460,"current_range_meters":38400,"station_id":"ce4bhu92rcd13ifvqi70","pricing_plan_id":"cebpf4jnsgd1na2vs0mg"},{"bike_id":"ba844af9-285f-4fc6-b6db-3835fd66e413","system_id":"levelo_inurba_marseille","lat":43.30127,"lon":5.37404,"is_reserved":false,"is_disabled":false,"rental_uris":{"android":"levelo://app?vid=ba844af9-285f-4fc6-b6db-3835fd66e413","ios":"levelo://app?vid=ba844af9-285f-4fc6-b6db-3835fd66e413"},"vehicle_type_id":"4","last_reported":1736759460,"current_range_meters":27600,"station_id":"ce4bgs92rcd13ifvqcc0","pricing_plan_id":"cebpf4jnsgd1na2vs0mg"},{"bike_id":"148d0a7c-42d0-4872-b2d5-6ca7f7016b4c","system_id":"levelo_inurba_marseille","lat":43.24167,"lon":5.39745,"is_reserved":false,"is_disabled":false,"rental_uris":{"android":"levelo://app?vid=148d0a7c-42d0-4872-b2d5-6ca7f7016b4c","ios":"levelo://app?vid=148d0a7c-42d0-4872-b2d5-6ca7f7016b4c"},"vehicle_type_id":"4","last_reported":1736759460,"current_range_meters":34000,"station_id":"ce4bhn12rcd13ifvqgpg","pricing_plan_id":"cebpf4jnsgd1na2vs0mg"},{"bike_id":"92a16257-c803-43e8-baae-6259f92b5ff5","system_id":"levelo_inurba_marseille","lat":43.292,"lon":5.35798,"is_reserved":false,"is_disabled":true,"rental_uris":{"android":"levelo://app?vid=92a16257-c803-43e8-baae-6259f92b5ff5","ios":"levelo://app?vid=92a16257-c803-43e8-baae-6259f92b5ff5"},"vehicle_type_id":"4","last_reported":1736759460,"current_range_meters":2000,"station_id":"ce4bhb12rcd13ifvqel0","pricing_plan_id":"cebpf4jnsgd1na2vs0mg"},{"bike_id":"a16a4938-07a9-4f64-adf2-29a7e6f8a1c3","system_id":"levelo_inurba_marseille","lat":43.29039,"lon":5.39975,"is_reserved":false,"is_disabled":false,"rental_uris":{"android":"levelo://app?vid=a16a4938-07a9-4f64-adf2-29a7e6f8a1c3","ios":"levelo://app?vid=a16a4938-07a9-4f64-adf2-29a7e6f8a1c3"},"vehicle_type_id":"4","last_reported":1736759460,"current_range_meters":38800,"station_id":"ce4bh392rcd13ifvqdm0","pricing_plan_id":"cebpf4jnsgd1na2vs0mg"},{"bike_id":"aa9570cc-0398-438b-93cc-8658846ae209","system_id":"levelo_inurba_marseille","lat":43.33614,"lon":5.4103,"is_reserved":false,"is_disabled":false,"rental_uris":{"android":"levelo://app?vid=aa9570cc-0398-438b-93cc-8658846ae209","ios":"levelo://app?vid=aa9570cc-0398-438b-93cc-8658846ae209"},"vehicle_type_id":"4","last_reported":1736759460,"current_range_meters":32400,"station_id":"ce4bhqh2rcd13ifvqhmg","pricing_plan_id":"cebpf4jnsgd1na2vs0mg"},{"bike_id":"4536007d-0cfb-4e9d-a914-9b715b46ce6f","system_id":"levelo_inurba_marseille","lat":43.27304,"lon":5.39136,"is_reserved":false,"is_disabled":true,"rental_uris":{"android":"levelo://app?vid=4536007d-0cfb-4e9d-a914-9b715b46ce6f","ios":"levelo://app?vid=4536007d-0cfb-4e9d-a914-9b715b46ce6f"},"vehicle_type_id":"4","last_reported":1736759460,"current_range_meters":19200,"station_id":"","pricing_plan_id":"cebpf4jnsgd1na2vs0mg"},{"bike_id":"f355b85c-f86d-4422-8e4b-dfed5a44b510","system_id":"levelo_inurba_marseille","lat":43.26945,"lon":5.38639,"is_reserved":false,"is_disabled":false,"rental_uris":{"android":"levelo://app?vid=f355b85c-f86d-4422-8e4b-dfed5a44b510","ios":"levelo://app?vid=f355b85c-f86d-4422-8e4b-dfed5a44b510"},"vehicle_type_id":"4","last_reported":1736759460,"current_range_meters":38000,"station_id":"ce4bhh92rcd13ifvqfh0","pricing_plan_id":"cebpf4jnsgd1na2vs0mg"},{"bike_id":"6b750947-fb43-40e2-9931-495446cc2b3f","system_id":"levelo_inurba_marseille","lat":43.22927,"lon":5.35375,"is_reserved":false,"is_disabled":false,"rental_uris":{"android":"levelo://app?vid=6b750947-fb43-40e2-9931-495446cc2b3f","ios":"levelo://app?vid=6b750947-fb43-40e2-9931-495446cc2b3f"},"vehicle_type_id":"4","last_reported":1736759460,"current_range_meters":29600,"station_id":"","pricing_plan_id":"cebpf4jnsgd1na2vs0mg"},{"bike_id":"c8e997c0-8580-4d0f-8d9f-0766596381e1","system_id":"levelo_inurba_marseille","lat":43.34027,"lon":5.37553,"is_reserved":false,"is_disabled":true,"rental_uris":{"android":"levelo://app?vid=c8e997c0-8580-4d0f-8d9f-0766596381e1","ios":"levelo://app?vid=c8e997c0-8580-4d0f-8d9f-0766596381e1"},"vehicle_type_id":"4","last_reported":1736759460,"current_range_meters":0,"station_id":"","pricing_plan_id":"cebpf4jnsgd1na2vs0mg"},{"bike_id":"8382408b-c02d-4216-82fb-9e187be52d3b","system_id":"levelo_inurba_marseille","lat":43.30285,"lon":5.376983,"is_reserved":false,"is_disabled":false,"rental_uris":{"android":"levelo://app?vid=8382408b-c02d-4216-82fb-9e187be52d3b","ios":"levelo://app?vid=8382408b-c02d-4216-82fb-9e187be52d3b"},"vehicle_type_id":"4","last_reported":1736759460,"current_range_meters":24400,"station_id":"ce4bguh2rcd13ifvqcj0","pricing_plan_id":"cebpf4jnsgd1na2vs0mg"},{"bike_id":"ba5df164-d25c-4a1c-8679-1bd1a1db0642","system_id":"levelo_inurba_marseille","lat":43.33742,"lon":5.39185,"is_reserved":false,"is_disabled":false,"rental_uris":{"android":"levelo://app?vid=ba5df164-d25c-4a1c-8679-1bd1a1db0642","ios":"levelo://app?vid=ba5df164-d25c-4a1c-8679-1bd1a1db0642"},"vehicle_type_id":"4","last_reported":1736759460,"current_range_meters":20000,"station_id":"ce4bhr92rcd13ifvqhsg","pricing_plan_id":"cebpf4jnsgd1na2vs0mg"},{"bike_id":"5108b6cf-4ded-4fbc-8c1c-5e566aa11fad","system_id":"levelo_inurba_marseille","lat":43.29896,"lon":5.43679,"is_reserved":false,"is_disabled":false,"rental_uris":{"android":"levelo://app?vid=5108b6cf-4ded-4fbc-8c1c-5e566aa11fad","ios":"levelo://app?vid=5108b6cf-4ded-4fbc-8c1c-5e566aa11fad"},"vehicle_type_id":"4","last_reported":1736759460,"current_range_meters":36000,"station_id":"ce4bhpp2rcd13ifvqhfg","pricing_plan_id":"cebpf4jnsgd1na2vs0mg"},{"bike_id":"11f8911a-8720-432e-b830-8b59af40bd6e","system_id":"levelo_inurba_marseille","lat":43.30912,"lon":5.36864,"is_reserved":false,"is_disabled":false,"rental_uris":{"android":"levelo://app?vid=11f8911a-8720-432e-b830-8b59af40bd6e","ios":"levelo://app?vid=11f8911a-8720-432e-b830-8b59af40bd6e"},"vehicle_type_id":"4","last_reported":1736759460,"current_range_meters":38800,"station_id":"ce4bgn92rcd13ifvqbvg","pricing_plan_id":"cebpf4jnsgd1na2vs0mg"},{"bike_id":"5b3f1dfb-2aa0-4707-a42a-8674894db5c0","system_id":"levelo_inurba_marseille","lat":43.30523,"lon":5.3655,"is_reserved":false,"is_disabled":false,"rental_uris":{"android":"levelo://app?vid=5b3f1dfb-2aa0-4707-a42a-8674894db5c0","ios":"levelo://app?vid=5b3f1dfb-2aa0-4707-a42a-8674894db5c0"},"vehicle_type_id":"4","last_reported":1736759460,"current_range_meters":16400,"station_id":"ce4bgs12rcd13ifvqcag","pricing_plan_id":"cebpf4jnsgd1na2vs0mg"},{"bike_id":"58e504dd-3012-4e73-bb99-89945b895023","system_id":"levelo_inurba_marseille","lat":43.26208,"lon":5.37439,"is_reserved":false,"is_disabled":false,"rental_uris":{"android":"levelo://app?vid=58e504dd-3012-4e73-bb99-89945b895023","ios":"levelo://app?vid=58e504dd-3012-4e73-bb99-89945b895023"},"vehicle_type_id":"4","last_reported":1736759460,"current_range_meters":24400,"station_id":"ce4bhgp2rcd13ifvqfc0","pricing_plan_id":"cebpf4jnsgd1na2vs0mg"},{"bike_id":"7dd5dd5e-1d75-4c5b-b5b8-248a34302cca","system_id":"levelo_inurba_marseille","lat":43.30466,"lon":5.378996,"is_reserved":false,"is_disabled":true,"rental_uris":{"android":"levelo://app?vid=7dd5dd5e-1d75-4c5b-b5b8-248a34302cca","ios":"levelo://app?vid=7dd5dd5e-1d75-4c5b-b5b8-248a34302cca"},"vehicle_type_id":"4","last_reported":1736759460,"current_range_meters":27200,"station_id":"ce4bgup2rcd13ifvqcn0","pricing_plan_id":"cebpf4jnsgd1na2vs0mg"},{"bike_id":"d912dc3c-ecc3-4af2-8b7b-cb91a53c7e64","system_id":"levelo_inurba_marseille","lat":43.26026,"lon":5.37557,"is_reserved":false,"is_disabled":false,"rental_uris":{"android":"levelo://app?vid=d912dc3c-ecc3-4af2-8b7b-cb91a53c7e64","ios":"levelo://app?vid=d912dc3c-ecc3-4af2-8b7b-cb91a53c7e64"},"vehicle_type_id":"4","last_reported":1736759460,"current_range_meters":36800,"station_id":"ce4bhgh2rcd13ifvqfa0","pricing_plan_id":"cebpf4jnsgd1na2vs0mg"},{"bike_id":"d8327471-e10e-4e1d-a46b-c43156fc0620","system_id":"levelo_inurba_marseille","lat":43.2678,"lon":5.39451,"is_reserved":false,"is_disabled":true,"rental_uris":{"android":"levelo://app?vid=d8327471-e10e-4e1d-a46b-c43156fc0620","ios":"levelo://app?vid=d8327471-e10e-4e1d-a46b-c43156fc0620"},"vehicle_type_id":"4","last_reported":1736759460,"current_range_meters":0,"station_id":"ce4bhh12rcd13ifvqfg0","pricing_plan_id":"cebpf4jnsgd1na2vs0mg"},{"bike_id":"6be2503a-f72c-4758-aa14-0b7c78c49b43","system_id":"levelo_inurba_marseille","lat":43.28976,"lon":5.37836,"is_reserved":false,"is_disabled":false,"rental_uris":{"android":"levelo://app?vid=6be2503a-f72c-4758-aa14-0b7c78c49b43","ios":"levelo://app?vid=6be2503a-f72c-4758-aa14-0b7c78c49b43"},"vehicle_type_id":"4","last_reported":1736759460,"current_range_meters":33200,"station_id":"ce4bh9p2rcd13ifvqed0","pricing_plan_id":"cebpf4jnsgd1na2vs0mg"},{"bike_id":"c5ff6db6-8de9-42d1-8f1a-7952d737cffb","system_id":"levelo_inurba_marseille","lat":43.3248,"lon":5.36592,"is_reserved":false,"is_disabled":false,"rental_uris":{"android":"levelo://app?vid=c5ff6db6-8de9-42d1-8f1a-7952d737cffb","ios":"levelo://app?vid=c5ff6db6-8de9-42d1-8f1a-7952d737cffb"},"vehicle_type_id":"4","last_reported":1736759460,"current_range_meters":32800,"station_id":"ce4bhs12rcd13ifvqhvg","pricing_plan_id":"cebpf4jnsgd1na2vs0mg"},{"bike_id":"6ba8d844-4be9-4966-b91c-0b5bcfe6a94b","system_id":"levelo_inurba_marseille","lat":43.29169,"lon":5.37156,"is_reserved":false,"is_disabled":true,"rental_uris":{"android":"levelo://app?vid=6ba8d844-4be9-4966-b91c-0b5bcfe6a94b","ios":"levelo://app?vid=6ba8d844-4be9-4966-b91c-0b5bcfe6a94b"},"vehicle_type_id":"4","last_reported":1736759460,"current_range_meters":6400,"station_id":"ce4bha92rcd13ifvqeh0","pricing_plan_id":"cebpf4jnsgd1na2vs0mg"},{"bike_id":"0edce83f-b96e-4b0a-af3a-d85300d10ec7","system_id":"levelo_inurba_marseille","lat":43.30892,"lon":5.36857,"is_reserved":false,"is_disabled":false,"rental_uris":{"android":"levelo://app?vid=0edce83f-b96e-4b0a-af3a-d85300d10ec7","ios":"levelo://app?vid=0edce83f-b96e-4b0a-af3a-d85300d10ec7"},"vehicle_type_id":"4","last_reported":1736759460,"current_range_meters":37600,"station_id":"ce4bgn92rcd13ifvqbvg","pricing_plan_id":"cebpf4jnsgd1na2vs0mg"},{"bike_id":"ec59e75f-4997-4d92-aab0-c55a58c123b3","system_id":"levelo_inurba_marseille","lat":43.31532,"lon":5.38041,"is_reserved":false,"is_disabled":false,"rental_uris":{"android":"levelo://app?vid=ec59e75f-4997-4d92-aab0-c55a58c123b3","ios":"levelo://app?vid=ec59e75f-4997-4d92-aab0-c55a58c123b3"},"vehicle_type_id":"4","last_reported":1736759460,"current_range_meters":10800,"station_id":"ce4bhsp2rcd13ifvqi50","pricing_plan_id":"cebpf4jnsgd1na2vs0mg"},{"bike_id":"426ee80e-06b0-4d0f-86a5-ea8ad64aaa11","system_id":"levelo_inurba_marseille","lat":43.28925,"lon":5.43783,"is_reserved":false,"is_disabled":false,"rental_uris":{"android":"levelo://app?vid=426ee80e-06b0-4d0f-86a5-ea8ad64aaa11","ios":"levelo://app?vid=426ee80e-06b0-4d0f-86a5-ea8ad64aaa11"},"vehicle_type_id":"4","last_reported":1736759460,"current_range_meters":9200,"station_id":"","pricing_plan_id":"cebpf4jnsgd1na2vs0mg"},{"bike_id":"d6e4ad9c-79f2-4688-909b-aa1d95c9db31","system_id":"levelo_inurba_marseille","lat":43.31371,"lon":5.38522,"is_reserved":false,"is_disabled":false,"rental_uris":{"android":"levelo://app?vid=d6e4ad9c-79f2-4688-909b-aa1d95c9db31","ios":"levelo://app?vid=d6e4ad9c-79f2-4688-909b-aa1d95c9db31"},"vehicle_type_id":"4","last_reported":1736759460,"current_range_meters":8000,"station_id":"ce4bgt92rcd13ifvqcf0","pricing_plan_id":"cebpf4jnsgd1na2vs0mg"},{"bike_id":"b29dca30-1f99-4556-8d02-1cd94cfb8ea1","system_id":"levelo_inurba_marseille","lat":43.324969,"lon":5.365624,"is_reserved":false,"is_disabled":false,"rental_uris":{"android":"levelo://app?vid=b29dca30-1f99-4556-8d02-1cd94cfb8ea1","ios":"levelo://app?vid=b29dca30-1f99-4556-8d02-1cd94cfb8ea1"},"vehicle_type_id":"4","last_reported":1736759460,"current_range_meters":10000,"station_id":"ce4bhs12rcd13ifvqhvg","pricing_plan_id":"cebpf4jnsgd1na2vs0mg"},{"bike_id":"9814023a-fbfd-430e-a624-071e90fc1982","system_id":"levelo_inurba_marseille","lat":43.27444,"lon":5.39416,"is_reserved":false,"is_disabled":false,"rental_uris":{"android":"levelo://app?vid=9814023a-fbfd-430e-a624-071e90fc1982","ios":"levelo://app?vid=9814023a-fbfd-430e-a624-071e90fc1982"},"vehicle_type_id":"4","last_reported":1736759460,"current_range_meters":27600,"station_id":"ce4bhdp2rcd13ifvqf20","pricing_plan_id":"cebpf4jnsgd1na2vs0mg"},{"bike_id":"969e27ab-5a9e-459e-9526-3b57e6f57682","system_id":"levelo_inurba_marseille","lat":43.22928,"lon":5.35382,"is_reserved":false,"is_disabled":false,"rental_uris":{"android":"levelo://app?vid=969e27ab-5a9e-459e-9526-3b57e6f57682","ios":"levelo://app?vid=969e27ab-5a9e-459e-9526-3b57e6f57682"},"vehicle_type_id":"4","last_reported":1736759460,"current_range_meters":6000,"station_id":"cpo3532slgdg3j2ikp40","pricing_plan_id":"cebpf4jnsgd1na2vs0mg"},{"bike_id":"0b6993d8-d7c7-433f-8cb7-8219979fd337","system_id":"levelo_inurba_marseille","lat":43.27443,"lon":5.39416,"is_reserved":false,"is_disabled":false,"rental_uris":{"android":"levelo://app?vid=0b6993d8-d7c7-433f-8cb7-8219979fd337","ios":"levelo://app?vid=0b6993d8-d7c7-433f-8cb7-8219979fd337"},"vehicle_type_id":"4","last_reported":1736759460,"current_range_meters":38800,"station_id":"ce4bhdp2rcd13ifvqf20","pricing_plan_id":"cebpf4jnsgd1na2vs0mg"},{"bike_id":"29fc8e2d-12cc-4b8a-a0a8-06d361b976ef","system_id":"levelo_inurba_marseille","lat":43.30919,"lon":5.36867,"is_reserved":false,"is_disabled":false,"rental_uris":{"android":"levelo://app?vid=29fc8e2d-12cc-4b8a-a0a8-06d361b976ef","ios":"levelo://app?vid=29fc8e2d-12cc-4b8a-a0a8-06d361b976ef"},"vehicle_type_id":"4","last_reported":1736759460,"current_range_meters":31200,"station_id":"ce4bgn92rcd13ifvqbvg","pricing_plan_id":"cebpf4jnsgd1na2vs0mg"},{"bike_id":"c57472a4-4d7d-4e98-a197-dfe0bfa4547f","system_id":"levelo_inurba_marseille","lat":43.286182,"lon":5.351001,"is_reserved":false,"is_disabled":false,"rental_uris":{"android":"levelo://app?vid=c57472a4-4d7d-4e98-a197-dfe0bfa4547f","ios":"levelo://app?vid=c57472a4-4d7d-4e98-a197-dfe0bfa4547f"},"vehicle_type_id":"4","last_reported":1736759460,"current_range_meters":28000,"station_id":"ce4bhch2rcd13ifvqeug","pricing_plan_id":"cebpf4jnsgd1na2vs0mg"},{"bike_id":"8b9d7012-1feb-4978-b0cb-500e1495f1b9","system_id":"levelo_inurba_marseille","lat":43.2694,"lon":5.38638,"is_reserved":false,"is_disabled":false,"rental_uris":{"android":"levelo://app?vid=8b9d7012-1feb-4978-b0cb-500e1495f1b9","ios":"levelo://app?vid=8b9d7012-1feb-4978-b0cb-500e1495f1b9"},"vehicle_type_id":"4","last_reported":1736759460,"current_range_meters":16800,"station_id":"ce4bhh92rcd13ifvqfh0","pricing_plan_id":"cebpf4jnsgd1na2vs0mg"},{"bike_id":"f4dbc556-58b0-4dfd-be99-18a51c032520","system_id":"levelo_inurba_marseille","lat":43.24183,"lon":5.39712,"is_reserved":false,"is_disabled":true,"rental_uris":{"android":"levelo://app?vid=f4dbc556-58b0-4dfd-be99-18a51c032520","ios":"levelo://app?vid=f4dbc556-58b0-4dfd-be99-18a51c032520"},"vehicle_type_id":"4","last_reported":1736759460,"current_range_meters":31200,"station_id":"ce4bhn12rcd13ifvqgpg","pricing_plan_id":"cebpf4jnsgd1na2vs0mg"},{"bike_id":"9c62e164-6cf9-4292-996f-7c2ed5673e8e","system_id":"levelo_inurba_marseille","lat":43.23959,"lon":5.366237,"is_reserved":false,"is_disabled":false,"rental_uris":{"android":"levelo://app?vid=9c62e164-6cf9-4292-996f-7c2ed5673e8e","ios":"levelo://app?vid=9c62e164-6cf9-4292-996f-7c2ed5673e8e"},"vehicle_type_id":"4","last_reported":1736759460,"current_range_meters":24800,"station_id":"ce4bhi12rcd13ifvqfp0","pricing_plan_id":"cebpf4jnsgd1na2vs0mg"},{"bike_id":"61f61711-beb7-4d67-a394-ec3b5cc45866","system_id":"levelo_inurba_marseille","lat":43.30918,"lon":5.36838,"is_reserved":false,"is_disabled":false,"rental_uris":{"android":"levelo://app?vid=61f61711-beb7-4d67-a394-ec3b5cc45866","ios":"levelo://app?vid=61f61711-beb7-4d67-a394-ec3b5cc45866"},"vehicle_type_id":"4","last_reported":1736759460,"current_range_meters":18800,"station_id":"ce4bgn92rcd13ifvqbvg","pricing_plan_id":"cebpf4jnsgd1na2vs0mg"},{"bike_id":"45636413-29bd-43b6-bd8b-1246eb3c7c1a","system_id":"levelo_inurba_marseille","lat":43.27116,"lon":5.38515,"is_reserved":false,"is_disabled":false,"rental_uris":{"android":"levelo://app?vid=45636413-29bd-43b6-bd8b-1246eb3c7c1a","ios":"levelo://app?vid=45636413-29bd-43b6-bd8b-1246eb3c7c1a"},"vehicle_type_id":"4","last_reported":1736759460,"current_range_meters":6000,"station_id":"","pricing_plan_id":"cebpf4jnsgd1na2vs0mg"},{"bike_id":"30115679-f3b6-461a-9336-c04c466467e8","system_id":"levelo_inurba_marseille","lat":43.28438,"lon":5.39198,"is_reserved":false,"is_disabled":false,"rental_uris":{"android":"levelo://app?vid=30115679-f3b6-461a-9336-c04c466467e8","ios":"levelo://app?vid=30115679-f3b6-461a-9336-c04c466467e8"},"vehicle_type_id":"4","last_reported":1736759460,"current_range_meters":38000,"station_id":"ce4bhoh2rcd13ifvqh5g","pricing_plan_id":"cebpf4jnsgd1na2vs0mg"},{"bike_id":"b43b7b34-35a8-4f3d-902b-ab77a73f48bd","system_id":"levelo_inurba_marseille","lat":43.324793,"lon":5.36575,"is_reserved":false,"is_disabled":false,"rental_uris":{"android":"levelo://app?vid=b43b7b34-35a8-4f3d-902b-ab77a73f48bd","ios":"levelo://app?vid=b43b7b34-35a8-4f3d-902b-ab77a73f48bd"},"vehicle_type_id":"4","last_reported":1736759460,"current_range_meters":11200,"station_id":"ce4bhs12rcd13ifvqhvg","pricing_plan_id":"cebpf4jnsgd1na2vs0mg"},{"bike_id":"80609ff8-7d7d-4ae2-9159-aea837c7c52b","system_id":"levelo_inurba_marseille","lat":43.23957,"lon":5.36628,"is_reserved":false,"is_disabled":false,"rental_uris":{"android":"levelo://app?vid=80609ff8-7d7d-4ae2-9159-aea837c7c52b","ios":"levelo://app?vid=80609ff8-7d7d-4ae2-9159-aea837c7c52b"},"vehicle_type_id":"4","last_reported":1736759460,"current_range_meters":38000,"station_id":"ce4bhi12rcd13ifvqfp0","pricing_plan_id":"cebpf4jnsgd1na2vs0mg"},{"bike_id":"38a88ea6-a94b-4e4b-81db-6e3ebb97fafa","system_id":"levelo_inurba_marseille","lat":43.24665,"lon":5.38163,"is_reserved":false,"is_disabled":false,"rental_uris":{"android":"levelo://app?vid=38a88ea6-a94b-4e4b-81db-6e3ebb97fafa","ios":"levelo://app?vid=38a88ea6-a94b-4e4b-81db-6e3ebb97fafa"},"vehicle_type_id":"4","last_reported":1736759460,"current_range_meters":37600,"station_id":"ce4bhih2rcd13ifvqfr0","pricing_plan_id":"cebpf4jnsgd1na2vs0mg"},{"bike_id":"c2b657e0-67fb-4721-a4d6-0ebb2fa0fcbe","system_id":"levelo_inurba_marseille","lat":43.28622,"lon":5.35117,"is_reserved":false,"is_disabled":false,"rental_uris":{"android":"levelo://app?vid=c2b657e0-67fb-4721-a4d6-0ebb2fa0fcbe","ios":"levelo://app?vid=c2b657e0-67fb-4721-a4d6-0ebb2fa0fcbe"},"vehicle_type_id":"4","last_reported":1736759460,"current_range_meters":34000,"station_id":"ce4bhch2rcd13ifvqeug","pricing_plan_id":"cebpf4jnsgd1na2vs0mg"},{"bike_id":"d16284aa-fa71-49b9-82f2-16dc864a2eea","system_id":"levelo_inurba_marseille","lat":43.26694,"lon":5.38259,"is_reserved":false,"is_disabled":false,"rental_uris":{"android":"levelo://app?vid=d16284aa-fa71-49b9-82f2-16dc864a2eea","ios":"levelo://app?vid=d16284aa-fa71-49b9-82f2-16dc864a2eea"},"vehicle_type_id":"4","last_reported":1736759460,"current_range_meters":33200,"station_id":"ce4bhg92rcd13ifvqf90","pricing_plan_id":"cebpf4jnsgd1na2vs0mg"},{"bike_id":"82af5156-3c9f-43ad-8e6c-facb65bb17d8","system_id":"levelo_inurba_marseille","lat":43.32473,"lon":5.36578,"is_reserved":false,"is_disabled":false,"rental_uris":{"android":"levelo://app?vid=82af5156-3c9f-43ad-8e6c-facb65bb17d8","ios":"levelo://app?vid=82af5156-3c9f-43ad-8e6c-facb65bb17d8"},"vehicle_type_id":"4","last_reported":1736759460,"current_range_meters":25200,"station_id":"ce4bhs12rcd13ifvqhvg","pricing_plan_id":"cebpf4jnsgd1na2vs0mg"},{"bike_id":"ac7219cb-205d-48d3-81c3-15248b5b8d1f","system_id":"levelo_inurba_marseille","lat":43.26944,"lon":5.38644,"is_reserved":false,"is_disabled":false,"rental_uris":{"android":"levelo://app?vid=ac7219cb-205d-48d3-81c3-15248b5b8d1f","ios":"levelo://app?vid=ac7219cb-205d-48d3-81c3-15248b5b8d1f"},"vehicle_type_id":"4","last_reported":1736759460,"current_range_meters":34800,"station_id":"ce4bhh92rcd13ifvqfh0","pricing_plan_id":"cebpf4jnsgd1na2vs0mg"},{"bike_id":"73edba2c-8fcd-4e22-aa37-25696b557e27","system_id":"levelo_inurba_marseille","lat":43.29623,"lon":5.38112,"is_reserved":false,"is_disabled":false,"rental_uris":{"android":"levelo://app?vid=73edba2c-8fcd-4e22-aa37-25696b557e27","ios":"levelo://app?vid=73edba2c-8fcd-4e22-aa37-25696b557e27"},"vehicle_type_id":"4","last_reported":1736759460,"current_range_meters":36400,"station_id":"ce4bgl12rcd13ifvqbo0","pricing_plan_id":"cebpf4jnsgd1na2vs0mg"},{"bike_id":"1f1b0573-4b24-4559-81fc-fd3d78578d86","system_id":"levelo_inurba_marseille","lat":43.2993,"lon":5.37484,"is_reserved":false,"is_disabled":false,"rental_uris":{"android":"levelo://app?vid=1f1b0573-4b24-4559-81fc-fd3d78578d86","ios":"levelo://app?vid=1f1b0573-4b24-4559-81fc-fd3d78578d86"},"vehicle_type_id":"4","last_reported":1736759460,"current_range_meters":21600,"station_id":"ce4bgjh2rcd13ifvqbg0","pricing_plan_id":"cebpf4jnsgd1na2vs0mg"},{"bike_id":"33f772a9-3316-47c9-ba2c-b8bb5b0473dc","system_id":"levelo_inurba_marseille","lat":43.29589,"lon":5.36737,"is_reserved":false,"is_disabled":true,"rental_uris":{"android":"levelo://app?vid=33f772a9-3316-47c9-ba2c-b8bb5b0473dc","ios":"levelo://app?vid=33f772a9-3316-47c9-ba2c-b8bb5b0473dc"},"vehicle_type_id":"4","last_reported":1736759460,"current_range_meters":39200,"station_id":"ce4bgph2rcd13ifvqc2g","pricing_plan_id":"cebpf4jnsgd1na2vs0mg"},{"bike_id":"716583e9-1525-41d6-8bd4-c3f8ee3ff197","system_id":"levelo_inurba_marseille","lat":43.27491,"lon":5.42468,"is_reserved":false,"is_disabled":false,"rental_uris":{"android":"levelo://app?vid=716583e9-1525-41d6-8bd4-c3f8ee3ff197","ios":"levelo://app?vid=716583e9-1525-41d6-8bd4-c3f8ee3ff197"},"vehicle_type_id":"4","last_reported":1736759460,"current_range_meters":29600,"station_id":"ce4bhn92rcd13ifvqgrg","pricing_plan_id":"cebpf4jnsgd1na2vs0mg"},{"bike_id":"f651011c-09df-4f8b-abec-30977567ef31","system_id":"levelo_inurba_marseille","lat":43.26207,"lon":5.37446,"is_reserved":false,"is_disabled":false,"rental_uris":{"android":"levelo://app?vid=f651011c-09df-4f8b-abec-30977567ef31","ios":"levelo://app?vid=f651011c-09df-4f8b-abec-30977567ef31"},"vehicle_type_id":"4","last_reported":1736759460,"current_range_meters":24000,"station_id":"ce4bhgp2rcd13ifvqfc0","pricing_plan_id":"cebpf4jnsgd1na2vs0mg"},{"bike_id":"9c8c0f19-6acd-4047-9b73-cd2d2daf7c61","system_id":"levelo_inurba_marseille","lat":43.3212,"lon":5.36801,"is_reserved":false,"is_disabled":false,"rental_uris":{"android":"levelo://app?vid=9c8c0f19-6acd-4047-9b73-cd2d2daf7c61","ios":"levelo://app?vid=9c8c0f19-6acd-4047-9b73-cd2d2daf7c61"},"vehicle_type_id":"4","last_reported":1736759460,"current_range_meters":18000,"station_id":"ce4bhrh2rcd13ifvqhug","pricing_plan_id":"cebpf4jnsgd1na2vs0mg"},{"bike_id":"481b9829-6c9c-4e96-a4c5-4bbef49fbc3c","system_id":"levelo_inurba_marseille","lat":43.30899,"lon":5.36842,"is_reserved":false,"is_disabled":false,"rental_uris":{"android":"levelo://app?vid=481b9829-6c9c-4e96-a4c5-4bbef49fbc3c","ios":"levelo://app?vid=481b9829-6c9c-4e96-a4c5-4bbef49fbc3c"},"vehicle_type_id":"4","last_reported":1736759460,"current_range_meters":36000,"station_id":"ce4bgn92rcd13ifvqbvg","pricing_plan_id":"cebpf4jnsgd1na2vs0mg"},{"bike_id":"d696bfb7-0caa-4a94-827d-f98321e7308a","system_id":"levelo_inurba_marseille","lat":43.28665,"lon":5.3866,"is_reserved":false,"is_disabled":false,"rental_uris":{"android":"levelo://app?vid=d696bfb7-0caa-4a94-827d-f98321e7308a","ios":"levelo://app?vid=d696bfb7-0caa-4a94-827d-f98321e7308a"},"vehicle_type_id":"4","last_reported":1736759460,"current_range_meters":6400,"station_id":"ce4bh492rcd13ifvqdug","pricing_plan_id":"cebpf4jnsgd1na2vs0mg"},{"bike_id":"0756869f-d496-490d-b5d4-ec25e039f4fb","system_id":"levelo_inurba_marseille","lat":43.28924,"lon":5.36645,"is_reserved":false,"is_disabled":true,"rental_uris":{"android":"levelo://app?vid=0756869f-d496-490d-b5d4-ec25e039f4fb","ios":"levelo://app?vid=0756869f-d496-490d-b5d4-ec25e039f4fb"},"vehicle_type_id":"4","last_reported":1736759460,"current_range_meters":20400,"station_id":"ce4bhap2rcd13ifvqek0","pricing_plan_id":"cebpf4jnsgd1na2vs0mg"},{"bike_id":"23fa248b-a29f-4809-83a2-8dfa8df2caa7","system_id":"levelo_inurba_marseille","lat":43.28613,"lon":5.35106,"is_reserved":false,"is_disabled":false,"rental_uris":{"android":"levelo://app?vid=23fa248b-a29f-4809-83a2-8dfa8df2caa7","ios":"levelo://app?vid=23fa248b-a29f-4809-83a2-8dfa8df2caa7"},"vehicle_type_id":"4","last_reported":1736759460,"current_range_meters":9600,"station_id":"ce4bhch2rcd13ifvqeug","pricing_plan_id":"cebpf4jnsgd1na2vs0mg"},{"bike_id":"dffd4391-3278-4164-8ce7-b7d56080052e","system_id":"levelo_inurba_marseille","lat":43.29718,"lon":5.3771,"is_reserved":false,"is_disabled":false,"rental_uris":{"android":"levelo://app?vid=dffd4391-3278-4164-8ce7-b7d56080052e","ios":"levelo://app?vid=dffd4391-3278-4164-8ce7-b7d56080052e"},"vehicle_type_id":"4","last_reported":1736759460,"current_range_meters":32400,"station_id":"ce4bgkh2rcd13ifvqbl0","pricing_plan_id":"cebpf4jnsgd1na2vs0mg"},{"bike_id":"066fc890-cce1-4b7e-a941-320c51e991c9","system_id":"levelo_inurba_marseille","lat":43.2395,"lon":5.36633,"is_reserved":false,"is_disabled":false,"rental_uris":{"android":"levelo://app?vid=066fc890-cce1-4b7e-a941-320c51e991c9","ios":"levelo://app?vid=066fc890-cce1-4b7e-a941-320c51e991c9"},"vehicle_type_id":"4","last_reported":1736759460,"current_range_meters":12800,"station_id":"ce4bhi12rcd13ifvqfp0","pricing_plan_id":"cebpf4jnsgd1na2vs0mg"},{"bike_id":"fdd78bd3-f1eb-4702-950f-df9340684b68","system_id":"levelo_inurba_marseille","lat":43.30308,"lon":5.36897,"is_reserved":false,"is_disabled":false,"rental_uris":{"android":"levelo://app?vid=fdd78bd3-f1eb-4702-950f-df9340684b68","ios":"levelo://app?vid=fdd78bd3-f1eb-4702-950f-df9340684b68"},"vehicle_type_id":"4","last_reported":1736759460,"current_range_meters":30400,"station_id":"ce4bgqh2rcd13ifvqc5g","pricing_plan_id":"cebpf4jnsgd1na2vs0mg"},{"bike_id":"7069e2aa-1332-4f68-9707-6592cb970870","system_id":"levelo_inurba_marseille","lat":43.308,"lon":5.37675,"is_reserved":false,"is_disabled":false,"rental_uris":{"android":"levelo://app?vid=7069e2aa-1332-4f68-9707-6592cb970870","ios":"levelo://app?vid=7069e2aa-1332-4f68-9707-6592cb970870"},"vehicle_type_id":"4","last_reported":1736759460,"current_range_meters":10000,"station_id":"ce4bgv92rcd13ifvqcq0","pricing_plan_id":"cebpf4jnsgd1na2vs0mg"},{"bike_id":"c5e011b5-3ec1-4dfb-b3d1-b25cf4454153","system_id":"levelo_inurba_marseille","lat":43.30918,"lon":5.36833,"is_reserved":false,"is_disabled":false,"rental_uris":{"android":"levelo://app?vid=c5e011b5-3ec1-4dfb-b3d1-b25cf4454153","ios":"levelo://app?vid=c5e011b5-3ec1-4dfb-b3d1-b25cf4454153"},"vehicle_type_id":"4","last_reported":1736759460,"current_range_meters":24400,"station_id":"ce4bgn92rcd13ifvqbvg","pricing_plan_id":"cebpf4jnsgd1na2vs0mg"},{"bike_id":"a0b13101-d1e6-474f-a102-a2c2bcce863a","system_id":"levelo_inurba_marseille","lat":43.31235,"lon":5.36863,"is_reserved":false,"is_disabled":false,"rental_uris":{"android":"levelo://app?vid=a0b13101-d1e6-474f-a102-a2c2bcce863a","ios":"levelo://app?vid=a0b13101-d1e6-474f-a102-a2c2bcce863a"},"vehicle_type_id":"4","last_reported":1736759460,"current_range_meters":30800,"station_id":"ce4bgl92rcd13ifvqbq0","pricing_plan_id":"cebpf4jnsgd1na2vs0mg"},{"bike_id":"a3ab978e-8dbf-4f4c-acee-64151095a46e","system_id":"levelo_inurba_marseille","lat":43.28479,"lon":5.38574,"is_reserved":false,"is_disabled":false,"rental_uris":{"android":"levelo://app?vid=a3ab978e-8dbf-4f4c-acee-64151095a46e","ios":"levelo://app?vid=a3ab978e-8dbf-4f4c-acee-64151095a46e"},"vehicle_type_id":"4","last_reported":1736759460,"current_range_meters":30800,"station_id":"ce4bh8p2rcd13ifvqeb0","pricing_plan_id":"cebpf4jnsgd1na2vs0mg"},{"bike_id":"51bb6953-dea8-4e82-96bf-52696267905f","system_id":"levelo_inurba_marseille","lat":43.23052,"lon":5.35507,"is_reserved":false,"is_disabled":true,"rental_uris":{"android":"levelo://app?vid=51bb6953-dea8-4e82-96bf-52696267905f","ios":"levelo://app?vid=51bb6953-dea8-4e82-96bf-52696267905f"},"vehicle_type_id":"4","last_reported":1736759460,"current_range_meters":13600,"station_id":"cpo3342slgdg3j2ifvpg","pricing_plan_id":"cebpf4jnsgd1na2vs0mg"},{"bike_id":"4e71e5ec-1e90-4b63-9152-6a9ea80e2150","system_id":"levelo_inurba_marseille","lat":43.2315,"lon":5.43725,"is_reserved":false,"is_disabled":false,"rental_uris":{"android":"levelo://app?vid=4e71e5ec-1e90-4b63-9152-6a9ea80e2150","ios":"levelo://app?vid=4e71e5ec-1e90-4b63-9152-6a9ea80e2150"},"vehicle_type_id":"4","last_reported":1736759460,"current_range_meters":16400,"station_id":"ce4bhmp2rcd13ifvqgog","pricing_plan_id":"cebpf4jnsgd1na2vs0mg"},{"bike_id":"697c0a33-e8a3-4893-bc01-c44ca5d914a9","system_id":"levelo_inurba_marseille","lat":43.29198,"lon":5.40034,"is_reserved":false,"is_disabled":false,"rental_uris":{"android":"levelo://app?vid=697c0a33-e8a3-4893-bc01-c44ca5d914a9","ios":"levelo://app?vid=697c0a33-e8a3-4893-bc01-c44ca5d914a9"},"vehicle_type_id":"4","last_reported":1736759460,"current_range_meters":8400,"station_id":"ce4bhdp2rcd13ifvqf20","pricing_plan_id":"cebpf4jnsgd1na2vs0mg"},{"bike_id":"dc388f0e-5ba4-4401-b2b7-3e59da087469","system_id":"levelo_inurba_marseille","lat":43.2862,"lon":5.35106,"is_reserved":false,"is_disabled":false,"rental_uris":{"android":"levelo://app?vid=dc388f0e-5ba4-4401-b2b7-3e59da087469","ios":"levelo://app?vid=dc388f0e-5ba4-4401-b2b7-3e59da087469"},"vehicle_type_id":"4","last_reported":1736759460,"current_range_meters":12400,"station_id":"ce4bhch2rcd13ifvqeug","pricing_plan_id":"cebpf4jnsgd1na2vs0mg"},{"bike_id":"50c67084-341b-43bf-812a-a38db4c86efa","system_id":"levelo_inurba_marseille","lat":43.3017,"lon":5.36623,"is_reserved":false,"is_disabled":false,"rental_uris":{"android":"levelo://app?vid=50c67084-341b-43bf-812a-a38db4c86efa","ios":"levelo://app?vid=50c67084-341b-43bf-812a-a38db4c86efa"},"vehicle_type_id":"4","last_reported":1736759460,"current_range_meters":38800,"station_id":"ce4bgrh2rcd13ifvqc8g","pricing_plan_id":"cebpf4jnsgd1na2vs0mg"},{"bike_id":"9c7a4ca6-496e-4184-8f14-be388804d866","system_id":"levelo_inurba_marseille","lat":43.31365,"lon":5.38498,"is_reserved":false,"is_disabled":false,"rental_uris":{"android":"levelo://app?vid=9c7a4ca6-496e-4184-8f14-be388804d866","ios":"levelo://app?vid=9c7a4ca6-496e-4184-8f14-be388804d866"},"vehicle_type_id":"4","last_reported":1736759460,"current_range_meters":38800,"station_id":"ce4bgt92rcd13ifvqcf0","pricing_plan_id":"cebpf4jnsgd1na2vs0mg"},{"bike_id":"c84c60ce-c7f6-42eb-bb3c-f11a697bd396","system_id":"levelo_inurba_marseille","lat":43.29979,"lon":5.38477,"is_reserved":false,"is_disabled":true,"rental_uris":{"android":"levelo://app?vid=c84c60ce-c7f6-42eb-bb3c-f11a697bd396","ios":"levelo://app?vid=c84c60ce-c7f6-42eb-bb3c-f11a697bd396"},"vehicle_type_id":"4","last_reported":1736759460,"current_range_meters":38800,"station_id":"ce4bgj92rcd13ifvqbd0","pricing_plan_id":"cebpf4jnsgd1na2vs0mg"},{"bike_id":"bb2c6734-3bde-49c2-b205-412e6ed0ca55","system_id":"levelo_inurba_marseille","lat":43.23959,"lon":5.36635,"is_reserved":false,"is_disabled":false,"rental_uris":{"android":"levelo://app?vid=bb2c6734-3bde-49c2-b205-412e6ed0ca55","ios":"levelo://app?vid=bb2c6734-3bde-49c2-b205-412e6ed0ca55"},"vehicle_type_id":"4","last_reported":1736759460,"current_range_meters":36800,"station_id":"ce4bhi12rcd13ifvqfp0","pricing_plan_id":"cebpf4jnsgd1na2vs0mg"},{"bike_id":"b55bad1f-ac87-4b3e-aeb0-eb44d902eff4","system_id":"levelo_inurba_marseille","lat":43.23156,"lon":5.43708,"is_reserved":false,"is_disabled":true,"rental_uris":{"android":"levelo://app?vid=b55bad1f-ac87-4b3e-aeb0-eb44d902eff4","ios":"levelo://app?vid=b55bad1f-ac87-4b3e-aeb0-eb44d902eff4"},"vehicle_type_id":"4","last_reported":1736759460,"current_range_meters":16800,"station_id":"ce4bhmp2rcd13ifvqgog","pricing_plan_id":"cebpf4jnsgd1na2vs0mg"},{"bike_id":"d4a1c371-336e-4a9f-bd59-f2cfc71fd153","system_id":"levelo_inurba_marseille","lat":43.24086,"lon":5.37758,"is_reserved":false,"is_disabled":false,"rental_uris":{"android":"levelo://app?vid=d4a1c371-336e-4a9f-bd59-f2cfc71fd153","ios":"levelo://app?vid=d4a1c371-336e-4a9f-bd59-f2cfc71fd153"},"vehicle_type_id":"4","last_reported":1736759460,"current_range_meters":22800,"station_id":"ce4bhnp2rcd13ifvqgvg","pricing_plan_id":"cebpf4jnsgd1na2vs0mg"},{"bike_id":"c1c51f67-6348-4482-a3d4-31704cefaf37","system_id":"levelo_inurba_marseille","lat":43.28625,"lon":5.35076,"is_reserved":false,"is_disabled":false,"rental_uris":{"android":"levelo://app?vid=c1c51f67-6348-4482-a3d4-31704cefaf37","ios":"levelo://app?vid=c1c51f67-6348-4482-a3d4-31704cefaf37"},"vehicle_type_id":"4","last_reported":1736759460,"current_range_meters":34000,"station_id":"ce4bhch2rcd13ifvqeug","pricing_plan_id":"cebpf4jnsgd1na2vs0mg"},{"bike_id":"ab5b6832-b8a9-4e08-8bed-a963edfd6705","system_id":"levelo_inurba_marseille","lat":43.31354,"lon":5.36705,"is_reserved":false,"is_disabled":false,"rental_uris":{"android":"levelo://app?vid=ab5b6832-b8a9-4e08-8bed-a963edfd6705","ios":"levelo://app?vid=ab5b6832-b8a9-4e08-8bed-a963edfd6705"},"vehicle_type_id":"4","last_reported":1736759460,"current_range_meters":30800,"station_id":"ce4bgr92rcd13ifvqc6g","pricing_plan_id":"cebpf4jnsgd1na2vs0mg"},{"bike_id":"15365823-2b34-4222-9a47-5db4c69503e5","system_id":"levelo_inurba_marseille","lat":43.26959,"lon":5.38644,"is_reserved":false,"is_disabled":false,"rental_uris":{"android":"levelo://app?vid=15365823-2b34-4222-9a47-5db4c69503e5","ios":"levelo://app?vid=15365823-2b34-4222-9a47-5db4c69503e5"},"vehicle_type_id":"4","last_reported":1736759460,"current_range_meters":32400,"station_id":"ce4bhh92rcd13ifvqfh0","pricing_plan_id":"cebpf4jnsgd1na2vs0mg"},{"bike_id":"a77e0ec4-5fc1-4a37-82fc-0c2c8e9d8654","system_id":"levelo_inurba_marseille","lat":43.241653,"lon":5.363944,"is_reserved":false,"is_disabled":false,"rental_uris":{"android":"levelo://app?vid=a77e0ec4-5fc1-4a37-82fc-0c2c8e9d8654","ios":"levelo://app?vid=a77e0ec4-5fc1-4a37-82fc-0c2c8e9d8654"},"vehicle_type_id":"4","last_reported":1736759460,"current_range_meters":25600,"station_id":"cpo36qri1sfpv3e86is0","pricing_plan_id":"cebpf4jnsgd1na2vs0mg"},{"bike_id":"43d1392c-f8d8-4498-8ddc-43615aba88c5","system_id":"levelo_inurba_marseille","lat":43.27982,"lon":5.3877,"is_reserved":false,"is_disabled":false,"rental_uris":{"android":"levelo://app?vid=43d1392c-f8d8-4498-8ddc-43615aba88c5","ios":"levelo://app?vid=43d1392c-f8d8-4498-8ddc-43615aba88c5"},"vehicle_type_id":"4","last_reported":1736759460,"current_range_meters":8000,"station_id":"ce4bhg12rcd13ifvqf80","pricing_plan_id":"cebpf4jnsgd1na2vs0mg"},{"bike_id":"a754abf4-87cb-4915-a97f-0b4d0e8971f5","system_id":"levelo_inurba_marseille","lat":43.28622,"lon":5.35089,"is_reserved":false,"is_disabled":false,"rental_uris":{"android":"levelo://app?vid=a754abf4-87cb-4915-a97f-0b4d0e8971f5","ios":"levelo://app?vid=a754abf4-87cb-4915-a97f-0b4d0e8971f5"},"vehicle_type_id":"4","last_reported":1736759460,"current_range_meters":34000,"station_id":"ce4bhch2rcd13ifvqeug","pricing_plan_id":"cebpf4jnsgd1na2vs0mg"},{"bike_id":"b51b8509-c21e-40ac-802b-edd56e55cdd0","system_id":"levelo_inurba_marseille","lat":43.30377,"lon":5.418995,"is_reserved":false,"is_disabled":true,"rental_uris":{"android":"levelo://app?vid=b51b8509-c21e-40ac-802b-edd56e55cdd0","ios":"levelo://app?vid=b51b8509-c21e-40ac-802b-edd56e55cdd0"},"vehicle_type_id":"4","last_reported":1736759460,"current_range_meters":24400,"station_id":"ce4bhop2rcd13ifvqh7g","pricing_plan_id":"cebpf4jnsgd1na2vs0mg"},{"bike_id":"b8cd2a8f-d435-4f84-881a-729309f99dac","system_id":"levelo_inurba_marseille","lat":43.342,"lon":5.40933,"is_reserved":false,"is_disabled":false,"rental_uris":{"android":"levelo://app?vid=b8cd2a8f-d435-4f84-881a-729309f99dac","ios":"levelo://app?vid=b8cd2a8f-d435-4f84-881a-729309f99dac"},"vehicle_type_id":"4","last_reported":1736759460,"current_range_meters":20000,"station_id":"ce4bhqh2rcd13ifvqhlg","pricing_plan_id":"cebpf4jnsgd1na2vs0mg"},{"bike_id":"78fc2529-851e-44ea-9e17-e5a76c9197b1","system_id":"levelo_inurba_marseille","lat":43.29707,"lon":5.37699,"is_reserved":false,"is_disabled":true,"rental_uris":{"android":"levelo://app?vid=78fc2529-851e-44ea-9e17-e5a76c9197b1","ios":"levelo://app?vid=78fc2529-851e-44ea-9e17-e5a76c9197b1"},"vehicle_type_id":"4","last_reported":1736759460,"current_range_meters":38000,"station_id":"ce4bgkh2rcd13ifvqbl0","pricing_plan_id":"cebpf4jnsgd1na2vs0mg"},{"bike_id":"759d91c5-2392-48f6-8f2b-fc1cfd9b9ecd","system_id":"levelo_inurba_marseille","lat":43.28268,"lon":5.3509,"is_reserved":false,"is_disabled":true,"rental_uris":{"android":"levelo://app?vid=759d91c5-2392-48f6-8f2b-fc1cfd9b9ecd","ios":"levelo://app?vid=759d91c5-2392-48f6-8f2b-fc1cfd9b9ecd"},"vehicle_type_id":"4","last_reported":1736759460,"current_range_meters":26000,"station_id":"ce4bhbp2rcd13ifvqerg","pricing_plan_id":"cebpf4jnsgd1na2vs0mg"},{"bike_id":"ebc55eb9-194f-4e99-8e23-b42fca6cc43d","system_id":"levelo_inurba_marseille","lat":43.27675,"lon":5.3892,"is_reserved":false,"is_disabled":false,"rental_uris":{"android":"levelo://app?vid=ebc55eb9-194f-4e99-8e23-b42fca6cc43d","ios":"levelo://app?vid=ebc55eb9-194f-4e99-8e23-b42fca6cc43d"},"vehicle_type_id":"4","last_reported":1736759460,"current_range_meters":37600,"station_id":"ce4bhi12rcd13ifvqfo0","pricing_plan_id":"cebpf4jnsgd1na2vs0mg"},{"bike_id":"4df89c5f-ad35-4858-8e73-2c663853f2e7","system_id":"levelo_inurba_marseille","lat":43.2749,"lon":5.42464,"is_reserved":false,"is_disabled":true,"rental_uris":{"android":"levelo://app?vid=4df89c5f-ad35-4858-8e73-2c663853f2e7","ios":"levelo://app?vid=4df89c5f-ad35-4858-8e73-2c663853f2e7"},"vehicle_type_id":"4","last_reported":1736759460,"current_range_meters":0,"station_id":"ce4bhn92rcd13ifvqgrg","pricing_plan_id":"cebpf4jnsgd1na2vs0mg"},{"bike_id":"0f0076d6-783b-4337-b7d9-595c3c88c049","system_id":"levelo_inurba_marseille","lat":43.30152,"lon":5.37415,"is_reserved":false,"is_disabled":false,"rental_uris":{"android":"levelo://app?vid=0f0076d6-783b-4337-b7d9-595c3c88c049","ios":"levelo://app?vid=0f0076d6-783b-4337-b7d9-595c3c88c049"},"vehicle_type_id":"4","last_reported":1736759460,"current_range_meters":36000,"station_id":"ce4bgs92rcd13ifvqcc0","pricing_plan_id":"cebpf4jnsgd1na2vs0mg"},{"bike_id":"81894d57-6961-4ca9-8a73-3302ecbe940c","system_id":"levelo_inurba_marseille","lat":43.24817,"lon":5.37462,"is_reserved":false,"is_disabled":false,"rental_uris":{"android":"levelo://app?vid=81894d57-6961-4ca9-8a73-3302ecbe940c","ios":"levelo://app?vid=81894d57-6961-4ca9-8a73-3302ecbe940c"},"vehicle_type_id":"4","last_reported":1736759460,"current_range_meters":9600,"station_id":"ce4bhgh2rcd13ifvqfb0","pricing_plan_id":"cebpf4jnsgd1na2vs0mg"},{"bike_id":"0a2746f1-6371-4bcf-af6a-89d438fce431","system_id":"levelo_inurba_marseille","lat":43.30936,"lon":5.39029,"is_reserved":false,"is_disabled":false,"rental_uris":{"android":"levelo://app?vid=0a2746f1-6371-4bcf-af6a-89d438fce431","ios":"levelo://app?vid=0a2746f1-6371-4bcf-af6a-89d438fce431"},"vehicle_type_id":"4","last_reported":1736759460,"current_range_meters":34000,"station_id":"ce4bgup2rcd13ifvqco0","pricing_plan_id":"cebpf4jnsgd1na2vs0mg"},{"bike_id":"45324790-abcf-4a91-8b9e-6b7c17eae013","system_id":"levelo_inurba_marseille","lat":43.27363,"lon":5.36247,"is_reserved":false,"is_disabled":false,"rental_uris":{"android":"levelo://app?vid=45324790-abcf-4a91-8b9e-6b7c17eae013","ios":"levelo://app?vid=45324790-abcf-4a91-8b9e-6b7c17eae013"},"vehicle_type_id":"4","last_reported":1736759460,"current_range_meters":9600,"station_id":"ce4bhbh2rcd13ifvqeo0","pricing_plan_id":"cebpf4jnsgd1na2vs0mg"},{"bike_id":"0056f550-9894-4c1c-b471-e9ebf0db9503","system_id":"levelo_inurba_marseille","lat":43.24079,"lon":5.37747,"is_reserved":false,"is_disabled":true,"rental_uris":{"android":"levelo://app?vid=0056f550-9894-4c1c-b471-e9ebf0db9503","ios":"levelo://app?vid=0056f550-9894-4c1c-b471-e9ebf0db9503"},"vehicle_type_id":"4","last_reported":1736759460,"current_range_meters":1200,"station_id":"ce4bhnp2rcd13ifvqgvg","pricing_plan_id":"cebpf4jnsgd1na2vs0mg"},{"bike_id":"ec433f4a-bbda-4b1a-ae77-a7481e2e67ed","system_id":"levelo_inurba_marseille","lat":43.27376,"lon":5.36272,"is_reserved":false,"is_disabled":false,"rental_uris":{"android":"levelo://app?vid=ec433f4a-bbda-4b1a-ae77-a7481e2e67ed","ios":"levelo://app?vid=ec433f4a-bbda-4b1a-ae77-a7481e2e67ed"},"vehicle_type_id":"4","last_reported":1736759460,"current_range_meters":19600,"station_id":"ce4bhbh2rcd13ifvqeo0","pricing_plan_id":"cebpf4jnsgd1na2vs0mg"},{"bike_id":"dcff65c6-a9f7-4994-b431-5a4db7ec747a","system_id":"levelo_inurba_marseille","lat":43.32537,"lon":5.41489,"is_reserved":false,"is_disabled":false,"rental_uris":{"android":"levelo://app?vid=dcff65c6-a9f7-4994-b431-5a4db7ec747a","ios":"levelo://app?vid=dcff65c6-a9f7-4994-b431-5a4db7ec747a"},"vehicle_type_id":"4","last_reported":1736759460,"current_range_meters":39200,"station_id":"ce4bhq12rcd13ifvqhhg","pricing_plan_id":"cebpf4jnsgd1na2vs0mg"},{"bike_id":"7abc0742-0d6a-40d7-8137-deb5e8e48177","system_id":"levelo_inurba_marseille","lat":43.25069,"lon":5.39501,"is_reserved":false,"is_disabled":false,"rental_uris":{"android":"levelo://app?vid=7abc0742-0d6a-40d7-8137-deb5e8e48177","ios":"levelo://app?vid=7abc0742-0d6a-40d7-8137-deb5e8e48177"},"vehicle_type_id":"4","last_reported":1736759460,"current_range_meters":36800,"station_id":"ce4bhm12rcd13ifvqgkg","pricing_plan_id":"cebpf4jnsgd1na2vs0mg"},{"bike_id":"5b50e384-d955-4301-8906-a69f8c5a12fa","system_id":"levelo_inurba_marseille","lat":43.2895,"lon":5.36397,"is_reserved":false,"is_disabled":false,"rental_uris":{"android":"levelo://app?vid=5b50e384-d955-4301-8906-a69f8c5a12fa","ios":"levelo://app?vid=5b50e384-d955-4301-8906-a69f8c5a12fa"},"vehicle_type_id":"4","last_reported":1736759460,"current_range_meters":31200,"station_id":"ce4bhc92rcd13ifvqetg","pricing_plan_id":"cebpf4jnsgd1na2vs0mg"},{"bike_id":"55e69bf4-2456-4a35-86e8-c8f66f97d6ff","system_id":"levelo_inurba_marseille","lat":43.30559,"lon":5.3653,"is_reserved":false,"is_disabled":false,"rental_uris":{"android":"levelo://app?vid=55e69bf4-2456-4a35-86e8-c8f66f97d6ff","ios":"levelo://app?vid=55e69bf4-2456-4a35-86e8-c8f66f97d6ff"},"vehicle_type_id":"4","last_reported":1736759460,"current_range_meters":34800,"station_id":"ce4bgs12rcd13ifvqcag","pricing_plan_id":"cebpf4jnsgd1na2vs0mg"},{"bike_id":"717c9b7d-e3d6-441e-a2b5-35caee37f8e8","system_id":"levelo_inurba_marseille","lat":43.28614,"lon":5.35094,"is_reserved":false,"is_disabled":false,"rental_uris":{"android":"levelo://app?vid=717c9b7d-e3d6-441e-a2b5-35caee37f8e8","ios":"levelo://app?vid=717c9b7d-e3d6-441e-a2b5-35caee37f8e8"},"vehicle_type_id":"4","last_reported":1736759460,"current_range_meters":33200,"station_id":"ce4bhch2rcd13ifvqeug","pricing_plan_id":"cebpf4jnsgd1na2vs0mg"},{"bike_id":"fed252d4-8a96-4918-8909-8c985d1de4fb","system_id":"levelo_inurba_marseille","lat":43.32466,"lon":5.36585,"is_reserved":false,"is_disabled":false,"rental_uris":{"android":"levelo://app?vid=fed252d4-8a96-4918-8909-8c985d1de4fb","ios":"levelo://app?vid=fed252d4-8a96-4918-8909-8c985d1de4fb"},"vehicle_type_id":"4","last_reported":1736759460,"current_range_meters":24800,"station_id":"ce4bhs12rcd13ifvqhvg","pricing_plan_id":"cebpf4jnsgd1na2vs0mg"},{"bike_id":"1ff4d6af-d168-4206-80a1-8f85ab0c0a00","system_id":"levelo_inurba_marseille","lat":43.25856,"lon":5.39911,"is_reserved":false,"is_disabled":true,"rental_uris":{"android":"levelo://app?vid=1ff4d6af-d168-4206-80a1-8f85ab0c0a00","ios":"levelo://app?vid=1ff4d6af-d168-4206-80a1-8f85ab0c0a00"},"vehicle_type_id":"4","last_reported":1736759460,"current_range_meters":8800,"station_id":"ce4bhl92rcd13ifvqghg","pricing_plan_id":"cebpf4jnsgd1na2vs0mg"},{"bike_id":"7daea1a7-f1f1-4a70-8c25-018d4e55d789","system_id":"levelo_inurba_marseille","lat":43.24545,"lon":5.39529,"is_reserved":false,"is_disabled":false,"rental_uris":{"android":"levelo://app?vid=7daea1a7-f1f1-4a70-8c25-018d4e55d789","ios":"levelo://app?vid=7daea1a7-f1f1-4a70-8c25-018d4e55d789"},"vehicle_type_id":"4","last_reported":1736759460,"current_range_meters":24000,"station_id":"ce4bhlp2rcd13ifvqgjg","pricing_plan_id":"cebpf4jnsgd1na2vs0mg"},{"bike_id":"55e10a13-573c-4876-a3f3-1d7244726716","system_id":"levelo_inurba_marseille","lat":43.24808,"lon":5.3744,"is_reserved":false,"is_disabled":false,"rental_uris":{"android":"levelo://app?vid=55e10a13-573c-4876-a3f3-1d7244726716","ios":"levelo://app?vid=55e10a13-573c-4876-a3f3-1d7244726716"},"vehicle_type_id":"4","last_reported":1736759460,"current_range_meters":38800,"station_id":"ce4bhgh2rcd13ifvqfb0","pricing_plan_id":"cebpf4jnsgd1na2vs0mg"},{"bike_id":"86abeea7-c434-4e10-8df8-12c24097eeb0","system_id":"levelo_inurba_marseille","lat":43.30406,"lon":5.39758,"is_reserved":false,"is_disabled":true,"rental_uris":{"android":"levelo://app?vid=86abeea7-c434-4e10-8df8-12c24097eeb0","ios":"levelo://app?vid=86abeea7-c434-4e10-8df8-12c24097eeb0"},"vehicle_type_id":"4","last_reported":1736759460,"current_range_meters":11200,"station_id":"ce4bh092rcd13ifvqd20","pricing_plan_id":"cebpf4jnsgd1na2vs0mg"},{"bike_id":"03bca436-08ee-4d85-a374-8843818c5ed9","system_id":"levelo_inurba_marseille","lat":43.24173,"lon":5.39746,"is_reserved":false,"is_disabled":false,"rental_uris":{"android":"levelo://app?vid=03bca436-08ee-4d85-a374-8843818c5ed9","ios":"levelo://app?vid=03bca436-08ee-4d85-a374-8843818c5ed9"},"vehicle_type_id":"4","last_reported":1736759460,"current_range_meters":24400,"station_id":"ce4bhn12rcd13ifvqgpg","pricing_plan_id":"cebpf4jnsgd1na2vs0mg"},{"bike_id":"6a22576e-69a3-4d0e-9b9e-651926c7013d","system_id":"levelo_inurba_marseille","lat":43.2749,"lon":5.4245,"is_reserved":false,"is_disabled":false,"rental_uris":{"android":"levelo://app?vid=6a22576e-69a3-4d0e-9b9e-651926c7013d","ios":"levelo://app?vid=6a22576e-69a3-4d0e-9b9e-651926c7013d"},"vehicle_type_id":"4","last_reported":1736759460,"current_range_meters":17600,"station_id":"ce4bhn92rcd13ifvqgrg","pricing_plan_id":"cebpf4jnsgd1na2vs0mg"},{"bike_id":"b8890b39-ab71-4655-a527-68606f251f13","system_id":"levelo_inurba_marseille","lat":43.2406,"lon":5.3775,"is_reserved":false,"is_disabled":true,"rental_uris":{"android":"levelo://app?vid=b8890b39-ab71-4655-a527-68606f251f13","ios":"levelo://app?vid=b8890b39-ab71-4655-a527-68606f251f13"},"vehicle_type_id":"4","last_reported":1736759460,"current_range_meters":36800,"station_id":"ce4bhnp2rcd13ifvqgvg","pricing_plan_id":"cebpf4jnsgd1na2vs0mg"},{"bike_id":"c7a817d3-63e5-4652-8814-98e74bb31058","system_id":"levelo_inurba_marseille","lat":43.23955,"lon":5.36642,"is_reserved":false,"is_disabled":false,"rental_uris":{"android":"levelo://app?vid=c7a817d3-63e5-4652-8814-98e74bb31058","ios":"levelo://app?vid=c7a817d3-63e5-4652-8814-98e74bb31058"},"vehicle_type_id":"4","last_reported":1736759460,"current_range_meters":36400,"station_id":"ce4bhi12rcd13ifvqfp0","pricing_plan_id":"cebpf4jnsgd1na2vs0mg"},{"bike_id":"488e5d3f-7080-456a-8875-7f1a5dce4fa1","system_id":"levelo_inurba_marseille","lat":43.30122,"lon":5.38825,"is_reserved":false,"is_disabled":true,"rental_uris":{"android":"levelo://app?vid=488e5d3f-7080-456a-8875-7f1a5dce4fa1","ios":"levelo://app?vid=488e5d3f-7080-456a-8875-7f1a5dce4fa1"},"vehicle_type_id":"4","last_reported":1736759460,"current_range_meters":28800,"station_id":"ce4bghh2rcd13ifvqb60","pricing_plan_id":"cebpf4jnsgd1na2vs0mg"},{"bike_id":"d9511595-185a-4a3e-a81b-0634ec2f8091","system_id":"levelo_inurba_marseille","lat":43.28392,"lon":5.35036,"is_reserved":false,"is_disabled":false,"rental_uris":{"android":"levelo://app?vid=d9511595-185a-4a3e-a81b-0634ec2f8091","ios":"levelo://app?vid=d9511595-185a-4a3e-a81b-0634ec2f8091"},"vehicle_type_id":"4","last_reported":1736759460,"current_range_meters":26800,"station_id":"ce4bhbh2rcd13ifvqepg","pricing_plan_id":"cebpf4jnsgd1na2vs0mg"},{"bike_id":"295bd26f-64bb-4f9a-b1ce-9227768f18ec","system_id":"levelo_inurba_marseille","lat":43.29165,"lon":5.37146,"is_reserved":false,"is_disabled":true,"rental_uris":{"android":"levelo://app?vid=295bd26f-64bb-4f9a-b1ce-9227768f18ec","ios":"levelo://app?vid=295bd26f-64bb-4f9a-b1ce-9227768f18ec"},"vehicle_type_id":"4","last_reported":1736759460,"current_range_meters":29600,"station_id":"ce4bha92rcd13ifvqeh0","pricing_plan_id":"cebpf4jnsgd1na2vs0mg"},{"bike_id":"1bff2bac-4883-4019-adbe-2dc598af8aad","system_id":"levelo_inurba_marseille","lat":43.27418,"lon":5.39422,"is_reserved":false,"is_disabled":false,"rental_uris":{"android":"levelo://app?vid=1bff2bac-4883-4019-adbe-2dc598af8aad","ios":"levelo://app?vid=1bff2bac-4883-4019-adbe-2dc598af8aad"},"vehicle_type_id":"4","last_reported":1736759460,"current_range_meters":22400,"station_id":"ce4bhdp2rcd13ifvqf20","pricing_plan_id":"cebpf4jnsgd1na2vs0mg"},{"bike_id":"ae29e0de-7b5a-45d6-ace3-313c5e88010a","system_id":"levelo_inurba_marseille","lat":43.27989,"lon":5.41664,"is_reserved":false,"is_disabled":true,"rental_uris":{"android":"levelo://app?vid=ae29e0de-7b5a-45d6-ace3-313c5e88010a","ios":"levelo://app?vid=ae29e0de-7b5a-45d6-ace3-313c5e88010a"},"vehicle_type_id":"4","last_reported":1736759460,"current_range_meters":0,"station_id":"ce4bho12rcd13ifvqh1g","pricing_plan_id":"cebpf4jnsgd1na2vs0mg"},{"bike_id":"572f0254-11cf-4ef2-b3f9-66737ed8298a","system_id":"levelo_inurba_marseille","lat":43.284274,"lon":5.349804,"is_reserved":false,"is_disabled":true,"rental_uris":{"android":"levelo://app?vid=572f0254-11cf-4ef2-b3f9-66737ed8298a","ios":"levelo://app?vid=572f0254-11cf-4ef2-b3f9-66737ed8298a"},"vehicle_type_id":"4","last_reported":1736759460,"current_range_meters":0,"station_id":"ce4bhbh2rcd13ifvqepg","pricing_plan_id":"cebpf4jnsgd1na2vs0mg"},{"bike_id":"5e762b1b-b8de-4f44-8971-339a5eccc653","system_id":"levelo_inurba_marseille","lat":43.25933,"lon":5.40904,"is_reserved":false,"is_disabled":false,"rental_uris":{"android":"levelo://app?vid=5e762b1b-b8de-4f44-8971-339a5eccc653","ios":"levelo://app?vid=5e762b1b-b8de-4f44-8971-339a5eccc653"},"vehicle_type_id":"4","last_reported":1736759460,"current_range_meters":24000,"station_id":"ce4bhm92rcd13ifvqglg","pricing_plan_id":"cebpf4jnsgd1na2vs0mg"},{"bike_id":"432c3ea1-bacd-4bf6-9280-5777e35950d9","system_id":"levelo_inurba_marseille","lat":43.29375,"lon":5.37842,"is_reserved":false,"is_disabled":false,"rental_uris":{"android":"levelo://app?vid=432c3ea1-bacd-4bf6-9280-5777e35950d9","ios":"levelo://app?vid=432c3ea1-bacd-4bf6-9280-5777e35950d9"},"vehicle_type_id":"4","last_reported":1736759460,"current_range_meters":28800,"station_id":"ce4bgjh2rcd13ifvqbf0","pricing_plan_id":"cebpf4jnsgd1na2vs0mg"},{"bike_id":"c4fc0863-b0fb-4807-8008-82e187e36bd7","system_id":"levelo_inurba_marseille","lat":43.30548,"lon":5.36541,"is_reserved":false,"is_disabled":false,"rental_uris":{"android":"levelo://app?vid=c4fc0863-b0fb-4807-8008-82e187e36bd7","ios":"levelo://app?vid=c4fc0863-b0fb-4807-8008-82e187e36bd7"},"vehicle_type_id":"4","last_reported":1736759460,"current_range_meters":24000,"station_id":"ce4bgs12rcd13ifvqcag","pricing_plan_id":"cebpf4jnsgd1na2vs0mg"},{"bike_id":"136c61aa-a244-4f82-9113-620a348666ce","system_id":"levelo_inurba_marseille","lat":43.27578,"lon":5.38452,"is_reserved":false,"is_disabled":true,"rental_uris":{"android":"levelo://app?vid=136c61aa-a244-4f82-9113-620a348666ce","ios":"levelo://app?vid=136c61aa-a244-4f82-9113-620a348666ce"},"vehicle_type_id":"4","last_reported":1736759460,"current_range_meters":25600,"station_id":"ce4bhh92rcd13ifvqfi0","pricing_plan_id":"cebpf4jnsgd1na2vs0mg"},{"bike_id":"7391e96e-2c6d-49a3-9915-b13616113476","system_id":"levelo_inurba_marseille","lat":43.32535,"lon":5.41463,"is_reserved":false,"is_disabled":false,"rental_uris":{"android":"levelo://app?vid=7391e96e-2c6d-49a3-9915-b13616113476","ios":"levelo://app?vid=7391e96e-2c6d-49a3-9915-b13616113476"},"vehicle_type_id":"4","last_reported":1736759460,"current_range_meters":12000,"station_id":"ce4bhq12rcd13ifvqhhg","pricing_plan_id":"cebpf4jnsgd1na2vs0mg"},{"bike_id":"42ecc464-da44-487e-b0da-d25d9d2043d6","system_id":"levelo_inurba_marseille","lat":43.25724,"lon":5.41103,"is_reserved":false,"is_disabled":false,"rental_uris":{"android":"levelo://app?vid=42ecc464-da44-487e-b0da-d25d9d2043d6","ios":"levelo://app?vid=42ecc464-da44-487e-b0da-d25d9d2043d6"},"vehicle_type_id":"4","last_reported":1736759460,"current_range_meters":38800,"station_id":"ce4bhkp2rcd13ifvqgd0","pricing_plan_id":"cebpf4jnsgd1na2vs0mg"},{"bike_id":"f5f280ee-b3e9-4261-ac29-754807b9af7d","system_id":"levelo_inurba_marseille","lat":43.30094,"lon":5.39847,"is_reserved":false,"is_disabled":false,"rental_uris":{"android":"levelo://app?vid=f5f280ee-b3e9-4261-ac29-754807b9af7d","ios":"levelo://app?vid=f5f280ee-b3e9-4261-ac29-754807b9af7d"},"vehicle_type_id":"4","last_reported":1736759460,"current_range_meters":38800,"station_id":"ce4bh0h2rcd13ifvqd40","pricing_plan_id":"cebpf4jnsgd1na2vs0mg"},{"bike_id":"65e8b99d-cb00-44f8-a57f-7740743f51e0","system_id":"levelo_inurba_marseille","lat":43.25009,"lon":5.38893,"is_reserved":false,"is_disabled":true,"rental_uris":{"android":"levelo://app?vid=65e8b99d-cb00-44f8-a57f-7740743f51e0","ios":"levelo://app?vid=65e8b99d-cb00-44f8-a57f-7740743f51e0"},"vehicle_type_id":"4","last_reported":1736759460,"current_range_meters":24800,"station_id":"ce4bhgp2rcd13ifvqfd0","pricing_plan_id":"cebpf4jnsgd1na2vs0mg"},{"bike_id":"e7bed24c-76b8-4bfe-8ea5-51efa81df6c2","system_id":"levelo_inurba_marseille","lat":43.27495,"lon":5.42471,"is_reserved":false,"is_disabled":true,"rental_uris":{"android":"levelo://app?vid=e7bed24c-76b8-4bfe-8ea5-51efa81df6c2","ios":"levelo://app?vid=e7bed24c-76b8-4bfe-8ea5-51efa81df6c2"},"vehicle_type_id":"4","last_reported":1736759460,"current_range_meters":0,"station_id":"ce4bhn92rcd13ifvqgrg","pricing_plan_id":"cebpf4jnsgd1na2vs0mg"},{"bike_id":"6717d6af-ad98-48cb-9ab4-95e77c0c6da7","system_id":"levelo_inurba_marseille","lat":43.31354,"lon":5.36737,"is_reserved":false,"is_disabled":false,"rental_uris":{"android":"levelo://app?vid=6717d6af-ad98-48cb-9ab4-95e77c0c6da7","ios":"levelo://app?vid=6717d6af-ad98-48cb-9ab4-95e77c0c6da7"},"vehicle_type_id":"4","last_reported":1736759460,"current_range_meters":29600,"station_id":"ce4bgr92rcd13ifvqc6g","pricing_plan_id":"cebpf4jnsgd1na2vs0mg"},{"bike_id":"3db2fa11-1dd9-4dc9-ae46-77da55522d93","system_id":"levelo_inurba_marseille","lat":43.2554,"lon":5.40098,"is_reserved":false,"is_disabled":true,"rental_uris":{"android":"levelo://app?vid=3db2fa11-1dd9-4dc9-ae46-77da55522d93","ios":"levelo://app?vid=3db2fa11-1dd9-4dc9-ae46-77da55522d93"},"vehicle_type_id":"4","last_reported":1736759460,"current_range_meters":0,"station_id":"","pricing_plan_id":"cebpf4jnsgd1na2vs0mg"},{"bike_id":"b477bac1-0063-4386-a827-0fff025da40a","system_id":"levelo_inurba_marseille","lat":43.33624,"lon":5.41029,"is_reserved":false,"is_disabled":false,"rental_uris":{"android":"levelo://app?vid=b477bac1-0063-4386-a827-0fff025da40a","ios":"levelo://app?vid=b477bac1-0063-4386-a827-0fff025da40a"},"vehicle_type_id":"4","last_reported":1736759460,"current_range_meters":38800,"station_id":"ce4bhqh2rcd13ifvqhmg","pricing_plan_id":"cebpf4jnsgd1na2vs0mg"},{"bike_id":"b704bf42-2bc7-4506-b669-8ca7a3330fef","system_id":"levelo_inurba_marseille","lat":43.28192,"lon":5.4267,"is_reserved":false,"is_disabled":true,"rental_uris":{"android":"levelo://app?vid=b704bf42-2bc7-4506-b669-8ca7a3330fef","ios":"levelo://app?vid=b704bf42-2bc7-4506-b669-8ca7a3330fef"},"vehicle_type_id":"4","last_reported":1736759460,"current_range_meters":25200,"station_id":"ce4bhnh2rcd13ifvqgug","pricing_plan_id":"cebpf4jnsgd1na2vs0mg"},{"bike_id":"fce02c72-fa01-449e-8f72-a8530913b962","system_id":"levelo_inurba_marseille","lat":43.30444,"lon":5.37934,"is_reserved":false,"is_disabled":false,"rental_uris":{"android":"levelo://app?vid=fce02c72-fa01-449e-8f72-a8530913b962","ios":"levelo://app?vid=fce02c72-fa01-449e-8f72-a8530913b962"},"vehicle_type_id":"4","last_reported":1736759460,"current_range_meters":38800,"station_id":"ce4bgup2rcd13ifvqcn0","pricing_plan_id":"cebpf4jnsgd1na2vs0mg"},{"bike_id":"73b4cf95-366f-4270-9320-716ca0d81968","system_id":"levelo_inurba_marseille","lat":43.29027,"lon":5.39976,"is_reserved":false,"is_disabled":false,"rental_uris":{"android":"levelo://app?vid=73b4cf95-366f-4270-9320-716ca0d81968","ios":"levelo://app?vid=73b4cf95-366f-4270-9320-716ca0d81968"},"vehicle_type_id":"4","last_reported":1736759460,"current_range_meters":34000,"station_id":"ce4bh392rcd13ifvqdm0","pricing_plan_id":"cebpf4jnsgd1na2vs0mg"},{"bike_id":"99992ce0-e13f-4dee-95af-06d78d23df51","system_id":"levelo_inurba_marseille","lat":43.2594,"lon":5.40981,"is_reserved":false,"is_disabled":false,"rental_uris":{"android":"levelo://app?vid=99992ce0-e13f-4dee-95af-06d78d23df51","ios":"levelo://app?vid=99992ce0-e13f-4dee-95af-06d78d23df51"},"vehicle_type_id":"4","last_reported":1736759460,"current_range_meters":13600,"station_id":"","pricing_plan_id":"cebpf4jnsgd1na2vs0mg"},{"bike_id":"f62a7ed4-7c80-4ed8-9568-a4dea62069d1","system_id":"levelo_inurba_marseille","lat":43.28085,"lon":5.39665,"is_reserved":false,"is_disabled":false,"rental_uris":{"android":"levelo://app?vid=f62a7ed4-7c80-4ed8-9568-a4dea62069d1","ios":"levelo://app?vid=f62a7ed4-7c80-4ed8-9568-a4dea62069d1"},"vehicle_type_id":"4","last_reported":1736759460,"current_range_meters":28800,"station_id":"ce4bho12rcd13ifvqh2g","pricing_plan_id":"cebpf4jnsgd1na2vs0mg"},{"bike_id":"ab5106f8-9059-4776-adcb-76ac24a9e045","system_id":"levelo_inurba_marseille","lat":43.30483,"lon":5.3791,"is_reserved":false,"is_disabled":false,"rental_uris":{"android":"levelo://app?vid=ab5106f8-9059-4776-adcb-76ac24a9e045","ios":"levelo://app?vid=ab5106f8-9059-4776-adcb-76ac24a9e045"},"vehicle_type_id":"4","last_reported":1736759460,"current_range_meters":16400,"station_id":"ce4bgup2rcd13ifvqcn0","pricing_plan_id":"cebpf4jnsgd1na2vs0mg"},{"bike_id":"0e19202f-6922-49da-ae77-73894f707993","system_id":"levelo_inurba_marseille","lat":43.26954,"lon":5.38639,"is_reserved":false,"is_disabled":false,"rental_uris":{"android":"levelo://app?vid=0e19202f-6922-49da-ae77-73894f707993","ios":"levelo://app?vid=0e19202f-6922-49da-ae77-73894f707993"},"vehicle_type_id":"4","last_reported":1736759460,"current_range_meters":39200,"station_id":"ce4bhh92rcd13ifvqfh0","pricing_plan_id":"cebpf4jnsgd1na2vs0mg"},{"bike_id":"d42aab63-4108-4300-bb76-e14a653ba056","system_id":"levelo_inurba_marseille","lat":43.28002,"lon":5.40008,"is_reserved":false,"is_disabled":true,"rental_uris":{"android":"levelo://app?vid=d42aab63-4108-4300-bb76-e14a653ba056","ios":"levelo://app?vid=d42aab63-4108-4300-bb76-e14a653ba056"},"vehicle_type_id":"4","last_reported":1736759460,"current_range_meters":36000,"station_id":"","pricing_plan_id":"cebpf4jnsgd1na2vs0mg"},{"bike_id":"a600f163-9520-4043-bbca-7e042ce60e39","system_id":"levelo_inurba_marseille","lat":43.286198,"lon":5.35108,"is_reserved":false,"is_disabled":false,"rental_uris":{"android":"levelo://app?vid=a600f163-9520-4043-bbca-7e042ce60e39","ios":"levelo://app?vid=a600f163-9520-4043-bbca-7e042ce60e39"},"vehicle_type_id":"4","last_reported":1736759460,"current_range_meters":24800,"station_id":"ce4bhch2rcd13ifvqeug","pricing_plan_id":"cebpf4jnsgd1na2vs0mg"},{"bike_id":"66c74e61-5f94-4d34-8844-39c7d31204c9","system_id":"levelo_inurba_marseille","lat":43.24183,"lon":5.39736,"is_reserved":false,"is_disabled":false,"rental_uris":{"android":"levelo://app?vid=66c74e61-5f94-4d34-8844-39c7d31204c9","ios":"levelo://app?vid=66c74e61-5f94-4d34-8844-39c7d31204c9"},"vehicle_type_id":"4","last_reported":1736759460,"current_range_meters":28000,"station_id":"ce4bhn12rcd13ifvqgpg","pricing_plan_id":"cebpf4jnsgd1na2vs0mg"},{"bike_id":"31240ca4-9f64-4406-9c52-14b4354e548c","system_id":"levelo_inurba_marseille","lat":43.28624,"lon":5.350976,"is_reserved":false,"is_disabled":false,"rental_uris":{"android":"levelo://app?vid=31240ca4-9f64-4406-9c52-14b4354e548c","ios":"levelo://app?vid=31240ca4-9f64-4406-9c52-14b4354e548c"},"vehicle_type_id":"4","last_reported":1736759460,"current_range_meters":33600,"station_id":"ce4bhch2rcd13ifvqeug","pricing_plan_id":"cebpf4jnsgd1na2vs0mg"},{"bike_id":"089a04ef-15a2-4c09-98ee-41fc60bacc6d","system_id":"levelo_inurba_marseille","lat":43.32467,"lon":5.3658,"is_reserved":false,"is_disabled":false,"rental_uris":{"android":"levelo://app?vid=089a04ef-15a2-4c09-98ee-41fc60bacc6d","ios":"levelo://app?vid=089a04ef-15a2-4c09-98ee-41fc60bacc6d"},"vehicle_type_id":"4","last_reported":1736759460,"current_range_meters":38400,"station_id":"ce4bhs12rcd13ifvqhvg","pricing_plan_id":"cebpf4jnsgd1na2vs0mg"},{"bike_id":"d9b042e2-bbf3-47bf-851f-426caf4d0e01","system_id":"levelo_inurba_marseille","lat":43.24815,"lon":5.37469,"is_reserved":false,"is_disabled":false,"rental_uris":{"android":"levelo://app?vid=d9b042e2-bbf3-47bf-851f-426caf4d0e01","ios":"levelo://app?vid=d9b042e2-bbf3-47bf-851f-426caf4d0e01"},"vehicle_type_id":"4","last_reported":1736759460,"current_range_meters":35200,"station_id":"ce4bhgh2rcd13ifvqfb0","pricing_plan_id":"cebpf4jnsgd1na2vs0mg"},{"bike_id":"712fb1ac-a49b-4a1d-bf83-b2682dda137c","system_id":"levelo_inurba_marseille","lat":43.29533,"lon":5.36412,"is_reserved":false,"is_disabled":false,"rental_uris":{"android":"levelo://app?vid=712fb1ac-a49b-4a1d-bf83-b2682dda137c","ios":"levelo://app?vid=712fb1ac-a49b-4a1d-bf83-b2682dda137c"},"vehicle_type_id":"4","last_reported":1736759460,"current_range_meters":36000,"station_id":"","pricing_plan_id":"cebpf4jnsgd1na2vs0mg"},{"bike_id":"a16b1da6-a3b0-41ee-96cf-a681d45e9bcb","system_id":"levelo_inurba_marseille","lat":43.27494,"lon":5.42457,"is_reserved":false,"is_disabled":false,"rental_uris":{"android":"levelo://app?vid=a16b1da6-a3b0-41ee-96cf-a681d45e9bcb","ios":"levelo://app?vid=a16b1da6-a3b0-41ee-96cf-a681d45e9bcb"},"vehicle_type_id":"4","last_reported":1736759460,"current_range_meters":31200,"station_id":"ce4bhn92rcd13ifvqgrg","pricing_plan_id":"cebpf4jnsgd1na2vs0mg"},{"bike_id":"5f2cf356-122a-4d24-85ba-e38bc4612223","system_id":"levelo_inurba_marseille","lat":43.2557,"lon":5.38262,"is_reserved":false,"is_disabled":false,"rental_uris":{"android":"levelo://app?vid=5f2cf356-122a-4d24-85ba-e38bc4612223","ios":"levelo://app?vid=5f2cf356-122a-4d24-85ba-e38bc4612223"},"vehicle_type_id":"4","last_reported":1736759460,"current_range_meters":25600,"station_id":"ce4bhih2rcd13ifvqfs0","pricing_plan_id":"cebpf4jnsgd1na2vs0mg"},{"bike_id":"2ef3a583-2af2-4fbb-84f1-ea34fae96d7d","system_id":"levelo_inurba_marseille","lat":43.26209,"lon":5.3744,"is_reserved":false,"is_disabled":false,"rental_uris":{"android":"levelo://app?vid=2ef3a583-2af2-4fbb-84f1-ea34fae96d7d","ios":"levelo://app?vid=2ef3a583-2af2-4fbb-84f1-ea34fae96d7d"},"vehicle_type_id":"4","last_reported":1736759460,"current_range_meters":31200,"station_id":"ce4bhgp2rcd13ifvqfc0","pricing_plan_id":"cebpf4jnsgd1na2vs0mg"},{"bike_id":"1d0b5d26-7703-4315-8298-c0d89350555c","system_id":"levelo_inurba_marseille","lat":43.28702,"lon":5.39982,"is_reserved":false,"is_disabled":false,"rental_uris":{"android":"levelo://app?vid=1d0b5d26-7703-4315-8298-c0d89350555c","ios":"levelo://app?vid=1d0b5d26-7703-4315-8298-c0d89350555c"},"vehicle_type_id":"4","last_reported":1736759460,"current_range_meters":38400,"station_id":"ce4bho92rcd13ifvqh3g","pricing_plan_id":"cebpf4jnsgd1na2vs0mg"},{"bike_id":"3b0c7591-c1f3-412f-9181-cb82602a89ed","system_id":"levelo_inurba_marseille","lat":43.24811,"lon":5.37465,"is_reserved":false,"is_disabled":true,"rental_uris":{"android":"levelo://app?vid=3b0c7591-c1f3-412f-9181-cb82602a89ed","ios":"levelo://app?vid=3b0c7591-c1f3-412f-9181-cb82602a89ed"},"vehicle_type_id":"4","last_reported":1736759460,"current_range_meters":10000,"station_id":"ce4bhgh2rcd13ifvqfb0","pricing_plan_id":"cebpf4jnsgd1na2vs0mg"},{"bike_id":"53654f10-da2f-4d3b-b20c-72333b05ffaf","system_id":"levelo_inurba_marseille","lat":43.24067,"lon":5.37739,"is_reserved":false,"is_disabled":false,"rental_uris":{"android":"levelo://app?vid=53654f10-da2f-4d3b-b20c-72333b05ffaf","ios":"levelo://app?vid=53654f10-da2f-4d3b-b20c-72333b05ffaf"},"vehicle_type_id":"4","last_reported":1736759460,"current_range_meters":17600,"station_id":"ce4bhnp2rcd13ifvqgvg","pricing_plan_id":"cebpf4jnsgd1na2vs0mg"},{"bike_id":"bb9e99ce-48a1-4551-a814-d1c67643e278","system_id":"levelo_inurba_marseille","lat":43.23157,"lon":5.43688,"is_reserved":false,"is_disabled":true,"rental_uris":{"android":"levelo://app?vid=bb9e99ce-48a1-4551-a814-d1c67643e278","ios":"levelo://app?vid=bb9e99ce-48a1-4551-a814-d1c67643e278"},"vehicle_type_id":"4","last_reported":1736759460,"current_range_meters":0,"station_id":"ce4bhmp2rcd13ifvqgog","pricing_plan_id":"cebpf4jnsgd1na2vs0mg"},{"bike_id":"16833343-c45a-4aeb-bf79-1be93a70c331","system_id":"levelo_inurba_marseille","lat":43.3248,"lon":5.36576,"is_reserved":false,"is_disabled":false,"rental_uris":{"android":"levelo://app?vid=16833343-c45a-4aeb-bf79-1be93a70c331","ios":"levelo://app?vid=16833343-c45a-4aeb-bf79-1be93a70c331"},"vehicle_type_id":"4","last_reported":1736759460,"current_range_meters":38000,"station_id":"ce4bhs12rcd13ifvqhvg","pricing_plan_id":"cebpf4jnsgd1na2vs0mg"},{"bike_id":"8242826e-ab20-43ea-95c1-e76b426a119e","system_id":"levelo_inurba_marseille","lat":43.33773,"lon":5.37431,"is_reserved":false,"is_disabled":false,"rental_uris":{"android":"levelo://app?vid=8242826e-ab20-43ea-95c1-e76b426a119e","ios":"levelo://app?vid=8242826e-ab20-43ea-95c1-e76b426a119e"},"vehicle_type_id":"4","last_reported":1736759460,"current_range_meters":38800,"station_id":"","pricing_plan_id":"cebpf4jnsgd1na2vs0mg"},{"bike_id":"41922604-c7b8-4e93-9da5-3903771d7233","system_id":"levelo_inurba_marseille","lat":43.2481,"lon":5.37464,"is_reserved":false,"is_disabled":false,"rental_uris":{"android":"levelo://app?vid=41922604-c7b8-4e93-9da5-3903771d7233","ios":"levelo://app?vid=41922604-c7b8-4e93-9da5-3903771d7233"},"vehicle_type_id":"4","last_reported":1736759460,"current_range_meters":27600,"station_id":"ce4bhgh2rcd13ifvqfb0","pricing_plan_id":"cebpf4jnsgd1na2vs0mg"},{"bike_id":"c327d484-c524-4142-9386-6268c4e1d223","system_id":"levelo_inurba_marseille","lat":43.255846,"lon":5.382306,"is_reserved":false,"is_disabled":false,"rental_uris":{"android":"levelo://app?vid=c327d484-c524-4142-9386-6268c4e1d223","ios":"levelo://app?vid=c327d484-c524-4142-9386-6268c4e1d223"},"vehicle_type_id":"4","last_reported":1736759460,"current_range_meters":20400,"station_id":"ce4bhih2rcd13ifvqfs0","pricing_plan_id":"cebpf4jnsgd1na2vs0mg"},{"bike_id":"9343157b-1c2d-4548-bf4c-6991e6c0cdde","system_id":"levelo_inurba_marseille","lat":43.29757,"lon":5.37105,"is_reserved":false,"is_disabled":true,"rental_uris":{"android":"levelo://app?vid=9343157b-1c2d-4548-bf4c-6991e6c0cdde","ios":"levelo://app?vid=9343157b-1c2d-4548-bf4c-6991e6c0cdde"},"vehicle_type_id":"4","last_reported":1736759460,"current_range_meters":24000,"station_id":"ce4bgop2rcd13ifvqc1g","pricing_plan_id":"cebpf4jnsgd1na2vs0mg"},{"bike_id":"7b4baf74-6543-4e07-a2f0-567da6624c28","system_id":"levelo_inurba_marseille","lat":43.31339,"lon":5.36767,"is_reserved":false,"is_disabled":false,"rental_uris":{"android":"levelo://app?vid=7b4baf74-6543-4e07-a2f0-567da6624c28","ios":"levelo://app?vid=7b4baf74-6543-4e07-a2f0-567da6624c28"},"vehicle_type_id":"4","last_reported":1736759460,"current_range_meters":32800,"station_id":"ce4bgr92rcd13ifvqc6g","pricing_plan_id":"cebpf4jnsgd1na2vs0mg"},{"bike_id":"37ef9dae-3045-4c9a-8403-f38fac7f6b1a","system_id":"levelo_inurba_marseille","lat":43.29037,"lon":5.40004,"is_reserved":false,"is_disabled":false,"rental_uris":{"android":"levelo://app?vid=37ef9dae-3045-4c9a-8403-f38fac7f6b1a","ios":"levelo://app?vid=37ef9dae-3045-4c9a-8403-f38fac7f6b1a"},"vehicle_type_id":"4","last_reported":1736759460,"current_range_meters":39200,"station_id":"ce4bh392rcd13ifvqdm0","pricing_plan_id":"cebpf4jnsgd1na2vs0mg"},{"bike_id":"e472d994-f65f-4f46-888f-c26644e6cd18","system_id":"levelo_inurba_marseille","lat":43.30146,"lon":5.37406,"is_reserved":false,"is_disabled":false,"rental_uris":{"android":"levelo://app?vid=e472d994-f65f-4f46-888f-c26644e6cd18","ios":"levelo://app?vid=e472d994-f65f-4f46-888f-c26644e6cd18"},"vehicle_type_id":"4","last_reported":1736759460,"current_range_meters":25200,"station_id":"ce4bgs92rcd13ifvqcc0","pricing_plan_id":"cebpf4jnsgd1na2vs0mg"},{"bike_id":"6f8d5613-68e8-453b-9903-0b6c2da05e2d","system_id":"levelo_inurba_marseille","lat":43.24162,"lon":5.36403,"is_reserved":false,"is_disabled":false,"rental_uris":{"android":"levelo://app?vid=6f8d5613-68e8-453b-9903-0b6c2da05e2d","ios":"levelo://app?vid=6f8d5613-68e8-453b-9903-0b6c2da05e2d"},"vehicle_type_id":"4","last_reported":1736759460,"current_range_meters":32800,"station_id":"cpo36qri1sfpv3e86is0","pricing_plan_id":"cebpf4jnsgd1na2vs0mg"},{"bike_id":"04d788bf-6a1e-4994-a7a2-ad85dcb4ea1c","system_id":"levelo_inurba_marseille","lat":43.266843,"lon":5.382609,"is_reserved":false,"is_disabled":false,"rental_uris":{"android":"levelo://app?vid=04d788bf-6a1e-4994-a7a2-ad85dcb4ea1c","ios":"levelo://app?vid=04d788bf-6a1e-4994-a7a2-ad85dcb4ea1c"},"vehicle_type_id":"4","last_reported":1736759460,"current_range_meters":39200,"station_id":"ce4bhg92rcd13ifvqf90","pricing_plan_id":"cebpf4jnsgd1na2vs0mg"},{"bike_id":"cf11e11e-1e8b-42f7-a7ea-4ab24cbbde4c","system_id":"levelo_inurba_marseille","lat":43.286171,"lon":5.351069,"is_reserved":false,"is_disabled":false,"rental_uris":{"android":"levelo://app?vid=cf11e11e-1e8b-42f7-a7ea-4ab24cbbde4c","ios":"levelo://app?vid=cf11e11e-1e8b-42f7-a7ea-4ab24cbbde4c"},"vehicle_type_id":"4","last_reported":1736759460,"current_range_meters":30000,"station_id":"ce4bhch2rcd13ifvqeug","pricing_plan_id":"cebpf4jnsgd1na2vs0mg"},{"bike_id":"2130fc74-9dbc-4976-b04b-ed38d5ae8110","system_id":"levelo_inurba_marseille","lat":43.24057,"lon":5.37706,"is_reserved":false,"is_disabled":false,"rental_uris":{"android":"levelo://app?vid=2130fc74-9dbc-4976-b04b-ed38d5ae8110","ios":"levelo://app?vid=2130fc74-9dbc-4976-b04b-ed38d5ae8110"},"vehicle_type_id":"4","last_reported":1736759460,"current_range_meters":37600,"station_id":"ce4bhnp2rcd13ifvqgvg","pricing_plan_id":"cebpf4jnsgd1na2vs0mg"},{"bike_id":"3fe1c7ab-6535-4a87-a5c5-4dc2bdd2f69f","system_id":"levelo_inurba_marseille","lat":43.30898,"lon":5.36874,"is_reserved":false,"is_disabled":false,"rental_uris":{"android":"levelo://app?vid=3fe1c7ab-6535-4a87-a5c5-4dc2bdd2f69f","ios":"levelo://app?vid=3fe1c7ab-6535-4a87-a5c5-4dc2bdd2f69f"},"vehicle_type_id":"4","last_reported":1736759460,"current_range_meters":36000,"station_id":"ce4bgn92rcd13ifvqbvg","pricing_plan_id":"cebpf4jnsgd1na2vs0mg"},{"bike_id":"85603f95-286b-4848-8682-ec6ae6094237","system_id":"levelo_inurba_marseille","lat":43.27049,"lon":5.40284,"is_reserved":false,"is_disabled":true,"rental_uris":{"android":"levelo://app?vid=85603f95-286b-4848-8682-ec6ae6094237","ios":"levelo://app?vid=85603f95-286b-4848-8682-ec6ae6094237"},"vehicle_type_id":"4","last_reported":1736759460,"current_range_meters":4800,"station_id":"ce4bhk92rcd13ifvqgc0","pricing_plan_id":"cebpf4jnsgd1na2vs0mg"},{"bike_id":"55178c83-e8c1-42d0-85eb-2ae9bbbd47cf","system_id":"levelo_inurba_marseille","lat":43.23195,"lon":5.35585,"is_reserved":false,"is_disabled":false,"rental_uris":{"android":"levelo://app?vid=55178c83-e8c1-42d0-85eb-2ae9bbbd47cf","ios":"levelo://app?vid=55178c83-e8c1-42d0-85eb-2ae9bbbd47cf"},"vehicle_type_id":"4","last_reported":1736759460,"current_range_meters":38400,"station_id":"ce4bhu92rcd13ifvqi70","pricing_plan_id":"cebpf4jnsgd1na2vs0mg"},{"bike_id":"7e485f51-6818-4a44-84a2-c0e3905c8e99","system_id":"levelo_inurba_marseille","lat":43.29618,"lon":5.37173,"is_reserved":false,"is_disabled":false,"rental_uris":{"android":"levelo://app?vid=7e485f51-6818-4a44-84a2-c0e3905c8e99","ios":"levelo://app?vid=7e485f51-6818-4a44-84a2-c0e3905c8e99"},"vehicle_type_id":"4","last_reported":1736759460,"current_range_meters":37600,"station_id":"ce4bgnh2rcd13ifvqc0g","pricing_plan_id":"cebpf4jnsgd1na2vs0mg"},{"bike_id":"8b88170d-e695-4530-8583-a66b3ec41a93","system_id":"levelo_inurba_marseille","lat":43.33623,"lon":5.41008,"is_reserved":false,"is_disabled":true,"rental_uris":{"android":"levelo://app?vid=8b88170d-e695-4530-8583-a66b3ec41a93","ios":"levelo://app?vid=8b88170d-e695-4530-8583-a66b3ec41a93"},"vehicle_type_id":"4","last_reported":1736759460,"current_range_meters":5600,"station_id":"ce4bhqh2rcd13ifvqhmg","pricing_plan_id":"cebpf4jnsgd1na2vs0mg"},{"bike_id":"9ae7b343-addb-40ac-b457-d3a9cab06b2f","system_id":"levelo_inurba_marseille","lat":43.30416,"lon":5.39743,"is_reserved":false,"is_disabled":false,"rental_uris":{"android":"levelo://app?vid=9ae7b343-addb-40ac-b457-d3a9cab06b2f","ios":"levelo://app?vid=9ae7b343-addb-40ac-b457-d3a9cab06b2f"},"vehicle_type_id":"4","last_reported":1736759460,"current_range_meters":39200,"station_id":"ce4bh092rcd13ifvqd20","pricing_plan_id":"cebpf4jnsgd1na2vs0mg"},{"bike_id":"5a16b36f-1514-4d4e-bf26-71ed3f375014","system_id":"levelo_inurba_marseille","lat":43.26945,"lon":5.3863,"is_reserved":false,"is_disabled":false,"rental_uris":{"android":"levelo://app?vid=5a16b36f-1514-4d4e-bf26-71ed3f375014","ios":"levelo://app?vid=5a16b36f-1514-4d4e-bf26-71ed3f375014"},"vehicle_type_id":"4","last_reported":1736759460,"current_range_meters":28000,"station_id":"ce4bhh92rcd13ifvqfh0","pricing_plan_id":"cebpf4jnsgd1na2vs0mg"},{"bike_id":"290eeea9-84aa-44c8-9faf-f7b301687dfa","system_id":"levelo_inurba_marseille","lat":43.24177,"lon":5.39727,"is_reserved":false,"is_disabled":false,"rental_uris":{"android":"levelo://app?vid=290eeea9-84aa-44c8-9faf-f7b301687dfa","ios":"levelo://app?vid=290eeea9-84aa-44c8-9faf-f7b301687dfa"},"vehicle_type_id":"4","last_reported":1736759460,"current_range_meters":18800,"station_id":"ce4bhn12rcd13ifvqgpg","pricing_plan_id":"cebpf4jnsgd1na2vs0mg"},{"bike_id":"a4ff37b7-68f1-48c9-ad5d-1b48e017db3a","system_id":"levelo_inurba_marseille","lat":43.27522,"lon":5.4235,"is_reserved":false,"is_disabled":false,"rental_uris":{"android":"levelo://app?vid=a4ff37b7-68f1-48c9-ad5d-1b48e017db3a","ios":"levelo://app?vid=a4ff37b7-68f1-48c9-ad5d-1b48e017db3a"},"vehicle_type_id":"4","last_reported":1736759460,"current_range_meters":38000,"station_id":"ce4bhn92rcd13ifvqgrg","pricing_plan_id":"cebpf4jnsgd1na2vs0mg"},{"bike_id":"d1fabc58-caf7-4d51-a0b7-5178e822a4f7","system_id":"levelo_inurba_marseille","lat":43.29709,"lon":5.37702,"is_reserved":false,"is_disabled":false,"rental_uris":{"android":"levelo://app?vid=d1fabc58-caf7-4d51-a0b7-5178e822a4f7","ios":"levelo://app?vid=d1fabc58-caf7-4d51-a0b7-5178e822a4f7"},"vehicle_type_id":"4","last_reported":1736759460,"current_range_meters":38400,"station_id":"ce4bgkh2rcd13ifvqbl0","pricing_plan_id":"cebpf4jnsgd1na2vs0mg"},{"bike_id":"19192bb3-f286-41ed-8d29-704554e42cbb","system_id":"levelo_inurba_marseille","lat":43.25017,"lon":5.40417,"is_reserved":false,"is_disabled":false,"rental_uris":{"android":"levelo://app?vid=19192bb3-f286-41ed-8d29-704554e42cbb","ios":"levelo://app?vid=19192bb3-f286-41ed-8d29-704554e42cbb"},"vehicle_type_id":"4","last_reported":1736759460,"current_range_meters":27600,"station_id":"","pricing_plan_id":"cebpf4jnsgd1na2vs0mg"},{"bike_id":"615a8105-b137-4bc1-bde3-fbaaa249b939","system_id":"levelo_inurba_marseille","lat":43.26063,"lon":5.39398,"is_reserved":false,"is_disabled":false,"rental_uris":{"android":"levelo://app?vid=615a8105-b137-4bc1-bde3-fbaaa249b939","ios":"levelo://app?vid=615a8105-b137-4bc1-bde3-fbaaa249b939"},"vehicle_type_id":"4","last_reported":1736759460,"current_range_meters":38800,"station_id":"ce4bhh92rcd13ifvqfj0","pricing_plan_id":"cebpf4jnsgd1na2vs0mg"},{"bike_id":"377730c6-0336-4c78-9c46-cdee41ff19a9","system_id":"levelo_inurba_marseille","lat":43.27952,"lon":5.41103,"is_reserved":false,"is_disabled":true,"rental_uris":{"android":"levelo://app?vid=377730c6-0336-4c78-9c46-cdee41ff19a9","ios":"levelo://app?vid=377730c6-0336-4c78-9c46-cdee41ff19a9"},"vehicle_type_id":"4","last_reported":1736759460,"current_range_meters":0,"station_id":"ce4bhnp2rcd13ifvqh0g","pricing_plan_id":"cebpf4jnsgd1na2vs0mg"},{"bike_id":"e769f2fc-ab0c-4669-90da-e1ea8b26d705","system_id":"levelo_inurba_marseille","lat":43.30417,"lon":5.41292,"is_reserved":false,"is_disabled":false,"rental_uris":{"android":"levelo://app?vid=e769f2fc-ab0c-4669-90da-e1ea8b26d705","ios":"levelo://app?vid=e769f2fc-ab0c-4669-90da-e1ea8b26d705"},"vehicle_type_id":"4","last_reported":1736759460,"current_range_meters":38000,"station_id":"ce4bhop2rcd13ifvqh8g","pricing_plan_id":"cebpf4jnsgd1na2vs0mg"},{"bike_id":"4cd94143-ebf9-49c6-b61f-70ed30e9b0fb","system_id":"levelo_inurba_marseille","lat":43.27609,"lon":5.36119,"is_reserved":false,"is_disabled":true,"rental_uris":{"android":"levelo://app?vid=4cd94143-ebf9-49c6-b61f-70ed30e9b0fb","ios":"levelo://app?vid=4cd94143-ebf9-49c6-b61f-70ed30e9b0fb"},"vehicle_type_id":"4","last_reported":1736759460,"current_range_meters":38800,"station_id":"ce4bgj92rcd13ifvqbe0","pricing_plan_id":"cebpf4jnsgd1na2vs0mg"},{"bike_id":"266859f2-18fe-482a-8c9f-5bdad982c716","system_id":"levelo_inurba_marseille","lat":43.27958,"lon":5.41109,"is_reserved":false,"is_disabled":true,"rental_uris":{"android":"levelo://app?vid=266859f2-18fe-482a-8c9f-5bdad982c716","ios":"levelo://app?vid=266859f2-18fe-482a-8c9f-5bdad982c716"},"vehicle_type_id":"4","last_reported":1736759460,"current_range_meters":0,"station_id":"ce4bhnp2rcd13ifvqh0g","pricing_plan_id":"cebpf4jnsgd1na2vs0mg"},{"bike_id":"77768e4a-dd61-4954-b932-ed6ecde57be7","system_id":"levelo_inurba_marseille","lat":43.30946,"lon":5.39032,"is_reserved":false,"is_disabled":false,"rental_uris":{"android":"levelo://app?vid=77768e4a-dd61-4954-b932-ed6ecde57be7","ios":"levelo://app?vid=77768e4a-dd61-4954-b932-ed6ecde57be7"},"vehicle_type_id":"4","last_reported":1736759460,"current_range_meters":30000,"station_id":"ce4bgup2rcd13ifvqco0","pricing_plan_id":"cebpf4jnsgd1na2vs0mg"},{"bike_id":"60a8af81-97f0-4936-81a1-ac96e335a75e","system_id":"levelo_inurba_marseille","lat":43.31234,"lon":5.36942,"is_reserved":false,"is_disabled":false,"rental_uris":{"android":"levelo://app?vid=60a8af81-97f0-4936-81a1-ac96e335a75e","ios":"levelo://app?vid=60a8af81-97f0-4936-81a1-ac96e335a75e"},"vehicle_type_id":"4","last_reported":1736759460,"current_range_meters":39200,"station_id":"ce4bgl92rcd13ifvqbq0","pricing_plan_id":"cebpf4jnsgd1na2vs0mg"},{"bike_id":"36b63943-2d1a-4e88-bcde-671d4008e2a1","system_id":"levelo_inurba_marseille","lat":43.26785,"lon":5.39422,"is_reserved":false,"is_disabled":false,"rental_uris":{"android":"levelo://app?vid=36b63943-2d1a-4e88-bcde-671d4008e2a1","ios":"levelo://app?vid=36b63943-2d1a-4e88-bcde-671d4008e2a1"},"vehicle_type_id":"4","last_reported":1736759460,"current_range_meters":39200,"station_id":"ce4bhh12rcd13ifvqfg0","pricing_plan_id":"cebpf4jnsgd1na2vs0mg"},{"bike_id":"71116d63-f962-4a0b-82ce-3f8717421eec","system_id":"levelo_inurba_marseille","lat":43.29375,"lon":5.37859,"is_reserved":false,"is_disabled":false,"rental_uris":{"android":"levelo://app?vid=71116d63-f962-4a0b-82ce-3f8717421eec","ios":"levelo://app?vid=71116d63-f962-4a0b-82ce-3f8717421eec"},"vehicle_type_id":"4","last_reported":1736759460,"current_range_meters":27600,"station_id":"ce4bgjh2rcd13ifvqbf0","pricing_plan_id":"cebpf4jnsgd1na2vs0mg"},{"bike_id":"f7eb6545-eda7-44f9-836e-f28daa1b4122","system_id":"levelo_inurba_marseille","lat":43.31996,"lon":5.38167,"is_reserved":false,"is_disabled":false,"rental_uris":{"android":"levelo://app?vid=f7eb6545-eda7-44f9-836e-f28daa1b4122","ios":"levelo://app?vid=f7eb6545-eda7-44f9-836e-f28daa1b4122"},"vehicle_type_id":"4","last_reported":1736759460,"current_range_meters":22400,"station_id":"ce4bhr12rcd13ifvqhpg","pricing_plan_id":"cebpf4jnsgd1na2vs0mg"},{"bike_id":"27230330-b2b4-4b46-a16b-2c01f268e3f6","system_id":"levelo_inurba_marseille","lat":43.30097,"lon":5.39075,"is_reserved":false,"is_disabled":false,"rental_uris":{"android":"levelo://app?vid=27230330-b2b4-4b46-a16b-2c01f268e3f6","ios":"levelo://app?vid=27230330-b2b4-4b46-a16b-2c01f268e3f6"},"vehicle_type_id":"4","last_reported":1736759460,"current_range_meters":16000,"station_id":"ce4bh192rcd13ifvqdb0","pricing_plan_id":"cebpf4jnsgd1na2vs0mg"},{"bike_id":"d6757bbb-8f5b-4930-b472-8846558e5340","system_id":"levelo_inurba_marseille","lat":43.30515,"lon":5.36709,"is_reserved":false,"is_disabled":false,"rental_uris":{"android":"levelo://app?vid=d6757bbb-8f5b-4930-b472-8846558e5340","ios":"levelo://app?vid=d6757bbb-8f5b-4930-b472-8846558e5340"},"vehicle_type_id":"4","last_reported":1736759460,"current_range_meters":30000,"station_id":"ce4bgrp2rcd13ifvqc9g","pricing_plan_id":"cebpf4jnsgd1na2vs0mg"},{"bike_id":"b31c05a9-6487-4217-80a6-25821a78c060","system_id":"levelo_inurba_marseille","lat":43.23185,"lon":5.3555,"is_reserved":false,"is_disabled":false,"rental_uris":{"android":"levelo://app?vid=b31c05a9-6487-4217-80a6-25821a78c060","ios":"levelo://app?vid=b31c05a9-6487-4217-80a6-25821a78c060"},"vehicle_type_id":"4","last_reported":1736759460,"current_range_meters":35600,"station_id":"ce4bhu92rcd13ifvqi70","pricing_plan_id":"cebpf4jnsgd1na2vs0mg"},{"bike_id":"f23647a8-ac32-4e08-be8d-dff2e243f4ac","system_id":"levelo_inurba_marseille","lat":43.29528,"lon":5.3892,"is_reserved":false,"is_disabled":true,"rental_uris":{"android":"levelo://app?vid=f23647a8-ac32-4e08-be8d-dff2e243f4ac","ios":"levelo://app?vid=f23647a8-ac32-4e08-be8d-dff2e243f4ac"},"vehicle_type_id":"4","last_reported":1736759460,"current_range_meters":0,"station_id":"","pricing_plan_id":"cebpf4jnsgd1na2vs0mg"},{"bike_id":"f9ee6176-3d2c-4681-b2f4-1395f1b16267","system_id":"levelo_inurba_marseille","lat":43.24072,"lon":5.37756,"is_reserved":false,"is_disabled":false,"rental_uris":{"android":"levelo://app?vid=f9ee6176-3d2c-4681-b2f4-1395f1b16267","ios":"levelo://app?vid=f9ee6176-3d2c-4681-b2f4-1395f1b16267"},"vehicle_type_id":"4","last_reported":1736759460,"current_range_meters":20400,"station_id":"ce4bhnp2rcd13ifvqgvg","pricing_plan_id":"cebpf4jnsgd1na2vs0mg"},{"bike_id":"f92eccaa-b498-4971-8e79-c49742bfb4e0","system_id":"levelo_inurba_marseille","lat":43.26192,"lon":5.37943,"is_reserved":false,"is_disabled":false,"rental_uris":{"android":"levelo://app?vid=f92eccaa-b498-4971-8e79-c49742bfb4e0","ios":"levelo://app?vid=f92eccaa-b498-4971-8e79-c49742bfb4e0"},"vehicle_type_id":"4","last_reported":1736759460,"current_range_meters":8400,"station_id":"ce4bhjp2rcd13ifvqg90","pricing_plan_id":"cebpf4jnsgd1na2vs0mg"},{"bike_id":"e78672c3-8038-4e42-87a9-22159ccd2eb1","system_id":"levelo_inurba_marseille","lat":43.3028,"lon":5.37701,"is_reserved":false,"is_disabled":false,"rental_uris":{"android":"levelo://app?vid=e78672c3-8038-4e42-87a9-22159ccd2eb1","ios":"levelo://app?vid=e78672c3-8038-4e42-87a9-22159ccd2eb1"},"vehicle_type_id":"4","last_reported":1736759460,"current_range_meters":32800,"station_id":"ce4bguh2rcd13ifvqcj0","pricing_plan_id":"cebpf4jnsgd1na2vs0mg"},{"bike_id":"8725b872-6622-449f-8a45-09bc0e12997c","system_id":"levelo_inurba_marseille","lat":43.29107,"lon":5.35606,"is_reserved":false,"is_disabled":false,"rental_uris":{"android":"levelo://app?vid=8725b872-6622-449f-8a45-09bc0e12997c","ios":"levelo://app?vid=8725b872-6622-449f-8a45-09bc0e12997c"},"vehicle_type_id":"4","last_reported":1736759460,"current_range_meters":28800,"station_id":"","pricing_plan_id":"cebpf4jnsgd1na2vs0mg"},{"bike_id":"00046a4b-2768-432b-adb4-66738feaf613","system_id":"levelo_inurba_marseille","lat":43.25,"lon":5.38945,"is_reserved":false,"is_disabled":false,"rental_uris":{"android":"levelo://app?vid=00046a4b-2768-432b-adb4-66738feaf613","ios":"levelo://app?vid=00046a4b-2768-432b-adb4-66738feaf613"},"vehicle_type_id":"4","last_reported":1736759460,"current_range_meters":23200,"station_id":"ce4bhgp2rcd13ifvqfd0","pricing_plan_id":"cebpf4jnsgd1na2vs0mg"},{"bike_id":"4d70fa4c-8ff8-4d7c-8b55-ed0185958620","system_id":"levelo_inurba_marseille","lat":43.29287,"lon":5.37446,"is_reserved":false,"is_disabled":false,"rental_uris":{"android":"levelo://app?vid=4d70fa4c-8ff8-4d7c-8b55-ed0185958620","ios":"levelo://app?vid=4d70fa4c-8ff8-4d7c-8b55-ed0185958620"},"vehicle_type_id":"4","last_reported":1736759460,"current_range_meters":38800,"station_id":"ce4bgi12rcd13ifvqb70","pricing_plan_id":"cebpf4jnsgd1na2vs0mg"},{"bike_id":"3e8b7527-e89d-4d31-a3a1-bab5d9961c5a","system_id":"levelo_inurba_marseille","lat":43.33612,"lon":5.41031,"is_reserved":false,"is_disabled":true,"rental_uris":{"android":"levelo://app?vid=3e8b7527-e89d-4d31-a3a1-bab5d9961c5a","ios":"levelo://app?vid=3e8b7527-e89d-4d31-a3a1-bab5d9961c5a"},"vehicle_type_id":"4","last_reported":1736759460,"current_range_meters":28000,"station_id":"ce4bhqh2rcd13ifvqhmg","pricing_plan_id":"cebpf4jnsgd1na2vs0mg"},{"bike_id":"4e05ec39-11ab-496a-9c8e-166c483702de","system_id":"levelo_inurba_marseille","lat":43.26211,"lon":5.37436,"is_reserved":false,"is_disabled":false,"rental_uris":{"android":"levelo://app?vid=4e05ec39-11ab-496a-9c8e-166c483702de","ios":"levelo://app?vid=4e05ec39-11ab-496a-9c8e-166c483702de"},"vehicle_type_id":"4","last_reported":1736759460,"current_range_meters":17600,"station_id":"ce4bhgp2rcd13ifvqfc0","pricing_plan_id":"cebpf4jnsgd1na2vs0mg"},