{"last_updated":1770802856,"ttl":60,"version":"2.2","data":{"bikes":[{"bike_id":"02e9af11-2912-44f7-be5c-e2ae093265ba","system_id":"levelo_inurba_marseille","lat":43.26707,"lon":5.3828,"is_reserved":false,"is_disabled":false,"rental_uris":{"android":"levelo://app?vid=02e9af11-2912-44f7-be5c-e2ae093265ba","ios":"levelo://app?vid=02e9af11-2912-44f7-be5c-e2ae093265ba"},"vehicle_type_id":"4","last_reported":1770802857,"current_range_meters":2800,"station_id":"ce4bhg92rcd13ifvqf90","pricing_plan_id":"cebpf4jnsgd1na2vs0mg"},{"bike_id":"05abb5d5-7a0f-4692-a6b6-119f614f1bb6","system_id":"levelo_inurba_marseille","lat":43.270599,"lon":5.382991,"is_reserved":false,"is_disabled":false,"rental_uris":{"android":"levelo://app?vid=05abb5d5-7a0f-4692-a6b6-119f614f1bb6","ios":"levelo://app?vid=05abb5d5-7a0f-4692-a6b6-119f614f1bb6"},"vehicle_type_id":"4","last_reported":1770802857,"current_range_meters":2800,"station_id":"st_d3n2fo6cfp8s73cte1j0","pricing_plan_id":"cebpf4jnsgd1na2vs0mg"},{"bike_id":"690a04a1-182c-4652-992a-2774b1ea7c6b","system_id":"levelo_inurba_marseille","lat":43.22557,"lon":5.41631,"is_reserved":false,"is_disabled":false,"rental_uris":{"android":"levelo://app?vid=690a04a1-182c-4652-992a-2774b1ea7c6b","ios":"levelo://app?vid=690a04a1-182c-4652-992a-2774b1ea7c6b"},"vehicle_type_id":"4","last_reported":1770802857,"current_range_meters":2800,"station_id":"st_d2o4gvlbi1j2169b742g","pricing_plan_id":"cebpf4jnsgd1na2vs0mg"},{"bike_id":"e595673d-d57e-42f1-a690-6f8611af7eff","system_id":"levelo_inurba_marseille","lat":43.31181,"lon":5.38719,"is_reserved":false,"is_disabled":false,"rental_uris":{"android":"levelo://app?vid=e595673d-d57e-42f1-a690-6f8611af7eff","ios":"levelo://app?vid=e595673d-d57e-42f1-a690-6f8611af7eff"},"vehicle_type_id":"4","last_reported":1770802857,"current_range_meters":2800,"station_id":"ce4bgv12rcd13ifvqcp0","pricing_plan_id":"cebpf4jnsgd1na2vs0mg"},{"bike_id":"c419d6ff-2dec-4007-bfa6-b30a8ffe9253","system_id":"levelo_inurba_marseille","lat":43.22949,"lon":5.35402,"is_reserved":false,"is_disabled":false,"rental_uris":{"android":"levelo://app?vid=c419d6ff-2dec-4007-bfa6-b30a8ffe9253","ios":"levelo://app?vid=c419d6ff-2dec-4007-bfa6-b30a8ffe9253"},"vehicle_type_id":"4","last_reported":1770802857,"current_range_meters":2800,"station_id":"cpo3532slgdg3j2ikp40","pricing_plan_id":"cebpf4jnsgd1na2vs0mg"},{"bike_id":"741703ce-0e68-44af-95d9-312affb9f835","system_id":"levelo_inurba_marseille","lat":43.337444,"lon":5.374475,"is_reserved":false,"is_disabled":true,"rental_uris":{"android":"levelo://app?vid=741703ce-0e68-44af-95d9-312affb9f835","ios":"levelo://app?vid=741703ce-0e68-44af-95d9-312affb9f835"},"vehicle_type_id":"4","last_reported":1770802857,"current_range_meters":2800,"station_id":"ce4bhph2rcd13ifvqhdg","pricing_plan_id":"cebpf4jnsgd1na2vs0mg"},{"bike_id":"c84f98ff-c4b0-498e-bd41-7b5647869b42","system_id":"levelo_inurba_marseille","lat":43.233811,"lon":5.412433,"is_reserved":false,"is_disabled":false,"rental_uris":{"android":"levelo://app?vid=c84f98ff-c4b0-498e-bd41-7b5647869b42","ios":"levelo://app?vid=c84f98ff-c4b0-498e-bd41-7b5647869b42"},"vehicle_type_id":"4","last_reported":1770802857,"current_range_meters":2800,"station_id":"","pricing_plan_id":"cebpf4jnsgd1na2vs0mg"},{"bike_id":"8f91f29e-0897-43d8-a3cf-8b8240b92337","system_id":"levelo_inurba_marseille","lat":43.29914,"lon":5.43663,"is_reserved":false,"is_disabled":false,"rental_uris":{"android":"levelo://app?vid=8f91f29e-0897-43d8-a3cf-8b8240b92337","ios":"levelo://app?vid=8f91f29e-0897-43d8-a3cf-8b8240b92337"},"vehicle_type_id":"4","last_reported":1770802857,"current_range_meters":2800,"station_id":"ce4bhpp2rcd13ifvqhfg","pricing_plan_id":"cebpf4jnsgd1na2vs0mg"},{"bike_id":"6a0aefdf-e907-4435-b426-3ce2a0909cd4","system_id":"levelo_inurba_marseille","lat":43.26206,"lon":5.37478,"is_reserved":false,"is_disabled":false,"rental_uris":{"android":"levelo://app?vid=6a0aefdf-e907-4435-b426-3ce2a0909cd4","ios":"levelo://app?vid=6a0aefdf-e907-4435-b426-3ce2a0909cd4"},"vehicle_type_id":"4","last_reported":1770802857,"current_range_meters":2800,"station_id":"ce4bhgp2rcd13ifvqfc0","pricing_plan_id":"cebpf4jnsgd1na2vs0mg"},{"bike_id":"e20506fc-81c8-45aa-af10-6b0aa01b93ce","system_id":"levelo_inurba_marseille","lat":43.27056,"lon":5.38301,"is_reserved":false,"is_disabled":false,"rental_uris":{"android":"levelo://app?vid=e20506fc-81c8-45aa-af10-6b0aa01b93ce","ios":"levelo://app?vid=e20506fc-81c8-45aa-af10-6b0aa01b93ce"},"vehicle_type_id":"4","last_reported":1770802857,"current_range_meters":2800,"station_id":"st_d3n2fo6cfp8s73cte1j0","pricing_plan_id":"cebpf4jnsgd1na2vs0mg"},{"bike_id":"af109b45-02d2-41f8-be4b-42b484fd3394","system_id":"levelo_inurba_marseille","lat":43.29898,"lon":5.43679,"is_reserved":false,"is_disabled":false,"rental_uris":{"android":"levelo://app?vid=af109b45-02d2-41f8-be4b-42b484fd3394","ios":"levelo://app?vid=af109b45-02d2-41f8-be4b-42b484fd3394"},"vehicle_type_id":"4","last_reported":1770802857,"current_range_meters":2800,"station_id":"ce4bhpp2rcd13ifvqhfg","pricing_plan_id":"cebpf4jnsgd1na2vs0mg"},{"bike_id":"fd413ed1-5364-48d8-bf77-2aa280c288f5","system_id":"levelo_inurba_marseille","lat":43.2614,"lon":5.37985,"is_reserved":false,"is_disabled":true,"rental_uris":{"android":"levelo://app?vid=fd413ed1-5364-48d8-bf77-2aa280c288f5","ios":"levelo://app?vid=fd413ed1-5364-48d8-bf77-2aa280c288f5"},"vehicle_type_id":"4","last_reported":1770802857,"current_range_meters":3200,"station_id":"","pricing_plan_id":"cebpf4jnsgd1na2vs0mg"},{"bike_id":"508af785-032d-4df0-b8fe-11d0a1bf5f67","system_id":"levelo_inurba_marseille","lat":43.301166,"lon":5.431121,"is_reserved":false,"is_disabled":false,"rental_uris":{"android":"levelo://app?vid=508af785-032d-4df0-b8fe-11d0a1bf5f67","ios":"levelo://app?vid=508af785-032d-4df0-b8fe-11d0a1bf5f67"},"vehicle_type_id":"4","last_reported":1770802857,"current_range_meters":3200,"station_id":"st_d3js3co5814s73ftftug","pricing_plan_id":"cebpf4jnsgd1na2vs0mg"},{"bike_id":"8ae193d0-6aa6-49c6-83c9-9ea48a09d2ef","system_id":"levelo_inurba_marseille","lat":43.27328,"lon":5.39073,"is_reserved":false,"is_disabled":false,"rental_uris":{"android":"levelo://app?vid=8ae193d0-6aa6-49c6-83c9-9ea48a09d2ef","ios":"levelo://app?vid=8ae193d0-6aa6-49c6-83c9-9ea48a09d2ef"},"vehicle_type_id":"4","last_reported":1770802857,"current_range_meters":3200,"station_id":"ce4bhgp2rcd13ifvqfe0","pricing_plan_id":"cebpf4jnsgd1na2vs0mg"},{"bike_id":"8b4263f7-2795-486a-b290-22850f34f9ba","system_id":"levelo_inurba_marseille","lat":43.25003,"lon":5.38928,"is_reserved":false,"is_disabled":false,"rental_uris":{"android":"levelo://app?vid=8b4263f7-2795-486a-b290-22850f34f9ba","ios":"levelo://app?vid=8b4263f7-2795-486a-b290-22850f34f9ba"},"vehicle_type_id":"4","last_reported":1770802857,"current_range_meters":3200,"station_id":"ce4bhgp2rcd13ifvqfd0","pricing_plan_id":"cebpf4jnsgd1na2vs0mg"},{"bike_id":"bfc07130-be47-4eef-8325-e33d6610d729","system_id":"levelo_inurba_marseille","lat":43.30119,"lon":5.43121,"is_reserved":false,"is_disabled":false,"rental_uris":{"android":"levelo://app?vid=bfc07130-be47-4eef-8325-e33d6610d729","ios":"levelo://app?vid=bfc07130-be47-4eef-8325-e33d6610d729"},"vehicle_type_id":"4","last_reported":1770802857,"current_range_meters":3600,"station_id":"st_d3js3co5814s73ftftug","pricing_plan_id":"cebpf4jnsgd1na2vs0mg"},{"bike_id":"de5717f5-c00b-4f00-9fb2-39815c6186af","system_id":"levelo_inurba_marseille","lat":43.270652,"lon":5.402497,"is_reserved":false,"is_disabled":false,"rental_uris":{"android":"levelo://app?vid=de5717f5-c00b-4f00-9fb2-39815c6186af","ios":"levelo://app?vid=de5717f5-c00b-4f00-9fb2-39815c6186af"},"vehicle_type_id":"4","last_reported":1770802857,"current_range_meters":3600,"station_id":"ce4bhk92rcd13ifvqgc0","pricing_plan_id":"cebpf4jnsgd1na2vs0mg"},{"bike_id":"4109e4ef-141f-48d2-bf8a-09fdeeebff78","system_id":"levelo_inurba_marseille","lat":43.27283,"lon":5.40015,"is_reserved":false,"is_disabled":false,"rental_uris":{"android":"levelo://app?vid=4109e4ef-141f-48d2-bf8a-09fdeeebff78","ios":"levelo://app?vid=4109e4ef-141f-48d2-bf8a-09fdeeebff78"},"vehicle_type_id":"4","last_reported":1770802857,"current_range_meters":3600,"station_id":"","pricing_plan_id":"cebpf4jnsgd1na2vs0mg"},{"bike_id":"a07cd24c-7e73-437e-917a-60bdbc1072fc","system_id":"levelo_inurba_marseille","lat":43.2439,"lon":5.3707,"is_reserved":false,"is_disabled":false,"rental_uris":{"android":"levelo://app?vid=a07cd24c-7e73-437e-917a-60bdbc1072fc","ios":"levelo://app?vid=a07cd24c-7e73-437e-917a-60bdbc1072fc"},"vehicle_type_id":"4","last_reported":1770802857,"current_range_meters":3600,"station_id":"ce4bhhh2rcd13ifvqfk0","pricing_plan_id":"cebpf4jnsgd1na2vs0mg"},{"bike_id":"8a1f19b1-39c0-42f4-b119-90f88b9acab9","system_id":"levelo_inurba_marseille","lat":43.26783,"lon":5.39447,"is_reserved":false,"is_disabled":false,"rental_uris":{"android":"levelo://app?vid=8a1f19b1-39c0-42f4-b119-90f88b9acab9","ios":"levelo://app?vid=8a1f19b1-39c0-42f4-b119-90f88b9acab9"},"vehicle_type_id":"4","last_reported":1770802857,"current_range_meters":3600,"station_id":"ce4bhh12rcd13ifvqfg0","pricing_plan_id":"cebpf4jnsgd1na2vs0mg"},{"bike_id":"975bd0c0-5c30-478f-a1a3-a05ee365190d","system_id":"levelo_inurba_marseille","lat":43.313109,"lon":5.407765,"is_reserved":false,"is_disabled":false,"rental_uris":{"android":"levelo://app?vid=975bd0c0-5c30-478f-a1a3-a05ee365190d","ios":"levelo://app?vid=975bd0c0-5c30-478f-a1a3-a05ee365190d"},"vehicle_type_id":"4","last_reported":1770802857,"current_range_meters":3600,"station_id":"","pricing_plan_id":"cebpf4jnsgd1na2vs0mg"},{"bike_id":"3b5567a6-efa3-498b-ad01-b9c12c6390c4","system_id":"levelo_inurba_marseille","lat":43.317172,"lon":5.423884,"is_reserved":false,"is_disabled":false,"rental_uris":{"android":"levelo://app?vid=3b5567a6-efa3-498b-ad01-b9c12c6390c4","ios":"levelo://app?vid=3b5567a6-efa3-498b-ad01-b9c12c6390c4"},"vehicle_type_id":"4","last_reported":1770802857,"current_range_meters":3600,"station_id":"ce4bhp92rcd13ifvqhbg","pricing_plan_id":"cebpf4jnsgd1na2vs0mg"},{"bike_id":"3350c008-baa2-4e01-8652-9a5b173a785a","system_id":"levelo_inurba_marseille","lat":43.30956,"lon":5.39046,"is_reserved":false,"is_disabled":false,"rental_uris":{"android":"levelo://app?vid=3350c008-baa2-4e01-8652-9a5b173a785a","ios":"levelo://app?vid=3350c008-baa2-4e01-8652-9a5b173a785a"},"vehicle_type_id":"4","last_reported":1770802857,"current_range_meters":3600,"station_id":"ce4bgup2rcd13ifvqco0","pricing_plan_id":"cebpf4jnsgd1na2vs0mg"},{"bike_id":"3e62a0fd-19ac-4f58-93af-6af710db8a94","system_id":"levelo_inurba_marseille","lat":43.22928,"lon":5.35374,"is_reserved":false,"is_disabled":false,"rental_uris":{"android":"levelo://app?vid=3e62a0fd-19ac-4f58-93af-6af710db8a94","ios":"levelo://app?vid=3e62a0fd-19ac-4f58-93af-6af710db8a94"},"vehicle_type_id":"4","last_reported":1770802857,"current_range_meters":3600,"station_id":"cpo3532slgdg3j2ikp40","pricing_plan_id":"cebpf4jnsgd1na2vs0mg"},{"bike_id":"0fdef648-26b8-4d39-8aa7-fae55acf8f34","system_id":"levelo_inurba_marseille","lat":43.260549,"lon":5.394031,"is_reserved":false,"is_disabled":false,"rental_uris":{"android":"levelo://app?vid=0fdef648-26b8-4d39-8aa7-fae55acf8f34","ios":"levelo://app?vid=0fdef648-26b8-4d39-8aa7-fae55acf8f34"},"vehicle_type_id":"4","last_reported":1770802857,"current_range_meters":3600,"station_id":"ce4bhh92rcd13ifvqfj0","pricing_plan_id":"cebpf4jnsgd1na2vs0mg"},{"bike_id":"652029fd-7389-40d5-a0bd-e85f7aa43d7c","system_id":"levelo_inurba_marseille","lat":43.22565,"lon":5.41638,"is_reserved":false,"is_disabled":false,"rental_uris":{"android":"levelo://app?vid=652029fd-7389-40d5-a0bd-e85f7aa43d7c","ios":"levelo://app?vid=652029fd-7389-40d5-a0bd-e85f7aa43d7c"},"vehicle_type_id":"4","last_reported":1770802857,"current_range_meters":4000,"station_id":"st_d2o4gvlbi1j2169b742g","pricing_plan_id":"cebpf4jnsgd1na2vs0mg"},{"bike_id":"cd139a94-86c4-4fc7-955f-ecc7f027a59a","system_id":"levelo_inurba_marseille","lat":43.25001,"lon":5.38946,"is_reserved":false,"is_disabled":false,"rental_uris":{"android":"levelo://app?vid=cd139a94-86c4-4fc7-955f-ecc7f027a59a","ios":"levelo://app?vid=cd139a94-86c4-4fc7-955f-ecc7f027a59a"},"vehicle_type_id":"4","last_reported":1770802857,"current_range_meters":4000,"station_id":"ce4bhgp2rcd13ifvqfd0","pricing_plan_id":"cebpf4jnsgd1na2vs0mg"},{"bike_id":"22d8d839-db4c-4efa-bd5d-d78efaca55ca","system_id":"levelo_inurba_marseille","lat":43.2704,"lon":5.38309,"is_reserved":false,"is_disabled":false,"rental_uris":{"android":"levelo://app?vid=22d8d839-db4c-4efa-bd5d-d78efaca55ca","ios":"levelo://app?vid=22d8d839-db4c-4efa-bd5d-d78efaca55ca"},"vehicle_type_id":"4","last_reported":1770802857,"current_range_meters":4000,"station_id":"st_d3n2fo6cfp8s73cte1j0","pricing_plan_id":"cebpf4jnsgd1na2vs0mg"},{"bike_id":"3538a899-57a3-4efd-9fb7-3a0ba2d09d8a","system_id":"levelo_inurba_marseille","lat":43.33598,"lon":5.41048,"is_reserved":false,"is_disabled":false,"rental_uris":{"android":"levelo://app?vid=3538a899-57a3-4efd-9fb7-3a0ba2d09d8a","ios":"levelo://app?vid=3538a899-57a3-4efd-9fb7-3a0ba2d09d8a"},"vehicle_type_id":"4","last_reported":1770802857,"current_range_meters":4000,"station_id":"ce4bhqh2rcd13ifvqhmg","pricing_plan_id":"cebpf4jnsgd1na2vs0mg"},{"bike_id":"aef51d75-8925-4e9a-b46e-ed13a8fba76f","system_id":"levelo_inurba_marseille","lat":43.25567,"lon":5.38261,"is_reserved":false,"is_disabled":false,"rental_uris":{"android":"levelo://app?vid=aef51d75-8925-4e9a-b46e-ed13a8fba76f","ios":"levelo://app?vid=aef51d75-8925-4e9a-b46e-ed13a8fba76f"},"vehicle_type_id":"4","last_reported":1770802857,"current_range_meters":4000,"station_id":"ce4bhih2rcd13ifvqfs0","pricing_plan_id":"cebpf4jnsgd1na2vs0mg"},{"bike_id":"a5ef3890-8302-4c8a-bac6-540bffa0497d","system_id":"levelo_inurba_marseille","lat":43.229262,"lon":5.353837,"is_reserved":false,"is_disabled":false,"rental_uris":{"android":"levelo://app?vid=a5ef3890-8302-4c8a-bac6-540bffa0497d","ios":"levelo://app?vid=a5ef3890-8302-4c8a-bac6-540bffa0497d"},"vehicle_type_id":"4","last_reported":1770802857,"current_range_meters":4400,"station_id":"cpo3532slgdg3j2ikp40","pricing_plan_id":"cebpf4jnsgd1na2vs0mg"},{"bike_id":"dc2c2695-d679-48fe-9bfd-9d367c9fa897","system_id":"levelo_inurba_marseille","lat":43.305518,"lon":5.365435,"is_reserved":false,"is_disabled":false,"rental_uris":{"android":"levelo://app?vid=dc2c2695-d679-48fe-9bfd-9d367c9fa897","ios":"levelo://app?vid=dc2c2695-d679-48fe-9bfd-9d367c9fa897"},"vehicle_type_id":"4","last_reported":1770802857,"current_range_meters":4400,"station_id":"ce4bgs12rcd13ifvqcag","pricing_plan_id":"cebpf4jnsgd1na2vs0mg"},{"bike_id":"e0450db0-c8b3-4403-bc43-ed5a007877b8","system_id":"levelo_inurba_marseille","lat":43.24625,"lon":5.43154,"is_reserved":false,"is_disabled":false,"rental_uris":{"android":"levelo://app?vid=e0450db0-c8b3-4403-bc43-ed5a007877b8","ios":"levelo://app?vid=e0450db0-c8b3-4403-bc43-ed5a007877b8"},"vehicle_type_id":"4","last_reported":1770802857,"current_range_meters":4400,"station_id":"st_d2m6c4gdas8pm72e190g","pricing_plan_id":"cebpf4jnsgd1na2vs0mg"},{"bike_id":"ee213b40-802c-442b-9390-5e22834db5df","system_id":"levelo_inurba_marseille","lat":43.24169,"lon":5.36401,"is_reserved":false,"is_disabled":false,"rental_uris":{"android":"levelo://app?vid=ee213b40-802c-442b-9390-5e22834db5df","ios":"levelo://app?vid=ee213b40-802c-442b-9390-5e22834db5df"},"vehicle_type_id":"4","last_reported":1770802857,"current_range_meters":4400,"station_id":"cpo36qri1sfpv3e86is0","pricing_plan_id":"cebpf4jnsgd1na2vs0mg"},{"bike_id":"77d01ae0-caa8-4229-b1d9-66eebccb18ba","system_id":"levelo_inurba_marseille","lat":43.30311,"lon":5.368989,"is_reserved":false,"is_disabled":false,"rental_uris":{"android":"levelo://app?vid=77d01ae0-caa8-4229-b1d9-66eebccb18ba","ios":"levelo://app?vid=77d01ae0-caa8-4229-b1d9-66eebccb18ba"},"vehicle_type_id":"4","last_reported":1770802857,"current_range_meters":4400,"station_id":"","pricing_plan_id":"cebpf4jnsgd1na2vs0mg"},{"bike_id":"475fae78-75f9-4675-8012-304224f10313","system_id":"levelo_inurba_marseille","lat":43.33555,"lon":5.37467,"is_reserved":false,"is_disabled":false,"rental_uris":{"android":"levelo://app?vid=475fae78-75f9-4675-8012-304224f10313","ios":"levelo://app?vid=475fae78-75f9-4675-8012-304224f10313"},"vehicle_type_id":"4","last_reported":1770802857,"current_range_meters":4400,"station_id":"st_d46tts09ee8s73dlu43g","pricing_plan_id":"cebpf4jnsgd1na2vs0mg"},{"bike_id":"46b69bcd-f35a-433e-b9f1-16ab03d0ac0e","system_id":"levelo_inurba_marseille","lat":43.25885,"lon":5.3991,"is_reserved":false,"is_disabled":false,"rental_uris":{"android":"levelo://app?vid=46b69bcd-f35a-433e-b9f1-16ab03d0ac0e","ios":"levelo://app?vid=46b69bcd-f35a-433e-b9f1-16ab03d0ac0e"},"vehicle_type_id":"4","last_reported":1770802857,"current_range_meters":4400,"station_id":"ce4bhl92rcd13ifvqghg","pricing_plan_id":"cebpf4jnsgd1na2vs0mg"},{"bike_id":"87056c0a-278d-470f-af70-99a4eb084f35","system_id":"levelo_inurba_marseille","lat":43.24651,"lon":5.43164,"is_reserved":false,"is_disabled":false,"rental_uris":{"android":"levelo://app?vid=87056c0a-278d-470f-af70-99a4eb084f35","ios":"levelo://app?vid=87056c0a-278d-470f-af70-99a4eb084f35"},"vehicle_type_id":"4","last_reported":1770802857,"current_range_meters":4400,"station_id":"st_d2m6c4gdas8pm72e190g","pricing_plan_id":"cebpf4jnsgd1na2vs0mg"},{"bike_id":"b1429378-b93e-4184-b373-85f0415c9919","system_id":"levelo_inurba_marseille","lat":43.24625,"lon":5.43154,"is_reserved":false,"is_disabled":false,"rental_uris":{"android":"levelo://app?vid=b1429378-b93e-4184-b373-85f0415c9919","ios":"levelo://app?vid=b1429378-b93e-4184-b373-85f0415c9919"},"vehicle_type_id":"4","last_reported":1770802857,"current_range_meters":4400,"station_id":"st_d2m6c4gdas8pm72e190g","pricing_plan_id":"cebpf4jnsgd1na2vs0mg"},{"bike_id":"fbc4de62-94f4-4367-a701-e35b525371c3","system_id":"levelo_inurba_marseille","lat":43.2952,"lon":5.39043,"is_reserved":false,"is_disabled":false,"rental_uris":{"android":"levelo://app?vid=fbc4de62-94f4-4367-a701-e35b525371c3","ios":"levelo://app?vid=fbc4de62-94f4-4367-a701-e35b525371c3"},"vehicle_type_id":"4","last_reported":1770802857,"current_range_meters":4400,"station_id":"ce4bh3p2rcd13ifvqdp0","pricing_plan_id":"cebpf4jnsgd1na2vs0mg"},{"bike_id":"44d17b9a-a696-4502-89c1-4d2b9276205f","system_id":"levelo_inurba_marseille","lat":43.25,"lon":5.38906,"is_reserved":false,"is_disabled":false,"rental_uris":{"android":"levelo://app?vid=44d17b9a-a696-4502-89c1-4d2b9276205f","ios":"levelo://app?vid=44d17b9a-a696-4502-89c1-4d2b9276205f"},"vehicle_type_id":"4","last_reported":1770802857,"current_range_meters":4400,"station_id":"ce4bhgp2rcd13ifvqfd0","pricing_plan_id":"cebpf4jnsgd1na2vs0mg"},{"bike_id":"646f5941-3890-4fc3-99bc-835d21b81b79","system_id":"levelo_inurba_marseille","lat":43.2926,"lon":5.40908,"is_reserved":false,"is_disabled":false,"rental_uris":{"android":"levelo://app?vid=646f5941-3890-4fc3-99bc-835d21b81b79","ios":"levelo://app?vid=646f5941-3890-4fc3-99bc-835d21b81b79"},"vehicle_type_id":"4","last_reported":1770802857,"current_range_meters":4400,"station_id":"ce4bh192rcd13ifvqdc0","pricing_plan_id":"cebpf4jnsgd1na2vs0mg"},{"bike_id":"14bec802-d051-447b-b6fc-298c0960dd45","system_id":"levelo_inurba_marseille","lat":43.279373,"lon":5.410653,"is_reserved":false,"is_disabled":false,"rental_uris":{"android":"levelo://app?vid=14bec802-d051-447b-b6fc-298c0960dd45","ios":"levelo://app?vid=14bec802-d051-447b-b6fc-298c0960dd45"},"vehicle_type_id":"4","last_reported":1770802857,"current_range_meters":4800,"station_id":"ce4bhnp2rcd13ifvqh0g","pricing_plan_id":"cebpf4jnsgd1na2vs0mg"},{"bike_id":"5f7df976-2770-4b0d-bd16-1a5d3e4bd86a","system_id":"levelo_inurba_marseille","lat":43.26027,"lon":5.37557,"is_reserved":false,"is_disabled":false,"rental_uris":{"android":"levelo://app?vid=5f7df976-2770-4b0d-bd16-1a5d3e4bd86a","ios":"levelo://app?vid=5f7df976-2770-4b0d-bd16-1a5d3e4bd86a"},"vehicle_type_id":"4","last_reported":1770802857,"current_range_meters":4800,"station_id":"ce4bhgh2rcd13ifvqfa0","pricing_plan_id":"cebpf4jnsgd1na2vs0mg"},{"bike_id":"df33b6c2-4d7d-4d51-98fe-f6e773c9f42e","system_id":"levelo_inurba_marseille","lat":43.23169,"lon":5.43714,"is_reserved":false,"is_disabled":false,"rental_uris":{"android":"levelo://app?vid=df33b6c2-4d7d-4d51-98fe-f6e773c9f42e","ios":"levelo://app?vid=df33b6c2-4d7d-4d51-98fe-f6e773c9f42e"},"vehicle_type_id":"4","last_reported":1770802857,"current_range_meters":5600,"station_id":"ce4bhmp2rcd13ifvqgog","pricing_plan_id":"cebpf4jnsgd1na2vs0mg"},{"bike_id":"8b2aaaeb-0426-4fc1-b242-78738c042247","system_id":"levelo_inurba_marseille","lat":43.26749,"lon":5.3945,"is_reserved":false,"is_disabled":false,"rental_uris":{"android":"levelo://app?vid=8b2aaaeb-0426-4fc1-b242-78738c042247","ios":"levelo://app?vid=8b2aaaeb-0426-4fc1-b242-78738c042247"},"vehicle_type_id":"4","last_reported":1770802857,"current_range_meters":5600,"station_id":"","pricing_plan_id":"cebpf4jnsgd1na2vs0mg"},{"bike_id":"61e7a56e-a3a9-4b6a-8720-cb799648adf1","system_id":"levelo_inurba_marseille","lat":43.30326,"lon":5.3691,"is_reserved":false,"is_disabled":false,"rental_uris":{"android":"levelo://app?vid=61e7a56e-a3a9-4b6a-8720-cb799648adf1","ios":"levelo://app?vid=61e7a56e-a3a9-4b6a-8720-cb799648adf1"},"vehicle_type_id":"4","last_reported":1770802857,"current_range_meters":5600,"station_id":"ce4bgqh2rcd13ifvqc5g","pricing_plan_id":"cebpf4jnsgd1na2vs0mg"},{"bike_id":"b0577ca1-afa8-48fa-be5c-f4673c1a2294","system_id":"levelo_inurba_marseille","lat":43.28007,"lon":5.41294,"is_reserved":false,"is_disabled":false,"rental_uris":{"android":"levelo://app?vid=b0577ca1-afa8-48fa-be5c-f4673c1a2294","ios":"levelo://app?vid=b0577ca1-afa8-48fa-be5c-f4673c1a2294"},"vehicle_type_id":"4","last_reported":1770802857,"current_range_meters":5600,"station_id":"","pricing_plan_id":"cebpf4jnsgd1na2vs0mg"},{"bike_id":"f3631fda-c0c0-441a-a203-114b757c2c60","system_id":"levelo_inurba_marseille","lat":43.2745,"lon":5.39396,"is_reserved":false,"is_disabled":false,"rental_uris":{"android":"levelo://app?vid=f3631fda-c0c0-441a-a203-114b757c2c60","ios":"levelo://app?vid=f3631fda-c0c0-441a-a203-114b757c2c60"},"vehicle_type_id":"4","last_reported":1770802857,"current_range_meters":5600,"station_id":"ce4bhdp2rcd13ifvqf20","pricing_plan_id":"cebpf4jnsgd1na2vs0mg"},{"bike_id":"32b27b47-6c8b-49c6-8b48-fbeace627871","system_id":"levelo_inurba_marseille","lat":43.312087,"lon":5.368704,"is_reserved":false,"is_disabled":false,"rental_uris":{"android":"levelo://app?vid=32b27b47-6c8b-49c6-8b48-fbeace627871","ios":"levelo://app?vid=32b27b47-6c8b-49c6-8b48-fbeace627871"},"vehicle_type_id":"4","last_reported":1770802857,"current_range_meters":6000,"station_id":"ce4bgl92rcd13ifvqbq0","pricing_plan_id":"cebpf4jnsgd1na2vs0mg"},{"bike_id":"100a2a73-4d9e-44eb-a7e3-94a5fa7d2701","system_id":"levelo_inurba_marseille","lat":43.23181,"lon":5.35554,"is_reserved":false,"is_disabled":false,"rental_uris":{"android":"levelo://app?vid=100a2a73-4d9e-44eb-a7e3-94a5fa7d2701","ios":"levelo://app?vid=100a2a73-4d9e-44eb-a7e3-94a5fa7d2701"},"vehicle_type_id":"4","last_reported":1770802857,"current_range_meters":6000,"station_id":"ce4bhu92rcd13ifvqi70","pricing_plan_id":"cebpf4jnsgd1na2vs0mg"},{"bike_id":"f2a82978-5f27-4a8d-8456-8eb4101715a1","system_id":"levelo_inurba_marseille","lat":43.2906,"lon":5.39973,"is_reserved":false,"is_disabled":false,"rental_uris":{"android":"levelo://app?vid=f2a82978-5f27-4a8d-8456-8eb4101715a1","ios":"levelo://app?vid=f2a82978-5f27-4a8d-8456-8eb4101715a1"},"vehicle_type_id":"4","last_reported":1770802857,"current_range_meters":6000,"station_id":"ce4bh392rcd13ifvqdm0","pricing_plan_id":"cebpf4jnsgd1na2vs0mg"},{"bike_id":"50385780-f452-48d8-95ca-5f108ae8ca85","system_id":"levelo_inurba_marseille","lat":43.28139,"lon":5.42633,"is_reserved":false,"is_disabled":false,"rental_uris":{"android":"levelo://app?vid=50385780-f452-48d8-95ca-5f108ae8ca85","ios":"levelo://app?vid=50385780-f452-48d8-95ca-5f108ae8ca85"},"vehicle_type_id":"4","last_reported":1770802857,"current_range_meters":6000,"station_id":"ce4bhnh2rcd13ifvqgug","pricing_plan_id":"cebpf4jnsgd1na2vs0mg"},{"bike_id":"eb54f403-f5f5-4152-9cd4-d31f05df5ad8","system_id":"levelo_inurba_marseille","lat":43.26209,"lon":5.40488,"is_reserved":false,"is_disabled":false,"rental_uris":{"android":"levelo://app?vid=eb54f403-f5f5-4152-9cd4-d31f05df5ad8","ios":"levelo://app?vid=eb54f403-f5f5-4152-9cd4-d31f05df5ad8"},"vehicle_type_id":"4","last_reported":1770802857,"current_range_meters":6000,"station_id":"ce4bhmh2rcd13ifvqgmg","pricing_plan_id":"cebpf4jnsgd1na2vs0mg"},{"bike_id":"843e3a8e-ab15-48c9-ba83-40934e1da198","system_id":"levelo_inurba_marseille","lat":43.239648,"lon":5.366319,"is_reserved":false,"is_disabled":false,"rental_uris":{"android":"levelo://app?vid=843e3a8e-ab15-48c9-ba83-40934e1da198","ios":"levelo://app?vid=843e3a8e-ab15-48c9-ba83-40934e1da198"},"vehicle_type_id":"4","last_reported":1770802857,"current_range_meters":6000,"station_id":"ce4bhi12rcd13ifvqfp0","pricing_plan_id":"cebpf4jnsgd1na2vs0mg"},{"bike_id":"5728ce6e-4cf0-40f5-8f4f-271829136d45","system_id":"levelo_inurba_marseille","lat":43.29561,"lon":5.39977,"is_reserved":false,"is_disabled":false,"rental_uris":{"android":"levelo://app?vid=5728ce6e-4cf0-40f5-8f4f-271829136d45","ios":"levelo://app?vid=5728ce6e-4cf0-40f5-8f4f-271829136d45"},"vehicle_type_id":"4","last_reported":1770802857,"current_range_meters":6000,"station_id":"ce4bh312rcd13ifvqdj0","pricing_plan_id":"cebpf4jnsgd1na2vs0mg"},{"bike_id":"1204f32f-48a7-4bb4-b62a-774e14312070","system_id":"levelo_inurba_marseille","lat":43.24175,"lon":5.36418,"is_reserved":false,"is_disabled":false,"rental_uris":{"android":"levelo://app?vid=1204f32f-48a7-4bb4-b62a-774e14312070","ios":"levelo://app?vid=1204f32f-48a7-4bb4-b62a-774e14312070"},"vehicle_type_id":"4","last_reported":1770802857,"current_range_meters":6000,"station_id":"cpo36qri1sfpv3e86is0","pricing_plan_id":"cebpf4jnsgd1na2vs0mg"},{"bike_id":"6f6a04ad-dd00-4f4a-bdfd-a835cfa0cc11","system_id":"levelo_inurba_marseille","lat":43.27071,"lon":5.38292,"is_reserved":false,"is_disabled":false,"rental_uris":{"android":"levelo://app?vid=6f6a04ad-dd00-4f4a-bdfd-a835cfa0cc11","ios":"levelo://app?vid=6f6a04ad-dd00-4f4a-bdfd-a835cfa0cc11"},"vehicle_type_id":"4","last_reported":1770802857,"current_range_meters":6400,"station_id":"st_d3n2fo6cfp8s73cte1j0","pricing_plan_id":"cebpf4jnsgd1na2vs0mg"},{"bike_id":"131a45ec-0ade-479c-aab9-8ca5cd2c4eaf","system_id":"levelo_inurba_marseille","lat":43.29734,"lon":5.37693,"is_reserved":false,"is_disabled":true,"rental_uris":{"android":"levelo://app?vid=131a45ec-0ade-479c-aab9-8ca5cd2c4eaf","ios":"levelo://app?vid=131a45ec-0ade-479c-aab9-8ca5cd2c4eaf"},"vehicle_type_id":"4","last_reported":1770802857,"current_range_meters":6400,"station_id":"ce4bgkh2rcd13ifvqbl0","pricing_plan_id":"cebpf4jnsgd1na2vs0mg"},{"bike_id":"3cf4412f-4eab-4fb4-bd6a-b9dfe83e38cc","system_id":"levelo_inurba_marseille","lat":43.24176,"lon":5.39741,"is_reserved":false,"is_disabled":false,"rental_uris":{"android":"levelo://app?vid=3cf4412f-4eab-4fb4-bd6a-b9dfe83e38cc","ios":"levelo://app?vid=3cf4412f-4eab-4fb4-bd6a-b9dfe83e38cc"},"vehicle_type_id":"4","last_reported":1770802857,"current_range_meters":6400,"station_id":"ce4bhn12rcd13ifvqgpg","pricing_plan_id":"cebpf4jnsgd1na2vs0mg"},{"bike_id":"f566875e-5642-41c3-af4a-390fbf63f0fb","system_id":"levelo_inurba_marseille","lat":43.28332,"lon":5.38105,"is_reserved":false,"is_disabled":false,"rental_uris":{"android":"levelo://app?vid=f566875e-5642-41c3-af4a-390fbf63f0fb","ios":"levelo://app?vid=f566875e-5642-41c3-af4a-390fbf63f0fb"},"vehicle_type_id":"4","last_reported":1770802857,"current_range_meters":6400,"station_id":"ce4bh412rcd13ifvqdr0","pricing_plan_id":"cebpf4jnsgd1na2vs0mg"},{"bike_id":"d05c6341-3d97-4e14-b4df-ea14d40bb1eb","system_id":"levelo_inurba_marseille","lat":43.30504,"lon":5.36548,"is_reserved":false,"is_disabled":false,"rental_uris":{"android":"levelo://app?vid=d05c6341-3d97-4e14-b4df-ea14d40bb1eb","ios":"levelo://app?vid=d05c6341-3d97-4e14-b4df-ea14d40bb1eb"},"vehicle_type_id":"4","last_reported":1770802857,"current_range_meters":6400,"station_id":"ce4bgs12rcd13ifvqcag","pricing_plan_id":"cebpf4jnsgd1na2vs0mg"},{"bike_id":"5ed0f3ca-c4eb-409c-9eb1-a3eed1b5d0e0","system_id":"levelo_inurba_marseille","lat":43.30392,"lon":5.42487,"is_reserved":false,"is_disabled":false,"rental_uris":{"android":"levelo://app?vid=5ed0f3ca-c4eb-409c-9eb1-a3eed1b5d0e0","ios":"levelo://app?vid=5ed0f3ca-c4eb-409c-9eb1-a3eed1b5d0e0"},"vehicle_type_id":"4","last_reported":1770802857,"current_range_meters":6400,"station_id":"ce4bhoh2rcd13ifvqh6g","pricing_plan_id":"cebpf4jnsgd1na2vs0mg"},{"bike_id":"e532d849-9da4-492c-974e-21e564fe6f6a","system_id":"levelo_inurba_marseille","lat":43.31114,"lon":5.37196,"is_reserved":false,"is_disabled":false,"rental_uris":{"android":"levelo://app?vid=e532d849-9da4-492c-974e-21e564fe6f6a","ios":"levelo://app?vid=e532d849-9da4-492c-974e-21e564fe6f6a"},"vehicle_type_id":"4","last_reported":1770802857,"current_range_meters":6800,"station_id":"st_d4kl2rp97mjs73e7tdfg","pricing_plan_id":"cebpf4jnsgd1na2vs0mg"},{"bike_id":"195129a7-492c-4a00-92c9-6590be19f8d4","system_id":"levelo_inurba_marseille","lat":43.29458,"lon":5.4332,"is_reserved":false,"is_disabled":false,"rental_uris":{"android":"levelo://app?vid=195129a7-492c-4a00-92c9-6590be19f8d4","ios":"levelo://app?vid=195129a7-492c-4a00-92c9-6590be19f8d4"},"vehicle_type_id":"4","last_reported":1770802857,"current_range_meters":6800,"station_id":"st_d3j5ugp08ojc73fj9d10","pricing_plan_id":"cebpf4jnsgd1na2vs0mg"},{"bike_id":"60c2c944-fc00-4d7a-8415-4900c96e89f7","system_id":"levelo_inurba_marseille","lat":43.3047,"lon":5.37902,"is_reserved":false,"is_disabled":false,"rental_uris":{"android":"levelo://app?vid=60c2c944-fc00-4d7a-8415-4900c96e89f7","ios":"levelo://app?vid=60c2c944-fc00-4d7a-8415-4900c96e89f7"},"vehicle_type_id":"4","last_reported":1770802857,"current_range_meters":6800,"station_id":"ce4bgup2rcd13ifvqcn0","pricing_plan_id":"cebpf4jnsgd1na2vs0mg"},{"bike_id":"4659f5f2-43a6-4213-b84f-184d5dec64b3","system_id":"levelo_inurba_marseille","lat":43.33544,"lon":5.37469,"is_reserved":false,"is_disabled":false,"rental_uris":{"android":"levelo://app?vid=4659f5f2-43a6-4213-b84f-184d5dec64b3","ios":"levelo://app?vid=4659f5f2-43a6-4213-b84f-184d5dec64b3"},"vehicle_type_id":"4","last_reported":1770802857,"current_range_meters":6800,"station_id":"st_d46tts09ee8s73dlu43g","pricing_plan_id":"cebpf4jnsgd1na2vs0mg"},{"bike_id":"0309368b-c45a-400f-b598-331f15a882de","system_id":"levelo_inurba_marseille","lat":43.337444,"lon":5.374475,"is_reserved":false,"is_disabled":false,"rental_uris":{"android":"levelo://app?vid=0309368b-c45a-400f-b598-331f15a882de","ios":"levelo://app?vid=0309368b-c45a-400f-b598-331f15a882de"},"vehicle_type_id":"4","last_reported":1770802857,"current_range_meters":6800,"station_id":"","pricing_plan_id":"cebpf4jnsgd1na2vs0mg"},{"bike_id":"0415f26c-4d21-4b4e-aeeb-299f12b793c1","system_id":"levelo_inurba_marseille","lat":43.25489,"lon":5.376531,"is_reserved":false,"is_disabled":false,"rental_uris":{"android":"levelo://app?vid=0415f26c-4d21-4b4e-aeeb-299f12b793c1","ios":"levelo://app?vid=0415f26c-4d21-4b4e-aeeb-299f12b793c1"},"vehicle_type_id":"4","last_reported":1770802857,"current_range_meters":6800,"station_id":"ce4bhh12rcd13ifvqff0","pricing_plan_id":"cebpf4jnsgd1na2vs0mg"},{"bike_id":"774647ab-afd2-472c-b3ee-3701d6387862","system_id":"levelo_inurba_marseille","lat":43.305373,"lon":5.367163,"is_reserved":false,"is_disabled":false,"rental_uris":{"android":"levelo://app?vid=774647ab-afd2-472c-b3ee-3701d6387862","ios":"levelo://app?vid=774647ab-afd2-472c-b3ee-3701d6387862"},"vehicle_type_id":"4","last_reported":1770802857,"current_range_meters":6800,"station_id":"ce4bgrp2rcd13ifvqc9g","pricing_plan_id":"cebpf4jnsgd1na2vs0mg"},{"bike_id":"017f8692-3989-411e-9ac2-575c25580113","system_id":"levelo_inurba_marseille","lat":43.24084,"lon":5.37745,"is_reserved":false,"is_disabled":false,"rental_uris":{"android":"levelo://app?vid=017f8692-3989-411e-9ac2-575c25580113","ios":"levelo://app?vid=017f8692-3989-411e-9ac2-575c25580113"},"vehicle_type_id":"4","last_reported":1770802857,"current_range_meters":6800,"station_id":"ce4bhnp2rcd13ifvqgvg","pricing_plan_id":"cebpf4jnsgd1na2vs0mg"},{"bike_id":"a595811d-e4a2-4edd-bc38-2905c562c34e","system_id":"levelo_inurba_marseille","lat":43.33544,"lon":5.37483,"is_reserved":false,"is_disabled":false,"rental_uris":{"android":"levelo://app?vid=a595811d-e4a2-4edd-bc38-2905c562c34e","ios":"levelo://app?vid=a595811d-e4a2-4edd-bc38-2905c562c34e"},"vehicle_type_id":"4","last_reported":1770802857,"current_range_meters":6800,"station_id":"st_d46tts09ee8s73dlu43g","pricing_plan_id":"cebpf4jnsgd1na2vs0mg"},{"bike_id":"1448c9ce-d568-4f77-9f2b-dca45ac4e256","system_id":"levelo_inurba_marseille","lat":43.27367,"lon":5.36256,"is_reserved":false,"is_disabled":false,"rental_uris":{"android":"levelo://app?vid=1448c9ce-d568-4f77-9f2b-dca45ac4e256","ios":"levelo://app?vid=1448c9ce-d568-4f77-9f2b-dca45ac4e256"},"vehicle_type_id":"4","last_reported":1770802857,"current_range_meters":7200,"station_id":"ce4bhbh2rcd13ifvqeo0","pricing_plan_id":"cebpf4jnsgd1na2vs0mg"},{"bike_id":"4d0b64bf-c386-4c9b-9832-54dd45c3a787","system_id":"levelo_inurba_marseille","lat":43.313634,"lon":5.384912,"is_reserved":false,"is_disabled":false,"rental_uris":{"android":"levelo://app?vid=4d0b64bf-c386-4c9b-9832-54dd45c3a787","ios":"levelo://app?vid=4d0b64bf-c386-4c9b-9832-54dd45c3a787"},"vehicle_type_id":"4","last_reported":1770802857,"current_range_meters":7200,"station_id":"ce4bgt92rcd13ifvqcf0","pricing_plan_id":"cebpf4jnsgd1na2vs0mg"},{"bike_id":"1c120683-67bc-428a-aa0f-bec572dfb863","system_id":"levelo_inurba_marseille","lat":43.25576,"lon":5.38245,"is_reserved":false,"is_disabled":false,"rental_uris":{"android":"levelo://app?vid=1c120683-67bc-428a-aa0f-bec572dfb863","ios":"levelo://app?vid=1c120683-67bc-428a-aa0f-bec572dfb863"},"vehicle_type_id":"4","last_reported":1770802857,"current_range_meters":7200,"station_id":"ce4bhih2rcd13ifvqfs0","pricing_plan_id":"cebpf4jnsgd1na2vs0mg"},{"bike_id":"d3ff72dc-5551-4917-81f1-dd8f1a42992a","system_id":"levelo_inurba_marseille","lat":43.313606,"lon":5.367381,"is_reserved":false,"is_disabled":false,"rental_uris":{"android":"levelo://app?vid=d3ff72dc-5551-4917-81f1-dd8f1a42992a","ios":"levelo://app?vid=d3ff72dc-5551-4917-81f1-dd8f1a42992a"},"vehicle_type_id":"4","last_reported":1770802857,"current_range_meters":7200,"station_id":"ce4bgr92rcd13ifvqc6g","pricing_plan_id":"cebpf4jnsgd1na2vs0mg"},{"bike_id":"1c5cf88e-bae0-4a7f-af92-27de33575267","system_id":"levelo_inurba_marseille","lat":43.25873,"lon":5.39901,"is_reserved":false,"is_disabled":false,"rental_uris":{"android":"levelo://app?vid=1c5cf88e-bae0-4a7f-af92-27de33575267","ios":"levelo://app?vid=1c5cf88e-bae0-4a7f-af92-27de33575267"},"vehicle_type_id":"4","last_reported":1770802857,"current_range_meters":7200,"station_id":"ce4bhl92rcd13ifvqghg","pricing_plan_id":"cebpf4jnsgd1na2vs0mg"},{"bike_id":"78bdbec6-3ec1-4b90-8a6c-8222c94ec8b4","system_id":"levelo_inurba_marseille","lat":43.31088,"lon":5.37164,"is_reserved":false,"is_disabled":false,"rental_uris":{"android":"levelo://app?vid=78bdbec6-3ec1-4b90-8a6c-8222c94ec8b4","ios":"levelo://app?vid=78bdbec6-3ec1-4b90-8a6c-8222c94ec8b4"},"vehicle_type_id":"4","last_reported":1770802857,"current_range_meters":7200,"station_id":"st_d4kl2rp97mjs73e7tdfg","pricing_plan_id":"cebpf4jnsgd1na2vs0mg"},{"bike_id":"bdde70ef-70ce-4d41-a03b-1cac73853d63","system_id":"levelo_inurba_marseille","lat":43.24148,"lon":5.36404,"is_reserved":false,"is_disabled":false,"rental_uris":{"android":"levelo://app?vid=bdde70ef-70ce-4d41-a03b-1cac73853d63","ios":"levelo://app?vid=bdde70ef-70ce-4d41-a03b-1cac73853d63"},"vehicle_type_id":"4","last_reported":1770802857,"current_range_meters":7200,"station_id":"cpo36qri1sfpv3e86is0","pricing_plan_id":"cebpf4jnsgd1na2vs0mg"},{"bike_id":"a5010b75-bad6-4bce-8a51-56434f308c1d","system_id":"levelo_inurba_marseille","lat":43.2958,"lon":5.36738,"is_reserved":false,"is_disabled":false,"rental_uris":{"android":"levelo://app?vid=a5010b75-bad6-4bce-8a51-56434f308c1d","ios":"levelo://app?vid=a5010b75-bad6-4bce-8a51-56434f308c1d"},"vehicle_type_id":"4","last_reported":1770802857,"current_range_meters":7200,"station_id":"ce4bgph2rcd13ifvqc2g","pricing_plan_id":"cebpf4jnsgd1na2vs0mg"},{"bike_id":"4e0aba45-053b-4f81-bcb4-d59a40096fe2","system_id":"levelo_inurba_marseille","lat":43.25111,"lon":5.40321,"is_reserved":false,"is_disabled":false,"rental_uris":{"android":"levelo://app?vid=4e0aba45-053b-4f81-bcb4-d59a40096fe2","ios":"levelo://app?vid=4e0aba45-053b-4f81-bcb4-d59a40096fe2"},"vehicle_type_id":"4","last_reported":1770802857,"current_range_meters":7200,"station_id":"ce4bhlh2rcd13ifvqgig","pricing_plan_id":"cebpf4jnsgd1na2vs0mg"},{"bike_id":"69cb53c0-4939-4da6-a53e-35e4cb2de7f7","system_id":"levelo_inurba_marseille","lat":43.22554,"lon":5.41625,"is_reserved":false,"is_disabled":false,"rental_uris":{"android":"levelo://app?vid=69cb53c0-4939-4da6-a53e-35e4cb2de7f7","ios":"levelo://app?vid=69cb53c0-4939-4da6-a53e-35e4cb2de7f7"},"vehicle_type_id":"4","last_reported":1770802857,"current_range_meters":7200,"station_id":"st_d2o4gvlbi1j2169b742g","pricing_plan_id":"cebpf4jnsgd1na2vs0mg"},{"bike_id":"82c051d1-822f-4de0-8095-c2773742c990","system_id":"levelo_inurba_marseille","lat":43.26674,"lon":5.38273,"is_reserved":false,"is_disabled":false,"rental_uris":{"android":"levelo://app?vid=82c051d1-822f-4de0-8095-c2773742c990","ios":"levelo://app?vid=82c051d1-822f-4de0-8095-c2773742c990"},"vehicle_type_id":"4","last_reported":1770802857,"current_range_meters":8000,"station_id":"","pricing_plan_id":"cebpf4jnsgd1na2vs0mg"},{"bike_id":"a8033c18-bf59-458a-9eb0-147256918905","system_id":"levelo_inurba_marseille","lat":43.310475,"lon":5.37175,"is_reserved":false,"is_disabled":false,"rental_uris":{"android":"levelo://app?vid=a8033c18-bf59-458a-9eb0-147256918905","ios":"levelo://app?vid=a8033c18-bf59-458a-9eb0-147256918905"},"vehicle_type_id":"4","last_reported":1770802857,"current_range_meters":8000,"station_id":"st_d4kl2rp97mjs73e7tdfg","pricing_plan_id":"cebpf4jnsgd1na2vs0mg"},{"bike_id":"d6b9d7ff-4ec2-4ca9-ba28-5a5dad54cfd3","system_id":"levelo_inurba_marseille","lat":43.28467,"lon":5.48392,"is_reserved":false,"is_disabled":false,"rental_uris":{"android":"levelo://app?vid=d6b9d7ff-4ec2-4ca9-ba28-5a5dad54cfd3","ios":"levelo://app?vid=d6b9d7ff-4ec2-4ca9-ba28-5a5dad54cfd3"},"vehicle_type_id":"4","last_reported":1770802857,"current_range_meters":8000,"station_id":"","pricing_plan_id":"cebpf4jnsgd1na2vs0mg"},{"bike_id":"2e9bbe5f-b4bf-4094-a888-b57f728bafdd","system_id":"levelo_inurba_marseille","lat":43.25728,"lon":5.4112,"is_reserved":false,"is_disabled":false,"rental_uris":{"android":"levelo://app?vid=2e9bbe5f-b4bf-4094-a888-b57f728bafdd","ios":"levelo://app?vid=2e9bbe5f-b4bf-4094-a888-b57f728bafdd"},"vehicle_type_id":"4","last_reported":1770802857,"current_range_meters":8000,"station_id":"ce4bhkp2rcd13ifvqgd0","pricing_plan_id":"cebpf4jnsgd1na2vs0mg"},{"bike_id":"28da66f8-2004-4492-b048-093018453bae","system_id":"levelo_inurba_marseille","lat":43.29609,"lon":5.37727,"is_reserved":false,"is_disabled":false,"rental_uris":{"android":"levelo://app?vid=28da66f8-2004-4492-b048-093018453bae","ios":"levelo://app?vid=28da66f8-2004-4492-b048-093018453bae"},"vehicle_type_id":"4","last_reported":1770802857,"current_range_meters":8000,"station_id":"ce4bgi92rcd13ifvqb90","pricing_plan_id":"cebpf4jnsgd1na2vs0mg"},{"bike_id":"9d5f26c4-e1f9-423a-837f-a33fbe90388b","system_id":"levelo_inurba_marseille","lat":43.317293,"lon":5.423936,"is_reserved":false,"is_disabled":false,"rental_uris":{"android":"levelo://app?vid=9d5f26c4-e1f9-423a-837f-a33fbe90388b","ios":"levelo://app?vid=9d5f26c4-e1f9-423a-837f-a33fbe90388b"},"vehicle_type_id":"4","last_reported":1770802857,"current_range_meters":8000,"station_id":"ce4bhp92rcd13ifvqhbg","pricing_plan_id":"cebpf4jnsgd1na2vs0mg"},{"bike_id":"6efe5f0a-6c4f-403e-907f-5428484845d2","system_id":"levelo_inurba_marseille","lat":43.3169,"lon":5.40388,"is_reserved":false,"is_disabled":false,"rental_uris":{"android":"levelo://app?vid=6efe5f0a-6c4f-403e-907f-5428484845d2","ios":"levelo://app?vid=6efe5f0a-6c4f-403e-907f-5428484845d2"},"vehicle_type_id":"4","last_reported":1770802857,"current_range_meters":8000,"station_id":"","pricing_plan_id":"cebpf4jnsgd1na2vs0mg"},{"bike_id":"33352d89-c7bd-4d2f-8796-2f3b2fb0783e","system_id":"levelo_inurba_marseille","lat":43.28164,"lon":5.42734,"is_reserved":false,"is_disabled":false,"rental_uris":{"android":"levelo://app?vid=33352d89-c7bd-4d2f-8796-2f3b2fb0783e","ios":"levelo://app?vid=33352d89-c7bd-4d2f-8796-2f3b2fb0783e"},"vehicle_type_id":"4","last_reported":1770802857,"current_range_meters":8000,"station_id":"","pricing_plan_id":"cebpf4jnsgd1na2vs0mg"},{"bike_id":"ecad8e39-3994-426f-a203-097683c275bd","system_id":"levelo_inurba_marseille","lat":43.32546,"lon":5.41468,"is_reserved":false,"is_disabled":false,"rental_uris":{"android":"levelo://app?vid=ecad8e39-3994-426f-a203-097683c275bd","ios":"levelo://app?vid=ecad8e39-3994-426f-a203-097683c275bd"},"vehicle_type_id":"4","last_reported":1770802857,"current_range_meters":8000,"station_id":"ce4bhq12rcd13ifvqhhg","pricing_plan_id":"cebpf4jnsgd1na2vs0mg"},{"bike_id":"0db530a1-9821-453a-878e-fb6063868eb6","system_id":"levelo_inurba_marseille","lat":43.22945,"lon":5.35378,"is_reserved":false,"is_disabled":false,"rental_uris":{"android":"levelo://app?vid=0db530a1-9821-453a-878e-fb6063868eb6","ios":"levelo://app?vid=0db530a1-9821-453a-878e-fb6063868eb6"},"vehicle_type_id":"4","last_reported":1770802857,"current_range_meters":8000,"station_id":"cpo3532slgdg3j2ikp40","pricing_plan_id":"cebpf4jnsgd1na2vs0mg"},{"bike_id":"7f5b654c-dac3-4c18-8894-462ab4606c83","system_id":"levelo_inurba_marseille","lat":43.28613,"lon":5.35105,"is_reserved":false,"is_disabled":false,"rental_uris":{"android":"levelo://app?vid=7f5b654c-dac3-4c18-8894-462ab4606c83","ios":"levelo://app?vid=7f5b654c-dac3-4c18-8894-462ab4606c83"},"vehicle_type_id":"4","last_reported":1770802857,"current_range_meters":8000,"station_id":"ce4bhch2rcd13ifvqeug","pricing_plan_id":"cebpf4jnsgd1na2vs0mg"},{"bike_id":"6c044db0-13a6-4a35-a75a-95964ae608b7","system_id":"levelo_inurba_marseille","lat":43.30467,"lon":5.37916,"is_reserved":false,"is_disabled":false,"rental_uris":{"android":"levelo://app?vid=6c044db0-13a6-4a35-a75a-95964ae608b7","ios":"levelo://app?vid=6c044db0-13a6-4a35-a75a-95964ae608b7"},"vehicle_type_id":"4","last_reported":1770802857,"current_range_meters":8000,"station_id":"ce4bgup2rcd13ifvqcn0","pricing_plan_id":"cebpf4jnsgd1na2vs0mg"},{"bike_id":"c177022f-aaf6-4300-a13b-640a1821171a","system_id":"levelo_inurba_marseille","lat":43.29811,"lon":5.44062,"is_reserved":false,"is_disabled":false,"rental_uris":{"android":"levelo://app?vid=c177022f-aaf6-4300-a13b-640a1821171a","ios":"levelo://app?vid=c177022f-aaf6-4300-a13b-640a1821171a"},"vehicle_type_id":"4","last_reported":1770802857,"current_range_meters":8000,"station_id":"st_d3jp68qikq2c7381ktn0","pricing_plan_id":"cebpf4jnsgd1na2vs0mg"},{"bike_id":"d01b6834-66f5-48ae-92a1-6b2fa16228ad","system_id":"levelo_inurba_marseille","lat":43.26555,"lon":5.37316,"is_reserved":false,"is_disabled":false,"rental_uris":{"android":"levelo://app?vid=d01b6834-66f5-48ae-92a1-6b2fa16228ad","ios":"levelo://app?vid=d01b6834-66f5-48ae-92a1-6b2fa16228ad"},"vehicle_type_id":"4","last_reported":1770802857,"current_range_meters":8400,"station_id":"ce4bhg12rcd13ifvqf70","pricing_plan_id":"cebpf4jnsgd1na2vs0mg"},{"bike_id":"d9aca075-3211-4034-9f31-81b3da70f0f8","system_id":"levelo_inurba_marseille","lat":43.25001,"lon":5.38928,"is_reserved":false,"is_disabled":false,"rental_uris":{"android":"levelo://app?vid=d9aca075-3211-4034-9f31-81b3da70f0f8","ios":"levelo://app?vid=d9aca075-3211-4034-9f31-81b3da70f0f8"},"vehicle_type_id":"4","last_reported":1770802857,"current_range_meters":8400,"station_id":"ce4bhgp2rcd13ifvqfd0","pricing_plan_id":"cebpf4jnsgd1na2vs0mg"},{"bike_id":"fe86c9ba-789d-48cb-b139-57215407552e","system_id":"levelo_inurba_marseille","lat":43.337583,"lon":5.374426,"is_reserved":false,"is_disabled":false,"rental_uris":{"android":"levelo://app?vid=fe86c9ba-789d-48cb-b139-57215407552e","ios":"levelo://app?vid=fe86c9ba-789d-48cb-b139-57215407552e"},"vehicle_type_id":"4","last_reported":1770802857,"current_range_meters":8400,"station_id":"","pricing_plan_id":"cebpf4jnsgd1na2vs0mg"},{"bike_id":"9c4fa197-e784-47a1-9a3e-1e64aa186f14","system_id":"levelo_inurba_marseille","lat":43.25934,"lon":5.40904,"is_reserved":false,"is_disabled":false,"rental_uris":{"android":"levelo://app?vid=9c4fa197-e784-47a1-9a3e-1e64aa186f14","ios":"levelo://app?vid=9c4fa197-e784-47a1-9a3e-1e64aa186f14"},"vehicle_type_id":"4","last_reported":1770802857,"current_range_meters":8400,"station_id":"ce4bhm92rcd13ifvqglg","pricing_plan_id":"cebpf4jnsgd1na2vs0mg"},{"bike_id":"76680012-2921-41ca-8274-612a3b615344","system_id":"levelo_inurba_marseille","lat":43.2895,"lon":5.3964,"is_reserved":false,"is_disabled":false,"rental_uris":{"android":"levelo://app?vid=76680012-2921-41ca-8274-612a3b615344","ios":"levelo://app?vid=76680012-2921-41ca-8274-612a3b615344"},"vehicle_type_id":"4","last_reported":1770802857,"current_range_meters":8400,"station_id":"ce4bh3h2rcd13ifvqdn0","pricing_plan_id":"cebpf4jnsgd1na2vs0mg"},{"bike_id":"7a0ccbb8-777a-4ea2-a2f2-a73a5000e9f5","system_id":"levelo_inurba_marseille","lat":43.29042,"lon":5.39981,"is_reserved":false,"is_disabled":false,"rental_uris":{"android":"levelo://app?vid=7a0ccbb8-777a-4ea2-a2f2-a73a5000e9f5","ios":"levelo://app?vid=7a0ccbb8-777a-4ea2-a2f2-a73a5000e9f5"},"vehicle_type_id":"4","last_reported":1770802857,"current_range_meters":8400,"station_id":"ce4bh392rcd13ifvqdm0","pricing_plan_id":"cebpf4jnsgd1na2vs0mg"},{"bike_id":"2b14cda8-f3bd-489e-b3e7-87e7ea87fd93","system_id":"levelo_inurba_marseille","lat":43.301261,"lon":5.374298,"is_reserved":false,"is_disabled":false,"rental_uris":{"android":"levelo://app?vid=2b14cda8-f3bd-489e-b3e7-87e7ea87fd93","ios":"levelo://app?vid=2b14cda8-f3bd-489e-b3e7-87e7ea87fd93"},"vehicle_type_id":"4","last_reported":1770802857,"current_range_meters":8400,"station_id":"ce4bgs92rcd13ifvqcc0","pricing_plan_id":"cebpf4jnsgd1na2vs0mg"},{"bike_id":"8ff4a9fa-0d2e-4f7f-8193-e7a8dba5ca9a","system_id":"levelo_inurba_marseille","lat":43.25851,"lon":5.39909,"is_reserved":false,"is_disabled":false,"rental_uris":{"android":"levelo://app?vid=8ff4a9fa-0d2e-4f7f-8193-e7a8dba5ca9a","ios":"levelo://app?vid=8ff4a9fa-0d2e-4f7f-8193-e7a8dba5ca9a"},"vehicle_type_id":"4","last_reported":1770802857,"current_range_meters":8400,"station_id":"ce4bhl92rcd13ifvqghg","pricing_plan_id":"cebpf4jnsgd1na2vs0mg"},{"bike_id":"ae861497-9a22-4231-afa9-8238d5c5713c","system_id":"levelo_inurba_marseille","lat":43.24157,"lon":5.36404,"is_reserved":false,"is_disabled":false,"rental_uris":{"android":"levelo://app?vid=ae861497-9a22-4231-afa9-8238d5c5713c","ios":"levelo://app?vid=ae861497-9a22-4231-afa9-8238d5c5713c"},"vehicle_type_id":"4","last_reported":1770802857,"current_range_meters":8400,"station_id":"cpo36qri1sfpv3e86is0","pricing_plan_id":"cebpf4jnsgd1na2vs0mg"},{"bike_id":"c03efe8f-a6d4-4c3c-8f22-c59a0d8db780","system_id":"levelo_inurba_marseille","lat":43.29326,"lon":5.37194,"is_reserved":false,"is_disabled":false,"rental_uris":{"android":"levelo://app?vid=c03efe8f-a6d4-4c3c-8f22-c59a0d8db780","ios":"levelo://app?vid=c03efe8f-a6d4-4c3c-8f22-c59a0d8db780"},"vehicle_type_id":"4","last_reported":1770802857,"current_range_meters":8400,"station_id":"ce4bgh92rcd13ifvqb40","pricing_plan_id":"cebpf4jnsgd1na2vs0mg"},{"bike_id":"d373c67d-1dce-4200-b1fc-e555d3a72522","system_id":"levelo_inurba_marseille","lat":43.30156,"lon":5.37405,"is_reserved":false,"is_disabled":false,"rental_uris":{"android":"levelo://app?vid=d373c67d-1dce-4200-b1fc-e555d3a72522","ios":"levelo://app?vid=d373c67d-1dce-4200-b1fc-e555d3a72522"},"vehicle_type_id":"4","last_reported":1770802857,"current_range_meters":8400,"station_id":"ce4bgs92rcd13ifvqcc0","pricing_plan_id":"cebpf4jnsgd1na2vs0mg"},{"bike_id":"5fda65b6-7f98-4bf6-b2de-a2c95ed917cc","system_id":"levelo_inurba_marseille","lat":43.2547,"lon":5.38445,"is_reserved":false,"is_disabled":false,"rental_uris":{"android":"levelo://app?vid=5fda65b6-7f98-4bf6-b2de-a2c95ed917cc","ios":"levelo://app?vid=5fda65b6-7f98-4bf6-b2de-a2c95ed917cc"},"vehicle_type_id":"4","last_reported":1770802857,"current_range_meters":8400,"station_id":"","pricing_plan_id":"cebpf4jnsgd1na2vs0mg"},{"bike_id":"e525bce6-6ff2-4d77-9b57-482987c889d9","system_id":"levelo_inurba_marseille","lat":43.3087,"lon":5.37173,"is_reserved":false,"is_disabled":false,"rental_uris":{"android":"levelo://app?vid=e525bce6-6ff2-4d77-9b57-482987c889d9","ios":"levelo://app?vid=e525bce6-6ff2-4d77-9b57-482987c889d9"},"vehicle_type_id":"4","last_reported":1770802857,"current_range_meters":8400,"station_id":"ce4bguh2rcd13ifvqckg","pricing_plan_id":"cebpf4jnsgd1na2vs0mg"},{"bike_id":"f7972c7b-c622-4b11-832b-f1152837edba","system_id":"levelo_inurba_marseille","lat":43.27561,"lon":5.3842,"is_reserved":false,"is_disabled":false,"rental_uris":{"android":"levelo://app?vid=f7972c7b-c622-4b11-832b-f1152837edba","ios":"levelo://app?vid=f7972c7b-c622-4b11-832b-f1152837edba"},"vehicle_type_id":"4","last_reported":1770802857,"current_range_meters":8400,"station_id":"ce4bhh92rcd13ifvqfi0","pricing_plan_id":"cebpf4jnsgd1na2vs0mg"},{"bike_id":"cc43a2a6-4df1-46ee-89a5-e5908a5338ed","system_id":"levelo_inurba_marseille","lat":43.28481,"lon":5.48396,"is_reserved":false,"is_disabled":false,"rental_uris":{"android":"levelo://app?vid=cc43a2a6-4df1-46ee-89a5-e5908a5338ed","ios":"levelo://app?vid=cc43a2a6-4df1-46ee-89a5-e5908a5338ed"},"vehicle_type_id":"4","last_reported":1770802857,"current_range_meters":8400,"station_id":"st_d3svhcjqgbts73a3dn0g","pricing_plan_id":"cebpf4jnsgd1na2vs0mg"},{"bike_id":"7f92d6d1-5ea0-47c6-a843-bcba70613193","system_id":"levelo_inurba_marseille","lat":43.2407,"lon":5.37777,"is_reserved":false,"is_disabled":false,"rental_uris":{"android":"levelo://app?vid=7f92d6d1-5ea0-47c6-a843-bcba70613193","ios":"levelo://app?vid=7f92d6d1-5ea0-47c6-a843-bcba70613193"},"vehicle_type_id":"4","last_reported":1770802857,"current_range_meters":8800,"station_id":"ce4bhnp2rcd13ifvqgvg","pricing_plan_id":"cebpf4jnsgd1na2vs0mg"},{"bike_id":"91e14193-ec23-43c7-b089-41b3b3307db5","system_id":"levelo_inurba_marseille","lat":43.28614,"lon":5.35102,"is_reserved":false,"is_disabled":false,"rental_uris":{"android":"levelo://app?vid=91e14193-ec23-43c7-b089-41b3b3307db5","ios":"levelo://app?vid=91e14193-ec23-43c7-b089-41b3b3307db5"},"vehicle_type_id":"4","last_reported":1770802857,"current_range_meters":8800,"station_id":"ce4bhch2rcd13ifvqeug","pricing_plan_id":"cebpf4jnsgd1na2vs0mg"},{"bike_id":"455adaeb-f562-46cf-8a05-08612f7a4c81","system_id":"levelo_inurba_marseille","lat":43.24963,"lon":5.40536,"is_reserved":false,"is_disabled":false,"rental_uris":{"android":"levelo://app?vid=455adaeb-f562-46cf-8a05-08612f7a4c81","ios":"levelo://app?vid=455adaeb-f562-46cf-8a05-08612f7a4c81"},"vehicle_type_id":"4","last_reported":1770802857,"current_range_meters":8800,"station_id":"st_d2ngiaodas8pm72gd1h0","pricing_plan_id":"cebpf4jnsgd1na2vs0mg"},{"bike_id":"a8a0eddf-6391-4b41-b31f-ecaaeea61e5a","system_id":"levelo_inurba_marseille","lat":43.29081,"lon":5.38141,"is_reserved":false,"is_disabled":false,"rental_uris":{"android":"levelo://app?vid=a8a0eddf-6391-4b41-b31f-ecaaeea61e5a","ios":"levelo://app?vid=a8a0eddf-6391-4b41-b31f-ecaaeea61e5a"},"vehicle_type_id":"4","last_reported":1770802857,"current_range_meters":8800,"station_id":"ce4bh512rcd13ifvqe2g","pricing_plan_id":"cebpf4jnsgd1na2vs0mg"},{"bike_id":"a703c0ea-1426-4f13-9cf0-905a5a282131","system_id":"levelo_inurba_marseille","lat":43.28658,"lon":5.36363,"is_reserved":false,"is_disabled":false,"rental_uris":{"android":"levelo://app?vid=a703c0ea-1426-4f13-9cf0-905a5a282131","ios":"levelo://app?vid=a703c0ea-1426-4f13-9cf0-905a5a282131"},"vehicle_type_id":"4","last_reported":1770802857,"current_range_meters":8800,"station_id":"ce4bhah2rcd13ifvqej0","pricing_plan_id":"cebpf4jnsgd1na2vs0mg"},{"bike_id":"d997c6b7-acb1-4efa-ae35-2d8c161e2e69","system_id":"levelo_inurba_marseille","lat":43.231891,"lon":5.355555,"is_reserved":false,"is_disabled":false,"rental_uris":{"android":"levelo://app?vid=d997c6b7-acb1-4efa-ae35-2d8c161e2e69","ios":"levelo://app?vid=d997c6b7-acb1-4efa-ae35-2d8c161e2e69"},"vehicle_type_id":"4","last_reported":1770802857,"current_range_meters":8800,"station_id":"ce4bhu92rcd13ifvqi70","pricing_plan_id":"cebpf4jnsgd1na2vs0mg"},{"bike_id":"75bd2625-b24f-4a4a-9a13-4e76e7f64e90","system_id":"levelo_inurba_marseille","lat":43.25953,"lon":5.40888,"is_reserved":false,"is_disabled":false,"rental_uris":{"android":"levelo://app?vid=75bd2625-b24f-4a4a-9a13-4e76e7f64e90","ios":"levelo://app?vid=75bd2625-b24f-4a4a-9a13-4e76e7f64e90"},"vehicle_type_id":"4","last_reported":1770802857,"current_range_meters":8800,"station_id":"ce4bhm92rcd13ifvqglg","pricing_plan_id":"cebpf4jnsgd1na2vs0mg"},{"bike_id":"ac9a885a-fe7d-4871-905c-95e91acf3aa8","system_id":"levelo_inurba_marseille","lat":43.22565,"lon":5.41631,"is_reserved":false,"is_disabled":false,"rental_uris":{"android":"levelo://app?vid=ac9a885a-fe7d-4871-905c-95e91acf3aa8","ios":"levelo://app?vid=ac9a885a-fe7d-4871-905c-95e91acf3aa8"},"vehicle_type_id":"4","last_reported":1770802857,"current_range_meters":8800,"station_id":"st_d2o4gvlbi1j2169b742g","pricing_plan_id":"cebpf4jnsgd1na2vs0mg"},{"bike_id":"db81e0c2-e944-4492-99d3-35591aec8a1a","system_id":"levelo_inurba_marseille","lat":43.25856,"lon":5.39899,"is_reserved":false,"is_disabled":false,"rental_uris":{"android":"levelo://app?vid=db81e0c2-e944-4492-99d3-35591aec8a1a","ios":"levelo://app?vid=db81e0c2-e944-4492-99d3-35591aec8a1a"},"vehicle_type_id":"4","last_reported":1770802857,"current_range_meters":8800,"station_id":"ce4bhl92rcd13ifvqghg","pricing_plan_id":"cebpf4jnsgd1na2vs0mg"},{"bike_id":"39fb8e69-2b6b-438f-8552-9a0b81d00df8","system_id":"levelo_inurba_marseille","lat":43.299,"lon":5.43661,"is_reserved":false,"is_disabled":false,"rental_uris":{"android":"levelo://app?vid=39fb8e69-2b6b-438f-8552-9a0b81d00df8","ios":"levelo://app?vid=39fb8e69-2b6b-438f-8552-9a0b81d00df8"},"vehicle_type_id":"4","last_reported":1770802857,"current_range_meters":8800,"station_id":"ce4bhpp2rcd13ifvqhfg","pricing_plan_id":"cebpf4jnsgd1na2vs0mg"},{"bike_id":"01b7a0c2-ed16-407b-98a5-f5888996bd6e","system_id":"levelo_inurba_marseille","lat":43.3249,"lon":5.3657,"is_reserved":false,"is_disabled":false,"rental_uris":{"android":"levelo://app?vid=01b7a0c2-ed16-407b-98a5-f5888996bd6e","ios":"levelo://app?vid=01b7a0c2-ed16-407b-98a5-f5888996bd6e"},"vehicle_type_id":"4","last_reported":1770802857,"current_range_meters":8800,"station_id":"ce4bhs12rcd13ifvqhvg","pricing_plan_id":"cebpf4jnsgd1na2vs0mg"},{"bike_id":"63fd3efd-e361-4290-9f11-702b4cadcbbd","system_id":"levelo_inurba_marseille","lat":43.29725,"lon":5.37695,"is_reserved":false,"is_disabled":false,"rental_uris":{"android":"levelo://app?vid=63fd3efd-e361-4290-9f11-702b4cadcbbd","ios":"levelo://app?vid=63fd3efd-e361-4290-9f11-702b4cadcbbd"},"vehicle_type_id":"4","last_reported":1770802857,"current_range_meters":8800,"station_id":"ce4bgkh2rcd13ifvqbl0","pricing_plan_id":"cebpf4jnsgd1na2vs0mg"},{"bike_id":"63fe22b6-516b-4bbd-9ec7-27510829b8dc","system_id":"levelo_inurba_marseille","lat":43.30967,"lon":5.39058,"is_reserved":false,"is_disabled":false,"rental_uris":{"android":"levelo://app?vid=63fe22b6-516b-4bbd-9ec7-27510829b8dc","ios":"levelo://app?vid=63fe22b6-516b-4bbd-9ec7-27510829b8dc"},"vehicle_type_id":"4","last_reported":1770802857,"current_range_meters":8800,"station_id":"ce4bgup2rcd13ifvqco0","pricing_plan_id":"cebpf4jnsgd1na2vs0mg"},{"bike_id":"babdcd4a-655b-4e95-88f5-77a8529739da","system_id":"levelo_inurba_marseille","lat":43.22569,"lon":5.41636,"is_reserved":false,"is_disabled":false,"rental_uris":{"android":"levelo://app?vid=babdcd4a-655b-4e95-88f5-77a8529739da","ios":"levelo://app?vid=babdcd4a-655b-4e95-88f5-77a8529739da"},"vehicle_type_id":"4","last_reported":1770802857,"current_range_meters":8800,"station_id":"st_d2o4gvlbi1j2169b742g","pricing_plan_id":"cebpf4jnsgd1na2vs0mg"},{"bike_id":"befb2afa-282d-4ede-8c3b-f01cd0660840","system_id":"levelo_inurba_marseille","lat":43.305676,"lon":5.365387,"is_reserved":false,"is_disabled":false,"rental_uris":{"android":"levelo://app?vid=befb2afa-282d-4ede-8c3b-f01cd0660840","ios":"levelo://app?vid=befb2afa-282d-4ede-8c3b-f01cd0660840"},"vehicle_type_id":"4","last_reported":1770802857,"current_range_meters":8800,"station_id":"ce4bgs12rcd13ifvqcag","pricing_plan_id":"cebpf4jnsgd1na2vs0mg"},{"bike_id":"bca520ac-7e6b-4132-bbcc-e56181c5620d","system_id":"levelo_inurba_marseille","lat":43.28859,"lon":5.42518,"is_reserved":false,"is_disabled":false,"rental_uris":{"android":"levelo://app?vid=bca520ac-7e6b-4132-bbcc-e56181c5620d","ios":"levelo://app?vid=bca520ac-7e6b-4132-bbcc-e56181c5620d"},"vehicle_type_id":"4","last_reported":1770802857,"current_range_meters":8800,"station_id":"st_d3b462108ojc7389ooeg","pricing_plan_id":"cebpf4jnsgd1na2vs0mg"},{"bike_id":"bfbb4392-91b5-475a-8d52-4ff0b2fea2c9","system_id":"levelo_inurba_marseille","lat":43.30587,"lon":5.38515,"is_reserved":false,"is_disabled":false,"rental_uris":{"android":"levelo://app?vid=bfbb4392-91b5-475a-8d52-4ff0b2fea2c9","ios":"levelo://app?vid=bfbb4392-91b5-475a-8d52-4ff0b2fea2c9"},"vehicle_type_id":"4","last_reported":1770802857,"current_range_meters":9200,"station_id":"","pricing_plan_id":"cebpf4jnsgd1na2vs0mg"},{"bike_id":"0cad91d7-1079-467e-882f-8f8ec527c2c5","system_id":"levelo_inurba_marseille","lat":43.23179,"lon":5.39996,"is_reserved":false,"is_disabled":false,"rental_uris":{"android":"levelo://app?vid=0cad91d7-1079-467e-882f-8f8ec527c2c5","ios":"levelo://app?vid=0cad91d7-1079-467e-882f-8f8ec527c2c5"},"vehicle_type_id":"4","last_reported":1770802857,"current_range_meters":9200,"station_id":"ce4bhn12rcd13ifvqgqg","pricing_plan_id":"cebpf4jnsgd1na2vs0mg"},{"bike_id":"c680f057-94b1-4131-b58a-f556b9d16d49","system_id":"levelo_inurba_marseille","lat":43.26939,"lon":5.38912,"is_reserved":false,"is_disabled":false,"rental_uris":{"android":"levelo://app?vid=c680f057-94b1-4131-b58a-f556b9d16d49","ios":"levelo://app?vid=c680f057-94b1-4131-b58a-f556b9d16d49"},"vehicle_type_id":"4","last_reported":1770802857,"current_range_meters":9200,"station_id":"ce4bhhh2rcd13ifvqfl0","pricing_plan_id":"cebpf4jnsgd1na2vs0mg"},{"bike_id":"e44df137-3a9f-4865-a2d3-769a6f5bfc14","system_id":"levelo_inurba_marseille","lat":43.3086,"lon":5.368,"is_reserved":false,"is_disabled":false,"rental_uris":{"android":"levelo://app?vid=e44df137-3a9f-4865-a2d3-769a6f5bfc14","ios":"levelo://app?vid=e44df137-3a9f-4865-a2d3-769a6f5bfc14"},"vehicle_type_id":"4","last_reported":1770802857,"current_range_meters":9200,"station_id":"","pricing_plan_id":"cebpf4jnsgd1na2vs0mg"},{"bike_id":"4878db2c-1746-4e84-a2dc-9ef31135b542","system_id":"levelo_inurba_marseille","lat":43.25864,"lon":5.39905,"is_reserved":false,"is_disabled":false,"rental_uris":{"android":"levelo://app?vid=4878db2c-1746-4e84-a2dc-9ef31135b542","ios":"levelo://app?vid=4878db2c-1746-4e84-a2dc-9ef31135b542"},"vehicle_type_id":"4","last_reported":1770802857,"current_range_meters":9200,"station_id":"ce4bhl92rcd13ifvqghg","pricing_plan_id":"cebpf4jnsgd1na2vs0mg"},{"bike_id":"1e4a7842-cd51-4881-b298-8b4cc321effe","system_id":"levelo_inurba_marseille","lat":43.24391,"lon":5.37067,"is_reserved":false,"is_disabled":false,"rental_uris":{"android":"levelo://app?vid=1e4a7842-cd51-4881-b298-8b4cc321effe","ios":"levelo://app?vid=1e4a7842-cd51-4881-b298-8b4cc321effe"},"vehicle_type_id":"4","last_reported":1770802857,"current_range_meters":9200,"station_id":"ce4bhhh2rcd13ifvqfk0","pricing_plan_id":"cebpf4jnsgd1na2vs0mg"},{"bike_id":"5972af9e-c5c9-4893-9801-36cc4f8969be","system_id":"levelo_inurba_marseille","lat":43.26713,"lon":5.38229,"is_reserved":false,"is_disabled":false,"rental_uris":{"android":"levelo://app?vid=5972af9e-c5c9-4893-9801-36cc4f8969be","ios":"levelo://app?vid=5972af9e-c5c9-4893-9801-36cc4f8969be"},"vehicle_type_id":"4","last_reported":1770802857,"current_range_meters":9200,"station_id":"ce4bhg92rcd13ifvqf90","pricing_plan_id":"cebpf4jnsgd1na2vs0mg"},{"bike_id":"958cdd10-7f91-4b57-9cdf-6afd19ea8451","system_id":"levelo_inurba_marseille","lat":43.28053,"lon":5.4273,"is_reserved":false,"is_disabled":false,"rental_uris":{"android":"levelo://app?vid=958cdd10-7f91-4b57-9cdf-6afd19ea8451","ios":"levelo://app?vid=958cdd10-7f91-4b57-9cdf-6afd19ea8451"},"vehicle_type_id":"4","last_reported":1770802857,"current_range_meters":9600,"station_id":"ce4bhnh2rcd13ifvqgug","pricing_plan_id":"cebpf4jnsgd1na2vs0mg"},{"bike_id":"5611e9db-46f1-411c-9cc4-47d063a5db1f","system_id":"levelo_inurba_marseille","lat":43.30526,"lon":5.36714,"is_reserved":false,"is_disabled":false,"rental_uris":{"android":"levelo://app?vid=5611e9db-46f1-411c-9cc4-47d063a5db1f","ios":"levelo://app?vid=5611e9db-46f1-411c-9cc4-47d063a5db1f"},"vehicle_type_id":"4","last_reported":1770802857,"current_range_meters":9600,"station_id":"ce4bgrp2rcd13ifvqc9g","pricing_plan_id":"cebpf4jnsgd1na2vs0mg"},{"bike_id":"31f5fdf8-95e5-415a-9ae6-bc4d614035bc","system_id":"levelo_inurba_marseille","lat":43.29096,"lon":5.38152,"is_reserved":false,"is_disabled":false,"rental_uris":{"android":"levelo://app?vid=31f5fdf8-95e5-415a-9ae6-bc4d614035bc","ios":"levelo://app?vid=31f5fdf8-95e5-415a-9ae6-bc4d614035bc"},"vehicle_type_id":"4","last_reported":1770802857,"current_range_meters":9600,"station_id":"ce4bh512rcd13ifvqe2g","pricing_plan_id":"cebpf4jnsgd1na2vs0mg"},{"bike_id":"9ec97639-55fe-47ab-8f8e-83edcad2032a","system_id":"levelo_inurba_marseille","lat":43.24668,"lon":5.38177,"is_reserved":false,"is_disabled":false,"rental_uris":{"android":"levelo://app?vid=9ec97639-55fe-47ab-8f8e-83edcad2032a","ios":"levelo://app?vid=9ec97639-55fe-47ab-8f8e-83edcad2032a"},"vehicle_type_id":"4","last_reported":1770802857,"current_range_meters":9600,"station_id":"ce4bhih2rcd13ifvqfr0","pricing_plan_id":"cebpf4jnsgd1na2vs0mg"},{"bike_id":"1023d56f-c10a-4922-833e-fec8966cd769","system_id":"levelo_inurba_marseille","lat":43.295169,"lon":5.390391,"is_reserved":false,"is_disabled":false,"rental_uris":{"android":"levelo://app?vid=1023d56f-c10a-4922-833e-fec8966cd769","ios":"levelo://app?vid=1023d56f-c10a-4922-833e-fec8966cd769"},"vehicle_type_id":"4","last_reported":1770802857,"current_range_meters":9600,"station_id":"ce4bh3p2rcd13ifvqdp0","pricing_plan_id":"cebpf4jnsgd1na2vs0mg"},{"bike_id":"55645d2c-fdd2-4fb8-ba5c-33a389bd0683","system_id":"levelo_inurba_marseille","lat":43.28538,"lon":5.441,"is_reserved":false,"is_disabled":false,"rental_uris":{"android":"levelo://app?vid=55645d2c-fdd2-4fb8-ba5c-33a389bd0683","ios":"levelo://app?vid=55645d2c-fdd2-4fb8-ba5c-33a389bd0683"},"vehicle_type_id":"4","last_reported":1770802857,"current_range_meters":9600,"station_id":"","pricing_plan_id":"cebpf4jnsgd1na2vs0mg"},{"bike_id":"406b8143-680c-411e-8da6-8818c609b259","system_id":"levelo_inurba_marseille","lat":43.229244,"lon":5.353763,"is_reserved":false,"is_disabled":false,"rental_uris":{"android":"levelo://app?vid=406b8143-680c-411e-8da6-8818c609b259","ios":"levelo://app?vid=406b8143-680c-411e-8da6-8818c609b259"},"vehicle_type_id":"4","last_reported":1770802857,"current_range_meters":9600,"station_id":"cpo3532slgdg3j2ikp40","pricing_plan_id":"cebpf4jnsgd1na2vs0mg"},{"bike_id":"4128404a-6f46-416c-9354-3df98c5c64de","system_id":"levelo_inurba_marseille","lat":43.27193,"lon":5.3917,"is_reserved":false,"is_disabled":false,"rental_uris":{"android":"levelo://app?vid=4128404a-6f46-416c-9354-3df98c5c64de","ios":"levelo://app?vid=4128404a-6f46-416c-9354-3df98c5c64de"},"vehicle_type_id":"4","last_reported":1770802857,"current_range_meters":9600,"station_id":"ce4bhhp2rcd13ifvqfm0","pricing_plan_id":"cebpf4jnsgd1na2vs0mg"},{"bike_id":"e6bf8930-6feb-4353-8ae5-7f62f7a22dd2","system_id":"levelo_inurba_marseille","lat":43.28522,"lon":5.44138,"is_reserved":false,"is_disabled":false,"rental_uris":{"android":"levelo://app?vid=e6bf8930-6feb-4353-8ae5-7f62f7a22dd2","ios":"levelo://app?vid=e6bf8930-6feb-4353-8ae5-7f62f7a22dd2"},"vehicle_type_id":"4","last_reported":1770802857,"current_range_meters":9600,"station_id":"","pricing_plan_id":"cebpf4jnsgd1na2vs0mg"},{"bike_id":"159f95b8-d74f-4ef4-8c95-0687f51342d5","system_id":"levelo_inurba_marseille","lat":43.24053,"lon":5.37757,"is_reserved":false,"is_disabled":true,"rental_uris":{"android":"levelo://app?vid=159f95b8-d74f-4ef4-8c95-0687f51342d5","ios":"levelo://app?vid=159f95b8-d74f-4ef4-8c95-0687f51342d5"},"vehicle_type_id":"4","last_reported":1770802857,"current_range_meters":9600,"station_id":"ce4bhnp2rcd13ifvqgvg","pricing_plan_id":"cebpf4jnsgd1na2vs0mg"},{"bike_id":"b366b67a-dfde-45d9-a396-78bf3be20bbe","system_id":"levelo_inurba_marseille","lat":43.29518,"lon":5.39039,"is_reserved":false,"is_disabled":false,"rental_uris":{"android":"levelo://app?vid=b366b67a-dfde-45d9-a396-78bf3be20bbe","ios":"levelo://app?vid=b366b67a-dfde-45d9-a396-78bf3be20bbe"},"vehicle_type_id":"4","last_reported":1770802857,"current_range_meters":9600,"station_id":"ce4bh3p2rcd13ifvqdp0","pricing_plan_id":"cebpf4jnsgd1na2vs0mg"},{"bike_id":"9b586055-3525-4e43-ae53-8d6c2fff45ed","system_id":"levelo_inurba_marseille","lat":43.241635,"lon":5.364095,"is_reserved":false,"is_disabled":false,"rental_uris":{"android":"levelo://app?vid=9b586055-3525-4e43-ae53-8d6c2fff45ed","ios":"levelo://app?vid=9b586055-3525-4e43-ae53-8d6c2fff45ed"},"vehicle_type_id":"4","last_reported":1770802857,"current_range_meters":9600,"station_id":"cpo36qri1sfpv3e86is0","pricing_plan_id":"cebpf4jnsgd1na2vs0mg"},{"bike_id":"ebdbedc7-4354-4eb9-bf82-5a732061a6cb","system_id":"levelo_inurba_marseille","lat":43.31054,"lon":5.37159,"is_reserved":false,"is_disabled":false,"rental_uris":{"android":"levelo://app?vid=ebdbedc7-4354-4eb9-bf82-5a732061a6cb","ios":"levelo://app?vid=ebdbedc7-4354-4eb9-bf82-5a732061a6cb"},"vehicle_type_id":"4","last_reported":1770802857,"current_range_meters":9600,"station_id":"st_d4kl2rp97mjs73e7tdfg","pricing_plan_id":"cebpf4jnsgd1na2vs0mg"},{"bike_id":"c1f7cbe2-ed0d-417a-b458-7a778b7875f7","system_id":"levelo_inurba_marseille","lat":43.31204,"lon":5.3686,"is_reserved":false,"is_disabled":false,"rental_uris":{"android":"levelo://app?vid=c1f7cbe2-ed0d-417a-b458-7a778b7875f7","ios":"levelo://app?vid=c1f7cbe2-ed0d-417a-b458-7a778b7875f7"},"vehicle_type_id":"4","last_reported":1770802857,"current_range_meters":9600,"station_id":"ce4bgl92rcd13ifvqbq0","pricing_plan_id":"cebpf4jnsgd1na2vs0mg"},{"bike_id":"04b3ef1e-fd39-4f79-a733-e12a91897393","system_id":"levelo_inurba_marseille","lat":43.25921,"lon":5.40907,"is_reserved":false,"is_disabled":false,"rental_uris":{"android":"levelo://app?vid=04b3ef1e-fd39-4f79-a733-e12a91897393","ios":"levelo://app?vid=04b3ef1e-fd39-4f79-a733-e12a91897393"},"vehicle_type_id":"4","last_reported":1770802857,"current_range_meters":9600,"station_id":"ce4bhm92rcd13ifvqglg","pricing_plan_id":"cebpf4jnsgd1na2vs0mg"},{"bike_id":"bf542bbd-7d77-4888-8b81-b6081367c974","system_id":"levelo_inurba_marseille","lat":43.31365,"lon":5.385,"is_reserved":false,"is_disabled":false,"rental_uris":{"android":"levelo://app?vid=bf542bbd-7d77-4888-8b81-b6081367c974","ios":"levelo://app?vid=bf542bbd-7d77-4888-8b81-b6081367c974"},"vehicle_type_id":"4","last_reported":1770802857,"current_range_meters":9600,"station_id":"ce4bgt92rcd13ifvqcf0","pricing_plan_id":"cebpf4jnsgd1na2vs0mg"},{"bike_id":"24677d96-dcec-465b-8405-b22072dedeaa","system_id":"levelo_inurba_marseille","lat":43.24475,"lon":5.42538,"is_reserved":false,"is_disabled":false,"rental_uris":{"android":"levelo://app?vid=24677d96-dcec-465b-8405-b22072dedeaa","ios":"levelo://app?vid=24677d96-dcec-465b-8405-b22072dedeaa"},"vehicle_type_id":"4","last_reported":1770802857,"current_range_meters":9600,"station_id":"st_d4a3vfp97mjs738cd8kg","pricing_plan_id":"cebpf4jnsgd1na2vs0mg"},{"bike_id":"d7d6676e-5797-4594-957b-9b33c9b52cd4","system_id":"levelo_inurba_marseille","lat":43.30617,"lon":5.37223,"is_reserved":false,"is_disabled":false,"rental_uris":{"android":"levelo://app?vid=d7d6676e-5797-4594-957b-9b33c9b52cd4","ios":"levelo://app?vid=d7d6676e-5797-4594-957b-9b33c9b52cd4"},"vehicle_type_id":"4","last_reported":1770802857,"current_range_meters":9600,"station_id":"ce4bgqh2rcd13ifvqc4g","pricing_plan_id":"cebpf4jnsgd1na2vs0mg"},{"bike_id":"f2e705ea-8523-4931-b22c-3ab910e1d1d0","system_id":"levelo_inurba_marseille","lat":43.2738,"lon":5.36262,"is_reserved":false,"is_disabled":false,"rental_uris":{"android":"levelo://app?vid=f2e705ea-8523-4931-b22c-3ab910e1d1d0","ios":"levelo://app?vid=f2e705ea-8523-4931-b22c-3ab910e1d1d0"},"vehicle_type_id":"4","last_reported":1770802857,"current_range_meters":9600,"station_id":"ce4bhbh2rcd13ifvqeo0","pricing_plan_id":"cebpf4jnsgd1na2vs0mg"},{"bike_id":"5a359c55-5788-4615-9ffa-0dd65ce4f711","system_id":"levelo_inurba_marseille","lat":43.30957,"lon":5.39034,"is_reserved":false,"is_disabled":false,"rental_uris":{"android":"levelo://app?vid=5a359c55-5788-4615-9ffa-0dd65ce4f711","ios":"levelo://app?vid=5a359c55-5788-4615-9ffa-0dd65ce4f711"},"vehicle_type_id":"4","last_reported":1770802857,"current_range_meters":9600,"station_id":"ce4bgup2rcd13ifvqco0","pricing_plan_id":"cebpf4jnsgd1na2vs0mg"},{"bike_id":"59624936-7916-41fd-ae1c-a77a4adb46d4","system_id":"levelo_inurba_marseille","lat":43.27484,"lon":5.42489,"is_reserved":false,"is_disabled":false,"rental_uris":{"android":"levelo://app?vid=59624936-7916-41fd-ae1c-a77a4adb46d4","ios":"levelo://app?vid=59624936-7916-41fd-ae1c-a77a4adb46d4"},"vehicle_type_id":"4","last_reported":1770802857,"current_range_meters":10000,"station_id":"ce4bhn92rcd13ifvqgrg","pricing_plan_id":"cebpf4jnsgd1na2vs0mg"},{"bike_id":"01733d93-1aac-46ab-a1d7-be825cb9fa16","system_id":"levelo_inurba_marseille","lat":43.292666,"lon":5.376277,"is_reserved":false,"is_disabled":false,"rental_uris":{"android":"levelo://app?vid=01733d93-1aac-46ab-a1d7-be825cb9fa16","ios":"levelo://app?vid=01733d93-1aac-46ab-a1d7-be825cb9fa16"},"vehicle_type_id":"4","last_reported":1770802857,"current_range_meters":10000,"station_id":"ce4bgi12rcd13ifvqb80","pricing_plan_id":"cebpf4jnsgd1na2vs0mg"},{"bike_id":"9ba15159-bc8a-46ec-906b-7f7ba3003728","system_id":"levelo_inurba_marseille","lat":43.25915,"lon":5.40883,"is_reserved":false,"is_disabled":false,"rental_uris":{"android":"levelo://app?vid=9ba15159-bc8a-46ec-906b-7f7ba3003728","ios":"levelo://app?vid=9ba15159-bc8a-46ec-906b-7f7ba3003728"},"vehicle_type_id":"4","last_reported":1770802857,"current_range_meters":10000,"station_id":"ce4bhm92rcd13ifvqglg","pricing_plan_id":"cebpf4jnsgd1na2vs0mg"},{"bike_id":"0f1022fa-4006-4594-9b22-17c523f9f063","system_id":"levelo_inurba_marseille","lat":43.23175,"lon":5.43757,"is_reserved":false,"is_disabled":false,"rental_uris":{"android":"levelo://app?vid=0f1022fa-4006-4594-9b22-17c523f9f063","ios":"levelo://app?vid=0f1022fa-4006-4594-9b22-17c523f9f063"},"vehicle_type_id":"4","last_reported":1770802857,"current_range_meters":10000,"station_id":"ce4bhmp2rcd13ifvqgog","pricing_plan_id":"cebpf4jnsgd1na2vs0mg"},{"bike_id":"3ed093f4-08d0-4276-9163-84c86d6b0819","system_id":"levelo_inurba_marseille","lat":43.29585,"lon":5.39944,"is_reserved":false,"is_disabled":true,"rental_uris":{"android":"levelo://app?vid=3ed093f4-08d0-4276-9163-84c86d6b0819","ios":"levelo://app?vid=3ed093f4-08d0-4276-9163-84c86d6b0819"},"vehicle_type_id":"4","last_reported":1770802857,"current_range_meters":10000,"station_id":"ce4bh312rcd13ifvqdj0","pricing_plan_id":"cebpf4jnsgd1na2vs0mg"},{"bike_id":"7394aa7b-274b-413c-971f-ee71dbba1d5a","system_id":"levelo_inurba_marseille","lat":43.31722,"lon":5.37767,"is_reserved":false,"is_disabled":false,"rental_uris":{"android":"levelo://app?vid=7394aa7b-274b-413c-971f-ee71dbba1d5a","ios":"levelo://app?vid=7394aa7b-274b-413c-971f-ee71dbba1d5a"},"vehicle_type_id":"4","last_reported":1770802857,"current_range_meters":10000,"station_id":"ce4bgth2rcd13ifvqch0","pricing_plan_id":"cebpf4jnsgd1na2vs0mg"},{"bike_id":"e5c9cba2-19af-4dce-a764-2bbb177f1ce0","system_id":"levelo_inurba_marseille","lat":43.27172,"lon":5.40992,"is_reserved":false,"is_disabled":false,"rental_uris":{"android":"levelo://app?vid=e5c9cba2-19af-4dce-a764-2bbb177f1ce0","ios":"levelo://app?vid=e5c9cba2-19af-4dce-a764-2bbb177f1ce0"},"vehicle_type_id":"4","last_reported":1770802857,"current_range_meters":10000,"station_id":"ce4bhl12rcd13ifvqgf0","pricing_plan_id":"cebpf4jnsgd1na2vs0mg"},{"bike_id":"81f8dcb5-5f28-4ebd-8dd4-d32d931bacfb","system_id":"levelo_inurba_marseille","lat":43.3111,"lon":5.37775,"is_reserved":false,"is_disabled":false,"rental_uris":{"android":"levelo://app?vid=81f8dcb5-5f28-4ebd-8dd4-d32d931bacfb","ios":"levelo://app?vid=81f8dcb5-5f28-4ebd-8dd4-d32d931bacfb"},"vehicle_type_id":"4","last_reported":1770802857,"current_range_meters":10000,"station_id":"ce4bgt92rcd13ifvqcg0","pricing_plan_id":"cebpf4jnsgd1na2vs0mg"},{"bike_id":"cdab696d-da29-4540-be7d-72c50200f35a","system_id":"levelo_inurba_marseille","lat":43.30896,"lon":5.36859,"is_reserved":false,"is_disabled":false,"rental_uris":{"android":"levelo://app?vid=cdab696d-da29-4540-be7d-72c50200f35a","ios":"levelo://app?vid=cdab696d-da29-4540-be7d-72c50200f35a"},"vehicle_type_id":"4","last_reported":1770802857,"current_range_meters":10000,"station_id":"ce4bh092rcd13ifvqd20","pricing_plan_id":"cebpf4jnsgd1na2vs0mg"},{"bike_id":"31a7a706-1ff4-486d-b0ea-aa0afb881a3f","system_id":"levelo_inurba_marseille","lat":43.31004,"lon":5.38491,"is_reserved":false,"is_disabled":false,"rental_uris":{"android":"levelo://app?vid=31a7a706-1ff4-486d-b0ea-aa0afb881a3f","ios":"levelo://app?vid=31a7a706-1ff4-486d-b0ea-aa0afb881a3f"},"vehicle_type_id":"4","last_reported":1770802857,"current_range_meters":10000,"station_id":"","pricing_plan_id":"cebpf4jnsgd1na2vs0mg"},{"bike_id":"8b4b38ac-f6cb-48ed-90a4-30149ea67fd7","system_id":"levelo_inurba_marseille","lat":43.2909,"lon":5.39943,"is_reserved":false,"is_disabled":false,"rental_uris":{"android":"levelo://app?vid=8b4b38ac-f6cb-48ed-90a4-30149ea67fd7","ios":"levelo://app?vid=8b4b38ac-f6cb-48ed-90a4-30149ea67fd7"},"vehicle_type_id":"4","last_reported":1770802857,"current_range_meters":10000,"station_id":"","pricing_plan_id":"cebpf4jnsgd1na2vs0mg"},{"bike_id":"9e393b97-50a6-42b0-ae35-8d36ff1f9030","system_id":"levelo_inurba_marseille","lat":43.26386,"lon":5.41104,"is_reserved":false,"is_disabled":false,"rental_uris":{"android":"levelo://app?vid=9e393b97-50a6-42b0-ae35-8d36ff1f9030","ios":"levelo://app?vid=9e393b97-50a6-42b0-ae35-8d36ff1f9030"},"vehicle_type_id":"4","last_reported":1770802857,"current_range_meters":10800,"station_id":"st_d4e5ca6na9uc73bfl5fg","pricing_plan_id":"cebpf4jnsgd1na2vs0mg"},{"bike_id":"adedccca-d77d-4967-91ed-2661b5b510ba","system_id":"levelo_inurba_marseille","lat":43.22558,"lon":5.41638,"is_reserved":false,"is_disabled":false,"rental_uris":{"android":"levelo://app?vid=adedccca-d77d-4967-91ed-2661b5b510ba","ios":"levelo://app?vid=adedccca-d77d-4967-91ed-2661b5b510ba"},"vehicle_type_id":"4","last_reported":1770802857,"current_range_meters":10800,"station_id":"st_d2o4gvlbi1j2169b742g","pricing_plan_id":"cebpf4jnsgd1na2vs0mg"},{"bike_id":"c6176d61-506f-4755-a0d6-6ccb9566f89a","system_id":"levelo_inurba_marseille","lat":43.25676,"lon":5.41138,"is_reserved":false,"is_disabled":false,"rental_uris":{"android":"levelo://app?vid=c6176d61-506f-4755-a0d6-6ccb9566f89a","ios":"levelo://app?vid=c6176d61-506f-4755-a0d6-6ccb9566f89a"},"vehicle_type_id":"4","last_reported":1770802857,"current_range_meters":10800,"station_id":"ce4bhkp2rcd13ifvqgd0","pricing_plan_id":"cebpf4jnsgd1na2vs0mg"},{"bike_id":"5068638c-4d4f-48b9-94c9-8b2df037c592","system_id":"levelo_inurba_marseille","lat":43.31261,"lon":5.38521,"is_reserved":false,"is_disabled":false,"rental_uris":{"android":"levelo://app?vid=5068638c-4d4f-48b9-94c9-8b2df037c592","ios":"levelo://app?vid=5068638c-4d4f-48b9-94c9-8b2df037c592"},"vehicle_type_id":"4","last_reported":1770802857,"current_range_meters":10800,"station_id":"","pricing_plan_id":"cebpf4jnsgd1na2vs0mg"},{"bike_id":"5e3d93b2-3c3e-41fb-90aa-6f4909d81e34","system_id":"levelo_inurba_marseille","lat":43.33543,"lon":5.37443,"is_reserved":false,"is_disabled":false,"rental_uris":{"android":"levelo://app?vid=5e3d93b2-3c3e-41fb-90aa-6f4909d81e34","ios":"levelo://app?vid=5e3d93b2-3c3e-41fb-90aa-6f4909d81e34"},"vehicle_type_id":"4","last_reported":1770802857,"current_range_meters":10800,"station_id":"st_d46tts09ee8s73dlu43g","pricing_plan_id":"cebpf4jnsgd1na2vs0mg"},{"bike_id":"b79c9e11-34cd-4c16-a3a2-ce257e9f7ab6","system_id":"levelo_inurba_marseille","lat":43.3042,"lon":5.39746,"is_reserved":false,"is_disabled":false,"rental_uris":{"android":"levelo://app?vid=b79c9e11-34cd-4c16-a3a2-ce257e9f7ab6","ios":"levelo://app?vid=b79c9e11-34cd-4c16-a3a2-ce257e9f7ab6"},"vehicle_type_id":"4","last_reported":1770802857,"current_range_meters":10800,"station_id":"ce4bh092rcd13ifvqd20","pricing_plan_id":"cebpf4jnsgd1na2vs0mg"},{"bike_id":"5a491698-2f1e-4844-92f0-bd732412a37d","system_id":"levelo_inurba_marseille","lat":43.276065,"lon":5.384244,"is_reserved":false,"is_disabled":false,"rental_uris":{"android":"levelo://app?vid=5a491698-2f1e-4844-92f0-bd732412a37d","ios":"levelo://app?vid=5a491698-2f1e-4844-92f0-bd732412a37d"},"vehicle_type_id":"4","last_reported":1770802857,"current_range_meters":10800,"station_id":"","pricing_plan_id":"cebpf4jnsgd1na2vs0mg"},{"bike_id":"d98f09ff-8b59-4519-baee-c61bc86adc1e","system_id":"levelo_inurba_marseille","lat":43.29485,"lon":5.43297,"is_reserved":false,"is_disabled":false,"rental_uris":{"android":"levelo://app?vid=d98f09ff-8b59-4519-baee-c61bc86adc1e","ios":"levelo://app?vid=d98f09ff-8b59-4519-baee-c61bc86adc1e"},"vehicle_type_id":"4","last_reported":1770802857,"current_range_meters":10800,"station_id":"st_d3j5ugp08ojc73fj9d10","pricing_plan_id":"cebpf4jnsgd1na2vs0mg"},{"bike_id":"f28d6f89-fcc0-4566-8662-51e8789f30aa","system_id":"levelo_inurba_marseille","lat":43.305449,"lon":5.367013,"is_reserved":false,"is_disabled":false,"rental_uris":{"android":"levelo://app?vid=f28d6f89-fcc0-4566-8662-51e8789f30aa","ios":"levelo://app?vid=f28d6f89-fcc0-4566-8662-51e8789f30aa"},"vehicle_type_id":"4","last_reported":1770802857,"current_range_meters":10800,"station_id":"ce4bgrp2rcd13ifvqc9g","pricing_plan_id":"cebpf4jnsgd1na2vs0mg"},{"bike_id":"f5d6916d-89b2-440c-8289-1044a2c27f5a","system_id":"levelo_inurba_marseille","lat":43.30147,"lon":5.38085,"is_reserved":false,"is_disabled":false,"rental_uris":{"android":"levelo://app?vid=f5d6916d-89b2-440c-8289-1044a2c27f5a","ios":"levelo://app?vid=f5d6916d-89b2-440c-8289-1044a2c27f5a"},"vehicle_type_id":"4","last_reported":1770802857,"current_range_meters":10800,"station_id":"ce4bgjp2rcd13ifvqbh0","pricing_plan_id":"cebpf4jnsgd1na2vs0mg"},{"bike_id":"09b34151-bc85-4ed3-ae75-6800e531e58d","system_id":"levelo_inurba_marseille","lat":43.29579,"lon":5.36741,"is_reserved":false,"is_disabled":false,"rental_uris":{"android":"levelo://app?vid=09b34151-bc85-4ed3-ae75-6800e531e58d","ios":"levelo://app?vid=09b34151-bc85-4ed3-ae75-6800e531e58d"},"vehicle_type_id":"4","last_reported":1770802857,"current_range_meters":10800,"station_id":"ce4bgph2rcd13ifvqc2g","pricing_plan_id":"cebpf4jnsgd1na2vs0mg"},{"bike_id":"2e367834-3a14-44ff-8e8c-13efe37499cb","system_id":"levelo_inurba_marseille","lat":43.29704,"lon":5.37694,"is_reserved":false,"is_disabled":false,"rental_uris":{"android":"levelo://app?vid=2e367834-3a14-44ff-8e8c-13efe37499cb","ios":"levelo://app?vid=2e367834-3a14-44ff-8e8c-13efe37499cb"},"vehicle_type_id":"4","last_reported":1770802857,"current_range_meters":10800,"station_id":"ce4bgkh2rcd13ifvqbl0","pricing_plan_id":"cebpf4jnsgd1na2vs0mg"},{"bike_id":"c32d45ac-8290-4436-8257-2ce11ffca061","system_id":"levelo_inurba_marseille","lat":43.25587,"lon":5.38232,"is_reserved":false,"is_disabled":false,"rental_uris":{"android":"levelo://app?vid=c32d45ac-8290-4436-8257-2ce11ffca061","ios":"levelo://app?vid=c32d45ac-8290-4436-8257-2ce11ffca061"},"vehicle_type_id":"4","last_reported":1770802857,"current_range_meters":11200,"station_id":"ce4bhih2rcd13ifvqfs0","pricing_plan_id":"cebpf4jnsgd1na2vs0mg"},{"bike_id":"a0d5465b-a2a2-4398-92d1-adaa8ea4fc1f","system_id":"levelo_inurba_marseille","lat":43.24081,"lon":5.37755,"is_reserved":false,"is_disabled":false,"rental_uris":{"android":"levelo://app?vid=a0d5465b-a2a2-4398-92d1-adaa8ea4fc1f","ios":"levelo://app?vid=a0d5465b-a2a2-4398-92d1-adaa8ea4fc1f"},"vehicle_type_id":"4","last_reported":1770802857,"current_range_meters":11200,"station_id":"ce4bhnp2rcd13ifvqgvg","pricing_plan_id":"cebpf4jnsgd1na2vs0mg"},{"bike_id":"cc8657f3-cee0-4726-8427-1495a502b0dc","system_id":"levelo_inurba_marseille","lat":43.29761,"lon":5.42784,"is_reserved":false,"is_disabled":false,"rental_uris":{"android":"levelo://app?vid=cc8657f3-cee0-4726-8427-1495a502b0dc","ios":"levelo://app?vid=cc8657f3-cee0-4726-8427-1495a502b0dc"},"vehicle_type_id":"4","last_reported":1770802857,"current_range_meters":11200,"station_id":"st_d3md5207bmas73dh9klg","pricing_plan_id":"cebpf4jnsgd1na2vs0mg"},{"bike_id":"a6a2abc2-13d8-4c9a-b978-8487fe9fcbf5","system_id":"levelo_inurba_marseille","lat":43.25822,"lon":5.3944,"is_reserved":false,"is_disabled":false,"rental_uris":{"android":"levelo://app?vid=a6a2abc2-13d8-4c9a-b978-8487fe9fcbf5","ios":"levelo://app?vid=a6a2abc2-13d8-4c9a-b978-8487fe9fcbf5"},"vehicle_type_id":"4","last_reported":1770802857,"current_range_meters":11200,"station_id":"ce4bhip2rcd13ifvqft0","pricing_plan_id":"cebpf4jnsgd1na2vs0mg"},{"bike_id":"93d13824-88c0-4dc3-a740-8b4c56967f53","system_id":"levelo_inurba_marseille","lat":43.29761,"lon":5.427809,"is_reserved":false,"is_disabled":false,"rental_uris":{"android":"levelo://app?vid=93d13824-88c0-4dc3-a740-8b4c56967f53","ios":"levelo://app?vid=93d13824-88c0-4dc3-a740-8b4c56967f53"},"vehicle_type_id":"4","last_reported":1770802857,"current_range_meters":11200,"station_id":"st_d3md5207bmas73dh9klg","pricing_plan_id":"cebpf4jnsgd1na2vs0mg"},{"bike_id":"f1a0c9eb-b591-490f-b1cf-b2c3c5b61fc2","system_id":"levelo_inurba_marseille","lat":43.2603,"lon":5.3755,"is_reserved":false,"is_disabled":false,"rental_uris":{"android":"levelo://app?vid=f1a0c9eb-b591-490f-b1cf-b2c3c5b61fc2","ios":"levelo://app?vid=f1a0c9eb-b591-490f-b1cf-b2c3c5b61fc2"},"vehicle_type_id":"4","last_reported":1770802857,"current_range_meters":11200,"station_id":"ce4bhgh2rcd13ifvqfa0","pricing_plan_id":"cebpf4jnsgd1na2vs0mg"},{"bike_id":"0bd0023f-da6b-4c9a-8898-a505f61d5f0d","system_id":"levelo_inurba_marseille","lat":43.258641,"lon":5.399079,"is_reserved":false,"is_disabled":false,"rental_uris":{"android":"levelo://app?vid=0bd0023f-da6b-4c9a-8898-a505f61d5f0d","ios":"levelo://app?vid=0bd0023f-da6b-4c9a-8898-a505f61d5f0d"},"vehicle_type_id":"4","last_reported":1770802857,"current_range_meters":11200,"station_id":"ce4bhl92rcd13ifvqghg","pricing_plan_id":"cebpf4jnsgd1na2vs0mg"},{"bike_id":"5ecdca59-da81-4119-a256-c37296e94b7b","system_id":"levelo_inurba_marseille","lat":43.295,"lon":5.43367,"is_reserved":false,"is_disabled":false,"rental_uris":{"android":"levelo://app?vid=5ecdca59-da81-4119-a256-c37296e94b7b","ios":"levelo://app?vid=5ecdca59-da81-4119-a256-c37296e94b7b"},"vehicle_type_id":"4","last_reported":1770802857,"current_range_meters":11200,"station_id":"st_d3j5ugp08ojc73fj9d10","pricing_plan_id":"cebpf4jnsgd1na2vs0mg"},{"bike_id":"f87c4ba9-0879-4b3f-b7da-048672b8c251","system_id":"levelo_inurba_marseille","lat":43.30306,"lon":5.36901,"is_reserved":false,"is_disabled":false,"rental_uris":{"android":"levelo://app?vid=f87c4ba9-0879-4b3f-b7da-048672b8c251","ios":"levelo://app?vid=f87c4ba9-0879-4b3f-b7da-048672b8c251"},"vehicle_type_id":"4","last_reported":1770802857,"current_range_meters":11200,"station_id":"ce4bgqh2rcd13ifvqc5g","pricing_plan_id":"cebpf4jnsgd1na2vs0mg"},{"bike_id":"d54b106d-1122-48f1-917e-21c3100120b1","system_id":"levelo_inurba_marseille","lat":43.27206,"lon":5.39189,"is_reserved":false,"is_disabled":false,"rental_uris":{"android":"levelo://app?vid=d54b106d-1122-48f1-917e-21c3100120b1","ios":"levelo://app?vid=d54b106d-1122-48f1-917e-21c3100120b1"},"vehicle_type_id":"4","last_reported":1770802857,"current_range_meters":11200,"station_id":"ce4bhhp2rcd13ifvqfm0","pricing_plan_id":"cebpf4jnsgd1na2vs0mg"},{"bike_id":"e56573a4-f19c-42e7-828c-c81201e1be5e","system_id":"levelo_inurba_marseille","lat":43.3206,"lon":5.41559,"is_reserved":false,"is_disabled":true,"rental_uris":{"android":"levelo://app?vid=e56573a4-f19c-42e7-828c-c81201e1be5e","ios":"levelo://app?vid=e56573a4-f19c-42e7-828c-c81201e1be5e"},"vehicle_type_id":"4","last_reported":1770802857,"current_range_meters":11600,"station_id":"ce4bhq92rcd13ifvqhkg","pricing_plan_id":"cebpf4jnsgd1na2vs0mg"},{"bike_id":"07180377-17c0-429c-86da-e1b4de678352","system_id":"levelo_inurba_marseille","lat":43.29037,"lon":5.40011,"is_reserved":false,"is_disabled":false,"rental_uris":{"android":"levelo://app?vid=07180377-17c0-429c-86da-e1b4de678352","ios":"levelo://app?vid=07180377-17c0-429c-86da-e1b4de678352"},"vehicle_type_id":"4","last_reported":1770802857,"current_range_meters":11600,"station_id":"ce4bh392rcd13ifvqdm0","pricing_plan_id":"cebpf4jnsgd1na2vs0mg"},{"bike_id":"ae2a0e10-79a5-4711-8466-8963cbf4e4f5","system_id":"levelo_inurba_marseille","lat":43.29001,"lon":5.35619,"is_reserved":false,"is_disabled":false,"rental_uris":{"android":"levelo://app?vid=ae2a0e10-79a5-4711-8466-8963cbf4e4f5","ios":"levelo://app?vid=ae2a0e10-79a5-4711-8466-8963cbf4e4f5"},"vehicle_type_id":"4","last_reported":1770802857,"current_range_meters":11600,"station_id":"ce4bhb92rcd13ifvqen0","pricing_plan_id":"cebpf4jnsgd1na2vs0mg"},{"bike_id":"e42620f4-183e-485a-af88-c36a22e64d51","system_id":"levelo_inurba_marseille","lat":43.2321,"lon":5.4001,"is_reserved":false,"is_disabled":false,"rental_uris":{"android":"levelo://app?vid=e42620f4-183e-485a-af88-c36a22e64d51","ios":"levelo://app?vid=e42620f4-183e-485a-af88-c36a22e64d51"},"vehicle_type_id":"4","last_reported":1770802857,"current_range_meters":11600,"station_id":"ce4bhn12rcd13ifvqgqg","pricing_plan_id":"cebpf4jnsgd1na2vs0mg"},{"bike_id":"57c7335a-6e31-409f-9d2c-42a2b3f19b20","system_id":"levelo_inurba_marseille","lat":43.31151,"lon":5.37186,"is_reserved":false,"is_disabled":false,"rental_uris":{"android":"levelo://app?vid=57c7335a-6e31-409f-9d2c-42a2b3f19b20","ios":"levelo://app?vid=57c7335a-6e31-409f-9d2c-42a2b3f19b20"},"vehicle_type_id":"4","last_reported":1770802857,"current_range_meters":11600,"station_id":"st_d4kl2rp97mjs73e7tdfg","pricing_plan_id":"cebpf4jnsgd1na2vs0mg"},{"bike_id":"48ef2e5e-395e-487a-9e41-360aad012a1f","system_id":"levelo_inurba_marseille","lat":43.26213,"lon":5.37442,"is_reserved":false,"is_disabled":false,"rental_uris":{"android":"levelo://app?vid=48ef2e5e-395e-487a-9e41-360aad012a1f","ios":"levelo://app?vid=48ef2e5e-395e-487a-9e41-360aad012a1f"},"vehicle_type_id":"4","last_reported":1770802857,"current_range_meters":11600,"station_id":"ce4bhgp2rcd13ifvqfc0","pricing_plan_id":"cebpf4jnsgd1na2vs0mg"},{"bike_id":"aed5a24b-29f7-464d-8b2e-5421194ea52f","system_id":"levelo_inurba_marseille","lat":43.25818,"lon":5.39462,"is_reserved":false,"is_disabled":false,"rental_uris":{"android":"levelo://app?vid=aed5a24b-29f7-464d-8b2e-5421194ea52f","ios":"levelo://app?vid=aed5a24b-29f7-464d-8b2e-5421194ea52f"},"vehicle_type_id":"4","last_reported":1770802857,"current_range_meters":11600,"station_id":"ce4bhip2rcd13ifvqft0","pricing_plan_id":"cebpf4jnsgd1na2vs0mg"},{"bike_id":"6f0378bc-26b0-48f1-9ec6-3370f089a196","system_id":"levelo_inurba_marseille","lat":43.26196,"lon":5.37934,"is_reserved":false,"is_disabled":false,"rental_uris":{"android":"levelo://app?vid=6f0378bc-26b0-48f1-9ec6-3370f089a196","ios":"levelo://app?vid=6f0378bc-26b0-48f1-9ec6-3370f089a196"},"vehicle_type_id":"4","last_reported":1770802857,"current_range_meters":11600,"station_id":"ce4bhjp2rcd13ifvqg90","pricing_plan_id":"cebpf4jnsgd1na2vs0mg"},{"bike_id":"70e591b0-f2cc-4dab-99cf-08bb3c1008b4","system_id":"levelo_inurba_marseille","lat":43.27402,"lon":5.42722,"is_reserved":false,"is_disabled":false,"rental_uris":{"android":"levelo://app?vid=70e591b0-f2cc-4dab-99cf-08bb3c1008b4","ios":"levelo://app?vid=70e591b0-f2cc-4dab-99cf-08bb3c1008b4"},"vehicle_type_id":"4","last_reported":1770802857,"current_range_meters":11600,"station_id":"","pricing_plan_id":"cebpf4jnsgd1na2vs0mg"},{"bike_id":"da732a47-27dd-4801-8d25-23d54a0a625d","system_id":"levelo_inurba_marseille","lat":43.27202,"lon":5.3919,"is_reserved":false,"is_disabled":false,"rental_uris":{"android":"levelo://app?vid=da732a47-27dd-4801-8d25-23d54a0a625d","ios":"levelo://app?vid=da732a47-27dd-4801-8d25-23d54a0a625d"},"vehicle_type_id":"4","last_reported":1770802857,"current_range_meters":11600,"station_id":"ce4bhhp2rcd13ifvqfm0","pricing_plan_id":"cebpf4jnsgd1na2vs0mg"},{"bike_id":"7c322677-36e7-48bb-851a-dd41c22ffeae","system_id":"levelo_inurba_marseille","lat":43.24395,"lon":5.3706,"is_reserved":false,"is_disabled":false,"rental_uris":{"android":"levelo://app?vid=7c322677-36e7-48bb-851a-dd41c22ffeae","ios":"levelo://app?vid=7c322677-36e7-48bb-851a-dd41c22ffeae"},"vehicle_type_id":"4","last_reported":1770802857,"current_range_meters":11600,"station_id":"ce4bhhh2rcd13ifvqfk0","pricing_plan_id":"cebpf4jnsgd1na2vs0mg"},{"bike_id":"ab2b49aa-7574-41ea-aafd-20e44f598b0a","system_id":"levelo_inurba_marseille","lat":43.33155,"lon":5.37694,"is_reserved":false,"is_disabled":false,"rental_uris":{"android":"levelo://app?vid=ab2b49aa-7574-41ea-aafd-20e44f598b0a","ios":"levelo://app?vid=ab2b49aa-7574-41ea-aafd-20e44f598b0a"},"vehicle_type_id":"4","last_reported":1770802857,"current_range_meters":11600,"station_id":"st_d46cu089ee8s73dldbu0","pricing_plan_id":"cebpf4jnsgd1na2vs0mg"},{"bike_id":"adc1d2de-d584-4868-8c64-eca2dab94d2f","system_id":"levelo_inurba_marseille","lat":43.26209,"lon":5.37444,"is_reserved":false,"is_disabled":false,"rental_uris":{"android":"levelo://app?vid=adc1d2de-d584-4868-8c64-eca2dab94d2f","ios":"levelo://app?vid=adc1d2de-d584-4868-8c64-eca2dab94d2f"},"vehicle_type_id":"4","last_reported":1770802857,"current_range_meters":12000,"station_id":"ce4bhgp2rcd13ifvqfc0","pricing_plan_id":"cebpf4jnsgd1na2vs0mg"},{"bike_id":"5f6ae4c8-a7cd-4f3b-9adf-671bbd618c70","system_id":"levelo_inurba_marseille","lat":43.25557,"lon":5.38227,"is_reserved":false,"is_disabled":false,"rental_uris":{"android":"levelo://app?vid=5f6ae4c8-a7cd-4f3b-9adf-671bbd618c70","ios":"levelo://app?vid=5f6ae4c8-a7cd-4f3b-9adf-671bbd618c70"},"vehicle_type_id":"4","last_reported":1770802857,"current_range_meters":12000,"station_id":"ce4bhih2rcd13ifvqfs0","pricing_plan_id":"cebpf4jnsgd1na2vs0mg"},{"bike_id":"51f50f49-0125-412c-8286-c260be56e451","system_id":"levelo_inurba_marseille","lat":43.23157,"lon":5.4371,"is_reserved":false,"is_disabled":false,"rental_uris":{"android":"levelo://app?vid=51f50f49-0125-412c-8286-c260be56e451","ios":"levelo://app?vid=51f50f49-0125-412c-8286-c260be56e451"},"vehicle_type_id":"4","last_reported":1770802857,"current_range_meters":12000,"station_id":"ce4bhmp2rcd13ifvqgog","pricing_plan_id":"cebpf4jnsgd1na2vs0mg"},{"bike_id":"9df0032a-f26c-436e-9c30-46c9ea367aa2","system_id":"levelo_inurba_marseille","lat":43.2929,"lon":5.36859,"is_reserved":false,"is_disabled":false,"rental_uris":{"android":"levelo://app?vid=9df0032a-f26c-436e-9c30-46c9ea367aa2","ios":"levelo://app?vid=9df0032a-f26c-436e-9c30-46c9ea367aa2"},"vehicle_type_id":"4","last_reported":1770802857,"current_range_meters":12000,"station_id":"ce4bhbp2rcd13ifvqesg","pricing_plan_id":"cebpf4jnsgd1na2vs0mg"},{"bike_id":"f0286ae3-4df9-493a-a9d2-1a500a4d65a7","system_id":"levelo_inurba_marseille","lat":43.23146,"lon":5.43726,"is_reserved":false,"is_disabled":false,"rental_uris":{"android":"levelo://app?vid=f0286ae3-4df9-493a-a9d2-1a500a4d65a7","ios":"levelo://app?vid=f0286ae3-4df9-493a-a9d2-1a500a4d65a7"},"vehicle_type_id":"4","last_reported":1770802857,"current_range_meters":12000,"station_id":"ce4bhmp2rcd13ifvqgog","pricing_plan_id":"cebpf4jnsgd1na2vs0mg"},{"bike_id":"c8ecfee0-07b4-474d-89cc-441b0e6b5223","system_id":"levelo_inurba_marseille","lat":43.28618,"lon":5.35107,"is_reserved":false,"is_disabled":false,"rental_uris":{"android":"levelo://app?vid=c8ecfee0-07b4-474d-89cc-441b0e6b5223","ios":"levelo://app?vid=c8ecfee0-07b4-474d-89cc-441b0e6b5223"},"vehicle_type_id":"4","last_reported":1770802857,"current_range_meters":12000,"station_id":"ce4bhch2rcd13ifvqeug","pricing_plan_id":"cebpf4jnsgd1na2vs0mg"},{"bike_id":"e61f8348-ac76-4cea-92f8-334c0273949b","system_id":"levelo_inurba_marseille","lat":43.24619,"lon":5.43116,"is_reserved":false,"is_disabled":false,"rental_uris":{"android":"levelo://app?vid=e61f8348-ac76-4cea-92f8-334c0273949b","ios":"levelo://app?vid=e61f8348-ac76-4cea-92f8-334c0273949b"},"vehicle_type_id":"4","last_reported":1770802857,"current_range_meters":12000,"station_id":"st_d2m6c4gdas8pm72e190g","pricing_plan_id":"cebpf4jnsgd1na2vs0mg"},{"bike_id":"4e7816bf-5611-469a-acdb-8f4687b86456","system_id":"levelo_inurba_marseille","lat":43.30467,"lon":5.37929,"is_reserved":false,"is_disabled":false,"rental_uris":{"android":"levelo://app?vid=4e7816bf-5611-469a-acdb-8f4687b86456","ios":"levelo://app?vid=4e7816bf-5611-469a-acdb-8f4687b86456"},"vehicle_type_id":"4","last_reported":1770802857,"current_range_meters":12000,"station_id":"ce4bgup2rcd13ifvqcn0","pricing_plan_id":"cebpf4jnsgd1na2vs0mg"},{"bike_id":"bc7c2f57-153b-4364-b681-eb0713085247","system_id":"levelo_inurba_marseille","lat":43.25495,"lon":5.37656,"is_reserved":false,"is_disabled":false,"rental_uris":{"android":"levelo://app?vid=bc7c2f57-153b-4364-b681-eb0713085247","ios":"levelo://app?vid=bc7c2f57-153b-4364-b681-eb0713085247"},"vehicle_type_id":"4","last_reported":1770802857,"current_range_meters":12000,"station_id":"ce4bhh12rcd13ifvqff0","pricing_plan_id":"cebpf4jnsgd1na2vs0mg"},{"bike_id":"0d75816b-9beb-4768-910c-24e5486d5dae","system_id":"levelo_inurba_marseille","lat":43.24178,"lon":5.39747,"is_reserved":false,"is_disabled":false,"rental_uris":{"android":"levelo://app?vid=0d75816b-9beb-4768-910c-24e5486d5dae","ios":"levelo://app?vid=0d75816b-9beb-4768-910c-24e5486d5dae"},"vehicle_type_id":"4","last_reported":1770802857,"current_range_meters":12000,"station_id":"ce4bhn12rcd13ifvqgpg","pricing_plan_id":"cebpf4jnsgd1na2vs0mg"},{"bike_id":"b3ba3cc5-2fa1-4600-b170-e4e11f93d8db","system_id":"levelo_inurba_marseille","lat":43.31039,"lon":5.37163,"is_reserved":false,"is_disabled":false,"rental_uris":{"android":"levelo://app?vid=b3ba3cc5-2fa1-4600-b170-e4e11f93d8db","ios":"levelo://app?vid=b3ba3cc5-2fa1-4600-b170-e4e11f93d8db"},"vehicle_type_id":"4","last_reported":1770802857,"current_range_meters":12000,"station_id":"st_d4kl2rp97mjs73e7tdfg","pricing_plan_id":"cebpf4jnsgd1na2vs0mg"},{"bike_id":"97650b38-6511-4898-857c-aa7defd1fe04","system_id":"levelo_inurba_marseille","lat":43.29579,"lon":5.37511,"is_reserved":false,"is_disabled":false,"rental_uris":{"android":"levelo://app?vid=97650b38-6511-4898-857c-aa7defd1fe04","ios":"levelo://app?vid=97650b38-6511-4898-857c-aa7defd1fe04"},"vehicle_type_id":"4","last_reported":1770802857,"current_range_meters":12400,"station_id":"ce4bgh92rcd13ifvqb50","pricing_plan_id":"cebpf4jnsgd1na2vs0mg"},{"bike_id":"28b7189c-bfe0-4cda-a5b8-b353a1e1ecb9","system_id":"levelo_inurba_marseille","lat":43.2793,"lon":5.38732,"is_reserved":false,"is_disabled":false,"rental_uris":{"android":"levelo://app?vid=28b7189c-bfe0-4cda-a5b8-b353a1e1ecb9","ios":"levelo://app?vid=28b7189c-bfe0-4cda-a5b8-b353a1e1ecb9"},"vehicle_type_id":"4","last_reported":1770802857,"current_range_meters":12400,"station_id":"","pricing_plan_id":"cebpf4jnsgd1na2vs0mg"},{"bike_id":"082040f8-1fad-4882-9445-0976308a8753","system_id":"levelo_inurba_marseille","lat":43.29795,"lon":5.44065,"is_reserved":false,"is_disabled":false,"rental_uris":{"android":"levelo://app?vid=082040f8-1fad-4882-9445-0976308a8753","ios":"levelo://app?vid=082040f8-1fad-4882-9445-0976308a8753"},"vehicle_type_id":"4","last_reported":1770802857,"current_range_meters":12400,"station_id":"st_d3jp68qikq2c7381ktn0","pricing_plan_id":"cebpf4jnsgd1na2vs0mg"},{"bike_id":"a21f25c2-63d6-4955-b8e1-7be1807c1e47","system_id":"levelo_inurba_marseille","lat":43.29205,"lon":5.3605,"is_reserved":false,"is_disabled":false,"rental_uris":{"android":"levelo://app?vid=a21f25c2-63d6-4955-b8e1-7be1807c1e47","ios":"levelo://app?vid=a21f25c2-63d6-4955-b8e1-7be1807c1e47"},"vehicle_type_id":"4","last_reported":1770802857,"current_range_meters":12400,"station_id":"ce4bhbh2rcd13ifvqeqg","pricing_plan_id":"cebpf4jnsgd1na2vs0mg"},{"bike_id":"01ce82a4-2ac1-4e51-9582-9733201aaea4","system_id":"levelo_inurba_marseille","lat":43.30514,"lon":5.37948,"is_reserved":false,"is_disabled":false,"rental_uris":{"android":"levelo://app?vid=01ce82a4-2ac1-4e51-9582-9733201aaea4","ios":"levelo://app?vid=01ce82a4-2ac1-4e51-9582-9733201aaea4"},"vehicle_type_id":"4","last_reported":1770802857,"current_range_meters":12400,"station_id":"","pricing_plan_id":"cebpf4jnsgd1na2vs0mg"},{"bike_id":"74c5a16a-e0f1-4853-a669-8bc6d613d27a","system_id":"levelo_inurba_marseille","lat":43.32324,"lon":5.36786,"is_reserved":false,"is_disabled":false,"rental_uris":{"android":"levelo://app?vid=74c5a16a-e0f1-4853-a669-8bc6d613d27a","ios":"levelo://app?vid=74c5a16a-e0f1-4853-a669-8bc6d613d27a"},"vehicle_type_id":"4","last_reported":1770802857,"current_range_meters":12400,"station_id":"ce4bhsh2rcd13ifvqi2g","pricing_plan_id":"cebpf4jnsgd1na2vs0mg"},{"bike_id":"989b5b08-d948-4be9-bc29-7318c8ff2142","system_id":"levelo_inurba_marseille","lat":43.26679,"lon":5.38273,"is_reserved":false,"is_disabled":false,"rental_uris":{"android":"levelo://app?vid=989b5b08-d948-4be9-bc29-7318c8ff2142","ios":"levelo://app?vid=989b5b08-d948-4be9-bc29-7318c8ff2142"},"vehicle_type_id":"4","last_reported":1770802857,"current_range_meters":12400,"station_id":"","pricing_plan_id":"cebpf4jnsgd1na2vs0mg"},{"bike_id":"b6112af3-aba4-4f52-af0c-89058bf40bf6","system_id":"levelo_inurba_marseille","lat":43.29729,"lon":5.42773,"is_reserved":false,"is_disabled":false,"rental_uris":{"android":"levelo://app?vid=b6112af3-aba4-4f52-af0c-89058bf40bf6","ios":"levelo://app?vid=b6112af3-aba4-4f52-af0c-89058bf40bf6"},"vehicle_type_id":"4","last_reported":1770802857,"current_range_meters":12400,"station_id":"st_d3md5207bmas73dh9klg","pricing_plan_id":"cebpf4jnsgd1na2vs0mg"},{"bike_id":"ad1c73a7-80cd-4fd9-9cbe-bd9c902be31f","system_id":"levelo_inurba_marseille","lat":43.24563,"lon":5.39544,"is_reserved":false,"is_disabled":false,"rental_uris":{"android":"levelo://app?vid=ad1c73a7-80cd-4fd9-9cbe-bd9c902be31f","ios":"levelo://app?vid=ad1c73a7-80cd-4fd9-9cbe-bd9c902be31f"},"vehicle_type_id":"4","last_reported":1770802857,"current_range_meters":12800,"station_id":"ce4bhlp2rcd13ifvqgjg","pricing_plan_id":"cebpf4jnsgd1na2vs0mg"},{"bike_id":"52c5007b-88c9-4d1c-9fe2-488c4cdcfbef","system_id":"levelo_inurba_marseille","lat":43.25868,"lon":5.39888,"is_reserved":false,"is_disabled":false,"rental_uris":{"android":"levelo://app?vid=52c5007b-88c9-4d1c-9fe2-488c4cdcfbef","ios":"levelo://app?vid=52c5007b-88c9-4d1c-9fe2-488c4cdcfbef"},"vehicle_type_id":"4","last_reported":1770802857,"current_range_meters":12800,"station_id":"ce4bhl92rcd13ifvqghg","pricing_plan_id":"cebpf4jnsgd1na2vs0mg"},{"bike_id":"5ff157dc-e3aa-4305-ad39-dfa58cf64b9c","system_id":"levelo_inurba_marseille","lat":43.24067,"lon":5.37723,"is_reserved":false,"is_disabled":false,"rental_uris":{"android":"levelo://app?vid=5ff157dc-e3aa-4305-ad39-dfa58cf64b9c","ios":"levelo://app?vid=5ff157dc-e3aa-4305-ad39-dfa58cf64b9c"},