{"last_updated":1685761607,"ttl":30,"version":"2.2","data":{"bikes":[{"bike_id":"6d6989e8-e9cd-4405-bb83-8b1a46eb8579","system_id":"levelo_inurba_marseille","lat":43.312239,"lon":5.368562,"is_reserved":false,"is_disabled":false,"rental_uris":{"android":"levelo://app?vid=6d6989e8-e9cd-4405-bb83-8b1a46eb8579","ios":"levelo://app?vid=6d6989e8-e9cd-4405-bb83-8b1a46eb8579"},"vehicle_type_id":"4","last_reported":1685761607,"current_range_meters":14000,"station_id":"ce4bgl92rcd13ifvqbq0","pricing_plan_id":"free"},{"bike_id":"82499d9c-5a38-486e-9374-f779bdcf728c","system_id":"levelo_inurba_marseille","lat":43.31554,"lon":5.37303,"is_reserved":false,"is_disabled":false,"rental_uris":{"android":"levelo://app?vid=82499d9c-5a38-486e-9374-f779bdcf728c","ios":"levelo://app?vid=82499d9c-5a38-486e-9374-f779bdcf728c"},"vehicle_type_id":"4","last_reported":1685761607,"current_range_meters":4400,"station_id":"","pricing_plan_id":"free"},{"bike_id":"e5e7ebe9-ccb8-4d4c-80d3-0ccfde231f64","system_id":"levelo_inurba_marseille","lat":43.31555,"lon":5.37319,"is_reserved":false,"is_disabled":false,"rental_uris":{"android":"levelo://app?vid=e5e7ebe9-ccb8-4d4c-80d3-0ccfde231f64","ios":"levelo://app?vid=e5e7ebe9-ccb8-4d4c-80d3-0ccfde231f64"},"vehicle_type_id":"4","last_reported":1685761607,"current_range_meters":22800,"station_id":"","pricing_plan_id":"free"},{"bike_id":"25a8dcab-ece4-42b7-a12a-a0dd7d71635f","system_id":"levelo_inurba_marseille","lat":43.30903,"lon":5.37293,"is_reserved":false,"is_disabled":false,"rental_uris":{"android":"levelo://app?vid=25a8dcab-ece4-42b7-a12a-a0dd7d71635f","ios":"levelo://app?vid=25a8dcab-ece4-42b7-a12a-a0dd7d71635f"},"vehicle_type_id":"4","last_reported":1685761607,"current_range_meters":11600,"station_id":"","pricing_plan_id":"free"},{"bike_id":"890e93ac-4bac-484a-baff-b468d73fa7c8","system_id":"levelo_inurba_marseille","lat":43.31369,"lon":5.3766,"is_reserved":false,"is_disabled":false,"rental_uris":{"android":"levelo://app?vid=890e93ac-4bac-484a-baff-b468d73fa7c8","ios":"levelo://app?vid=890e93ac-4bac-484a-baff-b468d73fa7c8"},"vehicle_type_id":"4","last_reported":1685761607,"current_range_meters":12800,"station_id":"","pricing_plan_id":"free"},{"bike_id":"4d43e892-ec90-4fce-8475-f727fed3851f","system_id":"levelo_inurba_marseille","lat":43.31981,"lon":5.36583,"is_reserved":false,"is_disabled":false,"rental_uris":{"android":"levelo://app?vid=4d43e892-ec90-4fce-8475-f727fed3851f","ios":"levelo://app?vid=4d43e892-ec90-4fce-8475-f727fed3851f"},"vehicle_type_id":"4","last_reported":1685761607,"current_range_meters":6800,"station_id":"","pricing_plan_id":"free"},{"bike_id":"c2f4aa18-1ae4-4ac6-bc7d-15ce6c461003","system_id":"levelo_inurba_marseille","lat":43.30542,"lon":5.36702,"is_reserved":false,"is_disabled":false,"rental_uris":{"android":"levelo://app?vid=c2f4aa18-1ae4-4ac6-bc7d-15ce6c461003","ios":"levelo://app?vid=c2f4aa18-1ae4-4ac6-bc7d-15ce6c461003"},"vehicle_type_id":"4","last_reported":1685761607,"current_range_meters":14400,"station_id":"ce4bgrp2rcd13ifvqc9g","pricing_plan_id":"free"},{"bike_id":"41afe8d7-0cc0-470c-897b-5666f38553f6","system_id":"levelo_inurba_marseille","lat":43.305989,"lon":5.37225,"is_reserved":false,"is_disabled":false,"rental_uris":{"android":"levelo://app?vid=41afe8d7-0cc0-470c-897b-5666f38553f6","ios":"levelo://app?vid=41afe8d7-0cc0-470c-897b-5666f38553f6"},"vehicle_type_id":"4","last_reported":1685761607,"current_range_meters":18400,"station_id":"ce4bgqh2rcd13ifvqc4g","pricing_plan_id":"free"},{"bike_id":"2822e10f-aa80-449f-b0ec-df725b4b816a","system_id":"levelo_inurba_marseille","lat":43.31124,"lon":5.37773,"is_reserved":false,"is_disabled":false,"rental_uris":{"android":"levelo://app?vid=2822e10f-aa80-449f-b0ec-df725b4b816a","ios":"levelo://app?vid=2822e10f-aa80-449f-b0ec-df725b4b816a"},"vehicle_type_id":"4","last_reported":1685761607,"current_range_meters":4800,"station_id":"ce4bgt92rcd13ifvqcg0","pricing_plan_id":"free"},{"bike_id":"65554d33-b508-436a-aac9-544974e5f617","system_id":"levelo_inurba_marseille","lat":43.311175,"lon":5.377713,"is_reserved":false,"is_disabled":false,"rental_uris":{"android":"levelo://app?vid=65554d33-b508-436a-aac9-544974e5f617","ios":"levelo://app?vid=65554d33-b508-436a-aac9-544974e5f617"},"vehicle_type_id":"4","last_reported":1685761607,"current_range_meters":22800,"station_id":"","pricing_plan_id":"free"},{"bike_id":"5023eae3-c56c-4033-a452-c8445c718f2d","system_id":"levelo_inurba_marseille","lat":43.3111,"lon":5.37774,"is_reserved":false,"is_disabled":false,"rental_uris":{"android":"levelo://app?vid=5023eae3-c56c-4033-a452-c8445c718f2d","ios":"levelo://app?vid=5023eae3-c56c-4033-a452-c8445c718f2d"},"vehicle_type_id":"4","last_reported":1685761607,"current_range_meters":31200,"station_id":"ce4bgt92rcd13ifvqcg0","pricing_plan_id":"free"},{"bike_id":"86503f23-bb3e-4d72-ac0f-65aa1a9bcd26","system_id":"levelo_inurba_marseille","lat":43.30315,"lon":5.36901,"is_reserved":false,"is_disabled":false,"rental_uris":{"android":"levelo://app?vid=86503f23-bb3e-4d72-ac0f-65aa1a9bcd26","ios":"levelo://app?vid=86503f23-bb3e-4d72-ac0f-65aa1a9bcd26"},"vehicle_type_id":"4","last_reported":1685761607,"current_range_meters":0,"station_id":"ce4bgqh2rcd13ifvqc5g","pricing_plan_id":"free"},{"bike_id":"2720c82b-8f58-4e14-b6c7-3659ed4d53b3","system_id":"levelo_inurba_marseille","lat":43.303,"lon":5.36911,"is_reserved":false,"is_disabled":false,"rental_uris":{"android":"levelo://app?vid=2720c82b-8f58-4e14-b6c7-3659ed4d53b3","ios":"levelo://app?vid=2720c82b-8f58-4e14-b6c7-3659ed4d53b3"},"vehicle_type_id":"4","last_reported":1685761607,"current_range_meters":0,"station_id":"ce4bgqh2rcd13ifvqc5g","pricing_plan_id":"free"},{"bike_id":"64668d62-2c56-40da-9e4a-cb84a2c2ea4d","system_id":"levelo_inurba_marseille","lat":43.31002,"lon":5.38021,"is_reserved":false,"is_disabled":false,"rental_uris":{"android":"levelo://app?vid=64668d62-2c56-40da-9e4a-cb84a2c2ea4d","ios":"levelo://app?vid=64668d62-2c56-40da-9e4a-cb84a2c2ea4d"},"vehicle_type_id":"4","last_reported":1685761607,"current_range_meters":0,"station_id":"","pricing_plan_id":"free"},{"bike_id":"3cfa702a-de21-4f5d-88e3-ef1b759f74fd","system_id":"levelo_inurba_marseille","lat":43.30797,"lon":5.38154,"is_reserved":false,"is_disabled":false,"rental_uris":{"android":"levelo://app?vid=3cfa702a-de21-4f5d-88e3-ef1b759f74fd","ios":"levelo://app?vid=3cfa702a-de21-4f5d-88e3-ef1b759f74fd"},"vehicle_type_id":"4","last_reported":1685761607,"current_range_meters":2000,"station_id":"ce4bgt12rcd13ifvqce0","pricing_plan_id":"free"},{"bike_id":"d0d2f117-95b9-484e-9bde-2f761bb31f16","system_id":"levelo_inurba_marseille","lat":43.304606,"lon":5.379026,"is_reserved":false,"is_disabled":false,"rental_uris":{"android":"levelo://app?vid=d0d2f117-95b9-484e-9bde-2f761bb31f16","ios":"levelo://app?vid=d0d2f117-95b9-484e-9bde-2f761bb31f16"},"vehicle_type_id":"4","last_reported":1685761607,"current_range_meters":27600,"station_id":"ce4bgup2rcd13ifvqcn0","pricing_plan_id":"free"},{"bike_id":"fb0501dc-44ad-44c3-a3d1-a124b583b9e2","system_id":"levelo_inurba_marseille","lat":43.304606,"lon":5.379026,"is_reserved":false,"is_disabled":false,"rental_uris":{"android":"levelo://app?vid=fb0501dc-44ad-44c3-a3d1-a124b583b9e2","ios":"levelo://app?vid=fb0501dc-44ad-44c3-a3d1-a124b583b9e2"},"vehicle_type_id":"4","last_reported":1685761607,"current_range_meters":19200,"station_id":"ce4bgup2rcd13ifvqcn0","pricing_plan_id":"free"},{"bike_id":"46ca6b7e-2b8f-4eae-874b-7008be599951","system_id":"levelo_inurba_marseille","lat":43.304606,"lon":5.379026,"is_reserved":false,"is_disabled":false,"rental_uris":{"android":"levelo://app?vid=46ca6b7e-2b8f-4eae-874b-7008be599951","ios":"levelo://app?vid=46ca6b7e-2b8f-4eae-874b-7008be599951"},"vehicle_type_id":"4","last_reported":1685761607,"current_range_meters":11600,"station_id":"ce4bgup2rcd13ifvqcn0","pricing_plan_id":"free"},{"bike_id":"8c3cbb59-cd72-4768-8a58-eb62ab11aad1","system_id":"levelo_inurba_marseille","lat":43.319935,"lon":5.381699,"is_reserved":false,"is_disabled":false,"rental_uris":{"android":"levelo://app?vid=8c3cbb59-cd72-4768-8a58-eb62ab11aad1","ios":"levelo://app?vid=8c3cbb59-cd72-4768-8a58-eb62ab11aad1"},"vehicle_type_id":"4","last_reported":1685761607,"current_range_meters":30400,"station_id":"ce4bhr12rcd13ifvqhpg","pricing_plan_id":"free"},{"bike_id":"ad129339-b339-4ccc-9ee0-2774c8b55114","system_id":"levelo_inurba_marseille","lat":43.319935,"lon":5.381699,"is_reserved":false,"is_disabled":false,"rental_uris":{"android":"levelo://app?vid=ad129339-b339-4ccc-9ee0-2774c8b55114","ios":"levelo://app?vid=ad129339-b339-4ccc-9ee0-2774c8b55114"},"vehicle_type_id":"4","last_reported":1685761607,"current_range_meters":26000,"station_id":"ce4bhr12rcd13ifvqhpg","pricing_plan_id":"free"},{"bike_id":"b6af2cee-22c0-4696-a3cc-c5ab5878f58f","system_id":"levelo_inurba_marseille","lat":43.319935,"lon":5.381699,"is_reserved":false,"is_disabled":false,"rental_uris":{"android":"levelo://app?vid=b6af2cee-22c0-4696-a3cc-c5ab5878f58f","ios":"levelo://app?vid=b6af2cee-22c0-4696-a3cc-c5ab5878f58f"},"vehicle_type_id":"4","last_reported":1685761607,"current_range_meters":29200,"station_id":"ce4bhr12rcd13ifvqhpg","pricing_plan_id":"free"},{"bike_id":"19844b12-0a72-48be-ae38-30f965f518cc","system_id":"levelo_inurba_marseille","lat":43.319935,"lon":5.381699,"is_reserved":false,"is_disabled":false,"rental_uris":{"android":"levelo://app?vid=19844b12-0a72-48be-ae38-30f965f518cc","ios":"levelo://app?vid=19844b12-0a72-48be-ae38-30f965f518cc"},"vehicle_type_id":"4","last_reported":1685761607,"current_range_meters":0,"station_id":"ce4bhr12rcd13ifvqhpg","pricing_plan_id":"free"},{"bike_id":"55979972-1f71-498d-8897-2858e1c0a701","system_id":"levelo_inurba_marseille","lat":43.313571,"lon":5.384829,"is_reserved":false,"is_disabled":false,"rental_uris":{"android":"levelo://app?vid=55979972-1f71-498d-8897-2858e1c0a701","ios":"levelo://app?vid=55979972-1f71-498d-8897-2858e1c0a701"},"vehicle_type_id":"4","last_reported":1685761607,"current_range_meters":4000,"station_id":"ce4bgt92rcd13ifvqcf0","pricing_plan_id":"free"},{"bike_id":"38d71b92-434f-4359-a09b-136bdda3d12a","system_id":"levelo_inurba_marseille","lat":43.313571,"lon":5.384829,"is_reserved":false,"is_disabled":false,"rental_uris":{"android":"levelo://app?vid=38d71b92-434f-4359-a09b-136bdda3d12a","ios":"levelo://app?vid=38d71b92-434f-4359-a09b-136bdda3d12a"},"vehicle_type_id":"4","last_reported":1685761607,"current_range_meters":31200,"station_id":"ce4bgt92rcd13ifvqcf0","pricing_plan_id":"free"},{"bike_id":"8378b03b-6ed0-41b1-8fb0-aadd3fc16f96","system_id":"levelo_inurba_marseille","lat":43.313571,"lon":5.384829,"is_reserved":false,"is_disabled":false,"rental_uris":{"android":"levelo://app?vid=8378b03b-6ed0-41b1-8fb0-aadd3fc16f96","ios":"levelo://app?vid=8378b03b-6ed0-41b1-8fb0-aadd3fc16f96"},"vehicle_type_id":"4","last_reported":1685761607,"current_range_meters":31600,"station_id":"ce4bgt92rcd13ifvqcf0","pricing_plan_id":"free"},{"bike_id":"e215cedf-b29a-4fe6-bc3b-6ab2e078d0b7","system_id":"levelo_inurba_marseille","lat":43.313571,"lon":5.384829,"is_reserved":false,"is_disabled":false,"rental_uris":{"android":"levelo://app?vid=e215cedf-b29a-4fe6-bc3b-6ab2e078d0b7","ios":"levelo://app?vid=e215cedf-b29a-4fe6-bc3b-6ab2e078d0b7"},"vehicle_type_id":"4","last_reported":1685761607,"current_range_meters":31200,"station_id":"ce4bgt92rcd13ifvqcf0","pricing_plan_id":"free"},{"bike_id":"ed727c7f-c08c-4f4a-b3c8-0aec6e852aec","system_id":"levelo_inurba_marseille","lat":43.313571,"lon":5.384829,"is_reserved":false,"is_disabled":false,"rental_uris":{"android":"levelo://app?vid=ed727c7f-c08c-4f4a-b3c8-0aec6e852aec","ios":"levelo://app?vid=ed727c7f-c08c-4f4a-b3c8-0aec6e852aec"},"vehicle_type_id":"4","last_reported":1685761607,"current_range_meters":29600,"station_id":"ce4bgt92rcd13ifvqcf0","pricing_plan_id":"free"},{"bike_id":"548c349e-be6a-4430-b129-e3909ffabcea","system_id":"levelo_inurba_marseille","lat":43.313571,"lon":5.384829,"is_reserved":false,"is_disabled":false,"rental_uris":{"android":"levelo://app?vid=548c349e-be6a-4430-b129-e3909ffabcea","ios":"levelo://app?vid=548c349e-be6a-4430-b129-e3909ffabcea"},"vehicle_type_id":"4","last_reported":1685761607,"current_range_meters":26400,"station_id":"ce4bgt92rcd13ifvqcf0","pricing_plan_id":"free"},{"bike_id":"d1abcb47-b00a-4044-94d5-8d3b71645ada","system_id":"levelo_inurba_marseille","lat":43.31362,"lon":5.38517,"is_reserved":false,"is_disabled":false,"rental_uris":{"android":"levelo://app?vid=d1abcb47-b00a-4044-94d5-8d3b71645ada","ios":"levelo://app?vid=d1abcb47-b00a-4044-94d5-8d3b71645ada"},"vehicle_type_id":"4","last_reported":1685761607,"current_range_meters":5600,"station_id":"ce4bgt92rcd13ifvqcf0","pricing_plan_id":"free"},{"bike_id":"7b1ea533-d13f-4f65-a94b-e7dc2f68832d","system_id":"levelo_inurba_marseille","lat":43.30533,"lon":5.38416,"is_reserved":false,"is_disabled":false,"rental_uris":{"android":"levelo://app?vid=7b1ea533-d13f-4f65-a94b-e7dc2f68832d","ios":"levelo://app?vid=7b1ea533-d13f-4f65-a94b-e7dc2f68832d"},"vehicle_type_id":"4","last_reported":1685761607,"current_range_meters":5600,"station_id":"ce4bgg92rcd13ifvqb30","pricing_plan_id":"free"},{"bike_id":"a4c46eb3-ffaa-4721-a4cd-47f0bcde1c1e","system_id":"levelo_inurba_marseille","lat":43.30535,"lon":5.38437,"is_reserved":false,"is_disabled":false,"rental_uris":{"android":"levelo://app?vid=a4c46eb3-ffaa-4721-a4cd-47f0bcde1c1e","ios":"levelo://app?vid=a4c46eb3-ffaa-4721-a4cd-47f0bcde1c1e"},"vehicle_type_id":"4","last_reported":1685761607,"current_range_meters":0,"station_id":"ce4bgg92rcd13ifvqb30","pricing_plan_id":"free"},{"bike_id":"7d2d61e5-cac9-4d75-8c10-950593915fec","system_id":"levelo_inurba_marseille","lat":43.311722,"lon":5.387247,"is_reserved":false,"is_disabled":false,"rental_uris":{"android":"levelo://app?vid=7d2d61e5-cac9-4d75-8c10-950593915fec","ios":"levelo://app?vid=7d2d61e5-cac9-4d75-8c10-950593915fec"},"vehicle_type_id":"4","last_reported":1685761607,"current_range_meters":1200,"station_id":"ce4bgv12rcd13ifvqcp0","pricing_plan_id":"free"},{"bike_id":"bb1afdce-6205-4534-9905-37b8fd9b0098","system_id":"levelo_inurba_marseille","lat":43.31159,"lon":5.38708,"is_reserved":false,"is_disabled":false,"rental_uris":{"android":"levelo://app?vid=bb1afdce-6205-4534-9905-37b8fd9b0098","ios":"levelo://app?vid=bb1afdce-6205-4534-9905-37b8fd9b0098"},"vehicle_type_id":"4","last_reported":1685761607,"current_range_meters":0,"station_id":"ce4bgv12rcd13ifvqcp0","pricing_plan_id":"free"},{"bike_id":"4fe0a1ea-7adc-4ad8-915d-15b8fb732ced","system_id":"levelo_inurba_marseille","lat":43.311722,"lon":5.387247,"is_reserved":false,"is_disabled":false,"rental_uris":{"android":"levelo://app?vid=4fe0a1ea-7adc-4ad8-915d-15b8fb732ced","ios":"levelo://app?vid=4fe0a1ea-7adc-4ad8-915d-15b8fb732ced"},"vehicle_type_id":"4","last_reported":1685761607,"current_range_meters":24000,"station_id":"ce4bgv12rcd13ifvqcp0","pricing_plan_id":"free"},{"bike_id":"f4f1cdc5-1b2d-4614-a5fe-cfc3a94dfcca","system_id":"levelo_inurba_marseille","lat":43.311722,"lon":5.387247,"is_reserved":false,"is_disabled":false,"rental_uris":{"android":"levelo://app?vid=f4f1cdc5-1b2d-4614-a5fe-cfc3a94dfcca","ios":"levelo://app?vid=f4f1cdc5-1b2d-4614-a5fe-cfc3a94dfcca"},"vehicle_type_id":"4","last_reported":1685761607,"current_range_meters":22000,"station_id":"ce4bgv12rcd13ifvqcp0","pricing_plan_id":"free"},{"bike_id":"9218eb50-2e15-4d89-bdec-df6aad02f773","system_id":"levelo_inurba_marseille","lat":43.29777,"lon":5.37098,"is_reserved":false,"is_disabled":false,"rental_uris":{"android":"levelo://app?vid=9218eb50-2e15-4d89-bdec-df6aad02f773","ios":"levelo://app?vid=9218eb50-2e15-4d89-bdec-df6aad02f773"},"vehicle_type_id":"4","last_reported":1685761607,"current_range_meters":30000,"station_id":"ce4bgop2rcd13ifvqc1g","pricing_plan_id":"free"},{"bike_id":"7652560c-7deb-42f7-934b-ad6212fb0a0d","system_id":"levelo_inurba_marseille","lat":43.328371,"lon":5.366909,"is_reserved":false,"is_disabled":false,"rental_uris":{"android":"levelo://app?vid=7652560c-7deb-42f7-934b-ad6212fb0a0d","ios":"levelo://app?vid=7652560c-7deb-42f7-934b-ad6212fb0a0d"},"vehicle_type_id":"4","last_reported":1685761607,"current_range_meters":17600,"station_id":"ce4bhs92rcd13ifvqi0g","pricing_plan_id":"free"},{"bike_id":"3df85bc5-dfcb-4777-95e4-83da0b168eb3","system_id":"levelo_inurba_marseille","lat":43.328371,"lon":5.366909,"is_reserved":false,"is_disabled":false,"rental_uris":{"android":"levelo://app?vid=3df85bc5-dfcb-4777-95e4-83da0b168eb3","ios":"levelo://app?vid=3df85bc5-dfcb-4777-95e4-83da0b168eb3"},"vehicle_type_id":"4","last_reported":1685761607,"current_range_meters":29200,"station_id":"ce4bhs92rcd13ifvqi0g","pricing_plan_id":"free"},{"bike_id":"048d6a5e-97c9-4f67-bf89-16ecba2081b0","system_id":"levelo_inurba_marseille","lat":43.328371,"lon":5.366909,"is_reserved":false,"is_disabled":false,"rental_uris":{"android":"levelo://app?vid=048d6a5e-97c9-4f67-bf89-16ecba2081b0","ios":"levelo://app?vid=048d6a5e-97c9-4f67-bf89-16ecba2081b0"},"vehicle_type_id":"4","last_reported":1685761607,"current_range_meters":21200,"station_id":"ce4bhs92rcd13ifvqi0g","pricing_plan_id":"free"},{"bike_id":"44461937-e383-441a-8ed9-77517a1c8c2f","system_id":"levelo_inurba_marseille","lat":43.328371,"lon":5.366909,"is_reserved":false,"is_disabled":false,"rental_uris":{"android":"levelo://app?vid=44461937-e383-441a-8ed9-77517a1c8c2f","ios":"levelo://app?vid=44461937-e383-441a-8ed9-77517a1c8c2f"},"vehicle_type_id":"4","last_reported":1685761607,"current_range_meters":19200,"station_id":"ce4bhs92rcd13ifvqi0g","pricing_plan_id":"free"},{"bike_id":"6dab6eca-b352-49ea-add2-026ea7782376","system_id":"levelo_inurba_marseille","lat":43.328371,"lon":5.366909,"is_reserved":false,"is_disabled":false,"rental_uris":{"android":"levelo://app?vid=6dab6eca-b352-49ea-add2-026ea7782376","ios":"levelo://app?vid=6dab6eca-b352-49ea-add2-026ea7782376"},"vehicle_type_id":"4","last_reported":1685761607,"current_range_meters":31200,"station_id":"ce4bhs92rcd13ifvqi0g","pricing_plan_id":"free"},{"bike_id":"73358a4c-93c0-4eda-a88d-776a673cd973","system_id":"levelo_inurba_marseille","lat":43.328371,"lon":5.366909,"is_reserved":false,"is_disabled":false,"rental_uris":{"android":"levelo://app?vid=73358a4c-93c0-4eda-a88d-776a673cd973","ios":"levelo://app?vid=73358a4c-93c0-4eda-a88d-776a673cd973"},"vehicle_type_id":"4","last_reported":1685761607,"current_range_meters":29600,"station_id":"ce4bhs92rcd13ifvqi0g","pricing_plan_id":"free"},{"bike_id":"a803c8dc-a188-4341-a877-7f17dad5bb02","system_id":"levelo_inurba_marseille","lat":43.309589,"lon":5.390258,"is_reserved":false,"is_disabled":false,"rental_uris":{"android":"levelo://app?vid=a803c8dc-a188-4341-a877-7f17dad5bb02","ios":"levelo://app?vid=a803c8dc-a188-4341-a877-7f17dad5bb02"},"vehicle_type_id":"4","last_reported":1685761607,"current_range_meters":30000,"station_id":"ce4bgup2rcd13ifvqco0","pricing_plan_id":"free"},{"bike_id":"11bb5bbc-864c-47e1-9f03-c9c194bd04b3","system_id":"levelo_inurba_marseille","lat":43.31754,"lon":5.39,"is_reserved":false,"is_disabled":false,"rental_uris":{"android":"levelo://app?vid=11bb5bbc-864c-47e1-9f03-c9c194bd04b3","ios":"levelo://app?vid=11bb5bbc-864c-47e1-9f03-c9c194bd04b3"},"vehicle_type_id":"4","last_reported":1685761607,"current_range_meters":23200,"station_id":"ce4bhqp2rcd13ifvqhng","pricing_plan_id":"free"},{"bike_id":"8142fb10-e6f0-4cbd-a950-3089a659608f","system_id":"levelo_inurba_marseille","lat":43.317557,"lon":5.390173,"is_reserved":false,"is_disabled":false,"rental_uris":{"android":"levelo://app?vid=8142fb10-e6f0-4cbd-a950-3089a659608f","ios":"levelo://app?vid=8142fb10-e6f0-4cbd-a950-3089a659608f"},"vehicle_type_id":"4","last_reported":1685761607,"current_range_meters":18400,"station_id":"ce4bhqp2rcd13ifvqhng","pricing_plan_id":"free"},{"bike_id":"62ddb48e-265f-4629-b6fc-70ac1cddb70a","system_id":"levelo_inurba_marseille","lat":43.32367,"lon":5.388836,"is_reserved":false,"is_disabled":false,"rental_uris":{"android":"levelo://app?vid=62ddb48e-265f-4629-b6fc-70ac1cddb70a","ios":"levelo://app?vid=62ddb48e-265f-4629-b6fc-70ac1cddb70a"},"vehicle_type_id":"4","last_reported":1685761607,"current_range_meters":5200,"station_id":"ce4bhqp2rcd13ifvqhog","pricing_plan_id":"free"},{"bike_id":"d321ec47-f166-4381-afa6-7bf9afc7eee8","system_id":"levelo_inurba_marseille","lat":43.32367,"lon":5.388836,"is_reserved":false,"is_disabled":false,"rental_uris":{"android":"levelo://app?vid=d321ec47-f166-4381-afa6-7bf9afc7eee8","ios":"levelo://app?vid=d321ec47-f166-4381-afa6-7bf9afc7eee8"},"vehicle_type_id":"4","last_reported":1685761607,"current_range_meters":26800,"station_id":"ce4bhqp2rcd13ifvqhog","pricing_plan_id":"free"},{"bike_id":"2bf9f571-8ae5-431e-aedf-1c815125cefd","system_id":"levelo_inurba_marseille","lat":43.32356,"lon":5.38878,"is_reserved":false,"is_disabled":false,"rental_uris":{"android":"levelo://app?vid=2bf9f571-8ae5-431e-aedf-1c815125cefd","ios":"levelo://app?vid=2bf9f571-8ae5-431e-aedf-1c815125cefd"},"vehicle_type_id":"4","last_reported":1685761607,"current_range_meters":23600,"station_id":"ce4bhqp2rcd13ifvqhog","pricing_plan_id":"free"},{"bike_id":"90bbfd03-d00c-4933-b38d-99b5da852988","system_id":"levelo_inurba_marseille","lat":43.32367,"lon":5.388836,"is_reserved":false,"is_disabled":false,"rental_uris":{"android":"levelo://app?vid=90bbfd03-d00c-4933-b38d-99b5da852988","ios":"levelo://app?vid=90bbfd03-d00c-4933-b38d-99b5da852988"},"vehicle_type_id":"4","last_reported":1685761607,"current_range_meters":31200,"station_id":"ce4bhqp2rcd13ifvqhog","pricing_plan_id":"free"},{"bike_id":"6fc29a8e-dd3c-4337-a158-4eb59c4b2f33","system_id":"levelo_inurba_marseille","lat":43.32367,"lon":5.388836,"is_reserved":false,"is_disabled":false,"rental_uris":{"android":"levelo://app?vid=6fc29a8e-dd3c-4337-a158-4eb59c4b2f33","ios":"levelo://app?vid=6fc29a8e-dd3c-4337-a158-4eb59c4b2f33"},"vehicle_type_id":"4","last_reported":1685761607,"current_range_meters":13600,"station_id":"ce4bhqp2rcd13ifvqhog","pricing_plan_id":"free"},{"bike_id":"d9b3487e-4661-4b3b-a198-2212de300ca1","system_id":"levelo_inurba_marseille","lat":43.32363,"lon":5.38882,"is_reserved":false,"is_disabled":false,"rental_uris":{"android":"levelo://app?vid=d9b3487e-4661-4b3b-a198-2212de300ca1","ios":"levelo://app?vid=d9b3487e-4661-4b3b-a198-2212de300ca1"},"vehicle_type_id":"4","last_reported":1685761607,"current_range_meters":30400,"station_id":"ce4bhqp2rcd13ifvqhog","pricing_plan_id":"free"},{"bike_id":"c07fe0f2-772a-435f-9629-10108908cbeb","system_id":"levelo_inurba_marseille","lat":43.32367,"lon":5.388836,"is_reserved":false,"is_disabled":false,"rental_uris":{"android":"levelo://app?vid=c07fe0f2-772a-435f-9629-10108908cbeb","ios":"levelo://app?vid=c07fe0f2-772a-435f-9629-10108908cbeb"},"vehicle_type_id":"4","last_reported":1685761607,"current_range_meters":29600,"station_id":"ce4bhqp2rcd13ifvqhog","pricing_plan_id":"free"},{"bike_id":"eb500a68-299c-4bfe-996b-c50aa893b955","system_id":"levelo_inurba_marseille","lat":43.32367,"lon":5.388836,"is_reserved":false,"is_disabled":false,"rental_uris":{"android":"levelo://app?vid=eb500a68-299c-4bfe-996b-c50aa893b955","ios":"levelo://app?vid=eb500a68-299c-4bfe-996b-c50aa893b955"},"vehicle_type_id":"4","last_reported":1685761607,"current_range_meters":15600,"station_id":"ce4bhqp2rcd13ifvqhog","pricing_plan_id":"free"},{"bike_id":"0c7ce3fd-9fe0-458e-9687-20b832dfee04","system_id":"levelo_inurba_marseille","lat":43.32367,"lon":5.388836,"is_reserved":false,"is_disabled":false,"rental_uris":{"android":"levelo://app?vid=0c7ce3fd-9fe0-458e-9687-20b832dfee04","ios":"levelo://app?vid=0c7ce3fd-9fe0-458e-9687-20b832dfee04"},"vehicle_type_id":"4","last_reported":1685761607,"current_range_meters":14800,"station_id":"ce4bhqp2rcd13ifvqhog","pricing_plan_id":"free"},{"bike_id":"a4e81497-a4f4-4443-aea7-f79dae266972","system_id":"levelo_inurba_marseille","lat":43.29302,"lon":5.3745,"is_reserved":false,"is_disabled":false,"rental_uris":{"android":"levelo://app?vid=a4e81497-a4f4-4443-aea7-f79dae266972","ios":"levelo://app?vid=a4e81497-a4f4-4443-aea7-f79dae266972"},"vehicle_type_id":"4","last_reported":1685761607,"current_range_meters":0,"station_id":"ce4bgi12rcd13ifvqb70","pricing_plan_id":"free"},{"bike_id":"c46e3306-9768-4722-974d-7c781c3a2876","system_id":"levelo_inurba_marseille","lat":43.30597,"lon":5.39358,"is_reserved":false,"is_disabled":false,"rental_uris":{"android":"levelo://app?vid=c46e3306-9768-4722-974d-7c781c3a2876","ios":"levelo://app?vid=c46e3306-9768-4722-974d-7c781c3a2876"},"vehicle_type_id":"4","last_reported":1685761607,"current_range_meters":0,"station_id":"ce4bh0p2rcd13ifvqd80","pricing_plan_id":"free"},{"bike_id":"143ba757-3d0f-4011-b834-dedba721bfdd","system_id":"levelo_inurba_marseille","lat":43.29295,"lon":5.37465,"is_reserved":false,"is_disabled":false,"rental_uris":{"android":"levelo://app?vid=143ba757-3d0f-4011-b834-dedba721bfdd","ios":"levelo://app?vid=143ba757-3d0f-4011-b834-dedba721bfdd"},"vehicle_type_id":"4","last_reported":1685761607,"current_range_meters":0,"station_id":"ce4bgi12rcd13ifvqb70","pricing_plan_id":"free"},{"bike_id":"aafbfa7f-2f57-4616-b9e0-1436015e90f6","system_id":"levelo_inurba_marseille","lat":43.29503,"lon":5.38179,"is_reserved":false,"is_disabled":false,"rental_uris":{"android":"levelo://app?vid=aafbfa7f-2f57-4616-b9e0-1436015e90f6","ios":"levelo://app?vid=aafbfa7f-2f57-4616-b9e0-1436015e90f6"},"vehicle_type_id":"4","last_reported":1685761607,"current_range_meters":0,"station_id":"","pricing_plan_id":"free"},{"bike_id":"cbe61411-c3ae-47ae-a0c1-9dfd4d41b8e1","system_id":"levelo_inurba_marseille","lat":43.30289,"lon":5.3921,"is_reserved":false,"is_disabled":false,"rental_uris":{"android":"levelo://app?vid=cbe61411-c3ae-47ae-a0c1-9dfd4d41b8e1","ios":"levelo://app?vid=cbe61411-c3ae-47ae-a0c1-9dfd4d41b8e1"},"vehicle_type_id":"4","last_reported":1685761607,"current_range_meters":0,"station_id":"ce4bgkh2rcd13ifvqbk0","pricing_plan_id":"free"},{"bike_id":"cad8eac9-00ea-41a9-9fd9-74ea50f7b541","system_id":"levelo_inurba_marseille","lat":43.29875,"lon":5.38912,"is_reserved":false,"is_disabled":false,"rental_uris":{"android":"levelo://app?vid=cad8eac9-00ea-41a9-9fd9-74ea50f7b541","ios":"levelo://app?vid=cad8eac9-00ea-41a9-9fd9-74ea50f7b541"},"vehicle_type_id":"4","last_reported":1685761607,"current_range_meters":21600,"station_id":"ce4bh392rcd13ifvqdl0","pricing_plan_id":"free"},{"bike_id":"77a9206c-340e-49a3-82ad-812b1a3050f0","system_id":"levelo_inurba_marseille","lat":43.29866,"lon":5.3891,"is_reserved":false,"is_disabled":false,"rental_uris":{"android":"levelo://app?vid=77a9206c-340e-49a3-82ad-812b1a3050f0","ios":"levelo://app?vid=77a9206c-340e-49a3-82ad-812b1a3050f0"},"vehicle_type_id":"4","last_reported":1685761607,"current_range_meters":0,"station_id":"ce4bh392rcd13ifvqdl0","pricing_plan_id":"free"},{"bike_id":"a721f8db-3315-46ae-b841-8130a7e137c3","system_id":"levelo_inurba_marseille","lat":43.29869,"lon":5.38915,"is_reserved":false,"is_disabled":false,"rental_uris":{"android":"levelo://app?vid=a721f8db-3315-46ae-b841-8130a7e137c3","ios":"levelo://app?vid=a721f8db-3315-46ae-b841-8130a7e137c3"},"vehicle_type_id":"4","last_reported":1685761607,"current_range_meters":0,"station_id":"ce4bh392rcd13ifvqdl0","pricing_plan_id":"free"},{"bike_id":"0ea733ff-4d0a-405d-a8c2-ef10d28e67ba","system_id":"levelo_inurba_marseille","lat":43.31324,"lon":5.39688,"is_reserved":false,"is_disabled":false,"rental_uris":{"android":"levelo://app?vid=0ea733ff-4d0a-405d-a8c2-ef10d28e67ba","ios":"levelo://app?vid=0ea733ff-4d0a-405d-a8c2-ef10d28e67ba"},"vehicle_type_id":"4","last_reported":1685761607,"current_range_meters":13600,"station_id":"ce4bgvp2rcd13ifvqcu0","pricing_plan_id":"free"},{"bike_id":"4c861b9c-27fa-4c22-adeb-eb6cf031204b","system_id":"levelo_inurba_marseille","lat":43.309038,"lon":5.396546,"is_reserved":false,"is_disabled":false,"rental_uris":{"android":"levelo://app?vid=4c861b9c-27fa-4c22-adeb-eb6cf031204b","ios":"levelo://app?vid=4c861b9c-27fa-4c22-adeb-eb6cf031204b"},"vehicle_type_id":"4","last_reported":1685761607,"current_range_meters":14800,"station_id":"ce4bh012rcd13ifvqcv0","pricing_plan_id":"free"},{"bike_id":"d1a6650d-935a-419a-a873-62e13d60b6c2","system_id":"levelo_inurba_marseille","lat":43.309038,"lon":5.396546,"is_reserved":false,"is_disabled":false,"rental_uris":{"android":"levelo://app?vid=d1a6650d-935a-419a-a873-62e13d60b6c2","ios":"levelo://app?vid=d1a6650d-935a-419a-a873-62e13d60b6c2"},"vehicle_type_id":"4","last_reported":1685761607,"current_range_meters":12000,"station_id":"ce4bh012rcd13ifvqcv0","pricing_plan_id":"free"},{"bike_id":"5a660338-3281-43aa-affc-986af7b1f5e7","system_id":"levelo_inurba_marseille","lat":43.31922,"lon":5.39554,"is_reserved":false,"is_disabled":false,"rental_uris":{"android":"levelo://app?vid=5a660338-3281-43aa-affc-986af7b1f5e7","ios":"levelo://app?vid=5a660338-3281-43aa-affc-986af7b1f5e7"},"vehicle_type_id":"4","last_reported":1685761607,"current_range_meters":400,"station_id":"","pricing_plan_id":"free"},{"bike_id":"32f9a4a8-e94c-477d-9f4d-1587098b798e","system_id":"levelo_inurba_marseille","lat":43.31326,"lon":5.39689,"is_reserved":false,"is_disabled":false,"rental_uris":{"android":"levelo://app?vid=32f9a4a8-e94c-477d-9f4d-1587098b798e","ios":"levelo://app?vid=32f9a4a8-e94c-477d-9f4d-1587098b798e"},"vehicle_type_id":"4","last_reported":1685761607,"current_range_meters":2400,"station_id":"ce4bgvp2rcd13ifvqcu0","pricing_plan_id":"free"},{"bike_id":"f8899689-2612-4c53-9348-89f986fbe78d","system_id":"levelo_inurba_marseille","lat":43.291994,"lon":5.357886,"is_reserved":false,"is_disabled":false,"rental_uris":{"android":"levelo://app?vid=f8899689-2612-4c53-9348-89f986fbe78d","ios":"levelo://app?vid=f8899689-2612-4c53-9348-89f986fbe78d"},"vehicle_type_id":"4","last_reported":1685761607,"current_range_meters":23200,"station_id":"ce4bhb12rcd13ifvqel0","pricing_plan_id":"free"},{"bike_id":"e2570e38-a6a6-40bc-9654-bd32bb297228","system_id":"levelo_inurba_marseille","lat":43.309038,"lon":5.396546,"is_reserved":false,"is_disabled":false,"rental_uris":{"android":"levelo://app?vid=e2570e38-a6a6-40bc-9654-bd32bb297228","ios":"levelo://app?vid=e2570e38-a6a6-40bc-9654-bd32bb297228"},"vehicle_type_id":"4","last_reported":1685761607,"current_range_meters":18400,"station_id":"ce4bh012rcd13ifvqcv0","pricing_plan_id":"free"},{"bike_id":"364be6b7-418e-4d7f-9025-d604e6488886","system_id":"levelo_inurba_marseille","lat":43.309038,"lon":5.396546,"is_reserved":false,"is_disabled":false,"rental_uris":{"android":"levelo://app?vid=364be6b7-418e-4d7f-9025-d604e6488886","ios":"levelo://app?vid=364be6b7-418e-4d7f-9025-d604e6488886"},"vehicle_type_id":"4","last_reported":1685761607,"current_range_meters":24000,"station_id":"ce4bh012rcd13ifvqcv0","pricing_plan_id":"free"},{"bike_id":"4358e34b-5910-4761-bd1e-0ec8ea81613c","system_id":"levelo_inurba_marseille","lat":43.313291,"lon":5.396838,"is_reserved":false,"is_disabled":false,"rental_uris":{"android":"levelo://app?vid=4358e34b-5910-4761-bd1e-0ec8ea81613c","ios":"levelo://app?vid=4358e34b-5910-4761-bd1e-0ec8ea81613c"},"vehicle_type_id":"4","last_reported":1685761607,"current_range_meters":0,"station_id":"ce4bgvp2rcd13ifvqcu0","pricing_plan_id":"free"},{"bike_id":"adf8ec18-3a4b-4dcd-803c-846068b7f320","system_id":"levelo_inurba_marseille","lat":43.31322,"lon":5.39696,"is_reserved":false,"is_disabled":false,"rental_uris":{"android":"levelo://app?vid=adf8ec18-3a4b-4dcd-803c-846068b7f320","ios":"levelo://app?vid=adf8ec18-3a4b-4dcd-803c-846068b7f320"},"vehicle_type_id":"4","last_reported":1685761607,"current_range_meters":4000,"station_id":"ce4bgvp2rcd13ifvqcu0","pricing_plan_id":"free"},{"bike_id":"654c442b-68a1-40ec-b4f0-237a22b84156","system_id":"levelo_inurba_marseille","lat":43.31326,"lon":5.39696,"is_reserved":false,"is_disabled":false,"rental_uris":{"android":"levelo://app?vid=654c442b-68a1-40ec-b4f0-237a22b84156","ios":"levelo://app?vid=654c442b-68a1-40ec-b4f0-237a22b84156"},"vehicle_type_id":"4","last_reported":1685761607,"current_range_meters":28400,"station_id":"ce4bgvp2rcd13ifvqcu0","pricing_plan_id":"free"},{"bike_id":"59ff721e-72f2-41a0-8530-1e486b804ac0","system_id":"levelo_inurba_marseille","lat":43.31327,"lon":5.397,"is_reserved":false,"is_disabled":false,"rental_uris":{"android":"levelo://app?vid=59ff721e-72f2-41a0-8530-1e486b804ac0","ios":"levelo://app?vid=59ff721e-72f2-41a0-8530-1e486b804ac0"},"vehicle_type_id":"4","last_reported":1685761607,"current_range_meters":0,"station_id":"ce4bgvp2rcd13ifvqcu0","pricing_plan_id":"free"},{"bike_id":"f9d85423-b698-451a-bb5d-ba6486065bf8","system_id":"levelo_inurba_marseille","lat":43.309038,"lon":5.396546,"is_reserved":false,"is_disabled":false,"rental_uris":{"android":"levelo://app?vid=f9d85423-b698-451a-bb5d-ba6486065bf8","ios":"levelo://app?vid=f9d85423-b698-451a-bb5d-ba6486065bf8"},"vehicle_type_id":"4","last_reported":1685761607,"current_range_meters":12800,"station_id":"ce4bh012rcd13ifvqcv0","pricing_plan_id":"free"},{"bike_id":"bace2ce9-dcb7-4e76-8a13-0eb84a0227ec","system_id":"levelo_inurba_marseille","lat":43.309038,"lon":5.396546,"is_reserved":false,"is_disabled":false,"rental_uris":{"android":"levelo://app?vid=bace2ce9-dcb7-4e76-8a13-0eb84a0227ec","ios":"levelo://app?vid=bace2ce9-dcb7-4e76-8a13-0eb84a0227ec"},"vehicle_type_id":"4","last_reported":1685761607,"current_range_meters":24000,"station_id":"ce4bh012rcd13ifvqcv0","pricing_plan_id":"free"},{"bike_id":"e79598f5-7a3d-4734-8fa1-aa447d4c1019","system_id":"levelo_inurba_marseille","lat":43.313291,"lon":5.396838,"is_reserved":false,"is_disabled":false,"rental_uris":{"android":"levelo://app?vid=e79598f5-7a3d-4734-8fa1-aa447d4c1019","ios":"levelo://app?vid=e79598f5-7a3d-4734-8fa1-aa447d4c1019"},"vehicle_type_id":"4","last_reported":1685761607,"current_range_meters":2400,"station_id":"ce4bgvp2rcd13ifvqcu0","pricing_plan_id":"free"},{"bike_id":"a1d588f9-8125-4a8f-9f59-c1cf1bdc5430","system_id":"levelo_inurba_marseille","lat":43.32824,"lon":5.38897,"is_reserved":false,"is_disabled":false,"rental_uris":{"android":"levelo://app?vid=a1d588f9-8125-4a8f-9f59-c1cf1bdc5430","ios":"levelo://app?vid=a1d588f9-8125-4a8f-9f59-c1cf1bdc5430"},"vehicle_type_id":"4","last_reported":1685761607,"current_range_meters":18800,"station_id":"","pricing_plan_id":"free"},{"bike_id":"5f92bf1d-e4dc-4e37-8318-439e9bd0d389","system_id":"levelo_inurba_marseille","lat":43.302008,"lon":5.394694,"is_reserved":false,"is_disabled":false,"rental_uris":{"android":"levelo://app?vid=5f92bf1d-e4dc-4e37-8318-439e9bd0d389","ios":"levelo://app?vid=5f92bf1d-e4dc-4e37-8318-439e9bd0d389"},"vehicle_type_id":"4","last_reported":1685761607,"current_range_meters":9200,"station_id":"ce4bh0p2rcd13ifvqd70","pricing_plan_id":"free"},{"bike_id":"bc2c1bea-d25d-4588-b050-aef147b60276","system_id":"levelo_inurba_marseille","lat":43.290624,"lon":5.359245,"is_reserved":false,"is_disabled":false,"rental_uris":{"android":"levelo://app?vid=bc2c1bea-d25d-4588-b050-aef147b60276","ios":"levelo://app?vid=bc2c1bea-d25d-4588-b050-aef147b60276"},"vehicle_type_id":"4","last_reported":1685761607,"current_range_meters":26800,"station_id":"ce4bha92rcd13ifvqeg0","pricing_plan_id":"free"},{"bike_id":"6b0fe68c-9e34-4f94-bdb4-e95b0a674df4","system_id":"levelo_inurba_marseille","lat":43.290624,"lon":5.359245,"is_reserved":false,"is_disabled":false,"rental_uris":{"android":"levelo://app?vid=6b0fe68c-9e34-4f94-bdb4-e95b0a674df4","ios":"levelo://app?vid=6b0fe68c-9e34-4f94-bdb4-e95b0a674df4"},"vehicle_type_id":"4","last_reported":1685761607,"current_range_meters":19200,"station_id":"ce4bha92rcd13ifvqeg0","pricing_plan_id":"free"},{"bike_id":"0e1e7373-1c7c-4da4-b6da-af974ebee562","system_id":"levelo_inurba_marseille","lat":43.29039,"lon":5.35919,"is_reserved":false,"is_disabled":false,"rental_uris":{"android":"levelo://app?vid=0e1e7373-1c7c-4da4-b6da-af974ebee562","ios":"levelo://app?vid=0e1e7373-1c7c-4da4-b6da-af974ebee562"},"vehicle_type_id":"4","last_reported":1685761607,"current_range_meters":0,"station_id":"ce4bha92rcd13ifvqeg0","pricing_plan_id":"free"},{"bike_id":"77212865-af0c-42d6-af71-d9902d00955b","system_id":"levelo_inurba_marseille","lat":43.290631,"lon":5.359244,"is_reserved":false,"is_disabled":false,"rental_uris":{"android":"levelo://app?vid=77212865-af0c-42d6-af71-d9902d00955b","ios":"levelo://app?vid=77212865-af0c-42d6-af71-d9902d00955b"},"vehicle_type_id":"4","last_reported":1685761607,"current_range_meters":22800,"station_id":"ce4bha92rcd13ifvqeg0","pricing_plan_id":"free"},{"bike_id":"14b06fec-0565-4e2e-b267-a11f1d1a7d86","system_id":"levelo_inurba_marseille","lat":43.29034,"lon":5.35924,"is_reserved":false,"is_disabled":false,"rental_uris":{"android":"levelo://app?vid=14b06fec-0565-4e2e-b267-a11f1d1a7d86","ios":"levelo://app?vid=14b06fec-0565-4e2e-b267-a11f1d1a7d86"},"vehicle_type_id":"4","last_reported":1685761607,"current_range_meters":0,"station_id":"ce4bha92rcd13ifvqeg0","pricing_plan_id":"free"},{"bike_id":"3fa077bf-e151-4467-afff-0a2382b9f934","system_id":"levelo_inurba_marseille","lat":43.290327,"lon":5.375711,"is_reserved":false,"is_disabled":false,"rental_uris":{"android":"levelo://app?vid=3fa077bf-e151-4467-afff-0a2382b9f934","ios":"levelo://app?vid=3fa077bf-e151-4467-afff-0a2382b9f934"},"vehicle_type_id":"4","last_reported":1685761607,"current_range_meters":30400,"station_id":"ce4bh692rcd13ifvqe90","pricing_plan_id":"free"},{"bike_id":"265a5b39-d76a-4853-898f-c9d72b3d705e","system_id":"levelo_inurba_marseille","lat":43.28948,"lon":5.36395,"is_reserved":false,"is_disabled":false,"rental_uris":{"android":"levelo://app?vid=265a5b39-d76a-4853-898f-c9d72b3d705e","ios":"levelo://app?vid=265a5b39-d76a-4853-898f-c9d72b3d705e"},"vehicle_type_id":"4","last_reported":1685761607,"current_range_meters":0,"station_id":"ce4bhc92rcd13ifvqetg","pricing_plan_id":"free"},{"bike_id":"d2a20312-5c7a-4c61-afa2-731bd42410b3","system_id":"levelo_inurba_marseille","lat":43.289468,"lon":5.363719,"is_reserved":false,"is_disabled":false,"rental_uris":{"android":"levelo://app?vid=d2a20312-5c7a-4c61-afa2-731bd42410b3","ios":"levelo://app?vid=d2a20312-5c7a-4c61-afa2-731bd42410b3"},"vehicle_type_id":"4","last_reported":1685761607,"current_range_meters":30400,"station_id":"ce4bhc92rcd13ifvqetg","pricing_plan_id":"free"},{"bike_id":"b7c04012-c42d-4cab-a47b-c214f084e587","system_id":"levelo_inurba_marseille","lat":43.289184,"lon":5.366408,"is_reserved":false,"is_disabled":false,"rental_uris":{"android":"levelo://app?vid=b7c04012-c42d-4cab-a47b-c214f084e587","ios":"levelo://app?vid=b7c04012-c42d-4cab-a47b-c214f084e587"},"vehicle_type_id":"4","last_reported":1685761607,"current_range_meters":28800,"station_id":"ce4bhap2rcd13ifvqek0","pricing_plan_id":"free"},{"bike_id":"bde2bbb1-6c84-481e-885f-306d8b65c058","system_id":"levelo_inurba_marseille","lat":43.28932,"lon":5.36411,"is_reserved":false,"is_disabled":false,"rental_uris":{"android":"levelo://app?vid=bde2bbb1-6c84-481e-885f-306d8b65c058","ios":"levelo://app?vid=bde2bbb1-6c84-481e-885f-306d8b65c058"},"vehicle_type_id":"4","last_reported":1685761607,"current_range_meters":28400,"station_id":"","pricing_plan_id":"free"},{"bike_id":"caf14b12-989a-487f-b0ad-9f444516cfdc","system_id":"levelo_inurba_marseille","lat":43.289184,"lon":5.366408,"is_reserved":false,"is_disabled":false,"rental_uris":{"android":"levelo://app?vid=caf14b12-989a-487f-b0ad-9f444516cfdc","ios":"levelo://app?vid=caf14b12-989a-487f-b0ad-9f444516cfdc"},"vehicle_type_id":"4","last_reported":1685761607,"current_range_meters":17600,"station_id":"ce4bhap2rcd13ifvqek0","pricing_plan_id":"free"},{"bike_id":"ea060027-2c7b-4c81-a6b0-478f7182cacc","system_id":"levelo_inurba_marseille","lat":43.292732,"lon":5.384388,"is_reserved":false,"is_disabled":false,"rental_uris":{"android":"levelo://app?vid=ea060027-2c7b-4c81-a6b0-478f7182cacc","ios":"levelo://app?vid=ea060027-2c7b-4c81-a6b0-478f7182cacc"},"vehicle_type_id":"4","last_reported":1685761607,"current_range_meters":1200,"station_id":"","pricing_plan_id":"free"},{"bike_id":"a05aa7b2-65ae-4c00-9ac7-36200056da53","system_id":"levelo_inurba_marseille","lat":43.33036,"lon":5.38922,"is_reserved":false,"is_disabled":false,"rental_uris":{"android":"levelo://app?vid=a05aa7b2-65ae-4c00-9ac7-36200056da53","ios":"levelo://app?vid=a05aa7b2-65ae-4c00-9ac7-36200056da53"},"vehicle_type_id":"4","last_reported":1685761607,"current_range_meters":31200,"station_id":"ce4bhr92rcd13ifvqhrg","pricing_plan_id":"free"},{"bike_id":"05f1a2c7-d830-495c-86b8-292585194459","system_id":"levelo_inurba_marseille","lat":43.3304,"lon":5.38919,"is_reserved":false,"is_disabled":false,"rental_uris":{"android":"levelo://app?vid=05f1a2c7-d830-495c-86b8-292585194459","ios":"levelo://app?vid=05f1a2c7-d830-495c-86b8-292585194459"},"vehicle_type_id":"4","last_reported":1685761607,"current_range_meters":24400,"station_id":"ce4bhr92rcd13ifvqhrg","pricing_plan_id":"free"},{"bike_id":"2364282a-cb9d-46e5-8a93-f3855a133753","system_id":"levelo_inurba_marseille","lat":43.330427,"lon":5.38921,"is_reserved":false,"is_disabled":false,"rental_uris":{"android":"levelo://app?vid=2364282a-cb9d-46e5-8a93-f3855a133753","ios":"levelo://app?vid=2364282a-cb9d-46e5-8a93-f3855a133753"},"vehicle_type_id":"4","last_reported":1685761607,"current_range_meters":22000,"station_id":"ce4bhr92rcd13ifvqhrg","pricing_plan_id":"free"},{"bike_id":"879819a1-c605-4a37-9602-3b86caeabb2f","system_id":"levelo_inurba_marseille","lat":43.290103,"lon":5.356114,"is_reserved":false,"is_disabled":false,"rental_uris":{"android":"levelo://app?vid=879819a1-c605-4a37-9602-3b86caeabb2f","ios":"levelo://app?vid=879819a1-c605-4a37-9602-3b86caeabb2f"},"vehicle_type_id":"4","last_reported":1685761607,"current_range_meters":28000,"station_id":"ce4bhb92rcd13ifvqen0","pricing_plan_id":"free"},{"bike_id":"982319b6-81fb-49e9-b8c5-da162418c1ce","system_id":"levelo_inurba_marseille","lat":43.29093,"lon":5.3815,"is_reserved":false,"is_disabled":false,"rental_uris":{"android":"levelo://app?vid=982319b6-81fb-49e9-b8c5-da162418c1ce","ios":"levelo://app?vid=982319b6-81fb-49e9-b8c5-da162418c1ce"},"vehicle_type_id":"4","last_reported":1685761607,"current_range_meters":0,"station_id":"ce4bh512rcd13ifvqe2g","pricing_plan_id":"free"},{"bike_id":"3ca82d25-7d34-4416-8649-066f76d6b877","system_id":"levelo_inurba_marseille","lat":43.290995,"lon":5.381361,"is_reserved":false,"is_disabled":false,"rental_uris":{"android":"levelo://app?vid=3ca82d25-7d34-4416-8649-066f76d6b877","ios":"levelo://app?vid=3ca82d25-7d34-4416-8649-066f76d6b877"},"vehicle_type_id":"4","last_reported":1685761607,"current_range_meters":0,"station_id":"ce4bh512rcd13ifvqe2g","pricing_plan_id":"free"},{"bike_id":"41bfe73d-a34c-4948-abf5-1a220546657a","system_id":"levelo_inurba_marseille","lat":43.2901,"lon":5.381269,"is_reserved":false,"is_disabled":false,"rental_uris":{"android":"levelo://app?vid=41bfe73d-a34c-4948-abf5-1a220546657a","ios":"levelo://app?vid=41bfe73d-a34c-4948-abf5-1a220546657a"},"vehicle_type_id":"4","last_reported":1685761607,"current_range_meters":0,"station_id":"ce4bh4p2rcd13ifvqe1g","pricing_plan_id":"free"},{"bike_id":"6bf9cdc0-5ce1-40ac-b1df-4f7ac0382344","system_id":"levelo_inurba_marseille","lat":43.28856,"lon":5.358371,"is_reserved":false,"is_disabled":false,"rental_uris":{"android":"levelo://app?vid=6bf9cdc0-5ce1-40ac-b1df-4f7ac0382344","ios":"levelo://app?vid=6bf9cdc0-5ce1-40ac-b1df-4f7ac0382344"},"vehicle_type_id":"4","last_reported":1685761607,"current_range_meters":24400,"station_id":"ce4bhb12rcd13ifvqem0","pricing_plan_id":"free"},{"bike_id":"d2d22ada-ab7a-43df-8c6e-c627b2b9b36e","system_id":"levelo_inurba_marseille","lat":43.3093,"lon":5.40145,"is_reserved":false,"is_disabled":false,"rental_uris":{"android":"levelo://app?vid=d2d22ada-ab7a-43df-8c6e-c627b2b9b36e","ios":"levelo://app?vid=d2d22ada-ab7a-43df-8c6e-c627b2b9b36e"},"vehicle_type_id":"4","last_reported":1685761607,"current_range_meters":29600,"station_id":"","pricing_plan_id":"free"},{"bike_id":"1dcaa270-78fa-460e-81ea-78c9a76c8a12","system_id":"levelo_inurba_marseille","lat":43.30924,"lon":5.40144,"is_reserved":false,"is_disabled":false,"rental_uris":{"android":"levelo://app?vid=1dcaa270-78fa-460e-81ea-78c9a76c8a12","ios":"levelo://app?vid=1dcaa270-78fa-460e-81ea-78c9a76c8a12"},"vehicle_type_id":"4","last_reported":1685761607,"current_range_meters":5200,"station_id":"","pricing_plan_id":"free"},{"bike_id":"74170755-7c54-45a9-89d5-000012728d3c","system_id":"levelo_inurba_marseille","lat":43.3065,"lon":5.40075,"is_reserved":false,"is_disabled":false,"rental_uris":{"android":"levelo://app?vid=74170755-7c54-45a9-89d5-000012728d3c","ios":"levelo://app?vid=74170755-7c54-45a9-89d5-000012728d3c"},"vehicle_type_id":"4","last_reported":1685761607,"current_range_meters":0,"station_id":"ce4bh112rcd13ifvqda0","pricing_plan_id":"free"},{"bike_id":"cf0caa37-cec8-408b-98f7-37211a80813c","system_id":"levelo_inurba_marseille","lat":43.33756,"lon":5.37431,"is_reserved":false,"is_disabled":false,"rental_uris":{"android":"levelo://app?vid=cf0caa37-cec8-408b-98f7-37211a80813c","ios":"levelo://app?vid=cf0caa37-cec8-408b-98f7-37211a80813c"},"vehicle_type_id":"4","last_reported":1685761607,"current_range_meters":26000,"station_id":"","pricing_plan_id":"free"},{"bike_id":"108b2cd2-7d0a-4a5b-b439-137f4d50dc15","system_id":"levelo_inurba_marseille","lat":43.30636,"lon":5.40072,"is_reserved":false,"is_disabled":false,"rental_uris":{"android":"levelo://app?vid=108b2cd2-7d0a-4a5b-b439-137f4d50dc15","ios":"levelo://app?vid=108b2cd2-7d0a-4a5b-b439-137f4d50dc15"},"vehicle_type_id":"4","last_reported":1685761607,"current_range_meters":0,"station_id":"ce4bh112rcd13ifvqda0","pricing_plan_id":"free"},{"bike_id":"a7d6869f-0a9c-4078-8ded-78674e9862e5","system_id":"levelo_inurba_marseille","lat":43.30649,"lon":5.40078,"is_reserved":false,"is_disabled":false,"rental_uris":{"android":"levelo://app?vid=a7d6869f-0a9c-4078-8ded-78674e9862e5","ios":"levelo://app?vid=a7d6869f-0a9c-4078-8ded-78674e9862e5"},"vehicle_type_id":"4","last_reported":1685761607,"current_range_meters":23600,"station_id":"ce4bh112rcd13ifvqda0","pricing_plan_id":"free"},{"bike_id":"9d1dcca5-8c40-4357-a3d8-707dd9f3c91e","system_id":"levelo_inurba_marseille","lat":43.3064,"lon":5.40079,"is_reserved":false,"is_disabled":false,"rental_uris":{"android":"levelo://app?vid=9d1dcca5-8c40-4357-a3d8-707dd9f3c91e","ios":"levelo://app?vid=9d1dcca5-8c40-4357-a3d8-707dd9f3c91e"},"vehicle_type_id":"4","last_reported":1685761607,"current_range_meters":17200,"station_id":"ce4bh112rcd13ifvqda0","pricing_plan_id":"free"},{"bike_id":"50b1b457-64ff-454b-ba1d-356e92ae89a8","system_id":"levelo_inurba_marseille","lat":43.33767,"lon":5.37441,"is_reserved":false,"is_disabled":false,"rental_uris":{"android":"levelo://app?vid=50b1b457-64ff-454b-ba1d-356e92ae89a8","ios":"levelo://app?vid=50b1b457-64ff-454b-ba1d-356e92ae89a8"},"vehicle_type_id":"4","last_reported":1685761607,"current_range_meters":26800,"station_id":"","pricing_plan_id":"free"},{"bike_id":"04db4f6d-b7ae-46b9-bccd-df7d2f94aece","system_id":"levelo_inurba_marseille","lat":43.30639,"lon":5.40092,"is_reserved":false,"is_disabled":false,"rental_uris":{"android":"levelo://app?vid=04db4f6d-b7ae-46b9-bccd-df7d2f94aece","ios":"levelo://app?vid=04db4f6d-b7ae-46b9-bccd-df7d2f94aece"},"vehicle_type_id":"4","last_reported":1685761607,"current_range_meters":24800,"station_id":"ce4bh112rcd13ifvqda0","pricing_plan_id":"free"},{"bike_id":"b245fb51-1430-4758-afa5-e403af66f123","system_id":"levelo_inurba_marseille","lat":43.30648,"lon":5.40109,"is_reserved":false,"is_disabled":false,"rental_uris":{"android":"levelo://app?vid=b245fb51-1430-4758-afa5-e403af66f123","ios":"levelo://app?vid=b245fb51-1430-4758-afa5-e403af66f123"},"vehicle_type_id":"4","last_reported":1685761607,"current_range_meters":17200,"station_id":"ce4bh112rcd13ifvqda0","pricing_plan_id":"free"},{"bike_id":"e2341d90-0db1-4378-83c1-846ecbcab342","system_id":"levelo_inurba_marseille","lat":43.301117,"lon":5.398795,"is_reserved":false,"is_disabled":false,"rental_uris":{"android":"levelo://app?vid=e2341d90-0db1-4378-83c1-846ecbcab342","ios":"levelo://app?vid=e2341d90-0db1-4378-83c1-846ecbcab342"},"vehicle_type_id":"4","last_reported":1685761607,"current_range_meters":27600,"station_id":"ce4bh0h2rcd13ifvqd40","pricing_plan_id":"free"},{"bike_id":"789f1bfc-a062-43ff-b409-c09b697a8635","system_id":"levelo_inurba_marseille","lat":43.28709,"lon":5.37389,"is_reserved":false,"is_disabled":false,"rental_uris":{"android":"levelo://app?vid=789f1bfc-a062-43ff-b409-c09b697a8635","ios":"levelo://app?vid=789f1bfc-a062-43ff-b409-c09b697a8635"},"vehicle_type_id":"4","last_reported":1685761607,"current_range_meters":9600,"station_id":"","pricing_plan_id":"free"},{"bike_id":"81c1fbb4-d066-4dcb-9e7b-40872a0d34a9","system_id":"levelo_inurba_marseille","lat":43.298681,"lon":5.397225,"is_reserved":false,"is_disabled":false,"rental_uris":{"android":"levelo://app?vid=81c1fbb4-d066-4dcb-9e7b-40872a0d34a9","ios":"levelo://app?vid=81c1fbb4-d066-4dcb-9e7b-40872a0d34a9"},"vehicle_type_id":"4","last_reported":1685761607,"current_range_meters":11600,"station_id":"ce4bh0h2rcd13ifvqd50","pricing_plan_id":"free"},{"bike_id":"7793fee7-1271-4c83-b3aa-a8cc8be25d1c","system_id":"levelo_inurba_marseille","lat":43.286591,"lon":5.363346,"is_reserved":false,"is_disabled":false,"rental_uris":{"android":"levelo://app?vid=7793fee7-1271-4c83-b3aa-a8cc8be25d1c","ios":"levelo://app?vid=7793fee7-1271-4c83-b3aa-a8cc8be25d1c"},"vehicle_type_id":"4","last_reported":1685761607,"current_range_meters":30400,"station_id":"ce4bhah2rcd13ifvqej0","pricing_plan_id":"free"},{"bike_id":"db52bb1c-2211-4dae-b3e7-6b1f26362294","system_id":"levelo_inurba_marseille","lat":43.298681,"lon":5.397225,"is_reserved":false,"is_disabled":false,"rental_uris":{"android":"levelo://app?vid=db52bb1c-2211-4dae-b3e7-6b1f26362294","ios":"levelo://app?vid=db52bb1c-2211-4dae-b3e7-6b1f26362294"},"vehicle_type_id":"4","last_reported":1685761607,"current_range_meters":18800,"station_id":"ce4bh0h2rcd13ifvqd50","pricing_plan_id":"free"},{"bike_id":"1a377100-9b1f-404f-bdf8-15dc6b0440f8","system_id":"levelo_inurba_marseille","lat":43.286591,"lon":5.363346,"is_reserved":false,"is_disabled":false,"rental_uris":{"android":"levelo://app?vid=1a377100-9b1f-404f-bdf8-15dc6b0440f8","ios":"levelo://app?vid=1a377100-9b1f-404f-bdf8-15dc6b0440f8"},"vehicle_type_id":"4","last_reported":1685761607,"current_range_meters":30000,"station_id":"ce4bhah2rcd13ifvqej0","pricing_plan_id":"free"},{"bike_id":"1837328d-a8c5-4061-a04d-32751cb734b2","system_id":"levelo_inurba_marseille","lat":43.298681,"lon":5.397225,"is_reserved":false,"is_disabled":false,"rental_uris":{"android":"levelo://app?vid=1837328d-a8c5-4061-a04d-32751cb734b2","ios":"levelo://app?vid=1837328d-a8c5-4061-a04d-32751cb734b2"},"vehicle_type_id":"4","last_reported":1685761607,"current_range_meters":28400,"station_id":"ce4bh0h2rcd13ifvqd50","pricing_plan_id":"free"},{"bike_id":"cf38e749-2323-4783-b0d3-4bdad660d2ff","system_id":"levelo_inurba_marseille","lat":43.295196,"lon":5.39397,"is_reserved":false,"is_disabled":false,"rental_uris":{"android":"levelo://app?vid=cf38e749-2323-4783-b0d3-4bdad660d2ff","ios":"levelo://app?vid=cf38e749-2323-4783-b0d3-4bdad660d2ff"},"vehicle_type_id":"4","last_reported":1685761607,"current_range_meters":6800,"station_id":"ce4bh292rcd13ifvqdf0","pricing_plan_id":"free"},{"bike_id":"4afda9b6-5f2e-4924-92d3-5d52197e58f5","system_id":"levelo_inurba_marseille","lat":43.302759,"lon":5.400793,"is_reserved":false,"is_disabled":false,"rental_uris":{"android":"levelo://app?vid=4afda9b6-5f2e-4924-92d3-5d52197e58f5","ios":"levelo://app?vid=4afda9b6-5f2e-4924-92d3-5d52197e58f5"},"vehicle_type_id":"4","last_reported":1685761607,"current_range_meters":27600,"station_id":"ce4bgvh2rcd13ifvqcs0","pricing_plan_id":"free"},{"bike_id":"7340d588-e29b-4544-b055-6f6b20f9af1d","system_id":"levelo_inurba_marseille","lat":43.286039,"lon":5.370679,"is_reserved":false,"is_disabled":false,"rental_uris":{"android":"levelo://app?vid=7340d588-e29b-4544-b055-6f6b20f9af1d","ios":"levelo://app?vid=7340d588-e29b-4544-b055-6f6b20f9af1d"},"vehicle_type_id":"4","last_reported":1685761607,"current_range_meters":0,"station_id":"ce4bht12rcd13ifvqi60","pricing_plan_id":"free"},{"bike_id":"0ba81a56-ff71-45bc-8d6b-1c2faa0ca0a7","system_id":"levelo_inurba_marseille","lat":43.316517,"lon":5.404375,"is_reserved":false,"is_disabled":false,"rental_uris":{"android":"levelo://app?vid=0ba81a56-ff71-45bc-8d6b-1c2faa0ca0a7","ios":"levelo://app?vid=0ba81a56-ff71-45bc-8d6b-1c2faa0ca0a7"},"vehicle_type_id":"4","last_reported":1685761607,"current_range_meters":26800,"station_id":"ce4bh012rcd13ifvqd00","pricing_plan_id":"free"},{"bike_id":"378aae64-ed61-4a8a-ae2d-566810831075","system_id":"levelo_inurba_marseille","lat":43.316517,"lon":5.404375,"is_reserved":false,"is_disabled":false,"rental_uris":{"android":"levelo://app?vid=378aae64-ed61-4a8a-ae2d-566810831075","ios":"levelo://app?vid=378aae64-ed61-4a8a-ae2d-566810831075"},"vehicle_type_id":"4","last_reported":1685761607,"current_range_meters":22000,"station_id":"ce4bh012rcd13ifvqd00","pricing_plan_id":"free"},{"bike_id":"0ab2bb99-5423-4870-b6db-949f0e3d1789","system_id":"levelo_inurba_marseille","lat":43.28463,"lon":5.35892,"is_reserved":false,"is_disabled":false,"rental_uris":{"android":"levelo://app?vid=0ab2bb99-5423-4870-b6db-949f0e3d1789","ios":"levelo://app?vid=0ab2bb99-5423-4870-b6db-949f0e3d1789"},"vehicle_type_id":"4","last_reported":1685761607,"current_range_meters":0,"station_id":"ce4bhah2rcd13ifvqei0","pricing_plan_id":"free"},{"bike_id":"4343154b-e5ef-4aff-ad4c-3b79d2f72d14","system_id":"levelo_inurba_marseille","lat":43.284534,"lon":5.358662,"is_reserved":false,"is_disabled":false,"rental_uris":{"android":"levelo://app?vid=4343154b-e5ef-4aff-ad4c-3b79d2f72d14","ios":"levelo://app?vid=4343154b-e5ef-4aff-ad4c-3b79d2f72d14"},"vehicle_type_id":"4","last_reported":1685761607,"current_range_meters":27600,"station_id":"ce4bhah2rcd13ifvqei0","pricing_plan_id":"free"},{"bike_id":"89f4d5e1-7f22-4bb1-9b09-bea9173bfdbc","system_id":"levelo_inurba_marseille","lat":43.285848,"lon":5.350787,"is_reserved":false,"is_disabled":false,"rental_uris":{"android":"levelo://app?vid=89f4d5e1-7f22-4bb1-9b09-bea9173bfdbc","ios":"levelo://app?vid=89f4d5e1-7f22-4bb1-9b09-bea9173bfdbc"},"vehicle_type_id":"4","last_reported":1685761607,"current_range_meters":0,"station_id":"ce4bhch2rcd13ifvqeug","pricing_plan_id":"free"},{"bike_id":"394beea9-536e-4cd6-ab91-55a9b25ca82b","system_id":"levelo_inurba_marseille","lat":43.28615,"lon":5.35102,"is_reserved":false,"is_disabled":false,"rental_uris":{"android":"levelo://app?vid=394beea9-536e-4cd6-ab91-55a9b25ca82b","ios":"levelo://app?vid=394beea9-536e-4cd6-ab91-55a9b25ca82b"},"vehicle_type_id":"4","last_reported":1685761607,"current_range_meters":0,"station_id":"","pricing_plan_id":"free"},{"bike_id":"0bdbe0fb-8b83-465e-9f7c-6257f822c728","system_id":"levelo_inurba_marseille","lat":43.295713,"lon":5.399639,"is_reserved":false,"is_disabled":false,"rental_uris":{"android":"levelo://app?vid=0bdbe0fb-8b83-465e-9f7c-6257f822c728","ios":"levelo://app?vid=0bdbe0fb-8b83-465e-9f7c-6257f822c728"},"vehicle_type_id":"4","last_reported":1685761607,"current_range_meters":22800,"station_id":"ce4bh312rcd13ifvqdj0","pricing_plan_id":"free"},{"bike_id":"57e70ebc-83b5-47cd-a82e-185211d26555","system_id":"levelo_inurba_marseille","lat":43.295713,"lon":5.399639,"is_reserved":false,"is_disabled":false,"rental_uris":{"android":"levelo://app?vid=57e70ebc-83b5-47cd-a82e-185211d26555","ios":"levelo://app?vid=57e70ebc-83b5-47cd-a82e-185211d26555"},"vehicle_type_id":"4","last_reported":1685761607,"current_range_meters":27600,"station_id":"ce4bh312rcd13ifvqdj0","pricing_plan_id":"free"},{"bike_id":"0a8aba60-b51b-427d-be66-8709066b23d1","system_id":"levelo_inurba_marseille","lat":43.33152,"lon":5.39816,"is_reserved":false,"is_disabled":false,"rental_uris":{"android":"levelo://app?vid=0a8aba60-b51b-427d-be66-8709066b23d1","ios":"levelo://app?vid=0a8aba60-b51b-427d-be66-8709066b23d1"},"vehicle_type_id":"4","last_reported":1685761607,"current_range_meters":30800,"station_id":"","pricing_plan_id":"free"},{"bike_id":"cd447860-480e-4a35-bb25-4e69b16428ca","system_id":"levelo_inurba_marseille","lat":43.286595,"lon":5.386795,"is_reserved":false,"is_disabled":false,"rental_uris":{"android":"levelo://app?vid=cd447860-480e-4a35-bb25-4e69b16428ca","ios":"levelo://app?vid=cd447860-480e-4a35-bb25-4e69b16428ca"},"vehicle_type_id":"4","last_reported":1685761607,"current_range_meters":17200,"station_id":"ce4bh492rcd13ifvqdug","pricing_plan_id":"free"},{"bike_id":"b205e703-9cc6-479d-b47b-dcec15459f4d","system_id":"levelo_inurba_marseille","lat":43.32699,"lon":5.40374,"is_reserved":false,"is_disabled":false,"rental_uris":{"android":"levelo://app?vid=b205e703-9cc6-479d-b47b-dcec15459f4d","ios":"levelo://app?vid=b205e703-9cc6-479d-b47b-dcec15459f4d"},"vehicle_type_id":"4","last_reported":1685761607,"current_range_meters":18800,"station_id":"","pricing_plan_id":"free"},{"bike_id":"0a1605d6-87c9-472d-8606-00b4cb8bcbb4","system_id":"levelo_inurba_marseille","lat":43.323464,"lon":5.406297,"is_reserved":false,"is_disabled":false,"rental_uris":{"android":"levelo://app?vid=0a1605d6-87c9-472d-8606-00b4cb8bcbb4","ios":"levelo://app?vid=0a1605d6-87c9-472d-8606-00b4cb8bcbb4"},"vehicle_type_id":"4","last_reported":1685761607,"current_range_meters":16400,"station_id":"ce4bhq92rcd13ifvqhjg","pricing_plan_id":"free"},{"bike_id":"c6efa6ac-d327-4735-a284-170628c19eab","system_id":"levelo_inurba_marseille","lat":43.323464,"lon":5.406297,"is_reserved":false,"is_disabled":false,"rental_uris":{"android":"levelo://app?vid=c6efa6ac-d327-4735-a284-170628c19eab","ios":"levelo://app?vid=c6efa6ac-d327-4735-a284-170628c19eab"},"vehicle_type_id":"4","last_reported":1685761607,"current_range_meters":27200,"station_id":"ce4bhq92rcd13ifvqhjg","pricing_plan_id":"free"},{"bike_id":"f6a081b5-4909-4ee2-86fd-e67319ff0539","system_id":"levelo_inurba_marseille","lat":43.28477,"lon":5.38419,"is_reserved":false,"is_disabled":false,"rental_uris":{"android":"levelo://app?vid=f6a081b5-4909-4ee2-86fd-e67319ff0539","ios":"levelo://app?vid=f6a081b5-4909-4ee2-86fd-e67319ff0539"},"vehicle_type_id":"4","last_reported":1685761607,"current_range_meters":31200,"station_id":"ce4bh512rcd13ifvqe3g","pricing_plan_id":"free"},{"bike_id":"3bdd1f24-aee9-4ee2-974e-f1a85efce795","system_id":"levelo_inurba_marseille","lat":43.28473,"lon":5.3841,"is_reserved":false,"is_disabled":false,"rental_uris":{"android":"levelo://app?vid=3bdd1f24-aee9-4ee2-974e-f1a85efce795","ios":"levelo://app?vid=3bdd1f24-aee9-4ee2-974e-f1a85efce795"},"vehicle_type_id":"4","last_reported":1685761607,"current_range_meters":31200,"station_id":"ce4bh512rcd13ifvqe3g","pricing_plan_id":"free"},{"bike_id":"d2e36a1e-730e-429d-a6f1-d54132f86127","system_id":"levelo_inurba_marseille","lat":43.28474,"lon":5.38414,"is_reserved":false,"is_disabled":false,"rental_uris":{"android":"levelo://app?vid=d2e36a1e-730e-429d-a6f1-d54132f86127","ios":"levelo://app?vid=d2e36a1e-730e-429d-a6f1-d54132f86127"},"vehicle_type_id":"4","last_reported":1685761607,"current_range_meters":16000,"station_id":"ce4bh512rcd13ifvqe3g","pricing_plan_id":"free"},{"bike_id":"5841b80d-eafb-4e48-b10e-7475683ffd94","system_id":"levelo_inurba_marseille","lat":43.284787,"lon":5.384116,"is_reserved":false,"is_disabled":false,"rental_uris":{"android":"levelo://app?vid=5841b80d-eafb-4e48-b10e-7475683ffd94","ios":"levelo://app?vid=5841b80d-eafb-4e48-b10e-7475683ffd94"},"vehicle_type_id":"4","last_reported":1685761607,"current_range_meters":27600,"station_id":"ce4bh512rcd13ifvqe3g","pricing_plan_id":"free"},{"bike_id":"b786c82d-ca00-41b9-b440-5616f1e72bf5","system_id":"levelo_inurba_marseille","lat":43.284787,"lon":5.384116,"is_reserved":false,"is_disabled":false,"rental_uris":{"android":"levelo://app?vid=b786c82d-ca00-41b9-b440-5616f1e72bf5","ios":"levelo://app?vid=b786c82d-ca00-41b9-b440-5616f1e72bf5"},"vehicle_type_id":"4","last_reported":1685761607,"current_range_meters":14800,"station_id":"ce4bh512rcd13ifvqe3g","pricing_plan_id":"free"},{"bike_id":"a0c66e4e-563c-4d7b-867b-d5ebfb6df470","system_id":"levelo_inurba_marseille","lat":43.284787,"lon":5.384116,"is_reserved":false,"is_disabled":false,"rental_uris":{"android":"levelo://app?vid=a0c66e4e-563c-4d7b-867b-d5ebfb6df470","ios":"levelo://app?vid=a0c66e4e-563c-4d7b-867b-d5ebfb6df470"},"vehicle_type_id":"4","last_reported":1685761607,"current_range_meters":31200,"station_id":"ce4bh512rcd13ifvqe3g","pricing_plan_id":"free"},{"bike_id":"116371d7-297f-4354-b067-2b57f496b55b","system_id":"levelo_inurba_marseille","lat":43.284217,"lon":5.349697,"is_reserved":false,"is_disabled":false,"rental_uris":{"android":"levelo://app?vid=116371d7-297f-4354-b067-2b57f496b55b","ios":"levelo://app?vid=116371d7-297f-4354-b067-2b57f496b55b"},"vehicle_type_id":"4","last_reported":1685761607,"current_range_meters":30800,"station_id":"ce4bhbh2rcd13ifvqepg","pricing_plan_id":"free"},{"bike_id":"1c141bdb-1ff2-4181-a8aa-9d103464648d","system_id":"levelo_inurba_marseille","lat":43.284219,"lon":5.3497,"is_reserved":false,"is_disabled":false,"rental_uris":{"android":"levelo://app?vid=1c141bdb-1ff2-4181-a8aa-9d103464648d","ios":"levelo://app?vid=1c141bdb-1ff2-4181-a8aa-9d103464648d"},"vehicle_type_id":"4","last_reported":1685761607,"current_range_meters":28400,"station_id":"ce4bhbh2rcd13ifvqepg","pricing_plan_id":"free"},{"bike_id":"e8400f1d-d6c8-420c-b84f-2c09c73b50da","system_id":"levelo_inurba_marseille","lat":43.284197,"lon":5.349706,"is_reserved":false,"is_disabled":false,"rental_uris":{"android":"levelo://app?vid=e8400f1d-d6c8-420c-b84f-2c09c73b50da","ios":"levelo://app?vid=e8400f1d-d6c8-420c-b84f-2c09c73b50da"},"vehicle_type_id":"4","last_reported":1685761607,"current_range_meters":31200,"station_id":"ce4bhbh2rcd13ifvqepg","pricing_plan_id":"free"},{"bike_id":"fee7ee8b-9689-499f-bb2f-50348ebe565b","system_id":"levelo_inurba_marseille","lat":43.284187,"lon":5.34971,"is_reserved":false,"is_disabled":false,"rental_uris":{"android":"levelo://app?vid=fee7ee8b-9689-499f-bb2f-50348ebe565b","ios":"levelo://app?vid=fee7ee8b-9689-499f-bb2f-50348ebe565b"},"vehicle_type_id":"4","last_reported":1685761607,"current_range_meters":18800,"station_id":"ce4bhbh2rcd13ifvqepg","pricing_plan_id":"free"},{"bike_id":"2e4799f0-90e8-4707-88e3-52f7ec22618c","system_id":"levelo_inurba_marseille","lat":43.284219,"lon":5.3497,"is_reserved":false,"is_disabled":false,"rental_uris":{"android":"levelo://app?vid=2e4799f0-90e8-4707-88e3-52f7ec22618c","ios":"levelo://app?vid=2e4799f0-90e8-4707-88e3-52f7ec22618c"},"vehicle_type_id":"4","last_reported":1685761607,"current_range_meters":23200,"station_id":"ce4bhbh2rcd13ifvqepg","pricing_plan_id":"free"},{"bike_id":"345e1412-d29b-4efd-befc-106bdaa9e917","system_id":"levelo_inurba_marseille","lat":43.28412,"lon":5.34989,"is_reserved":false,"is_disabled":false,"rental_uris":{"android":"levelo://app?vid=345e1412-d29b-4efd-befc-106bdaa9e917","ios":"levelo://app?vid=345e1412-d29b-4efd-befc-106bdaa9e917"},"vehicle_type_id":"4","last_reported":1685761607,"current_range_meters":31200,"station_id":"ce4bhbh2rcd13ifvqepg","pricing_plan_id":"free"},{"bike_id":"bd2a67e7-d574-4fbf-8dac-f03b83bee552","system_id":"levelo_inurba_marseille","lat":43.284219,"lon":5.3497,"is_reserved":false,"is_disabled":false,"rental_uris":{"android":"levelo://app?vid=bd2a67e7-d574-4fbf-8dac-f03b83bee552","ios":"levelo://app?vid=bd2a67e7-d574-4fbf-8dac-f03b83bee552"},"vehicle_type_id":"4","last_reported":1685761607,"current_range_meters":31200,"station_id":"ce4bhbh2rcd13ifvqepg","pricing_plan_id":"free"},{"bike_id":"bfa5803a-60c1-4d27-8744-bcab9b20e932","system_id":"levelo_inurba_marseille","lat":43.284219,"lon":5.3497,"is_reserved":false,"is_disabled":false,"rental_uris":{"android":"levelo://app?vid=bfa5803a-60c1-4d27-8744-bcab9b20e932","ios":"levelo://app?vid=bfa5803a-60c1-4d27-8744-bcab9b20e932"},"vehicle_type_id":"4","last_reported":1685761607,"current_range_meters":31200,"station_id":"ce4bhbh2rcd13ifvqepg","pricing_plan_id":"free"},{"bike_id":"1b563f93-ce44-435a-b09d-c58c7e4935c9","system_id":"levelo_inurba_marseille","lat":43.282754,"lon":5.350519,"is_reserved":false,"is_disabled":false,"rental_uris":{"android":"levelo://app?vid=1b563f93-ce44-435a-b09d-c58c7e4935c9","ios":"levelo://app?vid=1b563f93-ce44-435a-b09d-c58c7e4935c9"},"vehicle_type_id":"4","last_reported":1685761607,"current_range_meters":30000,"station_id":"ce4bhbp2rcd13ifvqerg","pricing_plan_id":"free"},{"bike_id":"d9094ffc-b805-48a8-95f1-b398f8a4b188","system_id":"levelo_inurba_marseille","lat":43.283502,"lon":5.386471,"is_reserved":false,"is_disabled":false,"rental_uris":{"android":"levelo://app?vid=d9094ffc-b805-48a8-95f1-b398f8a4b188","ios":"levelo://app?vid=d9094ffc-b805-48a8-95f1-b398f8a4b188"},"vehicle_type_id":"4","last_reported":1685761607,"current_range_meters":31200,"station_id":"ce4bh492rcd13ifvqdvg","pricing_plan_id":"free"},{"bike_id":"118c3839-fc49-4ae1-af82-8f1b46070700","system_id":"levelo_inurba_marseille","lat":43.282754,"lon":5.350519,"is_reserved":false,"is_disabled":false,"rental_uris":{"android":"levelo://app?vid=118c3839-fc49-4ae1-af82-8f1b46070700","ios":"levelo://app?vid=118c3839-fc49-4ae1-af82-8f1b46070700"},"vehicle_type_id":"4","last_reported":1685761607,"current_range_meters":31200,"station_id":"ce4bhbp2rcd13ifvqerg","pricing_plan_id":"free"},{"bike_id":"34a779cb-cb8c-4bc1-a1b5-a8ddc7d488c1","system_id":"levelo_inurba_marseille","lat":43.28358,"lon":5.38619,"is_reserved":false,"is_disabled":false,"rental_uris":{"android":"levelo://app?vid=34a779cb-cb8c-4bc1-a1b5-a8ddc7d488c1","ios":"levelo://app?vid=34a779cb-cb8c-4bc1-a1b5-a8ddc7d488c1"},"vehicle_type_id":"4","last_reported":1685761607,"current_range_meters":4000,"station_id":"ce4bh492rcd13ifvqdvg","pricing_plan_id":"free"},{"bike_id":"8af67f3c-edce-4d54-93b0-2ef8111f31fb","system_id":"levelo_inurba_marseille","lat":43.283502,"lon":5.386471,"is_reserved":false,"is_disabled":false,"rental_uris":{"android":"levelo://app?vid=8af67f3c-edce-4d54-93b0-2ef8111f31fb","ios":"levelo://app?vid=8af67f3c-edce-4d54-93b0-2ef8111f31fb"},"vehicle_type_id":"4","last_reported":1685761607,"current_range_meters":31200,"station_id":"ce4bh492rcd13ifvqdvg","pricing_plan_id":"free"},{"bike_id":"f5e963cb-0b70-4204-a060-6eda92bacd49","system_id":"levelo_inurba_marseille","lat":43.282754,"lon":5.350519,"is_reserved":false,"is_disabled":false,"rental_uris":{"android":"levelo://app?vid=f5e963cb-0b70-4204-a060-6eda92bacd49","ios":"levelo://app?vid=f5e963cb-0b70-4204-a060-6eda92bacd49"},"vehicle_type_id":"4","last_reported":1685761607,"current_range_meters":31200,"station_id":"ce4bhbp2rcd13ifvqerg","pricing_plan_id":"free"},{"bike_id":"8447ad29-6da1-4db6-8730-151f1b57a324","system_id":"levelo_inurba_marseille","lat":43.283502,"lon":5.386471,"is_reserved":false,"is_disabled":false,"rental_uris":{"android":"levelo://app?vid=8447ad29-6da1-4db6-8730-151f1b57a324","ios":"levelo://app?vid=8447ad29-6da1-4db6-8730-151f1b57a324"},"vehicle_type_id":"4","last_reported":1685761607,"current_range_meters":31200,"station_id":"ce4bh492rcd13ifvqdvg","pricing_plan_id":"free"},{"bike_id":"69aa1d9f-0e74-4e3a-8cd1-2fcdbcecb51f","system_id":"levelo_inurba_marseille","lat":43.29024,"lon":5.39972,"is_reserved":false,"is_disabled":false,"rental_uris":{"android":"levelo://app?vid=69aa1d9f-0e74-4e3a-8cd1-2fcdbcecb51f","ios":"levelo://app?vid=69aa1d9f-0e74-4e3a-8cd1-2fcdbcecb51f"},"vehicle_type_id":"4","last_reported":1685761607,"current_range_meters":14800,"station_id":"ce4bh392rcd13ifvqdm0","pricing_plan_id":"free"},{"bike_id":"47c54c92-b421-4470-9c69-31c820c185ce","system_id":"levelo_inurba_marseille","lat":43.296263,"lon":5.40601,"is_reserved":false,"is_disabled":false,"rental_uris":{"android":"levelo://app?vid=47c54c92-b421-4470-9c69-31c820c185ce","ios":"levelo://app?vid=47c54c92-b421-4470-9c69-31c820c185ce"},"vehicle_type_id":"4","last_reported":1685761607,"current_range_meters":3600,"station_id":"ce4bh0h2rcd13ifvqd60","pricing_plan_id":"free"},{"bike_id":"a835c3e7-aa81-4010-95d1-13585c54122a","system_id":"levelo_inurba_marseille","lat":43.28097,"lon":5.37847,"is_reserved":false,"is_disabled":false,"rental_uris":{"android":"levelo://app?vid=a835c3e7-aa81-4010-95d1-13585c54122a","ios":"levelo://app?vid=a835c3e7-aa81-4010-95d1-13585c54122a"},"vehicle_type_id":"4","last_reported":1685761607,"current_range_meters":0,"station_id":"ce4bha12rcd13ifvqee0","pricing_plan_id":"free"},{"bike_id":"4a275dc4-a47e-4554-a00b-528f847cf18f","system_id":"levelo_inurba_marseille","lat":43.28449,"lon":5.39193,"is_reserved":false,"is_disabled":false,"rental_uris":{"android":"levelo://app?vid=4a275dc4-a47e-4554-a00b-528f847cf18f","ios":"levelo://app?vid=4a275dc4-a47e-4554-a00b-528f847cf18f"},"vehicle_type_id":"4","last_reported":1685761607,"current_range_meters":23600,"station_id":"ce4bhoh2rcd13ifvqh5g","pricing_plan_id":"free"},{"bike_id":"16d2423e-4c27-4aec-ac55-20f5054e6f02","system_id":"levelo_inurba_marseille","lat":43.284462,"lon":5.392121,"is_reserved":false,"is_disabled":false,"rental_uris":{"android":"levelo://app?vid=16d2423e-4c27-4aec-ac55-20f5054e6f02","ios":"levelo://app?vid=16d2423e-4c27-4aec-ac55-20f5054e6f02"},"vehicle_type_id":"4","last_reported":1685761607,"current_range_meters":28800,"station_id":"ce4bhoh2rcd13ifvqh5g","pricing_plan_id":"free"},{"bike_id":"1ce36bab-f30f-4fe9-b8ad-c23e14f5f432","system_id":"levelo_inurba_marseille","lat":43.284462,"lon":5.392121,"is_reserved":false,"is_disabled":false,"rental_uris":{"android":"levelo://app?vid=1ce36bab-f30f-4fe9-b8ad-c23e14f5f432","ios":"levelo://app?vid=1ce36bab-f30f-4fe9-b8ad-c23e14f5f432"},"vehicle_type_id":"4","last_reported":1685761607,"current_range_meters":29200,"station_id":"ce4bhoh2rcd13ifvqh5g","pricing_plan_id":"free"},{"bike_id":"23f53335-0187-4df0-bb1d-2f9026e266e0","system_id":"levelo_inurba_marseille","lat":43.284462,"lon":5.392121,"is_reserved":false,"is_disabled":false,"rental_uris":{"android":"levelo://app?vid=23f53335-0187-4df0-bb1d-2f9026e266e0","ios":"levelo://app?vid=23f53335-0187-4df0-bb1d-2f9026e266e0"},"vehicle_type_id":"4","last_reported":1685761607,"current_range_meters":31200,"station_id":"ce4bhoh2rcd13ifvqh5g","pricing_plan_id":"free"},{"bike_id":"1575457d-7fd0-4623-aa40-14b7b5c1f96b","system_id":"levelo_inurba_marseille","lat":43.28573,"lon":5.394992,"is_reserved":false,"is_disabled":false,"rental_uris":{"android":"levelo://app?vid=1575457d-7fd0-4623-aa40-14b7b5c1f96b","ios":"levelo://app?vid=1575457d-7fd0-4623-aa40-14b7b5c1f96b"},"vehicle_type_id":"4","last_reported":1685761607,"current_range_meters":28000,"station_id":"ce4bh292rcd13ifvqdg0","pricing_plan_id":"free"},{"bike_id":"ca702cd9-b41f-4146-8bbc-2a4ff0b324b2","system_id":"levelo_inurba_marseille","lat":43.304188,"lon":5.412904,"is_reserved":false,"is_disabled":false,"rental_uris":{"android":"levelo://app?vid=ca702cd9-b41f-4146-8bbc-2a4ff0b324b2","ios":"levelo://app?vid=ca702cd9-b41f-4146-8bbc-2a4ff0b324b2"},"vehicle_type_id":"4","last_reported":1685761607,"current_range_meters":4800,"station_id":"ce4bhop2rcd13ifvqh8g","pricing_plan_id":"free"},{"bike_id":"4e5a2f24-6cff-4b00-b622-2cd1c67427c7","system_id":"levelo_inurba_marseille","lat":43.304188,"lon":5.412904,"is_reserved":false,"is_disabled":false,"rental_uris":{"android":"levelo://app?vid=4e5a2f24-6cff-4b00-b622-2cd1c67427c7","ios":"levelo://app?vid=4e5a2f24-6cff-4b00-b622-2cd1c67427c7"},"vehicle_type_id":"4","last_reported":1685761607,"current_range_meters":2000,"station_id":"ce4bhop2rcd13ifvqh8g","pricing_plan_id":"free"},{"bike_id":"64276e10-ce58-4087-bf84-bf27b35a1165","system_id":"levelo_inurba_marseille","lat":43.304188,"lon":5.412904,"is_reserved":false,"is_disabled":false,"rental_uris":{"android":"levelo://app?vid=64276e10-ce58-4087-bf84-bf27b35a1165","ios":"levelo://app?vid=64276e10-ce58-4087-bf84-bf27b35a1165"},"vehicle_type_id":"4","last_reported":1685761607,"current_range_meters":14800,"station_id":"ce4bhop2rcd13ifvqh8g","pricing_plan_id":"free"},{"bike_id":"4e0ac645-a893-4045-a69f-f7488007fe7a","system_id":"levelo_inurba_marseille","lat":43.304188,"lon":5.412904,"is_reserved":false,"is_disabled":false,"rental_uris":{"android":"levelo://app?vid=4e0ac645-a893-4045-a69f-f7488007fe7a","ios":"levelo://app?vid=4e0ac645-a893-4045-a69f-f7488007fe7a"},"vehicle_type_id":"4","last_reported":1685761607,"current_range_meters":12400,"station_id":"ce4bhop2rcd13ifvqh8g","pricing_plan_id":"free"},{"bike_id":"ecc99947-5ed1-4bd2-84ee-04505db5300d","system_id":"levelo_inurba_marseille","lat":43.27898,"lon":5.38013,"is_reserved":false,"is_disabled":false,"rental_uris":{"android":"levelo://app?vid=ecc99947-5ed1-4bd2-84ee-04505db5300d","ios":"levelo://app?vid=ecc99947-5ed1-4bd2-84ee-04505db5300d"},"vehicle_type_id":"4","last_reported":1685761607,"current_range_meters":3200,"station_id":"","pricing_plan_id":"free"},{"bike_id":"5ba43f0e-9370-401e-a4ac-38da2d243a64","system_id":"levelo_inurba_marseille","lat":43.27894,"lon":5.37999,"is_reserved":false,"is_disabled":false,"rental_uris":{"android":"levelo://app?vid=5ba43f0e-9370-401e-a4ac-38da2d243a64","ios":"levelo://app?vid=5ba43f0e-9370-401e-a4ac-38da2d243a64"},"vehicle_type_id":"4","last_reported":1685761607,"current_range_meters":31200,"station_id":"","pricing_plan_id":"free"},{"bike_id":"0169b86d-240d-466f-9e74-d068ddc8c80b","system_id":"levelo_inurba_marseille","lat":43.27892,"lon":5.38005,"is_reserved":false,"is_disabled":false,"rental_uris":{"android":"levelo://app?vid=0169b86d-240d-466f-9e74-d068ddc8c80b","ios":"levelo://app?vid=0169b86d-240d-466f-9e74-d068ddc8c80b"},"vehicle_type_id":"4","last_reported":1685761607,"current_range_meters":400,"station_id":"","pricing_plan_id":"free"},{"bike_id":"3dca4605-3ca4-4354-8592-64c3ae1e40e4","system_id":"levelo_inurba_marseille","lat":43.320045,"lon":5.415046,"is_reserved":false,"is_disabled":false,"rental_uris":{"android":"levelo://app?vid=3dca4605-3ca4-4354-8592-64c3ae1e40e4","ios":"levelo://app?vid=3dca4605-3ca4-4354-8592-64c3ae1e40e4"},"vehicle_type_id":"4","last_reported":1685761607,"current_range_meters":16000,"station_id":"ce4bhq92rcd13ifvqhkg","pricing_plan_id":"free"},{"bike_id":"3e4b0161-6deb-4f2f-9446-bd5731c1ed2e","system_id":"levelo_inurba_marseille","lat":43.325233,"lon":5.414318,"is_reserved":false,"is_disabled":false,"rental_uris":{"android":"levelo://app?vid=3e4b0161-6deb-4f2f-9446-bd5731c1ed2e","ios":"levelo://app?vid=3e4b0161-6deb-4f2f-9446-bd5731c1ed2e"},"vehicle_type_id":"4","last_reported":1685761607,"current_range_meters":16800,"station_id":"ce4bhq12rcd13ifvqhhg","pricing_plan_id":"free"},{"bike_id":"45ce5223-a02d-445c-b06f-e819e3f2973a","system_id":"levelo_inurba_marseille","lat":43.29258,"lon":5.40915,"is_reserved":false,"is_disabled":false,"rental_uris":{"android":"levelo://app?vid=45ce5223-a02d-445c-b06f-e819e3f2973a","ios":"levelo://app?vid=45ce5223-a02d-445c-b06f-e819e3f2973a"},"vehicle_type_id":"4","last_reported":1685761607,"current_range_meters":0,"station_id":"ce4bh192rcd13ifvqdc0","pricing_plan_id":"free"},{"bike_id":"ac760db4-864b-4443-93ee-7885d1febf13","system_id":"levelo_inurba_marseille","lat":43.292571,"lon":5.409107,"is_reserved":false,"is_disabled":false,"rental_uris":{"android":"levelo://app?vid=ac760db4-864b-4443-93ee-7885d1febf13","ios":"levelo://app?vid=ac760db4-864b-4443-93ee-7885d1febf13"},"vehicle_type_id":"4","last_reported":1685761607,"current_range_meters":20400,"station_id":"ce4bh192rcd13ifvqdc0","pricing_plan_id":"free"},{"bike_id":"7e9b5bce-dc75-43f3-913a-1533e7097042","system_id":"levelo_inurba_marseille","lat":43.292569,"lon":5.409107,"is_reserved":false,"is_disabled":false,"rental_uris":{"android":"levelo://app?vid=7e9b5bce-dc75-43f3-913a-1533e7097042","ios":"levelo://app?vid=7e9b5bce-dc75-43f3-913a-1533e7097042"},"vehicle_type_id":"4","last_reported":1685761607,"current_range_meters":2800,"station_id":"ce4bh192rcd13ifvqdc0","pricing_plan_id":"free"},{"bike_id":"6ad4e901-191c-401f-a468-150fff2d30e2","system_id":"levelo_inurba_marseille","lat":43.27618,"lon":5.361009,"is_reserved":false,"is_disabled":false,"rental_uris":{"android":"levelo://app?vid=6ad4e901-191c-401f-a468-150fff2d30e2","ios":"levelo://app?vid=6ad4e901-191c-401f-a468-150fff2d30e2"},"vehicle_type_id":"4","last_reported":1685761607,"current_range_meters":31200,"station_id":"ce4bgj92rcd13ifvqbe0","pricing_plan_id":"free"},{"bike_id":"3a3fd791-e951-45b9-ad2c-af12ba987ffd","system_id":"levelo_inurba_marseille","lat":43.27618,"lon":5.361009,"is_reserved":false,"is_disabled":false,"rental_uris":{"android":"levelo://app?vid=3a3fd791-e951-45b9-ad2c-af12ba987ffd","ios":"levelo://app?vid=3a3fd791-e951-45b9-ad2c-af12ba987ffd"},"vehicle_type_id":"4","last_reported":1685761607,"current_range_meters":0,"station_id":"ce4bgj92rcd13ifvqbe0","pricing_plan_id":"free"},{"bike_id":"f3b90d2d-2809-41d7-ad6d-41db5b5a7e9d","system_id":"levelo_inurba_marseille","lat":43.292571,"lon":5.409107,"is_reserved":false,"is_disabled":false,"rental_uris":{"android":"levelo://app?vid=f3b90d2d-2809-41d7-ad6d-41db5b5a7e9d","ios":"levelo://app?vid=f3b90d2d-2809-41d7-ad6d-41db5b5a7e9d"},"vehicle_type_id":"4","last_reported":1685761607,"current_range_meters":22400,"station_id":"ce4bh192rcd13ifvqdc0","pricing_plan_id":"free"},{"bike_id":"5fccf78e-1b26-4af2-9d5d-f14aa0074ff6","system_id":"levelo_inurba_marseille","lat":43.27618,"lon":5.361009,"is_reserved":false,"is_disabled":false,"rental_uris":{"android":"levelo://app?vid=5fccf78e-1b26-4af2-9d5d-f14aa0074ff6","ios":"levelo://app?vid=5fccf78e-1b26-4af2-9d5d-f14aa0074ff6"},"vehicle_type_id":"4","last_reported":1685761607,"current_range_meters":13200,"station_id":"ce4bgj92rcd13ifvqbe0","pricing_plan_id":"free"},{"bike_id":"9e702849-8d9b-4edf-8f9b-274639fd1e93","system_id":"levelo_inurba_marseille","lat":43.276179,"lon":5.361009,"is_reserved":false,"is_disabled":false,"rental_uris":{"android":"levelo://app?vid=9e702849-8d9b-4edf-8f9b-274639fd1e93","ios":"levelo://app?vid=9e702849-8d9b-4edf-8f9b-274639fd1e93"},"vehicle_type_id":"4","last_reported":1685761607,"current_range_meters":18400,"station_id":"ce4bgj92rcd13ifvqbe0","pricing_plan_id":"free"},{"bike_id":"3772e999-3ab2-429c-8c74-ebf3c52f7b06","system_id":"levelo_inurba_marseille","lat":43.276179,"lon":5.361009,"is_reserved":false,"is_disabled":false,"rental_uris":{"android":"levelo://app?vid=3772e999-3ab2-429c-8c74-ebf3c52f7b06","ios":"levelo://app?vid=3772e999-3ab2-429c-8c74-ebf3c52f7b06"},"vehicle_type_id":"4","last_reported":1685761607,"current_range_meters":20400,"station_id":"ce4bgj92rcd13ifvqbe0","pricing_plan_id":"free"},{"bike_id":"529e53ba-6fac-427c-8f14-c961e8c57570","system_id":"levelo_inurba_marseille","lat":43.280784,"lon":5.396622,"is_reserved":false,"is_disabled":false,"rental_uris":{"android":"levelo://app?vid=529e53ba-6fac-427c-8f14-c961e8c57570","ios":"levelo://app?vid=529e53ba-6fac-427c-8f14-c961e8c57570"},"vehicle_type_id":"4","last_reported":1685761607,"current_range_meters":10000,"station_id":"ce4bho12rcd13ifvqh2g","pricing_plan_id":"free"},{"bike_id":"67b6e695-a581-409f-8849-f21aacb3b38b","system_id":"levelo_inurba_marseille","lat":43.303837,"lon":5.418724,"is_reserved":false,"is_disabled":false,"rental_uris":{"android":"levelo://app?vid=67b6e695-a581-409f-8849-f21aacb3b38b","ios":"levelo://app?vid=67b6e695-a581-409f-8849-f21aacb3b38b"},"vehicle_type_id":"4","last_reported":1685761607,"current_range_meters":0,"station_id":"ce4bhop2rcd13ifvqh7g","pricing_plan_id":"free"},{"bike_id":"cb3bb1c8-6484-472f-b262-1553f46b0d97","system_id":"levelo_inurba_marseille","lat":43.28049,"lon":5.39688,"is_reserved":false,"is_disabled":false,"rental_uris":{"android":"levelo://app?vid=cb3bb1c8-6484-472f-b262-1553f46b0d97","ios":"levelo://app?vid=cb3bb1c8-6484-472f-b262-1553f46b0d97"},"vehicle_type_id":"4","last_reported":1685761607,"current_range_meters":0,"station_id":"","pricing_plan_id":"free"},{"bike_id":"37d48500-cea3-4426-9436-71e6649ad260","system_id":"levelo_inurba_marseille","lat":43.278401,"lon":5.392152,"is_reserved":false,"is_disabled":false,"rental_uris":{"android":"levelo://app?vid=37d48500-cea3-4426-9436-71e6649ad260","ios":"levelo://app?vid=37d48500-cea3-4426-9436-71e6649ad260"},"vehicle_type_id":"4","last_reported":1685761607,"current_range_meters":31200,"station_id":"ce4bhjp2rcd13ifvqga0","pricing_plan_id":"free"},{"bike_id":"476ffef8-2d82-4cae-bdef-f16f8c4a7609","system_id":"levelo_inurba_marseille","lat":43.278401,"lon":5.392152,"is_reserved":false,"is_disabled":false,"rental_uris":{"android":"levelo://app?vid=476ffef8-2d82-4cae-bdef-f16f8c4a7609","ios":"levelo://app?vid=476ffef8-2d82-4cae-bdef-f16f8c4a7609"},"vehicle_type_id":"4","last_reported":1685761607,"current_range_meters":11200,"station_id":"ce4bhjp2rcd13ifvqga0","pricing_plan_id":"free"},{"bike_id":"58e206d3-dff7-4eb6-99c0-9d27a0184883","system_id":"levelo_inurba_marseille","lat":43.33612,"lon":5.410321,"is_reserved":false,"is_disabled":false,"rental_uris":{"android":"levelo://app?vid=58e206d3-dff7-4eb6-99c0-9d27a0184883","ios":"levelo://app?vid=58e206d3-dff7-4eb6-99c0-9d27a0184883"},"vehicle_type_id":"4","last_reported":1685761607,"current_range_meters":29200,"station_id":"ce4bhqh2rcd13ifvqhmg","pricing_plan_id":"free"},{"bike_id":"f653acbd-b282-457f-ae95-6dfeee7a687e","system_id":"levelo_inurba_marseille","lat":43.336134,"lon":5.410341,"is_reserved":false,"is_disabled":false,"rental_uris":{"android":"levelo://app?vid=f653acbd-b282-457f-ae95-6dfeee7a687e","ios":"levelo://app?vid=f653acbd-b282-457f-ae95-6dfeee7a687e"},"vehicle_type_id":"4","last_reported":1685761607,"current_range_meters":30000,"station_id":"ce4bhqh2rcd13ifvqhmg","pricing_plan_id":"free"},{"bike_id":"b788d885-8749-43c2-8fc2-f6662e04a807","system_id":"levelo_inurba_marseille","lat":43.336134,"lon":5.410341,"is_reserved":false,"is_disabled":false,"rental_uris":{"android":"levelo://app?vid=b788d885-8749-43c2-8fc2-f6662e04a807","ios":"levelo://app?vid=b788d885-8749-43c2-8fc2-f6662e04a807"},"vehicle_type_id":"4","last_reported":1685761607,"current_range_meters":30400,"station_id":"ce4bhqh2rcd13ifvqhmg","pricing_plan_id":"free"},{"bike_id":"6e8d25ee-59c4-4f91-b18a-b8bc2708fac2","system_id":"levelo_inurba_marseille","lat":43.33612,"lon":5.410321,"is_reserved":false,"is_disabled":false,"rental_uris":{"android":"levelo://app?vid=6e8d25ee-59c4-4f91-b18a-b8bc2708fac2","ios":"levelo://app?vid=6e8d25ee-59c4-4f91-b18a-b8bc2708fac2"},"vehicle_type_id":"4","last_reported":1685761607,"current_range_meters":29600,"station_id":"ce4bhqh2rcd13ifvqhmg","pricing_plan_id":"free"},{"bike_id":"d1080f81-9034-4cc6-a264-20404d1c636f","system_id":"levelo_inurba_marseille","lat":43.336134,"lon":5.410341,"is_reserved":false,"is_disabled":false,"rental_uris":{"android":"levelo://app?vid=d1080f81-9034-4cc6-a264-20404d1c636f","ios":"levelo://app?vid=d1080f81-9034-4cc6-a264-20404d1c636f"},"vehicle_type_id":"4","last_reported":1685761607,"current_range_meters":31200,"station_id":"ce4bhqh2rcd13ifvqhmg","pricing_plan_id":"free"},{"bike_id":"33323811-1811-4155-be3b-709e5192144b","system_id":"levelo_inurba_marseille","lat":43.317121,"lon":5.423936,"is_reserved":false,"is_disabled":false,"rental_uris":{"android":"levelo://app?vid=33323811-1811-4155-be3b-709e5192144b","ios":"levelo://app?vid=33323811-1811-4155-be3b-709e5192144b"},"vehicle_type_id":"4","last_reported":1685761607,"current_range_meters":30000,"station_id":"ce4bhp92rcd13ifvqhbg","pricing_plan_id":"free"},{"bike_id":"9db9545d-f63d-42be-a674-9c25625f916b","system_id":"levelo_inurba_marseille","lat":43.29387,"lon":5.41928,"is_reserved":false,"is_disabled":false,"rental_uris":{"android":"levelo://app?vid=9db9545d-f63d-42be-a674-9c25625f916b","ios":"levelo://app?vid=9db9545d-f63d-42be-a674-9c25625f916b"},"vehicle_type_id":"4","last_reported":1685761607,"current_range_meters":14000,"station_id":"","pricing_plan_id":"free"},{"bike_id":"3689be65-5976-4156-b7e7-93b3498102f5","system_id":"levelo_inurba_marseille","lat":43.304088,"lon":5.425388,"is_reserved":false,"is_disabled":false,"rental_uris":{"android":"levelo://app?vid=3689be65-5976-4156-b7e7-93b3498102f5","ios":"levelo://app?vid=3689be65-5976-4156-b7e7-93b3498102f5"},"vehicle_type_id":"4","last_reported":1685761607,"current_range_meters":0,"station_id":"ce4bhoh2rcd13ifvqh6g","pricing_plan_id":"free"},{"bike_id":"28e28263-1e4a-4307-9d03-c0b5eaba4031","system_id":"levelo_inurba_marseille","lat":43.295523,"lon":5.422926,"is_reserved":false,"is_disabled":false,"rental_uris":{"android":"levelo://app?vid=28e28263-1e4a-4307-9d03-c0b5eaba4031","ios":"levelo://app?vid=28e28263-1e4a-4307-9d03-c0b5eaba4031"},"vehicle_type_id":"4","last_reported":1685761607,"current_range_meters":24800,"station_id":"ce4bhph2rcd13ifvqhdg","pricing_plan_id":"free"},{"bike_id":"416e1ca4-de22-45fe-95a9-cdb913e6f814","system_id":"levelo_inurba_marseille","lat":43.272116,"lon":5.391747,"is_reserved":false,"is_disabled":false,"rental_uris":{"android":"levelo://app?vid=416e1ca4-de22-45fe-95a9-cdb913e6f814","ios":"levelo://app?vid=416e1ca4-de22-45fe-95a9-cdb913e6f814"},"vehicle_type_id":"4","last_reported":1685761607,"current_range_meters":28000,"station_id":"ce4bhhp2rcd13ifvqfm0","pricing_plan_id":"free"},{"bike_id":"926f23b0-18fc-4b97-ad0e-502ddda0da62","system_id":"levelo_inurba_marseille","lat":43.278128,"lon":5.407195,"is_reserved":false,"is_disabled":false,"rental_uris":{"android":"levelo://app?vid=926f23b0-18fc-4b97-ad0e-502ddda0da62","ios":"levelo://app?vid=926f23b0-18fc-4b97-ad0e-502ddda0da62"},"vehicle_type_id":"4","last_reported":1685761607,"current_range_meters":23600,"station_id":"ce4bhnh2rcd13ifvqgtg","pricing_plan_id":"free"},{"bike_id":"1ef23e2a-b635-4d3f-9cfa-9e76e6451d37","system_id":"levelo_inurba_marseille","lat":43.278128,"lon":5.407195,"is_reserved":false,"is_disabled":false,"rental_uris":{"android":"levelo://app?vid=1ef23e2a-b635-4d3f-9cfa-9e76e6451d37","ios":"levelo://app?vid=1ef23e2a-b635-4d3f-9cfa-9e76e6451d37"},"vehicle_type_id":"4","last_reported":1685761607,"current_range_meters":0,"station_id":"ce4bhnh2rcd13ifvqgtg","pricing_plan_id":"free"},{"bike_id":"df4f2d3c-a30c-45fa-989b-bc0b2088b389","system_id":"levelo_inurba_marseille","lat":43.278128,"lon":5.407195,"is_reserved":false,"is_disabled":false,"rental_uris":{"android":"levelo://app?vid=df4f2d3c-a30c-45fa-989b-bc0b2088b389","ios":"levelo://app?vid=df4f2d3c-a30c-45fa-989b-bc0b2088b389"},"vehicle_type_id":"4","last_reported":1685761607,"current_range_meters":0,"station_id":"ce4bhnh2rcd13ifvqgtg","pricing_plan_id":"free"},{"bike_id":"f6ea13a3-d356-42c2-af23-0d5b98deb0c4","system_id":"levelo_inurba_marseille","lat":43.26954,"lon":5.38633,"is_reserved":false,"is_disabled":false,"rental_uris":{"android":"levelo://app?vid=f6ea13a3-d356-42c2-af23-0d5b98deb0c4","ios":"levelo://app?vid=f6ea13a3-d356-42c2-af23-0d5b98deb0c4"},"vehicle_type_id":"4","last_reported":1685761607,"current_range_meters":21600,"station_id":"ce4bhh92rcd13ifvqfh0","pricing_plan_id":"free"},{"bike_id":"13c5750c-ab02-4b84-aaaf-438240a826ea","system_id":"levelo_inurba_marseille","lat":43.265714,"lon":5.372891,"is_reserved":false,"is_disabled":false,"rental_uris":{"android":"levelo://app?vid=13c5750c-ab02-4b84-aaaf-438240a826ea","ios":"levelo://app?vid=13c5750c-ab02-4b84-aaaf-438240a826ea"},"vehicle_type_id":"4","last_reported":1685761607,"current_range_meters":29600,"station_id":"ce4bhg12rcd13ifvqf70","pricing_plan_id":"free"},{"bike_id":"aa65ffa8-39de-49fb-9968-335dd7261f08","system_id":"levelo_inurba_marseille","lat":43.265714,"lon":5.372891,"is_reserved":false,"is_disabled":false,"rental_uris":{"android":"levelo://app?vid=aa65ffa8-39de-49fb-9968-335dd7261f08","ios":"levelo://app?vid=aa65ffa8-39de-49fb-9968-335dd7261f08"},"vehicle_type_id":"4","last_reported":1685761607,"current_range_meters":30800,"station_id":"ce4bhg12rcd13ifvqf70","pricing_plan_id":"free"},{"bike_id":"c6cb5599-e718-4af4-8c4b-4d1deb710381","system_id":"levelo_inurba_marseille","lat":43.265714,"lon":5.372891,"is_reserved":false,"is_disabled":false,"rental_uris":{"android":"levelo://app?vid=c6cb5599-e718-4af4-8c4b-4d1deb710381","ios":"levelo://app?vid=c6cb5599-e718-4af4-8c4b-4d1deb710381"},"vehicle_type_id":"4","last_reported":1685761607,"current_range_meters":31200,"station_id":"ce4bhg12rcd13ifvqf70","pricing_plan_id":"free"},{"bike_id":"477c9b24-a1bd-4af2-9e3a-7a10b9af13d1","system_id":"levelo_inurba_marseille","lat":43.3171,"lon":5.43313,"is_reserved":false,"is_disabled":false,"rental_uris":{"android":"levelo://app?vid=477c9b24-a1bd-4af2-9e3a-7a10b9af13d1","ios":"levelo://app?vid=477c9b24-a1bd-4af2-9e3a-7a10b9af13d1"},"vehicle_type_id":"4","last_reported":1685761607,"current_range_meters":0,"station_id":"","pricing_plan_id":"free"},{"bike_id":"1d0d511f-c782-4696-a46d-da0ac58e0f0f","system_id":"levelo_inurba_marseille","lat":43.27988,"lon":5.41663,"is_reserved":false,"is_disabled":false,"rental_uris":{"android":"levelo://app?vid=1d0d511f-c782-4696-a46d-da0ac58e0f0f","ios":"levelo://app?vid=1d0d511f-c782-4696-a46d-da0ac58e0f0f"},"vehicle_type_id":"4","last_reported":1685761607,"current_range_meters":23200,"station_id":"ce4bho12rcd13ifvqh1g","pricing_plan_id":"free"},{"bike_id":"0413880f-7cae-4537-b4d7-0998a658ece4","system_id":"levelo_inurba_marseille","lat":43.27986,"lon":5.41661,"is_reserved":false,"is_disabled":false,"rental_uris":{"android":"levelo://app?vid=0413880f-7cae-4537-b4d7-0998a658ece4","ios":"levelo://app?vid=0413880f-7cae-4537-b4d7-0998a658ece4"},"vehicle_type_id":"4","last_reported":1685761607,"current_range_meters":14000,"station_id":"ce4bho12rcd13ifvqh1g","pricing_plan_id":"free"},{"bike_id":"13d2b631-42e8-471d-bd10-78f10c8555a9","system_id":"levelo_inurba_marseille","lat":43.27982,"lon":5.4166,"is_reserved":false,"is_disabled":false,"rental_uris":{"android":"levelo://app?vid=13d2b631-42e8-471d-bd10-78f10c8555a9","ios":"levelo://app?vid=13d2b631-42e8-471d-bd10-78f10c8555a9"},"vehicle_type_id":"4","last_reported":1685761607,"current_range_meters":23600,"station_id":"ce4bho12rcd13ifvqh1g","pricing_plan_id":"free"},{"bike_id":"da3875d0-cc4f-410b-b218-407758853462","system_id":"levelo_inurba_marseille","lat":43.267966,"lon":5.393976,"is_reserved":false,"is_disabled":false,"rental_uris":{"android":"levelo://app?vid=da3875d0-cc4f-410b-b218-407758853462","ios":"levelo://app?vid=da3875d0-cc4f-410b-b218-407758853462"},"vehicle_type_id":"4","last_reported":1685761607,"current_range_meters":29200,"station_id":"ce4bhh12rcd13ifvqfg0","pricing_plan_id":"free"},{"bike_id":"26e1ac57-a65a-48de-b4e4-bcfc0b364a7a","system_id":"levelo_inurba_marseille","lat":43.30803,"lon":5.43527,"is_reserved":false,"is_disabled":false,"rental_uris":{"android":"levelo://app?vid=26e1ac57-a65a-48de-b4e4-bcfc0b364a7a","ios":"levelo://app?vid=26e1ac57-a65a-48de-b4e4-bcfc0b364a7a"},"vehicle_type_id":"4","last_reported":1685761607,"current_range_meters":4400,"station_id":"","pricing_plan_id":"free"},{"bike_id":"cd7a9840-b4ec-472a-bfc6-4cdac4a6cf80","system_id":"levelo_inurba_marseille","lat":43.26575,"lon":5.39021,"is_reserved":false,"is_disabled":false,"rental_uris":{"android":"levelo://app?vid=cd7a9840-b4ec-472a-bfc6-4cdac4a6cf80","ios":"levelo://app?vid=cd7a9840-b4ec-472a-bfc6-4cdac4a6cf80"},"vehicle_type_id":"4","last_reported":1685761607,"current_range_meters":25200,"station_id":"ce4bhe12rcd13ifvqf30","pricing_plan_id":"free"},{"bike_id":"b1d81f0f-d90e-49a8-b6a4-0e6420be4a3b","system_id":"levelo_inurba_marseille","lat":43.26566,"lon":5.39015,"is_reserved":false,"is_disabled":false,"rental_uris":{"android":"levelo://app?vid=b1d81f0f-d90e-49a8-b6a4-0e6420be4a3b","ios":"levelo://app?vid=b1d81f0f-d90e-49a8-b6a4-0e6420be4a3b"},"vehicle_type_id":"4","last_reported":1685761607,"current_range_meters":11200,"station_id":"ce4bhe12rcd13ifvqf30","pricing_plan_id":"free"},{"bike_id":"945a03ca-e4eb-4a59-93b7-2e44eff798dc","system_id":"levelo_inurba_marseille","lat":43.31708,"lon":5.43708,"is_reserved":false,"is_disabled":false,"rental_uris":{"android":"levelo://app?vid=945a03ca-e4eb-4a59-93b7-2e44eff798dc","ios":"levelo://app?vid=945a03ca-e4eb-4a59-93b7-2e44eff798dc"},"vehicle_type_id":"4","last_reported":1685761607,"current_range_meters":22800,"station_id":"ce4bhp92rcd13ifvqhcg","pricing_plan_id":"free"},{"bike_id":"89665d95-5c70-493b-9e56-3369f434e891","system_id":"levelo_inurba_marseille","lat":43.317,"lon":5.43709,"is_reserved":false,"is_disabled":false,"rental_uris":{"android":"levelo://app?vid=89665d95-5c70-493b-9e56-3369f434e891","ios":"levelo://app?vid=89665d95-5c70-493b-9e56-3369f434e891"},"vehicle_type_id":"4","last_reported":1685761607,"current_range_meters":29600,"station_id":"ce4bhp92rcd13ifvqhcg","pricing_plan_id":"free"},{"bike_id":"a017bfd0-2849-4e5c-8e7f-a158cda80a99","system_id":"levelo_inurba_marseille","lat":43.271368,"lon":5.40928,"is_reserved":false,"is_disabled":false,"rental_uris":{"android":"levelo://app?vid=a017bfd0-2849-4e5c-8e7f-a158cda80a99","ios":"levelo://app?vid=a017bfd0-2849-4e5c-8e7f-a158cda80a99"},"vehicle_type_id":"4","last_reported":1685761607,"current_range_meters":28400,"station_id":"ce4bhl12rcd13ifvqgf0","pricing_plan_id":"free"},{"bike_id":"d5f01143-a43f-4b8e-8f88-c28161207266","system_id":"levelo_inurba_marseille","lat":43.267959,"lon":5.402687,"is_reserved":false,"is_disabled":false,"rental_uris":{"android":"levelo://app?vid=d5f01143-a43f-4b8e-8f88-c28161207266","ios":"levelo://app?vid=d5f01143-a43f-4b8e-8f88-c28161207266"},"vehicle_type_id":"4","last_reported":1685761607,"current_range_meters":26800,"station_id":"ce501612rcd8frsf0b60","pricing_plan_id":"free"},{"bike_id":"b575e143-7b0f-4603-ab2a-639b43781b49","system_id":"levelo_inurba_marseille","lat":43.267959,"lon":5.402687,"is_reserved":false,"is_disabled":false,"rental_uris":{"android":"levelo://app?vid=b575e143-7b0f-4603-ab2a-639b43781b49","ios":"levelo://app?vid=b575e143-7b0f-4603-ab2a-639b43781b49"},"vehicle_type_id":"4","last_reported":1685761607,"current_range_meters":30400,"station_id":"ce501612rcd8frsf0b60","pricing_plan_id":"free"},{"bike_id":"ac0c0bc3-b399-4c3f-950f-5eaba987d79e","system_id":"levelo_inurba_marseille","lat":43.267959,"lon":5.402687,"is_reserved":false,"is_disabled":false,"rental_uris":{"android":"levelo://app?vid=ac0c0bc3-b399-4c3f-950f-5eaba987d79e","ios":"levelo://app?vid=ac0c0bc3-b399-4c3f-950f-5eaba987d79e"},"vehicle_type_id":"4","last_reported":1685761607,"current_range_meters":27200,"station_id":"ce501612rcd8frsf0b60","pricing_plan_id":"free"},{"bike_id":"3fe46149-ecdd-41d9-9b4a-c895379736cc","system_id":"levelo_inurba_marseille","lat":43.267959,"lon":5.402687,"is_reserved":false,"is_disabled":false,"rental_uris":{"android":"levelo://app?vid=3fe46149-ecdd-41d9-9b4a-c895379736cc","ios":"levelo://app?vid=3fe46149-ecdd-41d9-9b4a-c895379736cc"},"vehicle_type_id":"4","last_reported":1685761607,"current_range_meters":14400,"station_id":"ce501612rcd8frsf0b60","pricing_plan_id":"free"},{"bike_id":"17c46147-9991-4b94-801e-664a03a22e73","system_id":"levelo_inurba_marseille","lat":43.29886,"lon":5.43677,"is_reserved":false,"is_disabled":false,"rental_uris":{"android":"levelo://app?vid=17c46147-9991-4b94-801e-664a03a22e73","ios":"levelo://app?vid=17c46147-9991-4b94-801e-664a03a22e73"},"vehicle_type_id":"4","last_reported":1685761607,"current_range_meters":5600,"station_id":"","pricing_plan_id":"free"},{"bike_id":"855a326d-4a12-471c-887d-8179fee3e0fc","system_id":"levelo_inurba_marseille","lat":43.260909,"lon":5.397591,"is_reserved":false,"is_disabled":false,"rental_uris":{"android":"levelo://app?vid=855a326d-4a12-471c-887d-8179fee3e0fc","ios":"levelo://app?vid=855a326d-4a12-471c-887d-8179fee3e0fc"},"vehicle_type_id":"4","last_reported":1685761607,"current_range_meters":20800,"station_id":"ce4bhi12rcd13ifvqfq0","pricing_plan_id":"free"},{"bike_id":"e800820f-0dc8-43ff-997c-8184be5cd264","system_id":"levelo_inurba_marseille","lat":43.260909,"lon":5.397591,"is_reserved":false,"is_disabled":false,"rental_uris":{"android":"levelo://app?vid=e800820f-0dc8-43ff-997c-8184be5cd264","ios":"levelo://app?vid=e800820f-0dc8-43ff-997c-8184be5cd264"},"vehicle_type_id":"4","last_reported":1685761607,"current_range_meters":0,"station_id":"ce4bhi12rcd13ifvqfq0","pricing_plan_id":"free"},{"bike_id":"893db88a-4fb3-46c1-9ffd-5ac77f81a2a4","system_id":"levelo_inurba_marseille","lat":43.260909,"lon":5.397591,"is_reserved":false,"is_disabled":false,"rental_uris":{"android":"levelo://app?vid=893db88a-4fb3-46c1-9ffd-5ac77f81a2a4","ios":"levelo://app?vid=893db88a-4fb3-46c1-9ffd-5ac77f81a2a4"},"vehicle_type_id":"4","last_reported":1685761607,"current_range_meters":6000,"station_id":"ce4bhi12rcd13ifvqfq0","pricing_plan_id":"free"},{"bike_id":"f30bba7b-84b9-4d82-85f8-880473a53b4a","system_id":"levelo_inurba_marseille","lat":43.278128,"lon":5.407195,"is_reserved":false,"is_disabled":false,"rental_uris":{"android":"levelo://app?vid=f30bba7b-84b9-4d82-85f8-880473a53b4a","ios":"levelo://app?vid=f30bba7b-84b9-4d82-85f8-880473a53b4a"},"vehicle_type_id":"4","last_reported":1685761607,"current_range_meters":16800,"station_id":"ce4bhnh2rcd13ifvqgtg","pricing_plan_id":"free"},{"bike_id":"67b82f32-dde0-4298-8baa-f4038ef32b4d","system_id":"levelo_inurba_marseille","lat":43.25494,"lon":5.37652,"is_reserved":false,"is_disabled":false,"rental_uris":{"android":"levelo://app?vid=67b82f32-dde0-4298-8baa-f4038ef32b4d","ios":"levelo://app?vid=67b82f32-dde0-4298-8baa-f4038ef32b4d"},"vehicle_type_id":"4","last_reported":1685761607,"current_range_meters":0,"station_id":"ce4bhh12rcd13ifvqff0","pricing_plan_id":"free"},{"bike_id":"4343b1e7-d1f3-40f5-b409-9c225479a53e","system_id":"levelo_inurba_marseille","lat":43.270721,"lon":5.422764,"is_reserved":false,"is_disabled":false,"rental_uris":{"android":"levelo://app?vid=4343b1e7-d1f3-40f5-b409-9c225479a53e","ios":"levelo://app?vid=4343b1e7-d1f3-40f5-b409-9c225479a53e"},"vehicle_type_id":"4","last_reported":1685761607,"current_range_meters":22400,"station_id":"ce4bhk92rcd13ifvqgb0","pricing_plan_id":"free"},{"bike_id":"582d3037-a1c2-4f66-900b-1e0a5b3b6b21","system_id":"levelo_inurba_marseille","lat":43.270721,"lon":5.422764,"is_reserved":false,"is_disabled":false,"rental_uris":{"android":"levelo://app?vid=582d3037-a1c2-4f66-900b-1e0a5b3b6b21","ios":"levelo://app?vid=582d3037-a1c2-4f66-900b-1e0a5b3b6b21"},"vehicle_type_id":"4","last_reported":1685761607,"current_range_meters":30000,"station_id":"ce4bhk92rcd13ifvqgb0","pricing_plan_id":"free"},{"bike_id":"0a3adffc-5c28-4831-9fb5-b37fc9aefbf3","system_id":"levelo_inurba_marseille","lat":43.270721,"lon":5.422764,"is_reserved":false,"is_disabled":false,"rental_uris":{"android":"levelo://app?vid=0a3adffc-5c28-4831-9fb5-b37fc9aefbf3","ios":"levelo://app?vid=0a3adffc-5c28-4831-9fb5-b37fc9aefbf3"},"vehicle_type_id":"4","last_reported":1685761607,"current_range_meters":31600,"station_id":"ce4bhk92rcd13ifvqgb0","pricing_plan_id":"free"},{"bike_id":"f464892a-7246-4a6a-8d82-e42da334c140","system_id":"levelo_inurba_marseille","lat":43.270721,"lon":5.422764,"is_reserved":false,"is_disabled":false,"rental_uris":{"android":"levelo://app?vid=f464892a-7246-4a6a-8d82-e42da334c140","ios":"levelo://app?vid=f464892a-7246-4a6a-8d82-e42da334c140"},"vehicle_type_id":"4","last_reported":1685761607,"current_range_meters":19200,"station_id":"ce4bhk92rcd13ifvqgb0","pricing_plan_id":"free"},{"bike_id":"368638da-a214-4699-b6b7-d172fe95e9cd","system_id":"levelo_inurba_marseille","lat":43.270721,"lon":5.422764,"is_reserved":false,"is_disabled":false,"rental_uris":{"android":"levelo://app?vid=368638da-a214-4699-b6b7-d172fe95e9cd","ios":"levelo://app?vid=368638da-a214-4699-b6b7-d172fe95e9cd"},"vehicle_type_id":"4","last_reported":1685761607,"current_range_meters":31600,"station_id":"ce4bhk92rcd13ifvqgb0","pricing_plan_id":"free"},{"bike_id":"6dd2c7f7-af15-4eac-a2dd-b83b33195bb6","system_id":"levelo_inurba_marseille","lat":43.258658,"lon":5.398935,"is_reserved":false,"is_disabled":false,"rental_uris":{"android":"levelo://app?vid=6dd2c7f7-af15-4eac-a2dd-b83b33195bb6","ios":"levelo://app?vid=6dd2c7f7-af15-4eac-a2dd-b83b33195bb6"},