{"last_updated":1767928931,"ttl":60,"version":"2.2","data":{"bikes":[{"bike_id":"4df48156-dd6c-425a-aaac-7de4e5d50530","system_id":"levelo_inurba_marseille","lat":43.29005,"lon":5.35753,"is_reserved":false,"is_disabled":false,"rental_uris":{"android":"levelo://app?vid=4df48156-dd6c-425a-aaac-7de4e5d50530","ios":"levelo://app?vid=4df48156-dd6c-425a-aaac-7de4e5d50530"},"vehicle_type_id":"4","last_reported":1767928932,"current_range_meters":2800,"station_id":"","pricing_plan_id":"cebpf4jnsgd1na2vs0mg"},{"bike_id":"6dd96e51-0ed6-4297-9c0e-283504dcbf10","system_id":"levelo_inurba_marseille","lat":43.28084,"lon":5.39658,"is_reserved":false,"is_disabled":false,"rental_uris":{"android":"levelo://app?vid=6dd96e51-0ed6-4297-9c0e-283504dcbf10","ios":"levelo://app?vid=6dd96e51-0ed6-4297-9c0e-283504dcbf10"},"vehicle_type_id":"4","last_reported":1767928932,"current_range_meters":2800,"station_id":"ce4bho12rcd13ifvqh2g","pricing_plan_id":"cebpf4jnsgd1na2vs0mg"},{"bike_id":"17ffc005-fa72-4d1f-9413-b31aab6a3fd6","system_id":"levelo_inurba_marseille","lat":43.323,"lon":5.36683,"is_reserved":false,"is_disabled":false,"rental_uris":{"android":"levelo://app?vid=17ffc005-fa72-4d1f-9413-b31aab6a3fd6","ios":"levelo://app?vid=17ffc005-fa72-4d1f-9413-b31aab6a3fd6"},"vehicle_type_id":"4","last_reported":1767928932,"current_range_meters":2800,"station_id":"ce4bhsh2rcd13ifvqi2g","pricing_plan_id":"cebpf4jnsgd1na2vs0mg"},{"bike_id":"e986fce2-0dcf-4a72-8226-b2117b200211","system_id":"levelo_inurba_marseille","lat":43.231463,"lon":5.437086,"is_reserved":false,"is_disabled":false,"rental_uris":{"android":"levelo://app?vid=e986fce2-0dcf-4a72-8226-b2117b200211","ios":"levelo://app?vid=e986fce2-0dcf-4a72-8226-b2117b200211"},"vehicle_type_id":"4","last_reported":1767928932,"current_range_meters":2800,"station_id":"ce4bhmp2rcd13ifvqgog","pricing_plan_id":"cebpf4jnsgd1na2vs0mg"},{"bike_id":"e333ef92-9481-476e-a416-b4070e2823b7","system_id":"levelo_inurba_marseille","lat":43.25501,"lon":5.37644,"is_reserved":false,"is_disabled":false,"rental_uris":{"android":"levelo://app?vid=e333ef92-9481-476e-a416-b4070e2823b7","ios":"levelo://app?vid=e333ef92-9481-476e-a416-b4070e2823b7"},"vehicle_type_id":"4","last_reported":1767928932,"current_range_meters":2800,"station_id":"ce4bhh12rcd13ifvqff0","pricing_plan_id":"cebpf4jnsgd1na2vs0mg"},{"bike_id":"4c5a80ca-4dc5-4921-bc75-d3a744bff75f","system_id":"levelo_inurba_marseille","lat":43.29254,"lon":5.40916,"is_reserved":false,"is_disabled":false,"rental_uris":{"android":"levelo://app?vid=4c5a80ca-4dc5-4921-bc75-d3a744bff75f","ios":"levelo://app?vid=4c5a80ca-4dc5-4921-bc75-d3a744bff75f"},"vehicle_type_id":"4","last_reported":1767928932,"current_range_meters":2800,"station_id":"ce4bh192rcd13ifvqdc0","pricing_plan_id":"cebpf4jnsgd1na2vs0mg"},{"bike_id":"8fcd09b9-fb23-4bcc-9ef9-c0bbf5b5e535","system_id":"levelo_inurba_marseille","lat":43.30645,"lon":5.40078,"is_reserved":false,"is_disabled":false,"rental_uris":{"android":"levelo://app?vid=8fcd09b9-fb23-4bcc-9ef9-c0bbf5b5e535","ios":"levelo://app?vid=8fcd09b9-fb23-4bcc-9ef9-c0bbf5b5e535"},"vehicle_type_id":"4","last_reported":1767928932,"current_range_meters":2800,"station_id":"ce4bh112rcd13ifvqda0","pricing_plan_id":"cebpf4jnsgd1na2vs0mg"},{"bike_id":"04ca6b22-995e-4a22-a561-b7ea4ec24e4b","system_id":"levelo_inurba_marseille","lat":43.28477,"lon":5.48404,"is_reserved":false,"is_disabled":false,"rental_uris":{"android":"levelo://app?vid=04ca6b22-995e-4a22-a561-b7ea4ec24e4b","ios":"levelo://app?vid=04ca6b22-995e-4a22-a561-b7ea4ec24e4b"},"vehicle_type_id":"4","last_reported":1767928932,"current_range_meters":2800,"station_id":"st_d3svhcjqgbts73a3dn0g","pricing_plan_id":"cebpf4jnsgd1na2vs0mg"},{"bike_id":"131392de-16de-465b-8981-54bfc5f0df10","system_id":"levelo_inurba_marseille","lat":43.28492,"lon":5.38757,"is_reserved":false,"is_disabled":false,"rental_uris":{"android":"levelo://app?vid=131392de-16de-465b-8981-54bfc5f0df10","ios":"levelo://app?vid=131392de-16de-465b-8981-54bfc5f0df10"},"vehicle_type_id":"4","last_reported":1767928932,"current_range_meters":2800,"station_id":"","pricing_plan_id":"cebpf4jnsgd1na2vs0mg"},{"bike_id":"5f3933f1-8f15-451a-843e-42960e021121","system_id":"levelo_inurba_marseille","lat":43.29581,"lon":5.37506,"is_reserved":false,"is_disabled":false,"rental_uris":{"android":"levelo://app?vid=5f3933f1-8f15-451a-843e-42960e021121","ios":"levelo://app?vid=5f3933f1-8f15-451a-843e-42960e021121"},"vehicle_type_id":"4","last_reported":1767928932,"current_range_meters":3200,"station_id":"ce4bgh92rcd13ifvqb50","pricing_plan_id":"cebpf4jnsgd1na2vs0mg"},{"bike_id":"42f02f13-932e-40dd-ae79-3a7a1a874e34","system_id":"levelo_inurba_marseille","lat":43.29482,"lon":5.43303,"is_reserved":false,"is_disabled":false,"rental_uris":{"android":"levelo://app?vid=42f02f13-932e-40dd-ae79-3a7a1a874e34","ios":"levelo://app?vid=42f02f13-932e-40dd-ae79-3a7a1a874e34"},"vehicle_type_id":"4","last_reported":1767928932,"current_range_meters":3200,"station_id":"st_d3j5ugp08ojc73fj9d10","pricing_plan_id":"cebpf4jnsgd1na2vs0mg"},{"bike_id":"ecd3c884-b625-4122-929d-6367a66201b9","system_id":"levelo_inurba_marseille","lat":43.30315,"lon":5.36912,"is_reserved":false,"is_disabled":false,"rental_uris":{"android":"levelo://app?vid=ecd3c884-b625-4122-929d-6367a66201b9","ios":"levelo://app?vid=ecd3c884-b625-4122-929d-6367a66201b9"},"vehicle_type_id":"4","last_reported":1767928932,"current_range_meters":3200,"station_id":"ce4bgqh2rcd13ifvqc5g","pricing_plan_id":"cebpf4jnsgd1na2vs0mg"},{"bike_id":"7ae2676e-e662-4a9a-a79a-d5011de94824","system_id":"levelo_inurba_marseille","lat":43.24155,"lon":5.36404,"is_reserved":false,"is_disabled":false,"rental_uris":{"android":"levelo://app?vid=7ae2676e-e662-4a9a-a79a-d5011de94824","ios":"levelo://app?vid=7ae2676e-e662-4a9a-a79a-d5011de94824"},"vehicle_type_id":"4","last_reported":1767928932,"current_range_meters":3200,"station_id":"cpo36qri1sfpv3e86is0","pricing_plan_id":"cebpf4jnsgd1na2vs0mg"},{"bike_id":"b72099cd-b077-494a-845f-7f9bf2c72c0e","system_id":"levelo_inurba_marseille","lat":43.26187,"lon":5.37442,"is_reserved":false,"is_disabled":false,"rental_uris":{"android":"levelo://app?vid=b72099cd-b077-494a-845f-7f9bf2c72c0e","ios":"levelo://app?vid=b72099cd-b077-494a-845f-7f9bf2c72c0e"},"vehicle_type_id":"4","last_reported":1767928932,"current_range_meters":3200,"station_id":"ce4bhgp2rcd13ifvqfc0","pricing_plan_id":"cebpf4jnsgd1na2vs0mg"},{"bike_id":"04eb2c00-1c2c-4ed2-abe9-a8c3238e2b7a","system_id":"levelo_inurba_marseille","lat":43.26562,"lon":5.40334,"is_reserved":false,"is_disabled":false,"rental_uris":{"android":"levelo://app?vid=04eb2c00-1c2c-4ed2-abe9-a8c3238e2b7a","ios":"levelo://app?vid=04eb2c00-1c2c-4ed2-abe9-a8c3238e2b7a"},"vehicle_type_id":"4","last_reported":1767928932,"current_range_meters":3200,"station_id":"ce4bhmp2rcd13ifvqgng","pricing_plan_id":"cebpf4jnsgd1na2vs0mg"},{"bike_id":"7916ab29-6acf-4981-b006-95569b1a12ba","system_id":"levelo_inurba_marseille","lat":43.313299,"lon":5.39704,"is_reserved":false,"is_disabled":false,"rental_uris":{"android":"levelo://app?vid=7916ab29-6acf-4981-b006-95569b1a12ba","ios":"levelo://app?vid=7916ab29-6acf-4981-b006-95569b1a12ba"},"vehicle_type_id":"4","last_reported":1767928932,"current_range_meters":3200,"station_id":"ce4bgvp2rcd13ifvqcu0","pricing_plan_id":"cebpf4jnsgd1na2vs0mg"},{"bike_id":"871e0076-59b8-4278-a46e-48f833a303b1","system_id":"levelo_inurba_marseille","lat":43.291946,"lon":5.393228,"is_reserved":false,"is_disabled":false,"rental_uris":{"android":"levelo://app?vid=871e0076-59b8-4278-a46e-48f833a303b1","ios":"levelo://app?vid=871e0076-59b8-4278-a46e-48f833a303b1"},"vehicle_type_id":"4","last_reported":1767928932,"current_range_meters":3600,"station_id":"ce4bh192rcd13ifvqdd0","pricing_plan_id":"cebpf4jnsgd1na2vs0mg"},{"bike_id":"56e1e849-fcec-435d-b4fa-b87b6fcf55ae","system_id":"levelo_inurba_marseille","lat":43.28698,"lon":5.37376,"is_reserved":false,"is_disabled":false,"rental_uris":{"android":"levelo://app?vid=56e1e849-fcec-435d-b4fa-b87b6fcf55ae","ios":"levelo://app?vid=56e1e849-fcec-435d-b4fa-b87b6fcf55ae"},"vehicle_type_id":"4","last_reported":1767928932,"current_range_meters":3600,"station_id":"ce4bh3p2rcd13ifvqdq0","pricing_plan_id":"cebpf4jnsgd1na2vs0mg"},{"bike_id":"89d31037-815d-4ebf-9cf1-7e6e32f17ab3","system_id":"levelo_inurba_marseille","lat":43.27195,"lon":5.409845,"is_reserved":false,"is_disabled":false,"rental_uris":{"android":"levelo://app?vid=89d31037-815d-4ebf-9cf1-7e6e32f17ab3","ios":"levelo://app?vid=89d31037-815d-4ebf-9cf1-7e6e32f17ab3"},"vehicle_type_id":"4","last_reported":1767928932,"current_range_meters":3600,"station_id":"ce4bhl12rcd13ifvqgf0","pricing_plan_id":"cebpf4jnsgd1na2vs0mg"},{"bike_id":"212da61f-e45f-49da-8ac8-22c9c61d8835","system_id":"levelo_inurba_marseille","lat":43.31741,"lon":5.38515,"is_reserved":false,"is_disabled":false,"rental_uris":{"android":"levelo://app?vid=212da61f-e45f-49da-8ac8-22c9c61d8835","ios":"levelo://app?vid=212da61f-e45f-49da-8ac8-22c9c61d8835"},"vehicle_type_id":"4","last_reported":1767928932,"current_range_meters":3600,"station_id":"","pricing_plan_id":"cebpf4jnsgd1na2vs0mg"},{"bike_id":"a6462651-ffd6-4de0-ac89-ac14a3f92140","system_id":"levelo_inurba_marseille","lat":43.2379,"lon":5.36636,"is_reserved":false,"is_disabled":false,"rental_uris":{"android":"levelo://app?vid=a6462651-ffd6-4de0-ac89-ac14a3f92140","ios":"levelo://app?vid=a6462651-ffd6-4de0-ac89-ac14a3f92140"},"vehicle_type_id":"4","last_reported":1767928932,"current_range_meters":3600,"station_id":"st_d3nk18o9ro0c73en2l3g","pricing_plan_id":"cebpf4jnsgd1na2vs0mg"},{"bike_id":"0896a6b0-9fee-43d9-b927-69a576d730d9","system_id":"levelo_inurba_marseille","lat":43.28936,"lon":5.36634,"is_reserved":false,"is_disabled":true,"rental_uris":{"android":"levelo://app?vid=0896a6b0-9fee-43d9-b927-69a576d730d9","ios":"levelo://app?vid=0896a6b0-9fee-43d9-b927-69a576d730d9"},"vehicle_type_id":"4","last_reported":1767928932,"current_range_meters":3600,"station_id":"ce4bhap2rcd13ifvqek0","pricing_plan_id":"cebpf4jnsgd1na2vs0mg"},{"bike_id":"e87e13ae-d69b-4129-94d6-fdb38119b5d3","system_id":"levelo_inurba_marseille","lat":43.284,"lon":5.34972,"is_reserved":false,"is_disabled":false,"rental_uris":{"android":"levelo://app?vid=e87e13ae-d69b-4129-94d6-fdb38119b5d3","ios":"levelo://app?vid=e87e13ae-d69b-4129-94d6-fdb38119b5d3"},"vehicle_type_id":"4","last_reported":1767928932,"current_range_meters":3600,"station_id":"ce4bhbh2rcd13ifvqepg","pricing_plan_id":"cebpf4jnsgd1na2vs0mg"},{"bike_id":"d732fcd7-f8ed-43d6-b6ef-d29b2b97a6d4","system_id":"levelo_inurba_marseille","lat":43.27381,"lon":5.36285,"is_reserved":false,"is_disabled":false,"rental_uris":{"android":"levelo://app?vid=d732fcd7-f8ed-43d6-b6ef-d29b2b97a6d4","ios":"levelo://app?vid=d732fcd7-f8ed-43d6-b6ef-d29b2b97a6d4"},"vehicle_type_id":"4","last_reported":1767928932,"current_range_meters":3600,"station_id":"ce4bhbh2rcd13ifvqeo0","pricing_plan_id":"cebpf4jnsgd1na2vs0mg"},{"bike_id":"b30b42a5-f140-4b6b-82d4-5c456fa62a3a","system_id":"levelo_inurba_marseille","lat":43.30254,"lon":5.40083,"is_reserved":false,"is_disabled":false,"rental_uris":{"android":"levelo://app?vid=b30b42a5-f140-4b6b-82d4-5c456fa62a3a","ios":"levelo://app?vid=b30b42a5-f140-4b6b-82d4-5c456fa62a3a"},"vehicle_type_id":"4","last_reported":1767928932,"current_range_meters":3600,"station_id":"ce4bgvh2rcd13ifvqcs0","pricing_plan_id":"cebpf4jnsgd1na2vs0mg"},{"bike_id":"db8f8f51-ff30-47b0-92b1-e03a1700e59d","system_id":"levelo_inurba_marseille","lat":43.27972,"lon":5.41658,"is_reserved":false,"is_disabled":false,"rental_uris":{"android":"levelo://app?vid=db8f8f51-ff30-47b0-92b1-e03a1700e59d","ios":"levelo://app?vid=db8f8f51-ff30-47b0-92b1-e03a1700e59d"},"vehicle_type_id":"4","last_reported":1767928932,"current_range_meters":4000,"station_id":"ce4bho12rcd13ifvqh1g","pricing_plan_id":"cebpf4jnsgd1na2vs0mg"},{"bike_id":"d0581bff-1d0c-4410-806f-6b8c4cb9781f","system_id":"levelo_inurba_marseille","lat":43.28459,"lon":5.35902,"is_reserved":false,"is_disabled":false,"rental_uris":{"android":"levelo://app?vid=d0581bff-1d0c-4410-806f-6b8c4cb9781f","ios":"levelo://app?vid=d0581bff-1d0c-4410-806f-6b8c4cb9781f"},"vehicle_type_id":"4","last_reported":1767928932,"current_range_meters":4000,"station_id":"ce4bhah2rcd13ifvqei0","pricing_plan_id":"cebpf4jnsgd1na2vs0mg"},{"bike_id":"511a0a4e-8808-437d-8ea6-734f50bee3bd","system_id":"levelo_inurba_marseille","lat":43.28718,"lon":5.36111,"is_reserved":false,"is_disabled":false,"rental_uris":{"android":"levelo://app?vid=511a0a4e-8808-437d-8ea6-734f50bee3bd","ios":"levelo://app?vid=511a0a4e-8808-437d-8ea6-734f50bee3bd"},"vehicle_type_id":"4","last_reported":1767928932,"current_range_meters":4000,"station_id":"cki0cbj6b192h4jlfktg","pricing_plan_id":"cebpf4jnsgd1na2vs0mg"},{"bike_id":"8467f275-f659-442c-b398-0f67f70d7fd1","system_id":"levelo_inurba_marseille","lat":43.27364,"lon":5.36216,"is_reserved":false,"is_disabled":true,"rental_uris":{"android":"levelo://app?vid=8467f275-f659-442c-b398-0f67f70d7fd1","ios":"levelo://app?vid=8467f275-f659-442c-b398-0f67f70d7fd1"},"vehicle_type_id":"4","last_reported":1767928932,"current_range_meters":4000,"station_id":"ce4bhbh2rcd13ifvqeo0","pricing_plan_id":"cebpf4jnsgd1na2vs0mg"},{"bike_id":"348346be-23b6-4510-9dfb-f0de0af16842","system_id":"levelo_inurba_marseille","lat":43.30327,"lon":5.4044,"is_reserved":false,"is_disabled":false,"rental_uris":{"android":"levelo://app?vid=348346be-23b6-4510-9dfb-f0de0af16842","ios":"levelo://app?vid=348346be-23b6-4510-9dfb-f0de0af16842"},"vehicle_type_id":"4","last_reported":1767928932,"current_range_meters":4000,"station_id":"ce4bh012rcd13ifvqd10","pricing_plan_id":"cebpf4jnsgd1na2vs0mg"},{"bike_id":"2ba68c60-2d00-4377-b0ff-56b9c1f07eb3","system_id":"levelo_inurba_marseille","lat":43.29787,"lon":5.38092,"is_reserved":false,"is_disabled":true,"rental_uris":{"android":"levelo://app?vid=2ba68c60-2d00-4377-b0ff-56b9c1f07eb3","ios":"levelo://app?vid=2ba68c60-2d00-4377-b0ff-56b9c1f07eb3"},"vehicle_type_id":"4","last_reported":1767928932,"current_range_meters":4000,"station_id":"ce4bgip2rcd13ifvqbb0","pricing_plan_id":"cebpf4jnsgd1na2vs0mg"},{"bike_id":"47d0a8b3-c4fc-4d20-befe-0d9c69ad92a9","system_id":"levelo_inurba_marseille","lat":43.23769,"lon":5.36649,"is_reserved":false,"is_disabled":false,"rental_uris":{"android":"levelo://app?vid=47d0a8b3-c4fc-4d20-befe-0d9c69ad92a9","ios":"levelo://app?vid=47d0a8b3-c4fc-4d20-befe-0d9c69ad92a9"},"vehicle_type_id":"4","last_reported":1767928932,"current_range_meters":4000,"station_id":"st_d3nk18o9ro0c73en2l3g","pricing_plan_id":"cebpf4jnsgd1na2vs0mg"},{"bike_id":"0c106f61-b1e2-4634-ae66-0b75c689e13d","system_id":"levelo_inurba_marseille","lat":43.24947,"lon":5.40491,"is_reserved":false,"is_disabled":false,"rental_uris":{"android":"levelo://app?vid=0c106f61-b1e2-4634-ae66-0b75c689e13d","ios":"levelo://app?vid=0c106f61-b1e2-4634-ae66-0b75c689e13d"},"vehicle_type_id":"4","last_reported":1767928932,"current_range_meters":4400,"station_id":"st_d2ngiaodas8pm72gd1h0","pricing_plan_id":"cebpf4jnsgd1na2vs0mg"},{"bike_id":"a371abd4-bbe1-4cf7-88b4-417586de59e8","system_id":"levelo_inurba_marseille","lat":43.290016,"lon":5.356062,"is_reserved":false,"is_disabled":false,"rental_uris":{"android":"levelo://app?vid=a371abd4-bbe1-4cf7-88b4-417586de59e8","ios":"levelo://app?vid=a371abd4-bbe1-4cf7-88b4-417586de59e8"},"vehicle_type_id":"4","last_reported":1767928932,"current_range_meters":4400,"station_id":"ce4bhb92rcd13ifvqen0","pricing_plan_id":"cebpf4jnsgd1na2vs0mg"},{"bike_id":"173302e6-6e83-436f-a5e7-5728fa6cbe75","system_id":"levelo_inurba_marseille","lat":43.27574,"lon":5.38402,"is_reserved":false,"is_disabled":false,"rental_uris":{"android":"levelo://app?vid=173302e6-6e83-436f-a5e7-5728fa6cbe75","ios":"levelo://app?vid=173302e6-6e83-436f-a5e7-5728fa6cbe75"},"vehicle_type_id":"4","last_reported":1767928932,"current_range_meters":4400,"station_id":"ce4bhh92rcd13ifvqfi0","pricing_plan_id":"cebpf4jnsgd1na2vs0mg"},{"bike_id":"d7ab7fe9-03f2-4d7f-8a03-703c1e727f77","system_id":"levelo_inurba_marseille","lat":43.26218,"lon":5.4047,"is_reserved":false,"is_disabled":false,"rental_uris":{"android":"levelo://app?vid=d7ab7fe9-03f2-4d7f-8a03-703c1e727f77","ios":"levelo://app?vid=d7ab7fe9-03f2-4d7f-8a03-703c1e727f77"},"vehicle_type_id":"4","last_reported":1767928932,"current_range_meters":4400,"station_id":"ce4bhmh2rcd13ifvqgmg","pricing_plan_id":"cebpf4jnsgd1na2vs0mg"},{"bike_id":"01d8e2c9-d4ce-48e6-afef-8bf3104cf069","system_id":"levelo_inurba_marseille","lat":43.26938,"lon":5.4025,"is_reserved":false,"is_disabled":false,"rental_uris":{"android":"levelo://app?vid=01d8e2c9-d4ce-48e6-afef-8bf3104cf069","ios":"levelo://app?vid=01d8e2c9-d4ce-48e6-afef-8bf3104cf069"},"vehicle_type_id":"4","last_reported":1767928932,"current_range_meters":4400,"station_id":"cjm6bp8fraef2m0cb0m0","pricing_plan_id":"cebpf4jnsgd1na2vs0mg"},{"bike_id":"e7876eda-f20f-4ac4-9f72-f1c6c0f3442f","system_id":"levelo_inurba_marseille","lat":43.240739,"lon":5.377427,"is_reserved":false,"is_disabled":false,"rental_uris":{"android":"levelo://app?vid=e7876eda-f20f-4ac4-9f72-f1c6c0f3442f","ios":"levelo://app?vid=e7876eda-f20f-4ac4-9f72-f1c6c0f3442f"},"vehicle_type_id":"4","last_reported":1767928932,"current_range_meters":4400,"station_id":"ce4bhnp2rcd13ifvqgvg","pricing_plan_id":"cebpf4jnsgd1na2vs0mg"},{"bike_id":"df2f4500-2cab-420f-b490-def7f02e9f05","system_id":"levelo_inurba_marseille","lat":43.29484,"lon":5.43297,"is_reserved":false,"is_disabled":false,"rental_uris":{"android":"levelo://app?vid=df2f4500-2cab-420f-b490-def7f02e9f05","ios":"levelo://app?vid=df2f4500-2cab-420f-b490-def7f02e9f05"},"vehicle_type_id":"4","last_reported":1767928932,"current_range_meters":4400,"station_id":"st_d3j5ugp08ojc73fj9d10","pricing_plan_id":"cebpf4jnsgd1na2vs0mg"},{"bike_id":"2ce445fc-8a0c-4a62-9e8e-12a7c187ba74","system_id":"levelo_inurba_marseille","lat":43.30674,"lon":5.40082,"is_reserved":false,"is_disabled":false,"rental_uris":{"android":"levelo://app?vid=2ce445fc-8a0c-4a62-9e8e-12a7c187ba74","ios":"levelo://app?vid=2ce445fc-8a0c-4a62-9e8e-12a7c187ba74"},"vehicle_type_id":"4","last_reported":1767928932,"current_range_meters":4400,"station_id":"ce4bh112rcd13ifvqda0","pricing_plan_id":"cebpf4jnsgd1na2vs0mg"},{"bike_id":"357563d8-d33e-4f70-862e-8fab05436ef0","system_id":"levelo_inurba_marseille","lat":43.289776,"lon":5.378228,"is_reserved":false,"is_disabled":false,"rental_uris":{"android":"levelo://app?vid=357563d8-d33e-4f70-862e-8fab05436ef0","ios":"levelo://app?vid=357563d8-d33e-4f70-862e-8fab05436ef0"},"vehicle_type_id":"4","last_reported":1767928932,"current_range_meters":4400,"station_id":"","pricing_plan_id":"cebpf4jnsgd1na2vs0mg"},{"bike_id":"7401be6f-cce5-4127-bfd0-4e81a357cf0d","system_id":"levelo_inurba_marseille","lat":43.25571,"lon":5.38227,"is_reserved":false,"is_disabled":false,"rental_uris":{"android":"levelo://app?vid=7401be6f-cce5-4127-bfd0-4e81a357cf0d","ios":"levelo://app?vid=7401be6f-cce5-4127-bfd0-4e81a357cf0d"},"vehicle_type_id":"4","last_reported":1767928932,"current_range_meters":4400,"station_id":"ce4bhih2rcd13ifvqfs0","pricing_plan_id":"cebpf4jnsgd1na2vs0mg"},{"bike_id":"ce421590-def4-4889-b9b4-b20bd219573f","system_id":"levelo_inurba_marseille","lat":43.28736,"lon":5.360678,"is_reserved":false,"is_disabled":false,"rental_uris":{"android":"levelo://app?vid=ce421590-def4-4889-b9b4-b20bd219573f","ios":"levelo://app?vid=ce421590-def4-4889-b9b4-b20bd219573f"},"vehicle_type_id":"4","last_reported":1767928932,"current_range_meters":4400,"station_id":"cki0cbj6b192h4jlfktg","pricing_plan_id":"cebpf4jnsgd1na2vs0mg"},{"bike_id":"54fd988a-8198-42f7-8f4b-2c7237f3f387","system_id":"levelo_inurba_marseille","lat":43.28708,"lon":5.37916,"is_reserved":false,"is_disabled":false,"rental_uris":{"android":"levelo://app?vid=54fd988a-8198-42f7-8f4b-2c7237f3f387","ios":"levelo://app?vid=54fd988a-8198-42f7-8f4b-2c7237f3f387"},"vehicle_type_id":"4","last_reported":1767928932,"current_range_meters":4800,"station_id":"ce4bh9p2rcd13ifvqec0","pricing_plan_id":"cebpf4jnsgd1na2vs0mg"},{"bike_id":"c9b9f614-2a8e-4d1a-a652-5ef008ccb0b8","system_id":"levelo_inurba_marseille","lat":43.30326,"lon":5.40465,"is_reserved":false,"is_disabled":false,"rental_uris":{"android":"levelo://app?vid=c9b9f614-2a8e-4d1a-a652-5ef008ccb0b8","ios":"levelo://app?vid=c9b9f614-2a8e-4d1a-a652-5ef008ccb0b8"},"vehicle_type_id":"4","last_reported":1767928932,"current_range_meters":4800,"station_id":"ce4bh012rcd13ifvqd10","pricing_plan_id":"cebpf4jnsgd1na2vs0mg"},{"bike_id":"19e15d06-cf4c-459d-8887-b3feaa0bcacf","system_id":"levelo_inurba_marseille","lat":43.32859,"lon":5.404906,"is_reserved":false,"is_disabled":false,"rental_uris":{"android":"levelo://app?vid=19e15d06-cf4c-459d-8887-b3feaa0bcacf","ios":"levelo://app?vid=19e15d06-cf4c-459d-8887-b3feaa0bcacf"},"vehicle_type_id":"4","last_reported":1767928932,"current_range_meters":4800,"station_id":"ce4bhq92rcd13ifvqhkg","pricing_plan_id":"cebpf4jnsgd1na2vs0mg"},{"bike_id":"c10c03af-eba1-4f9f-a373-ad08e2aac44e","system_id":"levelo_inurba_marseille","lat":43.259391,"lon":5.409011,"is_reserved":false,"is_disabled":false,"rental_uris":{"android":"levelo://app?vid=c10c03af-eba1-4f9f-a373-ad08e2aac44e","ios":"levelo://app?vid=c10c03af-eba1-4f9f-a373-ad08e2aac44e"},"vehicle_type_id":"4","last_reported":1767928932,"current_range_meters":4800,"station_id":"ce4bhm92rcd13ifvqglg","pricing_plan_id":"cebpf4jnsgd1na2vs0mg"},{"bike_id":"b13e2f01-6b92-41c2-904a-19b5d6db7307","system_id":"levelo_inurba_marseille","lat":43.27382,"lon":5.36257,"is_reserved":false,"is_disabled":false,"rental_uris":{"android":"levelo://app?vid=b13e2f01-6b92-41c2-904a-19b5d6db7307","ios":"levelo://app?vid=b13e2f01-6b92-41c2-904a-19b5d6db7307"},"vehicle_type_id":"4","last_reported":1767928932,"current_range_meters":4800,"station_id":"ce4bhbh2rcd13ifvqeo0","pricing_plan_id":"cebpf4jnsgd1na2vs0mg"},{"bike_id":"82582fec-7dfe-4668-947f-7bf0439e6b8e","system_id":"levelo_inurba_marseille","lat":43.28474,"lon":5.48409,"is_reserved":false,"is_disabled":false,"rental_uris":{"android":"levelo://app?vid=82582fec-7dfe-4668-947f-7bf0439e6b8e","ios":"levelo://app?vid=82582fec-7dfe-4668-947f-7bf0439e6b8e"},"vehicle_type_id":"4","last_reported":1767928932,"current_range_meters":4800,"station_id":"","pricing_plan_id":"cebpf4jnsgd1na2vs0mg"},{"bike_id":"e9fbb55b-45ea-4b51-8726-aff775b6f253","system_id":"levelo_inurba_marseille","lat":43.22925,"lon":5.35376,"is_reserved":false,"is_disabled":false,"rental_uris":{"android":"levelo://app?vid=e9fbb55b-45ea-4b51-8726-aff775b6f253","ios":"levelo://app?vid=e9fbb55b-45ea-4b51-8726-aff775b6f253"},"vehicle_type_id":"4","last_reported":1767928932,"current_range_meters":4800,"station_id":"cpo3532slgdg3j2ikp40","pricing_plan_id":"cebpf4jnsgd1na2vs0mg"},{"bike_id":"80c1456b-51ee-4fc1-b2ab-63785d9f6190","system_id":"levelo_inurba_marseille","lat":43.27823,"lon":5.40739,"is_reserved":false,"is_disabled":false,"rental_uris":{"android":"levelo://app?vid=80c1456b-51ee-4fc1-b2ab-63785d9f6190","ios":"levelo://app?vid=80c1456b-51ee-4fc1-b2ab-63785d9f6190"},"vehicle_type_id":"4","last_reported":1767928932,"current_range_meters":4800,"station_id":"ce4bhnh2rcd13ifvqgtg","pricing_plan_id":"cebpf4jnsgd1na2vs0mg"},{"bike_id":"73543345-4ef9-4e98-84ee-ab10ee209479","system_id":"levelo_inurba_marseille","lat":43.31064,"lon":5.38358,"is_reserved":false,"is_disabled":false,"rental_uris":{"android":"levelo://app?vid=73543345-4ef9-4e98-84ee-ab10ee209479","ios":"levelo://app?vid=73543345-4ef9-4e98-84ee-ab10ee209479"},"vehicle_type_id":"4","last_reported":1767928932,"current_range_meters":4800,"station_id":"ce4bgv92rcd13ifvqcr0","pricing_plan_id":"cebpf4jnsgd1na2vs0mg"},{"bike_id":"f0db0b22-e088-46a2-abbe-dbd55331e79a","system_id":"levelo_inurba_marseille","lat":43.26364,"lon":5.41039,"is_reserved":false,"is_disabled":false,"rental_uris":{"android":"levelo://app?vid=f0db0b22-e088-46a2-abbe-dbd55331e79a","ios":"levelo://app?vid=f0db0b22-e088-46a2-abbe-dbd55331e79a"},"vehicle_type_id":"4","last_reported":1767928932,"current_range_meters":4800,"station_id":"st_d4e5ca6na9uc73bfl5fg","pricing_plan_id":"cebpf4jnsgd1na2vs0mg"},{"bike_id":"e9be6d9d-169b-4cae-9a40-1aae9b41881f","system_id":"levelo_inurba_marseille","lat":43.28766,"lon":5.38111,"is_reserved":false,"is_disabled":false,"rental_uris":{"android":"levelo://app?vid=e9be6d9d-169b-4cae-9a40-1aae9b41881f","ios":"levelo://app?vid=e9be6d9d-169b-4cae-9a40-1aae9b41881f"},"vehicle_type_id":"4","last_reported":1767928932,"current_range_meters":4800,"station_id":"","pricing_plan_id":"cebpf4jnsgd1na2vs0mg"},{"bike_id":"fd172d07-e62e-4e89-83ff-b73ffdf2df2c","system_id":"levelo_inurba_marseille","lat":43.26565,"lon":5.38975,"is_reserved":false,"is_disabled":false,"rental_uris":{"android":"levelo://app?vid=fd172d07-e62e-4e89-83ff-b73ffdf2df2c","ios":"levelo://app?vid=fd172d07-e62e-4e89-83ff-b73ffdf2df2c"},"vehicle_type_id":"4","last_reported":1767928932,"current_range_meters":4800,"station_id":"ce4bhe12rcd13ifvqf30","pricing_plan_id":"cebpf4jnsgd1na2vs0mg"},{"bike_id":"105c24dc-55f2-45c6-a67a-b0586dccd52d","system_id":"levelo_inurba_marseille","lat":43.27834,"lon":5.40697,"is_reserved":false,"is_disabled":false,"rental_uris":{"android":"levelo://app?vid=105c24dc-55f2-45c6-a67a-b0586dccd52d","ios":"levelo://app?vid=105c24dc-55f2-45c6-a67a-b0586dccd52d"},"vehicle_type_id":"4","last_reported":1767928932,"current_range_meters":4800,"station_id":"ce4bhnh2rcd13ifvqgtg","pricing_plan_id":"cebpf4jnsgd1na2vs0mg"},{"bike_id":"31d99bf3-4e09-486d-8162-0bfe2e21194b","system_id":"levelo_inurba_marseille","lat":43.27004,"lon":5.3832,"is_reserved":false,"is_disabled":false,"rental_uris":{"android":"levelo://app?vid=31d99bf3-4e09-486d-8162-0bfe2e21194b","ios":"levelo://app?vid=31d99bf3-4e09-486d-8162-0bfe2e21194b"},"vehicle_type_id":"4","last_reported":1767928932,"current_range_meters":4800,"station_id":"st_d3n2fo6cfp8s73cte1j0","pricing_plan_id":"cebpf4jnsgd1na2vs0mg"},{"bike_id":"9cfeff17-a54a-4b3c-baa8-c7ed795fc5f2","system_id":"levelo_inurba_marseille","lat":43.241603,"lon":5.363944,"is_reserved":false,"is_disabled":false,"rental_uris":{"android":"levelo://app?vid=9cfeff17-a54a-4b3c-baa8-c7ed795fc5f2","ios":"levelo://app?vid=9cfeff17-a54a-4b3c-baa8-c7ed795fc5f2"},"vehicle_type_id":"4","last_reported":1767928932,"current_range_meters":5600,"station_id":"cpo36qri1sfpv3e86is0","pricing_plan_id":"cebpf4jnsgd1na2vs0mg"},{"bike_id":"cc85a6ba-05f9-4c4d-a519-e1f41fd3e5dc","system_id":"levelo_inurba_marseille","lat":43.29948,"lon":5.36547,"is_reserved":false,"is_disabled":true,"rental_uris":{"android":"levelo://app?vid=cc85a6ba-05f9-4c4d-a519-e1f41fd3e5dc","ios":"levelo://app?vid=cc85a6ba-05f9-4c4d-a519-e1f41fd3e5dc"},"vehicle_type_id":"4","last_reported":1767928932,"current_range_meters":5600,"station_id":"ce4bgm92rcd13ifvqbr0","pricing_plan_id":"cebpf4jnsgd1na2vs0mg"},{"bike_id":"54eb4ea2-62d2-46f1-be28-8b9786edbd57","system_id":"levelo_inurba_marseille","lat":43.23153,"lon":5.43724,"is_reserved":false,"is_disabled":false,"rental_uris":{"android":"levelo://app?vid=54eb4ea2-62d2-46f1-be28-8b9786edbd57","ios":"levelo://app?vid=54eb4ea2-62d2-46f1-be28-8b9786edbd57"},"vehicle_type_id":"4","last_reported":1767928932,"current_range_meters":5600,"station_id":"ce4bhmp2rcd13ifvqgog","pricing_plan_id":"cebpf4jnsgd1na2vs0mg"},{"bike_id":"0a50421a-c489-494d-bf6a-aa7e31233387","system_id":"levelo_inurba_marseille","lat":43.26787,"lon":5.39417,"is_reserved":false,"is_disabled":false,"rental_uris":{"android":"levelo://app?vid=0a50421a-c489-494d-bf6a-aa7e31233387","ios":"levelo://app?vid=0a50421a-c489-494d-bf6a-aa7e31233387"},"vehicle_type_id":"4","last_reported":1767928932,"current_range_meters":5600,"station_id":"","pricing_plan_id":"cebpf4jnsgd1na2vs0mg"},{"bike_id":"1d8578f4-fc15-4353-b70b-8e0d3a2b2d70","system_id":"levelo_inurba_marseille","lat":43.263783,"lon":5.410722,"is_reserved":false,"is_disabled":false,"rental_uris":{"android":"levelo://app?vid=1d8578f4-fc15-4353-b70b-8e0d3a2b2d70","ios":"levelo://app?vid=1d8578f4-fc15-4353-b70b-8e0d3a2b2d70"},"vehicle_type_id":"4","last_reported":1767928932,"current_range_meters":5600,"station_id":"st_d4e5ca6na9uc73bfl5fg","pricing_plan_id":"cebpf4jnsgd1na2vs0mg"},{"bike_id":"97452125-5d86-4a9e-b4a3-a2dd4fe9ffac","system_id":"levelo_inurba_marseille","lat":43.25486,"lon":5.37642,"is_reserved":false,"is_disabled":false,"rental_uris":{"android":"levelo://app?vid=97452125-5d86-4a9e-b4a3-a2dd4fe9ffac","ios":"levelo://app?vid=97452125-5d86-4a9e-b4a3-a2dd4fe9ffac"},"vehicle_type_id":"4","last_reported":1767928932,"current_range_meters":5600,"station_id":"ce4bhh12rcd13ifvqff0","pricing_plan_id":"cebpf4jnsgd1na2vs0mg"},{"bike_id":"b041f73e-24b2-45dc-94b4-d3fa21cc46b4","system_id":"levelo_inurba_marseille","lat":43.24812,"lon":5.37458,"is_reserved":false,"is_disabled":false,"rental_uris":{"android":"levelo://app?vid=b041f73e-24b2-45dc-94b4-d3fa21cc46b4","ios":"levelo://app?vid=b041f73e-24b2-45dc-94b4-d3fa21cc46b4"},"vehicle_type_id":"4","last_reported":1767928932,"current_range_meters":5600,"station_id":"ce4bhgh2rcd13ifvqfb0","pricing_plan_id":"cebpf4jnsgd1na2vs0mg"},{"bike_id":"9b74e88b-aa07-4fe6-908a-fa88542debbc","system_id":"levelo_inurba_marseille","lat":43.299401,"lon":5.365279,"is_reserved":false,"is_disabled":false,"rental_uris":{"android":"levelo://app?vid=9b74e88b-aa07-4fe6-908a-fa88542debbc","ios":"levelo://app?vid=9b74e88b-aa07-4fe6-908a-fa88542debbc"},"vehicle_type_id":"4","last_reported":1767928932,"current_range_meters":5600,"station_id":"ce4bgm92rcd13ifvqbr0","pricing_plan_id":"cebpf4jnsgd1na2vs0mg"},{"bike_id":"9046a61d-2a80-442f-983f-27f6dc24f4b3","system_id":"levelo_inurba_marseille","lat":43.310737,"lon":5.383697,"is_reserved":false,"is_disabled":false,"rental_uris":{"android":"levelo://app?vid=9046a61d-2a80-442f-983f-27f6dc24f4b3","ios":"levelo://app?vid=9046a61d-2a80-442f-983f-27f6dc24f4b3"},"vehicle_type_id":"4","last_reported":1767928932,"current_range_meters":5600,"station_id":"ce4bgv92rcd13ifvqcr0","pricing_plan_id":"cebpf4jnsgd1na2vs0mg"},{"bike_id":"63e4976f-7d93-49f6-a2b3-f7ce857422dd","system_id":"levelo_inurba_marseille","lat":43.30304,"lon":5.39226,"is_reserved":false,"is_disabled":true,"rental_uris":{"android":"levelo://app?vid=63e4976f-7d93-49f6-a2b3-f7ce857422dd","ios":"levelo://app?vid=63e4976f-7d93-49f6-a2b3-f7ce857422dd"},"vehicle_type_id":"4","last_reported":1767928932,"current_range_meters":5600,"station_id":"ce4bgkh2rcd13ifvqbk0","pricing_plan_id":"cebpf4jnsgd1na2vs0mg"},{"bike_id":"ac62c4bb-d4c1-4a08-95d9-40ee91fdac3a","system_id":"levelo_inurba_marseille","lat":43.30278,"lon":5.392208,"is_reserved":false,"is_disabled":false,"rental_uris":{"android":"levelo://app?vid=ac62c4bb-d4c1-4a08-95d9-40ee91fdac3a","ios":"levelo://app?vid=ac62c4bb-d4c1-4a08-95d9-40ee91fdac3a"},"vehicle_type_id":"4","last_reported":1767928932,"current_range_meters":5600,"station_id":"ce4bgkh2rcd13ifvqbk0","pricing_plan_id":"cebpf4jnsgd1na2vs0mg"},{"bike_id":"ef8b8eb6-6226-4146-95a1-d01c656eb60d","system_id":"levelo_inurba_marseille","lat":43.284753,"lon":5.484014,"is_reserved":false,"is_disabled":false,"rental_uris":{"android":"levelo://app?vid=ef8b8eb6-6226-4146-95a1-d01c656eb60d","ios":"levelo://app?vid=ef8b8eb6-6226-4146-95a1-d01c656eb60d"},"vehicle_type_id":"4","last_reported":1767928932,"current_range_meters":5600,"station_id":"st_d3svhcjqgbts73a3dn0g","pricing_plan_id":"cebpf4jnsgd1na2vs0mg"},{"bike_id":"393a41f0-e5f4-413f-9f9a-e6feae5722eb","system_id":"levelo_inurba_marseille","lat":43.25829,"lon":5.39408,"is_reserved":false,"is_disabled":false,"rental_uris":{"android":"levelo://app?vid=393a41f0-e5f4-413f-9f9a-e6feae5722eb","ios":"levelo://app?vid=393a41f0-e5f4-413f-9f9a-e6feae5722eb"},"vehicle_type_id":"4","last_reported":1767928932,"current_range_meters":5600,"station_id":"ce4bhip2rcd13ifvqft0","pricing_plan_id":"cebpf4jnsgd1na2vs0mg"},{"bike_id":"3ada1a6b-6031-458a-b05a-7b349030768e","system_id":"levelo_inurba_marseille","lat":43.30528,"lon":5.36848,"is_reserved":false,"is_disabled":false,"rental_uris":{"android":"levelo://app?vid=3ada1a6b-6031-458a-b05a-7b349030768e","ios":"levelo://app?vid=3ada1a6b-6031-458a-b05a-7b349030768e"},"vehicle_type_id":"4","last_reported":1767928932,"current_range_meters":5600,"station_id":"","pricing_plan_id":"cebpf4jnsgd1na2vs0mg"},{"bike_id":"b4fa0935-9b50-4a59-a851-194d4cccd67f","system_id":"levelo_inurba_marseille","lat":43.241682,"lon":5.363962,"is_reserved":false,"is_disabled":false,"rental_uris":{"android":"levelo://app?vid=b4fa0935-9b50-4a59-a851-194d4cccd67f","ios":"levelo://app?vid=b4fa0935-9b50-4a59-a851-194d4cccd67f"},"vehicle_type_id":"4","last_reported":1767928932,"current_range_meters":5600,"station_id":"cpo36qri1sfpv3e86is0","pricing_plan_id":"cebpf4jnsgd1na2vs0mg"},{"bike_id":"690d7b5d-09af-414a-9bea-3892849e41fe","system_id":"levelo_inurba_marseille","lat":43.30819,"lon":5.38137,"is_reserved":false,"is_disabled":false,"rental_uris":{"android":"levelo://app?vid=690d7b5d-09af-414a-9bea-3892849e41fe","ios":"levelo://app?vid=690d7b5d-09af-414a-9bea-3892849e41fe"},"vehicle_type_id":"4","last_reported":1767928932,"current_range_meters":6000,"station_id":"ce4bgt12rcd13ifvqce0","pricing_plan_id":"cebpf4jnsgd1na2vs0mg"},{"bike_id":"ec7bdac0-05d6-48f4-8822-230fe108a37f","system_id":"levelo_inurba_marseille","lat":43.308832,"lon":5.396466,"is_reserved":false,"is_disabled":true,"rental_uris":{"android":"levelo://app?vid=ec7bdac0-05d6-48f4-8822-230fe108a37f","ios":"levelo://app?vid=ec7bdac0-05d6-48f4-8822-230fe108a37f"},"vehicle_type_id":"4","last_reported":1767928932,"current_range_meters":6000,"station_id":"ce4bh012rcd13ifvqcv0","pricing_plan_id":"cebpf4jnsgd1na2vs0mg"},{"bike_id":"662b526c-8c27-4d2d-b35e-6a1cdf3512ce","system_id":"levelo_inurba_marseille","lat":43.24807,"lon":5.37465,"is_reserved":false,"is_disabled":false,"rental_uris":{"android":"levelo://app?vid=662b526c-8c27-4d2d-b35e-6a1cdf3512ce","ios":"levelo://app?vid=662b526c-8c27-4d2d-b35e-6a1cdf3512ce"},"vehicle_type_id":"4","last_reported":1767928932,"current_range_meters":6000,"station_id":"ce4bhgh2rcd13ifvqfb0","pricing_plan_id":"cebpf4jnsgd1na2vs0mg"},{"bike_id":"df8e1d6f-10b7-488a-9164-bc1802e0bddd","system_id":"levelo_inurba_marseille","lat":43.25836,"lon":5.39427,"is_reserved":false,"is_disabled":false,"rental_uris":{"android":"levelo://app?vid=df8e1d6f-10b7-488a-9164-bc1802e0bddd","ios":"levelo://app?vid=df8e1d6f-10b7-488a-9164-bc1802e0bddd"},"vehicle_type_id":"4","last_reported":1767928932,"current_range_meters":6000,"station_id":"ce4bhip2rcd13ifvqft0","pricing_plan_id":"cebpf4jnsgd1na2vs0mg"},{"bike_id":"868e0723-8a5a-4918-864f-30e9341848ec","system_id":"levelo_inurba_marseille","lat":43.25327,"lon":5.421693,"is_reserved":false,"is_disabled":false,"rental_uris":{"android":"levelo://app?vid=868e0723-8a5a-4918-864f-30e9341848ec","ios":"levelo://app?vid=868e0723-8a5a-4918-864f-30e9341848ec"},"vehicle_type_id":"4","last_reported":1767928932,"current_range_meters":6000,"station_id":"st_d2m65c5bi1j21697t3ng","pricing_plan_id":"cebpf4jnsgd1na2vs0mg"},{"bike_id":"7079bdb2-fe45-4309-a762-84cee8c3e4fd","system_id":"levelo_inurba_marseille","lat":43.26538,"lon":5.37292,"is_reserved":false,"is_disabled":false,"rental_uris":{"android":"levelo://app?vid=7079bdb2-fe45-4309-a762-84cee8c3e4fd","ios":"levelo://app?vid=7079bdb2-fe45-4309-a762-84cee8c3e4fd"},"vehicle_type_id":"4","last_reported":1767928932,"current_range_meters":6000,"station_id":"ce4bhg12rcd13ifvqf70","pricing_plan_id":"cebpf4jnsgd1na2vs0mg"},{"bike_id":"efcbda51-62e1-4f07-ab6b-7f654193639e","system_id":"levelo_inurba_marseille","lat":43.26069,"lon":5.39399,"is_reserved":false,"is_disabled":false,"rental_uris":{"android":"levelo://app?vid=efcbda51-62e1-4f07-ab6b-7f654193639e","ios":"levelo://app?vid=efcbda51-62e1-4f07-ab6b-7f654193639e"},"vehicle_type_id":"4","last_reported":1767928932,"current_range_meters":6000,"station_id":"ce4bhh92rcd13ifvqfj0","pricing_plan_id":"cebpf4jnsgd1na2vs0mg"},{"bike_id":"4eb82fa0-7803-4a10-90fe-2a5c9e41b4a0","system_id":"levelo_inurba_marseille","lat":43.25569,"lon":5.38242,"is_reserved":false,"is_disabled":false,"rental_uris":{"android":"levelo://app?vid=4eb82fa0-7803-4a10-90fe-2a5c9e41b4a0","ios":"levelo://app?vid=4eb82fa0-7803-4a10-90fe-2a5c9e41b4a0"},"vehicle_type_id":"4","last_reported":1767928932,"current_range_meters":6000,"station_id":"ce4bhih2rcd13ifvqfs0","pricing_plan_id":"cebpf4jnsgd1na2vs0mg"},{"bike_id":"1a68cb84-5015-4254-8743-ae34d93b9057","system_id":"levelo_inurba_marseille","lat":43.28616,"lon":5.35108,"is_reserved":false,"is_disabled":false,"rental_uris":{"android":"levelo://app?vid=1a68cb84-5015-4254-8743-ae34d93b9057","ios":"levelo://app?vid=1a68cb84-5015-4254-8743-ae34d93b9057"},"vehicle_type_id":"4","last_reported":1767928932,"current_range_meters":6000,"station_id":"ce4bhch2rcd13ifvqeug","pricing_plan_id":"cebpf4jnsgd1na2vs0mg"},{"bike_id":"8ddd903e-4b58-445b-933d-a20697560094","system_id":"levelo_inurba_marseille","lat":43.334124,"lon":5.400667,"is_reserved":false,"is_disabled":false,"rental_uris":{"android":"levelo://app?vid=8ddd903e-4b58-445b-933d-a20697560094","ios":"levelo://app?vid=8ddd903e-4b58-445b-933d-a20697560094"},"vehicle_type_id":"4","last_reported":1767928932,"current_range_meters":6000,"station_id":"","pricing_plan_id":"cebpf4jnsgd1na2vs0mg"},{"bike_id":"fb7fdc8b-535b-4e29-a51e-736c594595b5","system_id":"levelo_inurba_marseille","lat":43.257607,"lon":5.394362,"is_reserved":false,"is_disabled":false,"rental_uris":{"android":"levelo://app?vid=fb7fdc8b-535b-4e29-a51e-736c594595b5","ios":"levelo://app?vid=fb7fdc8b-535b-4e29-a51e-736c594595b5"},"vehicle_type_id":"4","last_reported":1767928932,"current_range_meters":6000,"station_id":"","pricing_plan_id":"cebpf4jnsgd1na2vs0mg"},{"bike_id":"83baf7ef-456e-4c72-9805-22aa4846a1b3","system_id":"levelo_inurba_marseille","lat":43.28533,"lon":5.44102,"is_reserved":false,"is_disabled":false,"rental_uris":{"android":"levelo://app?vid=83baf7ef-456e-4c72-9805-22aa4846a1b3","ios":"levelo://app?vid=83baf7ef-456e-4c72-9805-22aa4846a1b3"},"vehicle_type_id":"4","last_reported":1767928932,"current_range_meters":6000,"station_id":"st_d3j3df2ikq2c7380ej80","pricing_plan_id":"cebpf4jnsgd1na2vs0mg"},{"bike_id":"d1da6efe-850d-40dc-ab1a-ce4ecb2d89c2","system_id":"levelo_inurba_marseille","lat":43.23179,"lon":5.39991,"is_reserved":false,"is_disabled":false,"rental_uris":{"android":"levelo://app?vid=d1da6efe-850d-40dc-ab1a-ce4ecb2d89c2","ios":"levelo://app?vid=d1da6efe-850d-40dc-ab1a-ce4ecb2d89c2"},"vehicle_type_id":"4","last_reported":1767928932,"current_range_meters":6000,"station_id":"ce4bhn12rcd13ifvqgqg","pricing_plan_id":"cebpf4jnsgd1na2vs0mg"},{"bike_id":"79544bb9-349f-409e-b2bb-723f19511937","system_id":"levelo_inurba_marseille","lat":43.285319,"lon":5.441016,"is_reserved":false,"is_disabled":false,"rental_uris":{"android":"levelo://app?vid=79544bb9-349f-409e-b2bb-723f19511937","ios":"levelo://app?vid=79544bb9-349f-409e-b2bb-723f19511937"},"vehicle_type_id":"4","last_reported":1767928932,"current_range_meters":6000,"station_id":"st_d3j3df2ikq2c7380ej80","pricing_plan_id":"cebpf4jnsgd1na2vs0mg"},{"bike_id":"0fd80f10-4304-4c12-9af3-a94a305f109a","system_id":"levelo_inurba_marseille","lat":43.2606,"lon":5.39399,"is_reserved":false,"is_disabled":false,"rental_uris":{"android":"levelo://app?vid=0fd80f10-4304-4c12-9af3-a94a305f109a","ios":"levelo://app?vid=0fd80f10-4304-4c12-9af3-a94a305f109a"},"vehicle_type_id":"4","last_reported":1767928932,"current_range_meters":6000,"station_id":"ce4bhh92rcd13ifvqfj0","pricing_plan_id":"cebpf4jnsgd1na2vs0mg"},{"bike_id":"ae4ea6af-ac8e-4f9d-acb8-d08926e47bb1","system_id":"levelo_inurba_marseille","lat":43.33163,"lon":5.37748,"is_reserved":false,"is_disabled":false,"rental_uris":{"android":"levelo://app?vid=ae4ea6af-ac8e-4f9d-acb8-d08926e47bb1","ios":"levelo://app?vid=ae4ea6af-ac8e-4f9d-acb8-d08926e47bb1"},"vehicle_type_id":"4","last_reported":1767928932,"current_range_meters":6400,"station_id":"","pricing_plan_id":"cebpf4jnsgd1na2vs0mg"},{"bike_id":"92ec400a-1816-464b-b776-d8ae8599bbc7","system_id":"levelo_inurba_marseille","lat":43.25586,"lon":5.38237,"is_reserved":false,"is_disabled":false,"rental_uris":{"android":"levelo://app?vid=92ec400a-1816-464b-b776-d8ae8599bbc7","ios":"levelo://app?vid=92ec400a-1816-464b-b776-d8ae8599bbc7"},"vehicle_type_id":"4","last_reported":1767928932,"current_range_meters":6400,"station_id":"ce4bhih2rcd13ifvqfs0","pricing_plan_id":"cebpf4jnsgd1na2vs0mg"},{"bike_id":"105c4b26-942d-4f45-9252-db9310292cb7","system_id":"levelo_inurba_marseille","lat":43.24658,"lon":5.38138,"is_reserved":false,"is_disabled":false,"rental_uris":{"android":"levelo://app?vid=105c4b26-942d-4f45-9252-db9310292cb7","ios":"levelo://app?vid=105c4b26-942d-4f45-9252-db9310292cb7"},"vehicle_type_id":"4","last_reported":1767928932,"current_range_meters":6400,"station_id":"ce4bhih2rcd13ifvqfr0","pricing_plan_id":"cebpf4jnsgd1na2vs0mg"},{"bike_id":"8f870c12-c0c3-4b7a-8d0a-24f628ad1788","system_id":"levelo_inurba_marseille","lat":43.31004,"lon":5.37963,"is_reserved":false,"is_disabled":false,"rental_uris":{"android":"levelo://app?vid=8f870c12-c0c3-4b7a-8d0a-24f628ad1788","ios":"levelo://app?vid=8f870c12-c0c3-4b7a-8d0a-24f628ad1788"},"vehicle_type_id":"4","last_reported":1767928932,"current_range_meters":6400,"station_id":"","pricing_plan_id":"cebpf4jnsgd1na2vs0mg"},{"bike_id":"98dc7c1c-3a5e-42a5-9270-a7d4dc83e61a","system_id":"levelo_inurba_marseille","lat":43.29521,"lon":5.37495,"is_reserved":false,"is_disabled":false,"rental_uris":{"android":"levelo://app?vid=98dc7c1c-3a5e-42a5-9270-a7d4dc83e61a","ios":"levelo://app?vid=98dc7c1c-3a5e-42a5-9270-a7d4dc83e61a"},"vehicle_type_id":"4","last_reported":1767928932,"current_range_meters":6400,"station_id":"ce4bgkp2rcd13ifvqbmg","pricing_plan_id":"cebpf4jnsgd1na2vs0mg"},{"bike_id":"919b15c7-f6dc-4085-8719-a8f579d2184e","system_id":"levelo_inurba_marseille","lat":43.27376,"lon":5.3626,"is_reserved":false,"is_disabled":false,"rental_uris":{"android":"levelo://app?vid=919b15c7-f6dc-4085-8719-a8f579d2184e","ios":"levelo://app?vid=919b15c7-f6dc-4085-8719-a8f579d2184e"},"vehicle_type_id":"4","last_reported":1767928932,"current_range_meters":6400,"station_id":"ce4bhbh2rcd13ifvqeo0","pricing_plan_id":"cebpf4jnsgd1na2vs0mg"},{"bike_id":"6df19930-e3eb-4eb3-9a45-a01da3418078","system_id":"levelo_inurba_marseille","lat":43.25821,"lon":5.39405,"is_reserved":false,"is_disabled":false,"rental_uris":{"android":"levelo://app?vid=6df19930-e3eb-4eb3-9a45-a01da3418078","ios":"levelo://app?vid=6df19930-e3eb-4eb3-9a45-a01da3418078"},"vehicle_type_id":"4","last_reported":1767928932,"current_range_meters":6400,"station_id":"ce4bhip2rcd13ifvqft0","pricing_plan_id":"cebpf4jnsgd1na2vs0mg"},{"bike_id":"00bf2578-c2e7-4693-bdfc-aa0da096cebc","system_id":"levelo_inurba_marseille","lat":43.2533,"lon":5.42162,"is_reserved":false,"is_disabled":false,"rental_uris":{"android":"levelo://app?vid=00bf2578-c2e7-4693-bdfc-aa0da096cebc","ios":"levelo://app?vid=00bf2578-c2e7-4693-bdfc-aa0da096cebc"},"vehicle_type_id":"4","last_reported":1767928932,"current_range_meters":6400,"station_id":"st_d2m65c5bi1j21697t3ng","pricing_plan_id":"cebpf4jnsgd1na2vs0mg"},{"bike_id":"5407fece-b1e5-43a9-86e2-b54a7e31d89d","system_id":"levelo_inurba_marseille","lat":43.26208,"lon":5.3744,"is_reserved":false,"is_disabled":false,"rental_uris":{"android":"levelo://app?vid=5407fece-b1e5-43a9-86e2-b54a7e31d89d","ios":"levelo://app?vid=5407fece-b1e5-43a9-86e2-b54a7e31d89d"},"vehicle_type_id":"4","last_reported":1767928932,"current_range_meters":6400,"station_id":"ce4bhgp2rcd13ifvqfc0","pricing_plan_id":"cebpf4jnsgd1na2vs0mg"},{"bike_id":"e41d8bea-ffd2-440d-b446-b472b1d04e4d","system_id":"levelo_inurba_marseille","lat":43.23988,"lon":5.36599,"is_reserved":false,"is_disabled":false,"rental_uris":{"android":"levelo://app?vid=e41d8bea-ffd2-440d-b446-b472b1d04e4d","ios":"levelo://app?vid=e41d8bea-ffd2-440d-b446-b472b1d04e4d"},"vehicle_type_id":"4","last_reported":1767928932,"current_range_meters":6400,"station_id":"ce4bhi12rcd13ifvqfp0","pricing_plan_id":"cebpf4jnsgd1na2vs0mg"},{"bike_id":"ac64f432-9ab8-4dd9-b132-5f28fccbe7fd","system_id":"levelo_inurba_marseille","lat":43.3055,"lon":5.36716,"is_reserved":false,"is_disabled":false,"rental_uris":{"android":"levelo://app?vid=ac64f432-9ab8-4dd9-b132-5f28fccbe7fd","ios":"levelo://app?vid=ac64f432-9ab8-4dd9-b132-5f28fccbe7fd"},"vehicle_type_id":"4","last_reported":1767928932,"current_range_meters":6400,"station_id":"ce4bgrp2rcd13ifvqc9g","pricing_plan_id":"cebpf4jnsgd1na2vs0mg"},{"bike_id":"3b23b54b-4b37-4bff-b135-f439977afa85","system_id":"levelo_inurba_marseille","lat":43.26378,"lon":5.41074,"is_reserved":false,"is_disabled":false,"rental_uris":{"android":"levelo://app?vid=3b23b54b-4b37-4bff-b135-f439977afa85","ios":"levelo://app?vid=3b23b54b-4b37-4bff-b135-f439977afa85"},"vehicle_type_id":"4","last_reported":1767928932,"current_range_meters":6400,"station_id":"st_d4e5ca6na9uc73bfl5fg","pricing_plan_id":"cebpf4jnsgd1na2vs0mg"},{"bike_id":"94a6901e-f050-4dbd-8990-b774d466a29a","system_id":"levelo_inurba_marseille","lat":43.321137,"lon":5.36762,"is_reserved":false,"is_disabled":false,"rental_uris":{"android":"levelo://app?vid=94a6901e-f050-4dbd-8990-b774d466a29a","ios":"levelo://app?vid=94a6901e-f050-4dbd-8990-b774d466a29a"},"vehicle_type_id":"4","last_reported":1767928932,"current_range_meters":6400,"station_id":"ce4bhrh2rcd13ifvqhug","pricing_plan_id":"cebpf4jnsgd1na2vs0mg"},{"bike_id":"e412bd1f-9559-40df-baea-da06ff8409ea","system_id":"levelo_inurba_marseille","lat":43.31065,"lon":5.37179,"is_reserved":false,"is_disabled":true,"rental_uris":{"android":"levelo://app?vid=e412bd1f-9559-40df-baea-da06ff8409ea","ios":"levelo://app?vid=e412bd1f-9559-40df-baea-da06ff8409ea"},"vehicle_type_id":"4","last_reported":1767928932,"current_range_meters":6400,"station_id":"st_d4kl2rp97mjs73e7tdfg","pricing_plan_id":"cebpf4jnsgd1na2vs0mg"},{"bike_id":"845bee73-fea8-4b21-9671-09bb9a36c361","system_id":"levelo_inurba_marseille","lat":43.25083,"lon":5.39518,"is_reserved":false,"is_disabled":false,"rental_uris":{"android":"levelo://app?vid=845bee73-fea8-4b21-9671-09bb9a36c361","ios":"levelo://app?vid=845bee73-fea8-4b21-9671-09bb9a36c361"},"vehicle_type_id":"4","last_reported":1767928932,"current_range_meters":6400,"station_id":"ce4bhm12rcd13ifvqgkg","pricing_plan_id":"cebpf4jnsgd1na2vs0mg"},{"bike_id":"5d9cf16b-1d31-47c6-9202-9dcf298ecce7","system_id":"levelo_inurba_marseille","lat":43.291649,"lon":5.371628,"is_reserved":false,"is_disabled":false,"rental_uris":{"android":"levelo://app?vid=5d9cf16b-1d31-47c6-9202-9dcf298ecce7","ios":"levelo://app?vid=5d9cf16b-1d31-47c6-9202-9dcf298ecce7"},"vehicle_type_id":"4","last_reported":1767928932,"current_range_meters":6400,"station_id":"ce4bha92rcd13ifvqeh0","pricing_plan_id":"cebpf4jnsgd1na2vs0mg"},{"bike_id":"109d8450-b799-43a9-9483-e184082bc190","system_id":"levelo_inurba_marseille","lat":43.31156,"lon":5.38688,"is_reserved":false,"is_disabled":false,"rental_uris":{"android":"levelo://app?vid=109d8450-b799-43a9-9483-e184082bc190","ios":"levelo://app?vid=109d8450-b799-43a9-9483-e184082bc190"},"vehicle_type_id":"4","last_reported":1767928932,"current_range_meters":6400,"station_id":"ce4bgv12rcd13ifvqcp0","pricing_plan_id":"cebpf4jnsgd1na2vs0mg"},{"bike_id":"4a17308d-76c5-4b91-a55b-3ce8529ea7b8","system_id":"levelo_inurba_marseille","lat":43.32723,"lon":5.39251,"is_reserved":false,"is_disabled":false,"rental_uris":{"android":"levelo://app?vid=4a17308d-76c5-4b91-a55b-3ce8529ea7b8","ios":"levelo://app?vid=4a17308d-76c5-4b91-a55b-3ce8529ea7b8"},"vehicle_type_id":"4","last_reported":1767928932,"current_range_meters":6400,"station_id":"","pricing_plan_id":"cebpf4jnsgd1na2vs0mg"},{"bike_id":"2fe24f14-6f81-40d5-b636-0701220e28ac","system_id":"levelo_inurba_marseille","lat":43.23969,"lon":5.36681,"is_reserved":false,"is_disabled":false,"rental_uris":{"android":"levelo://app?vid=2fe24f14-6f81-40d5-b636-0701220e28ac","ios":"levelo://app?vid=2fe24f14-6f81-40d5-b636-0701220e28ac"},"vehicle_type_id":"4","last_reported":1767928932,"current_range_meters":6400,"station_id":"ce4bhi12rcd13ifvqfp0","pricing_plan_id":"cebpf4jnsgd1na2vs0mg"},{"bike_id":"6696ce4b-3762-4c3f-bc10-b7d5ae83ab3e","system_id":"levelo_inurba_marseille","lat":43.29245,"lon":5.40917,"is_reserved":false,"is_disabled":false,"rental_uris":{"android":"levelo://app?vid=6696ce4b-3762-4c3f-bc10-b7d5ae83ab3e","ios":"levelo://app?vid=6696ce4b-3762-4c3f-bc10-b7d5ae83ab3e"},"vehicle_type_id":"4","last_reported":1767928932,"current_range_meters":6800,"station_id":"ce4bh192rcd13ifvqdc0","pricing_plan_id":"cebpf4jnsgd1na2vs0mg"},{"bike_id":"a05e4379-7c2e-4edc-831a-4c3fbe80a60c","system_id":"levelo_inurba_marseille","lat":43.30125,"lon":5.43117,"is_reserved":false,"is_disabled":false,"rental_uris":{"android":"levelo://app?vid=a05e4379-7c2e-4edc-831a-4c3fbe80a60c","ios":"levelo://app?vid=a05e4379-7c2e-4edc-831a-4c3fbe80a60c"},"vehicle_type_id":"4","last_reported":1767928932,"current_range_meters":6800,"station_id":"st_d3js3co5814s73ftftug","pricing_plan_id":"cebpf4jnsgd1na2vs0mg"},{"bike_id":"6d0a99f0-f979-4bad-ad22-7423652e0a11","system_id":"levelo_inurba_marseille","lat":43.27912,"lon":5.38006,"is_reserved":false,"is_disabled":false,"rental_uris":{"android":"levelo://app?vid=6d0a99f0-f979-4bad-ad22-7423652e0a11","ios":"levelo://app?vid=6d0a99f0-f979-4bad-ad22-7423652e0a11"},"vehicle_type_id":"4","last_reported":1767928932,"current_range_meters":6800,"station_id":"ce4bhf92rcd13ifvqf50","pricing_plan_id":"cebpf4jnsgd1na2vs0mg"},{"bike_id":"d701f9a2-629b-4468-98f6-17ad25abddd3","system_id":"levelo_inurba_marseille","lat":43.28869,"lon":5.4252,"is_reserved":false,"is_disabled":false,"rental_uris":{"android":"levelo://app?vid=d701f9a2-629b-4468-98f6-17ad25abddd3","ios":"levelo://app?vid=d701f9a2-629b-4468-98f6-17ad25abddd3"},"vehicle_type_id":"4","last_reported":1767928932,"current_range_meters":6800,"station_id":"st_d3b462108ojc7389ooeg","pricing_plan_id":"cebpf4jnsgd1na2vs0mg"},{"bike_id":"b245f0c5-78bf-4543-8037-721fc0e29b79","system_id":"levelo_inurba_marseille","lat":43.29606,"lon":5.376488,"is_reserved":false,"is_disabled":false,"rental_uris":{"android":"levelo://app?vid=b245f0c5-78bf-4543-8037-721fc0e29b79","ios":"levelo://app?vid=b245f0c5-78bf-4543-8037-721fc0e29b79"},"vehicle_type_id":"4","last_reported":1767928932,"current_range_meters":6800,"station_id":"","pricing_plan_id":"cebpf4jnsgd1na2vs0mg"},{"bike_id":"88436fbc-a867-41fd-9af6-6ae673233f14","system_id":"levelo_inurba_marseille","lat":43.24552,"lon":5.3953,"is_reserved":false,"is_disabled":false,"rental_uris":{"android":"levelo://app?vid=88436fbc-a867-41fd-9af6-6ae673233f14","ios":"levelo://app?vid=88436fbc-a867-41fd-9af6-6ae673233f14"},"vehicle_type_id":"4","last_reported":1767928932,"current_range_meters":6800,"station_id":"ce4bhlp2rcd13ifvqgjg","pricing_plan_id":"cebpf4jnsgd1na2vs0mg"},{"bike_id":"00352e05-4548-41f0-b7b3-bf74dc835bdc","system_id":"levelo_inurba_marseille","lat":43.313773,"lon":5.385025,"is_reserved":false,"is_disabled":false,"rental_uris":{"android":"levelo://app?vid=00352e05-4548-41f0-b7b3-bf74dc835bdc","ios":"levelo://app?vid=00352e05-4548-41f0-b7b3-bf74dc835bdc"},"vehicle_type_id":"4","last_reported":1767928932,"current_range_meters":6800,"station_id":"ce4bgt92rcd13ifvqcf0","pricing_plan_id":"cebpf4jnsgd1na2vs0mg"},{"bike_id":"52c545a6-4990-49e9-b5f1-ef579ddc71f3","system_id":"levelo_inurba_marseille","lat":43.25566,"lon":5.38231,"is_reserved":false,"is_disabled":false,"rental_uris":{"android":"levelo://app?vid=52c545a6-4990-49e9-b5f1-ef579ddc71f3","ios":"levelo://app?vid=52c545a6-4990-49e9-b5f1-ef579ddc71f3"},"vehicle_type_id":"4","last_reported":1767928932,"current_range_meters":6800,"station_id":"ce4bhih2rcd13ifvqfs0","pricing_plan_id":"cebpf4jnsgd1na2vs0mg"},{"bike_id":"617ca6f2-1481-4c5f-a165-87db9947444a","system_id":"levelo_inurba_marseille","lat":43.28484,"lon":5.48386,"is_reserved":false,"is_disabled":false,"rental_uris":{"android":"levelo://app?vid=617ca6f2-1481-4c5f-a165-87db9947444a","ios":"levelo://app?vid=617ca6f2-1481-4c5f-a165-87db9947444a"},"vehicle_type_id":"4","last_reported":1767928932,"current_range_meters":6800,"station_id":"st_d3svhcjqgbts73a3dn0g","pricing_plan_id":"cebpf4jnsgd1na2vs0mg"},{"bike_id":"ce3cc1d9-9ec8-4064-92e2-4915f0b7e6ce","system_id":"levelo_inurba_marseille","lat":43.24613,"lon":5.43184,"is_reserved":false,"is_disabled":false,"rental_uris":{"android":"levelo://app?vid=ce3cc1d9-9ec8-4064-92e2-4915f0b7e6ce","ios":"levelo://app?vid=ce3cc1d9-9ec8-4064-92e2-4915f0b7e6ce"},"vehicle_type_id":"4","last_reported":1767928932,"current_range_meters":6800,"station_id":"st_d2m6c4gdas8pm72e190g","pricing_plan_id":"cebpf4jnsgd1na2vs0mg"},{"bike_id":"9490b0a7-c0e4-4b73-bab8-6508165586af","system_id":"levelo_inurba_marseille","lat":43.24952,"lon":5.40498,"is_reserved":false,"is_disabled":false,"rental_uris":{"android":"levelo://app?vid=9490b0a7-c0e4-4b73-bab8-6508165586af","ios":"levelo://app?vid=9490b0a7-c0e4-4b73-bab8-6508165586af"},"vehicle_type_id":"4","last_reported":1767928932,"current_range_meters":6800,"station_id":"st_d2ngiaodas8pm72gd1h0","pricing_plan_id":"cebpf4jnsgd1na2vs0mg"},{"bike_id":"18afe1b5-d903-471c-9912-7f7a549b58cf","system_id":"levelo_inurba_marseille","lat":43.32119,"lon":5.36779,"is_reserved":false,"is_disabled":false,"rental_uris":{"android":"levelo://app?vid=18afe1b5-d903-471c-9912-7f7a549b58cf","ios":"levelo://app?vid=18afe1b5-d903-471c-9912-7f7a549b58cf"},"vehicle_type_id":"4","last_reported":1767928932,"current_range_meters":6800,"station_id":"ce4bhrh2rcd13ifvqhug","pricing_plan_id":"cebpf4jnsgd1na2vs0mg"},{"bike_id":"ff952794-f6da-4471-9ec2-f667cbadd91a","system_id":"levelo_inurba_marseille","lat":43.241,"lon":5.377,"is_reserved":false,"is_disabled":false,"rental_uris":{"android":"levelo://app?vid=ff952794-f6da-4471-9ec2-f667cbadd91a","ios":"levelo://app?vid=ff952794-f6da-4471-9ec2-f667cbadd91a"},"vehicle_type_id":"4","last_reported":1767928932,"current_range_meters":6800,"station_id":"","pricing_plan_id":"cebpf4jnsgd1na2vs0mg"},{"bike_id":"a76c3cca-0b55-4bb3-a27f-9c1202d23218","system_id":"levelo_inurba_marseille","lat":43.27829,"lon":5.40723,"is_reserved":false,"is_disabled":false,"rental_uris":{"android":"levelo://app?vid=a76c3cca-0b55-4bb3-a27f-9c1202d23218","ios":"levelo://app?vid=a76c3cca-0b55-4bb3-a27f-9c1202d23218"},"vehicle_type_id":"4","last_reported":1767928932,"current_range_meters":6800,"station_id":"ce4bhnh2rcd13ifvqgtg","pricing_plan_id":"cebpf4jnsgd1na2vs0mg"},{"bike_id":"6ced9933-a7b3-4fa1-aedd-aa0efe62c41a","system_id":"levelo_inurba_marseille","lat":43.28534,"lon":5.44099,"is_reserved":false,"is_disabled":false,"rental_uris":{"android":"levelo://app?vid=6ced9933-a7b3-4fa1-aedd-aa0efe62c41a","ios":"levelo://app?vid=6ced9933-a7b3-4fa1-aedd-aa0efe62c41a"},"vehicle_type_id":"4","last_reported":1767928932,"current_range_meters":6800,"station_id":"st_d3j3df2ikq2c7380ej80","pricing_plan_id":"cebpf4jnsgd1na2vs0mg"},{"bike_id":"fa99c4ad-c02a-4d08-a929-1ee6d535f8ed","system_id":"levelo_inurba_marseille","lat":43.27374,"lon":5.36259,"is_reserved":false,"is_disabled":false,"rental_uris":{"android":"levelo://app?vid=fa99c4ad-c02a-4d08-a929-1ee6d535f8ed","ios":"levelo://app?vid=fa99c4ad-c02a-4d08-a929-1ee6d535f8ed"},"vehicle_type_id":"4","last_reported":1767928932,"current_range_meters":6800,"station_id":"ce4bhbh2rcd13ifvqeo0","pricing_plan_id":"cebpf4jnsgd1na2vs0mg"},{"bike_id":"02fbedcf-0ea4-4d04-a895-b6fc85e856b0","system_id":"levelo_inurba_marseille","lat":43.23961,"lon":5.36654,"is_reserved":false,"is_disabled":false,"rental_uris":{"android":"levelo://app?vid=02fbedcf-0ea4-4d04-a895-b6fc85e856b0","ios":"levelo://app?vid=02fbedcf-0ea4-4d04-a895-b6fc85e856b0"},"vehicle_type_id":"4","last_reported":1767928932,"current_range_meters":6800,"station_id":"ce4bhi12rcd13ifvqfp0","pricing_plan_id":"cebpf4jnsgd1na2vs0mg"},{"bike_id":"571ac46c-c09d-448b-985a-7beda82b850e","system_id":"levelo_inurba_marseille","lat":43.25422,"lon":5.42183,"is_reserved":false,"is_disabled":false,"rental_uris":{"android":"levelo://app?vid=571ac46c-c09d-448b-985a-7beda82b850e","ios":"levelo://app?vid=571ac46c-c09d-448b-985a-7beda82b850e"},"vehicle_type_id":"4","last_reported":1767928932,"current_range_meters":6800,"station_id":"","pricing_plan_id":"cebpf4jnsgd1na2vs0mg"},{"bike_id":"1ec94ba1-41d1-4288-80e5-6a131d1cb21d","system_id":"levelo_inurba_marseille","lat":43.253303,"lon":5.42172,"is_reserved":false,"is_disabled":false,"rental_uris":{"android":"levelo://app?vid=1ec94ba1-41d1-4288-80e5-6a131d1cb21d","ios":"levelo://app?vid=1ec94ba1-41d1-4288-80e5-6a131d1cb21d"},"vehicle_type_id":"4","last_reported":1767928932,"current_range_meters":6800,"station_id":"st_d2m65c5bi1j21697t3ng","pricing_plan_id":"cebpf4jnsgd1na2vs0mg"},{"bike_id":"4cffb3bc-6cb7-4fb3-8e35-ce4d3792bbf1","system_id":"levelo_inurba_marseille","lat":43.28398,"lon":5.375112,"is_reserved":false,"is_disabled":false,"rental_uris":{"android":"levelo://app?vid=4cffb3bc-6cb7-4fb3-8e35-ce4d3792bbf1","ios":"levelo://app?vid=4cffb3bc-6cb7-4fb3-8e35-ce4d3792bbf1"},"vehicle_type_id":"4","last_reported":1767928932,"current_range_meters":6800,"station_id":"ce4bh412rcd13ifvqds0","pricing_plan_id":"cebpf4jnsgd1na2vs0mg"},{"bike_id":"8c90c973-d813-4351-b024-6a22ded6d260","system_id":"levelo_inurba_marseille","lat":43.32353,"lon":5.36761,"is_reserved":false,"is_disabled":false,"rental_uris":{"android":"levelo://app?vid=8c90c973-d813-4351-b024-6a22ded6d260","ios":"levelo://app?vid=8c90c973-d813-4351-b024-6a22ded6d260"},"vehicle_type_id":"4","last_reported":1767928932,"current_range_meters":6800,"station_id":"ce4bhsh2rcd13ifvqi2g","pricing_plan_id":"cebpf4jnsgd1na2vs0mg"},{"bike_id":"df8ff779-90c8-4b65-a5d0-99687c060dae","system_id":"levelo_inurba_marseille","lat":43.3235,"lon":5.36753,"is_reserved":false,"is_disabled":false,"rental_uris":{"android":"levelo://app?vid=df8ff779-90c8-4b65-a5d0-99687c060dae","ios":"levelo://app?vid=df8ff779-90c8-4b65-a5d0-99687c060dae"},"vehicle_type_id":"4","last_reported":1767928932,"current_range_meters":6800,"station_id":"ce4bhsh2rcd13ifvqi2g","pricing_plan_id":"cebpf4jnsgd1na2vs0mg"},{"bike_id":"748e6a5e-97a9-489d-8fdc-20f62045411a","system_id":"levelo_inurba_marseille","lat":43.28915,"lon":5.39701,"is_reserved":false,"is_disabled":false,"rental_uris":{"android":"levelo://app?vid=748e6a5e-97a9-489d-8fdc-20f62045411a","ios":"levelo://app?vid=748e6a5e-97a9-489d-8fdc-20f62045411a"},"vehicle_type_id":"4","last_reported":1767928932,"current_range_meters":6800,"station_id":"","pricing_plan_id":"cebpf4jnsgd1na2vs0mg"},{"bike_id":"207c1b32-ebc4-4783-ae0b-e370ada0350c","system_id":"levelo_inurba_marseille","lat":43.3062,"lon":5.39309,"is_reserved":false,"is_disabled":false,"rental_uris":{"android":"levelo://app?vid=207c1b32-ebc4-4783-ae0b-e370ada0350c","ios":"levelo://app?vid=207c1b32-ebc4-4783-ae0b-e370ada0350c"},"vehicle_type_id":"4","last_reported":1767928932,"current_range_meters":6800,"station_id":"","pricing_plan_id":"cebpf4jnsgd1na2vs0mg"},{"bike_id":"9b21fb58-1ca0-4226-bc9d-2eb45c91c4c6","system_id":"levelo_inurba_marseille","lat":43.22553,"lon":5.41619,"is_reserved":false,"is_disabled":false,"rental_uris":{"android":"levelo://app?vid=9b21fb58-1ca0-4226-bc9d-2eb45c91c4c6","ios":"levelo://app?vid=9b21fb58-1ca0-4226-bc9d-2eb45c91c4c6"},"vehicle_type_id":"4","last_reported":1767928932,"current_range_meters":6800,"station_id":"st_d2o4gvlbi1j2169b742g","pricing_plan_id":"cebpf4jnsgd1na2vs0mg"},{"bike_id":"51c6a9dd-af05-408b-83ce-2013893e5661","system_id":"levelo_inurba_marseille","lat":43.31728,"lon":5.3902,"is_reserved":false,"is_disabled":false,"rental_uris":{"android":"levelo://app?vid=51c6a9dd-af05-408b-83ce-2013893e5661","ios":"levelo://app?vid=51c6a9dd-af05-408b-83ce-2013893e5661"},"vehicle_type_id":"4","last_reported":1767928932,"current_range_meters":6800,"station_id":"ce4bhqp2rcd13ifvqhng","pricing_plan_id":"cebpf4jnsgd1na2vs0mg"},{"bike_id":"0be2933b-3376-4854-8e8b-e51b6e23ecc1","system_id":"levelo_inurba_marseille","lat":43.292265,"lon":5.360651,"is_reserved":false,"is_disabled":false,"rental_uris":{"android":"levelo://app?vid=0be2933b-3376-4854-8e8b-e51b6e23ecc1","ios":"levelo://app?vid=0be2933b-3376-4854-8e8b-e51b6e23ecc1"},"vehicle_type_id":"4","last_reported":1767928932,"current_range_meters":7200,"station_id":"ce4bhbh2rcd13ifvqeqg","pricing_plan_id":"cebpf4jnsgd1na2vs0mg"},{"bike_id":"528852f0-b3e1-4361-91fd-d35d5de704d7","system_id":"levelo_inurba_marseille","lat":43.25516,"lon":5.37661,"is_reserved":false,"is_disabled":false,"rental_uris":{"android":"levelo://app?vid=528852f0-b3e1-4361-91fd-d35d5de704d7","ios":"levelo://app?vid=528852f0-b3e1-4361-91fd-d35d5de704d7"},"vehicle_type_id":"4","last_reported":1767928932,"current_range_meters":7200,"station_id":"ce4bhh12rcd13ifvqff0","pricing_plan_id":"cebpf4jnsgd1na2vs0mg"},{"bike_id":"07ce38ef-b77b-4e60-8d32-d85f5b3b47f2","system_id":"levelo_inurba_marseille","lat":43.323522,"lon":5.367316,"is_reserved":false,"is_disabled":false,"rental_uris":{"android":"levelo://app?vid=07ce38ef-b77b-4e60-8d32-d85f5b3b47f2","ios":"levelo://app?vid=07ce38ef-b77b-4e60-8d32-d85f5b3b47f2"},"vehicle_type_id":"4","last_reported":1767928932,"current_range_meters":7200,"station_id":"ce4bhsh2rcd13ifvqi2g","pricing_plan_id":"cebpf4jnsgd1na2vs0mg"},{"bike_id":"79240f33-4a9c-4431-ac4a-e3c6cfd448c3","system_id":"levelo_inurba_marseille","lat":43.27993,"lon":5.40019,"is_reserved":false,"is_disabled":false,"rental_uris":{"android":"levelo://app?vid=79240f33-4a9c-4431-ac4a-e3c6cfd448c3","ios":"levelo://app?vid=79240f33-4a9c-4431-ac4a-e3c6cfd448c3"},"vehicle_type_id":"4","last_reported":1767928932,"current_range_meters":7200,"station_id":"ce4bho92rcd13ifvqh4g","pricing_plan_id":"cebpf4jnsgd1na2vs0mg"},{"bike_id":"fb8ebe22-05ca-4504-a2a2-5e92c8ef8e17","system_id":"levelo_inurba_marseille","lat":43.28718,"lon":5.36079,"is_reserved":false,"is_disabled":false,"rental_uris":{"android":"levelo://app?vid=fb8ebe22-05ca-4504-a2a2-5e92c8ef8e17","ios":"levelo://app?vid=fb8ebe22-05ca-4504-a2a2-5e92c8ef8e17"},"vehicle_type_id":"4","last_reported":1767928932,"current_range_meters":7200,"station_id":"cki0cbj6b192h4jlfktg","pricing_plan_id":"cebpf4jnsgd1na2vs0mg"},{"bike_id":"b2a3da8f-bf56-4eb9-9359-d00614059d44","system_id":"levelo_inurba_marseille","lat":43.29062,"lon":5.38151,"is_reserved":false,"is_disabled":false,"rental_uris":{"android":"levelo://app?vid=b2a3da8f-bf56-4eb9-9359-d00614059d44","ios":"levelo://app?vid=b2a3da8f-bf56-4eb9-9359-d00614059d44"},"vehicle_type_id":"4","last_reported":1767928932,"current_range_meters":7200,"station_id":"ce4bh512rcd13ifvqe2g","pricing_plan_id":"cebpf4jnsgd1na2vs0mg"},{"bike_id":"35bc93a6-6f9c-416a-8b7f-3420f66213d3","system_id":"levelo_inurba_marseille","lat":43.24165,"lon":5.363933,"is_reserved":false,"is_disabled":false,"rental_uris":{"android":"levelo://app?vid=35bc93a6-6f9c-416a-8b7f-3420f66213d3","ios":"levelo://app?vid=35bc93a6-6f9c-416a-8b7f-3420f66213d3"},"vehicle_type_id":"4","last_reported":1767928932,"current_range_meters":7200,"station_id":"cpo36qri1sfpv3e86is0","pricing_plan_id":"cebpf4jnsgd1na2vs0mg"},{"bike_id":"d1aec26d-c572-4d57-b073-47990dc08907","system_id":"levelo_inurba_marseille","lat":43.27821,"lon":5.40713,"is_reserved":false,"is_disabled":false,"rental_uris":{"android":"levelo://app?vid=d1aec26d-c572-4d57-b073-47990dc08907","ios":"levelo://app?vid=d1aec26d-c572-4d57-b073-47990dc08907"},"vehicle_type_id":"4","last_reported":1767928932,"current_range_meters":7200,"station_id":"ce4bhnh2rcd13ifvqgtg","pricing_plan_id":"cebpf4jnsgd1na2vs0mg"},{"bike_id":"cb54f6e5-9911-4432-98fa-33b8ae0da364","system_id":"levelo_inurba_marseille","lat":43.265671,"lon":5.390019,"is_reserved":false,"is_disabled":false,"rental_uris":{"android":"levelo://app?vid=cb54f6e5-9911-4432-98fa-33b8ae0da364","ios":"levelo://app?vid=cb54f6e5-9911-4432-98fa-33b8ae0da364"},"vehicle_type_id":"4","last_reported":1767928932,"current_range_meters":7200,"station_id":"ce4bhe12rcd13ifvqf30","pricing_plan_id":"cebpf4jnsgd1na2vs0mg"},{"bike_id":"bd3e889b-ccc0-4909-843d-efebd6b00eb2","system_id":"levelo_inurba_marseille","lat":43.3122,"lon":5.37077,"is_reserved":false,"is_disabled":false,"rental_uris":{"android":"levelo://app?vid=bd3e889b-ccc0-4909-843d-efebd6b00eb2","ios":"levelo://app?vid=bd3e889b-ccc0-4909-843d-efebd6b00eb2"},"vehicle_type_id":"4","last_reported":1767928932,"current_range_meters":7200,"station_id":"st_d4kl2rp97mjs73e7tdfg","pricing_plan_id":"cebpf4jnsgd1na2vs0mg"},{"bike_id":"577b404b-63b1-4b8e-82e8-29162d5c26c7","system_id":"levelo_inurba_marseille","lat":43.32573,"lon":5.36493,"is_reserved":false,"is_disabled":false,"rental_uris":{"android":"levelo://app?vid=577b404b-63b1-4b8e-82e8-29162d5c26c7","ios":"levelo://app?vid=577b404b-63b1-4b8e-82e8-29162d5c26c7"},"vehicle_type_id":"4","last_reported":1767928932,"current_range_meters":7200,"station_id":"","pricing_plan_id":"cebpf4jnsgd1na2vs0mg"},{"bike_id":"a0142eab-d2f1-428c-b4ef-12f50e042087","system_id":"levelo_inurba_marseille","lat":43.28848,"lon":5.39324,"is_reserved":false,"is_disabled":false,"rental_uris":{"android":"levelo://app?vid=a0142eab-d2f1-428c-b4ef-12f50e042087","ios":"levelo://app?vid=a0142eab-d2f1-428c-b4ef-12f50e042087"},"vehicle_type_id":"4","last_reported":1767928932,"current_range_meters":7200,"station_id":"ce4bh2p2rcd13ifvqdi0","pricing_plan_id":"cebpf4jnsgd1na2vs0mg"},{"bike_id":"5f78c659-cbb3-4ec0-96e3-b4fa61c35e46","system_id":"levelo_inurba_marseille","lat":43.28949,"lon":5.36637,"is_reserved":false,"is_disabled":false,"rental_uris":{"android":"levelo://app?vid=5f78c659-cbb3-4ec0-96e3-b4fa61c35e46","ios":"levelo://app?vid=5f78c659-cbb3-4ec0-96e3-b4fa61c35e46"},"vehicle_type_id":"4","last_reported":1767928932,"current_range_meters":7200,"station_id":"ce4bhap2rcd13ifvqek0","pricing_plan_id":"cebpf4jnsgd1na2vs0mg"},{"bike_id":"84be322d-3f5a-42b3-b4ff-9332fdae0ce8","system_id":"levelo_inurba_marseille","lat":43.331532,"lon":5.377119,"is_reserved":false,"is_disabled":false,"rental_uris":{"android":"levelo://app?vid=84be322d-3f5a-42b3-b4ff-9332fdae0ce8","ios":"levelo://app?vid=84be322d-3f5a-42b3-b4ff-9332fdae0ce8"},"vehicle_type_id":"4","last_reported":1767928932,"current_range_meters":7200,"station_id":"st_d46cu089ee8s73dldbu0","pricing_plan_id":"cebpf4jnsgd1na2vs0mg"},{"bike_id":"e4b543e4-7198-4112-93ae-6c25b36bd4a3","system_id":"levelo_inurba_marseille","lat":43.23787,"lon":5.36631,"is_reserved":false,"is_disabled":false,"rental_uris":{"android":"levelo://app?vid=e4b543e4-7198-4112-93ae-6c25b36bd4a3","ios":"levelo://app?vid=e4b543e4-7198-4112-93ae-6c25b36bd4a3"},"vehicle_type_id":"4","last_reported":1767928932,"current_range_meters":7200,"station_id":"st_d3nk18o9ro0c73en2l3g","pricing_plan_id":"cebpf4jnsgd1na2vs0mg"},{"bike_id":"31447a0e-5f20-40ed-81c7-81b3e7eb8db6","system_id":"levelo_inurba_marseille","lat":43.31396,"lon":5.3857,"is_reserved":false,"is_disabled":false,"rental_uris":{"android":"levelo://app?vid=31447a0e-5f20-40ed-81c7-81b3e7eb8db6","ios":"levelo://app?vid=31447a0e-5f20-40ed-81c7-81b3e7eb8db6"},"vehicle_type_id":"4","last_reported":1767928932,"current_range_meters":7200,"station_id":"","pricing_plan_id":"cebpf4jnsgd1na2vs0mg"},{"bike_id":"7a4121ad-9563-4e83-abfa-53a6ccaf8687","system_id":"levelo_inurba_marseille","lat":43.29278,"lon":5.40119,"is_reserved":false,"is_disabled":true,"rental_uris":{"android":"levelo://app?vid=7a4121ad-9563-4e83-abfa-53a6ccaf8687","ios":"levelo://app?vid=7a4121ad-9563-4e83-abfa-53a6ccaf8687"},"vehicle_type_id":"4","last_reported":1767928932,"current_range_meters":7200,"station_id":"ce4bh312rcd13ifvqdk0","pricing_plan_id":"cebpf4jnsgd1na2vs0mg"},{"bike_id":"66f67598-2018-40a7-a9e5-3a1c95b88666","system_id":"levelo_inurba_marseille","lat":43.287314,"lon":5.36071,"is_reserved":false,"is_disabled":false,"rental_uris":{"android":"levelo://app?vid=66f67598-2018-40a7-a9e5-3a1c95b88666","ios":"levelo://app?vid=66f67598-2018-40a7-a9e5-3a1c95b88666"},"vehicle_type_id":"4","last_reported":1767928932,"current_range_meters":7200,"station_id":"cki0cbj6b192h4jlfktg","pricing_plan_id":"cebpf4jnsgd1na2vs0mg"},{"bike_id":"755fddff-196e-4df8-9ed5-b269f8727526","system_id":"levelo_inurba_marseille","lat":43.27199,"lon":5.41011,"is_reserved":false,"is_disabled":false,"rental_uris":{"android":"levelo://app?vid=755fddff-196e-4df8-9ed5-b269f8727526","ios":"levelo://app?vid=755fddff-196e-4df8-9ed5-b269f8727526"},"vehicle_type_id":"4","last_reported":1767928932,"current_range_meters":7200,"station_id":"ce4bhl12rcd13ifvqgf0","pricing_plan_id":"cebpf4jnsgd1na2vs0mg"},{"bike_id":"a7797131-7cf7-4206-a200-4e16abaaf694","system_id":"levelo_inurba_marseille","lat":43.284315,"lon":5.392026,"is_reserved":false,"is_disabled":false,"rental_uris":{"android":"levelo://app?vid=a7797131-7cf7-4206-a200-4e16abaaf694","ios":"levelo://app?vid=a7797131-7cf7-4206-a200-4e16abaaf694"},"vehicle_type_id":"4","last_reported":1767928932,"current_range_meters":7200,"station_id":"ce4bhoh2rcd13ifvqh5g","pricing_plan_id":"cebpf4jnsgd1na2vs0mg"},{"bike_id":"2936f27a-4664-4418-8bc5-fe3d76635d8c","system_id":"levelo_inurba_marseille","lat":43.28466,"lon":5.39222,"is_reserved":false,"is_disabled":false,"rental_uris":{"android":"levelo://app?vid=2936f27a-4664-4418-8bc5-fe3d76635d8c","ios":"levelo://app?vid=2936f27a-4664-4418-8bc5-fe3d76635d8c"},"vehicle_type_id":"4","last_reported":1767928932,"current_range_meters":7200,"station_id":"ce4bhoh2rcd13ifvqh5g","pricing_plan_id":"cebpf4jnsgd1na2vs0mg"},{"bike_id":"a4537b00-759d-4d03-b0ab-600d30f2ba73","system_id":"levelo_inurba_marseille","lat":43.26551,"lon":5.39053,"is_reserved":false,"is_disabled":false,"rental_uris":{"android":"levelo://app?vid=a4537b00-759d-4d03-b0ab-600d30f2ba73","ios":"levelo://app?vid=a4537b00-759d-4d03-b0ab-600d30f2ba73"},"vehicle_type_id":"4","last_reported":1767928932,"current_range_meters":7200,"station_id":"ce4bhe12rcd13ifvqf30","pricing_plan_id":"cebpf4jnsgd1na2vs0mg"},{"bike_id":"d564640e-8980-4d50-9141-d01b2d41a726","system_id":"levelo_inurba_marseille","lat":43.24136,"lon":5.3644,"is_reserved":false,"is_disabled":false,"rental_uris":{"android":"levelo://app?vid=d564640e-8980-4d50-9141-d01b2d41a726","ios":"levelo://app?vid=d564640e-8980-4d50-9141-d01b2d41a726"},"vehicle_type_id":"4","last_reported":1767928932,"current_range_meters":7200,"station_id":"cpo36qri1sfpv3e86is0","pricing_plan_id":"cebpf4jnsgd1na2vs0mg"},{"bike_id":"fc9b7cac-bfef-44b9-9359-8b6b48c75cb4","system_id":"levelo_inurba_marseille","lat":43.25822,"lon":5.39427,"is_reserved":false,"is_disabled":false,"rental_uris":{"android":"levelo://app?vid=fc9b7cac-bfef-44b9-9359-8b6b48c75cb4","ios":"levelo://app?vid=fc9b7cac-bfef-44b9-9359-8b6b48c75cb4"},"vehicle_type_id":"4","last_reported":1767928932,"current_range_meters":7200,"station_id":"ce4bhip2rcd13ifvqft0","pricing_plan_id":"cebpf4jnsgd1na2vs0mg"},{"bike_id":"1456ae37-f1ed-4712-949f-79cb8e4e5a03","system_id":"levelo_inurba_marseille","lat":43.23184,"lon":5.39986,"is_reserved":false,"is_disabled":false,"rental_uris":{"android":"levelo://app?vid=1456ae37-f1ed-4712-949f-79cb8e4e5a03","ios":"levelo://app?vid=1456ae37-f1ed-4712-949f-79cb8e4e5a03"},"vehicle_type_id":"4","last_reported":1767928932,"current_range_meters":7200,"station_id":"ce4bhn12rcd13ifvqgqg","pricing_plan_id":"cebpf4jnsgd1na2vs0mg"},{"bike_id":"203901a8-7796-462c-b8ca-ce985701687f","system_id":"levelo_inurba_marseille","lat":43.28041,"lon":5.39914,"is_reserved":false,"is_disabled":false,"rental_uris":{"android":"levelo://app?vid=203901a8-7796-462c-b8ca-ce985701687f","ios":"levelo://app?vid=203901a8-7796-462c-b8ca-ce985701687f"},"vehicle_type_id":"4","last_reported":1767928932,"current_range_meters":7200,"station_id":"","pricing_plan_id":"cebpf4jnsgd1na2vs0mg"},{"bike_id":"0f003947-35f3-407d-841f-7fac78f83875","system_id":"levelo_inurba_marseille","lat":43.27984,"lon":5.41684,"is_reserved":false,"is_disabled":false,"rental_uris":{"android":"levelo://app?vid=0f003947-35f3-407d-841f-7fac78f83875","ios":"levelo://app?vid=0f003947-35f3-407d-841f-7fac78f83875"},"vehicle_type_id":"4","last_reported":1767928932,"current_range_meters":7200,"station_id":"ce4bho12rcd13ifvqh1g","pricing_plan_id":"cebpf4jnsgd1na2vs0mg"},{"bike_id":"5e20282d-4a0c-49c8-88df-7f558c5b3dae","system_id":"levelo_inurba_marseille","lat":43.3078,"lon":5.38189,"is_reserved":false,"is_disabled":false,"rental_uris":{"android":"levelo://app?vid=5e20282d-4a0c-49c8-88df-7f558c5b3dae","ios":"levelo://app?vid=5e20282d-4a0c-49c8-88df-7f558c5b3dae"},"vehicle_type_id":"4","last_reported":1767928932,"current_range_meters":7200,"station_id":"ce4bgt12rcd13ifvqce0","pricing_plan_id":"cebpf4jnsgd1na2vs0mg"},{"bike_id":"5b729795-3f58-42af-b7c7-f29959ec97ba","system_id":"levelo_inurba_marseille","lat":43.262936,"lon":5.397285,"is_reserved":false,"is_disabled":false,"rental_uris":{"android":"levelo://app?vid=5b729795-3f58-42af-b7c7-f29959ec97ba","ios":"levelo://app?vid=5b729795-3f58-42af-b7c7-f29959ec97ba"},"vehicle_type_id":"4","last_reported":1767928932,"current_range_meters":8000,"station_id":"","pricing_plan_id":"cebpf4jnsgd1na2vs0mg"},{"bike_id":"bc80bdb5-586c-4328-ad85-a5efa6122a55","system_id":"levelo_inurba_marseille","lat":43.28844,"lon":5.393233,"is_reserved":false,"is_disabled":false,"rental_uris":{"android":"levelo://app?vid=bc80bdb5-586c-4328-ad85-a5efa6122a55","ios":"levelo://app?vid=bc80bdb5-586c-4328-ad85-a5efa6122a55"},"vehicle_type_id":"4","last_reported":1767928932,"current_range_meters":8000,"station_id":"","pricing_plan_id":"cebpf4jnsgd1na2vs0mg"},{"bike_id":"a947241a-d3af-4302-a18c-3fd572da3e9b","system_id":"levelo_inurba_marseille","lat":43.26017,"lon":5.37545,"is_reserved":false,"is_disabled":false,"rental_uris":{"android":"levelo://app?vid=a947241a-d3af-4302-a18c-3fd572da3e9b","ios":"levelo://app?vid=a947241a-d3af-4302-a18c-3fd572da3e9b"},"vehicle_type_id":"4","last_reported":1767928932,"current_range_meters":8000,"station_id":"ce4bhgh2rcd13ifvqfa0","pricing_plan_id":"cebpf4jnsgd1na2vs0mg"},{"bike_id":"b7dddc8e-ff5d-458a-a8d3-88dc4e34e930","system_id":"levelo_inurba_marseille","lat":43.27372,"lon":5.36262,"is_reserved":false,"is_disabled":false,"rental_uris":{"android":"levelo://app?vid=b7dddc8e-ff5d-458a-a8d3-88dc4e34e930","ios":"levelo://app?vid=b7dddc8e-ff5d-458a-a8d3-88dc4e34e930"},"vehicle_type_id":"4","last_reported":1767928932,"current_range_meters":8000,"station_id":"ce4bhbh2rcd13ifvqeo0","pricing_plan_id":"cebpf4jnsgd1na2vs0mg"},{"bike_id":"c674c454-2af5-49f7-821c-c3b83a90b616","system_id":"levelo_inurba_marseille","lat":43.311606,"lon":5.407152,"is_reserved":false,"is_disabled":false,"rental_uris":{"android":"levelo://app?vid=c674c454-2af5-49f7-821c-c3b83a90b616","ios":"levelo://app?vid=c674c454-2af5-49f7-821c-c3b83a90b616"},"vehicle_type_id":"4","last_reported":1767928932,"current_range_meters":8000,"station_id":"","pricing_plan_id":"cebpf4jnsgd1na2vs0mg"},{"bike_id":"18afa7e5-a060-43b9-bd3e-ab224bbb7669","system_id":"levelo_inurba_marseille","lat":43.2886,"lon":5.42525,"is_reserved":false,"is_disabled":false,"rental_uris":{"android":"levelo://app?vid=18afa7e5-a060-43b9-bd3e-ab224bbb7669","ios":"levelo://app?vid=18afa7e5-a060-43b9-bd3e-ab224bbb7669"},"vehicle_type_id":"4","last_reported":1767928932,"current_range_meters":8000,"station_id":"st_d3b462108ojc7389ooeg","pricing_plan_id":"cebpf4jnsgd1na2vs0mg"},{"bike_id":"b9f64b43-a2d1-436b-a057-8d2a1e3a6f31","system_id":"levelo_inurba_marseille","lat":43.31338,"lon":5.39701,"is_reserved":false,"is_disabled":false,"rental_uris":{"android":"levelo://app?vid=b9f64b43-a2d1-436b-a057-8d2a1e3a6f31","ios":"levelo://app?vid=b9f64b43-a2d1-436b-a057-8d2a1e3a6f31"},"vehicle_type_id":"4","last_reported":1767928932,"current_range_meters":8000,"station_id":"ce4bgvp2rcd13ifvqcu0","pricing_plan_id":"cebpf4jnsgd1na2vs0mg"},{"bike_id":"2919cce5-d058-401b-aaa9-262f4903e20d","system_id":"levelo_inurba_marseille","lat":43.25828,"lon":5.39421,"is_reserved":false,"is_disabled":false,"rental_uris":{"android":"levelo://app?vid=2919cce5-d058-401b-aaa9-262f4903e20d","ios":"levelo://app?vid=2919cce5-d058-401b-aaa9-262f4903e20d"},"vehicle_type_id":"4","last_reported":1767928932,"current_range_meters":8000,"station_id":"ce4bhip2rcd13ifvqft0","pricing_plan_id":"cebpf4jnsgd1na2vs0mg"},{"bike_id":"0d6a9a04-1891-48de-b8dc-a5fb353d9b7e","system_id":"levelo_inurba_marseille","lat":43.28975,"lon":5.35804,"is_reserved":false,"is_disabled":false,"rental_uris":{"android":"levelo://app?vid=0d6a9a04-1891-48de-b8dc-a5fb353d9b7e","ios":"levelo://app?vid=0d6a9a04-1891-48de-b8dc-a5fb353d9b7e"},"vehicle_type_id":"4","last_reported":1767928932,"current_range_meters":8000,"station_id":"","pricing_plan_id":"cebpf4jnsgd1na2vs0mg"},{"bike_id":"49693813-6422-4c0b-883f-2f9444f40ff2","system_id":"levelo_inurba_marseille","lat":43.25491,"lon":5.37648,"is_reserved":false,"is_disabled":false,"rental_uris":{"android":"levelo://app?vid=49693813-6422-4c0b-883f-2f9444f40ff2","ios":"levelo://app?vid=49693813-6422-4c0b-883f-2f9444f40ff2"},"vehicle_type_id":"4","last_reported":1767928932,"current_range_meters":8000,"station_id":"ce4bhh12rcd13ifvqff0","pricing_plan_id":"cebpf4jnsgd1na2vs0mg"},{"bike_id":"0092a9af-ce95-464f-a0fe-86884fe8846b","system_id":"levelo_inurba_marseille","lat":43.28934,"lon":5.36635,"is_reserved":false,"is_disabled":false,"rental_uris":{"android":"levelo://app?vid=0092a9af-ce95-464f-a0fe-86884fe8846b","ios":"levelo://app?vid=0092a9af-ce95-464f-a0fe-86884fe8846b"},"vehicle_type_id":"4","last_reported":1767928932,"current_range_meters":8000,"station_id":"ce4bhap2rcd13ifvqek0","pricing_plan_id":"cebpf4jnsgd1na2vs0mg"},{"bike_id":"846a16b3-1fe5-4069-bf28-57d7c5ef4445","system_id":"levelo_inurba_marseille","lat":43.286195,"lon":5.35103,"is_reserved":false,"is_disabled":false,"rental_uris":{"android":"levelo://app?vid=846a16b3-1fe5-4069-bf28-57d7c5ef4445","ios":"levelo://app?vid=846a16b3-1fe5-4069-bf28-57d7c5ef4445"},"vehicle_type_id":"4","last_reported":1767928932,"current_range_meters":8000,"station_id":"ce4bhch2rcd13ifvqeug","pricing_plan_id":"cebpf4jnsgd1na2vs0mg"},{"bike_id":"3050a01e-b5dd-4ce9-9416-d39aa54e8000","system_id":"levelo_inurba_marseille","lat":43.27993,"lon":5.41667,"is_reserved":false,"is_disabled":false,"rental_uris":{"android":"levelo://app?vid=3050a01e-b5dd-4ce9-9416-d39aa54e8000","ios":"levelo://app?vid=3050a01e-b5dd-4ce9-9416-d39aa54e8000"},"vehicle_type_id":"4","last_reported":1767928932,"current_range_meters":8000,"station_id":"ce4bho12rcd13ifvqh1g","pricing_plan_id":"cebpf4jnsgd1na2vs0mg"},{"bike_id":"da10a0db-4447-469a-95b9-b9e9c6623f5d","system_id":"levelo_inurba_marseille","lat":43.26311,"lon":5.39743,"is_reserved":false,"is_disabled":false,"rental_uris":{"android":"levelo://app?vid=da10a0db-4447-469a-95b9-b9e9c6623f5d","ios":"levelo://app?vid=da10a0db-4447-469a-95b9-b9e9c6623f5d"},"vehicle_type_id":"4","last_reported":1767928932,"current_range_meters":8000,"station_id":"","pricing_plan_id":"cebpf4jnsgd1na2vs0mg"},{"bike_id":"a8e18155-d5ce-4d37-9cc5-12efc31f909e","system_id":"levelo_inurba_marseille","lat":43.24161,"lon":5.36357,"is_reserved":false,"is_disabled":false,"rental_uris":{"android":"levelo://app?vid=a8e18155-d5ce-4d37-9cc5-12efc31f909e","ios":"levelo://app?vid=a8e18155-d5ce-4d37-9cc5-12efc31f909e"},"vehicle_type_id":"4","last_reported":1767928932,"current_range_meters":8000,"station_id":"cpo36qri1sfpv3e86is0","pricing_plan_id":"cebpf4jnsgd1na2vs0mg"},{"bike_id":"ee6e2cb0-3438-450d-a7e5-bdd8563f0fbe","system_id":"levelo_inurba_marseille","lat":43.24806,"lon":5.37457,"is_reserved":false,"is_disabled":false,"rental_uris":{"android":"levelo://app?vid=ee6e2cb0-3438-450d-a7e5-bdd8563f0fbe","ios":"levelo://app?vid=ee6e2cb0-3438-450d-a7e5-bdd8563f0fbe"},"vehicle_type_id":"4","last_reported":1767928932,"current_range_meters":8000,"station_id":"ce4bhgh2rcd13ifvqfb0","pricing_plan_id":"cebpf4jnsgd1na2vs0mg"},{"bike_id":"0f277686-ed3a-4e7b-be4a-9935e9ee293a","system_id":"levelo_inurba_marseille","lat":43.31277,"lon":5.40173,"is_reserved":false,"is_disabled":false,"rental_uris":{"android":"levelo://app?vid=0f277686-ed3a-4e7b-be4a-9935e9ee293a","ios":"levelo://app?vid=0f277686-ed3a-4e7b-be4a-9935e9ee293a"},"vehicle_type_id":"4","last_reported":1767928932,"current_range_meters":8000,"station_id":"ce4bh092rcd13ifvqd30","pricing_plan_id":"cebpf4jnsgd1na2vs0mg"},{"bike_id":"36c3097c-2122-4b98-a149-c16b13fb82b9","system_id":"levelo_inurba_marseille","lat":43.26073,"lon":5.39386,"is_reserved":false,"is_disabled":false,"rental_uris":{"android":"levelo://app?vid=36c3097c-2122-4b98-a149-c16b13fb82b9","ios":"levelo://app?vid=36c3097c-2122-4b98-a149-c16b13fb82b9"},"vehicle_type_id":"4","last_reported":1767928932,"current_range_meters":8000,"station_id":"ce4bhh92rcd13ifvqfj0","pricing_plan_id":"cebpf4jnsgd1na2vs0mg"},{"bike_id":"69185927-b2e2-42eb-87d5-744730150590","system_id":"levelo_inurba_marseille","lat":43.262219,"lon":5.404688,"is_reserved":false,"is_disabled":false,"rental_uris":{"android":"levelo://app?vid=69185927-b2e2-42eb-87d5-744730150590","ios":"levelo://app?vid=69185927-b2e2-42eb-87d5-744730150590"},"vehicle_type_id":"4","last_reported":1767928932,"current_range_meters":8000,"station_id":"ce4bhmh2rcd13ifvqgmg","pricing_plan_id":"cebpf4jnsgd1na2vs0mg"},{"bike_id":"c103346d-3384-4b83-9ff8-dff851f4fdfe","system_id":"levelo_inurba_marseille","lat":43.3142,"lon":5.38106,"is_reserved":false,"is_disabled":false,"rental_uris":{"android":"levelo://app?vid=c103346d-3384-4b83-9ff8-dff851f4fdfe","ios":"levelo://app?vid=c103346d-3384-4b83-9ff8-dff851f4fdfe"},"vehicle_type_id":"4","last_reported":1767928932,"current_range_meters":8000,"station_id":"","pricing_plan_id":"cebpf4jnsgd1na2vs0mg"},{"bike_id":"9a84455d-66b0-4d3f-8c81-d289293761d8","system_id":"levelo_inurba_marseille","lat":43.24165,"lon":5.36408,"is_reserved":false,"is_disabled":false,"rental_uris":{"android":"levelo://app?vid=9a84455d-66b0-4d3f-8c81-d289293761d8","ios":"levelo://app?vid=9a84455d-66b0-4d3f-8c81-d289293761d8"},"vehicle_type_id":"4","last_reported":1767928932,"current_range_meters":8000,"station_id":"cpo36qri1sfpv3e86is0","pricing_plan_id":"cebpf4jnsgd1na2vs0mg"},{"bike_id":"a853d17b-307b-4e56-8162-38b027b6e021","system_id":"levelo_inurba_marseille","lat":43.30602,"lon":5.37218,"is_reserved":false,"is_disabled":false,"rental_uris":{"android":"levelo://app?vid=a853d17b-307b-4e56-8162-38b027b6e021","ios":"levelo://app?vid=a853d17b-307b-4e56-8162-38b027b6e021"},"vehicle_type_id":"4","last_reported":1767928932,"current_range_meters":8000,"station_id":"ce4bgqh2rcd13ifvqc4g","pricing_plan_id":"cebpf4jnsgd1na2vs0mg"},{"bike_id":"e10d5ccc-4c33-499b-a08a-1348681381f9","system_id":"levelo_inurba_marseille","lat":43.29523,"lon":5.38163,"is_reserved":false,"is_disabled":false,"rental_uris":{"android":"levelo://app?vid=e10d5ccc-4c33-499b-a08a-1348681381f9","ios":"levelo://app?vid=e10d5ccc-4c33-499b-a08a-1348681381f9"},"vehicle_type_id":"4","last_reported":1767928932,"current_range_meters":8400,"station_id":"","pricing_plan_id":"cebpf4jnsgd1na2vs0mg"},{"bike_id":"81a2563a-845e-4b8c-9fa4-436f570b52dc","system_id":"levelo_inurba_marseille","lat":43.27068,"lon":5.38301,"is_reserved":false,"is_disabled":false,"rental_uris":{"android":"levelo://app?vid=81a2563a-845e-4b8c-9fa4-436f570b52dc","ios":"levelo://app?vid=81a2563a-845e-4b8c-9fa4-436f570b52dc"},"vehicle_type_id":"4","last_reported":1767928932,"current_range_meters":8400,"station_id":"st_d3n2fo6cfp8s73cte1j0","pricing_plan_id":"cebpf4jnsgd1na2vs0mg"},{"bike_id":"30c1554a-5a63-48b6-a122-23d1d5bc5565","system_id":"levelo_inurba_marseille","lat":43.29628,"lon":5.37789,"is_reserved":false,"is_disabled":false,"rental_uris":{"android":"levelo://app?vid=30c1554a-5a63-48b6-a122-23d1d5bc5565","ios":"levelo://app?vid=30c1554a-5a63-48b6-a122-23d1d5bc5565"},"vehicle_type_id":"4","last_reported":1767928932,"current_range_meters":8400,"station_id":"","pricing_plan_id":"cebpf4jnsgd1na2vs0mg"},{"bike_id":"b64e452a-bec0-47a7-9fd3-b6c2486866f5","system_id":"levelo_inurba_marseille","lat":43.28468,"lon":5.48407,"is_reserved":false,"is_disabled":false,"rental_uris":{"android":"levelo://app?vid=b64e452a-bec0-47a7-9fd3-b6c2486866f5","ios":"levelo://app?vid=b64e452a-bec0-47a7-9fd3-b6c2486866f5"},"vehicle_type_id":"4","last_reported":1767928932,"current_range_meters":8400,"station_id":"","pricing_plan_id":"cebpf4jnsgd1na2vs0mg"},{"bike_id":"19c90349-756f-4679-a530-ebef5565e237","system_id":"levelo_inurba_marseille","lat":43.32356,"lon":5.3674,"is_reserved":false,"is_disabled":false,"rental_uris":{"android":"levelo://app?vid=19c90349-756f-4679-a530-ebef5565e237","ios":"levelo://app?vid=19c90349-756f-4679-a530-ebef5565e237"},"vehicle_type_id":"4","last_reported":1767928932,"current_range_meters":8400,"station_id":"ce4bhsh2rcd13ifvqi2g","pricing_plan_id":"cebpf4jnsgd1na2vs0mg"},{"bike_id":"6fad9ca1-61fd-4cab-8c8e-75dda08e921f","system_id":"levelo_inurba_marseille","lat":43.31937,"lon":5.37341,"is_reserved":false,"is_disabled":false,"rental_uris":{"android":"levelo://app?vid=6fad9ca1-61fd-4cab-8c8e-75dda08e921f","ios":"levelo://app?vid=6fad9ca1-61fd-4cab-8c8e-75dda08e921f"},"vehicle_type_id":"4","last_reported":1767928932,"current_range_meters":8400,"station_id":"","pricing_plan_id":"cebpf4jnsgd1na2vs0mg"},{"bike_id":"c9c0a45f-0b5e-493e-b81b-012e0d5b7250","system_id":"levelo_inurba_marseille","lat":43.2656,"lon":5.37292,"is_reserved":false,"is_disabled":false,"rental_uris":{"android":"levelo://app?vid=c9c0a45f-0b5e-493e-b81b-012e0d5b7250","ios":"levelo://app?vid=c9c0a45f-0b5e-493e-b81b-012e0d5b7250"},"vehicle_type_id":"4","last_reported":1767928932,"current_range_meters":8400,"station_id":"ce4bhg12rcd13ifvqf70","pricing_plan_id":"cebpf4jnsgd1na2vs0mg"},{"bike_id":"0ad91354-ce1a-4be6-8d51-7bf5197b2d54","system_id":"levelo_inurba_marseille","lat":43.26203,"lon":5.40453,"is_reserved":false,"is_disabled":true,"rental_uris":{"android":"levelo://app?vid=0ad91354-ce1a-4be6-8d51-7bf5197b2d54","ios":"levelo://app?vid=0ad91354-ce1a-4be6-8d51-7bf5197b2d54"},"vehicle_type_id":"4","last_reported":1767928932,"current_range_meters":8400,"station_id":"ce4bhmh2rcd13ifvqgmg","pricing_plan_id":"cebpf4jnsgd1na2vs0mg"},{"bike_id":"2ce5425d-5b38-4acd-a6e9-bb0d6532119b","system_id":"levelo_inurba_marseille","lat":43.29893,"lon":5.43644,"is_reserved":false,"is_disabled":false,"rental_uris":{"android":"levelo://app?vid=2ce5425d-5b38-4acd-a6e9-bb0d6532119b","ios":"levelo://app?vid=2ce5425d-5b38-4acd-a6e9-bb0d6532119b"},"vehicle_type_id":"4","last_reported":1767928932,"current_range_meters":8400,"station_id":"ce4bhpp2rcd13ifvqhfg","pricing_plan_id":"cebpf4jnsgd1na2vs0mg"},{"bike_id":"bff6940a-d2ed-49ac-a8f5-e4a674d161ff","system_id":"levelo_inurba_marseille","lat":43.23974,"lon":5.36621,"is_reserved":false,"is_disabled":false,"rental_uris":{"android":"levelo://app?vid=bff6940a-d2ed-49ac-a8f5-e4a674d161ff","ios":"levelo://app?vid=bff6940a-d2ed-49ac-a8f5-e4a674d161ff"},"vehicle_type_id":"4","last_reported":1767928932,"current_range_meters":8400,"station_id":"ce4bhi12rcd13ifvqfp0","pricing_plan_id":"cebpf4jnsgd1na2vs0mg"},{"bike_id":"ef4adf91-b34a-4a38-9c5d-389672d2c161","system_id":"levelo_inurba_marseille","lat":43.29253,"lon":5.4092,"is_reserved":false,"is_disabled":false,"rental_uris":{"android":"levelo://app?vid=ef4adf91-b34a-4a38-9c5d-389672d2c161","ios":"levelo://app?vid=ef4adf91-b34a-4a38-9c5d-389672d2c161"},"vehicle_type_id":"4","last_reported":1767928932,"current_range_meters":8400,"station_id":"ce4bh192rcd13ifvqdc0","pricing_plan_id":"cebpf4jnsgd1na2vs0mg"},{"bike_id":"71c5fd3c-cecb-407f-ba0a-32e5988c90c7","system_id":"levelo_inurba_marseille","lat":43.3171,"lon":5.37746,"is_reserved":false,"is_disabled":false,"rental_uris":{"android":"levelo://app?vid=71c5fd3c-cecb-407f-ba0a-32e5988c90c7","ios":"levelo://app?vid=71c5fd3c-cecb-407f-ba0a-32e5988c90c7"},"vehicle_type_id":"4","last_reported":1767928932,"current_range_meters":8400,"station_id":"ce4bgth2rcd13ifvqch0","pricing_plan_id":"cebpf4jnsgd1na2vs0mg"},{"bike_id":"ad01ba0d-64c9-42a1-8aa2-cca202ad64e0","system_id":"levelo_inurba_marseille","lat":43.27062,"lon":5.4025,"is_reserved":false,"is_disabled":false,"rental_uris":{"android":"levelo://app?vid=ad01ba0d-64c9-42a1-8aa2-cca202ad64e0","ios":"levelo://app?vid=ad01ba0d-64c9-42a1-8aa2-cca202ad64e0"},"vehicle_type_id":"4","last_reported":1767928932,"current_range_meters":8400,"station_id":"ce4bhk92rcd13ifvqgc0","pricing_plan_id":"cebpf4jnsgd1na2vs0mg"},{"bike_id":"f58d6f7b-cbb0-4399-a343-55040a73d9f6","system_id":"levelo_inurba_marseille","lat":43.25332,"lon":5.4218,"is_reserved":false,"is_disabled":false,"rental_uris":{"android":"levelo://app?vid=f58d6f7b-cbb0-4399-a343-55040a73d9f6","ios":"levelo://app?vid=f58d6f7b-cbb0-4399-a343-55040a73d9f6"},"vehicle_type_id":"4","last_reported":1767928932,"current_range_meters":8400,"station_id":"st_d2m65c5bi1j21697t3ng","pricing_plan_id":"cebpf4jnsgd1na2vs0mg"},{"bike_id":"85ec619e-5ea0-4fca-a7de-dd41384f5c43","system_id":"levelo_inurba_marseille","lat":43.26557,"lon":5.3729,"is_reserved":false,"is_disabled":false,"rental_uris":{"android":"levelo://app?vid=85ec619e-5ea0-4fca-a7de-dd41384f5c43","ios":"levelo://app?vid=85ec619e-5ea0-4fca-a7de-dd41384f5c43"},"vehicle_type_id":"4","last_reported":1767928932,"current_range_meters":8400,"station_id":"ce4bhg12rcd13ifvqf70","pricing_plan_id":"cebpf4jnsgd1na2vs0mg"},{"bike_id":"d62b1dd7-04ea-48f5-a204-d6921ceaf13e","system_id":"levelo_inurba_marseille","lat":43.2416,"lon":5.36402,"is_reserved":false,"is_disabled":false,"rental_uris":{"android":"levelo://app?vid=d62b1dd7-04ea-48f5-a204-d6921ceaf13e","ios":"levelo://app?vid=d62b1dd7-04ea-48f5-a204-d6921ceaf13e"},"vehicle_type_id":"4","last_reported":1767928932,"current_range_meters":8400,"station_id":"cpo36qri1sfpv3e86is0","pricing_plan_id":"cebpf4jnsgd1na2vs0mg"},{"bike_id":"8b697a24-51a2-452a-93c9-5c0c040134d0","system_id":"levelo_inurba_marseille","lat":43.32227,"lon":5.39436,"is_reserved":false,"is_disabled":false,"rental_uris":{"android":"levelo://app?vid=8b697a24-51a2-452a-93c9-5c0c040134d0","ios":"levelo://app?vid=8b697a24-51a2-452a-93c9-5c0c040134d0"},"vehicle_type_id":"4","last_reported":1767928932,"current_range_meters":8400,"station_id":"","pricing_plan_id":"cebpf4jnsgd1na2vs0mg"},{"bike_id":"a096abeb-df3a-4b6d-bf43-0a67f83efa29","system_id":"levelo_inurba_marseille","lat":43.28405,"lon":5.37516,"is_reserved":false,"is_disabled":false,"rental_uris":{"android":"levelo://app?vid=a096abeb-df3a-4b6d-bf43-0a67f83efa29","ios":"levelo://app?vid=a096abeb-df3a-4b6d-bf43-0a67f83efa29"},"vehicle_type_id":"4","last_reported":1767928932,"current_range_meters":8400,"station_id":"ce4bh412rcd13ifvqds0","pricing_plan_id":"cebpf4jnsgd1na2vs0mg"},{"bike_id":"b1080c4f-4d5c-4234-be17-68edd0d10f1f","system_id":"levelo_inurba_marseille","lat":43.28437,"lon":5.39197,"is_reserved":false,"is_disabled":false,"rental_uris":{"android":"levelo://app?vid=b1080c4f-4d5c-4234-be17-68edd0d10f1f","ios":"levelo://app?vid=b1080c4f-4d5c-4234-be17-68edd0d10f1f"},"vehicle_type_id":"4","last_reported":1767928932,"current_range_meters":8400,"station_id":"ce4bhoh2rcd13ifvqh5g","pricing_plan_id":"cebpf4jnsgd1na2vs0mg"},{"bike_id":"96141708-dc26-4382-babc-91d6cb07aefd","system_id":"levelo_inurba_marseille","lat":43.28827,"lon":5.35839,"is_reserved":false,"is_disabled":false,"rental_uris":{"android":"levelo://app?vid=96141708-dc26-4382-babc-91d6cb07aefd","ios":"levelo://app?vid=96141708-dc26-4382-babc-91d6cb07aefd"},"vehicle_type_id":"4","last_reported":1767928932,"current_range_meters":8400,"station_id":"ce4bhb12rcd13ifvqem0","pricing_plan_id":"cebpf4jnsgd1na2vs0mg"},{"bike_id":"e11d069d-cc7d-4b1f-a7f9-e060ab894ff0","system_id":"levelo_inurba_marseille","lat":43.26371,"lon":5.41058,"is_reserved":false,"is_disabled":false,"rental_uris":{"android":"levelo://app?vid=e11d069d-cc7d-4b1f-a7f9-e060ab894ff0","ios":"levelo://app?vid=e11d069d-cc7d-4b1f-a7f9-e060ab894ff0"},"vehicle_type_id":"4","last_reported":1767928932,"current_range_meters":8400,"station_id":"st_d4e5ca6na9uc73bfl5fg","pricing_plan_id":"cebpf4jnsgd1na2vs0mg"},{"bike_id":"4e41aa3b-9162-476b-82f4-857ae55d1a75","system_id":"levelo_inurba_marseille","lat":43.32362,"lon":5.36711,"is_reserved":false,"is_disabled":false,"rental_uris":{"android":"levelo://app?vid=4e41aa3b-9162-476b-82f4-857ae55d1a75","ios":"levelo://app?vid=4e41aa3b-9162-476b-82f4-857ae55d1a75"},"vehicle_type_id":"4","last_reported":1767928932,"current_range_meters":8400,"station_id":"ce4bhsh2rcd13ifvqi2g","pricing_plan_id":"cebpf4jnsgd1na2vs0mg"},{"bike_id":"3fca3ca6-e905-496f-b9cc-e8d6488a5ed4","system_id":"levelo_inurba_marseille","lat":43.31029,"lon":5.38432,"is_reserved":false,"is_disabled":false,"rental_uris":{"android":"levelo://app?vid=3fca3ca6-e905-496f-b9cc-e8d6488a5ed4","ios":"levelo://app?vid=3fca3ca6-e905-496f-b9cc-e8d6488a5ed4"},"vehicle_type_id":"4","last_reported":1767928932,"current_range_meters":8400,"station_id":"","pricing_plan_id":"cebpf4jnsgd1na2vs0mg"},{"bike_id":"e48a0a1d-139d-4eae-9bc8-4eb881e00720","system_id":"levelo_inurba_marseille","lat":43.3237,"lon":5.36738,"is_reserved":false,"is_disabled":false,"rental_uris":{"android":"levelo://app?vid=e48a0a1d-139d-4eae-9bc8-4eb881e00720","ios":"levelo://app?vid=e48a0a1d-139d-4eae-9bc8-4eb881e00720"},"vehicle_type_id":"4","last_reported":1767928932,"current_range_meters":8400,"station_id":"ce4bhsh2rcd13ifvqi2g","pricing_plan_id":"cebpf4jnsgd1na2vs0mg"},{"bike_id":"0300afac-912a-4bda-b7af-7e061ba01547","system_id":"levelo_inurba_marseille","lat":43.29717,"lon":5.37551,"is_reserved":false,"is_disabled":false,"rental_uris":{"android":"levelo://app?vid=0300afac-912a-4bda-b7af-7e061ba01547","ios":"levelo://app?vid=0300afac-912a-4bda-b7af-7e061ba01547"},"vehicle_type_id":"4","last_reported":1767928932,"current_range_meters":8400,"station_id":"","pricing_plan_id":"cebpf4jnsgd1na2vs0mg"},{"bike_id":"e49f76e5-ea67-4148-a675-f0c2589b5241","system_id":"levelo_inurba_marseille","lat":43.29196,"lon":5.37149,"is_reserved":false,"is_disabled":false,"rental_uris":{"android":"levelo://app?vid=e49f76e5-ea67-4148-a675-f0c2589b5241","ios":"levelo://app?vid=e49f76e5-ea67-4148-a675-f0c2589b5241"},"vehicle_type_id":"4","last_reported":1767928932,"current_range_meters":8800,"station_id":"ce4bha92rcd13ifvqeh0","pricing_plan_id":"cebpf4jnsgd1na2vs0mg"},{"bike_id":"0e7e919c-83a3-45be-90bf-dcf29db4b4ea","system_id":"levelo_inurba_marseille","lat":43.32343,"lon":5.36721,"is_reserved":false,"is_disabled":false,"rental_uris":{"android":"levelo://app?vid=0e7e919c-83a3-45be-90bf-dcf29db4b4ea","ios":"levelo://app?vid=0e7e919c-83a3-45be-90bf-dcf29db4b4ea"},"vehicle_type_id":"4","last_reported":1767928932,"current_range_meters":8800,"station_id":"ce4bhsh2rcd13ifvqi2g","pricing_plan_id":"cebpf4jnsgd1na2vs0mg"},{"bike_id":"569b0032-d7de-4ef5-ac08-24b2ac42db20","system_id":"levelo_inurba_marseille","lat":43.26541,"lon":5.37289,"is_reserved":false,"is_disabled":false,"rental_uris":{"android":"levelo://app?vid=569b0032-d7de-4ef5-ac08-24b2ac42db20","ios":"levelo://app?vid=569b0032-d7de-4ef5-ac08-24b2ac42db20"},"vehicle_type_id":"4","last_reported":1767928932,"current_range_meters":8800,"station_id":"ce4bhg12rcd13ifvqf70","pricing_plan_id":"cebpf4jnsgd1na2vs0mg"},{"bike_id":"aa186435-cc03-4095-aab3-165e1212d005","system_id":"levelo_inurba_marseille","lat":43.32347,"lon":5.3672,"is_reserved":false,"is_disabled":false,"rental_uris":{"android":"levelo://app?vid=aa186435-cc03-4095-aab3-165e1212d005","ios":"levelo://app?vid=aa186435-cc03-4095-aab3-165e1212d005"},"vehicle_type_id":"4","last_reported":1767928932,"current_range_meters":8800,"station_id":"ce4bhsh2rcd13ifvqi2g","pricing_plan_id":"cebpf4jnsgd1na2vs0mg"},{"bike_id":"bd78d29c-c760-450d-bc73-3e8bb1aa3e1f","system_id":"levelo_inurba_marseille","lat":43.32349,"lon":5.36741,"is_reserved":false,"is_disabled":false,"rental_uris":{"android":"levelo://app?vid=bd78d29c-c760-450d-bc73-3e8bb1aa3e1f","ios":"levelo://app?vid=bd78d29c-c760-450d-bc73-3e8bb1aa3e1f"},"vehicle_type_id":"4","last_reported":1767928932,"current_range_meters":8800,"station_id":"ce4bhsh2rcd13ifvqi2g","pricing_plan_id":"cebpf4jnsgd1na2vs0mg"},{"bike_id":"70224df8-aad0-41a1-9990-824fd568febc","system_id":"levelo_inurba_marseille","lat":43.2706,"lon":5.383039,"is_reserved":false,"is_disabled":false,"rental_uris":{"android":"levelo://app?vid=70224df8-aad0-41a1-9990-824fd568febc","ios":"levelo://app?vid=70224df8-aad0-41a1-9990-824fd568febc"},"vehicle_type_id":"4","last_reported":1767928932,"current_range_meters":8800,"station_id":"st_d3n2fo6cfp8s73cte1j0","pricing_plan_id":"cebpf4jnsgd1na2vs0mg"},{"bike_id":"b01b28d2-3f19-4003-9ec3-2602e6f718f6","system_id":"levelo_inurba_marseille","lat":43.30405,"lon":5.37626,"is_reserved":false,"is_disabled":false,"rental_uris":{"android":"levelo://app?vid=b01b28d2-3f19-4003-9ec3-2602e6f718f6","ios":"levelo://app?vid=b01b28d2-3f19-4003-9ec3-2602e6f718f6"},"vehicle_type_id":"4","last_reported":1767928932,"current_range_meters":8800,"station_id":"","pricing_plan_id":"cebpf4jnsgd1na2vs0mg"},{"bike_id":"ff4d3f0c-f4ca-4e9d-a96d-386990436f7f","system_id":"levelo_inurba_marseille","lat":43.32345,"lon":5.36743,"is_reserved":false,"is_disabled":false,"rental_uris":{"android":"levelo://app?vid=ff4d3f0c-f4ca-4e9d-a96d-386990436f7f","ios":"levelo://app?vid=ff4d3f0c-f4ca-4e9d-a96d-386990436f7f"},"vehicle_type_id":"4","last_reported":1767928932,"current_range_meters":8800,"station_id":"ce4bhsh2rcd13ifvqi2g","pricing_plan_id":"cebpf4jnsgd1na2vs0mg"},{"bike_id":"b4702897-d3f0-43ef-959b-855897d2b5ad","system_id":"levelo_inurba_marseille","lat":43.26542,"lon":5.37301,"is_reserved":false,"is_disabled":false,"rental_uris":{"android":"levelo://app?vid=b4702897-d3f0-43ef-959b-855897d2b5ad","ios":"levelo://app?vid=b4702897-d3f0-43ef-959b-855897d2b5ad"},"vehicle_type_id":"4","last_reported":1767928932,"current_range_meters":8800,"station_id":"ce4bhg12rcd13ifvqf70","pricing_plan_id":"cebpf4jnsgd1na2vs0mg"},{"bike_id":"ed27761f-ddf8-4ca6-ad7f-042a477fd7ea","system_id":"levelo_inurba_marseille","lat":43.2952,"lon":5.37388,"is_reserved":false,"is_disabled":false,"rental_uris":{"android":"levelo://app?vid=ed27761f-ddf8-4ca6-ad7f-042a477fd7ea","ios":"levelo://app?vid=ed27761f-ddf8-4ca6-ad7f-042a477fd7ea"},"vehicle_type_id":"4","last_reported":1767928932,"current_range_meters":8800,"station_id":"","pricing_plan_id":"cebpf4jnsgd1na2vs0mg"},{"bike_id":"73311dd9-ce76-4424-880c-4c44988d4f09","system_id":"levelo_inurba_marseille","lat":43.2495,"lon":5.40481,"is_reserved":false,"is_disabled":false,"rental_uris":{"android":"levelo://app?vid=73311dd9-ce76-4424-880c-4c44988d4f09","ios":"levelo://app?vid=73311dd9-ce76-4424-880c-4c44988d4f09"},"vehicle_type_id":"4","last_reported":1767928932,"current_range_meters":8800,"station_id":"st_d2ngiaodas8pm72gd1h0","pricing_plan_id":"cebpf4jnsgd1na2vs0mg"},{"bike_id":"a14ad7f9-bf16-4829-9533-365e7ac50c2f","system_id":"levelo_inurba_marseille","lat":43.32106,"lon":5.36775,"is_reserved":false,"is_disabled":false,"rental_uris":{"android":"levelo://app?vid=a14ad7f9-bf16-4829-9533-365e7ac50c2f","ios":"levelo://app?vid=a14ad7f9-bf16-4829-9533-365e7ac50c2f"},"vehicle_type_id":"4","last_reported":1767928932,"current_range_meters":8800,"station_id":"ce4bhrh2rcd13ifvqhug","pricing_plan_id":"cebpf4jnsgd1na2vs0mg"},{"bike_id":"82c0a696-6183-4df7-9d3a-8136dced99f1","system_id":"levelo_inurba_marseille","lat":43.24821,"lon":5.37467,"is_reserved":false,"is_disabled":false,"rental_uris":{"android":"levelo://app?vid=82c0a696-6183-4df7-9d3a-8136dced99f1","ios":"levelo://app?vid=82c0a696-6183-4df7-9d3a-8136dced99f1"},"vehicle_type_id":"4","last_reported":1767928932,"current_range_meters":8800,"station_id":"ce4bhgh2rcd13ifvqfb0","pricing_plan_id":"cebpf4jnsgd1na2vs0mg"},