{"last_updated":1758813022,"ttl":60,"version":"2.2","data":{"bikes":[{"bike_id":"4242ffb9-8107-4648-ac37-a81f5b2bfa01","system_id":"levelo_inurba_marseille","lat":43.28689,"lon":5.39981,"is_reserved":false,"is_disabled":false,"rental_uris":{"android":"levelo://app?vid=4242ffb9-8107-4648-ac37-a81f5b2bfa01","ios":"levelo://app?vid=4242ffb9-8107-4648-ac37-a81f5b2bfa01"},"vehicle_type_id":"4","last_reported":1758813022,"current_range_meters":2800,"station_id":"ce4bho92rcd13ifvqh3g","pricing_plan_id":"cebpf4jnsgd1na2vs0mg"},{"bike_id":"8e199ba5-f793-4182-a533-1ca6a06855fd","system_id":"levelo_inurba_marseille","lat":43.28029,"lon":5.36946,"is_reserved":false,"is_disabled":false,"rental_uris":{"android":"levelo://app?vid=8e199ba5-f793-4182-a533-1ca6a06855fd","ios":"levelo://app?vid=8e199ba5-f793-4182-a533-1ca6a06855fd"},"vehicle_type_id":"4","last_reported":1758813022,"current_range_meters":2800,"station_id":"ce4bha12rcd13ifvqef0","pricing_plan_id":"cebpf4jnsgd1na2vs0mg"},{"bike_id":"4ba17881-463b-4404-b5fd-164df5f6945e","system_id":"levelo_inurba_marseille","lat":43.29703,"lon":5.3662,"is_reserved":false,"is_disabled":false,"rental_uris":{"android":"levelo://app?vid=4ba17881-463b-4404-b5fd-164df5f6945e","ios":"levelo://app?vid=4ba17881-463b-4404-b5fd-164df5f6945e"},"vehicle_type_id":"4","last_reported":1758813022,"current_range_meters":2800,"station_id":"ce4bgn12rcd13ifvqbt0","pricing_plan_id":"cebpf4jnsgd1na2vs0mg"},{"bike_id":"24e017fc-d517-4c47-9306-ceeede1adcc8","system_id":"levelo_inurba_marseille","lat":43.29523,"lon":5.39051,"is_reserved":false,"is_disabled":false,"rental_uris":{"android":"levelo://app?vid=24e017fc-d517-4c47-9306-ceeede1adcc8","ios":"levelo://app?vid=24e017fc-d517-4c47-9306-ceeede1adcc8"},"vehicle_type_id":"4","last_reported":1758813022,"current_range_meters":2000,"station_id":"ce4bh3p2rcd13ifvqdp0","pricing_plan_id":"cebpf4jnsgd1na2vs0mg"},{"bike_id":"dfa2e0eb-c01c-40f5-bdf0-94cf19dc56f0","system_id":"levelo_inurba_marseille","lat":43.25075,"lon":5.39491,"is_reserved":false,"is_disabled":true,"rental_uris":{"android":"levelo://app?vid=dfa2e0eb-c01c-40f5-bdf0-94cf19dc56f0","ios":"levelo://app?vid=dfa2e0eb-c01c-40f5-bdf0-94cf19dc56f0"},"vehicle_type_id":"4","last_reported":1758813022,"current_range_meters":2800,"station_id":"ce4bhm12rcd13ifvqgkg","pricing_plan_id":"cebpf4jnsgd1na2vs0mg"},{"bike_id":"ead17784-ad56-48c0-b545-3f90f0bec187","system_id":"levelo_inurba_marseille","lat":43.295696,"lon":5.399742,"is_reserved":false,"is_disabled":false,"rental_uris":{"android":"levelo://app?vid=ead17784-ad56-48c0-b545-3f90f0bec187","ios":"levelo://app?vid=ead17784-ad56-48c0-b545-3f90f0bec187"},"vehicle_type_id":"4","last_reported":1758813022,"current_range_meters":2800,"station_id":"ce4bh312rcd13ifvqdj0","pricing_plan_id":"cebpf4jnsgd1na2vs0mg"},{"bike_id":"810bcb01-56c0-4bcf-a29d-12d822b7e725","system_id":"levelo_inurba_marseille","lat":43.2957,"lon":5.39982,"is_reserved":false,"is_disabled":false,"rental_uris":{"android":"levelo://app?vid=810bcb01-56c0-4bcf-a29d-12d822b7e725","ios":"levelo://app?vid=810bcb01-56c0-4bcf-a29d-12d822b7e725"},"vehicle_type_id":"4","last_reported":1758813022,"current_range_meters":3200,"station_id":"ce4bh312rcd13ifvqdj0","pricing_plan_id":"cebpf4jnsgd1na2vs0mg"},{"bike_id":"30cc9ed5-9f97-47d6-aca4-9d1a5d12ad95","system_id":"levelo_inurba_marseille","lat":43.284843,"lon":5.385594,"is_reserved":false,"is_disabled":false,"rental_uris":{"android":"levelo://app?vid=30cc9ed5-9f97-47d6-aca4-9d1a5d12ad95","ios":"levelo://app?vid=30cc9ed5-9f97-47d6-aca4-9d1a5d12ad95"},"vehicle_type_id":"4","last_reported":1758813022,"current_range_meters":1600,"station_id":"ce4bh8p2rcd13ifvqeb0","pricing_plan_id":"cebpf4jnsgd1na2vs0mg"},{"bike_id":"37440679-fa44-449d-8a54-e5c5f2fd1af2","system_id":"levelo_inurba_marseille","lat":43.26817,"lon":5.4121,"is_reserved":false,"is_disabled":false,"rental_uris":{"android":"levelo://app?vid=37440679-fa44-449d-8a54-e5c5f2fd1af2","ios":"levelo://app?vid=37440679-fa44-449d-8a54-e5c5f2fd1af2"},"vehicle_type_id":"4","last_reported":1758813022,"current_range_meters":3200,"station_id":"","pricing_plan_id":"cebpf4jnsgd1na2vs0mg"},{"bike_id":"7847e8da-01b2-44e4-a061-d45b9dd8aaae","system_id":"levelo_inurba_marseille","lat":43.290236,"lon":5.386622,"is_reserved":false,"is_disabled":false,"rental_uris":{"android":"levelo://app?vid=7847e8da-01b2-44e4-a061-d45b9dd8aaae","ios":"levelo://app?vid=7847e8da-01b2-44e4-a061-d45b9dd8aaae"},"vehicle_type_id":"4","last_reported":1758813022,"current_range_meters":3200,"station_id":"ce4bh4p2rcd13ifvqe0g","pricing_plan_id":"cebpf4jnsgd1na2vs0mg"},{"bike_id":"56010a12-3f44-4cd5-905c-643d97504e52","system_id":"levelo_inurba_marseille","lat":43.30925,"lon":5.40137,"is_reserved":false,"is_disabled":false,"rental_uris":{"android":"levelo://app?vid=56010a12-3f44-4cd5-905c-643d97504e52","ios":"levelo://app?vid=56010a12-3f44-4cd5-905c-643d97504e52"},"vehicle_type_id":"4","last_reported":1758813022,"current_range_meters":3200,"station_id":"ce4bgvp2rcd13ifvqct0","pricing_plan_id":"cebpf4jnsgd1na2vs0mg"},{"bike_id":"9946387a-7295-42bd-b651-8eb565b953df","system_id":"levelo_inurba_marseille","lat":43.30541,"lon":5.36541,"is_reserved":false,"is_disabled":false,"rental_uris":{"android":"levelo://app?vid=9946387a-7295-42bd-b651-8eb565b953df","ios":"levelo://app?vid=9946387a-7295-42bd-b651-8eb565b953df"},"vehicle_type_id":"4","last_reported":1758813022,"current_range_meters":3200,"station_id":"ce4bgs12rcd13ifvqcag","pricing_plan_id":"cebpf4jnsgd1na2vs0mg"},{"bike_id":"05a95b8f-3ef9-4e64-88b7-76f01cbf2ba4","system_id":"levelo_inurba_marseille","lat":43.295759,"lon":5.399812,"is_reserved":false,"is_disabled":false,"rental_uris":{"android":"levelo://app?vid=05a95b8f-3ef9-4e64-88b7-76f01cbf2ba4","ios":"levelo://app?vid=05a95b8f-3ef9-4e64-88b7-76f01cbf2ba4"},"vehicle_type_id":"4","last_reported":1758813022,"current_range_meters":2000,"station_id":"ce4bh312rcd13ifvqdj0","pricing_plan_id":"cebpf4jnsgd1na2vs0mg"},{"bike_id":"d2599b38-d9cf-49b9-96de-26b386bfe6c7","system_id":"levelo_inurba_marseille","lat":43.31273,"lon":5.40172,"is_reserved":false,"is_disabled":false,"rental_uris":{"android":"levelo://app?vid=d2599b38-d9cf-49b9-96de-26b386bfe6c7","ios":"levelo://app?vid=d2599b38-d9cf-49b9-96de-26b386bfe6c7"},"vehicle_type_id":"4","last_reported":1758813022,"current_range_meters":3200,"station_id":"ce4bh092rcd13ifvqd30","pricing_plan_id":"cebpf4jnsgd1na2vs0mg"},{"bike_id":"7208cb2a-ff00-498d-9a07-80b4f64917ff","system_id":"levelo_inurba_marseille","lat":43.30928,"lon":5.40138,"is_reserved":false,"is_disabled":false,"rental_uris":{"android":"levelo://app?vid=7208cb2a-ff00-498d-9a07-80b4f64917ff","ios":"levelo://app?vid=7208cb2a-ff00-498d-9a07-80b4f64917ff"},"vehicle_type_id":"4","last_reported":1758813022,"current_range_meters":3600,"station_id":"ce4bgvp2rcd13ifvqct0","pricing_plan_id":"cebpf4jnsgd1na2vs0mg"},{"bike_id":"a16eda6f-6f80-4033-a1f1-f78933273903","system_id":"levelo_inurba_marseille","lat":43.30123,"lon":5.39872,"is_reserved":false,"is_disabled":false,"rental_uris":{"android":"levelo://app?vid=a16eda6f-6f80-4033-a1f1-f78933273903","ios":"levelo://app?vid=a16eda6f-6f80-4033-a1f1-f78933273903"},"vehicle_type_id":"4","last_reported":1758813022,"current_range_meters":3600,"station_id":"ce4bh0h2rcd13ifvqd40","pricing_plan_id":"cebpf4jnsgd1na2vs0mg"},{"bike_id":"9446425e-0a86-42ae-bc3c-f72ad738e590","system_id":"levelo_inurba_marseille","lat":43.33647,"lon":5.36294,"is_reserved":false,"is_disabled":false,"rental_uris":{"android":"levelo://app?vid=9446425e-0a86-42ae-bc3c-f72ad738e590","ios":"levelo://app?vid=9446425e-0a86-42ae-bc3c-f72ad738e590"},"vehicle_type_id":"4","last_reported":1758813022,"current_range_meters":3600,"station_id":"","pricing_plan_id":"cebpf4jnsgd1na2vs0mg"},{"bike_id":"fb5c09ac-5567-467c-84af-d4a977668129","system_id":"levelo_inurba_marseille","lat":43.28224,"lon":5.39073,"is_reserved":false,"is_disabled":false,"rental_uris":{"android":"levelo://app?vid=fb5c09ac-5567-467c-84af-d4a977668129","ios":"levelo://app?vid=fb5c09ac-5567-467c-84af-d4a977668129"},"vehicle_type_id":"4","last_reported":1758813022,"current_range_meters":3600,"station_id":"ce4bhn92rcd13ifvqgsg","pricing_plan_id":"cebpf4jnsgd1na2vs0mg"},{"bike_id":"540ede26-2c22-4058-b29e-c04911c3dae8","system_id":"levelo_inurba_marseille","lat":43.30789,"lon":5.37644,"is_reserved":false,"is_disabled":false,"rental_uris":{"android":"levelo://app?vid=540ede26-2c22-4058-b29e-c04911c3dae8","ios":"levelo://app?vid=540ede26-2c22-4058-b29e-c04911c3dae8"},"vehicle_type_id":"4","last_reported":1758813022,"current_range_meters":3600,"station_id":"ce4bgv92rcd13ifvqcq0","pricing_plan_id":"cebpf4jnsgd1na2vs0mg"},{"bike_id":"1efddf8d-578f-4e4c-8c3f-e3a8bd592ba4","system_id":"levelo_inurba_marseille","lat":43.29953,"lon":5.37317,"is_reserved":false,"is_disabled":false,"rental_uris":{"android":"levelo://app?vid=1efddf8d-578f-4e4c-8c3f-e3a8bd592ba4","ios":"levelo://app?vid=1efddf8d-578f-4e4c-8c3f-e3a8bd592ba4"},"vehicle_type_id":"4","last_reported":1758813022,"current_range_meters":4000,"station_id":"","pricing_plan_id":"cebpf4jnsgd1na2vs0mg"},{"bike_id":"16c4373c-c081-4d1a-a117-087292f21300","system_id":"levelo_inurba_marseille","lat":43.28574,"lon":5.395,"is_reserved":false,"is_disabled":false,"rental_uris":{"android":"levelo://app?vid=16c4373c-c081-4d1a-a117-087292f21300","ios":"levelo://app?vid=16c4373c-c081-4d1a-a117-087292f21300"},"vehicle_type_id":"4","last_reported":1758813022,"current_range_meters":4000,"station_id":"ce4bh292rcd13ifvqdg0","pricing_plan_id":"cebpf4jnsgd1na2vs0mg"},{"bike_id":"6953949e-71fd-4943-9e90-25fc60cf7c75","system_id":"levelo_inurba_marseille","lat":43.28942,"lon":5.36388,"is_reserved":false,"is_disabled":false,"rental_uris":{"android":"levelo://app?vid=6953949e-71fd-4943-9e90-25fc60cf7c75","ios":"levelo://app?vid=6953949e-71fd-4943-9e90-25fc60cf7c75"},"vehicle_type_id":"4","last_reported":1758813022,"current_range_meters":3600,"station_id":"ce4bhc92rcd13ifvqetg","pricing_plan_id":"cebpf4jnsgd1na2vs0mg"},{"bike_id":"bfb27231-f10a-404f-90db-0d03e1d021ed","system_id":"levelo_inurba_marseille","lat":43.28563,"lon":5.39508,"is_reserved":false,"is_disabled":false,"rental_uris":{"android":"levelo://app?vid=bfb27231-f10a-404f-90db-0d03e1d021ed","ios":"levelo://app?vid=bfb27231-f10a-404f-90db-0d03e1d021ed"},"vehicle_type_id":"4","last_reported":1758813022,"current_range_meters":4400,"station_id":"ce4bh292rcd13ifvqdg0","pricing_plan_id":"cebpf4jnsgd1na2vs0mg"},{"bike_id":"2db4deb6-9c11-4acd-bde4-6352f5b50b79","system_id":"levelo_inurba_marseille","lat":43.28424,"lon":5.34982,"is_reserved":false,"is_disabled":false,"rental_uris":{"android":"levelo://app?vid=2db4deb6-9c11-4acd-bde4-6352f5b50b79","ios":"levelo://app?vid=2db4deb6-9c11-4acd-bde4-6352f5b50b79"},"vehicle_type_id":"4","last_reported":1758813022,"current_range_meters":4400,"station_id":"ce4bhbh2rcd13ifvqepg","pricing_plan_id":"cebpf4jnsgd1na2vs0mg"},{"bike_id":"d8c6a9f3-39d1-454a-9e79-8fd3b93849ad","system_id":"levelo_inurba_marseille","lat":43.305,"lon":5.36703,"is_reserved":false,"is_disabled":false,"rental_uris":{"android":"levelo://app?vid=d8c6a9f3-39d1-454a-9e79-8fd3b93849ad","ios":"levelo://app?vid=d8c6a9f3-39d1-454a-9e79-8fd3b93849ad"},"vehicle_type_id":"4","last_reported":1758813022,"current_range_meters":4400,"station_id":"ce4bgrp2rcd13ifvqc9g","pricing_plan_id":"cebpf4jnsgd1na2vs0mg"},{"bike_id":"35816ab9-6d50-496a-8d30-6c283ba7c18d","system_id":"levelo_inurba_marseille","lat":43.23186,"lon":5.39985,"is_reserved":false,"is_disabled":false,"rental_uris":{"android":"levelo://app?vid=35816ab9-6d50-496a-8d30-6c283ba7c18d","ios":"levelo://app?vid=35816ab9-6d50-496a-8d30-6c283ba7c18d"},"vehicle_type_id":"4","last_reported":1758813022,"current_range_meters":4400,"station_id":"ce4bhn12rcd13ifvqgqg","pricing_plan_id":"cebpf4jnsgd1na2vs0mg"},{"bike_id":"da40e848-8573-43d7-8aef-61435fd99dc1","system_id":"levelo_inurba_marseille","lat":43.304487,"lon":5.389175,"is_reserved":false,"is_disabled":false,"rental_uris":{"android":"levelo://app?vid=da40e848-8573-43d7-8aef-61435fd99dc1","ios":"levelo://app?vid=da40e848-8573-43d7-8aef-61435fd99dc1"},"vehicle_type_id":"4","last_reported":1758813022,"current_range_meters":4000,"station_id":"ce4bgk12rcd13ifvqbi0","pricing_plan_id":"cebpf4jnsgd1na2vs0mg"},{"bike_id":"d5f105f5-15c6-4d04-92a9-9db3eb711433","system_id":"levelo_inurba_marseille","lat":43.285778,"lon":5.394888,"is_reserved":false,"is_disabled":false,"rental_uris":{"android":"levelo://app?vid=d5f105f5-15c6-4d04-92a9-9db3eb711433","ios":"levelo://app?vid=d5f105f5-15c6-4d04-92a9-9db3eb711433"},"vehicle_type_id":"4","last_reported":1758813022,"current_range_meters":4800,"station_id":"ce4bh292rcd13ifvqdg0","pricing_plan_id":"cebpf4jnsgd1na2vs0mg"},{"bike_id":"7c0482c3-9253-4d1b-b4f3-be55cdb7721d","system_id":"levelo_inurba_marseille","lat":43.33757,"lon":5.37466,"is_reserved":false,"is_disabled":false,"rental_uris":{"android":"levelo://app?vid=7c0482c3-9253-4d1b-b4f3-be55cdb7721d","ios":"levelo://app?vid=7c0482c3-9253-4d1b-b4f3-be55cdb7721d"},"vehicle_type_id":"4","last_reported":1758813022,"current_range_meters":4800,"station_id":"","pricing_plan_id":"cebpf4jnsgd1na2vs0mg"},{"bike_id":"c80e1f6e-41df-47e3-91cd-de5847cd5136","system_id":"levelo_inurba_marseille","lat":43.3234,"lon":5.38864,"is_reserved":false,"is_disabled":false,"rental_uris":{"android":"levelo://app?vid=c80e1f6e-41df-47e3-91cd-de5847cd5136","ios":"levelo://app?vid=c80e1f6e-41df-47e3-91cd-de5847cd5136"},"vehicle_type_id":"4","last_reported":1758813022,"current_range_meters":4800,"station_id":"ce4bhqp2rcd13ifvqhog","pricing_plan_id":"cebpf4jnsgd1na2vs0mg"},{"bike_id":"3d476d69-4af4-40a8-8ecd-153d3d338261","system_id":"levelo_inurba_marseille","lat":43.27192,"lon":5.42875,"is_reserved":false,"is_disabled":false,"rental_uris":{"android":"levelo://app?vid=3d476d69-4af4-40a8-8ecd-153d3d338261","ios":"levelo://app?vid=3d476d69-4af4-40a8-8ecd-153d3d338261"},"vehicle_type_id":"4","last_reported":1758813022,"current_range_meters":5600,"station_id":"","pricing_plan_id":"cebpf4jnsgd1na2vs0mg"},{"bike_id":"12e1c7c0-364f-4b74-8b87-a37d181dc201","system_id":"levelo_inurba_marseille","lat":43.2867,"lon":5.36349,"is_reserved":false,"is_disabled":false,"rental_uris":{"android":"levelo://app?vid=12e1c7c0-364f-4b74-8b87-a37d181dc201","ios":"levelo://app?vid=12e1c7c0-364f-4b74-8b87-a37d181dc201"},"vehicle_type_id":"4","last_reported":1758813022,"current_range_meters":5600,"station_id":"ce4bhah2rcd13ifvqej0","pricing_plan_id":"cebpf4jnsgd1na2vs0mg"},{"bike_id":"10b077bb-f8d2-4c64-a610-3f47b2091346","system_id":"levelo_inurba_marseille","lat":43.30329,"lon":5.40438,"is_reserved":false,"is_disabled":false,"rental_uris":{"android":"levelo://app?vid=10b077bb-f8d2-4c64-a610-3f47b2091346","ios":"levelo://app?vid=10b077bb-f8d2-4c64-a610-3f47b2091346"},"vehicle_type_id":"4","last_reported":1758813022,"current_range_meters":6000,"station_id":"ce4bh012rcd13ifvqd10","pricing_plan_id":"cebpf4jnsgd1na2vs0mg"},{"bike_id":"939538dc-20bd-4d94-8a10-8e1e0a179bc7","system_id":"levelo_inurba_marseille","lat":43.30475,"lon":5.3667,"is_reserved":false,"is_disabled":false,"rental_uris":{"android":"levelo://app?vid=939538dc-20bd-4d94-8a10-8e1e0a179bc7","ios":"levelo://app?vid=939538dc-20bd-4d94-8a10-8e1e0a179bc7"},"vehicle_type_id":"4","last_reported":1758813022,"current_range_meters":6000,"station_id":"","pricing_plan_id":"cebpf4jnsgd1na2vs0mg"},{"bike_id":"04fe2832-9fec-4fee-bc94-072596dd824d","system_id":"levelo_inurba_marseille","lat":43.25332,"lon":5.42174,"is_reserved":false,"is_disabled":false,"rental_uris":{"android":"levelo://app?vid=04fe2832-9fec-4fee-bc94-072596dd824d","ios":"levelo://app?vid=04fe2832-9fec-4fee-bc94-072596dd824d"},"vehicle_type_id":"4","last_reported":1758813022,"current_range_meters":6400,"station_id":"st_d2m65c5bi1j21697t3ng","pricing_plan_id":"cebpf4jnsgd1na2vs0mg"},{"bike_id":"08993249-cc23-4a74-bf63-49e9e65e3280","system_id":"levelo_inurba_marseille","lat":43.2988,"lon":5.39737,"is_reserved":false,"is_disabled":false,"rental_uris":{"android":"levelo://app?vid=08993249-cc23-4a74-bf63-49e9e65e3280","ios":"levelo://app?vid=08993249-cc23-4a74-bf63-49e9e65e3280"},"vehicle_type_id":"4","last_reported":1758813022,"current_range_meters":6400,"station_id":"ce4bh0h2rcd13ifvqd50","pricing_plan_id":"cebpf4jnsgd1na2vs0mg"},{"bike_id":"9c4a7bdb-c552-4dfd-8efb-40b9e0b0b147","system_id":"levelo_inurba_marseille","lat":43.309255,"lon":5.367432,"is_reserved":false,"is_disabled":false,"rental_uris":{"android":"levelo://app?vid=9c4a7bdb-c552-4dfd-8efb-40b9e0b0b147","ios":"levelo://app?vid=9c4a7bdb-c552-4dfd-8efb-40b9e0b0b147"},"vehicle_type_id":"4","last_reported":1758813022,"current_range_meters":6400,"station_id":"","pricing_plan_id":"cebpf4jnsgd1na2vs0mg"},{"bike_id":"0285cf43-d48e-4836-be0d-53bf4f26c4b0","system_id":"levelo_inurba_marseille","lat":43.28225,"lon":5.39075,"is_reserved":false,"is_disabled":false,"rental_uris":{"android":"levelo://app?vid=0285cf43-d48e-4836-be0d-53bf4f26c4b0","ios":"levelo://app?vid=0285cf43-d48e-4836-be0d-53bf4f26c4b0"},"vehicle_type_id":"4","last_reported":1758813022,"current_range_meters":6400,"station_id":"ce4bhn92rcd13ifvqgsg","pricing_plan_id":"cebpf4jnsgd1na2vs0mg"},{"bike_id":"cb3d83dd-8277-415b-bc5d-a118e1200728","system_id":"levelo_inurba_marseille","lat":43.30096,"lon":5.41032,"is_reserved":false,"is_disabled":false,"rental_uris":{"android":"levelo://app?vid=cb3d83dd-8277-415b-bc5d-a118e1200728","ios":"levelo://app?vid=cb3d83dd-8277-415b-bc5d-a118e1200728"},"vehicle_type_id":"4","last_reported":1758813022,"current_range_meters":6400,"station_id":"","pricing_plan_id":"cebpf4jnsgd1na2vs0mg"},{"bike_id":"a57b28af-5265-4912-aa8a-cd1995c23967","system_id":"levelo_inurba_marseille","lat":43.27563,"lon":5.38424,"is_reserved":false,"is_disabled":false,"rental_uris":{"android":"levelo://app?vid=a57b28af-5265-4912-aa8a-cd1995c23967","ios":"levelo://app?vid=a57b28af-5265-4912-aa8a-cd1995c23967"},"vehicle_type_id":"4","last_reported":1758813022,"current_range_meters":6400,"station_id":"ce4bhh92rcd13ifvqfi0","pricing_plan_id":"cebpf4jnsgd1na2vs0mg"},{"bike_id":"5988a38e-0a94-4707-8443-afc7f9af472d","system_id":"levelo_inurba_marseille","lat":43.30256,"lon":5.40077,"is_reserved":false,"is_disabled":false,"rental_uris":{"android":"levelo://app?vid=5988a38e-0a94-4707-8443-afc7f9af472d","ios":"levelo://app?vid=5988a38e-0a94-4707-8443-afc7f9af472d"},"vehicle_type_id":"4","last_reported":1758813022,"current_range_meters":6000,"station_id":"ce4bgvh2rcd13ifvqcs0","pricing_plan_id":"cebpf4jnsgd1na2vs0mg"},{"bike_id":"136a707a-b224-4c44-8119-f846f7b7d0a7","system_id":"levelo_inurba_marseille","lat":43.29516,"lon":5.37375,"is_reserved":false,"is_disabled":false,"rental_uris":{"android":"levelo://app?vid=136a707a-b224-4c44-8119-f846f7b7d0a7","ios":"levelo://app?vid=136a707a-b224-4c44-8119-f846f7b7d0a7"},"vehicle_type_id":"4","last_reported":1758813022,"current_range_meters":6800,"station_id":"","pricing_plan_id":"cebpf4jnsgd1na2vs0mg"},{"bike_id":"e6386496-00b0-4980-b8c6-7b214e9265bf","system_id":"levelo_inurba_marseille","lat":43.31167,"lon":5.38712,"is_reserved":false,"is_disabled":false,"rental_uris":{"android":"levelo://app?vid=e6386496-00b0-4980-b8c6-7b214e9265bf","ios":"levelo://app?vid=e6386496-00b0-4980-b8c6-7b214e9265bf"},"vehicle_type_id":"4","last_reported":1758813022,"current_range_meters":6800,"station_id":"ce4bgv12rcd13ifvqcp0","pricing_plan_id":"cebpf4jnsgd1na2vs0mg"},{"bike_id":"a1dc2475-673d-49f4-bd92-c5795cd47d1f","system_id":"levelo_inurba_marseille","lat":43.29618,"lon":5.37155,"is_reserved":false,"is_disabled":false,"rental_uris":{"android":"levelo://app?vid=a1dc2475-673d-49f4-bd92-c5795cd47d1f","ios":"levelo://app?vid=a1dc2475-673d-49f4-bd92-c5795cd47d1f"},"vehicle_type_id":"4","last_reported":1758813022,"current_range_meters":6800,"station_id":"ce4bgnh2rcd13ifvqc0g","pricing_plan_id":"cebpf4jnsgd1na2vs0mg"},{"bike_id":"9f81c461-cbe3-4776-84db-f8625f1e0fc3","system_id":"levelo_inurba_marseille","lat":43.31477,"lon":5.37301,"is_reserved":false,"is_disabled":false,"rental_uris":{"android":"levelo://app?vid=9f81c461-cbe3-4776-84db-f8625f1e0fc3","ios":"levelo://app?vid=9f81c461-cbe3-4776-84db-f8625f1e0fc3"},"vehicle_type_id":"4","last_reported":1758813022,"current_range_meters":6800,"station_id":"ce4bgt12rcd13ifvqcd0","pricing_plan_id":"cebpf4jnsgd1na2vs0mg"},{"bike_id":"d3b5f55c-2d26-4e62-9771-07ca5aa16c54","system_id":"levelo_inurba_marseille","lat":43.29099,"lon":5.38125,"is_reserved":false,"is_disabled":false,"rental_uris":{"android":"levelo://app?vid=d3b5f55c-2d26-4e62-9771-07ca5aa16c54","ios":"levelo://app?vid=d3b5f55c-2d26-4e62-9771-07ca5aa16c54"},"vehicle_type_id":"4","last_reported":1758813022,"current_range_meters":6800,"station_id":"ce4bh512rcd13ifvqe2g","pricing_plan_id":"cebpf4jnsgd1na2vs0mg"},{"bike_id":"ad95d0be-da8f-4945-976f-2b5a47d79be6","system_id":"levelo_inurba_marseille","lat":43.29272,"lon":5.38442,"is_reserved":false,"is_disabled":false,"rental_uris":{"android":"levelo://app?vid=ad95d0be-da8f-4945-976f-2b5a47d79be6","ios":"levelo://app?vid=ad95d0be-da8f-4945-976f-2b5a47d79be6"},"vehicle_type_id":"4","last_reported":1758813022,"current_range_meters":6800,"station_id":"ce4bh692rcd13ifvqea0","pricing_plan_id":"cebpf4jnsgd1na2vs0mg"},{"bike_id":"c9c8b369-da13-4763-bc55-5559dbb116f0","system_id":"levelo_inurba_marseille","lat":43.3055,"lon":5.3667,"is_reserved":false,"is_disabled":false,"rental_uris":{"android":"levelo://app?vid=c9c8b369-da13-4763-bc55-5559dbb116f0","ios":"levelo://app?vid=c9c8b369-da13-4763-bc55-5559dbb116f0"},"vehicle_type_id":"4","last_reported":1758813022,"current_range_meters":6800,"station_id":"","pricing_plan_id":"cebpf4jnsgd1na2vs0mg"},{"bike_id":"c7d54faf-e217-48da-90e3-820cda559399","system_id":"levelo_inurba_marseille","lat":43.26796,"lon":5.40276,"is_reserved":false,"is_disabled":false,"rental_uris":{"android":"levelo://app?vid=c7d54faf-e217-48da-90e3-820cda559399","ios":"levelo://app?vid=c7d54faf-e217-48da-90e3-820cda559399"},"vehicle_type_id":"4","last_reported":1758813022,"current_range_meters":6800,"station_id":"ce501612rcd8frsf0b60","pricing_plan_id":"cebpf4jnsgd1na2vs0mg"},{"bike_id":"6536ea56-743d-426f-890c-9bd3326e685a","system_id":"levelo_inurba_marseille","lat":43.30144,"lon":5.37424,"is_reserved":false,"is_disabled":false,"rental_uris":{"android":"levelo://app?vid=6536ea56-743d-426f-890c-9bd3326e685a","ios":"levelo://app?vid=6536ea56-743d-426f-890c-9bd3326e685a"},"vehicle_type_id":"4","last_reported":1758813022,"current_range_meters":7200,"station_id":"ce4bgs92rcd13ifvqcc0","pricing_plan_id":"cebpf4jnsgd1na2vs0mg"},{"bike_id":"e88cd35e-bc3e-4052-85dc-39663366689f","system_id":"levelo_inurba_marseille","lat":43.31718,"lon":5.42396,"is_reserved":false,"is_disabled":false,"rental_uris":{"android":"levelo://app?vid=e88cd35e-bc3e-4052-85dc-39663366689f","ios":"levelo://app?vid=e88cd35e-bc3e-4052-85dc-39663366689f"},"vehicle_type_id":"4","last_reported":1758813022,"current_range_meters":7200,"station_id":"ce4bhp92rcd13ifvqhbg","pricing_plan_id":"cebpf4jnsgd1na2vs0mg"},{"bike_id":"2e5e3d7e-d40e-4ca7-b633-fe71dd3f2382","system_id":"levelo_inurba_marseille","lat":43.288654,"lon":5.358613,"is_reserved":false,"is_disabled":false,"rental_uris":{"android":"levelo://app?vid=2e5e3d7e-d40e-4ca7-b633-fe71dd3f2382","ios":"levelo://app?vid=2e5e3d7e-d40e-4ca7-b633-fe71dd3f2382"},"vehicle_type_id":"4","last_reported":1758813022,"current_range_meters":7200,"station_id":"ce4bhb12rcd13ifvqem0","pricing_plan_id":"cebpf4jnsgd1na2vs0mg"},{"bike_id":"4e737411-53ce-4bdf-9802-c3bc30d9bc94","system_id":"levelo_inurba_marseille","lat":43.29538,"lon":5.40677,"is_reserved":false,"is_disabled":false,"rental_uris":{"android":"levelo://app?vid=4e737411-53ce-4bdf-9802-c3bc30d9bc94","ios":"levelo://app?vid=4e737411-53ce-4bdf-9802-c3bc30d9bc94"},"vehicle_type_id":"4","last_reported":1758813022,"current_range_meters":8000,"station_id":"","pricing_plan_id":"cebpf4jnsgd1na2vs0mg"},{"bike_id":"cbf14a57-e8bf-4b79-b691-a97f72d450ad","system_id":"levelo_inurba_marseille","lat":43.30578,"lon":5.36696,"is_reserved":false,"is_disabled":false,"rental_uris":{"android":"levelo://app?vid=cbf14a57-e8bf-4b79-b691-a97f72d450ad","ios":"levelo://app?vid=cbf14a57-e8bf-4b79-b691-a97f72d450ad"},"vehicle_type_id":"4","last_reported":1758813022,"current_range_meters":8000,"station_id":"","pricing_plan_id":"cebpf4jnsgd1na2vs0mg"},{"bike_id":"141ccff7-4ca8-4c1b-8a78-2f375c30deaa","system_id":"levelo_inurba_marseille","lat":43.30646,"lon":5.40094,"is_reserved":false,"is_disabled":false,"rental_uris":{"android":"levelo://app?vid=141ccff7-4ca8-4c1b-8a78-2f375c30deaa","ios":"levelo://app?vid=141ccff7-4ca8-4c1b-8a78-2f375c30deaa"},"vehicle_type_id":"4","last_reported":1758813022,"current_range_meters":8000,"station_id":"ce4bh112rcd13ifvqda0","pricing_plan_id":"cebpf4jnsgd1na2vs0mg"},{"bike_id":"438ead59-de14-4fa0-a61d-03a70a4122ae","system_id":"levelo_inurba_marseille","lat":43.97269,"lon":4.89111,"is_reserved":false,"is_disabled":true,"rental_uris":{"android":"levelo://app?vid=438ead59-de14-4fa0-a61d-03a70a4122ae","ios":"levelo://app?vid=438ead59-de14-4fa0-a61d-03a70a4122ae"},"vehicle_type_id":"4","last_reported":1758813022,"current_range_meters":8000,"station_id":"","pricing_plan_id":"cebpf4jnsgd1na2vs0mg"},{"bike_id":"7d7db38b-14ce-4cdb-b2f1-d8bb4d626b05","system_id":"levelo_inurba_marseille","lat":43.302991,"lon":5.392141,"is_reserved":false,"is_disabled":false,"rental_uris":{"android":"levelo://app?vid=7d7db38b-14ce-4cdb-b2f1-d8bb4d626b05","ios":"levelo://app?vid=7d7db38b-14ce-4cdb-b2f1-d8bb4d626b05"},"vehicle_type_id":"4","last_reported":1758813022,"current_range_meters":8400,"station_id":"ce4bgkh2rcd13ifvqbk0","pricing_plan_id":"cebpf4jnsgd1na2vs0mg"},{"bike_id":"0c164bb6-93dc-4a03-86b2-764f3cd359fe","system_id":"levelo_inurba_marseille","lat":43.27206,"lon":5.39167,"is_reserved":false,"is_disabled":false,"rental_uris":{"android":"levelo://app?vid=0c164bb6-93dc-4a03-86b2-764f3cd359fe","ios":"levelo://app?vid=0c164bb6-93dc-4a03-86b2-764f3cd359fe"},"vehicle_type_id":"4","last_reported":1758813022,"current_range_meters":8000,"station_id":"ce4bhhp2rcd13ifvqfm0","pricing_plan_id":"cebpf4jnsgd1na2vs0mg"},{"bike_id":"77daa39a-6d92-4fe8-8266-f8eceab04af2","system_id":"levelo_inurba_marseille","lat":43.29849,"lon":5.36288,"is_reserved":false,"is_disabled":false,"rental_uris":{"android":"levelo://app?vid=77daa39a-6d92-4fe8-8266-f8eceab04af2","ios":"levelo://app?vid=77daa39a-6d92-4fe8-8266-f8eceab04af2"},"vehicle_type_id":"4","last_reported":1758813022,"current_range_meters":8400,"station_id":"ce4bgpp2rcd13ifvqc3g","pricing_plan_id":"cebpf4jnsgd1na2vs0mg"},{"bike_id":"16527c33-863e-43ab-92f6-16f986c563b8","system_id":"levelo_inurba_marseille","lat":43.31267,"lon":5.40169,"is_reserved":false,"is_disabled":false,"rental_uris":{"android":"levelo://app?vid=16527c33-863e-43ab-92f6-16f986c563b8","ios":"levelo://app?vid=16527c33-863e-43ab-92f6-16f986c563b8"},"vehicle_type_id":"4","last_reported":1758813022,"current_range_meters":8400,"station_id":"ce4bh092rcd13ifvqd30","pricing_plan_id":"cebpf4jnsgd1na2vs0mg"},{"bike_id":"b7d15b37-9a5f-4b39-995a-987ae6496a26","system_id":"levelo_inurba_marseille","lat":43.32457,"lon":5.3658,"is_reserved":false,"is_disabled":false,"rental_uris":{"android":"levelo://app?vid=b7d15b37-9a5f-4b39-995a-987ae6496a26","ios":"levelo://app?vid=b7d15b37-9a5f-4b39-995a-987ae6496a26"},"vehicle_type_id":"4","last_reported":1758813022,"current_range_meters":8800,"station_id":"ce4bhs12rcd13ifvqhvg","pricing_plan_id":"cebpf4jnsgd1na2vs0mg"},{"bike_id":"9542ae57-d9be-4432-abd3-463f4c36182b","system_id":"levelo_inurba_marseille","lat":43.29256,"lon":5.409,"is_reserved":false,"is_disabled":false,"rental_uris":{"android":"levelo://app?vid=9542ae57-d9be-4432-abd3-463f4c36182b","ios":"levelo://app?vid=9542ae57-d9be-4432-abd3-463f4c36182b"},"vehicle_type_id":"4","last_reported":1758813022,"current_range_meters":8800,"station_id":"ce4bh192rcd13ifvqdc0","pricing_plan_id":"cebpf4jnsgd1na2vs0mg"},{"bike_id":"899c74ab-d307-4a5d-9f4a-91938abe7a7e","system_id":"levelo_inurba_marseille","lat":43.32014,"lon":5.38133,"is_reserved":false,"is_disabled":false,"rental_uris":{"android":"levelo://app?vid=899c74ab-d307-4a5d-9f4a-91938abe7a7e","ios":"levelo://app?vid=899c74ab-d307-4a5d-9f4a-91938abe7a7e"},"vehicle_type_id":"4","last_reported":1758813022,"current_range_meters":9200,"station_id":"ce4bhr12rcd13ifvqhpg","pricing_plan_id":"cebpf4jnsgd1na2vs0mg"},{"bike_id":"94b2f036-4ca4-4693-89f2-72df2150ee98","system_id":"levelo_inurba_marseille","lat":43.258265,"lon":5.394374,"is_reserved":false,"is_disabled":true,"rental_uris":{"android":"levelo://app?vid=94b2f036-4ca4-4693-89f2-72df2150ee98","ios":"levelo://app?vid=94b2f036-4ca4-4693-89f2-72df2150ee98"},"vehicle_type_id":"4","last_reported":1758813022,"current_range_meters":9200,"station_id":"ce4bhip2rcd13ifvqft0","pricing_plan_id":"cebpf4jnsgd1na2vs0mg"},{"bike_id":"66f0ebb4-754c-42f9-9534-ad79302487c7","system_id":"levelo_inurba_marseille","lat":43.28468,"lon":5.38425,"is_reserved":false,"is_disabled":false,"rental_uris":{"android":"levelo://app?vid=66f0ebb4-754c-42f9-9534-ad79302487c7","ios":"levelo://app?vid=66f0ebb4-754c-42f9-9534-ad79302487c7"},"vehicle_type_id":"4","last_reported":1758813022,"current_range_meters":10800,"station_id":"ce4bh512rcd13ifvqe3g","pricing_plan_id":"cebpf4jnsgd1na2vs0mg"},{"bike_id":"450844ba-2fc2-47be-9959-8fee61f07fb6","system_id":"levelo_inurba_marseille","lat":43.31741,"lon":5.39024,"is_reserved":false,"is_disabled":false,"rental_uris":{"android":"levelo://app?vid=450844ba-2fc2-47be-9959-8fee61f07fb6","ios":"levelo://app?vid=450844ba-2fc2-47be-9959-8fee61f07fb6"},"vehicle_type_id":"4","last_reported":1758813022,"current_range_meters":9600,"station_id":"ce4bhqp2rcd13ifvqhng","pricing_plan_id":"cebpf4jnsgd1na2vs0mg"},{"bike_id":"ac9077f6-345e-47b9-9bd6-3b85d9639489","system_id":"levelo_inurba_marseille","lat":43.281546,"lon":5.426475,"is_reserved":false,"is_disabled":false,"rental_uris":{"android":"levelo://app?vid=ac9077f6-345e-47b9-9bd6-3b85d9639489","ios":"levelo://app?vid=ac9077f6-345e-47b9-9bd6-3b85d9639489"},"vehicle_type_id":"4","last_reported":1758813022,"current_range_meters":9200,"station_id":"ce4bhnh2rcd13ifvqgug","pricing_plan_id":"cebpf4jnsgd1na2vs0mg"},{"bike_id":"d2be082e-bd73-4203-addb-18871b3a9587","system_id":"levelo_inurba_marseille","lat":43.29411,"lon":5.37483,"is_reserved":false,"is_disabled":false,"rental_uris":{"android":"levelo://app?vid=d2be082e-bd73-4203-addb-18871b3a9587","ios":"levelo://app?vid=d2be082e-bd73-4203-addb-18871b3a9587"},"vehicle_type_id":"4","last_reported":1758813022,"current_range_meters":9600,"station_id":"","pricing_plan_id":"cebpf4jnsgd1na2vs0mg"},{"bike_id":"3a83ddcd-ce03-4ed4-a7fa-b273c2464f02","system_id":"levelo_inurba_marseille","lat":43.27948,"lon":5.3632,"is_reserved":false,"is_disabled":false,"rental_uris":{"android":"levelo://app?vid=3a83ddcd-ce03-4ed4-a7fa-b273c2464f02","ios":"levelo://app?vid=3a83ddcd-ce03-4ed4-a7fa-b273c2464f02"},"vehicle_type_id":"4","last_reported":1758813022,"current_range_meters":9600,"station_id":"","pricing_plan_id":"cebpf4jnsgd1na2vs0mg"},{"bike_id":"6018c9eb-5620-4b04-be07-327322b37571","system_id":"levelo_inurba_marseille","lat":43.2768,"lon":5.38876,"is_reserved":false,"is_disabled":false,"rental_uris":{"android":"levelo://app?vid=6018c9eb-5620-4b04-be07-327322b37571","ios":"levelo://app?vid=6018c9eb-5620-4b04-be07-327322b37571"},"vehicle_type_id":"4","last_reported":1758813022,"current_range_meters":9600,"station_id":"ce4bhi12rcd13ifvqfo0","pricing_plan_id":"cebpf4jnsgd1na2vs0mg"},{"bike_id":"117acf13-6b03-4ee3-b4a5-edb1f47e11bc","system_id":"levelo_inurba_marseille","lat":43.26835,"lon":5.38719,"is_reserved":false,"is_disabled":false,"rental_uris":{"android":"levelo://app?vid=117acf13-6b03-4ee3-b4a5-edb1f47e11bc","ios":"levelo://app?vid=117acf13-6b03-4ee3-b4a5-edb1f47e11bc"},"vehicle_type_id":"4","last_reported":1758813022,"current_range_meters":9600,"station_id":"","pricing_plan_id":"cebpf4jnsgd1na2vs0mg"},{"bike_id":"8ec1501e-5f94-45dc-a07d-9eabec4f9422","system_id":"levelo_inurba_marseille","lat":43.27495,"lon":5.42449,"is_reserved":false,"is_disabled":false,"rental_uris":{"android":"levelo://app?vid=8ec1501e-5f94-45dc-a07d-9eabec4f9422","ios":"levelo://app?vid=8ec1501e-5f94-45dc-a07d-9eabec4f9422"},"vehicle_type_id":"4","last_reported":1758813022,"current_range_meters":16000,"station_id":"ce4bhn92rcd13ifvqgrg","pricing_plan_id":"cebpf4jnsgd1na2vs0mg"},{"bike_id":"032dddcc-2fc7-4dfe-a553-2a8380ca21a3","system_id":"levelo_inurba_marseille","lat":43.31281,"lon":5.40171,"is_reserved":false,"is_disabled":false,"rental_uris":{"android":"levelo://app?vid=032dddcc-2fc7-4dfe-a553-2a8380ca21a3","ios":"levelo://app?vid=032dddcc-2fc7-4dfe-a553-2a8380ca21a3"},"vehicle_type_id":"4","last_reported":1758813022,"current_range_meters":10000,"station_id":"ce4bh092rcd13ifvqd30","pricing_plan_id":"cebpf4jnsgd1na2vs0mg"},{"bike_id":"379911e0-a8b9-4b05-96ac-c75be54d3c45","system_id":"levelo_inurba_marseille","lat":43.28867,"lon":5.42514,"is_reserved":false,"is_disabled":false,"rental_uris":{"android":"levelo://app?vid=379911e0-a8b9-4b05-96ac-c75be54d3c45","ios":"levelo://app?vid=379911e0-a8b9-4b05-96ac-c75be54d3c45"},"vehicle_type_id":"4","last_reported":1758813022,"current_range_meters":10000,"station_id":"","pricing_plan_id":"cebpf4jnsgd1na2vs0mg"},{"bike_id":"0ef81889-2d7f-4e70-b480-0b08f55cbfba","system_id":"levelo_inurba_marseille","lat":43.30859,"lon":5.3682,"is_reserved":false,"is_disabled":false,"rental_uris":{"android":"levelo://app?vid=0ef81889-2d7f-4e70-b480-0b08f55cbfba","ios":"levelo://app?vid=0ef81889-2d7f-4e70-b480-0b08f55cbfba"},"vehicle_type_id":"4","last_reported":1758813022,"current_range_meters":10000,"station_id":"","pricing_plan_id":"cebpf4jnsgd1na2vs0mg"},{"bike_id":"a98b4fbf-538b-48e0-b19b-2b976269cc6a","system_id":"levelo_inurba_marseille","lat":43.29559,"lon":5.39971,"is_reserved":false,"is_disabled":false,"rental_uris":{"android":"levelo://app?vid=a98b4fbf-538b-48e0-b19b-2b976269cc6a","ios":"levelo://app?vid=a98b4fbf-538b-48e0-b19b-2b976269cc6a"},"vehicle_type_id":"4","last_reported":1758813022,"current_range_meters":10800,"station_id":"ce4bh312rcd13ifvqdj0","pricing_plan_id":"cebpf4jnsgd1na2vs0mg"},{"bike_id":"d514e04a-079c-416f-abc8-06d58ffe185d","system_id":"levelo_inurba_marseille","lat":43.265668,"lon":5.390097,"is_reserved":false,"is_disabled":false,"rental_uris":{"android":"levelo://app?vid=d514e04a-079c-416f-abc8-06d58ffe185d","ios":"levelo://app?vid=d514e04a-079c-416f-abc8-06d58ffe185d"},"vehicle_type_id":"4","last_reported":1758813022,"current_range_meters":10800,"station_id":"ce4bhe12rcd13ifvqf30","pricing_plan_id":"cebpf4jnsgd1na2vs0mg"},{"bike_id":"0e9ca394-4351-4bf8-a641-f4e5215baf20","system_id":"levelo_inurba_marseille","lat":43.28257,"lon":5.35058,"is_reserved":false,"is_disabled":false,"rental_uris":{"android":"levelo://app?vid=0e9ca394-4351-4bf8-a641-f4e5215baf20","ios":"levelo://app?vid=0e9ca394-4351-4bf8-a641-f4e5215baf20"},"vehicle_type_id":"4","last_reported":1758813022,"current_range_meters":10800,"station_id":"ce4bhbp2rcd13ifvqerg","pricing_plan_id":"cebpf4jnsgd1na2vs0mg"},{"bike_id":"235215e3-3d5f-493c-bcf5-e8a23e7a7fb0","system_id":"levelo_inurba_marseille","lat":43.28344,"lon":5.3811,"is_reserved":false,"is_disabled":false,"rental_uris":{"android":"levelo://app?vid=235215e3-3d5f-493c-bcf5-e8a23e7a7fb0","ios":"levelo://app?vid=235215e3-3d5f-493c-bcf5-e8a23e7a7fb0"},"vehicle_type_id":"4","last_reported":1758813022,"current_range_meters":8400,"station_id":"ce4bh412rcd13ifvqdr0","pricing_plan_id":"cebpf4jnsgd1na2vs0mg"},{"bike_id":"6c713458-3bb1-4c2e-a536-0f513f11fc65","system_id":"levelo_inurba_marseille","lat":43.27996,"lon":5.41667,"is_reserved":false,"is_disabled":false,"rental_uris":{"android":"levelo://app?vid=6c713458-3bb1-4c2e-a536-0f513f11fc65","ios":"levelo://app?vid=6c713458-3bb1-4c2e-a536-0f513f11fc65"},"vehicle_type_id":"4","last_reported":1758813022,"current_range_meters":10800,"station_id":"ce4bho12rcd13ifvqh1g","pricing_plan_id":"cebpf4jnsgd1na2vs0mg"},{"bike_id":"8584eb3e-f7b4-4300-97fe-005a37d8d75b","system_id":"levelo_inurba_marseille","lat":43.36847,"lon":5.36275,"is_reserved":false,"is_disabled":false,"rental_uris":{"android":"levelo://app?vid=8584eb3e-f7b4-4300-97fe-005a37d8d75b","ios":"levelo://app?vid=8584eb3e-f7b4-4300-97fe-005a37d8d75b"},"vehicle_type_id":"4","last_reported":1758813022,"current_range_meters":10800,"station_id":"","pricing_plan_id":"cebpf4jnsgd1na2vs0mg"},{"bike_id":"d5632eaf-207f-4351-be9c-95c58bc9c538","system_id":"levelo_inurba_marseille","lat":43.29527,"lon":5.37504,"is_reserved":false,"is_disabled":true,"rental_uris":{"android":"levelo://app?vid=d5632eaf-207f-4351-be9c-95c58bc9c538","ios":"levelo://app?vid=d5632eaf-207f-4351-be9c-95c58bc9c538"},"vehicle_type_id":"4","last_reported":1758813022,"current_range_meters":11200,"station_id":"ce4bgkp2rcd13ifvqbmg","pricing_plan_id":"cebpf4jnsgd1na2vs0mg"},{"bike_id":"af176c1b-3843-4526-96c3-909e57fac9c9","system_id":"levelo_inurba_marseille","lat":43.24804,"lon":5.37459,"is_reserved":false,"is_disabled":false,"rental_uris":{"android":"levelo://app?vid=af176c1b-3843-4526-96c3-909e57fac9c9","ios":"levelo://app?vid=af176c1b-3843-4526-96c3-909e57fac9c9"},"vehicle_type_id":"4","last_reported":1758813022,"current_range_meters":5600,"station_id":"ce4bhgh2rcd13ifvqfb0","pricing_plan_id":"cebpf4jnsgd1na2vs0mg"},{"bike_id":"8eae954c-dab6-4303-94f5-569e1c483f62","system_id":"levelo_inurba_marseille","lat":43.29465,"lon":5.40749,"is_reserved":false,"is_disabled":false,"rental_uris":{"android":"levelo://app?vid=8eae954c-dab6-4303-94f5-569e1c483f62","ios":"levelo://app?vid=8eae954c-dab6-4303-94f5-569e1c483f62"},"vehicle_type_id":"4","last_reported":1758813022,"current_range_meters":11200,"station_id":"","pricing_plan_id":"cebpf4jnsgd1na2vs0mg"},{"bike_id":"e1677242-6dbe-4274-a0a3-28c31635b0a5","system_id":"levelo_inurba_marseille","lat":43.25333,"lon":5.42141,"is_reserved":false,"is_disabled":false,"rental_uris":{"android":"levelo://app?vid=e1677242-6dbe-4274-a0a3-28c31635b0a5","ios":"levelo://app?vid=e1677242-6dbe-4274-a0a3-28c31635b0a5"},"vehicle_type_id":"4","last_reported":1758813022,"current_range_meters":11200,"station_id":"st_d2m65c5bi1j21697t3ng","pricing_plan_id":"cebpf4jnsgd1na2vs0mg"},{"bike_id":"b6a9b367-2165-44be-acb2-9cd05f210360","system_id":"levelo_inurba_marseille","lat":43.30535,"lon":5.36694,"is_reserved":false,"is_disabled":false,"rental_uris":{"android":"levelo://app?vid=b6a9b367-2165-44be-acb2-9cd05f210360","ios":"levelo://app?vid=b6a9b367-2165-44be-acb2-9cd05f210360"},"vehicle_type_id":"4","last_reported":1758813022,"current_range_meters":11200,"station_id":"ce4bgrp2rcd13ifvqc9g","pricing_plan_id":"cebpf4jnsgd1na2vs0mg"},{"bike_id":"237c6c1c-3b20-4dcb-82ea-76107a136d3e","system_id":"levelo_inurba_marseille","lat":43.29274,"lon":5.36847,"is_reserved":false,"is_disabled":true,"rental_uris":{"android":"levelo://app?vid=237c6c1c-3b20-4dcb-82ea-76107a136d3e","ios":"levelo://app?vid=237c6c1c-3b20-4dcb-82ea-76107a136d3e"},"vehicle_type_id":"4","last_reported":1758813022,"current_range_meters":11200,"station_id":"ce4bhbp2rcd13ifvqesg","pricing_plan_id":"cebpf4jnsgd1na2vs0mg"},{"bike_id":"3b31d633-b5d5-4cb8-bc19-6e3745360861","system_id":"levelo_inurba_marseille","lat":43.31225,"lon":5.36872,"is_reserved":false,"is_disabled":false,"rental_uris":{"android":"levelo://app?vid=3b31d633-b5d5-4cb8-bc19-6e3745360861","ios":"levelo://app?vid=3b31d633-b5d5-4cb8-bc19-6e3745360861"},"vehicle_type_id":"4","last_reported":1758813022,"current_range_meters":11200,"station_id":"ce4bgl92rcd13ifvqbq0","pricing_plan_id":"cebpf4jnsgd1na2vs0mg"},{"bike_id":"0cc9f93a-781e-4ac8-8947-dd1c46fa73e0","system_id":"levelo_inurba_marseille","lat":43.29937,"lon":5.36553,"is_reserved":false,"is_disabled":false,"rental_uris":{"android":"levelo://app?vid=0cc9f93a-781e-4ac8-8947-dd1c46fa73e0","ios":"levelo://app?vid=0cc9f93a-781e-4ac8-8947-dd1c46fa73e0"},"vehicle_type_id":"4","last_reported":1758813022,"current_range_meters":11600,"station_id":"ce4bgm92rcd13ifvqbr0","pricing_plan_id":"cebpf4jnsgd1na2vs0mg"},{"bike_id":"9fd15e46-d713-423e-ab94-b5de949787aa","system_id":"levelo_inurba_marseille","lat":43.26552,"lon":5.372908,"is_reserved":false,"is_disabled":false,"rental_uris":{"android":"levelo://app?vid=9fd15e46-d713-423e-ab94-b5de949787aa","ios":"levelo://app?vid=9fd15e46-d713-423e-ab94-b5de949787aa"},"vehicle_type_id":"4","last_reported":1758813022,"current_range_meters":11600,"station_id":"ce4bhg12rcd13ifvqf70","pricing_plan_id":"cebpf4jnsgd1na2vs0mg"},{"bike_id":"c976f2bd-d17c-4ba4-b53e-a3c01ed3340c","system_id":"levelo_inurba_marseille","lat":43.297706,"lon":5.371168,"is_reserved":false,"is_disabled":false,"rental_uris":{"android":"levelo://app?vid=c976f2bd-d17c-4ba4-b53e-a3c01ed3340c","ios":"levelo://app?vid=c976f2bd-d17c-4ba4-b53e-a3c01ed3340c"},"vehicle_type_id":"4","last_reported":1758813022,"current_range_meters":11600,"station_id":"ce4bgop2rcd13ifvqc1g","pricing_plan_id":"cebpf4jnsgd1na2vs0mg"},{"bike_id":"ef7a62bb-9af8-4582-9e2e-b9d4057a3af7","system_id":"levelo_inurba_marseille","lat":43.31706,"lon":5.43703,"is_reserved":false,"is_disabled":false,"rental_uris":{"android":"levelo://app?vid=ef7a62bb-9af8-4582-9e2e-b9d4057a3af7","ios":"levelo://app?vid=ef7a62bb-9af8-4582-9e2e-b9d4057a3af7"},"vehicle_type_id":"4","last_reported":1758813022,"current_range_meters":11200,"station_id":"ce4bhp92rcd13ifvqhcg","pricing_plan_id":"cebpf4jnsgd1na2vs0mg"},{"bike_id":"8b75477f-10f0-4393-bd04-9642a86def9d","system_id":"levelo_inurba_marseille","lat":43.23317,"lon":5.43828,"is_reserved":false,"is_disabled":false,"rental_uris":{"android":"levelo://app?vid=8b75477f-10f0-4393-bd04-9642a86def9d","ios":"levelo://app?vid=8b75477f-10f0-4393-bd04-9642a86def9d"},"vehicle_type_id":"4","last_reported":1758813022,"current_range_meters":12000,"station_id":"","pricing_plan_id":"cebpf4jnsgd1na2vs0mg"},{"bike_id":"003515e8-8117-44bb-979d-5f47e8d50fda","system_id":"levelo_inurba_marseille","lat":43.30621,"lon":5.37569,"is_reserved":false,"is_disabled":false,"rental_uris":{"android":"levelo://app?vid=003515e8-8117-44bb-979d-5f47e8d50fda","ios":"levelo://app?vid=003515e8-8117-44bb-979d-5f47e8d50fda"},"vehicle_type_id":"4","last_reported":1758813022,"current_range_meters":12000,"station_id":"","pricing_plan_id":"cebpf4jnsgd1na2vs0mg"},{"bike_id":"bdec3261-de13-477f-818b-7af8ae1d1f6a","system_id":"levelo_inurba_marseille","lat":43.23948,"lon":5.37692,"is_reserved":false,"is_disabled":false,"rental_uris":{"android":"levelo://app?vid=bdec3261-de13-477f-818b-7af8ae1d1f6a","ios":"levelo://app?vid=bdec3261-de13-477f-818b-7af8ae1d1f6a"},"vehicle_type_id":"4","last_reported":1758813022,"current_range_meters":12000,"station_id":"","pricing_plan_id":"cebpf4jnsgd1na2vs0mg"},{"bike_id":"314e2a5a-ffc8-45e2-9d40-03177ba84715","system_id":"levelo_inurba_marseille","lat":43.30462,"lon":5.37903,"is_reserved":false,"is_disabled":false,"rental_uris":{"android":"levelo://app?vid=314e2a5a-ffc8-45e2-9d40-03177ba84715","ios":"levelo://app?vid=314e2a5a-ffc8-45e2-9d40-03177ba84715"},"vehicle_type_id":"4","last_reported":1758813022,"current_range_meters":12000,"station_id":"ce4bgup2rcd13ifvqcn0","pricing_plan_id":"cebpf4jnsgd1na2vs0mg"},{"bike_id":"46923300-e0d3-40c1-8c76-7dadc761100f","system_id":"levelo_inurba_marseille","lat":43.29008,"lon":5.35611,"is_reserved":false,"is_disabled":false,"rental_uris":{"android":"levelo://app?vid=46923300-e0d3-40c1-8c76-7dadc761100f","ios":"levelo://app?vid=46923300-e0d3-40c1-8c76-7dadc761100f"},"vehicle_type_id":"4","last_reported":1758813022,"current_range_meters":12000,"station_id":"ce4bhb92rcd13ifvqen0","pricing_plan_id":"cebpf4jnsgd1na2vs0mg"},{"bike_id":"d1035cda-0828-4480-ab90-b06087f3ef72","system_id":"levelo_inurba_marseille","lat":43.25584,"lon":5.38224,"is_reserved":false,"is_disabled":false,"rental_uris":{"android":"levelo://app?vid=d1035cda-0828-4480-ab90-b06087f3ef72","ios":"levelo://app?vid=d1035cda-0828-4480-ab90-b06087f3ef72"},"vehicle_type_id":"4","last_reported":1758813022,"current_range_meters":12000,"station_id":"ce4bhih2rcd13ifvqfs0","pricing_plan_id":"cebpf4jnsgd1na2vs0mg"},{"bike_id":"212de2eb-8bbc-413c-b204-9fe1facd76e8","system_id":"levelo_inurba_marseille","lat":43.31317,"lon":5.37827,"is_reserved":false,"is_disabled":false,"rental_uris":{"android":"levelo://app?vid=212de2eb-8bbc-413c-b204-9fe1facd76e8","ios":"levelo://app?vid=212de2eb-8bbc-413c-b204-9fe1facd76e8"},"vehicle_type_id":"4","last_reported":1758813022,"current_range_meters":12000,"station_id":"","pricing_plan_id":"cebpf4jnsgd1na2vs0mg"},{"bike_id":"f9af076b-c426-46f0-97f6-f6a5a530c8e2","system_id":"levelo_inurba_marseille","lat":43.33038,"lon":5.39482,"is_reserved":false,"is_disabled":false,"rental_uris":{"android":"levelo://app?vid=f9af076b-c426-46f0-97f6-f6a5a530c8e2","ios":"levelo://app?vid=f9af076b-c426-46f0-97f6-f6a5a530c8e2"},"vehicle_type_id":"4","last_reported":1758813022,"current_range_meters":12000,"station_id":"","pricing_plan_id":"cebpf4jnsgd1na2vs0mg"},{"bike_id":"f0c5386a-9938-4d6a-81e8-14ec0c5e2580","system_id":"levelo_inurba_marseille","lat":43.3145,"lon":5.37375,"is_reserved":false,"is_disabled":false,"rental_uris":{"android":"levelo://app?vid=f0c5386a-9938-4d6a-81e8-14ec0c5e2580","ios":"levelo://app?vid=f0c5386a-9938-4d6a-81e8-14ec0c5e2580"},"vehicle_type_id":"4","last_reported":1758813022,"current_range_meters":12000,"station_id":"","pricing_plan_id":"cebpf4jnsgd1na2vs0mg"},{"bike_id":"9957286a-78bd-4512-a2e9-c89373c449b0","system_id":"levelo_inurba_marseille","lat":43.23187,"lon":5.39983,"is_reserved":false,"is_disabled":false,"rental_uris":{"android":"levelo://app?vid=9957286a-78bd-4512-a2e9-c89373c449b0","ios":"levelo://app?vid=9957286a-78bd-4512-a2e9-c89373c449b0"},"vehicle_type_id":"4","last_reported":1758813022,"current_range_meters":12000,"station_id":"ce4bhn12rcd13ifvqgqg","pricing_plan_id":"cebpf4jnsgd1na2vs0mg"},{"bike_id":"1732e202-ead3-4304-be22-ea6e1ae2d091","system_id":"levelo_inurba_marseille","lat":43.28664,"lon":5.36345,"is_reserved":false,"is_disabled":false,"rental_uris":{"android":"levelo://app?vid=1732e202-ead3-4304-be22-ea6e1ae2d091","ios":"levelo://app?vid=1732e202-ead3-4304-be22-ea6e1ae2d091"},"vehicle_type_id":"4","last_reported":1758813022,"current_range_meters":12400,"station_id":"ce4bhah2rcd13ifvqej0","pricing_plan_id":"cebpf4jnsgd1na2vs0mg"},{"bike_id":"2bd2a176-8590-4e06-8b8c-a96b49b7b36a","system_id":"levelo_inurba_marseille","lat":43.262237,"lon":5.404538,"is_reserved":false,"is_disabled":false,"rental_uris":{"android":"levelo://app?vid=2bd2a176-8590-4e06-8b8c-a96b49b7b36a","ios":"levelo://app?vid=2bd2a176-8590-4e06-8b8c-a96b49b7b36a"},"vehicle_type_id":"4","last_reported":1758813022,"current_range_meters":12400,"station_id":"","pricing_plan_id":"cebpf4jnsgd1na2vs0mg"},{"bike_id":"0fa25639-03ac-45c7-b903-02a196ec8bed","system_id":"levelo_inurba_marseille","lat":43.24628,"lon":5.43143,"is_reserved":false,"is_disabled":false,"rental_uris":{"android":"levelo://app?vid=0fa25639-03ac-45c7-b903-02a196ec8bed","ios":"levelo://app?vid=0fa25639-03ac-45c7-b903-02a196ec8bed"},"vehicle_type_id":"4","last_reported":1758813022,"current_range_meters":12400,"station_id":"st_d2m6c4gdas8pm72e190g","pricing_plan_id":"cebpf4jnsgd1na2vs0mg"},{"bike_id":"c534d415-cd3a-4c35-8cd7-486dfd6c80e7","system_id":"levelo_inurba_marseille","lat":43.306003,"lon":5.372316,"is_reserved":false,"is_disabled":false,"rental_uris":{"android":"levelo://app?vid=c534d415-cd3a-4c35-8cd7-486dfd6c80e7","ios":"levelo://app?vid=c534d415-cd3a-4c35-8cd7-486dfd6c80e7"},"vehicle_type_id":"4","last_reported":1758813022,"current_range_meters":12400,"station_id":"ce4bgqh2rcd13ifvqc4g","pricing_plan_id":"cebpf4jnsgd1na2vs0mg"},{"bike_id":"dbfe48b2-eb1d-48a8-b0a9-8a54704d3fe5","system_id":"levelo_inurba_marseille","lat":43.27562,"lon":5.3843,"is_reserved":false,"is_disabled":false,"rental_uris":{"android":"levelo://app?vid=dbfe48b2-eb1d-48a8-b0a9-8a54704d3fe5","ios":"levelo://app?vid=dbfe48b2-eb1d-48a8-b0a9-8a54704d3fe5"},"vehicle_type_id":"4","last_reported":1758813022,"current_range_meters":12400,"station_id":"ce4bhh92rcd13ifvqfi0","pricing_plan_id":"cebpf4jnsgd1na2vs0mg"},{"bike_id":"2398e714-da7f-4f0e-a401-0b08570bddf3","system_id":"levelo_inurba_marseille","lat":43.32107,"lon":5.36772,"is_reserved":false,"is_disabled":false,"rental_uris":{"android":"levelo://app?vid=2398e714-da7f-4f0e-a401-0b08570bddf3","ios":"levelo://app?vid=2398e714-da7f-4f0e-a401-0b08570bddf3"},"vehicle_type_id":"4","last_reported":1758813022,"current_range_meters":12400,"station_id":"ce4bhrh2rcd13ifvqhug","pricing_plan_id":"cebpf4jnsgd1na2vs0mg"},{"bike_id":"91a7af58-e5b6-4061-9925-7ba6efc20e01","system_id":"levelo_inurba_marseille","lat":43.28139,"lon":5.42642,"is_reserved":false,"is_disabled":false,"rental_uris":{"android":"levelo://app?vid=91a7af58-e5b6-4061-9925-7ba6efc20e01","ios":"levelo://app?vid=91a7af58-e5b6-4061-9925-7ba6efc20e01"},"vehicle_type_id":"4","last_reported":1758813022,"current_range_meters":12400,"station_id":"ce4bhnh2rcd13ifvqgug","pricing_plan_id":"cebpf4jnsgd1na2vs0mg"},{"bike_id":"0e03c98f-2479-4ced-a4b9-4640be9073b1","system_id":"levelo_inurba_marseille","lat":43.31711,"lon":5.40448,"is_reserved":false,"is_disabled":false,"rental_uris":{"android":"levelo://app?vid=0e03c98f-2479-4ced-a4b9-4640be9073b1","ios":"levelo://app?vid=0e03c98f-2479-4ced-a4b9-4640be9073b1"},"vehicle_type_id":"4","last_reported":1758813022,"current_range_meters":12400,"station_id":"ce4bh012rcd13ifvqd00","pricing_plan_id":"cebpf4jnsgd1na2vs0mg"},{"bike_id":"88a9fb38-9d5a-4cb9-9475-d259d4ada602","system_id":"levelo_inurba_marseille","lat":43.31721,"lon":5.42407,"is_reserved":false,"is_disabled":false,"rental_uris":{"android":"levelo://app?vid=88a9fb38-9d5a-4cb9-9475-d259d4ada602","ios":"levelo://app?vid=88a9fb38-9d5a-4cb9-9475-d259d4ada602"},"vehicle_type_id":"4","last_reported":1758813022,"current_range_meters":12400,"station_id":"ce4bhp92rcd13ifvqhbg","pricing_plan_id":"cebpf4jnsgd1na2vs0mg"},{"bike_id":"17b6e890-308f-4e08-9acd-7090f69670ec","system_id":"levelo_inurba_marseille","lat":43.31211,"lon":5.36786,"is_reserved":false,"is_disabled":false,"rental_uris":{"android":"levelo://app?vid=17b6e890-308f-4e08-9acd-7090f69670ec","ios":"levelo://app?vid=17b6e890-308f-4e08-9acd-7090f69670ec"},"vehicle_type_id":"4","last_reported":1758813022,"current_range_meters":12800,"station_id":"","pricing_plan_id":"cebpf4jnsgd1na2vs0mg"},{"bike_id":"43020a22-ac0f-4f65-a1cc-f7dac491abb0","system_id":"levelo_inurba_marseille","lat":43.29268,"lon":5.40913,"is_reserved":false,"is_disabled":false,"rental_uris":{"android":"levelo://app?vid=43020a22-ac0f-4f65-a1cc-f7dac491abb0","ios":"levelo://app?vid=43020a22-ac0f-4f65-a1cc-f7dac491abb0"},"vehicle_type_id":"4","last_reported":1758813022,"current_range_meters":12800,"station_id":"ce4bh192rcd13ifvqdc0","pricing_plan_id":"cebpf4jnsgd1na2vs0mg"},{"bike_id":"8b38790f-2d99-43bd-be10-dff12f67d8dd","system_id":"levelo_inurba_marseille","lat":43.28732,"lon":5.37943,"is_reserved":false,"is_disabled":false,"rental_uris":{"android":"levelo://app?vid=8b38790f-2d99-43bd-be10-dff12f67d8dd","ios":"levelo://app?vid=8b38790f-2d99-43bd-be10-dff12f67d8dd"},"vehicle_type_id":"4","last_reported":1758813022,"current_range_meters":12800,"station_id":"ce4bh9p2rcd13ifvqec0","pricing_plan_id":"cebpf4jnsgd1na2vs0mg"},{"bike_id":"2410ba55-3cf0-4123-a570-4916fe078209","system_id":"levelo_inurba_marseille","lat":43.29575,"lon":5.36736,"is_reserved":false,"is_disabled":false,"rental_uris":{"android":"levelo://app?vid=2410ba55-3cf0-4123-a570-4916fe078209","ios":"levelo://app?vid=2410ba55-3cf0-4123-a570-4916fe078209"},"vehicle_type_id":"4","last_reported":1758813022,"current_range_meters":12800,"station_id":"ce4bgph2rcd13ifvqc2g","pricing_plan_id":"cebpf4jnsgd1na2vs0mg"},{"bike_id":"edbb893c-1974-4de8-8795-4d85d06055c5","system_id":"levelo_inurba_marseille","lat":43.30138,"lon":5.38772,"is_reserved":false,"is_disabled":false,"rental_uris":{"android":"levelo://app?vid=edbb893c-1974-4de8-8795-4d85d06055c5","ios":"levelo://app?vid=edbb893c-1974-4de8-8795-4d85d06055c5"},"vehicle_type_id":"4","last_reported":1758813022,"current_range_meters":12800,"station_id":"ce4bghh2rcd13ifvqb60","pricing_plan_id":"cebpf4jnsgd1na2vs0mg"},{"bike_id":"03c12457-0866-4283-a32c-3c94a04d7d47","system_id":"levelo_inurba_marseille","lat":43.2655,"lon":5.37286,"is_reserved":false,"is_disabled":false,"rental_uris":{"android":"levelo://app?vid=03c12457-0866-4283-a32c-3c94a04d7d47","ios":"levelo://app?vid=03c12457-0866-4283-a32c-3c94a04d7d47"},"vehicle_type_id":"4","last_reported":1758813022,"current_range_meters":12800,"station_id":"ce4bhg12rcd13ifvqf70","pricing_plan_id":"cebpf4jnsgd1na2vs0mg"},{"bike_id":"3e795a56-fcd5-414a-824d-13838a97cb44","system_id":"levelo_inurba_marseille","lat":43.24167,"lon":5.36394,"is_reserved":false,"is_disabled":false,"rental_uris":{"android":"levelo://app?vid=3e795a56-fcd5-414a-824d-13838a97cb44","ios":"levelo://app?vid=3e795a56-fcd5-414a-824d-13838a97cb44"},"vehicle_type_id":"4","last_reported":1758813022,"current_range_meters":13600,"station_id":"cpo36qri1sfpv3e86is0","pricing_plan_id":"cebpf4jnsgd1na2vs0mg"},{"bike_id":"602ce7f2-04eb-4434-a378-e79b8b2b8edd","system_id":"levelo_inurba_marseille","lat":43.29041,"lon":5.39961,"is_reserved":false,"is_disabled":false,"rental_uris":{"android":"levelo://app?vid=602ce7f2-04eb-4434-a378-e79b8b2b8edd","ios":"levelo://app?vid=602ce7f2-04eb-4434-a378-e79b8b2b8edd"},"vehicle_type_id":"4","last_reported":1758813022,"current_range_meters":14000,"station_id":"ce4bh392rcd13ifvqdm0","pricing_plan_id":"cebpf4jnsgd1na2vs0mg"},{"bike_id":"cc3b3065-1bce-4b9e-853c-5a727336eeb3","system_id":"levelo_inurba_marseille","lat":43.323639,"lon":5.367701,"is_reserved":false,"is_disabled":false,"rental_uris":{"android":"levelo://app?vid=cc3b3065-1bce-4b9e-853c-5a727336eeb3","ios":"levelo://app?vid=cc3b3065-1bce-4b9e-853c-5a727336eeb3"},"vehicle_type_id":"4","last_reported":1758813022,"current_range_meters":13600,"station_id":"ce4bhsh2rcd13ifvqi2g","pricing_plan_id":"cebpf4jnsgd1na2vs0mg"},{"bike_id":"85cd6d06-e6e2-4f5c-a023-284376820711","system_id":"levelo_inurba_marseille","lat":43.29677,"lon":5.36606,"is_reserved":false,"is_disabled":false,"rental_uris":{"android":"levelo://app?vid=85cd6d06-e6e2-4f5c-a023-284376820711","ios":"levelo://app?vid=85cd6d06-e6e2-4f5c-a023-284376820711"},"vehicle_type_id":"4","last_reported":1758813022,"current_range_meters":13600,"station_id":"ce4bgn12rcd13ifvqbt0","pricing_plan_id":"cebpf4jnsgd1na2vs0mg"},{"bike_id":"39bceee3-d58e-4000-a2af-27ebfba7a113","system_id":"levelo_inurba_marseille","lat":43.284478,"lon":5.35843,"is_reserved":false,"is_disabled":false,"rental_uris":{"android":"levelo://app?vid=39bceee3-d58e-4000-a2af-27ebfba7a113","ios":"levelo://app?vid=39bceee3-d58e-4000-a2af-27ebfba7a113"},"vehicle_type_id":"4","last_reported":1758813022,"current_range_meters":13600,"station_id":"ce4bhah2rcd13ifvqei0","pricing_plan_id":"cebpf4jnsgd1na2vs0mg"},{"bike_id":"d31d856a-933d-49cf-948f-ce03657dfc74","system_id":"levelo_inurba_marseille","lat":43.28431,"lon":5.35021,"is_reserved":false,"is_disabled":false,"rental_uris":{"android":"levelo://app?vid=d31d856a-933d-49cf-948f-ce03657dfc74","ios":"levelo://app?vid=d31d856a-933d-49cf-948f-ce03657dfc74"},"vehicle_type_id":"4","last_reported":1758813022,"current_range_meters":13600,"station_id":"ce4bhbh2rcd13ifvqepg","pricing_plan_id":"cebpf4jnsgd1na2vs0mg"},{"bike_id":"96c55bcf-90b7-4618-9025-978539f925b5","system_id":"levelo_inurba_marseille","lat":43.32355,"lon":5.36756,"is_reserved":false,"is_disabled":false,"rental_uris":{"android":"levelo://app?vid=96c55bcf-90b7-4618-9025-978539f925b5","ios":"levelo://app?vid=96c55bcf-90b7-4618-9025-978539f925b5"},"vehicle_type_id":"4","last_reported":1758813022,"current_range_meters":13600,"station_id":"ce4bhsh2rcd13ifvqi2g","pricing_plan_id":"cebpf4jnsgd1na2vs0mg"},{"bike_id":"1a48820e-08fe-4675-a54b-651241ef6812","system_id":"levelo_inurba_marseille","lat":43.25341,"lon":5.42169,"is_reserved":false,"is_disabled":false,"rental_uris":{"android":"levelo://app?vid=1a48820e-08fe-4675-a54b-651241ef6812","ios":"levelo://app?vid=1a48820e-08fe-4675-a54b-651241ef6812"},"vehicle_type_id":"4","last_reported":1758813022,"current_range_meters":13600,"station_id":"st_d2m65c5bi1j21697t3ng","pricing_plan_id":"cebpf4jnsgd1na2vs0mg"},{"bike_id":"af60c407-5d0d-4124-90bc-f5c672eb5129","system_id":"levelo_inurba_marseille","lat":43.31698,"lon":5.40469,"is_reserved":false,"is_disabled":false,"rental_uris":{"android":"levelo://app?vid=af60c407-5d0d-4124-90bc-f5c672eb5129","ios":"levelo://app?vid=af60c407-5d0d-4124-90bc-f5c672eb5129"},"vehicle_type_id":"4","last_reported":1758813022,"current_range_meters":14000,"station_id":"ce4bh012rcd13ifvqd00","pricing_plan_id":"cebpf4jnsgd1na2vs0mg"},{"bike_id":"ee7b127d-b5e9-4c1e-ae14-b21008548f0c","system_id":"levelo_inurba_marseille","lat":43.28665,"lon":5.36346,"is_reserved":false,"is_disabled":false,"rental_uris":{"android":"levelo://app?vid=ee7b127d-b5e9-4c1e-ae14-b21008548f0c","ios":"levelo://app?vid=ee7b127d-b5e9-4c1e-ae14-b21008548f0c"},"vehicle_type_id":"4","last_reported":1758813022,"current_range_meters":14000,"station_id":"ce4bhah2rcd13ifvqej0","pricing_plan_id":"cebpf4jnsgd1na2vs0mg"},{"bike_id":"77848a0e-20b7-4b68-ae3a-0dddd1fba848","system_id":"levelo_inurba_marseille","lat":43.31489,"lon":5.37298,"is_reserved":false,"is_disabled":false,"rental_uris":{"android":"levelo://app?vid=77848a0e-20b7-4b68-ae3a-0dddd1fba848","ios":"levelo://app?vid=77848a0e-20b7-4b68-ae3a-0dddd1fba848"},"vehicle_type_id":"4","last_reported":1758813022,"current_range_meters":14000,"station_id":"ce4bgt12rcd13ifvqcd0","pricing_plan_id":"cebpf4jnsgd1na2vs0mg"},{"bike_id":"f897d300-643c-4c7a-951b-f56d70ef23ca","system_id":"levelo_inurba_marseille","lat":43.30324,"lon":5.39076,"is_reserved":false,"is_disabled":false,"rental_uris":{"android":"levelo://app?vid=f897d300-643c-4c7a-951b-f56d70ef23ca","ios":"levelo://app?vid=f897d300-643c-4c7a-951b-f56d70ef23ca"},"vehicle_type_id":"4","last_reported":1758813022,"current_range_meters":14000,"station_id":"","pricing_plan_id":"cebpf4jnsgd1na2vs0mg"},{"bike_id":"1c27f7d4-507d-43e2-b324-44f5e35dee72","system_id":"levelo_inurba_marseille","lat":43.32361,"lon":5.38889,"is_reserved":false,"is_disabled":false,"rental_uris":{"android":"levelo://app?vid=1c27f7d4-507d-43e2-b324-44f5e35dee72","ios":"levelo://app?vid=1c27f7d4-507d-43e2-b324-44f5e35dee72"},"vehicle_type_id":"4","last_reported":1758813022,"current_range_meters":14000,"station_id":"ce4bhqp2rcd13ifvqhog","pricing_plan_id":"cebpf4jnsgd1na2vs0mg"},{"bike_id":"0c271021-80f3-42bd-a497-7484053cc86d","system_id":"levelo_inurba_marseille","lat":43.30522,"lon":5.36697,"is_reserved":false,"is_disabled":false,"rental_uris":{"android":"levelo://app?vid=0c271021-80f3-42bd-a497-7484053cc86d","ios":"levelo://app?vid=0c271021-80f3-42bd-a497-7484053cc86d"},"vehicle_type_id":"4","last_reported":1758813022,"current_range_meters":14000,"station_id":"ce4bgrp2rcd13ifvqc9g","pricing_plan_id":"cebpf4jnsgd1na2vs0mg"},{"bike_id":"4322c262-7a26-437b-9526-4c27c991a4bc","system_id":"levelo_inurba_marseille","lat":43.23132,"lon":5.43715,"is_reserved":false,"is_disabled":false,"rental_uris":{"android":"levelo://app?vid=4322c262-7a26-437b-9526-4c27c991a4bc","ios":"levelo://app?vid=4322c262-7a26-437b-9526-4c27c991a4bc"},"vehicle_type_id":"4","last_reported":1758813022,"current_range_meters":14000,"station_id":"ce4bhmp2rcd13ifvqgog","pricing_plan_id":"cebpf4jnsgd1na2vs0mg"},{"bike_id":"3731e4b4-e57b-4ad8-affe-801decac42ca","system_id":"levelo_inurba_marseille","lat":43.24937,"lon":5.40502,"is_reserved":false,"is_disabled":false,"rental_uris":{"android":"levelo://app?vid=3731e4b4-e57b-4ad8-affe-801decac42ca","ios":"levelo://app?vid=3731e4b4-e57b-4ad8-affe-801decac42ca"},"vehicle_type_id":"4","last_reported":1758813022,"current_range_meters":14000,"station_id":"st_d2ngiaodas8pm72gd1h0","pricing_plan_id":"cebpf4jnsgd1na2vs0mg"},{"bike_id":"e5303607-da03-4ac7-b81e-b332ede84cf7","system_id":"levelo_inurba_marseille","lat":43.31254,"lon":5.37816,"is_reserved":false,"is_disabled":false,"rental_uris":{"android":"levelo://app?vid=e5303607-da03-4ac7-b81e-b332ede84cf7","ios":"levelo://app?vid=e5303607-da03-4ac7-b81e-b332ede84cf7"},"vehicle_type_id":"4","last_reported":1758813022,"current_range_meters":14000,"station_id":"","pricing_plan_id":"cebpf4jnsgd1na2vs0mg"},{"bike_id":"3b9d0200-795d-4ef7-8aa8-09ef57bf334d","system_id":"levelo_inurba_marseille","lat":43.290954,"lon":5.381291,"is_reserved":false,"is_disabled":false,"rental_uris":{"android":"levelo://app?vid=3b9d0200-795d-4ef7-8aa8-09ef57bf334d","ios":"levelo://app?vid=3b9d0200-795d-4ef7-8aa8-09ef57bf334d"},"vehicle_type_id":"4","last_reported":1758813022,"current_range_meters":14000,"station_id":"ce4bh512rcd13ifvqe2g","pricing_plan_id":"cebpf4jnsgd1na2vs0mg"},{"bike_id":"6dcdc1d5-e4c2-485c-b179-0cd97cdf4c58","system_id":"levelo_inurba_marseille","lat":43.28696,"lon":5.39986,"is_reserved":false,"is_disabled":false,"rental_uris":{"android":"levelo://app?vid=6dcdc1d5-e4c2-485c-b179-0cd97cdf4c58","ios":"levelo://app?vid=6dcdc1d5-e4c2-485c-b179-0cd97cdf4c58"},"vehicle_type_id":"4","last_reported":1758813022,"current_range_meters":14400,"station_id":"ce4bho92rcd13ifvqh3g","pricing_plan_id":"cebpf4jnsgd1na2vs0mg"},{"bike_id":"c7f6a08b-c655-4213-b2ba-7d02e7f382fe","system_id":"levelo_inurba_marseille","lat":43.27988,"lon":5.39483,"is_reserved":false,"is_disabled":false,"rental_uris":{"android":"levelo://app?vid=c7f6a08b-c655-4213-b2ba-7d02e7f382fe","ios":"levelo://app?vid=c7f6a08b-c655-4213-b2ba-7d02e7f382fe"},"vehicle_type_id":"4","last_reported":1758813022,"current_range_meters":14400,"station_id":"","pricing_plan_id":"cebpf4jnsgd1na2vs0mg"},{"bike_id":"ceec0cfe-cea4-447e-a683-eea5945cbce8","system_id":"levelo_inurba_marseille","lat":43.29079,"lon":5.37175,"is_reserved":false,"is_disabled":false,"rental_uris":{"android":"levelo://app?vid=ceec0cfe-cea4-447e-a683-eea5945cbce8","ios":"levelo://app?vid=ceec0cfe-cea4-447e-a683-eea5945cbce8"},"vehicle_type_id":"4","last_reported":1758813022,"current_range_meters":14000,"station_id":"ce4bh5p2rcd13ifvqe4g","pricing_plan_id":"cebpf4jnsgd1na2vs0mg"},{"bike_id":"e1457ae5-36d1-4ab9-b491-73fc6dd78ca6","system_id":"levelo_inurba_marseille","lat":43.28672,"lon":5.38675,"is_reserved":false,"is_disabled":false,"rental_uris":{"android":"levelo://app?vid=e1457ae5-36d1-4ab9-b491-73fc6dd78ca6","ios":"levelo://app?vid=e1457ae5-36d1-4ab9-b491-73fc6dd78ca6"},"vehicle_type_id":"4","last_reported":1758813022,"current_range_meters":14800,"station_id":"ce4bh492rcd13ifvqdug","pricing_plan_id":"cebpf4jnsgd1na2vs0mg"},{"bike_id":"de7b6979-2cfd-4145-acea-2f29f870ff55","system_id":"levelo_inurba_marseille","lat":43.251075,"lon":5.403203,"is_reserved":false,"is_disabled":false,"rental_uris":{"android":"levelo://app?vid=de7b6979-2cfd-4145-acea-2f29f870ff55","ios":"levelo://app?vid=de7b6979-2cfd-4145-acea-2f29f870ff55"},"vehicle_type_id":"4","last_reported":1758813022,"current_range_meters":14800,"station_id":"ce4bhlh2rcd13ifvqgig","pricing_plan_id":"cebpf4jnsgd1na2vs0mg"},{"bike_id":"07ca9b11-d1e7-4e28-9f9c-b9d8b66da3a5","system_id":"levelo_inurba_marseille","lat":43.31361,"lon":5.38492,"is_reserved":false,"is_disabled":false,"rental_uris":{"android":"levelo://app?vid=07ca9b11-d1e7-4e28-9f9c-b9d8b66da3a5","ios":"levelo://app?vid=07ca9b11-d1e7-4e28-9f9c-b9d8b66da3a5"},"vehicle_type_id":"4","last_reported":1758813022,"current_range_meters":14800,"station_id":"ce4bgt92rcd13ifvqcf0","pricing_plan_id":"cebpf4jnsgd1na2vs0mg"},{"bike_id":"cbb18b60-87ee-4c41-942f-5266d23e6b2e","system_id":"levelo_inurba_marseille","lat":43.29025,"lon":5.38131,"is_reserved":false,"is_disabled":false,"rental_uris":{"android":"levelo://app?vid=cbb18b60-87ee-4c41-942f-5266d23e6b2e","ios":"levelo://app?vid=cbb18b60-87ee-4c41-942f-5266d23e6b2e"},"vehicle_type_id":"4","last_reported":1758813022,"current_range_meters":14800,"station_id":"ce4bh4p2rcd13ifvqe1g","pricing_plan_id":"cebpf4jnsgd1na2vs0mg"},{"bike_id":"30616463-0891-43f6-9943-5f10e8ee3294","system_id":"levelo_inurba_marseille","lat":43.305478,"lon":5.367062,"is_reserved":false,"is_disabled":false,"rental_uris":{"android":"levelo://app?vid=30616463-0891-43f6-9943-5f10e8ee3294","ios":"levelo://app?vid=30616463-0891-43f6-9943-5f10e8ee3294"},"vehicle_type_id":"4","last_reported":1758813022,"current_range_meters":14800,"station_id":"ce4bgrp2rcd13ifvqc9g","pricing_plan_id":"cebpf4jnsgd1na2vs0mg"},{"bike_id":"b1e08031-7887-471e-a069-6f00a28e51c7","system_id":"levelo_inurba_marseille","lat":43.22743,"lon":5.34902,"is_reserved":false,"is_disabled":false,"rental_uris":{"android":"levelo://app?vid=b1e08031-7887-471e-a069-6f00a28e51c7","ios":"levelo://app?vid=b1e08031-7887-471e-a069-6f00a28e51c7"},"vehicle_type_id":"4","last_reported":1758813022,"current_range_meters":14800,"station_id":"","pricing_plan_id":"cebpf4jnsgd1na2vs0mg"},{"bike_id":"041cd397-24ab-4e04-af23-07b961e161f4","system_id":"levelo_inurba_marseille","lat":43.337444,"lon":5.374475,"is_reserved":false,"is_disabled":false,"rental_uris":{"android":"levelo://app?vid=041cd397-24ab-4e04-af23-07b961e161f4","ios":"levelo://app?vid=041cd397-24ab-4e04-af23-07b961e161f4"},"vehicle_type_id":"4","last_reported":1758813022,"current_range_meters":14800,"station_id":"","pricing_plan_id":"cebpf4jnsgd1na2vs0mg"},{"bike_id":"26dd390c-fb15-4902-a5d9-2ed34701c92f","system_id":"levelo_inurba_marseille","lat":43.26222,"lon":5.37429,"is_reserved":false,"is_disabled":false,"rental_uris":{"android":"levelo://app?vid=26dd390c-fb15-4902-a5d9-2ed34701c92f","ios":"levelo://app?vid=26dd390c-fb15-4902-a5d9-2ed34701c92f"},"vehicle_type_id":"4","last_reported":1758813022,"current_range_meters":12000,"station_id":"ce4bhgp2rcd13ifvqfc0","pricing_plan_id":"cebpf4jnsgd1na2vs0mg"},{"bike_id":"a2dce52a-5344-4d8d-8d9b-44548da1fed4","system_id":"levelo_inurba_marseille","lat":43.28605,"lon":5.37061,"is_reserved":false,"is_disabled":false,"rental_uris":{"android":"levelo://app?vid=a2dce52a-5344-4d8d-8d9b-44548da1fed4","ios":"levelo://app?vid=a2dce52a-5344-4d8d-8d9b-44548da1fed4"},"vehicle_type_id":"4","last_reported":1758813022,"current_range_meters":14800,"station_id":"ce4bht12rcd13ifvqi60","pricing_plan_id":"cebpf4jnsgd1na2vs0mg"},{"bike_id":"df649d25-1f44-4471-8cdd-9566da8ef9b9","system_id":"levelo_inurba_marseille","lat":43.33024,"lon":5.39052,"is_reserved":false,"is_disabled":false,"rental_uris":{"android":"levelo://app?vid=df649d25-1f44-4471-8cdd-9566da8ef9b9","ios":"levelo://app?vid=df649d25-1f44-4471-8cdd-9566da8ef9b9"},"vehicle_type_id":"4","last_reported":1758813022,"current_range_meters":15200,"station_id":"ce4bhr92rcd13ifvqhrg","pricing_plan_id":"cebpf4jnsgd1na2vs0mg"},{"bike_id":"ab060ab1-e5ca-4874-8f05-82a64a2c83df","system_id":"levelo_inurba_marseille","lat":43.265747,"lon":5.390125,"is_reserved":false,"is_disabled":false,"rental_uris":{"android":"levelo://app?vid=ab060ab1-e5ca-4874-8f05-82a64a2c83df","ios":"levelo://app?vid=ab060ab1-e5ca-4874-8f05-82a64a2c83df"},"vehicle_type_id":"4","last_reported":1758813022,"current_range_meters":15200,"station_id":"ce4bhe12rcd13ifvqf30","pricing_plan_id":"cebpf4jnsgd1na2vs0mg"},{"bike_id":"d734f0f7-bb82-4cbc-9571-824c32d91d22","system_id":"levelo_inurba_marseille","lat":43.24177,"lon":5.36391,"is_reserved":false,"is_disabled":false,"rental_uris":{"android":"levelo://app?vid=d734f0f7-bb82-4cbc-9571-824c32d91d22","ios":"levelo://app?vid=d734f0f7-bb82-4cbc-9571-824c32d91d22"},"vehicle_type_id":"4","last_reported":1758813022,"current_range_meters":15200,"station_id":"cpo36qri1sfpv3e86is0","pricing_plan_id":"cebpf4jnsgd1na2vs0mg"},{"bike_id":"3e5e2602-12ed-411c-96d7-d3dffe2caad3","system_id":"levelo_inurba_marseille","lat":43.2656,"lon":5.40325,"is_reserved":false,"is_disabled":false,"rental_uris":{"android":"levelo://app?vid=3e5e2602-12ed-411c-96d7-d3dffe2caad3","ios":"levelo://app?vid=3e5e2602-12ed-411c-96d7-d3dffe2caad3"},"vehicle_type_id":"4","last_reported":1758813022,"current_range_meters":15200,"station_id":"ce4bhmp2rcd13ifvqgng","pricing_plan_id":"cebpf4jnsgd1na2vs0mg"},{"bike_id":"32463fb7-c698-442b-8d33-c79f1a4bab03","system_id":"levelo_inurba_marseille","lat":43.304292,"lon":5.38898,"is_reserved":false,"is_disabled":false,"rental_uris":{"android":"levelo://app?vid=32463fb7-c698-442b-8d33-c79f1a4bab03","ios":"levelo://app?vid=32463fb7-c698-442b-8d33-c79f1a4bab03"},"vehicle_type_id":"4","last_reported":1758813022,"current_range_meters":19200,"station_id":"ce4bgk12rcd13ifvqbi0","pricing_plan_id":"cebpf4jnsgd1na2vs0mg"},{"bike_id":"b0876e22-01c2-4752-8c20-d0f26e855839","system_id":"levelo_inurba_marseille","lat":43.31363,"lon":5.38505,"is_reserved":false,"is_disabled":false,"rental_uris":{"android":"levelo://app?vid=b0876e22-01c2-4752-8c20-d0f26e855839","ios":"levelo://app?vid=b0876e22-01c2-4752-8c20-d0f26e855839"},"vehicle_type_id":"4","last_reported":1758813022,"current_range_meters":15200,"station_id":"ce4bgt92rcd13ifvqcf0","pricing_plan_id":"cebpf4jnsgd1na2vs0mg"},{"bike_id":"8853ca67-02c3-4604-aaf0-76ea98b989a3","system_id":"levelo_inurba_marseille","lat":43.28266,"lon":5.35066,"is_reserved":false,"is_disabled":false,"rental_uris":{"android":"levelo://app?vid=8853ca67-02c3-4604-aaf0-76ea98b989a3","ios":"levelo://app?vid=8853ca67-02c3-4604-aaf0-76ea98b989a3"},"vehicle_type_id":"4","last_reported":1758813022,"current_range_meters":15200,"station_id":"ce4bhbp2rcd13ifvqerg","pricing_plan_id":"cebpf4jnsgd1na2vs0mg"},{"bike_id":"97a5ee76-2e0a-479d-a727-d5a9ad8fecb2","system_id":"levelo_inurba_marseille","lat":43.22922,"lon":5.35371,"is_reserved":false,"is_disabled":false,"rental_uris":{"android":"levelo://app?vid=97a5ee76-2e0a-479d-a727-d5a9ad8fecb2","ios":"levelo://app?vid=97a5ee76-2e0a-479d-a727-d5a9ad8fecb2"},"vehicle_type_id":"4","last_reported":1758813022,"current_range_meters":16000,"station_id":"cpo3532slgdg3j2ikp40","pricing_plan_id":"cebpf4jnsgd1na2vs0mg"},{"bike_id":"6eb3cbe6-8855-4b34-92a8-6d9fc26274c2","system_id":"levelo_inurba_marseille","lat":43.31067,"lon":5.38358,"is_reserved":false,"is_disabled":false,"rental_uris":{"android":"levelo://app?vid=6eb3cbe6-8855-4b34-92a8-6d9fc26274c2","ios":"levelo://app?vid=6eb3cbe6-8855-4b34-92a8-6d9fc26274c2"},"vehicle_type_id":"4","last_reported":1758813022,"current_range_meters":16000,"station_id":"","pricing_plan_id":"cebpf4jnsgd1na2vs0mg"},{"bike_id":"8b450880-9164-46f9-8399-5bb4e264344b","system_id":"levelo_inurba_marseille","lat":43.30635,"lon":5.40099,"is_reserved":false,"is_disabled":false,"rental_uris":{"android":"levelo://app?vid=8b450880-9164-46f9-8399-5bb4e264344b","ios":"levelo://app?vid=8b450880-9164-46f9-8399-5bb4e264344b"},"vehicle_type_id":"4","last_reported":1758813022,"current_range_meters":16000,"station_id":"ce4bh112rcd13ifvqda0","pricing_plan_id":"cebpf4jnsgd1na2vs0mg"},{"bike_id":"c6b3e536-9745-4760-93b7-a9b7697329d8","system_id":"levelo_inurba_marseille","lat":43.28411,"lon":5.34997,"is_reserved":false,"is_disabled":false,"rental_uris":{"android":"levelo://app?vid=c6b3e536-9745-4760-93b7-a9b7697329d8","ios":"levelo://app?vid=c6b3e536-9745-4760-93b7-a9b7697329d8"},"vehicle_type_id":"4","last_reported":1758813022,"current_range_meters":16000,"station_id":"ce4bhbh2rcd13ifvqepg","pricing_plan_id":"cebpf4jnsgd1na2vs0mg"},{"bike_id":"f08718b9-e1c7-4dd4-8a31-eead7fcd1c85","system_id":"levelo_inurba_marseille","lat":43.321,"lon":5.36797,"is_reserved":false,"is_disabled":false,"rental_uris":{"android":"levelo://app?vid=f08718b9-e1c7-4dd4-8a31-eead7fcd1c85","ios":"levelo://app?vid=f08718b9-e1c7-4dd4-8a31-eead7fcd1c85"},"vehicle_type_id":"4","last_reported":1758813022,"current_range_meters":16000,"station_id":"ce4bhrh2rcd13ifvqhug","pricing_plan_id":"cebpf4jnsgd1na2vs0mg"},{"bike_id":"b6ff3672-4e7c-404c-ab2a-bd902cf95e14","system_id":"levelo_inurba_marseille","lat":43.26855,"lon":5.40673,"is_reserved":false,"is_disabled":false,"rental_uris":{"android":"levelo://app?vid=b6ff3672-4e7c-404c-ab2a-bd902cf95e14","ios":"levelo://app?vid=b6ff3672-4e7c-404c-ab2a-bd902cf95e14"},"vehicle_type_id":"4","last_reported":1758813022,"current_range_meters":16000,"station_id":"","pricing_plan_id":"cebpf4jnsgd1na2vs0mg"},{"bike_id":"15d2418b-b348-492c-9cab-d7afbb95f04f","system_id":"levelo_inurba_marseille","lat":43.29019,"lon":5.38623,"is_reserved":false,"is_disabled":false,"rental_uris":{"android":"levelo://app?vid=15d2418b-b348-492c-9cab-d7afbb95f04f","ios":"levelo://app?vid=15d2418b-b348-492c-9cab-d7afbb95f04f"},"vehicle_type_id":"4","last_reported":1758813022,"current_range_meters":16400,"station_id":"ce4bh4p2rcd13ifvqe0g","pricing_plan_id":"cebpf4jnsgd1na2vs0mg"},{"bike_id":"1fe9f27d-c14d-4421-b83e-ef25c1db15c6","system_id":"levelo_inurba_marseille","lat":43.32104,"lon":5.36769,"is_reserved":false,"is_disabled":false,"rental_uris":{"android":"levelo://app?vid=1fe9f27d-c14d-4421-b83e-ef25c1db15c6","ios":"levelo://app?vid=1fe9f27d-c14d-4421-b83e-ef25c1db15c6"},"vehicle_type_id":"4","last_reported":1758813022,"current_range_meters":16400,"station_id":"ce4bhrh2rcd13ifvqhug","pricing_plan_id":"cebpf4jnsgd1na2vs0mg"},{"bike_id":"9b60f32b-f965-4366-b2f7-6a0d1f9f47cb","system_id":"levelo_inurba_marseille","lat":43.26064,"lon":5.3939,"is_reserved":false,"is_disabled":false,"rental_uris":{"android":"levelo://app?vid=9b60f32b-f965-4366-b2f7-6a0d1f9f47cb","ios":"levelo://app?vid=9b60f32b-f965-4366-b2f7-6a0d1f9f47cb"},"vehicle_type_id":"4","last_reported":1758813022,"current_range_meters":16400,"station_id":"ce4bhh92rcd13ifvqfj0","pricing_plan_id":"cebpf4jnsgd1na2vs0mg"},{"bike_id":"c31c58ee-4e29-4ce3-bf0a-25ae5cf57cfc","system_id":"levelo_inurba_marseille","lat":43.24954,"lon":5.40495,"is_reserved":false,"is_disabled":false,"rental_uris":{"android":"levelo://app?vid=c31c58ee-4e29-4ce3-bf0a-25ae5cf57cfc","ios":"levelo://app?vid=c31c58ee-4e29-4ce3-bf0a-25ae5cf57cfc"},"vehicle_type_id":"4","last_reported":1758813022,"current_range_meters":16400,"station_id":"st_d2ngiaodas8pm72gd1h0","pricing_plan_id":"cebpf4jnsgd1na2vs0mg"},{"bike_id":"21b8bd8d-813d-4637-b70d-ded96fa7d72a","system_id":"levelo_inurba_marseille","lat":43.279,"lon":5.38017,"is_reserved":false,"is_disabled":false,"rental_uris":{"android":"levelo://app?vid=21b8bd8d-813d-4637-b70d-ded96fa7d72a","ios":"levelo://app?vid=21b8bd8d-813d-4637-b70d-ded96fa7d72a"},"vehicle_type_id":"4","last_reported":1758813022,"current_range_meters":16400,"station_id":"ce4bhf92rcd13ifvqf50","pricing_plan_id":"cebpf4jnsgd1na2vs0mg"},{"bike_id":"257f1c0f-0f79-4687-b23f-6239672ce4c3","system_id":"levelo_inurba_marseille","lat":43.26559,"lon":5.40315,"is_reserved":false,"is_disabled":false,"rental_uris":{"android":"levelo://app?vid=257f1c0f-0f79-4687-b23f-6239672ce4c3","ios":"levelo://app?vid=257f1c0f-0f79-4687-b23f-6239672ce4c3"},"vehicle_type_id":"4","last_reported":1758813022,"current_range_meters":16400,"station_id":"ce4bhmp2rcd13ifvqgng","pricing_plan_id":"cebpf4jnsgd1na2vs0mg"},{"bike_id":"39e6b2d7-e7bc-4366-8a01-87bc46855564","system_id":"levelo_inurba_marseille","lat":43.32066,"lon":5.36789,"is_reserved":false,"is_disabled":false,"rental_uris":{"android":"levelo://app?vid=39e6b2d7-e7bc-4366-8a01-87bc46855564","ios":"levelo://app?vid=39e6b2d7-e7bc-4366-8a01-87bc46855564"},"vehicle_type_id":"4","last_reported":1758813022,"current_range_meters":16400,"station_id":"ce4bhrh2rcd13ifvqhug","pricing_plan_id":"cebpf4jnsgd1na2vs0mg"},{"bike_id":"a57b3feb-2354-42fe-87fd-e8fcee3a0260","system_id":"levelo_inurba_marseille","lat":43.26953,"lon":5.40241,"is_reserved":false,"is_disabled":false,"rental_uris":{"android":"levelo://app?vid=a57b3feb-2354-42fe-87fd-e8fcee3a0260","ios":"levelo://app?vid=a57b3feb-2354-42fe-87fd-e8fcee3a0260"},"vehicle_type_id":"4","last_reported":1758813022,"current_range_meters":16400,"station_id":"","pricing_plan_id":"cebpf4jnsgd1na2vs0mg"},{"bike_id":"75d73ab9-ac13-44ed-a5f2-2eb47879b783","system_id":"levelo_inurba_marseille","lat":43.30514,"lon":5.36705,"is_reserved":false,"is_disabled":false,"rental_uris":{"android":"levelo://app?vid=75d73ab9-ac13-44ed-a5f2-2eb47879b783","ios":"levelo://app?vid=75d73ab9-ac13-44ed-a5f2-2eb47879b783"},"vehicle_type_id":"4","last_reported":1758813022,"current_range_meters":16400,"station_id":"ce4bgrp2rcd13ifvqc9g","pricing_plan_id":"cebpf4jnsgd1na2vs0mg"},{"bike_id":"7e848ad8-3b46-4990-8791-073379270774","system_id":"levelo_inurba_marseille","lat":43.27331,"lon":5.39111,"is_reserved":false,"is_disabled":true,"rental_uris":{"android":"levelo://app?vid=7e848ad8-3b46-4990-8791-073379270774","ios":"levelo://app?vid=7e848ad8-3b46-4990-8791-073379270774"},"vehicle_type_id":"4","last_reported":1758813022,"current_range_meters":16800,"station_id":"ce4bhgp2rcd13ifvqfe0","pricing_plan_id":"cebpf4jnsgd1na2vs0mg"},{"bike_id":"1429b765-2b83-4bfa-8307-ea2280718a0c","system_id":"levelo_inurba_marseille","lat":43.2621,"lon":5.37444,"is_reserved":false,"is_disabled":false,"rental_uris":{"android":"levelo://app?vid=1429b765-2b83-4bfa-8307-ea2280718a0c","ios":"levelo://app?vid=1429b765-2b83-4bfa-8307-ea2280718a0c"},"vehicle_type_id":"4","last_reported":1758813022,"current_range_meters":16800,"station_id":"ce4bhgp2rcd13ifvqfc0","pricing_plan_id":"cebpf4jnsgd1na2vs0mg"},{"bike_id":"8968c45e-dfe9-4be2-8fc4-c76a6e79aeb2","system_id":"levelo_inurba_marseille","lat":43.28665,"lon":5.386696,"is_reserved":false,"is_disabled":false,"rental_uris":{"android":"levelo://app?vid=8968c45e-dfe9-4be2-8fc4-c76a6e79aeb2","ios":"levelo://app?vid=8968c45e-dfe9-4be2-8fc4-c76a6e79aeb2"},"vehicle_type_id":"4","last_reported":1758813022,"current_range_meters":16800,"station_id":"","pricing_plan_id":"cebpf4jnsgd1na2vs0mg"},{"bike_id":"a40fc296-5f3c-4fdb-886c-c91f4568b6ea","system_id":"levelo_inurba_marseille","lat":43.309325,"lon":5.401357,"is_reserved":false,"is_disabled":false,"rental_uris":{"android":"levelo://app?vid=a40fc296-5f3c-4fdb-886c-c91f4568b6ea","ios":"levelo://app?vid=a40fc296-5f3c-4fdb-886c-c91f4568b6ea"},"vehicle_type_id":"4","last_reported":1758813022,"current_range_meters":16800,"station_id":"ce4bgvp2rcd13ifvqct0","pricing_plan_id":"cebpf4jnsgd1na2vs0mg"},{"bike_id":"23f4fa39-9a5b-44ed-a2d1-6bd1a95b13e4","system_id":"levelo_inurba_marseille","lat":43.27559,"lon":5.38425,"is_reserved":false,"is_disabled":false,"rental_uris":{"android":"levelo://app?vid=23f4fa39-9a5b-44ed-a2d1-6bd1a95b13e4","ios":"levelo://app?vid=23f4fa39-9a5b-44ed-a2d1-6bd1a95b13e4"},"vehicle_type_id":"4","last_reported":1758813022,"current_range_meters":16800,"station_id":"ce4bhh92rcd13ifvqfi0","pricing_plan_id":"cebpf4jnsgd1na2vs0mg"},{"bike_id":"137cb129-01e1-45c6-933a-25e3873a63a8","system_id":"levelo_inurba_marseille","lat":43.29264,"lon":5.40904,"is_reserved":false,"is_disabled":false,"rental_uris":{"android":"levelo://app?vid=137cb129-01e1-45c6-933a-25e3873a63a8","ios":"levelo://app?vid=137cb129-01e1-45c6-933a-25e3873a63a8"},"vehicle_type_id":"4","last_reported":1758813022,"current_range_meters":16800,"station_id":"ce4bh192rcd13ifvqdc0","pricing_plan_id":"cebpf4jnsgd1na2vs0mg"},{"bike_id":"d809e7b3-0085-4ff0-9f10-04bb5a8291c8","system_id":"levelo_inurba_marseille","lat":43.28368,"lon":5.38629,"is_reserved":false,"is_disabled":false,"rental_uris":{"android":"levelo://app?vid=d809e7b3-0085-4ff0-9f10-04bb5a8291c8","ios":"levelo://app?vid=d809e7b3-0085-4ff0-9f10-04bb5a8291c8"},"vehicle_type_id":"4","last_reported":1758813022,"current_range_meters":17200,"station_id":"ce4bh492rcd13ifvqdvg","pricing_plan_id":"cebpf4jnsgd1na2vs0mg"},{"bike_id":"9bd46fdf-8bce-4dda-95d8-c7d7fd982850","system_id":"levelo_inurba_marseille","lat":43.25578,"lon":5.38238,"is_reserved":false,"is_disabled":false,"rental_uris":{"android":"levelo://app?vid=9bd46fdf-8bce-4dda-95d8-c7d7fd982850","ios":"levelo://app?vid=9bd46fdf-8bce-4dda-95d8-c7d7fd982850"},"vehicle_type_id":"4","last_reported":1758813022,"current_range_meters":17200,"station_id":"ce4bhih2rcd13ifvqfs0","pricing_plan_id":"cebpf4jnsgd1na2vs0mg"},{"bike_id":"f5a888db-229a-4246-81ee-0ff2a1bcfdfa","system_id":"levelo_inurba_marseille","lat":43.22931,"lon":5.3538,"is_reserved":false,"is_disabled":false,"rental_uris":{"android":"levelo://app?vid=f5a888db-229a-4246-81ee-0ff2a1bcfdfa","ios":"levelo://app?vid=f5a888db-229a-4246-81ee-0ff2a1bcfdfa"},"vehicle_type_id":"4","last_reported":1758813022,"current_range_meters":17200,"station_id":"cpo3532slgdg3j2ikp40","pricing_plan_id":"cebpf4jnsgd1na2vs0mg"},{"bike_id":"a10f7ed7-4d21-45d1-b57d-01405ef498fe","system_id":"levelo_inurba_marseille","lat":43.31239,"lon":5.3687,"is_reserved":false,"is_disabled":false,"rental_uris":{"android":"levelo://app?vid=a10f7ed7-4d21-45d1-b57d-01405ef498fe","ios":"levelo://app?vid=a10f7ed7-4d21-45d1-b57d-01405ef498fe"},"vehicle_type_id":"4","last_reported":1758813022,"current_range_meters":17200,"station_id":"ce4bgl92rcd13ifvqbq0","pricing_plan_id":"cebpf4jnsgd1na2vs0mg"},{"bike_id":"ed2f3e84-cb2f-419c-9c1e-93503139df74","system_id":"levelo_inurba_marseille","lat":43.28417,"lon":5.37503,"is_reserved":false,"is_disabled":false,"rental_uris":{"android":"levelo://app?vid=ed2f3e84-cb2f-419c-9c1e-93503139df74","ios":"levelo://app?vid=ed2f3e84-cb2f-419c-9c1e-93503139df74"},"vehicle_type_id":"4","last_reported":1758813022,"current_range_meters":17200,"station_id":"ce4bh412rcd13ifvqds0","pricing_plan_id":"cebpf4jnsgd1na2vs0mg"},{"bike_id":"43009bdc-c1d2-476d-8753-a235cb8d1a73","system_id":"levelo_inurba_marseille","lat":43.24993,"lon":5.38939,"is_reserved":false,"is_disabled":false,"rental_uris":{"android":"levelo://app?vid=43009bdc-c1d2-476d-8753-a235cb8d1a73","ios":"levelo://app?vid=43009bdc-c1d2-476d-8753-a235cb8d1a73"},"vehicle_type_id":"4","last_reported":1758813022,"current_range_meters":17200,"station_id":"ce4bhgp2rcd13ifvqfd0","pricing_plan_id":"cebpf4jnsgd1na2vs0mg"},{"bike_id":"7d9b01c4-7d4b-492d-be3b-4761f3b17ff8","system_id":"levelo_inurba_marseille","lat":43.24068,"lon":5.37766,"is_reserved":false,"is_disabled":false,"rental_uris":{"android":"levelo://app?vid=7d9b01c4-7d4b-492d-be3b-4761f3b17ff8","ios":"levelo://app?vid=7d9b01c4-7d4b-492d-be3b-4761f3b17ff8"},"vehicle_type_id":"4","last_reported":1758813022,"current_range_meters":17200,"station_id":"ce4bhnp2rcd13ifvqgvg","pricing_plan_id":"cebpf4jnsgd1na2vs0mg"},{"bike_id":"327c041e-5c9e-4b0d-a97c-a2dbaab036ae","system_id":"levelo_inurba_marseille","lat":43.32785,"lon":5.41105,"is_reserved":false,"is_disabled":false,"rental_uris":{"android":"levelo://app?vid=327c041e-5c9e-4b0d-a97c-a2dbaab036ae","ios":"levelo://app?vid=327c041e-5c9e-4b0d-a97c-a2dbaab036ae"},"vehicle_type_id":"4","last_reported":1758813022,"current_range_meters":17600,"station_id":"","pricing_plan_id":"cebpf4jnsgd1na2vs0mg"},{"bike_id":"e4648f7c-eea7-42bf-8a19-108bcd3fb1e6","system_id":"levelo_inurba_marseille","lat":43.28483,"lon":5.38416,"is_reserved":false,"is_disabled":false,"rental_uris":{"android":"levelo://app?vid=e4648f7c-eea7-42bf-8a19-108bcd3fb1e6","ios":"levelo://app?vid=e4648f7c-eea7-42bf-8a19-108bcd3fb1e6"},"vehicle_type_id":"4","last_reported":1758813022,"current_range_meters":17600,"station_id":"ce4bh512rcd13ifvqe3g","pricing_plan_id":"cebpf4jnsgd1na2vs0mg"},{"bike_id":"7f09bc43-02a6-468a-9182-731c83281b4a","system_id":"levelo_inurba_marseille","lat":43.26357,"lon":5.37498,"is_reserved":false,"is_disabled":false,"rental_uris":{"android":"levelo://app?vid=7f09bc43-02a6-468a-9182-731c83281b4a","ios":"levelo://app?vid=7f09bc43-02a6-468a-9182-731c83281b4a"},"vehicle_type_id":"4","last_reported":1758813022,"current_range_meters":17600,"station_id":"","pricing_plan_id":"cebpf4jnsgd1na2vs0mg"},{"bike_id":"13be0879-670b-43f4-8fc1-8fbc1c4ccf9c","system_id":"levelo_inurba_marseille","lat":43.28427,"lon":5.34975,"is_reserved":false,"is_disabled":false,"rental_uris":{"android":"levelo://app?vid=13be0879-670b-43f4-8fc1-8fbc1c4ccf9c","ios":"levelo://app?vid=13be0879-670b-43f4-8fc1-8fbc1c4ccf9c"},"vehicle_type_id":"4","last_reported":1758813022,"current_range_meters":17600,"station_id":"ce4bhbh2rcd13ifvqepg","pricing_plan_id":"cebpf4jnsgd1na2vs0mg"},{"bike_id":"377142cb-267c-494b-99d9-6fe238c4e676","system_id":"levelo_inurba_marseille","lat":43.30978,"lon":5.40783,"is_reserved":false,"is_disabled":false,"rental_uris":{"android":"levelo://app?vid=377142cb-267c-494b-99d9-6fe238c4e676","ios":"levelo://app?vid=377142cb-267c-494b-99d9-6fe238c4e676"},"vehicle_type_id":"4","last_reported":1758813022,"current_range_meters":17600,"station_id":"","pricing_plan_id":"cebpf4jnsgd1na2vs0mg"},{"bike_id":"229c8ab8-b2fa-4d54-a93d-370b02293e8f","system_id":"levelo_inurba_marseille","lat":43.2936,"lon":5.37849,"is_reserved":false,"is_disabled":false,"rental_uris":{"android":"levelo://app?vid=229c8ab8-b2fa-4d54-a93d-370b02293e8f","ios":"levelo://app?vid=229c8ab8-b2fa-4d54-a93d-370b02293e8f"},"vehicle_type_id":"4","last_reported":1758813022,"current_range_meters":17600,"station_id":"ce4bgjh2rcd13ifvqbf0","pricing_plan_id":"cebpf4jnsgd1na2vs0mg"},{"bike_id":"594fb701-40e5-4a8c-824c-8804429a76f4","system_id":"levelo_inurba_marseille","lat":43.262,"lon":5.37931,"is_reserved":false,"is_disabled":false,"rental_uris":{"android":"levelo://app?vid=594fb701-40e5-4a8c-824c-8804429a76f4","ios":"levelo://app?vid=594fb701-40e5-4a8c-824c-8804429a76f4"},"vehicle_type_id":"4","last_reported":1758813022,"current_range_meters":18000,"station_id":"ce4bhjp2rcd13ifvqg90","pricing_plan_id":"cebpf4jnsgd1na2vs0mg"},{"bike_id":"467b4306-5fd8-484e-9a4b-cf8eb50151ba","system_id":"levelo_inurba_marseille","lat":43.32315,"lon":5.3822,"is_reserved":false,"is_disabled":false,"rental_uris":{"android":"levelo://app?vid=467b4306-5fd8-484e-9a4b-cf8eb50151ba","ios":"levelo://app?vid=467b4306-5fd8-484e-9a4b-cf8eb50151ba"},"vehicle_type_id":"4","last_reported":1758813022,"current_range_meters":18000,"station_id":"","pricing_plan_id":"cebpf4jnsgd1na2vs0mg"},{"bike_id":"75611fb7-df45-4d9f-9db0-a181136cc424","system_id":"levelo_inurba_marseille","lat":43.21776,"lon":5.34555,"is_reserved":false,"is_disabled":true,"rental_uris":{"android":"levelo://app?vid=75611fb7-df45-4d9f-9db0-a181136cc424","ios":"levelo://app?vid=75611fb7-df45-4d9f-9db0-a181136cc424"},"vehicle_type_id":"4","last_reported":1758813022,"current_range_meters":18000,"station_id":"st_cvj6r9ubvosntc0bgbag","pricing_plan_id":"cebpf4jnsgd1na2vs0mg"},{"bike_id":"48f118ba-5e81-4c62-9fdf-4f2e2bca94e9","system_id":"levelo_inurba_marseille","lat":43.26183,"lon":5.37469,"is_reserved":false,"is_disabled":false,"rental_uris":{"android":"levelo://app?vid=48f118ba-5e81-4c62-9fdf-4f2e2bca94e9","ios":"levelo://app?vid=48f118ba-5e81-4c62-9fdf-4f2e2bca94e9"},"vehicle_type_id":"4","last_reported":1758813022,"current_range_meters":18000,"station_id":"ce4bhgp2rcd13ifvqfc0","pricing_plan_id":"cebpf4jnsgd1na2vs0mg"},{"bike_id":"8355e01e-9079-48ba-af35-20e0b7e32a07","system_id":"levelo_inurba_marseille","lat":43.30303,"lon":5.36899,"is_reserved":false,"is_disabled":false,"rental_uris":{"android":"levelo://app?vid=8355e01e-9079-48ba-af35-20e0b7e32a07","ios":"levelo://app?vid=8355e01e-9079-48ba-af35-20e0b7e32a07"},"vehicle_type_id":"4","last_reported":1758813022,"current_range_meters":18000,"station_id":"ce4bgqh2rcd13ifvqc5g","pricing_plan_id":"cebpf4jnsgd1na2vs0mg"},{"bike_id":"77e2d895-129a-4ff3-9d84-075d048492b7","system_id":"levelo_inurba_marseille","lat":43.24992,"lon":5.38935,"is_reserved":false,"is_disabled":false,"rental_uris":{"android":"levelo://app?vid=77e2d895-129a-4ff3-9d84-075d048492b7","ios":"levelo://app?vid=77e2d895-129a-4ff3-9d84-075d048492b7"},"vehicle_type_id":"4","last_reported":1758813022,"current_range_meters":18000,"station_id":"ce4bhgp2rcd13ifvqfd0","pricing_plan_id":"cebpf4jnsgd1na2vs0mg"},{"bike_id":"1c073000-e0cd-4bc9-8e07-5ae515900f5c","system_id":"levelo_inurba_marseille","lat":43.23177,"lon":5.39989,"is_reserved":false,"is_disabled":false,"rental_uris":{"android":"levelo://app?vid=1c073000-e0cd-4bc9-8e07-5ae515900f5c","ios":"levelo://app?vid=1c073000-e0cd-4bc9-8e07-5ae515900f5c"},"vehicle_type_id":"4","last_reported":1758813022,"current_range_meters":18000,"station_id":"ce4bhn12rcd13ifvqgqg","pricing_plan_id":"cebpf4jnsgd1na2vs0mg"},{"bike_id":"bb38e78d-5511-4e94-a24d-89b6f678f2e5","system_id":"levelo_inurba_marseille","lat":43.31511,"lon":5.37228,"is_reserved":false,"is_disabled":false,"rental_uris":{"android":"levelo://app?vid=bb38e78d-5511-4e94-a24d-89b6f678f2e5","ios":"levelo://app?vid=bb38e78d-5511-4e94-a24d-89b6f678f2e5"},"vehicle_type_id":"4","last_reported":1758813022,"current_range_meters":18000,"station_id":"","pricing_plan_id":"cebpf4jnsgd1na2vs0mg"},{"bike_id":"08fe2b08-b3fa-43f8-ae73-04061f76318d","system_id":"levelo_inurba_marseille","lat":43.305552,"lon":5.365395,"is_reserved":false,"is_disabled":false,"rental_uris":{"android":"levelo://app?vid=08fe2b08-b3fa-43f8-ae73-04061f76318d","ios":"levelo://app?vid=08fe2b08-b3fa-43f8-ae73-04061f76318d"},"vehicle_type_id":"4","last_reported":1758813022,"current_range_meters":18000,"station_id":"","pricing_plan_id":"cebpf4jnsgd1na2vs0mg"},{"bike_id":"1d5d14cf-15e7-4470-bff9-613bb9abe120","system_id":"levelo_inurba_marseille","lat":43.33486,"lon":5.42061,"is_reserved":false,"is_disabled":false,"rental_uris":{"android":"levelo://app?vid=1d5d14cf-15e7-4470-bff9-613bb9abe120","ios":"levelo://app?vid=1d5d14cf-15e7-4470-bff9-613bb9abe120"},"vehicle_type_id":"4","last_reported":1758813022,"current_range_meters":18000,"station_id":"","pricing_plan_id":"cebpf4jnsgd1na2vs0mg"},{"bike_id":"208d8654-3228-40c7-b9c8-8618c2e5fa52","system_id":"levelo_inurba_marseille","lat":43.2865,"lon":5.38273,"is_reserved":false,"is_disabled":false,"rental_uris":{"android":"levelo://app?vid=208d8654-3228-40c7-b9c8-8618c2e5fa52","ios":"levelo://app?vid=208d8654-3228-40c7-b9c8-8618c2e5fa52"},"vehicle_type_id":"4","last_reported":1758813022,"current_range_meters":18000,"station_id":"","pricing_plan_id":"cebpf4jnsgd1na2vs0mg"},{"bike_id":"10b8d871-07e9-4114-9eb9-6bcce40e7beb","system_id":"levelo_inurba_marseille","lat":43.27045,"lon":5.392226,"is_reserved":false,"is_disabled":false,"rental_uris":{"android":"levelo://app?vid=10b8d871-07e9-4114-9eb9-6bcce40e7beb","ios":"levelo://app?vid=10b8d871-07e9-4114-9eb9-6bcce40e7beb"},"vehicle_type_id":"4","last_reported":1758813022,"current_range_meters":18000,"station_id":"ce4bhe12rcd13ifvqf30","pricing_plan_id":"cebpf4jnsgd1na2vs0mg"},{"bike_id":"74f40866-2c32-4f2d-86ad-36601678b525","system_id":"levelo_inurba_marseille","lat":43.28262,"lon":5.35078,"is_reserved":false,"is_disabled":false,"rental_uris":{"android":"levelo://app?vid=74f40866-2c32-4f2d-86ad-36601678b525","ios":"levelo://app?vid=74f40866-2c32-4f2d-86ad-36601678b525"},"vehicle_type_id":"4","last_reported":1758813022,"current_range_meters":18800,"station_id":"ce4bhbp2rcd13ifvqerg","pricing_plan_id":"cebpf4jnsgd1na2vs0mg"},{"bike_id":"e4fa45e2-da10-440b-87a9-554053aae45b","system_id":"levelo_inurba_marseille","lat":43.27383,"lon":5.36256,"is_reserved":false,"is_disabled":false,"rental_uris":{"android":"levelo://app?vid=e4fa45e2-da10-440b-87a9-554053aae45b","ios":"levelo://app?vid=e4fa45e2-da10-440b-87a9-554053aae45b"},"vehicle_type_id":"4","last_reported":1758813022,"current_range_meters":18800,"station_id":"ce4bhbh2rcd13ifvqeo0","pricing_plan_id":"cebpf4jnsgd1na2vs0mg"},{"bike_id":"7d386e92-0637-4894-be92-264d6a72c11e","system_id":"levelo_inurba_marseille","lat":43.28418,"lon":5.34988,"is_reserved":false,"is_disabled":false,"rental_uris":{"android":"levelo://app?vid=7d386e92-0637-4894-be92-264d6a72c11e","ios":"levelo://app?vid=7d386e92-0637-4894-be92-264d6a72c11e"},"vehicle_type_id":"4","last_reported":1758813022,"current_range_meters":18800,"station_id":"ce4bhbh2rcd13ifvqepg","pricing_plan_id":"cebpf4jnsgd1na2vs0mg"},{"bike_id":"ccabd35a-a691-4eed-acd2-dce907f56433","system_id":"levelo_inurba_marseille","lat":43.32303,"lon":5.40629,"is_reserved":false,"is_disabled":false,"rental_uris":{"android":"levelo://app?vid=ccabd35a-a691-4eed-acd2-dce907f56433","ios":"levelo://app?vid=ccabd35a-a691-4eed-acd2-dce907f56433"},"vehicle_type_id":"4","last_reported":1758813022,"current_range_meters":18800,"station_id":"ce4bhq92rcd13ifvqhjg","pricing_plan_id":"cebpf4jnsgd1na2vs0mg"},{"bike_id":"037af6f8-8b5e-4d87-ad10-cc8ae7f09c03","system_id":"levelo_inurba_marseille","lat":43.30476,"lon":5.37911,"is_reserved":false,"is_disabled":false,"rental_uris":{"android":"levelo://app?vid=037af6f8-8b5e-4d87-ad10-cc8ae7f09c03","ios":"levelo://app?vid=037af6f8-8b5e-4d87-ad10-cc8ae7f09c03"},"vehicle_type_id":"4","last_reported":1758813022,"current_range_meters":18800,"station_id":"ce4bgup2rcd13ifvqcn0","pricing_plan_id":"cebpf4jnsgd1na2vs0mg"},{"bike_id":"3611f2ba-eeb4-45ee-ac8e-be195e39a1a4","system_id":"levelo_inurba_marseille","lat":43.2842,"lon":5.34986,"is_reserved":false,"is_disabled":false,"rental_uris":{"android":"levelo://app?vid=3611f2ba-eeb4-45ee-ac8e-be195e39a1a4","ios":"levelo://app?vid=3611f2ba-eeb4-45ee-ac8e-be195e39a1a4"},"vehicle_type_id":"4","last_reported":1758813022,"current_range_meters":18800,"station_id":"ce4bhbh2rcd13ifvqepg","pricing_plan_id":"cebpf4jnsgd1na2vs0mg"},{"bike_id":"11691f1d-e624-4821-af5b-86cd6f6d081a","system_id":"levelo_inurba_marseille","lat":43.27911,"lon":5.41076,"is_reserved":false,"is_disabled":false,"rental_uris":{"android":"levelo://app?vid=11691f1d-e624-4821-af5b-86cd6f6d081a","ios":"levelo://app?vid=11691f1d-e624-4821-af5b-86cd6f6d081a"},"vehicle_type_id":"4","last_reported":1758813022,"current_range_meters":18800,"station_id":"ce4bhnp2rcd13ifvqh0g","pricing_plan_id":"cebpf4jnsgd1na2vs0mg"},{"bike_id":"c7bdbc61-e06b-46e1-877e-b13113a5e316","system_id":"levelo_inurba_marseille","lat":43.279746,"lon":5.38753,"is_reserved":false,"is_disabled":false,"rental_uris":{"android":"levelo://app?vid=c7bdbc61-e06b-46e1-877e-b13113a5e316","ios":"levelo://app?vid=c7bdbc61-e06b-46e1-877e-b13113a5e316"},"vehicle_type_id":"4","last_reported":1758813022,"current_range_meters":19200,"station_id":"","pricing_plan_id":"cebpf4jnsgd1na2vs0mg"},{"bike_id":"f51b9d8f-b018-481e-98ca-0d12a5487792","system_id":"levelo_inurba_marseille","lat":43.29256,"lon":5.40915,"is_reserved":false,"is_disabled":false,"rental_uris":{"android":"levelo://app?vid=f51b9d8f-b018-481e-98ca-0d12a5487792","ios":"levelo://app?vid=f51b9d8f-b018-481e-98ca-0d12a5487792"},"vehicle_type_id":"4","last_reported":1758813022,"current_range_meters":19200,"station_id":"ce4bh192rcd13ifvqdc0","pricing_plan_id":"cebpf4jnsgd1na2vs0mg"},{"bike_id":"9a4f92ed-e086-4038-a651-bbe0613f80bd","system_id":"levelo_inurba_marseille","lat":43.22566,"lon":5.4162,"is_reserved":false,"is_disabled":false,"rental_uris":{"android":"levelo://app?vid=9a4f92ed-e086-4038-a651-bbe0613f80bd","ios":"levelo://app?vid=9a4f92ed-e086-4038-a651-bbe0613f80bd"},"vehicle_type_id":"4","last_reported":1758813022,"current_range_meters":19200,"station_id":"st_d2o4gvlbi1j2169b742g","pricing_plan_id":"cebpf4jnsgd1na2vs0mg"},{"bike_id":"1b4a6d53-284c-4de3-8be8-456c10b7dc90","system_id":"levelo_inurba_marseille","lat":43.28615,"lon":5.35106,"is_reserved":false,"is_disabled":false,"rental_uris":{"android":"levelo://app?vid=1b4a6d53-284c-4de3-8be8-456c10b7dc90","ios":"levelo://app?vid=1b4a6d53-284c-4de3-8be8-456c10b7dc90"},"vehicle_type_id":"4","last_reported":1758813022,"current_range_meters":19200,"station_id":"ce4bhch2rcd13ifvqeug","pricing_plan_id":"cebpf4jnsgd1na2vs0mg"},{"bike_id":"2204779a-1302-4a3e-98db-6c2bb24c7fec","system_id":"levelo_inurba_marseille","lat":43.3149,"lon":5.37322,"is_reserved":false,"is_disabled":false,"rental_uris":{"android":"levelo://app?vid=2204779a-1302-4a3e-98db-6c2bb24c7fec","ios":"levelo://app?vid=2204779a-1302-4a3e-98db-6c2bb24c7fec"},"vehicle_type_id":"4","last_reported":1758813022,"current_range_meters":19200,"station_id":"ce4bgt12rcd13ifvqcd0","pricing_plan_id":"cebpf4jnsgd1na2vs0mg"},{"bike_id":"9cad298e-3e3f-4450-9943-43c664033495","system_id":"levelo_inurba_marseille","lat":43.29255,"lon":5.40907,"is_reserved":false,"is_disabled":false,"rental_uris":{"android":"levelo://app?vid=9cad298e-3e3f-4450-9943-43c664033495","ios":"levelo://app?vid=9cad298e-3e3f-4450-9943-43c664033495"},"vehicle_type_id":"4","last_reported":1758813022,"current_range_meters":19200,"station_id":"ce4bh192rcd13ifvqdc0","pricing_plan_id":"cebpf4jnsgd1na2vs0mg"},{"bike_id":"8c835afe-ceec-4eb7-878b-eb278df297ca","system_id":"levelo_inurba_marseille","lat":43.31384,"lon":5.38497,"is_reserved":false,"is_disabled":false,"rental_uris":{"android":"levelo://app?vid=8c835afe-ceec-4eb7-878b-eb278df297ca","ios":"levelo://app?vid=8c835afe-ceec-4eb7-878b-eb278df297ca"},"vehicle_type_id":"4","last_reported":1758813022,"current_range_meters":19600,"station_id":"ce4bgt92rcd13ifvqcf0","pricing_plan_id":"cebpf4jnsgd1na2vs0mg"},{"bike_id":"cbabe28a-c882-4f63-af0c-dde7501f5bba","system_id":"levelo_inurba_marseille","lat":43.28978,"lon":5.37836,"is_reserved":false,"is_disabled":false,"rental_uris":{"android":"levelo://app?vid=cbabe28a-c882-4f63-af0c-dde7501f5bba","ios":"levelo://app?vid=cbabe28a-c882-4f63-af0c-dde7501f5bba"},"vehicle_type_id":"4","last_reported":1758813022,"current_range_meters":19600,"station_id":"ce4bh9p2rcd13ifvqed0","pricing_plan_id":"cebpf4jnsgd1na2vs0mg"},{"bike_id":"353d16a4-65e9-4896-ad53-df82bb14ace3","system_id":"levelo_inurba_marseille","lat":43.2842,"lon":5.34984,"is_reserved":false,"is_disabled":false,"rental_uris":{"android":"levelo://app?vid=353d16a4-65e9-4896-ad53-df82bb14ace3","ios":"levelo://app?vid=353d16a4-65e9-4896-ad53-df82bb14ace3"},"vehicle_type_id":"4","last_reported":1758813022,"current_range_meters":19600,"station_id":"ce4bhbh2rcd13ifvqepg","pricing_plan_id":"cebpf4jnsgd1na2vs0mg"},{"bike_id":"0889a6ec-4c1a-465f-86ae-c41b8e6fd880","system_id":"levelo_inurba_marseille","lat":43.28459,"lon":5.35887,"is_reserved":false,"is_disabled":false,"rental_uris":{"android":"levelo://app?vid=0889a6ec-4c1a-465f-86ae-c41b8e6fd880","ios":"levelo://app?vid=0889a6ec-4c1a-465f-86ae-c41b8e6fd880"},"vehicle_type_id":"4","last_reported":1758813022,"current_range_meters":12000,"station_id":"ce4bhah2rcd13ifvqei0","pricing_plan_id":"cebpf4jnsgd1na2vs0mg"},{"bike_id":"c2b35dea-ac62-4b5d-b0d2-2adc8e730f2e","system_id":"levelo_inurba_marseille","lat":43.2926,"lon":5.40901,"is_reserved":false,"is_disabled":false,"rental_uris":{"android":"levelo://app?vid=c2b35dea-ac62-4b5d-b0d2-2adc8e730f2e","ios":"levelo://app?vid=c2b35dea-ac62-4b5d-b0d2-2adc8e730f2e"},"vehicle_type_id":"4","last_reported":1758813022,"current_range_meters":19600,"station_id":"ce4bh192rcd13ifvqdc0","pricing_plan_id":"cebpf4jnsgd1na2vs0mg"},{"bike_id":"85782661-163d-4a8b-b5a4-1f0a766faaa2","system_id":"levelo_inurba_marseille","lat":43.24588,"lon":5.43149,"is_reserved":false,"is_disabled":false,"rental_uris":{"android":"levelo://app?vid=85782661-163d-4a8b-b5a4-1f0a766faaa2","ios":"levelo://app?vid=85782661-163d-4a8b-b5a4-1f0a766faaa2"},"vehicle_type_id":"4","last_reported":1758813022,"current_range_meters":19600,"station_id":"st_d2m6c4gdas8pm72e190g","pricing_plan_id":"cebpf4jnsgd1na2vs0mg"},{"bike_id":"4736207d-942c-4db1-a3a0-3b7f20f74b2c","system_id":"levelo_inurba_marseille","lat":43.286719,"lon":5.363483,"is_reserved":false,"is_disabled":false,"rental_uris":{"android":"levelo://app?vid=4736207d-942c-4db1-a3a0-3b7f20f74b2c","ios":"levelo://app?vid=4736207d-942c-4db1-a3a0-3b7f20f74b2c"},"vehicle_type_id":"4","last_reported":1758813022,"current_range_meters":19600,"station_id":"","pricing_plan_id":"cebpf4jnsgd1na2vs0mg"},{"bike_id":"74723ffc-3bc9-42fe-bf22-2d531e26e8e6","system_id":"levelo_inurba_marseille","lat":43.24614,"lon":5.43144,"is_reserved":false,"is_disabled":false,"rental_uris":{"android":"levelo://app?vid=74723ffc-3bc9-42fe-bf22-2d531e26e8e6","ios":"levelo://app?vid=74723ffc-3bc9-42fe-bf22-2d531e26e8e6"},