{"last_updated":1729321767,"ttl":60,"version":"2.2","data":{"bikes":[{"bike_id":"212fc1eb-2d33-4938-b6b2-76cba283d33e","system_id":"levelo_inurba_marseille","lat":43.30787,"lon":5.37651,"is_reserved":false,"is_disabled":false,"rental_uris":{"android":"levelo://app?vid=212fc1eb-2d33-4938-b6b2-76cba283d33e","ios":"levelo://app?vid=212fc1eb-2d33-4938-b6b2-76cba283d33e"},"vehicle_type_id":"4","last_reported":1729321767,"current_range_meters":19600,"station_id":"ce4bgv92rcd13ifvqcq0","pricing_plan_id":"cebpf4jnsgd1na2vs0mg"},{"bike_id":"7c215bb1-a727-4569-986d-c8f6cf1e676e","system_id":"levelo_inurba_marseille","lat":43.31712,"lon":5.43702,"is_reserved":false,"is_disabled":false,"rental_uris":{"android":"levelo://app?vid=7c215bb1-a727-4569-986d-c8f6cf1e676e","ios":"levelo://app?vid=7c215bb1-a727-4569-986d-c8f6cf1e676e"},"vehicle_type_id":"4","last_reported":1729321767,"current_range_meters":37600,"station_id":"ce4bhp92rcd13ifvqhcg","pricing_plan_id":"cebpf4jnsgd1na2vs0mg"},{"bike_id":"ef47d04a-d623-4923-9ac4-d8403fc9a216","system_id":"levelo_inurba_marseille","lat":43.33717,"lon":5.39176,"is_reserved":false,"is_disabled":false,"rental_uris":{"android":"levelo://app?vid=ef47d04a-d623-4923-9ac4-d8403fc9a216","ios":"levelo://app?vid=ef47d04a-d623-4923-9ac4-d8403fc9a216"},"vehicle_type_id":"4","last_reported":1729321767,"current_range_meters":38800,"station_id":"ce4bhr92rcd13ifvqhsg","pricing_plan_id":"cebpf4jnsgd1na2vs0mg"},{"bike_id":"10a9ece6-ff34-482d-8185-60ac6265c523","system_id":"levelo_inurba_marseille","lat":43.3264,"lon":5.39001,"is_reserved":false,"is_disabled":false,"rental_uris":{"android":"levelo://app?vid=10a9ece6-ff34-482d-8185-60ac6265c523","ios":"levelo://app?vid=10a9ece6-ff34-482d-8185-60ac6265c523"},"vehicle_type_id":"4","last_reported":1729321767,"current_range_meters":22000,"station_id":"","pricing_plan_id":"cebpf4jnsgd1na2vs0mg"},{"bike_id":"da604cdb-605a-4030-a295-8764f828c897","system_id":"levelo_inurba_marseille","lat":43.30437,"lon":5.38889,"is_reserved":false,"is_disabled":false,"rental_uris":{"android":"levelo://app?vid=da604cdb-605a-4030-a295-8764f828c897","ios":"levelo://app?vid=da604cdb-605a-4030-a295-8764f828c897"},"vehicle_type_id":"4","last_reported":1729321767,"current_range_meters":36400,"station_id":"ce4bgk12rcd13ifvqbi0","pricing_plan_id":"cebpf4jnsgd1na2vs0mg"},{"bike_id":"7c211f13-8b61-4402-8ed3-420ceb6cdf6a","system_id":"levelo_inurba_marseille","lat":43.28447,"lon":5.39178,"is_reserved":false,"is_disabled":false,"rental_uris":{"android":"levelo://app?vid=7c211f13-8b61-4402-8ed3-420ceb6cdf6a","ios":"levelo://app?vid=7c211f13-8b61-4402-8ed3-420ceb6cdf6a"},"vehicle_type_id":"4","last_reported":1729321767,"current_range_meters":38400,"station_id":"ce4bhoh2rcd13ifvqh5g","pricing_plan_id":"cebpf4jnsgd1na2vs0mg"},{"bike_id":"966f251d-4412-4e77-82b7-c125675614ef","system_id":"levelo_inurba_marseille","lat":43.337444,"lon":5.374475,"is_reserved":false,"is_disabled":false,"rental_uris":{"android":"levelo://app?vid=966f251d-4412-4e77-82b7-c125675614ef","ios":"levelo://app?vid=966f251d-4412-4e77-82b7-c125675614ef"},"vehicle_type_id":"4","last_reported":1729321767,"current_range_meters":4400,"station_id":"","pricing_plan_id":"cebpf4jnsgd1na2vs0mg"},{"bike_id":"4c1edc5c-7c39-409a-881e-4ccb4d014cd4","system_id":"levelo_inurba_marseille","lat":43.317168,"lon":5.437088,"is_reserved":false,"is_disabled":false,"rental_uris":{"android":"levelo://app?vid=4c1edc5c-7c39-409a-881e-4ccb4d014cd4","ios":"levelo://app?vid=4c1edc5c-7c39-409a-881e-4ccb4d014cd4"},"vehicle_type_id":"4","last_reported":1729321767,"current_range_meters":38800,"station_id":"ce4bhp92rcd13ifvqhcg","pricing_plan_id":"cebpf4jnsgd1na2vs0mg"},{"bike_id":"7695e951-fe49-466c-b1f2-4e44e5b9e14c","system_id":"levelo_inurba_marseille","lat":43.30801,"lon":5.43526,"is_reserved":false,"is_disabled":false,"rental_uris":{"android":"levelo://app?vid=7695e951-fe49-466c-b1f2-4e44e5b9e14c","ios":"levelo://app?vid=7695e951-fe49-466c-b1f2-4e44e5b9e14c"},"vehicle_type_id":"4","last_reported":1729321767,"current_range_meters":38800,"station_id":"ce4bhph2rcd13ifvqheg","pricing_plan_id":"cebpf4jnsgd1na2vs0mg"},{"bike_id":"9e23534c-3873-44a5-b32e-f42e453f7851","system_id":"levelo_inurba_marseille","lat":43.31083,"lon":5.42429,"is_reserved":false,"is_disabled":false,"rental_uris":{"android":"levelo://app?vid=9e23534c-3873-44a5-b32e-f42e453f7851","ios":"levelo://app?vid=9e23534c-3873-44a5-b32e-f42e453f7851"},"vehicle_type_id":"4","last_reported":1729321767,"current_range_meters":38800,"station_id":"ce4bhp92rcd13ifvqhag","pricing_plan_id":"cebpf4jnsgd1na2vs0mg"},{"bike_id":"bdac7045-6822-4f98-8d23-075c35d4893f","system_id":"levelo_inurba_marseille","lat":43.2934,"lon":5.42829,"is_reserved":false,"is_disabled":false,"rental_uris":{"android":"levelo://app?vid=bdac7045-6822-4f98-8d23-075c35d4893f","ios":"levelo://app?vid=bdac7045-6822-4f98-8d23-075c35d4893f"},"vehicle_type_id":"4","last_reported":1729321767,"current_range_meters":6800,"station_id":"","pricing_plan_id":"cebpf4jnsgd1na2vs0mg"},{"bike_id":"93cef3c2-a1f5-4603-8677-295359c4aac8","system_id":"levelo_inurba_marseille","lat":43.28558,"lon":5.38419,"is_reserved":false,"is_disabled":false,"rental_uris":{"android":"levelo://app?vid=93cef3c2-a1f5-4603-8677-295359c4aac8","ios":"levelo://app?vid=93cef3c2-a1f5-4603-8677-295359c4aac8"},"vehicle_type_id":"4","last_reported":1729321767,"current_range_meters":15200,"station_id":"","pricing_plan_id":"cebpf4jnsgd1na2vs0mg"},{"bike_id":"8f9b582e-7120-46b9-87b5-870f3955b07d","system_id":"levelo_inurba_marseille","lat":43.289728,"lon":5.378362,"is_reserved":false,"is_disabled":false,"rental_uris":{"android":"levelo://app?vid=8f9b582e-7120-46b9-87b5-870f3955b07d","ios":"levelo://app?vid=8f9b582e-7120-46b9-87b5-870f3955b07d"},"vehicle_type_id":"4","last_reported":1729321767,"current_range_meters":30400,"station_id":"ce4bh9p2rcd13ifvqed0","pricing_plan_id":"cebpf4jnsgd1na2vs0mg"},{"bike_id":"8536bdf8-a581-4680-941a-442b5d864722","system_id":"levelo_inurba_marseille","lat":43.30929,"lon":5.40145,"is_reserved":false,"is_disabled":false,"rental_uris":{"android":"levelo://app?vid=8536bdf8-a581-4680-941a-442b5d864722","ios":"levelo://app?vid=8536bdf8-a581-4680-941a-442b5d864722"},"vehicle_type_id":"4","last_reported":1729321767,"current_range_meters":38800,"station_id":"ce4bgvp2rcd13ifvqct0","pricing_plan_id":"cebpf4jnsgd1na2vs0mg"},{"bike_id":"90b73402-bc44-408d-9b3e-fab7aec736a5","system_id":"levelo_inurba_marseille","lat":43.26068,"lon":5.39387,"is_reserved":false,"is_disabled":false,"rental_uris":{"android":"levelo://app?vid=90b73402-bc44-408d-9b3e-fab7aec736a5","ios":"levelo://app?vid=90b73402-bc44-408d-9b3e-fab7aec736a5"},"vehicle_type_id":"4","last_reported":1729321767,"current_range_meters":28000,"station_id":"ce4bhh92rcd13ifvqfj0","pricing_plan_id":"cebpf4jnsgd1na2vs0mg"},{"bike_id":"71da9dc6-dba4-49c4-8067-135146d7a6c9","system_id":"levelo_inurba_marseille","lat":43.24178,"lon":5.39732,"is_reserved":false,"is_disabled":false,"rental_uris":{"android":"levelo://app?vid=71da9dc6-dba4-49c4-8067-135146d7a6c9","ios":"levelo://app?vid=71da9dc6-dba4-49c4-8067-135146d7a6c9"},"vehicle_type_id":"4","last_reported":1729321767,"current_range_meters":38800,"station_id":"ce4bhn12rcd13ifvqgpg","pricing_plan_id":"cebpf4jnsgd1na2vs0mg"},{"bike_id":"ead18ffd-ff4d-42d6-84be-3ac0202bb1f1","system_id":"levelo_inurba_marseille","lat":43.318955,"lon":5.407315,"is_reserved":false,"is_disabled":false,"rental_uris":{"android":"levelo://app?vid=ead18ffd-ff4d-42d6-84be-3ac0202bb1f1","ios":"levelo://app?vid=ead18ffd-ff4d-42d6-84be-3ac0202bb1f1"},"vehicle_type_id":"4","last_reported":1729321767,"current_range_meters":38800,"station_id":"ce4bhq12rcd13ifvqhig","pricing_plan_id":"cebpf4jnsgd1na2vs0mg"},{"bike_id":"40302e19-028a-44eb-9abb-29a38b86aa5e","system_id":"levelo_inurba_marseille","lat":43.31167,"lon":5.38715,"is_reserved":false,"is_disabled":false,"rental_uris":{"android":"levelo://app?vid=40302e19-028a-44eb-9abb-29a38b86aa5e","ios":"levelo://app?vid=40302e19-028a-44eb-9abb-29a38b86aa5e"},"vehicle_type_id":"4","last_reported":1729321767,"current_range_meters":35600,"station_id":"ce4bgv12rcd13ifvqcp0","pricing_plan_id":"cebpf4jnsgd1na2vs0mg"},{"bike_id":"83729cb6-71ab-4370-8190-3d8c8681e30a","system_id":"levelo_inurba_marseille","lat":43.30788,"lon":5.37655,"is_reserved":false,"is_disabled":false,"rental_uris":{"android":"levelo://app?vid=83729cb6-71ab-4370-8190-3d8c8681e30a","ios":"levelo://app?vid=83729cb6-71ab-4370-8190-3d8c8681e30a"},"vehicle_type_id":"4","last_reported":1729321767,"current_range_meters":38800,"station_id":"ce4bgv92rcd13ifvqcq0","pricing_plan_id":"cebpf4jnsgd1na2vs0mg"},{"bike_id":"c9df7be6-3ec5-4763-987a-e5182f17ad36","system_id":"levelo_inurba_marseille","lat":43.31079,"lon":5.38355,"is_reserved":false,"is_disabled":false,"rental_uris":{"android":"levelo://app?vid=c9df7be6-3ec5-4763-987a-e5182f17ad36","ios":"levelo://app?vid=c9df7be6-3ec5-4763-987a-e5182f17ad36"},"vehicle_type_id":"4","last_reported":1729321767,"current_range_meters":29600,"station_id":"ce4bgv92rcd13ifvqcr0","pricing_plan_id":"cebpf4jnsgd1na2vs0mg"},{"bike_id":"7a1d7e21-c068-45c0-925b-3b403c5505a1","system_id":"levelo_inurba_marseille","lat":43.25494,"lon":5.37647,"is_reserved":false,"is_disabled":false,"rental_uris":{"android":"levelo://app?vid=7a1d7e21-c068-45c0-925b-3b403c5505a1","ios":"levelo://app?vid=7a1d7e21-c068-45c0-925b-3b403c5505a1"},"vehicle_type_id":"4","last_reported":1729321767,"current_range_meters":38800,"station_id":"ce4bhh12rcd13ifvqff0","pricing_plan_id":"cebpf4jnsgd1na2vs0mg"},{"bike_id":"f6755470-c9b3-459f-beaa-c4c3f6562c74","system_id":"levelo_inurba_marseille","lat":43.31696,"lon":5.40465,"is_reserved":false,"is_disabled":false,"rental_uris":{"android":"levelo://app?vid=f6755470-c9b3-459f-beaa-c4c3f6562c74","ios":"levelo://app?vid=f6755470-c9b3-459f-beaa-c4c3f6562c74"},"vehicle_type_id":"4","last_reported":1729321767,"current_range_meters":32400,"station_id":"ce4bh012rcd13ifvqd00","pricing_plan_id":"cebpf4jnsgd1na2vs0mg"},{"bike_id":"006ddbf4-82cb-41c3-a643-0f3a1c8bb945","system_id":"levelo_inurba_marseille","lat":43.27069,"lon":5.42275,"is_reserved":false,"is_disabled":false,"rental_uris":{"android":"levelo://app?vid=006ddbf4-82cb-41c3-a643-0f3a1c8bb945","ios":"levelo://app?vid=006ddbf4-82cb-41c3-a643-0f3a1c8bb945"},"vehicle_type_id":"4","last_reported":1729321767,"current_range_meters":39200,"station_id":"ce4bhk92rcd13ifvqgb0","pricing_plan_id":"cebpf4jnsgd1na2vs0mg"},{"bike_id":"af1e8a64-3c2f-4d6e-a783-f80957976387","system_id":"levelo_inurba_marseille","lat":43.30653,"lon":5.40079,"is_reserved":false,"is_disabled":false,"rental_uris":{"android":"levelo://app?vid=af1e8a64-3c2f-4d6e-a783-f80957976387","ios":"levelo://app?vid=af1e8a64-3c2f-4d6e-a783-f80957976387"},"vehicle_type_id":"4","last_reported":1729321767,"current_range_meters":38800,"station_id":"ce4bh112rcd13ifvqda0","pricing_plan_id":"cebpf4jnsgd1na2vs0mg"},{"bike_id":"24330e81-0dbf-4ec0-9f82-221bba652cd5","system_id":"levelo_inurba_marseille","lat":43.304623,"lon":5.378993,"is_reserved":false,"is_disabled":false,"rental_uris":{"android":"levelo://app?vid=24330e81-0dbf-4ec0-9f82-221bba652cd5","ios":"levelo://app?vid=24330e81-0dbf-4ec0-9f82-221bba652cd5"},"vehicle_type_id":"4","last_reported":1729321767,"current_range_meters":30800,"station_id":"ce4bgup2rcd13ifvqcn0","pricing_plan_id":"cebpf4jnsgd1na2vs0mg"},{"bike_id":"5590c543-901b-4ce2-95a2-e1f90156d68a","system_id":"levelo_inurba_marseille","lat":43.29036,"lon":5.3998,"is_reserved":false,"is_disabled":false,"rental_uris":{"android":"levelo://app?vid=5590c543-901b-4ce2-95a2-e1f90156d68a","ios":"levelo://app?vid=5590c543-901b-4ce2-95a2-e1f90156d68a"},"vehicle_type_id":"4","last_reported":1729321767,"current_range_meters":38800,"station_id":"ce4bh392rcd13ifvqdm0","pricing_plan_id":"cebpf4jnsgd1na2vs0mg"},{"bike_id":"11dd6f88-d49b-4809-98d2-b460f57954ed","system_id":"levelo_inurba_marseille","lat":43.27174,"lon":5.40993,"is_reserved":false,"is_disabled":false,"rental_uris":{"android":"levelo://app?vid=11dd6f88-d49b-4809-98d2-b460f57954ed","ios":"levelo://app?vid=11dd6f88-d49b-4809-98d2-b460f57954ed"},"vehicle_type_id":"4","last_reported":1729321767,"current_range_meters":33200,"station_id":"ce4bhl12rcd13ifvqgf0","pricing_plan_id":"cebpf4jnsgd1na2vs0mg"},{"bike_id":"9e833968-4b5b-4a32-a96b-8431979de98c","system_id":"levelo_inurba_marseille","lat":43.25734,"lon":5.41112,"is_reserved":false,"is_disabled":false,"rental_uris":{"android":"levelo://app?vid=9e833968-4b5b-4a32-a96b-8431979de98c","ios":"levelo://app?vid=9e833968-4b5b-4a32-a96b-8431979de98c"},"vehicle_type_id":"4","last_reported":1729321767,"current_range_meters":12400,"station_id":"ce4bhkp2rcd13ifvqgd0","pricing_plan_id":"cebpf4jnsgd1na2vs0mg"},{"bike_id":"84a71244-fc5a-453f-b683-69ed4c14244f","system_id":"levelo_inurba_marseille","lat":43.28002,"lon":5.41664,"is_reserved":false,"is_disabled":false,"rental_uris":{"android":"levelo://app?vid=84a71244-fc5a-453f-b683-69ed4c14244f","ios":"levelo://app?vid=84a71244-fc5a-453f-b683-69ed4c14244f"},"vehicle_type_id":"4","last_reported":1729321767,"current_range_meters":8800,"station_id":"ce4bho12rcd13ifvqh1g","pricing_plan_id":"cebpf4jnsgd1na2vs0mg"},{"bike_id":"2aa30074-a798-4517-9910-408fe840d5c0","system_id":"levelo_inurba_marseille","lat":43.23194,"lon":5.35553,"is_reserved":false,"is_disabled":false,"rental_uris":{"android":"levelo://app?vid=2aa30074-a798-4517-9910-408fe840d5c0","ios":"levelo://app?vid=2aa30074-a798-4517-9910-408fe840d5c0"},"vehicle_type_id":"4","last_reported":1729321767,"current_range_meters":25600,"station_id":"ce4bhu92rcd13ifvqi70","pricing_plan_id":"cebpf4jnsgd1na2vs0mg"},{"bike_id":"4644cc4b-8471-446a-bd1b-381fe8792fa5","system_id":"levelo_inurba_marseille","lat":43.293121,"lon":5.370274,"is_reserved":false,"is_disabled":false,"rental_uris":{"android":"levelo://app?vid=4644cc4b-8471-446a-bd1b-381fe8792fa5","ios":"levelo://app?vid=4644cc4b-8471-446a-bd1b-381fe8792fa5"},"vehicle_type_id":"4","last_reported":1729321767,"current_range_meters":18000,"station_id":"ce4bgh92rcd13ifvqb40","pricing_plan_id":"cebpf4jnsgd1na2vs0mg"},{"bike_id":"874dbab0-2f32-4e5c-a3d5-6bdf980d941d","system_id":"levelo_inurba_marseille","lat":43.28419,"lon":5.34993,"is_reserved":false,"is_disabled":false,"rental_uris":{"android":"levelo://app?vid=874dbab0-2f32-4e5c-a3d5-6bdf980d941d","ios":"levelo://app?vid=874dbab0-2f32-4e5c-a3d5-6bdf980d941d"},"vehicle_type_id":"4","last_reported":1729321767,"current_range_meters":38800,"station_id":"ce4bhbh2rcd13ifvqepg","pricing_plan_id":"cebpf4jnsgd1na2vs0mg"},{"bike_id":"63c779f4-5e78-452e-adcf-fb89700c4c27","system_id":"levelo_inurba_marseille","lat":43.29624,"lon":5.3735,"is_reserved":false,"is_disabled":false,"rental_uris":{"android":"levelo://app?vid=63c779f4-5e78-452e-adcf-fb89700c4c27","ios":"levelo://app?vid=63c779f4-5e78-452e-adcf-fb89700c4c27"},"vehicle_type_id":"4","last_reported":1729321767,"current_range_meters":31200,"station_id":"","pricing_plan_id":"cebpf4jnsgd1na2vs0mg"},{"bike_id":"b8be9637-1596-480b-9b66-d74595d15a54","system_id":"levelo_inurba_marseille","lat":43.30788,"lon":5.37654,"is_reserved":false,"is_disabled":false,"rental_uris":{"android":"levelo://app?vid=b8be9637-1596-480b-9b66-d74595d15a54","ios":"levelo://app?vid=b8be9637-1596-480b-9b66-d74595d15a54"},"vehicle_type_id":"4","last_reported":1729321767,"current_range_meters":38800,"station_id":"ce4bgv92rcd13ifvqcq0","pricing_plan_id":"cebpf4jnsgd1na2vs0mg"},{"bike_id":"0634ef90-49aa-4c52-9de9-22ea66968c5f","system_id":"levelo_inurba_marseille","lat":43.29803,"lon":5.38111,"is_reserved":false,"is_disabled":false,"rental_uris":{"android":"levelo://app?vid=0634ef90-49aa-4c52-9de9-22ea66968c5f","ios":"levelo://app?vid=0634ef90-49aa-4c52-9de9-22ea66968c5f"},"vehicle_type_id":"4","last_reported":1729321767,"current_range_meters":19600,"station_id":"ce4bgip2rcd13ifvqbb0","pricing_plan_id":"cebpf4jnsgd1na2vs0mg"},{"bike_id":"461e6f93-4788-4610-8cf3-df24014b29e6","system_id":"levelo_inurba_marseille","lat":43.32474,"lon":5.36557,"is_reserved":false,"is_disabled":false,"rental_uris":{"android":"levelo://app?vid=461e6f93-4788-4610-8cf3-df24014b29e6","ios":"levelo://app?vid=461e6f93-4788-4610-8cf3-df24014b29e6"},"vehicle_type_id":"4","last_reported":1729321767,"current_range_meters":8400,"station_id":"ce4bhs12rcd13ifvqhvg","pricing_plan_id":"cebpf4jnsgd1na2vs0mg"},{"bike_id":"bc4dfd71-cdf3-45e3-8aa3-c5528379f96a","system_id":"levelo_inurba_marseille","lat":43.27617,"lon":5.36108,"is_reserved":false,"is_disabled":false,"rental_uris":{"android":"levelo://app?vid=bc4dfd71-cdf3-45e3-8aa3-c5528379f96a","ios":"levelo://app?vid=bc4dfd71-cdf3-45e3-8aa3-c5528379f96a"},"vehicle_type_id":"4","last_reported":1729321767,"current_range_meters":20000,"station_id":"ce4bgj92rcd13ifvqbe0","pricing_plan_id":"cebpf4jnsgd1na2vs0mg"},{"bike_id":"ac0e8923-1675-4a0a-be10-3d027dc097cb","system_id":"levelo_inurba_marseille","lat":43.24388,"lon":5.37058,"is_reserved":false,"is_disabled":false,"rental_uris":{"android":"levelo://app?vid=ac0e8923-1675-4a0a-be10-3d027dc097cb","ios":"levelo://app?vid=ac0e8923-1675-4a0a-be10-3d027dc097cb"},"vehicle_type_id":"4","last_reported":1729321767,"current_range_meters":31200,"station_id":"ce4bhhh2rcd13ifvqfk0","pricing_plan_id":"cebpf4jnsgd1na2vs0mg"},{"bike_id":"c746da30-0175-4c63-8cc4-f4d0284e8127","system_id":"levelo_inurba_marseille","lat":43.23963,"lon":5.36634,"is_reserved":false,"is_disabled":false,"rental_uris":{"android":"levelo://app?vid=c746da30-0175-4c63-8cc4-f4d0284e8127","ios":"levelo://app?vid=c746da30-0175-4c63-8cc4-f4d0284e8127"},"vehicle_type_id":"4","last_reported":1729321767,"current_range_meters":17200,"station_id":"ce4bhi12rcd13ifvqfp0","pricing_plan_id":"cebpf4jnsgd1na2vs0mg"},{"bike_id":"6188b269-e9bb-48ab-9c37-ab69aeff6abc","system_id":"levelo_inurba_marseille","lat":43.28411,"lon":5.37522,"is_reserved":false,"is_disabled":false,"rental_uris":{"android":"levelo://app?vid=6188b269-e9bb-48ab-9c37-ab69aeff6abc","ios":"levelo://app?vid=6188b269-e9bb-48ab-9c37-ab69aeff6abc"},"vehicle_type_id":"4","last_reported":1729321767,"current_range_meters":30000,"station_id":"ce4bh412rcd13ifvqds0","pricing_plan_id":"cebpf4jnsgd1na2vs0mg"},{"bike_id":"2fe520c4-6f74-434f-902b-a7ba241444fe","system_id":"levelo_inurba_marseille","lat":43.30155,"lon":5.3808,"is_reserved":false,"is_disabled":false,"rental_uris":{"android":"levelo://app?vid=2fe520c4-6f74-434f-902b-a7ba241444fe","ios":"levelo://app?vid=2fe520c4-6f74-434f-902b-a7ba241444fe"},"vehicle_type_id":"4","last_reported":1729321767,"current_range_meters":7200,"station_id":"ce4bgjp2rcd13ifvqbh0","pricing_plan_id":"cebpf4jnsgd1na2vs0mg"},{"bike_id":"d3c6423b-559d-4e53-82ea-52f46901a741","system_id":"levelo_inurba_marseille","lat":43.26942,"lon":5.40248,"is_reserved":false,"is_disabled":false,"rental_uris":{"android":"levelo://app?vid=d3c6423b-559d-4e53-82ea-52f46901a741","ios":"levelo://app?vid=d3c6423b-559d-4e53-82ea-52f46901a741"},"vehicle_type_id":"4","last_reported":1729321767,"current_range_meters":38800,"station_id":"cjm6bp8fraef2m0cb0m0","pricing_plan_id":"cebpf4jnsgd1na2vs0mg"},{"bike_id":"8e50cd93-7702-4563-8705-23eab3d23f57","system_id":"levelo_inurba_marseille","lat":43.27496,"lon":5.42449,"is_reserved":false,"is_disabled":false,"rental_uris":{"android":"levelo://app?vid=8e50cd93-7702-4563-8705-23eab3d23f57","ios":"levelo://app?vid=8e50cd93-7702-4563-8705-23eab3d23f57"},"vehicle_type_id":"4","last_reported":1729321767,"current_range_meters":29600,"station_id":"ce4bhn92rcd13ifvqgrg","pricing_plan_id":"cebpf4jnsgd1na2vs0mg"},{"bike_id":"baffb789-06d1-44c5-bcf2-89e2f322f123","system_id":"levelo_inurba_marseille","lat":43.27989,"lon":5.40024,"is_reserved":false,"is_disabled":false,"rental_uris":{"android":"levelo://app?vid=baffb789-06d1-44c5-bcf2-89e2f322f123","ios":"levelo://app?vid=baffb789-06d1-44c5-bcf2-89e2f322f123"},"vehicle_type_id":"4","last_reported":1729321767,"current_range_meters":34800,"station_id":"ce4bho92rcd13ifvqh4g","pricing_plan_id":"cebpf4jnsgd1na2vs0mg"},{"bike_id":"13b2f10a-76eb-4386-8a9d-b4cf04585f1d","system_id":"levelo_inurba_marseille","lat":43.29525,"lon":5.37495,"is_reserved":false,"is_disabled":false,"rental_uris":{"android":"levelo://app?vid=13b2f10a-76eb-4386-8a9d-b4cf04585f1d","ios":"levelo://app?vid=13b2f10a-76eb-4386-8a9d-b4cf04585f1d"},"vehicle_type_id":"4","last_reported":1729321767,"current_range_meters":22000,"station_id":"ce4bgkp2rcd13ifvqbmg","pricing_plan_id":"cebpf4jnsgd1na2vs0mg"},{"bike_id":"cb418045-b3bf-49e0-88ba-4b62b86e3d22","system_id":"levelo_inurba_marseille","lat":43.28158,"lon":5.42642,"is_reserved":false,"is_disabled":false,"rental_uris":{"android":"levelo://app?vid=cb418045-b3bf-49e0-88ba-4b62b86e3d22","ios":"levelo://app?vid=cb418045-b3bf-49e0-88ba-4b62b86e3d22"},"vehicle_type_id":"4","last_reported":1729321767,"current_range_meters":10000,"station_id":"ce4bhnh2rcd13ifvqgug","pricing_plan_id":"cebpf4jnsgd1na2vs0mg"},{"bike_id":"4f8bd11b-a06a-4d2a-bee0-a05a0caa7df3","system_id":"levelo_inurba_marseille","lat":43.23189,"lon":5.3998,"is_reserved":false,"is_disabled":false,"rental_uris":{"android":"levelo://app?vid=4f8bd11b-a06a-4d2a-bee0-a05a0caa7df3","ios":"levelo://app?vid=4f8bd11b-a06a-4d2a-bee0-a05a0caa7df3"},"vehicle_type_id":"4","last_reported":1729321767,"current_range_meters":20400,"station_id":"ce4bhn12rcd13ifvqgqg","pricing_plan_id":"cebpf4jnsgd1na2vs0mg"},{"bike_id":"996fe878-5b5d-4603-a6c3-9fb689e4747b","system_id":"levelo_inurba_marseille","lat":43.27491,"lon":5.42452,"is_reserved":false,"is_disabled":false,"rental_uris":{"android":"levelo://app?vid=996fe878-5b5d-4603-a6c3-9fb689e4747b","ios":"levelo://app?vid=996fe878-5b5d-4603-a6c3-9fb689e4747b"},"vehicle_type_id":"4","last_reported":1729321767,"current_range_meters":12800,"station_id":"ce4bhn92rcd13ifvqgrg","pricing_plan_id":"cebpf4jnsgd1na2vs0mg"},{"bike_id":"fc6e513b-da81-4d34-a427-493e42edd768","system_id":"levelo_inurba_marseille","lat":43.295414,"lon":5.392384,"is_reserved":false,"is_disabled":false,"rental_uris":{"android":"levelo://app?vid=fc6e513b-da81-4d34-a427-493e42edd768","ios":"levelo://app?vid=fc6e513b-da81-4d34-a427-493e42edd768"},"vehicle_type_id":"4","last_reported":1729321767,"current_range_meters":23200,"station_id":"","pricing_plan_id":"cebpf4jnsgd1na2vs0mg"},{"bike_id":"ac231a2e-1def-435c-8990-198f2e08ac8d","system_id":"levelo_inurba_marseille","lat":43.23057,"lon":5.35495,"is_reserved":false,"is_disabled":false,"rental_uris":{"android":"levelo://app?vid=ac231a2e-1def-435c-8990-198f2e08ac8d","ios":"levelo://app?vid=ac231a2e-1def-435c-8990-198f2e08ac8d"},"vehicle_type_id":"4","last_reported":1729321767,"current_range_meters":17200,"station_id":"cpo3342slgdg3j2ifvpg","pricing_plan_id":"cebpf4jnsgd1na2vs0mg"},{"bike_id":"49a9c818-7c6d-4e4d-988e-77a66076572b","system_id":"levelo_inurba_marseille","lat":43.28943,"lon":5.39631,"is_reserved":false,"is_disabled":false,"rental_uris":{"android":"levelo://app?vid=49a9c818-7c6d-4e4d-988e-77a66076572b","ios":"levelo://app?vid=49a9c818-7c6d-4e4d-988e-77a66076572b"},"vehicle_type_id":"4","last_reported":1729321767,"current_range_meters":33200,"station_id":"ce4bh3h2rcd13ifvqdn0","pricing_plan_id":"cebpf4jnsgd1na2vs0mg"},{"bike_id":"68b4f318-3e09-471b-b94f-4a5e803e6663","system_id":"levelo_inurba_marseille","lat":43.24168,"lon":5.3639,"is_reserved":false,"is_disabled":false,"rental_uris":{"android":"levelo://app?vid=68b4f318-3e09-471b-b94f-4a5e803e6663","ios":"levelo://app?vid=68b4f318-3e09-471b-b94f-4a5e803e6663"},"vehicle_type_id":"4","last_reported":1729321767,"current_range_meters":12400,"station_id":"cpo36qri1sfpv3e86is0","pricing_plan_id":"cebpf4jnsgd1na2vs0mg"},{"bike_id":"586c3761-8b32-493f-b466-fecd8a579e02","system_id":"levelo_inurba_marseille","lat":43.30805,"lon":5.38145,"is_reserved":false,"is_disabled":false,"rental_uris":{"android":"levelo://app?vid=586c3761-8b32-493f-b466-fecd8a579e02","ios":"levelo://app?vid=586c3761-8b32-493f-b466-fecd8a579e02"},"vehicle_type_id":"4","last_reported":1729321767,"current_range_meters":20000,"station_id":"ce4bgt12rcd13ifvqce0","pricing_plan_id":"cebpf4jnsgd1na2vs0mg"},{"bike_id":"d4068582-21b6-44c6-9075-fbf9736b5674","system_id":"levelo_inurba_marseille","lat":43.28697,"lon":5.37398,"is_reserved":false,"is_disabled":false,"rental_uris":{"android":"levelo://app?vid=d4068582-21b6-44c6-9075-fbf9736b5674","ios":"levelo://app?vid=d4068582-21b6-44c6-9075-fbf9736b5674"},"vehicle_type_id":"4","last_reported":1729321767,"current_range_meters":38800,"station_id":"ce4bh3p2rcd13ifvqdq0","pricing_plan_id":"cebpf4jnsgd1na2vs0mg"},{"bike_id":"aac282ef-7d0d-4cf6-a738-a10a76319aa8","system_id":"levelo_inurba_marseille","lat":43.25088,"lon":5.3951,"is_reserved":false,"is_disabled":false,"rental_uris":{"android":"levelo://app?vid=aac282ef-7d0d-4cf6-a738-a10a76319aa8","ios":"levelo://app?vid=aac282ef-7d0d-4cf6-a738-a10a76319aa8"},"vehicle_type_id":"4","last_reported":1729321767,"current_range_meters":30400,"station_id":"ce4bhm12rcd13ifvqgkg","pricing_plan_id":"cebpf4jnsgd1na2vs0mg"},{"bike_id":"a0cb4fb3-e0ce-4e83-b306-1f074bb2598b","system_id":"levelo_inurba_marseille","lat":43.24085,"lon":5.37752,"is_reserved":false,"is_disabled":false,"rental_uris":{"android":"levelo://app?vid=a0cb4fb3-e0ce-4e83-b306-1f074bb2598b","ios":"levelo://app?vid=a0cb4fb3-e0ce-4e83-b306-1f074bb2598b"},"vehicle_type_id":"4","last_reported":1729321767,"current_range_meters":19600,"station_id":"ce4bhnp2rcd13ifvqgvg","pricing_plan_id":"cebpf4jnsgd1na2vs0mg"},{"bike_id":"57dd0012-e7c2-43e3-90a1-087125ac63fa","system_id":"levelo_inurba_marseille","lat":43.33756,"lon":5.37474,"is_reserved":false,"is_disabled":false,"rental_uris":{"android":"levelo://app?vid=57dd0012-e7c2-43e3-90a1-087125ac63fa","ios":"levelo://app?vid=57dd0012-e7c2-43e3-90a1-087125ac63fa"},"vehicle_type_id":"4","last_reported":1729321767,"current_range_meters":38800,"station_id":"","pricing_plan_id":"cebpf4jnsgd1na2vs0mg"},{"bike_id":"30d1db0e-5168-47b3-88a3-3977dd5e4ed1","system_id":"levelo_inurba_marseille","lat":43.25109,"lon":5.40318,"is_reserved":false,"is_disabled":false,"rental_uris":{"android":"levelo://app?vid=30d1db0e-5168-47b3-88a3-3977dd5e4ed1","ios":"levelo://app?vid=30d1db0e-5168-47b3-88a3-3977dd5e4ed1"},"vehicle_type_id":"4","last_reported":1729321767,"current_range_meters":2800,"station_id":"ce4bhlh2rcd13ifvqgig","pricing_plan_id":"cebpf4jnsgd1na2vs0mg"},{"bike_id":"65a67f11-6e2e-4b06-8422-bf4f01279b58","system_id":"levelo_inurba_marseille","lat":43.32655,"lon":5.40992,"is_reserved":false,"is_disabled":false,"rental_uris":{"android":"levelo://app?vid=65a67f11-6e2e-4b06-8422-bf4f01279b58","ios":"levelo://app?vid=65a67f11-6e2e-4b06-8422-bf4f01279b58"},"vehicle_type_id":"4","last_reported":1729321767,"current_range_meters":38800,"station_id":"ce4bhpp2rcd13ifvqhgg","pricing_plan_id":"cebpf4jnsgd1na2vs0mg"},{"bike_id":"bbde71a0-a5ad-4fc6-aed8-9981c29eb597","system_id":"levelo_inurba_marseille","lat":43.291895,"lon":5.380381,"is_reserved":false,"is_disabled":false,"rental_uris":{"android":"levelo://app?vid=bbde71a0-a5ad-4fc6-aed8-9981c29eb597","ios":"levelo://app?vid=bbde71a0-a5ad-4fc6-aed8-9981c29eb597"},"vehicle_type_id":"4","last_reported":1729321767,"current_range_meters":38800,"station_id":"ce4bgjh2rcd13ifvqbf0","pricing_plan_id":"cebpf4jnsgd1na2vs0mg"},{"bike_id":"0d2f257f-70ce-46ac-893e-d285286d1802","system_id":"levelo_inurba_marseille","lat":43.23185,"lon":5.39986,"is_reserved":false,"is_disabled":false,"rental_uris":{"android":"levelo://app?vid=0d2f257f-70ce-46ac-893e-d285286d1802","ios":"levelo://app?vid=0d2f257f-70ce-46ac-893e-d285286d1802"},"vehicle_type_id":"4","last_reported":1729321767,"current_range_meters":3600,"station_id":"ce4bhn12rcd13ifvqgqg","pricing_plan_id":"cebpf4jnsgd1na2vs0mg"},{"bike_id":"d460f678-798f-4131-b9af-59a044783950","system_id":"levelo_inurba_marseille","lat":43.28442,"lon":5.39191,"is_reserved":false,"is_disabled":false,"rental_uris":{"android":"levelo://app?vid=d460f678-798f-4131-b9af-59a044783950","ios":"levelo://app?vid=d460f678-798f-4131-b9af-59a044783950"},"vehicle_type_id":"4","last_reported":1729321767,"current_range_meters":28400,"station_id":"ce4bhoh2rcd13ifvqh5g","pricing_plan_id":"cebpf4jnsgd1na2vs0mg"},{"bike_id":"3d7546d0-4dba-4212-88c9-dfe9a2032237","system_id":"levelo_inurba_marseille","lat":43.24165,"lon":5.36395,"is_reserved":false,"is_disabled":false,"rental_uris":{"android":"levelo://app?vid=3d7546d0-4dba-4212-88c9-dfe9a2032237","ios":"levelo://app?vid=3d7546d0-4dba-4212-88c9-dfe9a2032237"},"vehicle_type_id":"4","last_reported":1729321767,"current_range_meters":35200,"station_id":"cpo36qri1sfpv3e86is0","pricing_plan_id":"cebpf4jnsgd1na2vs0mg"},{"bike_id":"6c9b629f-479b-4863-8967-3a50e4f4a607","system_id":"levelo_inurba_marseille","lat":43.31173,"lon":5.38724,"is_reserved":false,"is_disabled":false,"rental_uris":{"android":"levelo://app?vid=6c9b629f-479b-4863-8967-3a50e4f4a607","ios":"levelo://app?vid=6c9b629f-479b-4863-8967-3a50e4f4a607"},"vehicle_type_id":"4","last_reported":1729321767,"current_range_meters":26800,"station_id":"ce4bgv12rcd13ifvqcp0","pricing_plan_id":"cebpf4jnsgd1na2vs0mg"},{"bike_id":"bae22521-64ef-4e95-b917-b5a5fdbd6a86","system_id":"levelo_inurba_marseille","lat":43.28998,"lon":5.3562,"is_reserved":false,"is_disabled":false,"rental_uris":{"android":"levelo://app?vid=bae22521-64ef-4e95-b917-b5a5fdbd6a86","ios":"levelo://app?vid=bae22521-64ef-4e95-b917-b5a5fdbd6a86"},"vehicle_type_id":"4","last_reported":1729321767,"current_range_meters":4800,"station_id":"ce4bhb92rcd13ifvqen0","pricing_plan_id":"cebpf4jnsgd1na2vs0mg"},{"bike_id":"1ddfad71-8e85-46b3-83a9-5930855c2591","system_id":"levelo_inurba_marseille","lat":43.26214,"lon":5.3745,"is_reserved":false,"is_disabled":false,"rental_uris":{"android":"levelo://app?vid=1ddfad71-8e85-46b3-83a9-5930855c2591","ios":"levelo://app?vid=1ddfad71-8e85-46b3-83a9-5930855c2591"},"vehicle_type_id":"4","last_reported":1729321767,"current_range_meters":18000,"station_id":"ce4bhgp2rcd13ifvqfc0","pricing_plan_id":"cebpf4jnsgd1na2vs0mg"},{"bike_id":"3b850a87-1d1d-4353-9089-e64aa78e9a1e","system_id":"levelo_inurba_marseille","lat":43.304646,"lon":5.379013,"is_reserved":false,"is_disabled":false,"rental_uris":{"android":"levelo://app?vid=3b850a87-1d1d-4353-9089-e64aa78e9a1e","ios":"levelo://app?vid=3b850a87-1d1d-4353-9089-e64aa78e9a1e"},"vehicle_type_id":"4","last_reported":1729321767,"current_range_meters":39200,"station_id":"ce4bgup2rcd13ifvqcn0","pricing_plan_id":"cebpf4jnsgd1na2vs0mg"},{"bike_id":"8b10c252-b32b-40ef-b8da-9d1c9158f577","system_id":"levelo_inurba_marseille","lat":43.26033,"lon":5.37549,"is_reserved":false,"is_disabled":false,"rental_uris":{"android":"levelo://app?vid=8b10c252-b32b-40ef-b8da-9d1c9158f577","ios":"levelo://app?vid=8b10c252-b32b-40ef-b8da-9d1c9158f577"},"vehicle_type_id":"4","last_reported":1729321767,"current_range_meters":38800,"station_id":"ce4bhgh2rcd13ifvqfa0","pricing_plan_id":"cebpf4jnsgd1na2vs0mg"},{"bike_id":"465653fc-59ff-40d2-b00c-845179bf10c5","system_id":"levelo_inurba_marseille","lat":43.30467,"lon":5.37904,"is_reserved":false,"is_disabled":false,"rental_uris":{"android":"levelo://app?vid=465653fc-59ff-40d2-b00c-845179bf10c5","ios":"levelo://app?vid=465653fc-59ff-40d2-b00c-845179bf10c5"},"vehicle_type_id":"4","last_reported":1729321767,"current_range_meters":17600,"station_id":"ce4bgup2rcd13ifvqcn0","pricing_plan_id":"cebpf4jnsgd1na2vs0mg"},{"bike_id":"ec4b27f4-1f33-4e93-ba08-7796dfb9a476","system_id":"levelo_inurba_marseille","lat":43.24807,"lon":5.37456,"is_reserved":false,"is_disabled":false,"rental_uris":{"android":"levelo://app?vid=ec4b27f4-1f33-4e93-ba08-7796dfb9a476","ios":"levelo://app?vid=ec4b27f4-1f33-4e93-ba08-7796dfb9a476"},"vehicle_type_id":"4","last_reported":1729321767,"current_range_meters":39200,"station_id":"ce4bhgh2rcd13ifvqfb0","pricing_plan_id":"cebpf4jnsgd1na2vs0mg"},{"bike_id":"90b7df2b-2805-4913-a745-07d80216980c","system_id":"levelo_inurba_marseille","lat":43.30806,"lon":5.43529,"is_reserved":false,"is_disabled":false,"rental_uris":{"android":"levelo://app?vid=90b7df2b-2805-4913-a745-07d80216980c","ios":"levelo://app?vid=90b7df2b-2805-4913-a745-07d80216980c"},"vehicle_type_id":"4","last_reported":1729321767,"current_range_meters":8000,"station_id":"ce4bhph2rcd13ifvqheg","pricing_plan_id":"cebpf4jnsgd1na2vs0mg"},{"bike_id":"32ce68a3-3fc7-4257-974f-ab657619c295","system_id":"levelo_inurba_marseille","lat":43.33752,"lon":5.3746,"is_reserved":false,"is_disabled":false,"rental_uris":{"android":"levelo://app?vid=32ce68a3-3fc7-4257-974f-ab657619c295","ios":"levelo://app?vid=32ce68a3-3fc7-4257-974f-ab657619c295"},"vehicle_type_id":"4","last_reported":1729321767,"current_range_meters":7200,"station_id":"","pricing_plan_id":"cebpf4jnsgd1na2vs0mg"},{"bike_id":"e5dab1ea-a810-41a0-a6cd-403085d8bf13","system_id":"levelo_inurba_marseille","lat":43.27368,"lon":5.36259,"is_reserved":false,"is_disabled":false,"rental_uris":{"android":"levelo://app?vid=e5dab1ea-a810-41a0-a6cd-403085d8bf13","ios":"levelo://app?vid=e5dab1ea-a810-41a0-a6cd-403085d8bf13"},"vehicle_type_id":"4","last_reported":1729321767,"current_range_meters":38000,"station_id":"ce4bhbh2rcd13ifvqeo0","pricing_plan_id":"cebpf4jnsgd1na2vs0mg"},{"bike_id":"f76e4dab-a4b5-4d85-97d7-9ad7e09d33d4","system_id":"levelo_inurba_marseille","lat":43.2904,"lon":5.39964,"is_reserved":false,"is_disabled":false,"rental_uris":{"android":"levelo://app?vid=f76e4dab-a4b5-4d85-97d7-9ad7e09d33d4","ios":"levelo://app?vid=f76e4dab-a4b5-4d85-97d7-9ad7e09d33d4"},"vehicle_type_id":"4","last_reported":1729321767,"current_range_meters":30800,"station_id":"ce4bh392rcd13ifvqdm0","pricing_plan_id":"cebpf4jnsgd1na2vs0mg"},{"bike_id":"14bf036d-13a9-4abd-b8e1-eef1f60991e4","system_id":"levelo_inurba_marseille","lat":43.29903,"lon":5.38146,"is_reserved":false,"is_disabled":false,"rental_uris":{"android":"levelo://app?vid=14bf036d-13a9-4abd-b8e1-eef1f60991e4","ios":"levelo://app?vid=14bf036d-13a9-4abd-b8e1-eef1f60991e4"},"vehicle_type_id":"4","last_reported":1729321767,"current_range_meters":36000,"station_id":"ce4bgj12rcd13ifvqbc0","pricing_plan_id":"cebpf4jnsgd1na2vs0mg"},{"bike_id":"0731144f-d516-4e8c-bd4b-e4db30e19069","system_id":"levelo_inurba_marseille","lat":43.25085,"lon":5.3951,"is_reserved":false,"is_disabled":false,"rental_uris":{"android":"levelo://app?vid=0731144f-d516-4e8c-bd4b-e4db30e19069","ios":"levelo://app?vid=0731144f-d516-4e8c-bd4b-e4db30e19069"},"vehicle_type_id":"4","last_reported":1729321767,"current_range_meters":27200,"station_id":"ce4bhm12rcd13ifvqgkg","pricing_plan_id":"cebpf4jnsgd1na2vs0mg"},{"bike_id":"b64362e2-b043-4f67-8e42-f68524e828ed","system_id":"levelo_inurba_marseille","lat":43.24179,"lon":5.39718,"is_reserved":false,"is_disabled":false,"rental_uris":{"android":"levelo://app?vid=b64362e2-b043-4f67-8e42-f68524e828ed","ios":"levelo://app?vid=b64362e2-b043-4f67-8e42-f68524e828ed"},"vehicle_type_id":"4","last_reported":1729321767,"current_range_meters":21600,"station_id":"ce4bhn12rcd13ifvqgpg","pricing_plan_id":"cebpf4jnsgd1na2vs0mg"},{"bike_id":"9c4ce615-a0f2-4a80-9f5a-6c09c506e130","system_id":"levelo_inurba_marseille","lat":43.2407,"lon":5.37752,"is_reserved":false,"is_disabled":false,"rental_uris":{"android":"levelo://app?vid=9c4ce615-a0f2-4a80-9f5a-6c09c506e130","ios":"levelo://app?vid=9c4ce615-a0f2-4a80-9f5a-6c09c506e130"},"vehicle_type_id":"4","last_reported":1729321767,"current_range_meters":6400,"station_id":"ce4bhnp2rcd13ifvqgvg","pricing_plan_id":"cebpf4jnsgd1na2vs0mg"},{"bike_id":"ec748def-77ce-422e-b939-580f160ccdca","system_id":"levelo_inurba_marseille","lat":43.306396,"lon":5.400991,"is_reserved":false,"is_disabled":false,"rental_uris":{"android":"levelo://app?vid=ec748def-77ce-422e-b939-580f160ccdca","ios":"levelo://app?vid=ec748def-77ce-422e-b939-580f160ccdca"},"vehicle_type_id":"4","last_reported":1729321767,"current_range_meters":35200,"station_id":"ce4bh4p2rcd13ifvqe0g","pricing_plan_id":"cebpf4jnsgd1na2vs0mg"},{"bike_id":"a03ad401-b342-4ea6-b5f8-045dc51ff989","system_id":"levelo_inurba_marseille","lat":43.25869,"lon":5.399,"is_reserved":false,"is_disabled":false,"rental_uris":{"android":"levelo://app?vid=a03ad401-b342-4ea6-b5f8-045dc51ff989","ios":"levelo://app?vid=a03ad401-b342-4ea6-b5f8-045dc51ff989"},"vehicle_type_id":"4","last_reported":1729321767,"current_range_meters":22400,"station_id":"ce4bhl92rcd13ifvqghg","pricing_plan_id":"cebpf4jnsgd1na2vs0mg"},{"bike_id":"dfb160c5-111e-4fc3-88c2-fba8af64107f","system_id":"levelo_inurba_marseille","lat":43.3234,"lon":5.40617,"is_reserved":false,"is_disabled":false,"rental_uris":{"android":"levelo://app?vid=dfb160c5-111e-4fc3-88c2-fba8af64107f","ios":"levelo://app?vid=dfb160c5-111e-4fc3-88c2-fba8af64107f"},"vehicle_type_id":"4","last_reported":1729321767,"current_range_meters":38400,"station_id":"ce4bhq92rcd13ifvqhjg","pricing_plan_id":"cebpf4jnsgd1na2vs0mg"},{"bike_id":"ddd62ba3-c050-46d2-a8ed-02c4b983589b","system_id":"levelo_inurba_marseille","lat":43.32482,"lon":5.36571,"is_reserved":false,"is_disabled":false,"rental_uris":{"android":"levelo://app?vid=ddd62ba3-c050-46d2-a8ed-02c4b983589b","ios":"levelo://app?vid=ddd62ba3-c050-46d2-a8ed-02c4b983589b"},"vehicle_type_id":"4","last_reported":1729321767,"current_range_meters":28400,"station_id":"ce4bhs12rcd13ifvqhvg","pricing_plan_id":"cebpf4jnsgd1na2vs0mg"},{"bike_id":"8c1ec6cb-2291-4814-837b-be8625c706f3","system_id":"levelo_inurba_marseille","lat":43.23202,"lon":5.35549,"is_reserved":false,"is_disabled":false,"rental_uris":{"android":"levelo://app?vid=8c1ec6cb-2291-4814-837b-be8625c706f3","ios":"levelo://app?vid=8c1ec6cb-2291-4814-837b-be8625c706f3"},"vehicle_type_id":"4","last_reported":1729321767,"current_range_meters":28800,"station_id":"ce4bhu92rcd13ifvqi70","pricing_plan_id":"cebpf4jnsgd1na2vs0mg"},{"bike_id":"24d51479-5034-4c6f-a657-09075865709c","system_id":"levelo_inurba_marseille","lat":43.313276,"lon":5.396909,"is_reserved":false,"is_disabled":false,"rental_uris":{"android":"levelo://app?vid=24d51479-5034-4c6f-a657-09075865709c","ios":"levelo://app?vid=24d51479-5034-4c6f-a657-09075865709c"},"vehicle_type_id":"4","last_reported":1729321767,"current_range_meters":39200,"station_id":"ce4bgvp2rcd13ifvqcu0","pricing_plan_id":"cebpf4jnsgd1na2vs0mg"},{"bike_id":"74046f04-796f-44fa-933a-59b975083b5b","system_id":"levelo_inurba_marseille","lat":43.29267,"lon":5.40125,"is_reserved":false,"is_disabled":false,"rental_uris":{"android":"levelo://app?vid=74046f04-796f-44fa-933a-59b975083b5b","ios":"levelo://app?vid=74046f04-796f-44fa-933a-59b975083b5b"},"vehicle_type_id":"4","last_reported":1729321767,"current_range_meters":38400,"station_id":"ce4bh312rcd13ifvqdk0","pricing_plan_id":"cebpf4jnsgd1na2vs0mg"},{"bike_id":"8429a31c-77f3-41b6-b710-38d8ca6d27dc","system_id":"levelo_inurba_marseille","lat":43.25087,"lon":5.39521,"is_reserved":false,"is_disabled":false,"rental_uris":{"android":"levelo://app?vid=8429a31c-77f3-41b6-b710-38d8ca6d27dc","ios":"levelo://app?vid=8429a31c-77f3-41b6-b710-38d8ca6d27dc"},"vehicle_type_id":"4","last_reported":1729321767,"current_range_meters":38800,"station_id":"ce4bhm12rcd13ifvqgkg","pricing_plan_id":"cebpf4jnsgd1na2vs0mg"},{"bike_id":"f99f4942-52ca-4b84-8a2c-018c06ec55b7","system_id":"levelo_inurba_marseille","lat":43.28927,"lon":5.38406,"is_reserved":false,"is_disabled":false,"rental_uris":{"android":"levelo://app?vid=f99f4942-52ca-4b84-8a2c-018c06ec55b7","ios":"levelo://app?vid=f99f4942-52ca-4b84-8a2c-018c06ec55b7"},"vehicle_type_id":"4","last_reported":1729321767,"current_range_meters":32000,"station_id":"ce4bh612rcd13ifvqe6g","pricing_plan_id":"cebpf4jnsgd1na2vs0mg"},{"bike_id":"18361c49-bdac-4926-a222-92101c5ffc08","system_id":"levelo_inurba_marseille","lat":43.32482,"lon":5.36581,"is_reserved":false,"is_disabled":false,"rental_uris":{"android":"levelo://app?vid=18361c49-bdac-4926-a222-92101c5ffc08","ios":"levelo://app?vid=18361c49-bdac-4926-a222-92101c5ffc08"},"vehicle_type_id":"4","last_reported":1729321767,"current_range_meters":33200,"station_id":"ce4bhs12rcd13ifvqhvg","pricing_plan_id":"cebpf4jnsgd1na2vs0mg"},{"bike_id":"9f6f86b4-798e-4075-859a-e1e34f084eef","system_id":"levelo_inurba_marseille","lat":43.28464,"lon":5.35895,"is_reserved":false,"is_disabled":false,"rental_uris":{"android":"levelo://app?vid=9f6f86b4-798e-4075-859a-e1e34f084eef","ios":"levelo://app?vid=9f6f86b4-798e-4075-859a-e1e34f084eef"},"vehicle_type_id":"4","last_reported":1729321767,"current_range_meters":14000,"station_id":"ce4bhah2rcd13ifvqei0","pricing_plan_id":"cebpf4jnsgd1na2vs0mg"},{"bike_id":"1240179a-5f79-4577-a91a-2c23df31c888","system_id":"levelo_inurba_marseille","lat":43.24388,"lon":5.37061,"is_reserved":false,"is_disabled":false,"rental_uris":{"android":"levelo://app?vid=1240179a-5f79-4577-a91a-2c23df31c888","ios":"levelo://app?vid=1240179a-5f79-4577-a91a-2c23df31c888"},"vehicle_type_id":"4","last_reported":1729321767,"current_range_meters":33600,"station_id":"ce4bhhh2rcd13ifvqfk0","pricing_plan_id":"cebpf4jnsgd1na2vs0mg"},{"bike_id":"cfe78fd2-5ebc-40fb-858b-89aa9fc29771","system_id":"levelo_inurba_marseille","lat":43.294069,"lon":5.378116,"is_reserved":false,"is_disabled":false,"rental_uris":{"android":"levelo://app?vid=cfe78fd2-5ebc-40fb-858b-89aa9fc29771","ios":"levelo://app?vid=cfe78fd2-5ebc-40fb-858b-89aa9fc29771"},"vehicle_type_id":"4","last_reported":1729321767,"current_range_meters":21600,"station_id":"","pricing_plan_id":"cebpf4jnsgd1na2vs0mg"},{"bike_id":"0ec183fc-4ba5-495b-a76a-5944e24baaf6","system_id":"levelo_inurba_marseille","lat":43.28411,"lon":5.37515,"is_reserved":false,"is_disabled":false,"rental_uris":{"android":"levelo://app?vid=0ec183fc-4ba5-495b-a76a-5944e24baaf6","ios":"levelo://app?vid=0ec183fc-4ba5-495b-a76a-5944e24baaf6"},"vehicle_type_id":"4","last_reported":1729321767,"current_range_meters":26000,"station_id":"ce4bh412rcd13ifvqds0","pricing_plan_id":"cebpf4jnsgd1na2vs0mg"},{"bike_id":"0697a15f-ff8e-4de6-b67c-435882cc0e42","system_id":"levelo_inurba_marseille","lat":43.28351,"lon":5.381,"is_reserved":false,"is_disabled":false,"rental_uris":{"android":"levelo://app?vid=0697a15f-ff8e-4de6-b67c-435882cc0e42","ios":"levelo://app?vid=0697a15f-ff8e-4de6-b67c-435882cc0e42"},"vehicle_type_id":"4","last_reported":1729321767,"current_range_meters":12400,"station_id":"ce4bh412rcd13ifvqdr0","pricing_plan_id":"cebpf4jnsgd1na2vs0mg"},{"bike_id":"38d67d90-2d95-4f6e-9a9f-a5ffab1fba2c","system_id":"levelo_inurba_marseille","lat":43.298991,"lon":5.436641,"is_reserved":false,"is_disabled":false,"rental_uris":{"android":"levelo://app?vid=38d67d90-2d95-4f6e-9a9f-a5ffab1fba2c","ios":"levelo://app?vid=38d67d90-2d95-4f6e-9a9f-a5ffab1fba2c"},"vehicle_type_id":"4","last_reported":1729321767,"current_range_meters":24000,"station_id":"ce4bhpp2rcd13ifvqhfg","pricing_plan_id":"cebpf4jnsgd1na2vs0mg"},{"bike_id":"fd772f6d-f0c8-4d64-973c-7125d611e024","system_id":"levelo_inurba_marseille","lat":43.28346,"lon":5.38104,"is_reserved":false,"is_disabled":false,"rental_uris":{"android":"levelo://app?vid=fd772f6d-f0c8-4d64-973c-7125d611e024","ios":"levelo://app?vid=fd772f6d-f0c8-4d64-973c-7125d611e024"},"vehicle_type_id":"4","last_reported":1729321767,"current_range_meters":38400,"station_id":"ce4bh412rcd13ifvqdr0","pricing_plan_id":"cebpf4jnsgd1na2vs0mg"},{"bike_id":"7c0319e6-ac57-4bdf-b077-513d80357757","system_id":"levelo_inurba_marseille","lat":43.28846,"lon":5.35857,"is_reserved":false,"is_disabled":false,"rental_uris":{"android":"levelo://app?vid=7c0319e6-ac57-4bdf-b077-513d80357757","ios":"levelo://app?vid=7c0319e6-ac57-4bdf-b077-513d80357757"},"vehicle_type_id":"4","last_reported":1729321767,"current_range_meters":38800,"station_id":"ce4bhb12rcd13ifvqem0","pricing_plan_id":"cebpf4jnsgd1na2vs0mg"},{"bike_id":"7bc23e55-0cb5-4e2e-8439-3972f0a178dc","system_id":"levelo_inurba_marseille","lat":43.32364,"lon":5.38882,"is_reserved":false,"is_disabled":false,"rental_uris":{"android":"levelo://app?vid=7bc23e55-0cb5-4e2e-8439-3972f0a178dc","ios":"levelo://app?vid=7bc23e55-0cb5-4e2e-8439-3972f0a178dc"},"vehicle_type_id":"4","last_reported":1729321767,"current_range_meters":11200,"station_id":"ce4bhqp2rcd13ifvqhog","pricing_plan_id":"cebpf4jnsgd1na2vs0mg"},{"bike_id":"d8b6aae6-0385-4b47-8ef5-41883b3602da","system_id":"levelo_inurba_marseille","lat":43.27385,"lon":5.3626,"is_reserved":false,"is_disabled":false,"rental_uris":{"android":"levelo://app?vid=d8b6aae6-0385-4b47-8ef5-41883b3602da","ios":"levelo://app?vid=d8b6aae6-0385-4b47-8ef5-41883b3602da"},"vehicle_type_id":"4","last_reported":1729321767,"current_range_meters":23200,"station_id":"ce4bhbh2rcd13ifvqeo0","pricing_plan_id":"cebpf4jnsgd1na2vs0mg"},{"bike_id":"8b33911e-5d42-46bd-b00d-c1d5ce72f577","system_id":"levelo_inurba_marseille","lat":43.2319,"lon":5.39986,"is_reserved":false,"is_disabled":false,"rental_uris":{"android":"levelo://app?vid=8b33911e-5d42-46bd-b00d-c1d5ce72f577","ios":"levelo://app?vid=8b33911e-5d42-46bd-b00d-c1d5ce72f577"},"vehicle_type_id":"4","last_reported":1729321767,"current_range_meters":38800,"station_id":"ce4bhn12rcd13ifvqgqg","pricing_plan_id":"cebpf4jnsgd1na2vs0mg"},{"bike_id":"9b8519d1-935a-4035-8c40-c04b46d502be","system_id":"levelo_inurba_marseille","lat":43.305939,"lon":5.393583,"is_reserved":false,"is_disabled":false,"rental_uris":{"android":"levelo://app?vid=9b8519d1-935a-4035-8c40-c04b46d502be","ios":"levelo://app?vid=9b8519d1-935a-4035-8c40-c04b46d502be"},"vehicle_type_id":"4","last_reported":1729321767,"current_range_meters":23200,"station_id":"ce4bh0p2rcd13ifvqd80","pricing_plan_id":"cebpf4jnsgd1na2vs0mg"},{"bike_id":"19f4c8bd-9374-42c0-b27b-7228ffdf8e80","system_id":"levelo_inurba_marseille","lat":43.28427,"lon":5.34995,"is_reserved":false,"is_disabled":false,"rental_uris":{"android":"levelo://app?vid=19f4c8bd-9374-42c0-b27b-7228ffdf8e80","ios":"levelo://app?vid=19f4c8bd-9374-42c0-b27b-7228ffdf8e80"},"vehicle_type_id":"4","last_reported":1729321767,"current_range_meters":38000,"station_id":"ce4bhbh2rcd13ifvqepg","pricing_plan_id":"cebpf4jnsgd1na2vs0mg"},{"bike_id":"d41d6248-2a98-4bfa-b8a8-697f7c877225","system_id":"levelo_inurba_marseille","lat":43.2861,"lon":5.37061,"is_reserved":false,"is_disabled":false,"rental_uris":{"android":"levelo://app?vid=d41d6248-2a98-4bfa-b8a8-697f7c877225","ios":"levelo://app?vid=d41d6248-2a98-4bfa-b8a8-697f7c877225"},"vehicle_type_id":"4","last_reported":1729321767,"current_range_meters":38800,"station_id":"ce4bht12rcd13ifvqi60","pricing_plan_id":"cebpf4jnsgd1na2vs0mg"},{"bike_id":"0994d7f0-fa2e-480f-b967-2b1e1b476b78","system_id":"levelo_inurba_marseille","lat":43.2319,"lon":5.3556,"is_reserved":false,"is_disabled":false,"rental_uris":{"android":"levelo://app?vid=0994d7f0-fa2e-480f-b967-2b1e1b476b78","ios":"levelo://app?vid=0994d7f0-fa2e-480f-b967-2b1e1b476b78"},"vehicle_type_id":"4","last_reported":1729321767,"current_range_meters":4400,"station_id":"ce4bhu92rcd13ifvqi70","pricing_plan_id":"cebpf4jnsgd1na2vs0mg"},{"bike_id":"e6789174-ca29-4f3e-b4c1-26a6f6f7478b","system_id":"levelo_inurba_marseille","lat":43.2572,"lon":5.41114,"is_reserved":false,"is_disabled":false,"rental_uris":{"android":"levelo://app?vid=e6789174-ca29-4f3e-b4c1-26a6f6f7478b","ios":"levelo://app?vid=e6789174-ca29-4f3e-b4c1-26a6f6f7478b"},"vehicle_type_id":"4","last_reported":1729321767,"current_range_meters":38800,"station_id":"ce4bhkp2rcd13ifvqgd0","pricing_plan_id":"cebpf4jnsgd1na2vs0mg"},{"bike_id":"41352ecd-ccf7-4501-b52c-c09f6f495c10","system_id":"levelo_inurba_marseille","lat":43.27179,"lon":5.40984,"is_reserved":false,"is_disabled":false,"rental_uris":{"android":"levelo://app?vid=41352ecd-ccf7-4501-b52c-c09f6f495c10","ios":"levelo://app?vid=41352ecd-ccf7-4501-b52c-c09f6f495c10"},"vehicle_type_id":"4","last_reported":1729321767,"current_range_meters":39200,"station_id":"ce4bhl12rcd13ifvqgf0","pricing_plan_id":"cebpf4jnsgd1na2vs0mg"},{"bike_id":"e6cd19be-6e6f-441c-b75e-4b689fd6bfcc","system_id":"levelo_inurba_marseille","lat":43.26672,"lon":5.37243,"is_reserved":false,"is_disabled":false,"rental_uris":{"android":"levelo://app?vid=e6cd19be-6e6f-441c-b75e-4b689fd6bfcc","ios":"levelo://app?vid=e6cd19be-6e6f-441c-b75e-4b689fd6bfcc"},"vehicle_type_id":"4","last_reported":1729321767,"current_range_meters":38400,"station_id":"ce4bhh12rcd13ifvqff0","pricing_plan_id":"cebpf4jnsgd1na2vs0mg"},{"bike_id":"66ccc46d-618e-4760-b09c-27382152bdab","system_id":"levelo_inurba_marseille","lat":43.2321,"lon":5.35546,"is_reserved":false,"is_disabled":false,"rental_uris":{"android":"levelo://app?vid=66ccc46d-618e-4760-b09c-27382152bdab","ios":"levelo://app?vid=66ccc46d-618e-4760-b09c-27382152bdab"},"vehicle_type_id":"4","last_reported":1729321767,"current_range_meters":24800,"station_id":"ce4bhu92rcd13ifvqi70","pricing_plan_id":"cebpf4jnsgd1na2vs0mg"},{"bike_id":"47b0677d-f1ea-44b9-ad27-95f55e4f3816","system_id":"levelo_inurba_marseille","lat":43.2396,"lon":5.36633,"is_reserved":false,"is_disabled":false,"rental_uris":{"android":"levelo://app?vid=47b0677d-f1ea-44b9-ad27-95f55e4f3816","ios":"levelo://app?vid=47b0677d-f1ea-44b9-ad27-95f55e4f3816"},"vehicle_type_id":"4","last_reported":1729321767,"current_range_meters":39200,"station_id":"ce4bhi12rcd13ifvqfp0","pricing_plan_id":"cebpf4jnsgd1na2vs0mg"},{"bike_id":"1860d57b-1c18-4f47-82b0-bfd50055f289","system_id":"levelo_inurba_marseille","lat":43.31125,"lon":5.37768,"is_reserved":false,"is_disabled":false,"rental_uris":{"android":"levelo://app?vid=1860d57b-1c18-4f47-82b0-bfd50055f289","ios":"levelo://app?vid=1860d57b-1c18-4f47-82b0-bfd50055f289"},"vehicle_type_id":"4","last_reported":1729321767,"current_range_meters":31200,"station_id":"ce4bgt92rcd13ifvqcg0","pricing_plan_id":"cebpf4jnsgd1na2vs0mg"},{"bike_id":"005dee16-b936-4845-b54d-1b96def7ff9a","system_id":"levelo_inurba_marseille","lat":43.27313,"lon":5.39088,"is_reserved":false,"is_disabled":false,"rental_uris":{"android":"levelo://app?vid=005dee16-b936-4845-b54d-1b96def7ff9a","ios":"levelo://app?vid=005dee16-b936-4845-b54d-1b96def7ff9a"},"vehicle_type_id":"4","last_reported":1729321767,"current_range_meters":30400,"station_id":"ce4bhgp2rcd13ifvqfe0","pricing_plan_id":"cebpf4jnsgd1na2vs0mg"},{"bike_id":"87b27491-5215-4140-9db2-06195f6f5368","system_id":"levelo_inurba_marseille","lat":43.28457,"lon":5.35897,"is_reserved":false,"is_disabled":false,"rental_uris":{"android":"levelo://app?vid=87b27491-5215-4140-9db2-06195f6f5368","ios":"levelo://app?vid=87b27491-5215-4140-9db2-06195f6f5368"},"vehicle_type_id":"4","last_reported":1729321767,"current_range_meters":38800,"station_id":"ce4bhah2rcd13ifvqei0","pricing_plan_id":"cebpf4jnsgd1na2vs0mg"},{"bike_id":"419a9d7d-2a1b-40b7-a37f-e4605d93d1f7","system_id":"levelo_inurba_marseille","lat":43.2319,"lon":5.39991,"is_reserved":false,"is_disabled":false,"rental_uris":{"android":"levelo://app?vid=419a9d7d-2a1b-40b7-a37f-e4605d93d1f7","ios":"levelo://app?vid=419a9d7d-2a1b-40b7-a37f-e4605d93d1f7"},"vehicle_type_id":"4","last_reported":1729321767,"current_range_meters":37600,"station_id":"ce4bhn12rcd13ifvqgqg","pricing_plan_id":"cebpf4jnsgd1na2vs0mg"},{"bike_id":"fbcdd40a-223e-4740-bca1-d5de715a7938","system_id":"levelo_inurba_marseille","lat":43.26196,"lon":5.37449,"is_reserved":false,"is_disabled":false,"rental_uris":{"android":"levelo://app?vid=fbcdd40a-223e-4740-bca1-d5de715a7938","ios":"levelo://app?vid=fbcdd40a-223e-4740-bca1-d5de715a7938"},"vehicle_type_id":"4","last_reported":1729321767,"current_range_meters":28800,"station_id":"ce4bhgp2rcd13ifvqfc0","pricing_plan_id":"cebpf4jnsgd1na2vs0mg"},{"bike_id":"8e51a74e-fd45-4aab-80de-8a95db523984","system_id":"levelo_inurba_marseille","lat":43.24386,"lon":5.37058,"is_reserved":false,"is_disabled":false,"rental_uris":{"android":"levelo://app?vid=8e51a74e-fd45-4aab-80de-8a95db523984","ios":"levelo://app?vid=8e51a74e-fd45-4aab-80de-8a95db523984"},"vehicle_type_id":"4","last_reported":1729321767,"current_range_meters":32000,"station_id":"ce4bhhh2rcd13ifvqfk0","pricing_plan_id":"cebpf4jnsgd1na2vs0mg"},{"bike_id":"e20c1a16-ed09-4e78-b6e8-1dd4107b3d3d","system_id":"levelo_inurba_marseille","lat":43.30595,"lon":5.39354,"is_reserved":false,"is_disabled":false,"rental_uris":{"android":"levelo://app?vid=e20c1a16-ed09-4e78-b6e8-1dd4107b3d3d","ios":"levelo://app?vid=e20c1a16-ed09-4e78-b6e8-1dd4107b3d3d"},"vehicle_type_id":"4","last_reported":1729321767,"current_range_meters":38800,"station_id":"ce4bh0p2rcd13ifvqd80","pricing_plan_id":"cebpf4jnsgd1na2vs0mg"},{"bike_id":"802c3928-97cc-44c8-a177-8b622a90a969","system_id":"levelo_inurba_marseille","lat":43.23193,"lon":5.3997,"is_reserved":false,"is_disabled":false,"rental_uris":{"android":"levelo://app?vid=802c3928-97cc-44c8-a177-8b622a90a969","ios":"levelo://app?vid=802c3928-97cc-44c8-a177-8b622a90a969"},"vehicle_type_id":"4","last_reported":1729321767,"current_range_meters":3600,"station_id":"ce4bhn12rcd13ifvqgqg","pricing_plan_id":"cebpf4jnsgd1na2vs0mg"},{"bike_id":"2416bf3c-f3b1-4a53-b130-133f9ffa03f1","system_id":"levelo_inurba_marseille","lat":43.3361,"lon":5.41021,"is_reserved":false,"is_disabled":false,"rental_uris":{"android":"levelo://app?vid=2416bf3c-f3b1-4a53-b130-133f9ffa03f1","ios":"levelo://app?vid=2416bf3c-f3b1-4a53-b130-133f9ffa03f1"},"vehicle_type_id":"4","last_reported":1729321767,"current_range_meters":38800,"station_id":"ce4bhqh2rcd13ifvqhmg","pricing_plan_id":"cebpf4jnsgd1na2vs0mg"},{"bike_id":"907d90e2-7e08-4846-bbc2-01977b54a9bd","system_id":"levelo_inurba_marseille","lat":43.24165,"lon":5.36395,"is_reserved":false,"is_disabled":false,"rental_uris":{"android":"levelo://app?vid=907d90e2-7e08-4846-bbc2-01977b54a9bd","ios":"levelo://app?vid=907d90e2-7e08-4846-bbc2-01977b54a9bd"},"vehicle_type_id":"4","last_reported":1729321767,"current_range_meters":14000,"station_id":"cpo36qri1sfpv3e86is0","pricing_plan_id":"cebpf4jnsgd1na2vs0mg"},{"bike_id":"48836f4d-12e6-41c1-a5c7-c5ab40f084cd","system_id":"levelo_inurba_marseille","lat":43.25579,"lon":5.38242,"is_reserved":false,"is_disabled":false,"rental_uris":{"android":"levelo://app?vid=48836f4d-12e6-41c1-a5c7-c5ab40f084cd","ios":"levelo://app?vid=48836f4d-12e6-41c1-a5c7-c5ab40f084cd"},"vehicle_type_id":"4","last_reported":1729321767,"current_range_meters":38800,"station_id":"ce4bhih2rcd13ifvqfs0","pricing_plan_id":"cebpf4jnsgd1na2vs0mg"},{"bike_id":"eb6d1ebd-084f-4340-b44b-2c28d5719fea","system_id":"levelo_inurba_marseille","lat":43.32344,"lon":5.40614,"is_reserved":false,"is_disabled":false,"rental_uris":{"android":"levelo://app?vid=eb6d1ebd-084f-4340-b44b-2c28d5719fea","ios":"levelo://app?vid=eb6d1ebd-084f-4340-b44b-2c28d5719fea"},"vehicle_type_id":"4","last_reported":1729321767,"current_range_meters":14400,"station_id":"ce4bhq92rcd13ifvqhjg","pricing_plan_id":"cebpf4jnsgd1na2vs0mg"},{"bike_id":"98cad050-14af-4056-a7e8-4f4e519efd8d","system_id":"levelo_inurba_marseille","lat":43.28457,"lon":5.35889,"is_reserved":false,"is_disabled":false,"rental_uris":{"android":"levelo://app?vid=98cad050-14af-4056-a7e8-4f4e519efd8d","ios":"levelo://app?vid=98cad050-14af-4056-a7e8-4f4e519efd8d"},"vehicle_type_id":"4","last_reported":1729321767,"current_range_meters":11600,"station_id":"ce4bhah2rcd13ifvqei0","pricing_plan_id":"cebpf4jnsgd1na2vs0mg"},{"bike_id":"f8b7bc80-3175-48ed-998b-b93301eb09d5","system_id":"levelo_inurba_marseille","lat":43.30803,"lon":5.38155,"is_reserved":false,"is_disabled":false,"rental_uris":{"android":"levelo://app?vid=f8b7bc80-3175-48ed-998b-b93301eb09d5","ios":"levelo://app?vid=f8b7bc80-3175-48ed-998b-b93301eb09d5"},"vehicle_type_id":"4","last_reported":1729321767,"current_range_meters":28000,"station_id":"ce4bgt12rcd13ifvqce0","pricing_plan_id":"cebpf4jnsgd1na2vs0mg"},{"bike_id":"ed913017-0c45-4c1c-b4ff-feacb7ef44ac","system_id":"levelo_inurba_marseille","lat":43.313285,"lon":5.396932,"is_reserved":false,"is_disabled":false,"rental_uris":{"android":"levelo://app?vid=ed913017-0c45-4c1c-b4ff-feacb7ef44ac","ios":"levelo://app?vid=ed913017-0c45-4c1c-b4ff-feacb7ef44ac"},"vehicle_type_id":"4","last_reported":1729321767,"current_range_meters":39200,"station_id":"ce4bgvp2rcd13ifvqcu0","pricing_plan_id":"cebpf4jnsgd1na2vs0mg"},{"bike_id":"af784b0a-4a68-4343-b401-9f36a1e41190","system_id":"levelo_inurba_marseille","lat":43.28419,"lon":5.34968,"is_reserved":false,"is_disabled":false,"rental_uris":{"android":"levelo://app?vid=af784b0a-4a68-4343-b401-9f36a1e41190","ios":"levelo://app?vid=af784b0a-4a68-4343-b401-9f36a1e41190"},"vehicle_type_id":"4","last_reported":1729321767,"current_range_meters":17600,"station_id":"ce4bhbh2rcd13ifvqepg","pricing_plan_id":"cebpf4jnsgd1na2vs0mg"},{"bike_id":"1b21d433-cda4-456f-aa51-673f160c6474","system_id":"levelo_inurba_marseille","lat":43.30145,"lon":5.37418,"is_reserved":false,"is_disabled":false,"rental_uris":{"android":"levelo://app?vid=1b21d433-cda4-456f-aa51-673f160c6474","ios":"levelo://app?vid=1b21d433-cda4-456f-aa51-673f160c6474"},"vehicle_type_id":"4","last_reported":1729321767,"current_range_meters":30000,"station_id":"ce4bgs92rcd13ifvqcc0","pricing_plan_id":"cebpf4jnsgd1na2vs0mg"},{"bike_id":"30b33eb0-74bb-4628-9ed5-599c2ab46a26","system_id":"levelo_inurba_marseille","lat":43.25496,"lon":5.3765,"is_reserved":false,"is_disabled":false,"rental_uris":{"android":"levelo://app?vid=30b33eb0-74bb-4628-9ed5-599c2ab46a26","ios":"levelo://app?vid=30b33eb0-74bb-4628-9ed5-599c2ab46a26"},"vehicle_type_id":"4","last_reported":1729321767,"current_range_meters":19200,"station_id":"ce4bhh12rcd13ifvqff0","pricing_plan_id":"cebpf4jnsgd1na2vs0mg"},{"bike_id":"bd37e8a0-e881-48d0-8bf0-c4e0af2752fe","system_id":"levelo_inurba_marseille","lat":43.23196,"lon":5.35552,"is_reserved":false,"is_disabled":false,"rental_uris":{"android":"levelo://app?vid=bd37e8a0-e881-48d0-8bf0-c4e0af2752fe","ios":"levelo://app?vid=bd37e8a0-e881-48d0-8bf0-c4e0af2752fe"},"vehicle_type_id":"4","last_reported":1729321767,"current_range_meters":38800,"station_id":"ce4bhu92rcd13ifvqi70","pricing_plan_id":"cebpf4jnsgd1na2vs0mg"},{"bike_id":"9b697ce4-04b2-4aeb-ad1d-d9c602b75937","system_id":"levelo_inurba_marseille","lat":43.31707,"lon":5.37755,"is_reserved":false,"is_disabled":false,"rental_uris":{"android":"levelo://app?vid=9b697ce4-04b2-4aeb-ad1d-d9c602b75937","ios":"levelo://app?vid=9b697ce4-04b2-4aeb-ad1d-d9c602b75937"},"vehicle_type_id":"4","last_reported":1729321767,"current_range_meters":38800,"station_id":"ce4bgth2rcd13ifvqch0","pricing_plan_id":"cebpf4jnsgd1na2vs0mg"},{"bike_id":"94dad7f8-6585-4b37-b691-74420d23ef13","system_id":"levelo_inurba_marseille","lat":43.30801,"lon":5.43523,"is_reserved":false,"is_disabled":false,"rental_uris":{"android":"levelo://app?vid=94dad7f8-6585-4b37-b691-74420d23ef13","ios":"levelo://app?vid=94dad7f8-6585-4b37-b691-74420d23ef13"},"vehicle_type_id":"4","last_reported":1729321767,"current_range_meters":32000,"station_id":"ce4bhph2rcd13ifvqheg","pricing_plan_id":"cebpf4jnsgd1na2vs0mg"},{"bike_id":"4562e9bb-7c1e-4e0e-95e1-858d0f8d86d1","system_id":"levelo_inurba_marseille","lat":43.23192,"lon":5.35555,"is_reserved":false,"is_disabled":false,"rental_uris":{"android":"levelo://app?vid=4562e9bb-7c1e-4e0e-95e1-858d0f8d86d1","ios":"levelo://app?vid=4562e9bb-7c1e-4e0e-95e1-858d0f8d86d1"},"vehicle_type_id":"4","last_reported":1729321767,"current_range_meters":27600,"station_id":"ce4bhu92rcd13ifvqi70","pricing_plan_id":"cebpf4jnsgd1na2vs0mg"},{"bike_id":"251d1e7f-8f9a-4fc2-9c26-e8756ab4b7e9","system_id":"levelo_inurba_marseille","lat":43.30799,"lon":5.38168,"is_reserved":false,"is_disabled":false,"rental_uris":{"android":"levelo://app?vid=251d1e7f-8f9a-4fc2-9c26-e8756ab4b7e9","ios":"levelo://app?vid=251d1e7f-8f9a-4fc2-9c26-e8756ab4b7e9"},"vehicle_type_id":"4","last_reported":1729321767,"current_range_meters":15200,"station_id":"ce4bgt12rcd13ifvqce0","pricing_plan_id":"cebpf4jnsgd1na2vs0mg"},{"bike_id":"dd9307fb-a903-4696-857c-e556a5e3b34e","system_id":"levelo_inurba_marseille","lat":43.24547,"lon":5.39521,"is_reserved":false,"is_disabled":false,"rental_uris":{"android":"levelo://app?vid=dd9307fb-a903-4696-857c-e556a5e3b34e","ios":"levelo://app?vid=dd9307fb-a903-4696-857c-e556a5e3b34e"},"vehicle_type_id":"4","last_reported":1729321767,"current_range_meters":38000,"station_id":"ce4bhlp2rcd13ifvqgjg","pricing_plan_id":"cebpf4jnsgd1na2vs0mg"},{"bike_id":"2140b6a3-5118-4150-823e-9225aeb56201","system_id":"levelo_inurba_marseille","lat":43.23195,"lon":5.35548,"is_reserved":false,"is_disabled":false,"rental_uris":{"android":"levelo://app?vid=2140b6a3-5118-4150-823e-9225aeb56201","ios":"levelo://app?vid=2140b6a3-5118-4150-823e-9225aeb56201"},"vehicle_type_id":"4","last_reported":1729321767,"current_range_meters":28000,"station_id":"ce4bhu92rcd13ifvqi70","pricing_plan_id":"cebpf4jnsgd1na2vs0mg"},{"bike_id":"f2522823-27ea-43cf-8234-ee5a9dcca0a3","system_id":"levelo_inurba_marseille","lat":43.32359,"lon":5.38883,"is_reserved":false,"is_disabled":false,"rental_uris":{"android":"levelo://app?vid=f2522823-27ea-43cf-8234-ee5a9dcca0a3","ios":"levelo://app?vid=f2522823-27ea-43cf-8234-ee5a9dcca0a3"},"vehicle_type_id":"4","last_reported":1729321767,"current_range_meters":28800,"station_id":"ce4bhqp2rcd13ifvqhog","pricing_plan_id":"cebpf4jnsgd1na2vs0mg"},{"bike_id":"7432de2d-1f24-4882-a60a-5b80baf9818f","system_id":"levelo_inurba_marseille","lat":43.30419,"lon":5.4129,"is_reserved":false,"is_disabled":false,"rental_uris":{"android":"levelo://app?vid=7432de2d-1f24-4882-a60a-5b80baf9818f","ios":"levelo://app?vid=7432de2d-1f24-4882-a60a-5b80baf9818f"},"vehicle_type_id":"4","last_reported":1729321767,"current_range_meters":38800,"station_id":"ce4bhop2rcd13ifvqh8g","pricing_plan_id":"cebpf4jnsgd1na2vs0mg"},{"bike_id":"40589edc-baeb-4043-9212-ab10116ce0d0","system_id":"levelo_inurba_marseille","lat":43.28462,"lon":5.35898,"is_reserved":false,"is_disabled":false,"rental_uris":{"android":"levelo://app?vid=40589edc-baeb-4043-9212-ab10116ce0d0","ios":"levelo://app?vid=40589edc-baeb-4043-9212-ab10116ce0d0"},"vehicle_type_id":"4","last_reported":1729321767,"current_range_meters":23200,"station_id":"ce4bhah2rcd13ifvqei0","pricing_plan_id":"cebpf4jnsgd1na2vs0mg"},{"bike_id":"d116ab63-54e5-422b-8ef9-2c8c31901cde","system_id":"levelo_inurba_marseille","lat":43.26029,"lon":5.37546,"is_reserved":false,"is_disabled":false,"rental_uris":{"android":"levelo://app?vid=d116ab63-54e5-422b-8ef9-2c8c31901cde","ios":"levelo://app?vid=d116ab63-54e5-422b-8ef9-2c8c31901cde"},"vehicle_type_id":"4","last_reported":1729321767,"current_range_meters":38800,"station_id":"ce4bhgh2rcd13ifvqfa0","pricing_plan_id":"cebpf4jnsgd1na2vs0mg"},{"bike_id":"167e160b-0c17-49ce-a07b-7b05c5eba7ef","system_id":"levelo_inurba_marseille","lat":43.29795,"lon":5.40412,"is_reserved":false,"is_disabled":false,"rental_uris":{"android":"levelo://app?vid=167e160b-0c17-49ce-a07b-7b05c5eba7ef","ios":"levelo://app?vid=167e160b-0c17-49ce-a07b-7b05c5eba7ef"},"vehicle_type_id":"4","last_reported":1729321767,"current_range_meters":3200,"station_id":"ce4bh112rcd13ifvqd90","pricing_plan_id":"cebpf4jnsgd1na2vs0mg"},{"bike_id":"6e706dcb-6e41-41b6-a172-73765c66fdaa","system_id":"levelo_inurba_marseille","lat":43.26239,"lon":5.37591,"is_reserved":false,"is_disabled":false,"rental_uris":{"android":"levelo://app?vid=6e706dcb-6e41-41b6-a172-73765c66fdaa","ios":"levelo://app?vid=6e706dcb-6e41-41b6-a172-73765c66fdaa"},"vehicle_type_id":"4","last_reported":1729321767,"current_range_meters":38400,"station_id":"ce4bhhp2rcd13ifvqfm0","pricing_plan_id":"cebpf4jnsgd1na2vs0mg"},{"bike_id":"1601a383-f0c6-479d-8219-594013c0df01","system_id":"levelo_inurba_marseille","lat":43.28461,"lon":5.35881,"is_reserved":false,"is_disabled":false,"rental_uris":{"android":"levelo://app?vid=1601a383-f0c6-479d-8219-594013c0df01","ios":"levelo://app?vid=1601a383-f0c6-479d-8219-594013c0df01"},"vehicle_type_id":"4","last_reported":1729321767,"current_range_meters":6800,"station_id":"ce4bhah2rcd13ifvqei0","pricing_plan_id":"cebpf4jnsgd1na2vs0mg"},{"bike_id":"dc507ac9-1e1f-4f15-9f95-55a4e683a3a9","system_id":"levelo_inurba_marseille","lat":43.28266,"lon":5.35067,"is_reserved":false,"is_disabled":false,"rental_uris":{"android":"levelo://app?vid=dc507ac9-1e1f-4f15-9f95-55a4e683a3a9","ios":"levelo://app?vid=dc507ac9-1e1f-4f15-9f95-55a4e683a3a9"},"vehicle_type_id":"4","last_reported":1729321767,"current_range_meters":26800,"station_id":"ce4bhbp2rcd13ifvqerg","pricing_plan_id":"cebpf4jnsgd1na2vs0mg"},{"bike_id":"71ff7bf5-519f-4879-804f-e6ebaab58e8f","system_id":"levelo_inurba_marseille","lat":43.28437,"lon":5.3918,"is_reserved":false,"is_disabled":false,"rental_uris":{"android":"levelo://app?vid=71ff7bf5-519f-4879-804f-e6ebaab58e8f","ios":"levelo://app?vid=71ff7bf5-519f-4879-804f-e6ebaab58e8f"},"vehicle_type_id":"4","last_reported":1729321767,"current_range_meters":36400,"station_id":"ce4bhoh2rcd13ifvqh5g","pricing_plan_id":"cebpf4jnsgd1na2vs0mg"},{"bike_id":"9a54bdf2-c459-4c1c-8ed0-1de6fb699d45","system_id":"levelo_inurba_marseille","lat":43.32454,"lon":5.36704,"is_reserved":false,"is_disabled":false,"rental_uris":{"android":"levelo://app?vid=9a54bdf2-c459-4c1c-8ed0-1de6fb699d45","ios":"levelo://app?vid=9a54bdf2-c459-4c1c-8ed0-1de6fb699d45"},"vehicle_type_id":"4","last_reported":1729321767,"current_range_meters":13600,"station_id":"ce4bhs12rcd13ifvqhvg","pricing_plan_id":"cebpf4jnsgd1na2vs0mg"},{"bike_id":"ab49cb35-2101-457d-97ab-33a97c5a4bee","system_id":"levelo_inurba_marseille","lat":43.32663,"lon":5.40988,"is_reserved":false,"is_disabled":false,"rental_uris":{"android":"levelo://app?vid=ab49cb35-2101-457d-97ab-33a97c5a4bee","ios":"levelo://app?vid=ab49cb35-2101-457d-97ab-33a97c5a4bee"},"vehicle_type_id":"4","last_reported":1729321767,"current_range_meters":38400,"station_id":"ce4bhpp2rcd13ifvqhgg","pricing_plan_id":"cebpf4jnsgd1na2vs0mg"},{"bike_id":"7772d39f-5e28-445c-af91-069b0cf63793","system_id":"levelo_inurba_marseille","lat":43.33765,"lon":5.37438,"is_reserved":false,"is_disabled":false,"rental_uris":{"android":"levelo://app?vid=7772d39f-5e28-445c-af91-069b0cf63793","ios":"levelo://app?vid=7772d39f-5e28-445c-af91-069b0cf63793"},"vehicle_type_id":"4","last_reported":1729321767,"current_range_meters":10000,"station_id":"","pricing_plan_id":"cebpf4jnsgd1na2vs0mg"},{"bike_id":"eb1aa966-8978-4c04-8d39-8d9901f8d888","system_id":"levelo_inurba_marseille","lat":43.28372,"lon":5.38635,"is_reserved":false,"is_disabled":false,"rental_uris":{"android":"levelo://app?vid=eb1aa966-8978-4c04-8d39-8d9901f8d888","ios":"levelo://app?vid=eb1aa966-8978-4c04-8d39-8d9901f8d888"},"vehicle_type_id":"4","last_reported":1729321767,"current_range_meters":38800,"station_id":"ce4bh492rcd13ifvqdvg","pricing_plan_id":"cebpf4jnsgd1na2vs0mg"},{"bike_id":"b61da1b6-317b-4ec8-8881-65a401d43674","system_id":"levelo_inurba_marseille","lat":43.3248,"lon":5.36586,"is_reserved":false,"is_disabled":false,"rental_uris":{"android":"levelo://app?vid=b61da1b6-317b-4ec8-8881-65a401d43674","ios":"levelo://app?vid=b61da1b6-317b-4ec8-8881-65a401d43674"},"vehicle_type_id":"4","last_reported":1729321767,"current_range_meters":31200,"station_id":"ce4bhs12rcd13ifvqhvg","pricing_plan_id":"cebpf4jnsgd1na2vs0mg"},{"bike_id":"3213665e-989c-4d22-9f5a-31c8522597dd","system_id":"levelo_inurba_marseille","lat":43.296,"lon":5.36142,"is_reserved":false,"is_disabled":false,"rental_uris":{"android":"levelo://app?vid=3213665e-989c-4d22-9f5a-31c8522597dd","ios":"levelo://app?vid=3213665e-989c-4d22-9f5a-31c8522597dd"},"vehicle_type_id":"4","last_reported":1729321767,"current_range_meters":20400,"station_id":"","pricing_plan_id":"cebpf4jnsgd1na2vs0mg"},{"bike_id":"a4115a63-1609-4834-be11-0c1a60ce541a","system_id":"levelo_inurba_marseille","lat":43.31085,"lon":5.38366,"is_reserved":false,"is_disabled":false,"rental_uris":{"android":"levelo://app?vid=a4115a63-1609-4834-be11-0c1a60ce541a","ios":"levelo://app?vid=a4115a63-1609-4834-be11-0c1a60ce541a"},"vehicle_type_id":"4","last_reported":1729321767,"current_range_meters":25600,"station_id":"ce4bgv92rcd13ifvqcr0","pricing_plan_id":"cebpf4jnsgd1na2vs0mg"},{"bike_id":"cddb2538-acdb-46a5-bc95-6e0a8d74ef0c","system_id":"levelo_inurba_marseille","lat":43.30803,"lon":5.43527,"is_reserved":false,"is_disabled":false,"rental_uris":{"android":"levelo://app?vid=cddb2538-acdb-46a5-bc95-6e0a8d74ef0c","ios":"levelo://app?vid=cddb2538-acdb-46a5-bc95-6e0a8d74ef0c"},"vehicle_type_id":"4","last_reported":1729321767,"current_range_meters":28000,"station_id":"ce4bhph2rcd13ifvqheg","pricing_plan_id":"cebpf4jnsgd1na2vs0mg"},{"bike_id":"0b800deb-d8de-4017-9625-270fd2e8f5e0","system_id":"levelo_inurba_marseille","lat":43.28726,"lon":5.36089,"is_reserved":false,"is_disabled":false,"rental_uris":{"android":"levelo://app?vid=0b800deb-d8de-4017-9625-270fd2e8f5e0","ios":"levelo://app?vid=0b800deb-d8de-4017-9625-270fd2e8f5e0"},"vehicle_type_id":"4","last_reported":1729321767,"current_range_meters":19200,"station_id":"cki0cbj6b192h4jlfktg","pricing_plan_id":"cebpf4jnsgd1na2vs0mg"},{"bike_id":"4fbbfab7-5970-4a84-85d1-212875289a2b","system_id":"levelo_inurba_marseille","lat":43.28849,"lon":5.3585,"is_reserved":false,"is_disabled":false,"rental_uris":{"android":"levelo://app?vid=4fbbfab7-5970-4a84-85d1-212875289a2b","ios":"levelo://app?vid=4fbbfab7-5970-4a84-85d1-212875289a2b"},"vehicle_type_id":"4","last_reported":1729321767,"current_range_meters":38800,"station_id":"ce4bhb12rcd13ifvqem0","pricing_plan_id":"cebpf4jnsgd1na2vs0mg"},{"bike_id":"85978b2d-96a1-4496-a15d-3917a97b0613","system_id":"levelo_inurba_marseille","lat":43.32367,"lon":5.38884,"is_reserved":false,"is_disabled":false,"rental_uris":{"android":"levelo://app?vid=85978b2d-96a1-4496-a15d-3917a97b0613","ios":"levelo://app?vid=85978b2d-96a1-4496-a15d-3917a97b0613"},"vehicle_type_id":"4","last_reported":1729321767,"current_range_meters":38000,"station_id":"ce4bhqp2rcd13ifvqhog","pricing_plan_id":"cebpf4jnsgd1na2vs0mg"},{"bike_id":"89211ee2-076f-4df3-92bd-cd8885f2e76d","system_id":"levelo_inurba_marseille","lat":43.23196,"lon":5.35544,"is_reserved":false,"is_disabled":false,"rental_uris":{"android":"levelo://app?vid=89211ee2-076f-4df3-92bd-cd8885f2e76d","ios":"levelo://app?vid=89211ee2-076f-4df3-92bd-cd8885f2e76d"},"vehicle_type_id":"4","last_reported":1729321767,"current_range_meters":24800,"station_id":"ce4bhu92rcd13ifvqi70","pricing_plan_id":"cebpf4jnsgd1na2vs0mg"},{"bike_id":"a42d053b-efc3-4d04-88dc-06d3f1dc7ac8","system_id":"levelo_inurba_marseille","lat":43.304132,"lon":5.412843,"is_reserved":false,"is_disabled":false,"rental_uris":{"android":"levelo://app?vid=a42d053b-efc3-4d04-88dc-06d3f1dc7ac8","ios":"levelo://app?vid=a42d053b-efc3-4d04-88dc-06d3f1dc7ac8"},"vehicle_type_id":"4","last_reported":1729321767,"current_range_meters":38800,"station_id":"ce4bhop2rcd13ifvqh8g","pricing_plan_id":"cebpf4jnsgd1na2vs0mg"},{"bike_id":"a60acd41-d6c7-4ce1-871c-9489eb2fe795","system_id":"levelo_inurba_marseille","lat":43.29228,"lon":5.36078,"is_reserved":false,"is_disabled":false,"rental_uris":{"android":"levelo://app?vid=a60acd41-d6c7-4ce1-871c-9489eb2fe795","ios":"levelo://app?vid=a60acd41-d6c7-4ce1-871c-9489eb2fe795"},"vehicle_type_id":"4","last_reported":1729321767,"current_range_meters":34000,"station_id":"ce4bhbh2rcd13ifvqeqg","pricing_plan_id":"cebpf4jnsgd1na2vs0mg"},{"bike_id":"720f32bc-f057-41f4-aebc-3fd98c4f7d49","system_id":"levelo_inurba_marseille","lat":43.30408,"lon":5.36753,"is_reserved":false,"is_disabled":false,"rental_uris":{"android":"levelo://app?vid=720f32bc-f057-41f4-aebc-3fd98c4f7d49","ios":"levelo://app?vid=720f32bc-f057-41f4-aebc-3fd98c4f7d49"},"vehicle_type_id":"4","last_reported":1729321767,"current_range_meters":8400,"station_id":"","pricing_plan_id":"cebpf4jnsgd1na2vs0mg"},{"bike_id":"e187053f-8652-47c0-b30c-5eceeadb8962","system_id":"levelo_inurba_marseille","lat":43.27375,"lon":5.36255,"is_reserved":false,"is_disabled":false,"rental_uris":{"android":"levelo://app?vid=e187053f-8652-47c0-b30c-5eceeadb8962","ios":"levelo://app?vid=e187053f-8652-47c0-b30c-5eceeadb8962"},"vehicle_type_id":"4","last_reported":1729321767,"current_range_meters":19200,"station_id":"ce4bhbh2rcd13ifvqeo0","pricing_plan_id":"cebpf4jnsgd1na2vs0mg"},{"bike_id":"ec856568-8217-4dcd-acd9-cbc0c1bd9ea0","system_id":"levelo_inurba_marseille","lat":43.3108,"lon":5.3835,"is_reserved":false,"is_disabled":false,"rental_uris":{"android":"levelo://app?vid=ec856568-8217-4dcd-acd9-cbc0c1bd9ea0","ios":"levelo://app?vid=ec856568-8217-4dcd-acd9-cbc0c1bd9ea0"},"vehicle_type_id":"4","last_reported":1729321767,"current_range_meters":32000,"station_id":"ce4bgv92rcd13ifvqcr0","pricing_plan_id":"cebpf4jnsgd1na2vs0mg"},{"bike_id":"6a1e31b6-d029-4b53-901f-4bdc7b2141ad","system_id":"levelo_inurba_marseille","lat":43.33026,"lon":5.39036,"is_reserved":false,"is_disabled":false,"rental_uris":{"android":"levelo://app?vid=6a1e31b6-d029-4b53-901f-4bdc7b2141ad","ios":"levelo://app?vid=6a1e31b6-d029-4b53-901f-4bdc7b2141ad"},"vehicle_type_id":"4","last_reported":1729321767,"current_range_meters":25600,"station_id":"ce4bhr92rcd13ifvqhrg","pricing_plan_id":"cebpf4jnsgd1na2vs0mg"},{"bike_id":"61639483-42fe-460c-b7cd-3f7f504004bb","system_id":"levelo_inurba_marseille","lat":43.29851,"lon":5.36282,"is_reserved":false,"is_disabled":false,"rental_uris":{"android":"levelo://app?vid=61639483-42fe-460c-b7cd-3f7f504004bb","ios":"levelo://app?vid=61639483-42fe-460c-b7cd-3f7f504004bb"},"vehicle_type_id":"4","last_reported":1729321767,"current_range_meters":38000,"station_id":"ce4bgpp2rcd13ifvqc3g","pricing_plan_id":"cebpf4jnsgd1na2vs0mg"},{"bike_id":"9aea9002-a689-48d3-b310-466b79893bd3","system_id":"levelo_inurba_marseille","lat":43.30641,"lon":5.40079,"is_reserved":false,"is_disabled":false,"rental_uris":{"android":"levelo://app?vid=9aea9002-a689-48d3-b310-466b79893bd3","ios":"levelo://app?vid=9aea9002-a689-48d3-b310-466b79893bd3"},"vehicle_type_id":"4","last_reported":1729321767,"current_range_meters":38800,"station_id":"ce4bh112rcd13ifvqda0","pricing_plan_id":"cebpf4jnsgd1na2vs0mg"},{"bike_id":"11a21bb0-f15a-49f4-8d19-d7ea309cb0d1","system_id":"levelo_inurba_marseille","lat":43.3176,"lon":5.39012,"is_reserved":false,"is_disabled":false,"rental_uris":{"android":"levelo://app?vid=11a21bb0-f15a-49f4-8d19-d7ea309cb0d1","ios":"levelo://app?vid=11a21bb0-f15a-49f4-8d19-d7ea309cb0d1"},"vehicle_type_id":"4","last_reported":1729321767,"current_range_meters":9600,"station_id":"ce4bhqp2rcd13ifvqhng","pricing_plan_id":"cebpf4jnsgd1na2vs0mg"},{"bike_id":"77beba7d-a141-4422-8ee2-04dbcdb74b98","system_id":"levelo_inurba_marseille","lat":43.28461,"lon":5.35883,"is_reserved":false,"is_disabled":false,"rental_uris":{"android":"levelo://app?vid=77beba7d-a141-4422-8ee2-04dbcdb74b98","ios":"levelo://app?vid=77beba7d-a141-4422-8ee2-04dbcdb74b98"},"vehicle_type_id":"4","last_reported":1729321767,"current_range_meters":9200,"station_id":"ce4bhah2rcd13ifvqei0","pricing_plan_id":"cebpf4jnsgd1na2vs0mg"},{"bike_id":"349d02b4-9b44-4c01-b73c-982963eba25c","system_id":"levelo_inurba_marseille","lat":43.32338,"lon":5.40622,"is_reserved":false,"is_disabled":false,"rental_uris":{"android":"levelo://app?vid=349d02b4-9b44-4c01-b73c-982963eba25c","ios":"levelo://app?vid=349d02b4-9b44-4c01-b73c-982963eba25c"},"vehicle_type_id":"4","last_reported":1729321767,"current_range_meters":36000,"station_id":"ce4bhq92rcd13ifvqhjg","pricing_plan_id":"cebpf4jnsgd1na2vs0mg"},{"bike_id":"1a033abb-16f6-452d-8850-1323583b7cab","system_id":"levelo_inurba_marseille","lat":43.28153,"lon":5.42642,"is_reserved":false,"is_disabled":false,"rental_uris":{"android":"levelo://app?vid=1a033abb-16f6-452d-8850-1323583b7cab","ios":"levelo://app?vid=1a033abb-16f6-452d-8850-1323583b7cab"},"vehicle_type_id":"4","last_reported":1729321767,"current_range_meters":32800,"station_id":"ce4bhnh2rcd13ifvqgug","pricing_plan_id":"cebpf4jnsgd1na2vs0mg"},{"bike_id":"717a8e4c-4f2a-40ca-9b97-5909c033b2ff","system_id":"levelo_inurba_marseille","lat":43.2846,"lon":5.35896,"is_reserved":false,"is_disabled":false,"rental_uris":{"android":"levelo://app?vid=717a8e4c-4f2a-40ca-9b97-5909c033b2ff","ios":"levelo://app?vid=717a8e4c-4f2a-40ca-9b97-5909c033b2ff"},"vehicle_type_id":"4","last_reported":1729321767,"current_range_meters":27200,"station_id":"ce4bhah2rcd13ifvqei0","pricing_plan_id":"cebpf4jnsgd1na2vs0mg"},{"bike_id":"87440bd7-4730-412f-b52f-03b263c3d6ba","system_id":"levelo_inurba_marseille","lat":43.23189,"lon":5.35554,"is_reserved":false,"is_disabled":false,"rental_uris":{"android":"levelo://app?vid=87440bd7-4730-412f-b52f-03b263c3d6ba","ios":"levelo://app?vid=87440bd7-4730-412f-b52f-03b263c3d6ba"},"vehicle_type_id":"4","last_reported":1729321767,"current_range_meters":8800,"station_id":"ce4bhu92rcd13ifvqi70","pricing_plan_id":"cebpf4jnsgd1na2vs0mg"},{"bike_id":"4b88317a-2c71-4cfd-b616-6b36d3a67a26","system_id":"levelo_inurba_marseille","lat":43.29534,"lon":5.37458,"is_reserved":false,"is_disabled":false,"rental_uris":{"android":"levelo://app?vid=4b88317a-2c71-4cfd-b616-6b36d3a67a26","ios":"levelo://app?vid=4b88317a-2c71-4cfd-b616-6b36d3a67a26"},"vehicle_type_id":"4","last_reported":1729321767,"current_range_meters":9200,"station_id":"ce4bgkp2rcd13ifvqbmg","pricing_plan_id":"cebpf4jnsgd1na2vs0mg"},{"bike_id":"55808fba-1d42-4ff1-81c8-34437b7a9fd4","system_id":"levelo_inurba_marseille","lat":43.30805,"lon":5.38166,"is_reserved":false,"is_disabled":false,"rental_uris":{"android":"levelo://app?vid=55808fba-1d42-4ff1-81c8-34437b7a9fd4","ios":"levelo://app?vid=55808fba-1d42-4ff1-81c8-34437b7a9fd4"},"vehicle_type_id":"4","last_reported":1729321767,"current_range_meters":38800,"station_id":"ce4bgt12rcd13ifvqce0","pricing_plan_id":"cebpf4jnsgd1na2vs0mg"},{"bike_id":"c54aa037-7b33-4a8f-a1bc-453b7edcd41d","system_id":"levelo_inurba_marseille","lat":43.31122,"lon":5.3777,"is_reserved":false,"is_disabled":false,"rental_uris":{"android":"levelo://app?vid=c54aa037-7b33-4a8f-a1bc-453b7edcd41d","ios":"levelo://app?vid=c54aa037-7b33-4a8f-a1bc-453b7edcd41d"},"vehicle_type_id":"4","last_reported":1729321767,"current_range_meters":37600,"station_id":"ce4bgt92rcd13ifvqcg0","pricing_plan_id":"cebpf4jnsgd1na2vs0mg"},{"bike_id":"f9544e58-c6ec-4784-9f14-ef2475ca53be","system_id":"levelo_inurba_marseille","lat":43.30482,"lon":5.37928,"is_reserved":false,"is_disabled":false,"rental_uris":{"android":"levelo://app?vid=f9544e58-c6ec-4784-9f14-ef2475ca53be","ios":"levelo://app?vid=f9544e58-c6ec-4784-9f14-ef2475ca53be"},"vehicle_type_id":"4","last_reported":1729321767,"current_range_meters":38800,"station_id":"ce4bgup2rcd13ifvqcn0","pricing_plan_id":"cebpf4jnsgd1na2vs0mg"},{"bike_id":"4ff7bc80-ac31-458a-842b-165b12ffbbbb","system_id":"levelo_inurba_marseille","lat":43.24079,"lon":5.37759,"is_reserved":false,"is_disabled":false,"rental_uris":{"android":"levelo://app?vid=4ff7bc80-ac31-458a-842b-165b12ffbbbb","ios":"levelo://app?vid=4ff7bc80-ac31-458a-842b-165b12ffbbbb"},"vehicle_type_id":"4","last_reported":1729321767,"current_range_meters":28800,"station_id":"ce4bhnp2rcd13ifvqgvg","pricing_plan_id":"cebpf4jnsgd1na2vs0mg"},{"bike_id":"b2e4a27d-8f49-43c0-adad-dabfbc78fbe5","system_id":"levelo_inurba_marseille","lat":43.24662,"lon":5.38158,"is_reserved":false,"is_disabled":false,"rental_uris":{"android":"levelo://app?vid=b2e4a27d-8f49-43c0-adad-dabfbc78fbe5","ios":"levelo://app?vid=b2e4a27d-8f49-43c0-adad-dabfbc78fbe5"},"vehicle_type_id":"4","last_reported":1729321767,"current_range_meters":25600,"station_id":"ce4bhih2rcd13ifvqfr0","pricing_plan_id":"cebpf4jnsgd1na2vs0mg"},{"bike_id":"f54a6788-34a3-4b1e-94af-30c754533eb3","system_id":"levelo_inurba_marseille","lat":43.28666,"lon":5.36356,"is_reserved":false,"is_disabled":false,"rental_uris":{"android":"levelo://app?vid=f54a6788-34a3-4b1e-94af-30c754533eb3","ios":"levelo://app?vid=f54a6788-34a3-4b1e-94af-30c754533eb3"},"vehicle_type_id":"4","last_reported":1729321767,"current_range_meters":38800,"station_id":"ce4bhah2rcd13ifvqej0","pricing_plan_id":"cebpf4jnsgd1na2vs0mg"},{"bike_id":"90cca9d0-c935-484e-8f6a-ce1275b1560c","system_id":"levelo_inurba_marseille","lat":43.28416,"lon":5.34968,"is_reserved":false,"is_disabled":false,"rental_uris":{"android":"levelo://app?vid=90cca9d0-c935-484e-8f6a-ce1275b1560c","ios":"levelo://app?vid=90cca9d0-c935-484e-8f6a-ce1275b1560c"},"vehicle_type_id":"4","last_reported":1729321767,"current_range_meters":28800,"station_id":"ce4bhbh2rcd13ifvqepg","pricing_plan_id":"cebpf4jnsgd1na2vs0mg"},{"bike_id":"4829353d-4d4c-4568-bbd5-1bc28f6a9ddc","system_id":"levelo_inurba_marseille","lat":43.28857,"lon":5.39344,"is_reserved":false,"is_disabled":false,"rental_uris":{"android":"levelo://app?vid=4829353d-4d4c-4568-bbd5-1bc28f6a9ddc","ios":"levelo://app?vid=4829353d-4d4c-4568-bbd5-1bc28f6a9ddc"},"vehicle_type_id":"4","last_reported":1729321767,"current_range_meters":30000,"station_id":"ce4bh2p2rcd13ifvqdi0","pricing_plan_id":"cebpf4jnsgd1na2vs0mg"},{"bike_id":"a1674350-ccd0-4497-ad56-b3ec52cd6e94","system_id":"levelo_inurba_marseille","lat":43.24561,"lon":5.37968,"is_reserved":false,"is_disabled":false,"rental_uris":{"android":"levelo://app?vid=a1674350-ccd0-4497-ad56-b3ec52cd6e94","ios":"levelo://app?vid=a1674350-ccd0-4497-ad56-b3ec52cd6e94"},"vehicle_type_id":"4","last_reported":1729321767,"current_range_meters":9600,"station_id":"","pricing_plan_id":"cebpf4jnsgd1na2vs0mg"},{"bike_id":"814c222c-0d65-4b51-944b-528f375e5fe2","system_id":"levelo_inurba_marseille","lat":43.24806,"lon":5.37455,"is_reserved":false,"is_disabled":false,"rental_uris":{"android":"levelo://app?vid=814c222c-0d65-4b51-944b-528f375e5fe2","ios":"levelo://app?vid=814c222c-0d65-4b51-944b-528f375e5fe2"},"vehicle_type_id":"4","last_reported":1729321767,"current_range_meters":38800,"station_id":"ce4bhgh2rcd13ifvqfb0","pricing_plan_id":"cebpf4jnsgd1na2vs0mg"},{"bike_id":"d2deb079-c00f-40b2-ac02-53e99dfb152e","system_id":"levelo_inurba_marseille","lat":43.24809,"lon":5.37456,"is_reserved":false,"is_disabled":false,"rental_uris":{"android":"levelo://app?vid=d2deb079-c00f-40b2-ac02-53e99dfb152e","ios":"levelo://app?vid=d2deb079-c00f-40b2-ac02-53e99dfb152e"},"vehicle_type_id":"4","last_reported":1729321767,"current_range_meters":30000,"station_id":"ce4bhgh2rcd13ifvqfb0","pricing_plan_id":"cebpf4jnsgd1na2vs0mg"},{"bike_id":"adfb8656-b892-4635-ad0c-54f0d49632fc","system_id":"levelo_inurba_marseille","lat":43.27605,"lon":5.36111,"is_reserved":false,"is_disabled":false,"rental_uris":{"android":"levelo://app?vid=adfb8656-b892-4635-ad0c-54f0d49632fc","ios":"levelo://app?vid=adfb8656-b892-4635-ad0c-54f0d49632fc"},"vehicle_type_id":"4","last_reported":1729321767,"current_range_meters":35200,"station_id":"ce4bgj92rcd13ifvqbe0","pricing_plan_id":"cebpf4jnsgd1na2vs0mg"},{"bike_id":"1f8fe77f-c28a-493e-8046-17ab0ea5d03a","system_id":"levelo_inurba_marseille","lat":43.28727,"lon":5.36096,"is_reserved":false,"is_disabled":false,"rental_uris":{"android":"levelo://app?vid=1f8fe77f-c28a-493e-8046-17ab0ea5d03a","ios":"levelo://app?vid=1f8fe77f-c28a-493e-8046-17ab0ea5d03a"},"vehicle_type_id":"4","last_reported":1729321767,"current_range_meters":37600,"station_id":"cki0cbj6b192h4jlfktg","pricing_plan_id":"cebpf4jnsgd1na2vs0mg"},{"bike_id":"e8da62c6-bbec-48e4-86d2-9e1bf2d17e6b","system_id":"levelo_inurba_marseille","lat":43.32483,"lon":5.3657,"is_reserved":false,"is_disabled":false,"rental_uris":{"android":"levelo://app?vid=e8da62c6-bbec-48e4-86d2-9e1bf2d17e6b","ios":"levelo://app?vid=e8da62c6-bbec-48e4-86d2-9e1bf2d17e6b"},"vehicle_type_id":"4","last_reported":1729321767,"current_range_meters":38800,"station_id":"ce4bhs12rcd13ifvqhvg","pricing_plan_id":"cebpf4jnsgd1na2vs0mg"},{"bike_id":"006bbfd0-294d-4716-b026-030ad88cf679","system_id":"levelo_inurba_marseille","lat":43.24392,"lon":5.37056,"is_reserved":false,"is_disabled":false,"rental_uris":{"android":"levelo://app?vid=006bbfd0-294d-4716-b026-030ad88cf679","ios":"levelo://app?vid=006bbfd0-294d-4716-b026-030ad88cf679"},"vehicle_type_id":"4","last_reported":1729321767,"current_range_meters":39200,"station_id":"ce4bhhh2rcd13ifvqfk0","pricing_plan_id":"cebpf4jnsgd1na2vs0mg"},{"bike_id":"c1cfbd29-e858-4d20-a958-3e360d8a56ad","system_id":"levelo_inurba_marseille","lat":43.24173,"lon":5.3973,"is_reserved":false,"is_disabled":false,"rental_uris":{"android":"levelo://app?vid=c1cfbd29-e858-4d20-a958-3e360d8a56ad","ios":"levelo://app?vid=c1cfbd29-e858-4d20-a958-3e360d8a56ad"},"vehicle_type_id":"4","last_reported":1729321767,"current_range_meters":30000,"station_id":"ce4bhn12rcd13ifvqgpg","pricing_plan_id":"cebpf4jnsgd1na2vs0mg"},{"bike_id":"f966ff40-d3ef-4e40-807c-412a1505a3e6","system_id":"levelo_inurba_marseille","lat":43.24811,"lon":5.37457,"is_reserved":false,"is_disabled":false,"rental_uris":{"android":"levelo://app?vid=f966ff40-d3ef-4e40-807c-412a1505a3e6","ios":"levelo://app?vid=f966ff40-d3ef-4e40-807c-412a1505a3e6"},"vehicle_type_id":"4","last_reported":1729321767,"current_range_meters":30800,"station_id":"ce4bhgh2rcd13ifvqfb0","pricing_plan_id":"cebpf4jnsgd1na2vs0mg"},{"bike_id":"7b5164b4-90cc-41bc-a797-681402c746de","system_id":"levelo_inurba_marseille","lat":43.25,"lon":5.38932,"is_reserved":false,"is_disabled":false,"rental_uris":{"android":"levelo://app?vid=7b5164b4-90cc-41bc-a797-681402c746de","ios":"levelo://app?vid=7b5164b4-90cc-41bc-a797-681402c746de"},"vehicle_type_id":"4","last_reported":1729321767,"current_range_meters":10800,"station_id":"ce4bhgp2rcd13ifvqfd0","pricing_plan_id":"cebpf4jnsgd1na2vs0mg"},{"bike_id":"e6ed5f7d-c77d-4693-bcad-00f108a535a8","system_id":"levelo_inurba_marseille","lat":43.25001,"lon":5.38939,"is_reserved":false,"is_disabled":false,"rental_uris":{"android":"levelo://app?vid=e6ed5f7d-c77d-4693-bcad-00f108a535a8","ios":"levelo://app?vid=e6ed5f7d-c77d-4693-bcad-00f108a535a8"},"vehicle_type_id":"4","last_reported":1729321767,"current_range_meters":31200,"station_id":"ce4bhgp2rcd13ifvqfd0","pricing_plan_id":"cebpf4jnsgd1na2vs0mg"},{"bike_id":"d77de414-ca1a-409e-b7a6-47916177fca8","system_id":"levelo_inurba_marseille","lat":43.24994,"lon":5.38935,"is_reserved":false,"is_disabled":false,"rental_uris":{"android":"levelo://app?vid=d77de414-ca1a-409e-b7a6-47916177fca8","ios":"levelo://app?vid=d77de414-ca1a-409e-b7a6-47916177fca8"},"vehicle_type_id":"4","last_reported":1729321767,"current_range_meters":28800,"station_id":"ce4bhgp2rcd13ifvqfd0","pricing_plan_id":"cebpf4jnsgd1na2vs0mg"},{"bike_id":"67002dc0-7780-415c-a493-d0d19de0ec0f","system_id":"levelo_inurba_marseille","lat":43.27997,"lon":5.40015,"is_reserved":false,"is_disabled":false,"rental_uris":{"android":"levelo://app?vid=67002dc0-7780-415c-a493-d0d19de0ec0f","ios":"levelo://app?vid=67002dc0-7780-415c-a493-d0d19de0ec0f"},"vehicle_type_id":"4","last_reported":1729321767,"current_range_meters":20400,"station_id":"ce4bho92rcd13ifvqh4g","pricing_plan_id":"cebpf4jnsgd1na2vs0mg"},{"bike_id":"99a4b7b5-8914-4330-85d9-ded1ccb6a91a","system_id":"levelo_inurba_marseille","lat":43.31166,"lon":5.38714,"is_reserved":false,"is_disabled":false,"rental_uris":{"android":"levelo://app?vid=99a4b7b5-8914-4330-85d9-ded1ccb6a91a","ios":"levelo://app?vid=99a4b7b5-8914-4330-85d9-ded1ccb6a91a"},"vehicle_type_id":"4","last_reported":1729321767,"current_range_meters":27600,"station_id":"ce4bgv12rcd13ifvqcp0","pricing_plan_id":"cebpf4jnsgd1na2vs0mg"},{"bike_id":"a4b68ade-3015-4e5f-9f20-2b9cf9653466","system_id":"levelo_inurba_marseille","lat":43.30801,"lon":5.38154,"is_reserved":false,"is_disabled":false,"rental_uris":{"android":"levelo://app?vid=a4b68ade-3015-4e5f-9f20-2b9cf9653466","ios":"levelo://app?vid=a4b68ade-3015-4e5f-9f20-2b9cf9653466"},"vehicle_type_id":"4","last_reported":1729321767,"current_range_meters":38800,"station_id":"ce4bgt12rcd13ifvqce0","pricing_plan_id":"cebpf4jnsgd1na2vs0mg"},{"bike_id":"5b033739-1b95-49da-9b8d-294c3cabbf99","system_id":"levelo_inurba_marseille","lat":43.24177,"lon":5.39734,"is_reserved":false,"is_disabled":false,"rental_uris":{"android":"levelo://app?vid=5b033739-1b95-49da-9b8d-294c3cabbf99","ios":"levelo://app?vid=5b033739-1b95-49da-9b8d-294c3cabbf99"},"vehicle_type_id":"4","last_reported":1729321767,"current_range_meters":28000,"station_id":"ce4bhn12rcd13ifvqgpg","pricing_plan_id":"cebpf4jnsgd1na2vs0mg"},{"bike_id":"0bce4ef8-7835-41aa-ab56-b9f75005f6be","system_id":"levelo_inurba_marseille","lat":43.28719,"lon":5.37943,"is_reserved":false,"is_disabled":false,"rental_uris":{"android":"levelo://app?vid=0bce4ef8-7835-41aa-ab56-b9f75005f6be","ios":"levelo://app?vid=0bce4ef8-7835-41aa-ab56-b9f75005f6be"},"vehicle_type_id":"4","last_reported":1729321767,"current_range_meters":38000,"station_id":"ce4bh9p2rcd13ifvqec0","pricing_plan_id":"cebpf4jnsgd1na2vs0mg"},{"bike_id":"ecf5cd40-9aad-4b30-9849-ba305daf63ca","system_id":"levelo_inurba_marseille","lat":43.31698,"lon":5.40463,"is_reserved":false,"is_disabled":false,"rental_uris":{"android":"levelo://app?vid=ecf5cd40-9aad-4b30-9849-ba305daf63ca","ios":"levelo://app?vid=ecf5cd40-9aad-4b30-9849-ba305daf63ca"},"vehicle_type_id":"4","last_reported":1729321767,"current_range_meters":25200,"station_id":"ce4bh012rcd13ifvqd00","pricing_plan_id":"cebpf4jnsgd1na2vs0mg"},{"bike_id":"0a2f0c4e-0f57-4751-af28-b28179c52c5c","system_id":"levelo_inurba_marseille","lat":43.25086,"lon":5.3952,"is_reserved":false,"is_disabled":false,"rental_uris":{"android":"levelo://app?vid=0a2f0c4e-0f57-4751-af28-b28179c52c5c","ios":"levelo://app?vid=0a2f0c4e-0f57-4751-af28-b28179c52c5c"},"vehicle_type_id":"4","last_reported":1729321767,"current_range_meters":12800,"station_id":"ce4bhm12rcd13ifvqgkg","pricing_plan_id":"cebpf4jnsgd1na2vs0mg"},{"bike_id":"4dbbf305-7300-417e-a06a-9158dedb68cb","system_id":"levelo_inurba_marseille","lat":43.26565,"lon":5.39016,"is_reserved":false,"is_disabled":false,"rental_uris":{"android":"levelo://app?vid=4dbbf305-7300-417e-a06a-9158dedb68cb","ios":"levelo://app?vid=4dbbf305-7300-417e-a06a-9158dedb68cb"},"vehicle_type_id":"4","last_reported":1729321767,"current_range_meters":30400,"station_id":"ce4bhe12rcd13ifvqf30","pricing_plan_id":"cebpf4jnsgd1na2vs0mg"},{"bike_id":"1359d6a6-3231-4088-952f-358d63fa881e","system_id":"levelo_inurba_marseille","lat":43.2396,"lon":5.36638,"is_reserved":false,"is_disabled":false,"rental_uris":{"android":"levelo://app?vid=1359d6a6-3231-4088-952f-358d63fa881e","ios":"levelo://app?vid=1359d6a6-3231-4088-952f-358d63fa881e"},"vehicle_type_id":"4","last_reported":1729321767,"current_range_meters":38800,"station_id":"ce4bhi12rcd13ifvqfp0","pricing_plan_id":"cebpf4jnsgd1na2vs0mg"},{"bike_id":"f8550026-9d66-40c7-9cd0-f63b41bf941a","system_id":"levelo_inurba_marseille","lat":43.30355,"lon":5.41878,"is_reserved":false,"is_disabled":false,"rental_uris":{"android":"levelo://app?vid=f8550026-9d66-40c7-9cd0-f63b41bf941a","ios":"levelo://app?vid=f8550026-9d66-40c7-9cd0-f63b41bf941a"},"vehicle_type_id":"4","last_reported":1729321767,"current_range_meters":39200,"station_id":"ce4bhop2rcd13ifvqh7g","pricing_plan_id":"cebpf4jnsgd1na2vs0mg"},{"bike_id":"2efb1272-3ee9-4aef-890e-f081f26e6e75","system_id":"levelo_inurba_marseille","lat":43.24178,"lon":5.39731,"is_reserved":false,"is_disabled":false,"rental_uris":{"android":"levelo://app?vid=2efb1272-3ee9-4aef-890e-f081f26e6e75","ios":"levelo://app?vid=2efb1272-3ee9-4aef-890e-f081f26e6e75"},"vehicle_type_id":"4","last_reported":1729321767,"current_range_meters":8000,"station_id":"ce4bhn12rcd13ifvqgpg","pricing_plan_id":"cebpf4jnsgd1na2vs0mg"},{"bike_id":"be2bbaa1-f672-4dc8-a1c0-85466066b76d","system_id":"levelo_inurba_marseille","lat":43.2319,"lon":5.35548,"is_reserved":false,"is_disabled":false,"rental_uris":{"android":"levelo://app?vid=be2bbaa1-f672-4dc8-a1c0-85466066b76d","ios":"levelo://app?vid=be2bbaa1-f672-4dc8-a1c0-85466066b76d"},"vehicle_type_id":"4","last_reported":1729321767,"current_range_meters":24800,"station_id":"ce4bhu92rcd13ifvqi70","pricing_plan_id":"cebpf4jnsgd1na2vs0mg"},{"bike_id":"a4b68d83-e5a3-486e-a921-b7a81ceaf128","system_id":"levelo_inurba_marseille","lat":43.25497,"lon":5.37651,"is_reserved":false,"is_disabled":false,"rental_uris":{"android":"levelo://app?vid=a4b68d83-e5a3-486e-a921-b7a81ceaf128","ios":"levelo://app?vid=a4b68d83-e5a3-486e-a921-b7a81ceaf128"},"vehicle_type_id":"4","last_reported":1729321767,"current_range_meters":10800,"station_id":"ce4bhh12rcd13ifvqff0","pricing_plan_id":"cebpf4jnsgd1na2vs0mg"},{"bike_id":"62892d86-e1bb-439a-b933-f2f04fa52ac0","system_id":"levelo_inurba_marseille","lat":43.28609,"lon":5.37065,"is_reserved":false,"is_disabled":false,"rental_uris":{"android":"levelo://app?vid=62892d86-e1bb-439a-b933-f2f04fa52ac0","ios":"levelo://app?vid=62892d86-e1bb-439a-b933-f2f04fa52ac0"},"vehicle_type_id":"4","last_reported":1729321767,"current_range_meters":6800,"station_id":"ce4bht12rcd13ifvqi60","pricing_plan_id":"cebpf4jnsgd1na2vs0mg"},{"bike_id":"5715e832-098d-4c62-8619-ea0204aa01d5","system_id":"levelo_inurba_marseille","lat":43.27067,"lon":5.42272,"is_reserved":false,"is_disabled":false,"rental_uris":{"android":"levelo://app?vid=5715e832-098d-4c62-8619-ea0204aa01d5","ios":"levelo://app?vid=5715e832-098d-4c62-8619-ea0204aa01d5"},"vehicle_type_id":"4","last_reported":1729321767,"current_range_meters":31200,"station_id":"ce4bhk92rcd13ifvqgb0","pricing_plan_id":"cebpf4jnsgd1na2vs0mg"},{"bike_id":"55248ddf-1ece-4402-85ea-9af0693abb74","system_id":"levelo_inurba_marseille","lat":43.25503,"lon":5.37648,"is_reserved":false,"is_disabled":false,"rental_uris":{"android":"levelo://app?vid=55248ddf-1ece-4402-85ea-9af0693abb74","ios":"levelo://app?vid=55248ddf-1ece-4402-85ea-9af0693abb74"},"vehicle_type_id":"4","last_reported":1729321767,"current_range_meters":20400,"station_id":"ce4bhh12rcd13ifvqff0","pricing_plan_id":"cebpf4jnsgd1na2vs0mg"},{"bike_id":"1ba3c57d-fe8a-4cbb-b7ac-5af8e752d070","system_id":"levelo_inurba_marseille","lat":43.2984,"lon":5.36265,"is_reserved":false,"is_disabled":false,"rental_uris":{"android":"levelo://app?vid=1ba3c57d-fe8a-4cbb-b7ac-5af8e752d070","ios":"levelo://app?vid=1ba3c57d-fe8a-4cbb-b7ac-5af8e752d070"},"vehicle_type_id":"4","last_reported":1729321767,"current_range_meters":26000,"station_id":"ce4bgpp2rcd13ifvqc3g","pricing_plan_id":"cebpf4jnsgd1na2vs0mg"},{"bike_id":"465f0c39-dd1b-4b2f-ae9a-5c569cbd0b7e","system_id":"levelo_inurba_marseille","lat":43.308849,"lon":5.371894,"is_reserved":false,"is_disabled":false,"rental_uris":{"android":"levelo://app?vid=465f0c39-dd1b-4b2f-ae9a-5c569cbd0b7e","ios":"levelo://app?vid=465f0c39-dd1b-4b2f-ae9a-5c569cbd0b7e"},"vehicle_type_id":"4","last_reported":1729321767,"current_range_meters":32400,"station_id":"ce4bguh2rcd13ifvqckg","pricing_plan_id":"cebpf4jnsgd1na2vs0mg"},{"bike_id":"beda84f2-2ab3-4094-b3d0-26ff850c3402","system_id":"levelo_inurba_marseille","lat":43.30449,"lon":5.38892,"is_reserved":false,"is_disabled":false,"rental_uris":{"android":"levelo://app?vid=beda84f2-2ab3-4094-b3d0-26ff850c3402","ios":"levelo://app?vid=beda84f2-2ab3-4094-b3d0-26ff850c3402"},"vehicle_type_id":"4","last_reported":1729321767,"current_range_meters":36400,"station_id":"ce4bgk12rcd13ifvqbi0","pricing_plan_id":"cebpf4jnsgd1na2vs0mg"},{"bike_id":"a7f37877-e87d-4bf4-934e-1246d043031f","system_id":"levelo_inurba_marseille","lat":43.29282,"lon":5.36844,"is_reserved":false,"is_disabled":false,"rental_uris":{"android":"levelo://app?vid=a7f37877-e87d-4bf4-934e-1246d043031f","ios":"levelo://app?vid=a7f37877-e87d-4bf4-934e-1246d043031f"},"vehicle_type_id":"4","last_reported":1729321767,"current_range_meters":36400,"station_id":"ce4bhbp2rcd13ifvqesg","pricing_plan_id":"cebpf4jnsgd1na2vs0mg"},{"bike_id":"2dffce44-7cfd-4d42-813e-c4b2870080b3","system_id":"levelo_inurba_marseille","lat":43.28075,"lon":5.39651,"is_reserved":false,"is_disabled":false,"rental_uris":{"android":"levelo://app?vid=2dffce44-7cfd-4d42-813e-c4b2870080b3","ios":"levelo://app?vid=2dffce44-7cfd-4d42-813e-c4b2870080b3"},"vehicle_type_id":"4","last_reported":1729321767,"current_range_meters":34000,"station_id":"ce4bho12rcd13ifvqh2g","pricing_plan_id":"cebpf4jnsgd1na2vs0mg"},{"bike_id":"8801ecbe-11a5-4cfd-b03b-940c4096a5bb","system_id":"levelo_inurba_marseille","lat":43.28943,"lon":5.36627,"is_reserved":false,"is_disabled":false,"rental_uris":{"android":"levelo://app?vid=8801ecbe-11a5-4cfd-b03b-940c4096a5bb","ios":"levelo://app?vid=8801ecbe-11a5-4cfd-b03b-940c4096a5bb"},"vehicle_type_id":"4","last_reported":1729321767,"current_range_meters":38800,"station_id":"ce4bhap2rcd13ifvqek0","pricing_plan_id":"cebpf4jnsgd1na2vs0mg"},{"bike_id":"d1828a1a-0da8-4255-b5b6-b9fe7cb344b1","system_id":"levelo_inurba_marseille","lat":43.30157,"lon":5.38077,"is_reserved":false,"is_disabled":false,"rental_uris":{"android":"levelo://app?vid=d1828a1a-0da8-4255-b5b6-b9fe7cb344b1","ios":"levelo://app?vid=d1828a1a-0da8-4255-b5b6-b9fe7cb344b1"},"vehicle_type_id":"4","last_reported":1729321767,"current_range_meters":35600,"station_id":"ce4bgjp2rcd13ifvqbh0","pricing_plan_id":"cebpf4jnsgd1na2vs0mg"},{"bike_id":"3664398f-378f-46f2-bd12-30042ad8db9d","system_id":"levelo_inurba_marseille","lat":43.23188,"lon":5.39977,"is_reserved":false,"is_disabled":false,"rental_uris":{"android":"levelo://app?vid=3664398f-378f-46f2-bd12-30042ad8db9d","ios":"levelo://app?vid=3664398f-378f-46f2-bd12-30042ad8db9d"},"vehicle_type_id":"4","last_reported":1729321767,"current_range_meters":26800,"station_id":"ce4bhn12rcd13ifvqgqg","pricing_plan_id":"cebpf4jnsgd1na2vs0mg"},{"bike_id":"6c801f48-4d07-40c7-adaf-9153acc6e7e3","system_id":"levelo_inurba_marseille","lat":43.26507,"lon":5.39531,"is_reserved":false,"is_disabled":false,"rental_uris":{"android":"levelo://app?vid=6c801f48-4d07-40c7-adaf-9153acc6e7e3","ios":"levelo://app?vid=6c801f48-4d07-40c7-adaf-9153acc6e7e3"},"vehicle_type_id":"4","last_reported":1729321767,"current_range_meters":36800,"station_id":"ce4bhi12rcd13ifvqfq0","pricing_plan_id":"cebpf4jnsgd1na2vs0mg"},{"bike_id":"a9d80141-cb04-4f88-bcc5-9763572e3517","system_id":"levelo_inurba_marseille","lat":43.23197,"lon":5.35549,"is_reserved":false,"is_disabled":false,"rental_uris":{"android":"levelo://app?vid=a9d80141-cb04-4f88-bcc5-9763572e3517","ios":"levelo://app?vid=a9d80141-cb04-4f88-bcc5-9763572e3517"},"vehicle_type_id":"4","last_reported":1729321767,"current_range_meters":25200,"station_id":"ce4bhu92rcd13ifvqi70","pricing_plan_id":"cebpf4jnsgd1na2vs0mg"},{"bike_id":"6bb6eaea-6464-4250-8b65-6f9c52c53a3f","system_id":"levelo_inurba_marseille","lat":43.31728,"lon":5.42395,"is_reserved":false,"is_disabled":false,"rental_uris":{"android":"levelo://app?vid=6bb6eaea-6464-4250-8b65-6f9c52c53a3f","ios":"levelo://app?vid=6bb6eaea-6464-4250-8b65-6f9c52c53a3f"},"vehicle_type_id":"4","last_reported":1729321767,"current_range_meters":38800,"station_id":"ce4bhp92rcd13ifvqhbg","pricing_plan_id":"cebpf4jnsgd1na2vs0mg"},{"bike_id":"ee99a5d9-f447-482d-9f3e-4ee93f3f9df0","system_id":"levelo_inurba_marseille","lat":43.30545,"lon":5.38444,"is_reserved":false,"is_disabled":false,"rental_uris":{"android":"levelo://app?vid=ee99a5d9-f447-482d-9f3e-4ee93f3f9df0","ios":"levelo://app?vid=ee99a5d9-f447-482d-9f3e-4ee93f3f9df0"},"vehicle_type_id":"4","last_reported":1729321767,"current_range_meters":38800,"station_id":"ce4bgg92rcd13ifvqb30","pricing_plan_id":"cebpf4jnsgd1na2vs0mg"},{"bike_id":"25047a17-3ec6-414e-9b3c-cf1d6583afad","system_id":"levelo_inurba_marseille","lat":43.27175,"lon":5.40988,"is_reserved":false,"is_disabled":false,"rental_uris":{"android":"levelo://app?vid=25047a17-3ec6-414e-9b3c-cf1d6583afad","ios":"levelo://app?vid=25047a17-3ec6-414e-9b3c-cf1d6583afad"},"vehicle_type_id":"4","last_reported":1729321767,"current_range_meters":11600,"station_id":"ce4bhl12rcd13ifvqgf0","pricing_plan_id":"cebpf4jnsgd1na2vs0mg"},{"bike_id":"5c3ef40a-1043-4b22-9482-6540e21976b7","system_id":"levelo_inurba_marseille","lat":43.28374,"lon":5.38632,"is_reserved":false,"is_disabled":false,"rental_uris":{"android":"levelo://app?vid=5c3ef40a-1043-4b22-9482-6540e21976b7","ios":"levelo://app?vid=5c3ef40a-1043-4b22-9482-6540e21976b7"},"vehicle_type_id":"4","last_reported":1729321767,"current_range_meters":37600,"station_id":"ce4bh492rcd13ifvqdvg","pricing_plan_id":"cebpf4jnsgd1na2vs0mg"},