{"last_updated":1687698903,"ttl":30,"version":"2.2","data":{"bikes":[{"bike_id":"574b0a1c-fec8-48b0-8d9f-4fee07673be3","system_id":"levelo_inurba_marseille","lat":43.31237,"lon":5.36922,"is_reserved":false,"is_disabled":false,"rental_uris":{"android":"levelo://app?vid=574b0a1c-fec8-48b0-8d9f-4fee07673be3","ios":"levelo://app?vid=574b0a1c-fec8-48b0-8d9f-4fee07673be3"},"vehicle_type_id":"4","last_reported":1687698904,"current_range_meters":20000,"station_id":"","pricing_plan_id":"free"},{"bike_id":"ef47d56a-9bad-43ac-bb3d-6be3684ab758","system_id":"levelo_inurba_marseille","lat":43.309076,"lon":5.368465,"is_reserved":false,"is_disabled":false,"rental_uris":{"android":"levelo://app?vid=ef47d56a-9bad-43ac-bb3d-6be3684ab758","ios":"levelo://app?vid=ef47d56a-9bad-43ac-bb3d-6be3684ab758"},"vehicle_type_id":"4","last_reported":1687698904,"current_range_meters":3200,"station_id":"ce4bgn92rcd13ifvqbvg","pricing_plan_id":"free"},{"bike_id":"b20fb364-7eff-4c76-810f-fb4a91bdfbaf","system_id":"levelo_inurba_marseille","lat":43.30609,"lon":5.37224,"is_reserved":false,"is_disabled":false,"rental_uris":{"android":"levelo://app?vid=b20fb364-7eff-4c76-810f-fb4a91bdfbaf","ios":"levelo://app?vid=b20fb364-7eff-4c76-810f-fb4a91bdfbaf"},"vehicle_type_id":"4","last_reported":1687698904,"current_range_meters":29600,"station_id":"ce4bgqh2rcd13ifvqc4g","pricing_plan_id":"free"},{"bike_id":"2a8ca94b-2d19-4049-bbd3-b9208ae6c09b","system_id":"levelo_inurba_marseille","lat":43.311125,"lon":5.377624,"is_reserved":false,"is_disabled":false,"rental_uris":{"android":"levelo://app?vid=2a8ca94b-2d19-4049-bbd3-b9208ae6c09b","ios":"levelo://app?vid=2a8ca94b-2d19-4049-bbd3-b9208ae6c09b"},"vehicle_type_id":"4","last_reported":1687698904,"current_range_meters":15200,"station_id":"ce4bgt92rcd13ifvqcg0","pricing_plan_id":"free"},{"bike_id":"e80487f7-72d1-4762-9463-0986171b4db0","system_id":"levelo_inurba_marseille","lat":43.31705,"lon":5.37758,"is_reserved":false,"is_disabled":false,"rental_uris":{"android":"levelo://app?vid=e80487f7-72d1-4762-9463-0986171b4db0","ios":"levelo://app?vid=e80487f7-72d1-4762-9463-0986171b4db0"},"vehicle_type_id":"4","last_reported":1687698904,"current_range_meters":6000,"station_id":"ce4bgth2rcd13ifvqch0","pricing_plan_id":"free"},{"bike_id":"d95b4636-e0f8-420d-8f47-373b792adb74","system_id":"levelo_inurba_marseille","lat":43.30598,"lon":5.37485,"is_reserved":false,"is_disabled":false,"rental_uris":{"android":"levelo://app?vid=d95b4636-e0f8-420d-8f47-373b792adb74","ios":"levelo://app?vid=d95b4636-e0f8-420d-8f47-373b792adb74"},"vehicle_type_id":"4","last_reported":1687698904,"current_range_meters":22000,"station_id":"","pricing_plan_id":"free"},{"bike_id":"cb8b1387-d8af-42e0-b4a9-acc526dd9ff5","system_id":"levelo_inurba_marseille","lat":43.31775,"lon":5.37781,"is_reserved":false,"is_disabled":false,"rental_uris":{"android":"levelo://app?vid=cb8b1387-d8af-42e0-b4a9-acc526dd9ff5","ios":"levelo://app?vid=cb8b1387-d8af-42e0-b4a9-acc526dd9ff5"},"vehicle_type_id":"4","last_reported":1687698904,"current_range_meters":24000,"station_id":"","pricing_plan_id":"free"},{"bike_id":"387ce27e-3999-4745-b131-e1e0c05b54e8","system_id":"levelo_inurba_marseille","lat":43.315293,"lon":5.380349,"is_reserved":false,"is_disabled":false,"rental_uris":{"android":"levelo://app?vid=387ce27e-3999-4745-b131-e1e0c05b54e8","ios":"levelo://app?vid=387ce27e-3999-4745-b131-e1e0c05b54e8"},"vehicle_type_id":"4","last_reported":1687698904,"current_range_meters":29600,"station_id":"ce4bhsp2rcd13ifvqi50","pricing_plan_id":"free"},{"bike_id":"923d8300-f1a4-4e55-9860-17fac09e1efc","system_id":"levelo_inurba_marseille","lat":43.315289,"lon":5.380349,"is_reserved":false,"is_disabled":false,"rental_uris":{"android":"levelo://app?vid=923d8300-f1a4-4e55-9860-17fac09e1efc","ios":"levelo://app?vid=923d8300-f1a4-4e55-9860-17fac09e1efc"},"vehicle_type_id":"4","last_reported":1687698904,"current_range_meters":28000,"station_id":"ce4bhsp2rcd13ifvqi50","pricing_plan_id":"free"},{"bike_id":"6923d93a-8778-47a0-8c72-25449f608c18","system_id":"levelo_inurba_marseille","lat":43.315289,"lon":5.380349,"is_reserved":false,"is_disabled":false,"rental_uris":{"android":"levelo://app?vid=6923d93a-8778-47a0-8c72-25449f608c18","ios":"levelo://app?vid=6923d93a-8778-47a0-8c72-25449f608c18"},"vehicle_type_id":"4","last_reported":1687698904,"current_range_meters":21600,"station_id":"ce4bhsp2rcd13ifvqi50","pricing_plan_id":"free"},{"bike_id":"f1b68414-b8ac-4183-a999-0bfa20e50c47","system_id":"levelo_inurba_marseille","lat":43.315289,"lon":5.380349,"is_reserved":false,"is_disabled":false,"rental_uris":{"android":"levelo://app?vid=f1b68414-b8ac-4183-a999-0bfa20e50c47","ios":"levelo://app?vid=f1b68414-b8ac-4183-a999-0bfa20e50c47"},"vehicle_type_id":"4","last_reported":1687698904,"current_range_meters":16800,"station_id":"ce4bhsp2rcd13ifvqi50","pricing_plan_id":"free"},{"bike_id":"848370a7-ea30-43da-897f-0480b017837d","system_id":"levelo_inurba_marseille","lat":43.301939,"lon":5.366286,"is_reserved":false,"is_disabled":false,"rental_uris":{"android":"levelo://app?vid=848370a7-ea30-43da-897f-0480b017837d","ios":"levelo://app?vid=848370a7-ea30-43da-897f-0480b017837d"},"vehicle_type_id":"4","last_reported":1687698904,"current_range_meters":26000,"station_id":"ce4bgrh2rcd13ifvqc8g","pricing_plan_id":"free"},{"bike_id":"7961c058-6bbf-43fe-9e62-f3ba9264f471","system_id":"levelo_inurba_marseille","lat":43.30298,"lon":5.37344,"is_reserved":false,"is_disabled":false,"rental_uris":{"android":"levelo://app?vid=7961c058-6bbf-43fe-9e62-f3ba9264f471","ios":"levelo://app?vid=7961c058-6bbf-43fe-9e62-f3ba9264f471"},"vehicle_type_id":"4","last_reported":1687698904,"current_range_meters":5200,"station_id":"","pricing_plan_id":"free"},{"bike_id":"fe3f00fa-3e0b-4f37-b198-2240bd5fbda2","system_id":"levelo_inurba_marseille","lat":43.30152,"lon":5.37409,"is_reserved":false,"is_disabled":false,"rental_uris":{"android":"levelo://app?vid=fe3f00fa-3e0b-4f37-b198-2240bd5fbda2","ios":"levelo://app?vid=fe3f00fa-3e0b-4f37-b198-2240bd5fbda2"},"vehicle_type_id":"4","last_reported":1687698904,"current_range_meters":0,"station_id":"ce4bgs92rcd13ifvqcc0","pricing_plan_id":"free"},{"bike_id":"25bcc21c-84b0-43f8-8ed1-2713382bd734","system_id":"levelo_inurba_marseille","lat":43.32,"lon":5.38147,"is_reserved":false,"is_disabled":false,"rental_uris":{"android":"levelo://app?vid=25bcc21c-84b0-43f8-8ed1-2713382bd734","ios":"levelo://app?vid=25bcc21c-84b0-43f8-8ed1-2713382bd734"},"vehicle_type_id":"4","last_reported":1687698904,"current_range_meters":22400,"station_id":"ce4bhr12rcd13ifvqhpg","pricing_plan_id":"free"},{"bike_id":"7e9a47a8-5d6c-4e19-9cd5-24ee65ebc02d","system_id":"levelo_inurba_marseille","lat":43.31997,"lon":5.38151,"is_reserved":false,"is_disabled":false,"rental_uris":{"android":"levelo://app?vid=7e9a47a8-5d6c-4e19-9cd5-24ee65ebc02d","ios":"levelo://app?vid=7e9a47a8-5d6c-4e19-9cd5-24ee65ebc02d"},"vehicle_type_id":"4","last_reported":1687698904,"current_range_meters":27600,"station_id":"ce4bhr12rcd13ifvqhpg","pricing_plan_id":"free"},{"bike_id":"9fb2af00-a3bb-4d59-9a9c-bf6fb58d47f0","system_id":"levelo_inurba_marseille","lat":43.31997,"lon":5.38153,"is_reserved":false,"is_disabled":false,"rental_uris":{"android":"levelo://app?vid=9fb2af00-a3bb-4d59-9a9c-bf6fb58d47f0","ios":"levelo://app?vid=9fb2af00-a3bb-4d59-9a9c-bf6fb58d47f0"},"vehicle_type_id":"4","last_reported":1687698904,"current_range_meters":30000,"station_id":"ce4bhr12rcd13ifvqhpg","pricing_plan_id":"free"},{"bike_id":"8d8e0424-a554-44d1-aac7-2925f426b147","system_id":"levelo_inurba_marseille","lat":43.32,"lon":5.38154,"is_reserved":false,"is_disabled":false,"rental_uris":{"android":"levelo://app?vid=8d8e0424-a554-44d1-aac7-2925f426b147","ios":"levelo://app?vid=8d8e0424-a554-44d1-aac7-2925f426b147"},"vehicle_type_id":"4","last_reported":1687698904,"current_range_meters":7200,"station_id":"ce4bhr12rcd13ifvqhpg","pricing_plan_id":"free"},{"bike_id":"e5564a1b-7eaa-42d7-9eac-0b69cc97b61e","system_id":"levelo_inurba_marseille","lat":43.32005,"lon":5.3815,"is_reserved":false,"is_disabled":false,"rental_uris":{"android":"levelo://app?vid=e5564a1b-7eaa-42d7-9eac-0b69cc97b61e","ios":"levelo://app?vid=e5564a1b-7eaa-42d7-9eac-0b69cc97b61e"},"vehicle_type_id":"4","last_reported":1687698904,"current_range_meters":15200,"station_id":"ce4bhr12rcd13ifvqhpg","pricing_plan_id":"free"},{"bike_id":"07ff2635-d98f-4ab0-a1e7-c23b6a62407f","system_id":"levelo_inurba_marseille","lat":43.31365,"lon":5.38486,"is_reserved":false,"is_disabled":false,"rental_uris":{"android":"levelo://app?vid=07ff2635-d98f-4ab0-a1e7-c23b6a62407f","ios":"levelo://app?vid=07ff2635-d98f-4ab0-a1e7-c23b6a62407f"},"vehicle_type_id":"4","last_reported":1687698904,"current_range_meters":10400,"station_id":"ce4bgt92rcd13ifvqcf0","pricing_plan_id":"free"},{"bike_id":"1fec6f45-6427-45a6-8419-bbfa8ef0e9ff","system_id":"levelo_inurba_marseille","lat":43.299222,"lon":5.365554,"is_reserved":false,"is_disabled":false,"rental_uris":{"android":"levelo://app?vid=1fec6f45-6427-45a6-8419-bbfa8ef0e9ff","ios":"levelo://app?vid=1fec6f45-6427-45a6-8419-bbfa8ef0e9ff"},"vehicle_type_id":"4","last_reported":1687698904,"current_range_meters":26000,"station_id":"ce4bgm92rcd13ifvqbr0","pricing_plan_id":"free"},{"bike_id":"87e6c183-ade6-4c16-9eff-67e18f4fefa5","system_id":"levelo_inurba_marseille","lat":43.29855,"lon":5.36287,"is_reserved":false,"is_disabled":false,"rental_uris":{"android":"levelo://app?vid=87e6c183-ade6-4c16-9eff-67e18f4fefa5","ios":"levelo://app?vid=87e6c183-ade6-4c16-9eff-67e18f4fefa5"},"vehicle_type_id":"4","last_reported":1687698904,"current_range_meters":20400,"station_id":"ce4bgpp2rcd13ifvqc3g","pricing_plan_id":"free"},{"bike_id":"13d68dbc-2df3-45fe-a36b-5ff0431ad66a","system_id":"levelo_inurba_marseille","lat":43.29854,"lon":5.36285,"is_reserved":false,"is_disabled":false,"rental_uris":{"android":"levelo://app?vid=13d68dbc-2df3-45fe-a36b-5ff0431ad66a","ios":"levelo://app?vid=13d68dbc-2df3-45fe-a36b-5ff0431ad66a"},"vehicle_type_id":"4","last_reported":1687698904,"current_range_meters":27600,"station_id":"ce4bgpp2rcd13ifvqc3g","pricing_plan_id":"free"},{"bike_id":"19ad4888-81bc-4a85-914d-6290a0a69cf1","system_id":"levelo_inurba_marseille","lat":43.29853,"lon":5.36286,"is_reserved":false,"is_disabled":false,"rental_uris":{"android":"levelo://app?vid=19ad4888-81bc-4a85-914d-6290a0a69cf1","ios":"levelo://app?vid=19ad4888-81bc-4a85-914d-6290a0a69cf1"},"vehicle_type_id":"4","last_reported":1687698904,"current_range_meters":16400,"station_id":"ce4bgpp2rcd13ifvqc3g","pricing_plan_id":"free"},{"bike_id":"5d8f5295-2eee-42a3-9747-6423eb7c8fbe","system_id":"levelo_inurba_marseille","lat":43.30536,"lon":5.38435,"is_reserved":false,"is_disabled":false,"rental_uris":{"android":"levelo://app?vid=5d8f5295-2eee-42a3-9747-6423eb7c8fbe","ios":"levelo://app?vid=5d8f5295-2eee-42a3-9747-6423eb7c8fbe"},"vehicle_type_id":"4","last_reported":1687698904,"current_range_meters":14000,"station_id":"ce4bgg92rcd13ifvqb30","pricing_plan_id":"free"},{"bike_id":"1580a472-182f-4d91-8a6c-4c3a23a9c034","system_id":"levelo_inurba_marseille","lat":43.302,"lon":5.3821,"is_reserved":false,"is_disabled":false,"rental_uris":{"android":"levelo://app?vid=1580a472-182f-4d91-8a6c-4c3a23a9c034","ios":"levelo://app?vid=1580a472-182f-4d91-8a6c-4c3a23a9c034"},"vehicle_type_id":"4","last_reported":1687698904,"current_range_meters":13600,"station_id":"","pricing_plan_id":"free"},{"bike_id":"cbdd73a9-8831-4dab-9e8d-2ce4e630f6d2","system_id":"levelo_inurba_marseille","lat":43.328371,"lon":5.366909,"is_reserved":false,"is_disabled":false,"rental_uris":{"android":"levelo://app?vid=cbdd73a9-8831-4dab-9e8d-2ce4e630f6d2","ios":"levelo://app?vid=cbdd73a9-8831-4dab-9e8d-2ce4e630f6d2"},"vehicle_type_id":"4","last_reported":1687698904,"current_range_meters":26000,"station_id":"ce4bhs92rcd13ifvqi0g","pricing_plan_id":"free"},{"bike_id":"84310711-9ffd-45bf-a8e1-79683581878e","system_id":"levelo_inurba_marseille","lat":43.328371,"lon":5.366909,"is_reserved":false,"is_disabled":false,"rental_uris":{"android":"levelo://app?vid=84310711-9ffd-45bf-a8e1-79683581878e","ios":"levelo://app?vid=84310711-9ffd-45bf-a8e1-79683581878e"},"vehicle_type_id":"4","last_reported":1687698904,"current_range_meters":21600,"station_id":"ce4bhs92rcd13ifvqi0g","pricing_plan_id":"free"},{"bike_id":"fa75de9b-bf38-4a3f-a7a0-ea6376d7c028","system_id":"levelo_inurba_marseille","lat":43.328371,"lon":5.366909,"is_reserved":false,"is_disabled":false,"rental_uris":{"android":"levelo://app?vid=fa75de9b-bf38-4a3f-a7a0-ea6376d7c028","ios":"levelo://app?vid=fa75de9b-bf38-4a3f-a7a0-ea6376d7c028"},"vehicle_type_id":"4","last_reported":1687698904,"current_range_meters":26800,"station_id":"ce4bhs92rcd13ifvqi0g","pricing_plan_id":"free"},{"bike_id":"69b77209-c63b-4337-88d0-560dbcbb6b23","system_id":"levelo_inurba_marseille","lat":43.297163,"lon":5.365866,"is_reserved":false,"is_disabled":false,"rental_uris":{"android":"levelo://app?vid=69b77209-c63b-4337-88d0-560dbcbb6b23","ios":"levelo://app?vid=69b77209-c63b-4337-88d0-560dbcbb6b23"},"vehicle_type_id":"4","last_reported":1687698904,"current_range_meters":10400,"station_id":"ce4bgn12rcd13ifvqbt0","pricing_plan_id":"free"},{"bike_id":"bbcba801-aef7-4aaa-8356-84ee79ef2b85","system_id":"levelo_inurba_marseille","lat":43.328371,"lon":5.366909,"is_reserved":false,"is_disabled":false,"rental_uris":{"android":"levelo://app?vid=bbcba801-aef7-4aaa-8356-84ee79ef2b85","ios":"levelo://app?vid=bbcba801-aef7-4aaa-8356-84ee79ef2b85"},"vehicle_type_id":"4","last_reported":1687698904,"current_range_meters":24000,"station_id":"ce4bhs92rcd13ifvqi0g","pricing_plan_id":"free"},{"bike_id":"6c6205e5-5698-4933-afb2-7335e6b4ae8b","system_id":"levelo_inurba_marseille","lat":43.32833,"lon":5.36684,"is_reserved":false,"is_disabled":false,"rental_uris":{"android":"levelo://app?vid=6c6205e5-5698-4933-afb2-7335e6b4ae8b","ios":"levelo://app?vid=6c6205e5-5698-4933-afb2-7335e6b4ae8b"},"vehicle_type_id":"4","last_reported":1687698904,"current_range_meters":5200,"station_id":"ce4bhs92rcd13ifvqi0g","pricing_plan_id":"free"},{"bike_id":"9823f69b-7618-447c-88b9-9a8290da0996","system_id":"levelo_inurba_marseille","lat":43.32834,"lon":5.36695,"is_reserved":false,"is_disabled":false,"rental_uris":{"android":"levelo://app?vid=9823f69b-7618-447c-88b9-9a8290da0996","ios":"levelo://app?vid=9823f69b-7618-447c-88b9-9a8290da0996"},"vehicle_type_id":"4","last_reported":1687698904,"current_range_meters":9600,"station_id":"ce4bhs92rcd13ifvqi0g","pricing_plan_id":"free"},{"bike_id":"dd0a6546-b8f4-4620-ae02-5768d70d2dbe","system_id":"levelo_inurba_marseille","lat":43.32834,"lon":5.36696,"is_reserved":false,"is_disabled":false,"rental_uris":{"android":"levelo://app?vid=dd0a6546-b8f4-4620-ae02-5768d70d2dbe","ios":"levelo://app?vid=dd0a6546-b8f4-4620-ae02-5768d70d2dbe"},"vehicle_type_id":"4","last_reported":1687698904,"current_range_meters":21600,"station_id":"ce4bhs92rcd13ifvqi0g","pricing_plan_id":"free"},{"bike_id":"8b17aad1-d072-4063-bcd5-d1dd5ac05981","system_id":"levelo_inurba_marseille","lat":43.32834,"lon":5.36689,"is_reserved":false,"is_disabled":false,"rental_uris":{"android":"levelo://app?vid=8b17aad1-d072-4063-bcd5-d1dd5ac05981","ios":"levelo://app?vid=8b17aad1-d072-4063-bcd5-d1dd5ac05981"},"vehicle_type_id":"4","last_reported":1687698904,"current_range_meters":30800,"station_id":"ce4bhs92rcd13ifvqi0g","pricing_plan_id":"free"},{"bike_id":"5ff46439-b446-4022-b673-e754ffaf071b","system_id":"levelo_inurba_marseille","lat":43.32835,"lon":5.36693,"is_reserved":false,"is_disabled":false,"rental_uris":{"android":"levelo://app?vid=5ff46439-b446-4022-b673-e754ffaf071b","ios":"levelo://app?vid=5ff46439-b446-4022-b673-e754ffaf071b"},"vehicle_type_id":"4","last_reported":1687698904,"current_range_meters":6000,"station_id":"ce4bhs92rcd13ifvqi0g","pricing_plan_id":"free"},{"bike_id":"8cd194c3-4946-47d4-8472-6a93aa928d08","system_id":"levelo_inurba_marseille","lat":43.32842,"lon":5.36685,"is_reserved":false,"is_disabled":false,"rental_uris":{"android":"levelo://app?vid=8cd194c3-4946-47d4-8472-6a93aa928d08","ios":"levelo://app?vid=8cd194c3-4946-47d4-8472-6a93aa928d08"},"vehicle_type_id":"4","last_reported":1687698904,"current_range_meters":26000,"station_id":"ce4bhs92rcd13ifvqi0g","pricing_plan_id":"free"},{"bike_id":"f274e640-e188-4f93-a6b7-5ab8586948a9","system_id":"levelo_inurba_marseille","lat":43.297163,"lon":5.365866,"is_reserved":false,"is_disabled":false,"rental_uris":{"android":"levelo://app?vid=f274e640-e188-4f93-a6b7-5ab8586948a9","ios":"levelo://app?vid=f274e640-e188-4f93-a6b7-5ab8586948a9"},"vehicle_type_id":"4","last_reported":1687698904,"current_range_meters":31200,"station_id":"ce4bgn12rcd13ifvqbt0","pricing_plan_id":"free"},{"bike_id":"8d98417a-cbe4-4269-8bc9-598373a7d5de","system_id":"levelo_inurba_marseille","lat":43.3286,"lon":5.36283,"is_reserved":false,"is_disabled":false,"rental_uris":{"android":"levelo://app?vid=8d98417a-cbe4-4269-8bc9-598373a7d5de","ios":"levelo://app?vid=8d98417a-cbe4-4269-8bc9-598373a7d5de"},"vehicle_type_id":"4","last_reported":1687698904,"current_range_meters":17200,"station_id":"","pricing_plan_id":"free"},{"bike_id":"178e5f86-5fc2-4937-8a9d-317f449c0abd","system_id":"levelo_inurba_marseille","lat":43.299028,"lon":5.381509,"is_reserved":false,"is_disabled":false,"rental_uris":{"android":"levelo://app?vid=178e5f86-5fc2-4937-8a9d-317f449c0abd","ios":"levelo://app?vid=178e5f86-5fc2-4937-8a9d-317f449c0abd"},"vehicle_type_id":"4","last_reported":1687698904,"current_range_meters":16800,"station_id":"ce4bgj12rcd13ifvqbc0","pricing_plan_id":"free"},{"bike_id":"4616c52d-c424-4ac0-bddd-ee2c9dff6464","system_id":"levelo_inurba_marseille","lat":43.309589,"lon":5.390258,"is_reserved":false,"is_disabled":false,"rental_uris":{"android":"levelo://app?vid=4616c52d-c424-4ac0-bddd-ee2c9dff6464","ios":"levelo://app?vid=4616c52d-c424-4ac0-bddd-ee2c9dff6464"},"vehicle_type_id":"4","last_reported":1687698904,"current_range_meters":24800,"station_id":"ce4bgup2rcd13ifvqco0","pricing_plan_id":"free"},{"bike_id":"041bc147-ef2f-419b-bb81-deca3bdf89e2","system_id":"levelo_inurba_marseille","lat":43.29611,"lon":5.36046,"is_reserved":false,"is_disabled":false,"rental_uris":{"android":"levelo://app?vid=041bc147-ef2f-419b-bb81-deca3bdf89e2","ios":"levelo://app?vid=041bc147-ef2f-419b-bb81-deca3bdf89e2"},"vehicle_type_id":"4","last_reported":1687698904,"current_range_meters":2800,"station_id":"","pricing_plan_id":"free"},{"bike_id":"d8c30a85-a1a1-4ab3-b270-d127fc3c85be","system_id":"levelo_inurba_marseille","lat":43.309589,"lon":5.390258,"is_reserved":false,"is_disabled":false,"rental_uris":{"android":"levelo://app?vid=d8c30a85-a1a1-4ab3-b270-d127fc3c85be","ios":"levelo://app?vid=d8c30a85-a1a1-4ab3-b270-d127fc3c85be"},"vehicle_type_id":"4","last_reported":1687698904,"current_range_meters":17600,"station_id":"ce4bgup2rcd13ifvqco0","pricing_plan_id":"free"},{"bike_id":"1ddbc197-13de-4520-9005-c2d99e520398","system_id":"levelo_inurba_marseille","lat":43.309589,"lon":5.390258,"is_reserved":false,"is_disabled":false,"rental_uris":{"android":"levelo://app?vid=1ddbc197-13de-4520-9005-c2d99e520398","ios":"levelo://app?vid=1ddbc197-13de-4520-9005-c2d99e520398"},"vehicle_type_id":"4","last_reported":1687698904,"current_range_meters":28400,"station_id":"ce4bgup2rcd13ifvqco0","pricing_plan_id":"free"},{"bike_id":"1b8ec2ca-550d-4042-b31a-a61760529368","system_id":"levelo_inurba_marseille","lat":43.309589,"lon":5.390258,"is_reserved":false,"is_disabled":false,"rental_uris":{"android":"levelo://app?vid=1b8ec2ca-550d-4042-b31a-a61760529368","ios":"levelo://app?vid=1b8ec2ca-550d-4042-b31a-a61760529368"},"vehicle_type_id":"4","last_reported":1687698904,"current_range_meters":25600,"station_id":"ce4bgup2rcd13ifvqco0","pricing_plan_id":"free"},{"bike_id":"28504786-d644-4f73-ae1a-d4d958e82d01","system_id":"levelo_inurba_marseille","lat":43.317557,"lon":5.390173,"is_reserved":false,"is_disabled":false,"rental_uris":{"android":"levelo://app?vid=28504786-d644-4f73-ae1a-d4d958e82d01","ios":"levelo://app?vid=28504786-d644-4f73-ae1a-d4d958e82d01"},"vehicle_type_id":"4","last_reported":1687698904,"current_range_meters":24400,"station_id":"ce4bhqp2rcd13ifvqhng","pricing_plan_id":"free"},{"bike_id":"0c75ff21-f97d-40d1-9d56-01d6385e1c28","system_id":"levelo_inurba_marseille","lat":43.29967,"lon":5.38498,"is_reserved":false,"is_disabled":false,"rental_uris":{"android":"levelo://app?vid=0c75ff21-f97d-40d1-9d56-01d6385e1c28","ios":"levelo://app?vid=0c75ff21-f97d-40d1-9d56-01d6385e1c28"},"vehicle_type_id":"4","last_reported":1687698904,"current_range_meters":18800,"station_id":"ce4bgj92rcd13ifvqbd0","pricing_plan_id":"free"},{"bike_id":"01d8a3fe-f044-4375-a24b-ffb33a3bd8a2","system_id":"levelo_inurba_marseille","lat":43.32367,"lon":5.388836,"is_reserved":false,"is_disabled":false,"rental_uris":{"android":"levelo://app?vid=01d8a3fe-f044-4375-a24b-ffb33a3bd8a2","ios":"levelo://app?vid=01d8a3fe-f044-4375-a24b-ffb33a3bd8a2"},"vehicle_type_id":"4","last_reported":1687698904,"current_range_meters":14400,"station_id":"ce4bhqp2rcd13ifvqhog","pricing_plan_id":"free"},{"bike_id":"dcea00dd-79ea-4358-82a6-00f5076fad6d","system_id":"levelo_inurba_marseille","lat":43.32367,"lon":5.388836,"is_reserved":false,"is_disabled":false,"rental_uris":{"android":"levelo://app?vid=dcea00dd-79ea-4358-82a6-00f5076fad6d","ios":"levelo://app?vid=dcea00dd-79ea-4358-82a6-00f5076fad6d"},"vehicle_type_id":"4","last_reported":1687698904,"current_range_meters":20400,"station_id":"ce4bhqp2rcd13ifvqhog","pricing_plan_id":"free"},{"bike_id":"228378a3-e0ba-427a-9a36-5789a7b6bb76","system_id":"levelo_inurba_marseille","lat":43.32367,"lon":5.38879,"is_reserved":false,"is_disabled":false,"rental_uris":{"android":"levelo://app?vid=228378a3-e0ba-427a-9a36-5789a7b6bb76","ios":"levelo://app?vid=228378a3-e0ba-427a-9a36-5789a7b6bb76"},"vehicle_type_id":"4","last_reported":1687698904,"current_range_meters":10800,"station_id":"ce4bhqp2rcd13ifvqhog","pricing_plan_id":"free"},{"bike_id":"e3085179-ee64-434f-a764-8e3e86754a37","system_id":"levelo_inurba_marseille","lat":43.32367,"lon":5.388836,"is_reserved":false,"is_disabled":false,"rental_uris":{"android":"levelo://app?vid=e3085179-ee64-434f-a764-8e3e86754a37","ios":"levelo://app?vid=e3085179-ee64-434f-a764-8e3e86754a37"},"vehicle_type_id":"4","last_reported":1687698904,"current_range_meters":19600,"station_id":"ce4bhqp2rcd13ifvqhog","pricing_plan_id":"free"},{"bike_id":"a06634f9-df99-4eae-881a-874e5ccad762","system_id":"levelo_inurba_marseille","lat":43.32367,"lon":5.38883,"is_reserved":false,"is_disabled":false,"rental_uris":{"android":"levelo://app?vid=a06634f9-df99-4eae-881a-874e5ccad762","ios":"levelo://app?vid=a06634f9-df99-4eae-881a-874e5ccad762"},"vehicle_type_id":"4","last_reported":1687698904,"current_range_meters":28800,"station_id":"ce4bhqp2rcd13ifvqhog","pricing_plan_id":"free"},{"bike_id":"8d20ae28-ced1-4c37-96de-ca9a2a802825","system_id":"levelo_inurba_marseille","lat":43.32367,"lon":5.388836,"is_reserved":false,"is_disabled":false,"rental_uris":{"android":"levelo://app?vid=8d20ae28-ced1-4c37-96de-ca9a2a802825","ios":"levelo://app?vid=8d20ae28-ced1-4c37-96de-ca9a2a802825"},"vehicle_type_id":"4","last_reported":1687698904,"current_range_meters":12000,"station_id":"ce4bhqp2rcd13ifvqhog","pricing_plan_id":"free"},{"bike_id":"75f84c0e-07de-482f-9c11-b7dfca9d3445","system_id":"levelo_inurba_marseille","lat":43.32367,"lon":5.388836,"is_reserved":false,"is_disabled":false,"rental_uris":{"android":"levelo://app?vid=75f84c0e-07de-482f-9c11-b7dfca9d3445","ios":"levelo://app?vid=75f84c0e-07de-482f-9c11-b7dfca9d3445"},"vehicle_type_id":"4","last_reported":1687698904,"current_range_meters":12400,"station_id":"ce4bhqp2rcd13ifvqhog","pricing_plan_id":"free"},{"bike_id":"a6b543df-b29f-4057-a17b-ece9e8918f86","system_id":"levelo_inurba_marseille","lat":43.32367,"lon":5.388836,"is_reserved":false,"is_disabled":false,"rental_uris":{"android":"levelo://app?vid=a6b543df-b29f-4057-a17b-ece9e8918f86","ios":"levelo://app?vid=a6b543df-b29f-4057-a17b-ece9e8918f86"},"vehicle_type_id":"4","last_reported":1687698904,"current_range_meters":15200,"station_id":"ce4bhqp2rcd13ifvqhog","pricing_plan_id":"free"},{"bike_id":"2ecbf352-bc57-4b85-8bf4-4fff20f425bb","system_id":"levelo_inurba_marseille","lat":43.293009,"lon":5.374584,"is_reserved":false,"is_disabled":false,"rental_uris":{"android":"levelo://app?vid=2ecbf352-bc57-4b85-8bf4-4fff20f425bb","ios":"levelo://app?vid=2ecbf352-bc57-4b85-8bf4-4fff20f425bb"},"vehicle_type_id":"4","last_reported":1687698904,"current_range_meters":8800,"station_id":"ce4bgi12rcd13ifvqb70","pricing_plan_id":"free"},{"bike_id":"9b31ba1e-28f1-4e55-a18e-672a018958cb","system_id":"levelo_inurba_marseille","lat":43.29267,"lon":5.35994,"is_reserved":false,"is_disabled":false,"rental_uris":{"android":"levelo://app?vid=9b31ba1e-28f1-4e55-a18e-672a018958cb","ios":"levelo://app?vid=9b31ba1e-28f1-4e55-a18e-672a018958cb"},"vehicle_type_id":"4","last_reported":1687698904,"current_range_meters":15600,"station_id":"","pricing_plan_id":"free"},{"bike_id":"f2cb0274-1992-4b9d-902e-92203432673d","system_id":"levelo_inurba_marseille","lat":43.303002,"lon":5.392142,"is_reserved":false,"is_disabled":false,"rental_uris":{"android":"levelo://app?vid=f2cb0274-1992-4b9d-902e-92203432673d","ios":"levelo://app?vid=f2cb0274-1992-4b9d-902e-92203432673d"},"vehicle_type_id":"4","last_reported":1687698904,"current_range_meters":21200,"station_id":"ce4bgkh2rcd13ifvqbk0","pricing_plan_id":"free"},{"bike_id":"457bc6cb-a8ba-4d5c-ad5f-c7c57d063cde","system_id":"levelo_inurba_marseille","lat":43.302992,"lon":5.392136,"is_reserved":false,"is_disabled":false,"rental_uris":{"android":"levelo://app?vid=457bc6cb-a8ba-4d5c-ad5f-c7c57d063cde","ios":"levelo://app?vid=457bc6cb-a8ba-4d5c-ad5f-c7c57d063cde"},"vehicle_type_id":"4","last_reported":1687698904,"current_range_meters":8400,"station_id":"ce4bgkh2rcd13ifvqbk0","pricing_plan_id":"free"},{"bike_id":"eaac250b-575f-450b-8fd1-9dc0a1495a41","system_id":"levelo_inurba_marseille","lat":43.296277,"lon":5.377108,"is_reserved":false,"is_disabled":false,"rental_uris":{"android":"levelo://app?vid=eaac250b-575f-450b-8fd1-9dc0a1495a41","ios":"levelo://app?vid=eaac250b-575f-450b-8fd1-9dc0a1495a41"},"vehicle_type_id":"4","last_reported":1687698904,"current_range_meters":5200,"station_id":"ce4bgi92rcd13ifvqb90","pricing_plan_id":"free"},{"bike_id":"43aa590e-4c0f-4838-a19e-8800fce05e44","system_id":"levelo_inurba_marseille","lat":43.292311,"lon":5.360731,"is_reserved":false,"is_disabled":false,"rental_uris":{"android":"levelo://app?vid=43aa590e-4c0f-4838-a19e-8800fce05e44","ios":"levelo://app?vid=43aa590e-4c0f-4838-a19e-8800fce05e44"},"vehicle_type_id":"4","last_reported":1687698904,"current_range_meters":25600,"station_id":"ce4bhbh2rcd13ifvqeqg","pricing_plan_id":"free"},{"bike_id":"62fda205-f583-429d-abf4-49b74ad97d13","system_id":"levelo_inurba_marseille","lat":43.29228,"lon":5.36053,"is_reserved":false,"is_disabled":false,"rental_uris":{"android":"levelo://app?vid=62fda205-f583-429d-abf4-49b74ad97d13","ios":"levelo://app?vid=62fda205-f583-429d-abf4-49b74ad97d13"},"vehicle_type_id":"4","last_reported":1687698904,"current_range_meters":29600,"station_id":"ce4bhbh2rcd13ifvqeqg","pricing_plan_id":"free"},{"bike_id":"60319338-8d9d-4e80-b65b-c574853cb445","system_id":"levelo_inurba_marseille","lat":43.309038,"lon":5.396546,"is_reserved":false,"is_disabled":false,"rental_uris":{"android":"levelo://app?vid=60319338-8d9d-4e80-b65b-c574853cb445","ios":"levelo://app?vid=60319338-8d9d-4e80-b65b-c574853cb445"},"vehicle_type_id":"4","last_reported":1687698904,"current_range_meters":15600,"station_id":"ce4bh012rcd13ifvqcv0","pricing_plan_id":"free"},{"bike_id":"0aa197d4-1761-4d05-8068-028ab79dfa38","system_id":"levelo_inurba_marseille","lat":43.291994,"lon":5.357886,"is_reserved":false,"is_disabled":false,"rental_uris":{"android":"levelo://app?vid=0aa197d4-1761-4d05-8068-028ab79dfa38","ios":"levelo://app?vid=0aa197d4-1761-4d05-8068-028ab79dfa38"},"vehicle_type_id":"4","last_reported":1687698904,"current_range_meters":24800,"station_id":"ce4bhb12rcd13ifvqel0","pricing_plan_id":"free"},{"bike_id":"bb92f14a-3472-47f3-9ef1-06fe0a3e2ae9","system_id":"levelo_inurba_marseille","lat":43.309038,"lon":5.396546,"is_reserved":false,"is_disabled":false,"rental_uris":{"android":"levelo://app?vid=bb92f14a-3472-47f3-9ef1-06fe0a3e2ae9","ios":"levelo://app?vid=bb92f14a-3472-47f3-9ef1-06fe0a3e2ae9"},"vehicle_type_id":"4","last_reported":1687698904,"current_range_meters":6000,"station_id":"ce4bh012rcd13ifvqcv0","pricing_plan_id":"free"},{"bike_id":"cde2dec2-dce9-4a9d-bf40-92fb942a0091","system_id":"levelo_inurba_marseille","lat":43.29193,"lon":5.35809,"is_reserved":false,"is_disabled":false,"rental_uris":{"android":"levelo://app?vid=cde2dec2-dce9-4a9d-bf40-92fb942a0091","ios":"levelo://app?vid=cde2dec2-dce9-4a9d-bf40-92fb942a0091"},"vehicle_type_id":"4","last_reported":1687698904,"current_range_meters":31200,"station_id":"ce4bhb12rcd13ifvqel0","pricing_plan_id":"free"},{"bike_id":"60161f78-5fc3-4dce-82b3-7e1eddf0f33a","system_id":"levelo_inurba_marseille","lat":43.309038,"lon":5.396546,"is_reserved":false,"is_disabled":false,"rental_uris":{"android":"levelo://app?vid=60161f78-5fc3-4dce-82b3-7e1eddf0f33a","ios":"levelo://app?vid=60161f78-5fc3-4dce-82b3-7e1eddf0f33a"},"vehicle_type_id":"4","last_reported":1687698904,"current_range_meters":4800,"station_id":"ce4bh012rcd13ifvqcv0","pricing_plan_id":"free"},{"bike_id":"d587c708-45d7-405c-89df-323ef8887143","system_id":"levelo_inurba_marseille","lat":43.291994,"lon":5.357886,"is_reserved":false,"is_disabled":false,"rental_uris":{"android":"levelo://app?vid=d587c708-45d7-405c-89df-323ef8887143","ios":"levelo://app?vid=d587c708-45d7-405c-89df-323ef8887143"},"vehicle_type_id":"4","last_reported":1687698904,"current_range_meters":27200,"station_id":"ce4bhb12rcd13ifvqel0","pricing_plan_id":"free"},{"bike_id":"0e184b26-0763-49fd-96b2-3ac70687db9a","system_id":"levelo_inurba_marseille","lat":43.290624,"lon":5.359245,"is_reserved":false,"is_disabled":false,"rental_uris":{"android":"levelo://app?vid=0e184b26-0763-49fd-96b2-3ac70687db9a","ios":"levelo://app?vid=0e184b26-0763-49fd-96b2-3ac70687db9a"},"vehicle_type_id":"4","last_reported":1687698904,"current_range_meters":10800,"station_id":"ce4bha92rcd13ifvqeg0","pricing_plan_id":"free"},{"bike_id":"20b2702a-2cf1-439f-b7da-41f192fa1a0a","system_id":"levelo_inurba_marseille","lat":43.29411,"lon":5.38614,"is_reserved":false,"is_disabled":false,"rental_uris":{"android":"levelo://app?vid=20b2702a-2cf1-439f-b7da-41f192fa1a0a","ios":"levelo://app?vid=20b2702a-2cf1-439f-b7da-41f192fa1a0a"},"vehicle_type_id":"4","last_reported":1687698904,"current_range_meters":15200,"station_id":"","pricing_plan_id":"free"},{"bike_id":"1206af06-05c4-40a4-954b-9600800be798","system_id":"levelo_inurba_marseille","lat":43.289184,"lon":5.366408,"is_reserved":false,"is_disabled":false,"rental_uris":{"android":"levelo://app?vid=1206af06-05c4-40a4-954b-9600800be798","ios":"levelo://app?vid=1206af06-05c4-40a4-954b-9600800be798"},"vehicle_type_id":"4","last_reported":1687698904,"current_range_meters":10400,"station_id":"ce4bhap2rcd13ifvqek0","pricing_plan_id":"free"},{"bike_id":"458d9fb0-9f73-4b1d-85ea-229e0de3de1e","system_id":"levelo_inurba_marseille","lat":43.283498,"lon":5.380948,"is_reserved":false,"is_disabled":false,"rental_uris":{"android":"levelo://app?vid=458d9fb0-9f73-4b1d-85ea-229e0de3de1e","ios":"levelo://app?vid=458d9fb0-9f73-4b1d-85ea-229e0de3de1e"},"vehicle_type_id":"4","last_reported":1687698904,"current_range_meters":19600,"station_id":"ce4bh412rcd13ifvqdr0","pricing_plan_id":"free"},{"bike_id":"1c10fd89-94af-4315-a9b9-cf9ae294e9e8","system_id":"levelo_inurba_marseille","lat":43.289468,"lon":5.363719,"is_reserved":false,"is_disabled":false,"rental_uris":{"android":"levelo://app?vid=1c10fd89-94af-4315-a9b9-cf9ae294e9e8","ios":"levelo://app?vid=1c10fd89-94af-4315-a9b9-cf9ae294e9e8"},"vehicle_type_id":"4","last_reported":1687698904,"current_range_meters":9200,"station_id":"ce4bhc92rcd13ifvqetg","pricing_plan_id":"free"},{"bike_id":"297029a9-8b75-4481-986d-d1a91f034b74","system_id":"levelo_inurba_marseille","lat":43.292644,"lon":5.384257,"is_reserved":false,"is_disabled":false,"rental_uris":{"android":"levelo://app?vid=297029a9-8b75-4481-986d-d1a91f034b74","ios":"levelo://app?vid=297029a9-8b75-4481-986d-d1a91f034b74"},"vehicle_type_id":"4","last_reported":1687698904,"current_range_meters":17600,"station_id":"ce4bh692rcd13ifvqea0","pricing_plan_id":"free"},{"bike_id":"a79643c2-99a2-49ec-9fdc-3e02adf1d2b1","system_id":"levelo_inurba_marseille","lat":43.290104,"lon":5.356111,"is_reserved":false,"is_disabled":false,"rental_uris":{"android":"levelo://app?vid=a79643c2-99a2-49ec-9fdc-3e02adf1d2b1","ios":"levelo://app?vid=a79643c2-99a2-49ec-9fdc-3e02adf1d2b1"},"vehicle_type_id":"4","last_reported":1687698904,"current_range_meters":17600,"station_id":"ce4bhb92rcd13ifvqen0","pricing_plan_id":"free"},{"bike_id":"7d77e2f6-b437-4816-8389-fd3e746a8d2a","system_id":"levelo_inurba_marseille","lat":43.33039,"lon":5.38924,"is_reserved":false,"is_disabled":false,"rental_uris":{"android":"levelo://app?vid=7d77e2f6-b437-4816-8389-fd3e746a8d2a","ios":"levelo://app?vid=7d77e2f6-b437-4816-8389-fd3e746a8d2a"},"vehicle_type_id":"4","last_reported":1687698904,"current_range_meters":3600,"station_id":"ce4bhr92rcd13ifvqhrg","pricing_plan_id":"free"},{"bike_id":"8c162e37-6858-43fc-9b2d-d4bbfff5be58","system_id":"levelo_inurba_marseille","lat":43.33043,"lon":5.38923,"is_reserved":false,"is_disabled":false,"rental_uris":{"android":"levelo://app?vid=8c162e37-6858-43fc-9b2d-d4bbfff5be58","ios":"levelo://app?vid=8c162e37-6858-43fc-9b2d-d4bbfff5be58"},"vehicle_type_id":"4","last_reported":1687698904,"current_range_meters":6000,"station_id":"ce4bhr92rcd13ifvqhrg","pricing_plan_id":"free"},{"bike_id":"8fa4b804-eeea-441f-9b15-4664acb44e13","system_id":"levelo_inurba_marseille","lat":43.33028,"lon":5.38947,"is_reserved":false,"is_disabled":false,"rental_uris":{"android":"levelo://app?vid=8fa4b804-eeea-441f-9b15-4664acb44e13","ios":"levelo://app?vid=8fa4b804-eeea-441f-9b15-4664acb44e13"},"vehicle_type_id":"4","last_reported":1687698904,"current_range_meters":0,"station_id":"","pricing_plan_id":"free"},{"bike_id":"8ef63342-e1dd-4d9c-8ba7-7afbe328837a","system_id":"levelo_inurba_marseille","lat":43.29207,"lon":5.38388,"is_reserved":false,"is_disabled":false,"rental_uris":{"android":"levelo://app?vid=8ef63342-e1dd-4d9c-8ba7-7afbe328837a","ios":"levelo://app?vid=8ef63342-e1dd-4d9c-8ba7-7afbe328837a"},"vehicle_type_id":"4","last_reported":1687698904,"current_range_meters":27600,"station_id":"","pricing_plan_id":"free"},{"bike_id":"975ac9fb-7789-4a62-acbb-817765438df6","system_id":"levelo_inurba_marseille","lat":43.33664,"lon":5.37436,"is_reserved":false,"is_disabled":false,"rental_uris":{"android":"levelo://app?vid=975ac9fb-7789-4a62-acbb-817765438df6","ios":"levelo://app?vid=975ac9fb-7789-4a62-acbb-817765438df6"},"vehicle_type_id":"4","last_reported":1687698904,"current_range_meters":31200,"station_id":"","pricing_plan_id":"free"},{"bike_id":"3f8a925a-6a54-4259-a38f-9cf091aab246","system_id":"levelo_inurba_marseille","lat":43.29247,"lon":5.38749,"is_reserved":false,"is_disabled":false,"rental_uris":{"android":"levelo://app?vid=3f8a925a-6a54-4259-a38f-9cf091aab246","ios":"levelo://app?vid=3f8a925a-6a54-4259-a38f-9cf091aab246"},"vehicle_type_id":"4","last_reported":1687698904,"current_range_meters":16000,"station_id":"","pricing_plan_id":"free"},{"bike_id":"b05928f8-908f-418b-a03c-cbe9df1a9b70","system_id":"levelo_inurba_marseille","lat":43.30931,"lon":5.40138,"is_reserved":false,"is_disabled":false,"rental_uris":{"android":"levelo://app?vid=b05928f8-908f-418b-a03c-cbe9df1a9b70","ios":"levelo://app?vid=b05928f8-908f-418b-a03c-cbe9df1a9b70"},"vehicle_type_id":"4","last_reported":1687698904,"current_range_meters":22000,"station_id":"ce4bgvp2rcd13ifvqct0","pricing_plan_id":"free"},{"bike_id":"c180ae38-f769-441f-8a55-5a6e4930e6ad","system_id":"levelo_inurba_marseille","lat":43.3375,"lon":5.37439,"is_reserved":false,"is_disabled":false,"rental_uris":{"android":"levelo://app?vid=c180ae38-f769-441f-8a55-5a6e4930e6ad","ios":"levelo://app?vid=c180ae38-f769-441f-8a55-5a6e4930e6ad"},"vehicle_type_id":"4","last_reported":1687698904,"current_range_meters":20800,"station_id":"","pricing_plan_id":"free"},{"bike_id":"383d0835-fa83-48b8-b896-0973f72eb3fd","system_id":"levelo_inurba_marseille","lat":43.30936,"lon":5.40146,"is_reserved":false,"is_disabled":false,"rental_uris":{"android":"levelo://app?vid=383d0835-fa83-48b8-b896-0973f72eb3fd","ios":"levelo://app?vid=383d0835-fa83-48b8-b896-0973f72eb3fd"},"vehicle_type_id":"4","last_reported":1687698904,"current_range_meters":23600,"station_id":"ce4bgvp2rcd13ifvqct0","pricing_plan_id":"free"},{"bike_id":"24afc8ed-1c56-4faa-b0e1-72558b6fa825","system_id":"levelo_inurba_marseille","lat":43.337552,"lon":5.374235,"is_reserved":false,"is_disabled":false,"rental_uris":{"android":"levelo://app?vid=24afc8ed-1c56-4faa-b0e1-72558b6fa825","ios":"levelo://app?vid=24afc8ed-1c56-4faa-b0e1-72558b6fa825"},"vehicle_type_id":"4","last_reported":1687698904,"current_range_meters":31200,"station_id":"","pricing_plan_id":"free"},{"bike_id":"42467928-9718-4905-a83f-4a0a594fb894","system_id":"levelo_inurba_marseille","lat":43.33757,"lon":5.3746,"is_reserved":false,"is_disabled":false,"rental_uris":{"android":"levelo://app?vid=42467928-9718-4905-a83f-4a0a594fb894","ios":"levelo://app?vid=42467928-9718-4905-a83f-4a0a594fb894"},"vehicle_type_id":"4","last_reported":1687698904,"current_range_meters":30000,"station_id":"","pricing_plan_id":"free"},{"bike_id":"2b8d39a8-101f-4d20-9aa1-fd65e9c48367","system_id":"levelo_inurba_marseille","lat":43.30129,"lon":5.39861,"is_reserved":false,"is_disabled":false,"rental_uris":{"android":"levelo://app?vid=2b8d39a8-101f-4d20-9aa1-fd65e9c48367","ios":"levelo://app?vid=2b8d39a8-101f-4d20-9aa1-fd65e9c48367"},"vehicle_type_id":"4","last_reported":1687698904,"current_range_meters":21200,"station_id":"ce4bh0h2rcd13ifvqd40","pricing_plan_id":"free"},{"bike_id":"71afe94c-126d-4311-8225-8192f3ebd5e3","system_id":"levelo_inurba_marseille","lat":43.286593,"lon":5.363346,"is_reserved":false,"is_disabled":false,"rental_uris":{"android":"levelo://app?vid=71afe94c-126d-4311-8225-8192f3ebd5e3","ios":"levelo://app?vid=71afe94c-126d-4311-8225-8192f3ebd5e3"},"vehicle_type_id":"4","last_reported":1687698904,"current_range_meters":14400,"station_id":"ce4bhah2rcd13ifvqej0","pricing_plan_id":"free"},{"bike_id":"d154b6c1-58be-4b1b-95c8-cbb0d59dee66","system_id":"levelo_inurba_marseille","lat":43.286593,"lon":5.363346,"is_reserved":false,"is_disabled":false,"rental_uris":{"android":"levelo://app?vid=d154b6c1-58be-4b1b-95c8-cbb0d59dee66","ios":"levelo://app?vid=d154b6c1-58be-4b1b-95c8-cbb0d59dee66"},"vehicle_type_id":"4","last_reported":1687698904,"current_range_meters":2000,"station_id":"ce4bhah2rcd13ifvqej0","pricing_plan_id":"free"},{"bike_id":"f58a9f93-401b-48b0-9967-818bfa209289","system_id":"levelo_inurba_marseille","lat":43.286593,"lon":5.363346,"is_reserved":false,"is_disabled":false,"rental_uris":{"android":"levelo://app?vid=f58a9f93-401b-48b0-9967-818bfa209289","ios":"levelo://app?vid=f58a9f93-401b-48b0-9967-818bfa209289"},"vehicle_type_id":"4","last_reported":1687698904,"current_range_meters":18400,"station_id":"ce4bhah2rcd13ifvqej0","pricing_plan_id":"free"},{"bike_id":"21b2b9c1-8b2c-4a99-a248-81a23a88c16e","system_id":"levelo_inurba_marseille","lat":43.286593,"lon":5.363346,"is_reserved":false,"is_disabled":false,"rental_uris":{"android":"levelo://app?vid=21b2b9c1-8b2c-4a99-a248-81a23a88c16e","ios":"levelo://app?vid=21b2b9c1-8b2c-4a99-a248-81a23a88c16e"},"vehicle_type_id":"4","last_reported":1687698904,"current_range_meters":4800,"station_id":"ce4bhah2rcd13ifvqej0","pricing_plan_id":"free"},{"bike_id":"d316f432-f0a2-4029-a577-1dc8f9cf69b6","system_id":"levelo_inurba_marseille","lat":43.302759,"lon":5.400793,"is_reserved":false,"is_disabled":false,"rental_uris":{"android":"levelo://app?vid=d316f432-f0a2-4029-a577-1dc8f9cf69b6","ios":"levelo://app?vid=d316f432-f0a2-4029-a577-1dc8f9cf69b6"},"vehicle_type_id":"4","last_reported":1687698904,"current_range_meters":25600,"station_id":"ce4bgvh2rcd13ifvqcs0","pricing_plan_id":"free"},{"bike_id":"0a0d4d9d-04f3-41bc-bbc0-940c271d10ec","system_id":"levelo_inurba_marseille","lat":43.302759,"lon":5.400793,"is_reserved":false,"is_disabled":false,"rental_uris":{"android":"levelo://app?vid=0a0d4d9d-04f3-41bc-bbc0-940c271d10ec","ios":"levelo://app?vid=0a0d4d9d-04f3-41bc-bbc0-940c271d10ec"},"vehicle_type_id":"4","last_reported":1687698904,"current_range_meters":30400,"station_id":"ce4bgvh2rcd13ifvqcs0","pricing_plan_id":"free"},{"bike_id":"0cf58883-41fe-44e2-add9-0abfe89fc645","system_id":"levelo_inurba_marseille","lat":43.290336,"lon":5.386425,"is_reserved":false,"is_disabled":false,"rental_uris":{"android":"levelo://app?vid=0cf58883-41fe-44e2-add9-0abfe89fc645","ios":"levelo://app?vid=0cf58883-41fe-44e2-add9-0abfe89fc645"},"vehicle_type_id":"4","last_reported":1687698904,"current_range_meters":5200,"station_id":"ce4bh4p2rcd13ifvqe0g","pricing_plan_id":"free"},{"bike_id":"4ce5d06b-10f3-49a5-a1e4-1f30097484c8","system_id":"levelo_inurba_marseille","lat":43.287184,"lon":5.37937,"is_reserved":false,"is_disabled":false,"rental_uris":{"android":"levelo://app?vid=4ce5d06b-10f3-49a5-a1e4-1f30097484c8","ios":"levelo://app?vid=4ce5d06b-10f3-49a5-a1e4-1f30097484c8"},"vehicle_type_id":"4","last_reported":1687698904,"current_range_meters":31200,"station_id":"ce4bh9p2rcd13ifvqec0","pricing_plan_id":"free"},{"bike_id":"d69fed3a-efe9-46fb-b1dc-1240b8978d3e","system_id":"levelo_inurba_marseille","lat":43.316517,"lon":5.404375,"is_reserved":false,"is_disabled":false,"rental_uris":{"android":"levelo://app?vid=d69fed3a-efe9-46fb-b1dc-1240b8978d3e","ios":"levelo://app?vid=d69fed3a-efe9-46fb-b1dc-1240b8978d3e"},"vehicle_type_id":"4","last_reported":1687698904,"current_range_meters":14400,"station_id":"ce4bh012rcd13ifvqd00","pricing_plan_id":"free"},{"bike_id":"9894d924-83c7-4f73-8c9a-3e9cfeaec50b","system_id":"levelo_inurba_marseille","lat":43.284534,"lon":5.358662,"is_reserved":false,"is_disabled":false,"rental_uris":{"android":"levelo://app?vid=9894d924-83c7-4f73-8c9a-3e9cfeaec50b","ios":"levelo://app?vid=9894d924-83c7-4f73-8c9a-3e9cfeaec50b"},"vehicle_type_id":"4","last_reported":1687698904,"current_range_meters":27600,"station_id":"ce4bhah2rcd13ifvqei0","pricing_plan_id":"free"},{"bike_id":"c506a433-7813-48ae-9235-f43fc68a8f88","system_id":"levelo_inurba_marseille","lat":43.28672,"lon":5.38393,"is_reserved":false,"is_disabled":false,"rental_uris":{"android":"levelo://app?vid=c506a433-7813-48ae-9235-f43fc68a8f88","ios":"levelo://app?vid=c506a433-7813-48ae-9235-f43fc68a8f88"},"vehicle_type_id":"4","last_reported":1687698904,"current_range_meters":9200,"station_id":"","pricing_plan_id":"free"},{"bike_id":"3a673c6e-f86c-4c96-8ecb-a1932196754e","system_id":"levelo_inurba_marseille","lat":43.286595,"lon":5.386795,"is_reserved":false,"is_disabled":false,"rental_uris":{"android":"levelo://app?vid=3a673c6e-f86c-4c96-8ecb-a1932196754e","ios":"levelo://app?vid=3a673c6e-f86c-4c96-8ecb-a1932196754e"},"vehicle_type_id":"4","last_reported":1687698904,"current_range_meters":0,"station_id":"ce4bh492rcd13ifvqdug","pricing_plan_id":"free"},{"bike_id":"7c0bbcf9-4499-4a1e-be6b-effe1f6db7d4","system_id":"levelo_inurba_marseille","lat":43.323464,"lon":5.406297,"is_reserved":false,"is_disabled":false,"rental_uris":{"android":"levelo://app?vid=7c0bbcf9-4499-4a1e-be6b-effe1f6db7d4","ios":"levelo://app?vid=7c0bbcf9-4499-4a1e-be6b-effe1f6db7d4"},"vehicle_type_id":"4","last_reported":1687698904,"current_range_meters":31200,"station_id":"ce4bhq92rcd13ifvqhjg","pricing_plan_id":"free"},{"bike_id":"a3c8d123-093c-462d-81d9-c4a0889703a6","system_id":"levelo_inurba_marseille","lat":43.323464,"lon":5.406297,"is_reserved":false,"is_disabled":false,"rental_uris":{"android":"levelo://app?vid=a3c8d123-093c-462d-81d9-c4a0889703a6","ios":"levelo://app?vid=a3c8d123-093c-462d-81d9-c4a0889703a6"},"vehicle_type_id":"4","last_reported":1687698904,"current_range_meters":31200,"station_id":"ce4bhq92rcd13ifvqhjg","pricing_plan_id":"free"},{"bike_id":"7839da70-8bad-4943-9bf7-a6277468bd55","system_id":"levelo_inurba_marseille","lat":43.323464,"lon":5.406297,"is_reserved":false,"is_disabled":false,"rental_uris":{"android":"levelo://app?vid=7839da70-8bad-4943-9bf7-a6277468bd55","ios":"levelo://app?vid=7839da70-8bad-4943-9bf7-a6277468bd55"},"vehicle_type_id":"4","last_reported":1687698904,"current_range_meters":21200,"station_id":"ce4bhq92rcd13ifvqhjg","pricing_plan_id":"free"},{"bike_id":"44684ce6-ed70-4132-8feb-c18e231a1ce8","system_id":"levelo_inurba_marseille","lat":43.323464,"lon":5.406297,"is_reserved":false,"is_disabled":false,"rental_uris":{"android":"levelo://app?vid=44684ce6-ed70-4132-8feb-c18e231a1ce8","ios":"levelo://app?vid=44684ce6-ed70-4132-8feb-c18e231a1ce8"},"vehicle_type_id":"4","last_reported":1687698904,"current_range_meters":31200,"station_id":"ce4bhq92rcd13ifvqhjg","pricing_plan_id":"free"},{"bike_id":"165784fd-8cb0-48fe-8681-d7abe54a6cf4","system_id":"levelo_inurba_marseille","lat":43.32284,"lon":5.40659,"is_reserved":false,"is_disabled":false,"rental_uris":{"android":"levelo://app?vid=165784fd-8cb0-48fe-8681-d7abe54a6cf4","ios":"levelo://app?vid=165784fd-8cb0-48fe-8681-d7abe54a6cf4"},"vehicle_type_id":"4","last_reported":1687698904,"current_range_meters":26400,"station_id":"","pricing_plan_id":"free"},{"bike_id":"b4c950db-352f-4a1a-8e3c-c05101a6dad0","system_id":"levelo_inurba_marseille","lat":43.28857,"lon":5.39317,"is_reserved":false,"is_disabled":false,"rental_uris":{"android":"levelo://app?vid=b4c950db-352f-4a1a-8e3c-c05101a6dad0","ios":"levelo://app?vid=b4c950db-352f-4a1a-8e3c-c05101a6dad0"},"vehicle_type_id":"4","last_reported":1687698904,"current_range_meters":31200,"station_id":"ce4bh2p2rcd13ifvqdi0","pricing_plan_id":"free"},{"bike_id":"74ee0267-5190-491e-99d4-49992d113365","system_id":"levelo_inurba_marseille","lat":43.288497,"lon":5.393089,"is_reserved":false,"is_disabled":false,"rental_uris":{"android":"levelo://app?vid=74ee0267-5190-491e-99d4-49992d113365","ios":"levelo://app?vid=74ee0267-5190-491e-99d4-49992d113365"},"vehicle_type_id":"4","last_reported":1687698904,"current_range_meters":12800,"station_id":"ce4bh2p2rcd13ifvqdi0","pricing_plan_id":"free"},{"bike_id":"f8316696-714f-4a68-a408-82cb815d56fe","system_id":"levelo_inurba_marseille","lat":43.283498,"lon":5.380948,"is_reserved":false,"is_disabled":false,"rental_uris":{"android":"levelo://app?vid=f8316696-714f-4a68-a408-82cb815d56fe","ios":"levelo://app?vid=f8316696-714f-4a68-a408-82cb815d56fe"},"vehicle_type_id":"4","last_reported":1687698904,"current_range_meters":1600,"station_id":"ce4bh412rcd13ifvqdr0","pricing_plan_id":"free"},{"bike_id":"5e83e955-c572-4d0f-9419-7a992c781476","system_id":"levelo_inurba_marseille","lat":43.28422,"lon":5.34995,"is_reserved":false,"is_disabled":false,"rental_uris":{"android":"levelo://app?vid=5e83e955-c572-4d0f-9419-7a992c781476","ios":"levelo://app?vid=5e83e955-c572-4d0f-9419-7a992c781476"},"vehicle_type_id":"4","last_reported":1687698904,"current_range_meters":26000,"station_id":"ce4bhbh2rcd13ifvqepg","pricing_plan_id":"free"},{"bike_id":"5268fb4b-40b1-4870-9caf-d69704d15a87","system_id":"levelo_inurba_marseille","lat":43.284217,"lon":5.349697,"is_reserved":false,"is_disabled":false,"rental_uris":{"android":"levelo://app?vid=5268fb4b-40b1-4870-9caf-d69704d15a87","ios":"levelo://app?vid=5268fb4b-40b1-4870-9caf-d69704d15a87"},"vehicle_type_id":"4","last_reported":1687698904,"current_range_meters":4000,"station_id":"ce4bhbh2rcd13ifvqepg","pricing_plan_id":"free"},{"bike_id":"28314993-9544-4951-a341-3f95d253ffd6","system_id":"levelo_inurba_marseille","lat":43.284217,"lon":5.349697,"is_reserved":false,"is_disabled":false,"rental_uris":{"android":"levelo://app?vid=28314993-9544-4951-a341-3f95d253ffd6","ios":"levelo://app?vid=28314993-9544-4951-a341-3f95d253ffd6"},"vehicle_type_id":"4","last_reported":1687698904,"current_range_meters":22000,"station_id":"ce4bhbh2rcd13ifvqepg","pricing_plan_id":"free"},{"bike_id":"0bb50b1b-374b-4210-a404-0a4399107f6b","system_id":"levelo_inurba_marseille","lat":43.28425,"lon":5.34982,"is_reserved":false,"is_disabled":false,"rental_uris":{"android":"levelo://app?vid=0bb50b1b-374b-4210-a404-0a4399107f6b","ios":"levelo://app?vid=0bb50b1b-374b-4210-a404-0a4399107f6b"},"vehicle_type_id":"4","last_reported":1687698904,"current_range_meters":17600,"station_id":"ce4bhbh2rcd13ifvqepg","pricing_plan_id":"free"},{"bike_id":"c19c7f19-bf00-4a29-aed2-46008563da52","system_id":"levelo_inurba_marseille","lat":43.28423,"lon":5.34988,"is_reserved":false,"is_disabled":false,"rental_uris":{"android":"levelo://app?vid=c19c7f19-bf00-4a29-aed2-46008563da52","ios":"levelo://app?vid=c19c7f19-bf00-4a29-aed2-46008563da52"},"vehicle_type_id":"4","last_reported":1687698904,"current_range_meters":27200,"station_id":"ce4bhbh2rcd13ifvqepg","pricing_plan_id":"free"},{"bike_id":"b2deb644-a066-4e6b-a466-9449294c4091","system_id":"levelo_inurba_marseille","lat":43.28425,"lon":5.34981,"is_reserved":false,"is_disabled":false,"rental_uris":{"android":"levelo://app?vid=b2deb644-a066-4e6b-a466-9449294c4091","ios":"levelo://app?vid=b2deb644-a066-4e6b-a466-9449294c4091"},"vehicle_type_id":"4","last_reported":1687698904,"current_range_meters":14800,"station_id":"ce4bhbh2rcd13ifvqepg","pricing_plan_id":"free"},{"bike_id":"e97e3f69-3d09-4194-91ef-c7fd61849e49","system_id":"levelo_inurba_marseille","lat":43.28426,"lon":5.34976,"is_reserved":false,"is_disabled":false,"rental_uris":{"android":"levelo://app?vid=e97e3f69-3d09-4194-91ef-c7fd61849e49","ios":"levelo://app?vid=e97e3f69-3d09-4194-91ef-c7fd61849e49"},"vehicle_type_id":"4","last_reported":1687698904,"current_range_meters":28800,"station_id":"ce4bhbh2rcd13ifvqepg","pricing_plan_id":"free"},{"bike_id":"9e6de6fd-e9f1-45b5-b905-4b03a6373eca","system_id":"levelo_inurba_marseille","lat":43.28427,"lon":5.34972,"is_reserved":false,"is_disabled":false,"rental_uris":{"android":"levelo://app?vid=9e6de6fd-e9f1-45b5-b905-4b03a6373eca","ios":"levelo://app?vid=9e6de6fd-e9f1-45b5-b905-4b03a6373eca"},"vehicle_type_id":"4","last_reported":1687698904,"current_range_meters":31200,"station_id":"ce4bhbh2rcd13ifvqepg","pricing_plan_id":"free"},{"bike_id":"79b149f3-59d7-4cc5-a3ad-63f7720ba5dc","system_id":"levelo_inurba_marseille","lat":43.28422,"lon":5.34985,"is_reserved":false,"is_disabled":false,"rental_uris":{"android":"levelo://app?vid=79b149f3-59d7-4cc5-a3ad-63f7720ba5dc","ios":"levelo://app?vid=79b149f3-59d7-4cc5-a3ad-63f7720ba5dc"},"vehicle_type_id":"4","last_reported":1687698904,"current_range_meters":17200,"station_id":"ce4bhbh2rcd13ifvqepg","pricing_plan_id":"free"},{"bike_id":"6030f91f-0000-4684-9608-fe6d763b6a70","system_id":"levelo_inurba_marseille","lat":43.284217,"lon":5.349697,"is_reserved":false,"is_disabled":false,"rental_uris":{"android":"levelo://app?vid=6030f91f-0000-4684-9608-fe6d763b6a70","ios":"levelo://app?vid=6030f91f-0000-4684-9608-fe6d763b6a70"},"vehicle_type_id":"4","last_reported":1687698904,"current_range_meters":19600,"station_id":"ce4bhbh2rcd13ifvqepg","pricing_plan_id":"free"},{"bike_id":"ca32322d-d525-41d9-a36d-0272b744b0e7","system_id":"levelo_inurba_marseille","lat":43.284217,"lon":5.349697,"is_reserved":false,"is_disabled":false,"rental_uris":{"android":"levelo://app?vid=ca32322d-d525-41d9-a36d-0272b744b0e7","ios":"levelo://app?vid=ca32322d-d525-41d9-a36d-0272b744b0e7"},"vehicle_type_id":"4","last_reported":1687698904,"current_range_meters":27600,"station_id":"ce4bhbh2rcd13ifvqepg","pricing_plan_id":"free"},{"bike_id":"d59ad4d5-5f9a-41f1-876d-62249df3dfc9","system_id":"levelo_inurba_marseille","lat":43.284217,"lon":5.349697,"is_reserved":false,"is_disabled":false,"rental_uris":{"android":"levelo://app?vid=d59ad4d5-5f9a-41f1-876d-62249df3dfc9","ios":"levelo://app?vid=d59ad4d5-5f9a-41f1-876d-62249df3dfc9"},"vehicle_type_id":"4","last_reported":1687698904,"current_range_meters":4400,"station_id":"ce4bhbh2rcd13ifvqepg","pricing_plan_id":"free"},{"bike_id":"d7f7b1e2-519e-484c-8cb2-c6b33c8868cd","system_id":"levelo_inurba_marseille","lat":43.2842,"lon":5.34982,"is_reserved":false,"is_disabled":false,"rental_uris":{"android":"levelo://app?vid=d7f7b1e2-519e-484c-8cb2-c6b33c8868cd","ios":"levelo://app?vid=d7f7b1e2-519e-484c-8cb2-c6b33c8868cd"},"vehicle_type_id":"4","last_reported":1687698904,"current_range_meters":15600,"station_id":"ce4bhbh2rcd13ifvqepg","pricing_plan_id":"free"},{"bike_id":"499c3fd7-9c13-4bc0-805f-3728f8ee0801","system_id":"levelo_inurba_marseille","lat":43.28421,"lon":5.34977,"is_reserved":false,"is_disabled":false,"rental_uris":{"android":"levelo://app?vid=499c3fd7-9c13-4bc0-805f-3728f8ee0801","ios":"levelo://app?vid=499c3fd7-9c13-4bc0-805f-3728f8ee0801"},"vehicle_type_id":"4","last_reported":1687698904,"current_range_meters":8400,"station_id":"ce4bhbh2rcd13ifvqepg","pricing_plan_id":"free"},{"bike_id":"8f98ed62-5b1b-4102-ad1d-1e7ad59187e7","system_id":"levelo_inurba_marseille","lat":43.284219,"lon":5.3497,"is_reserved":false,"is_disabled":false,"rental_uris":{"android":"levelo://app?vid=8f98ed62-5b1b-4102-ad1d-1e7ad59187e7","ios":"levelo://app?vid=8f98ed62-5b1b-4102-ad1d-1e7ad59187e7"},"vehicle_type_id":"4","last_reported":1687698904,"current_range_meters":31200,"station_id":"ce4bhbh2rcd13ifvqepg","pricing_plan_id":"free"},{"bike_id":"bd583d3e-fd46-47a9-8c93-f9127dd7e864","system_id":"levelo_inurba_marseille","lat":43.28418,"lon":5.34986,"is_reserved":false,"is_disabled":false,"rental_uris":{"android":"levelo://app?vid=bd583d3e-fd46-47a9-8c93-f9127dd7e864","ios":"levelo://app?vid=bd583d3e-fd46-47a9-8c93-f9127dd7e864"},"vehicle_type_id":"4","last_reported":1687698904,"current_range_meters":5200,"station_id":"ce4bhbh2rcd13ifvqepg","pricing_plan_id":"free"},{"bike_id":"b4f0475f-e8c4-4191-b047-a7d7bb0d7167","system_id":"levelo_inurba_marseille","lat":43.2842,"lon":5.34978,"is_reserved":false,"is_disabled":false,"rental_uris":{"android":"levelo://app?vid=b4f0475f-e8c4-4191-b047-a7d7bb0d7167","ios":"levelo://app?vid=b4f0475f-e8c4-4191-b047-a7d7bb0d7167"},"vehicle_type_id":"4","last_reported":1687698904,"current_range_meters":22000,"station_id":"ce4bhbh2rcd13ifvqepg","pricing_plan_id":"free"},{"bike_id":"dbb6181a-71d5-49ee-a6c1-0dd0c1d37d0e","system_id":"levelo_inurba_marseille","lat":43.28418,"lon":5.34976,"is_reserved":false,"is_disabled":false,"rental_uris":{"android":"levelo://app?vid=dbb6181a-71d5-49ee-a6c1-0dd0c1d37d0e","ios":"levelo://app?vid=dbb6181a-71d5-49ee-a6c1-0dd0c1d37d0e"},"vehicle_type_id":"4","last_reported":1687698904,"current_range_meters":0,"station_id":"ce4bhbh2rcd13ifvqepg","pricing_plan_id":"free"},{"bike_id":"827bdafd-8c4e-41de-af69-6d5209b15e53","system_id":"levelo_inurba_marseille","lat":43.284217,"lon":5.349697,"is_reserved":false,"is_disabled":false,"rental_uris":{"android":"levelo://app?vid=827bdafd-8c4e-41de-af69-6d5209b15e53","ios":"levelo://app?vid=827bdafd-8c4e-41de-af69-6d5209b15e53"},"vehicle_type_id":"4","last_reported":1687698904,"current_range_meters":4400,"station_id":"ce4bhbh2rcd13ifvqepg","pricing_plan_id":"free"},{"bike_id":"43759181-1710-4c78-9925-4c087e5f8fca","system_id":"levelo_inurba_marseille","lat":43.284217,"lon":5.349697,"is_reserved":false,"is_disabled":false,"rental_uris":{"android":"levelo://app?vid=43759181-1710-4c78-9925-4c087e5f8fca","ios":"levelo://app?vid=43759181-1710-4c78-9925-4c087e5f8fca"},"vehicle_type_id":"4","last_reported":1687698904,"current_range_meters":21200,"station_id":"ce4bhbh2rcd13ifvqepg","pricing_plan_id":"free"},{"bike_id":"c67e426b-98df-4c7c-bbe7-b4fc7908f371","system_id":"levelo_inurba_marseille","lat":43.2841,"lon":5.35,"is_reserved":false,"is_disabled":false,"rental_uris":{"android":"levelo://app?vid=c67e426b-98df-4c7c-bbe7-b4fc7908f371","ios":"levelo://app?vid=c67e426b-98df-4c7c-bbe7-b4fc7908f371"},"vehicle_type_id":"4","last_reported":1687698904,"current_range_meters":18400,"station_id":"ce4bhbh2rcd13ifvqepg","pricing_plan_id":"free"},{"bike_id":"ddb647f2-9cf4-47f4-b69f-c2895ffb1527","system_id":"levelo_inurba_marseille","lat":43.28416,"lon":5.3498,"is_reserved":false,"is_disabled":false,"rental_uris":{"android":"levelo://app?vid=ddb647f2-9cf4-47f4-b69f-c2895ffb1527","ios":"levelo://app?vid=ddb647f2-9cf4-47f4-b69f-c2895ffb1527"},"vehicle_type_id":"4","last_reported":1687698904,"current_range_meters":18400,"station_id":"ce4bhbh2rcd13ifvqepg","pricing_plan_id":"free"},{"bike_id":"d4b1b24a-25e0-4a83-8bf1-fa4cc756bda6","system_id":"levelo_inurba_marseille","lat":43.28415,"lon":5.34979,"is_reserved":false,"is_disabled":false,"rental_uris":{"android":"levelo://app?vid=d4b1b24a-25e0-4a83-8bf1-fa4cc756bda6","ios":"levelo://app?vid=d4b1b24a-25e0-4a83-8bf1-fa4cc756bda6"},"vehicle_type_id":"4","last_reported":1687698904,"current_range_meters":11600,"station_id":"ce4bhbh2rcd13ifvqepg","pricing_plan_id":"free"},{"bike_id":"48208e36-cad2-42c8-8384-77bbdf52fbca","system_id":"levelo_inurba_marseille","lat":43.284217,"lon":5.349697,"is_reserved":false,"is_disabled":false,"rental_uris":{"android":"levelo://app?vid=48208e36-cad2-42c8-8384-77bbdf52fbca","ios":"levelo://app?vid=48208e36-cad2-42c8-8384-77bbdf52fbca"},"vehicle_type_id":"4","last_reported":1687698904,"current_range_meters":0,"station_id":"ce4bhbh2rcd13ifvqepg","pricing_plan_id":"free"},{"bike_id":"8b33e875-3e35-43ac-96ff-69d435d1d6f8","system_id":"levelo_inurba_marseille","lat":43.282754,"lon":5.350519,"is_reserved":false,"is_disabled":false,"rental_uris":{"android":"levelo://app?vid=8b33e875-3e35-43ac-96ff-69d435d1d6f8","ios":"levelo://app?vid=8b33e875-3e35-43ac-96ff-69d435d1d6f8"},"vehicle_type_id":"4","last_reported":1687698904,"current_range_meters":17600,"station_id":"ce4bhbp2rcd13ifvqerg","pricing_plan_id":"free"},{"bike_id":"3eba05fb-7a20-47d8-80c8-af68329f27c9","system_id":"levelo_inurba_marseille","lat":43.2828,"lon":5.35061,"is_reserved":false,"is_disabled":false,"rental_uris":{"android":"levelo://app?vid=3eba05fb-7a20-47d8-80c8-af68329f27c9","ios":"levelo://app?vid=3eba05fb-7a20-47d8-80c8-af68329f27c9"},"vehicle_type_id":"4","last_reported":1687698904,"current_range_meters":13200,"station_id":"ce4bhbp2rcd13ifvqerg","pricing_plan_id":"free"},{"bike_id":"459caeeb-0216-40cb-8ede-f597c07591d0","system_id":"levelo_inurba_marseille","lat":43.282754,"lon":5.350519,"is_reserved":false,"is_disabled":false,"rental_uris":{"android":"levelo://app?vid=459caeeb-0216-40cb-8ede-f597c07591d0","ios":"levelo://app?vid=459caeeb-0216-40cb-8ede-f597c07591d0"},"vehicle_type_id":"4","last_reported":1687698904,"current_range_meters":11200,"station_id":"ce4bhbp2rcd13ifvqerg","pricing_plan_id":"free"},{"bike_id":"7f693e7d-2d3b-4dfa-a45c-c56b56565ccf","system_id":"levelo_inurba_marseille","lat":43.28278,"lon":5.35065,"is_reserved":false,"is_disabled":false,"rental_uris":{"android":"levelo://app?vid=7f693e7d-2d3b-4dfa-a45c-c56b56565ccf","ios":"levelo://app?vid=7f693e7d-2d3b-4dfa-a45c-c56b56565ccf"},"vehicle_type_id":"4","last_reported":1687698904,"current_range_meters":18800,"station_id":"ce4bhbp2rcd13ifvqerg","pricing_plan_id":"free"},{"bike_id":"cf70594d-5ca4-40a1-a13d-d509a1c839b5","system_id":"levelo_inurba_marseille","lat":43.28275,"lon":5.35069,"is_reserved":false,"is_disabled":false,"rental_uris":{"android":"levelo://app?vid=cf70594d-5ca4-40a1-a13d-d509a1c839b5","ios":"levelo://app?vid=cf70594d-5ca4-40a1-a13d-d509a1c839b5"},"vehicle_type_id":"4","last_reported":1687698904,"current_range_meters":22000,"station_id":"ce4bhbp2rcd13ifvqerg","pricing_plan_id":"free"},{"bike_id":"24033188-9cfa-47a0-89f5-6641429a9d03","system_id":"levelo_inurba_marseille","lat":43.28273,"lon":5.35072,"is_reserved":false,"is_disabled":false,"rental_uris":{"android":"levelo://app?vid=24033188-9cfa-47a0-89f5-6641429a9d03","ios":"levelo://app?vid=24033188-9cfa-47a0-89f5-6641429a9d03"},"vehicle_type_id":"4","last_reported":1687698904,"current_range_meters":8800,"station_id":"ce4bhbp2rcd13ifvqerg","pricing_plan_id":"free"},{"bike_id":"a27e8f8f-585c-4854-bac7-c77a0d144c64","system_id":"levelo_inurba_marseille","lat":43.28275,"lon":5.35065,"is_reserved":false,"is_disabled":false,"rental_uris":{"android":"levelo://app?vid=a27e8f8f-585c-4854-bac7-c77a0d144c64","ios":"levelo://app?vid=a27e8f8f-585c-4854-bac7-c77a0d144c64"},"vehicle_type_id":"4","last_reported":1687698904,"current_range_meters":16400,"station_id":"ce4bhbp2rcd13ifvqerg","pricing_plan_id":"free"},{"bike_id":"38df56ae-70f1-4e18-aef1-abb508cd485b","system_id":"levelo_inurba_marseille","lat":43.28272,"lon":5.35075,"is_reserved":false,"is_disabled":false,"rental_uris":{"android":"levelo://app?vid=38df56ae-70f1-4e18-aef1-abb508cd485b","ios":"levelo://app?vid=38df56ae-70f1-4e18-aef1-abb508cd485b"},"vehicle_type_id":"4","last_reported":1687698904,"current_range_meters":25200,"station_id":"ce4bhbp2rcd13ifvqerg","pricing_plan_id":"free"},{"bike_id":"276f6145-223f-4c66-8dde-98868e9a1c5c","system_id":"levelo_inurba_marseille","lat":43.282744,"lon":5.350533,"is_reserved":false,"is_disabled":false,"rental_uris":{"android":"levelo://app?vid=276f6145-223f-4c66-8dde-98868e9a1c5c","ios":"levelo://app?vid=276f6145-223f-4c66-8dde-98868e9a1c5c"},"vehicle_type_id":"4","last_reported":1687698904,"current_range_meters":30800,"station_id":"ce4bhbp2rcd13ifvqerg","pricing_plan_id":"free"},{"bike_id":"f835268c-5aea-4c0c-b898-b146a87bf4ab","system_id":"levelo_inurba_marseille","lat":43.28271,"lon":5.35065,"is_reserved":false,"is_disabled":false,"rental_uris":{"android":"levelo://app?vid=f835268c-5aea-4c0c-b898-b146a87bf4ab","ios":"levelo://app?vid=f835268c-5aea-4c0c-b898-b146a87bf4ab"},"vehicle_type_id":"4","last_reported":1687698904,"current_range_meters":1200,"station_id":"ce4bhbp2rcd13ifvqerg","pricing_plan_id":"free"},{"bike_id":"4d455f1a-e16b-4d69-b668-6a454187b9be","system_id":"levelo_inurba_marseille","lat":43.28271,"lon":5.35064,"is_reserved":false,"is_disabled":false,"rental_uris":{"android":"levelo://app?vid=4d455f1a-e16b-4d69-b668-6a454187b9be","ios":"levelo://app?vid=4d455f1a-e16b-4d69-b668-6a454187b9be"},"vehicle_type_id":"4","last_reported":1687698904,"current_range_meters":3600,"station_id":"ce4bhbp2rcd13ifvqerg","pricing_plan_id":"free"},{"bike_id":"83fa2a0b-901b-4b9f-8c6d-b649dcc299d7","system_id":"levelo_inurba_marseille","lat":43.28269,"lon":5.3507,"is_reserved":false,"is_disabled":false,"rental_uris":{"android":"levelo://app?vid=83fa2a0b-901b-4b9f-8c6d-b649dcc299d7","ios":"levelo://app?vid=83fa2a0b-901b-4b9f-8c6d-b649dcc299d7"},"vehicle_type_id":"4","last_reported":1687698904,"current_range_meters":12000,"station_id":"ce4bhbp2rcd13ifvqerg","pricing_plan_id":"free"},{"bike_id":"a29a73a4-fa31-45f3-9b21-a7fa3a29ab15","system_id":"levelo_inurba_marseille","lat":43.282754,"lon":5.350519,"is_reserved":false,"is_disabled":false,"rental_uris":{"android":"levelo://app?vid=a29a73a4-fa31-45f3-9b21-a7fa3a29ab15","ios":"levelo://app?vid=a29a73a4-fa31-45f3-9b21-a7fa3a29ab15"},"vehicle_type_id":"4","last_reported":1687698904,"current_range_meters":14800,"station_id":"ce4bhbp2rcd13ifvqerg","pricing_plan_id":"free"},{"bike_id":"7abaa557-36a7-4397-948e-022840abe541","system_id":"levelo_inurba_marseille","lat":43.28269,"lon":5.35066,"is_reserved":false,"is_disabled":false,"rental_uris":{"android":"levelo://app?vid=7abaa557-36a7-4397-948e-022840abe541","ios":"levelo://app?vid=7abaa557-36a7-4397-948e-022840abe541"},"vehicle_type_id":"4","last_reported":1687698904,"current_range_meters":23200,"station_id":"ce4bhbp2rcd13ifvqerg","pricing_plan_id":"free"},{"bike_id":"2c0c31ab-58c8-4532-91d6-bca615030863","system_id":"levelo_inurba_marseille","lat":43.28266,"lon":5.35076,"is_reserved":false,"is_disabled":false,"rental_uris":{"android":"levelo://app?vid=2c0c31ab-58c8-4532-91d6-bca615030863","ios":"levelo://app?vid=2c0c31ab-58c8-4532-91d6-bca615030863"},"vehicle_type_id":"4","last_reported":1687698904,"current_range_meters":29600,"station_id":"ce4bhbp2rcd13ifvqerg","pricing_plan_id":"free"},{"bike_id":"62cc6075-597b-41a2-a2d6-8d8fb8c51c4d","system_id":"levelo_inurba_marseille","lat":43.28265,"lon":5.35076,"is_reserved":false,"is_disabled":false,"rental_uris":{"android":"levelo://app?vid=62cc6075-597b-41a2-a2d6-8d8fb8c51c4d","ios":"levelo://app?vid=62cc6075-597b-41a2-a2d6-8d8fb8c51c4d"},"vehicle_type_id":"4","last_reported":1687698904,"current_range_meters":29600,"station_id":"ce4bhbp2rcd13ifvqerg","pricing_plan_id":"free"},{"bike_id":"e56bb733-23b8-4d24-be4e-f41e18dce229","system_id":"levelo_inurba_marseille","lat":43.28267,"lon":5.35068,"is_reserved":false,"is_disabled":false,"rental_uris":{"android":"levelo://app?vid=e56bb733-23b8-4d24-be4e-f41e18dce229","ios":"levelo://app?vid=e56bb733-23b8-4d24-be4e-f41e18dce229"},"vehicle_type_id":"4","last_reported":1687698904,"current_range_meters":1600,"station_id":"ce4bhbp2rcd13ifvqerg","pricing_plan_id":"free"},{"bike_id":"e6dbfabb-288c-475f-87fa-d20d0d4f680f","system_id":"levelo_inurba_marseille","lat":43.28265,"lon":5.35075,"is_reserved":false,"is_disabled":false,"rental_uris":{"android":"levelo://app?vid=e6dbfabb-288c-475f-87fa-d20d0d4f680f","ios":"levelo://app?vid=e6dbfabb-288c-475f-87fa-d20d0d4f680f"},"vehicle_type_id":"4","last_reported":1687698904,"current_range_meters":24800,"station_id":"ce4bhbp2rcd13ifvqerg","pricing_plan_id":"free"},{"bike_id":"b51f1522-4166-4d9c-8a78-38a469463e52","system_id":"levelo_inurba_marseille","lat":43.28267,"lon":5.35067,"is_reserved":false,"is_disabled":false,"rental_uris":{"android":"levelo://app?vid=b51f1522-4166-4d9c-8a78-38a469463e52","ios":"levelo://app?vid=b51f1522-4166-4d9c-8a78-38a469463e52"},"vehicle_type_id":"4","last_reported":1687698904,"current_range_meters":5600,"station_id":"ce4bhbp2rcd13ifvqerg","pricing_plan_id":"free"},{"bike_id":"bbdcdb38-abfa-47be-97ac-60f365a9c988","system_id":"levelo_inurba_marseille","lat":43.28268,"lon":5.35063,"is_reserved":false,"is_disabled":false,"rental_uris":{"android":"levelo://app?vid=bbdcdb38-abfa-47be-97ac-60f365a9c988","ios":"levelo://app?vid=bbdcdb38-abfa-47be-97ac-60f365a9c988"},"vehicle_type_id":"4","last_reported":1687698904,"current_range_meters":5600,"station_id":"ce4bhbp2rcd13ifvqerg","pricing_plan_id":"free"},{"bike_id":"9cfb9f4e-8ac1-4601-8022-1a73778657bb","system_id":"levelo_inurba_marseille","lat":43.282754,"lon":5.350519,"is_reserved":false,"is_disabled":false,"rental_uris":{"android":"levelo://app?vid=9cfb9f4e-8ac1-4601-8022-1a73778657bb","ios":"levelo://app?vid=9cfb9f4e-8ac1-4601-8022-1a73778657bb"},"vehicle_type_id":"4","last_reported":1687698904,"current_range_meters":28000,"station_id":"ce4bhbp2rcd13ifvqerg","pricing_plan_id":"free"},{"bike_id":"fd6c122e-5725-4fff-9b2a-1409ff5d9991","system_id":"levelo_inurba_marseille","lat":43.28268,"lon":5.3506,"is_reserved":false,"is_disabled":false,"rental_uris":{"android":"levelo://app?vid=fd6c122e-5725-4fff-9b2a-1409ff5d9991","ios":"levelo://app?vid=fd6c122e-5725-4fff-9b2a-1409ff5d9991"},"vehicle_type_id":"4","last_reported":1687698904,"current_range_meters":18400,"station_id":"ce4bhbp2rcd13ifvqerg","pricing_plan_id":"free"},{"bike_id":"01d9f063-aac5-4ca1-ba96-35fd2120e0d7","system_id":"levelo_inurba_marseille","lat":43.28264,"lon":5.35071,"is_reserved":false,"is_disabled":false,"rental_uris":{"android":"levelo://app?vid=01d9f063-aac5-4ca1-ba96-35fd2120e0d7","ios":"levelo://app?vid=01d9f063-aac5-4ca1-ba96-35fd2120e0d7"},"vehicle_type_id":"4","last_reported":1687698904,"current_range_meters":27600,"station_id":"ce4bhbp2rcd13ifvqerg","pricing_plan_id":"free"},{"bike_id":"9fac9bf5-bc94-415b-b51a-608e487c1094","system_id":"levelo_inurba_marseille","lat":43.28264,"lon":5.35071,"is_reserved":false,"is_disabled":false,"rental_uris":{"android":"levelo://app?vid=9fac9bf5-bc94-415b-b51a-608e487c1094","ios":"levelo://app?vid=9fac9bf5-bc94-415b-b51a-608e487c1094"},"vehicle_type_id":"4","last_reported":1687698904,"current_range_meters":19200,"station_id":"ce4bhbp2rcd13ifvqerg","pricing_plan_id":"free"},{"bike_id":"11b148a6-e497-44a5-8546-05aa0bc5aedf","system_id":"levelo_inurba_marseille","lat":43.28265,"lon":5.35066,"is_reserved":false,"is_disabled":false,"rental_uris":{"android":"levelo://app?vid=11b148a6-e497-44a5-8546-05aa0bc5aedf","ios":"levelo://app?vid=11b148a6-e497-44a5-8546-05aa0bc5aedf"},"vehicle_type_id":"4","last_reported":1687698904,"current_range_meters":21200,"station_id":"ce4bhbp2rcd13ifvqerg","pricing_plan_id":"free"},{"bike_id":"71687c92-4be1-441b-aaf1-f2076538102a","system_id":"levelo_inurba_marseille","lat":43.28264,"lon":5.35069,"is_reserved":false,"is_disabled":false,"rental_uris":{"android":"levelo://app?vid=71687c92-4be1-441b-aaf1-f2076538102a","ios":"levelo://app?vid=71687c92-4be1-441b-aaf1-f2076538102a"},"vehicle_type_id":"4","last_reported":1687698904,"current_range_meters":13200,"station_id":"ce4bhbp2rcd13ifvqerg","pricing_plan_id":"free"},{"bike_id":"27f06765-3fcb-46a5-9873-7bfe919ffd75","system_id":"levelo_inurba_marseille","lat":43.28267,"lon":5.35058,"is_reserved":false,"is_disabled":false,"rental_uris":{"android":"levelo://app?vid=27f06765-3fcb-46a5-9873-7bfe919ffd75","ios":"levelo://app?vid=27f06765-3fcb-46a5-9873-7bfe919ffd75"},"vehicle_type_id":"4","last_reported":1687698904,"current_range_meters":25600,"station_id":"ce4bhbp2rcd13ifvqerg","pricing_plan_id":"free"},{"bike_id":"9a02c907-49b8-4d67-b759-16cf0d5ef528","system_id":"levelo_inurba_marseille","lat":43.28267,"lon":5.35056,"is_reserved":false,"is_disabled":false,"rental_uris":{"android":"levelo://app?vid=9a02c907-49b8-4d67-b759-16cf0d5ef528","ios":"levelo://app?vid=9a02c907-49b8-4d67-b759-16cf0d5ef528"},"vehicle_type_id":"4","last_reported":1687698904,"current_range_meters":7200,"station_id":"ce4bhbp2rcd13ifvqerg","pricing_plan_id":"free"},{"bike_id":"15c47abf-505f-4ca6-a7b3-e7ceac827ec6","system_id":"levelo_inurba_marseille","lat":43.28262,"lon":5.35073,"is_reserved":false,"is_disabled":false,"rental_uris":{"android":"levelo://app?vid=15c47abf-505f-4ca6-a7b3-e7ceac827ec6","ios":"levelo://app?vid=15c47abf-505f-4ca6-a7b3-e7ceac827ec6"},"vehicle_type_id":"4","last_reported":1687698904,"current_range_meters":30400,"station_id":"ce4bhbp2rcd13ifvqerg","pricing_plan_id":"free"},{"bike_id":"612b844c-c0b6-4b30-b081-2d8b0240a81b","system_id":"levelo_inurba_marseille","lat":43.28261,"lon":5.35076,"is_reserved":false,"is_disabled":false,"rental_uris":{"android":"levelo://app?vid=612b844c-c0b6-4b30-b081-2d8b0240a81b","ios":"levelo://app?vid=612b844c-c0b6-4b30-b081-2d8b0240a81b"},"vehicle_type_id":"4","last_reported":1687698904,"current_range_meters":27200,"station_id":"ce4bhbp2rcd13ifvqerg","pricing_plan_id":"free"},{"bike_id":"158bc783-09ed-41e9-be6c-e798598a7eb6","system_id":"levelo_inurba_marseille","lat":43.28263,"lon":5.35068,"is_reserved":false,"is_disabled":false,"rental_uris":{"android":"levelo://app?vid=158bc783-09ed-41e9-be6c-e798598a7eb6","ios":"levelo://app?vid=158bc783-09ed-41e9-be6c-e798598a7eb6"},"vehicle_type_id":"4","last_reported":1687698904,"current_range_meters":29600,"station_id":"ce4bhbp2rcd13ifvqerg","pricing_plan_id":"free"},{"bike_id":"6396bbf4-f27b-4364-827a-d926718aa277","system_id":"levelo_inurba_marseille","lat":43.28265,"lon":5.3506,"is_reserved":false,"is_disabled":false,"rental_uris":{"android":"levelo://app?vid=6396bbf4-f27b-4364-827a-d926718aa277","ios":"levelo://app?vid=6396bbf4-f27b-4364-827a-d926718aa277"},"vehicle_type_id":"4","last_reported":1687698904,"current_range_meters":18400,"station_id":"ce4bhbp2rcd13ifvqerg","pricing_plan_id":"free"},{"bike_id":"e5d77057-9d53-4fc0-83c3-96022e48bbfe","system_id":"levelo_inurba_marseille","lat":43.28262,"lon":5.35069,"is_reserved":false,"is_disabled":false,"rental_uris":{"android":"levelo://app?vid=e5d77057-9d53-4fc0-83c3-96022e48bbfe","ios":"levelo://app?vid=e5d77057-9d53-4fc0-83c3-96022e48bbfe"},"vehicle_type_id":"4","last_reported":1687698904,"current_range_meters":12800,"station_id":"ce4bhbp2rcd13ifvqerg","pricing_plan_id":"free"},{"bike_id":"5c7fa59a-10c0-42f6-a6be-9012a28e247b","system_id":"levelo_inurba_marseille","lat":43.282754,"lon":5.350519,"is_reserved":false,"is_disabled":false,"rental_uris":{"android":"levelo://app?vid=5c7fa59a-10c0-42f6-a6be-9012a28e247b","ios":"levelo://app?vid=5c7fa59a-10c0-42f6-a6be-9012a28e247b"},"vehicle_type_id":"4","last_reported":1687698904,"current_range_meters":4400,"station_id":"ce4bhbp2rcd13ifvqerg","pricing_plan_id":"free"},{"bike_id":"9ac49f7b-c5aa-4ac9-8d96-90e64a58cbe9","system_id":"levelo_inurba_marseille","lat":43.28262,"lon":5.35066,"is_reserved":false,"is_disabled":false,"rental_uris":{"android":"levelo://app?vid=9ac49f7b-c5aa-4ac9-8d96-90e64a58cbe9","ios":"levelo://app?vid=9ac49f7b-c5aa-4ac9-8d96-90e64a58cbe9"},"vehicle_type_id":"4","last_reported":1687698904,"current_range_meters":24800,"station_id":"ce4bhbp2rcd13ifvqerg","pricing_plan_id":"free"},{"bike_id":"933b3ec9-647d-4c41-8e0c-76cf26df95ee","system_id":"levelo_inurba_marseille","lat":43.282641,"lon":5.350575,"is_reserved":false,"is_disabled":false,"rental_uris":{"android":"levelo://app?vid=933b3ec9-647d-4c41-8e0c-76cf26df95ee","ios":"levelo://app?vid=933b3ec9-647d-4c41-8e0c-76cf26df95ee"},"vehicle_type_id":"4","last_reported":1687698904,"current_range_meters":18000,"station_id":"ce4bhbp2rcd13ifvqerg","pricing_plan_id":"free"},{"bike_id":"0b698306-acbe-4088-a11d-35de6a78fd20","system_id":"levelo_inurba_marseille","lat":43.28259,"lon":5.35071,"is_reserved":false,"is_disabled":false,"rental_uris":{"android":"levelo://app?vid=0b698306-acbe-4088-a11d-35de6a78fd20","ios":"levelo://app?vid=0b698306-acbe-4088-a11d-35de6a78fd20"},"vehicle_type_id":"4","last_reported":1687698904,"current_range_meters":24800,"station_id":"ce4bhbp2rcd13ifvqerg","pricing_plan_id":"free"},{"bike_id":"5724f1dc-32e1-4520-b525-a240e6d6951c","system_id":"levelo_inurba_marseille","lat":43.28262,"lon":5.35059,"is_reserved":false,"is_disabled":false,"rental_uris":{"android":"levelo://app?vid=5724f1dc-32e1-4520-b525-a240e6d6951c","ios":"levelo://app?vid=5724f1dc-32e1-4520-b525-a240e6d6951c"},"vehicle_type_id":"4","last_reported":1687698904,"current_range_meters":12000,"station_id":"ce4bhbp2rcd13ifvqerg","pricing_plan_id":"free"},{"bike_id":"4bc78e7c-a696-4adf-b349-e9353af5e0eb","system_id":"levelo_inurba_marseille","lat":43.28262,"lon":5.35055,"is_reserved":false,"is_disabled":false,"rental_uris":{"android":"levelo://app?vid=4bc78e7c-a696-4adf-b349-e9353af5e0eb","ios":"levelo://app?vid=4bc78e7c-a696-4adf-b349-e9353af5e0eb"},"vehicle_type_id":"4","last_reported":1687698904,"current_range_meters":18000,"station_id":"ce4bhbp2rcd13ifvqerg","pricing_plan_id":"free"},{"bike_id":"7219052f-901c-477f-8be4-eb37849d04fa","system_id":"levelo_inurba_marseille","lat":43.290175,"lon":5.399354,"is_reserved":false,"is_disabled":false,"rental_uris":{"android":"levelo://app?vid=7219052f-901c-477f-8be4-eb37849d04fa","ios":"levelo://app?vid=7219052f-901c-477f-8be4-eb37849d04fa"},"vehicle_type_id":"4","last_reported":1687698904,"current_range_meters":15200,"station_id":"ce4bh392rcd13ifvqdm0","pricing_plan_id":"free"},{"bike_id":"d33be40e-72df-43d0-998f-d9ca5da688b9","system_id":"levelo_inurba_marseille","lat":43.281044,"lon":5.378308,"is_reserved":false,"is_disabled":false,"rental_uris":{"android":"levelo://app?vid=d33be40e-72df-43d0-998f-d9ca5da688b9","ios":"levelo://app?vid=d33be40e-72df-43d0-998f-d9ca5da688b9"},"vehicle_type_id":"4","last_reported":1687698904,"current_range_meters":800,"station_id":"ce4bha12rcd13ifvqee0","pricing_plan_id":"free"},{"bike_id":"bd1a7e5d-9781-477f-915b-02685a04a800","system_id":"levelo_inurba_marseille","lat":43.281044,"lon":5.378308,"is_reserved":false,"is_disabled":false,"rental_uris":{"android":"levelo://app?vid=bd1a7e5d-9781-477f-915b-02685a04a800","ios":"levelo://app?vid=bd1a7e5d-9781-477f-915b-02685a04a800"},"vehicle_type_id":"4","last_reported":1687698904,"current_range_meters":8800,"station_id":"ce4bha12rcd13ifvqee0","pricing_plan_id":"free"},{"bike_id":"29af5df0-bb63-44cf-9eeb-2e6caf38ac11","system_id":"levelo_inurba_marseille","lat":43.284462,"lon":5.392121,"is_reserved":false,"is_disabled":false,"rental_uris":{"android":"levelo://app?vid=29af5df0-bb63-44cf-9eeb-2e6caf38ac11","ios":"levelo://app?vid=29af5df0-bb63-44cf-9eeb-2e6caf38ac11"},"vehicle_type_id":"4","last_reported":1687698904,"current_range_meters":23600,"station_id":"ce4bhoh2rcd13ifvqh5g","pricing_plan_id":"free"},{"bike_id":"899ca437-e6f9-49b3-b575-f6ae27171954","system_id":"levelo_inurba_marseille","lat":43.326605,"lon":5.409903,"is_reserved":false,"is_disabled":false,"rental_uris":{"android":"levelo://app?vid=899ca437-e6f9-49b3-b575-f6ae27171954","ios":"levelo://app?vid=899ca437-e6f9-49b3-b575-f6ae27171954"},"vehicle_type_id":"4","last_reported":1687698904,"current_range_meters":31200,"station_id":"ce4bhpp2rcd13ifvqhgg","pricing_plan_id":"free"},{"bike_id":"ebeb8ff5-e51c-4b18-b07a-c62304e88b17","system_id":"levelo_inurba_marseille","lat":43.326605,"lon":5.409903,"is_reserved":false,"is_disabled":false,"rental_uris":{"android":"levelo://app?vid=ebeb8ff5-e51c-4b18-b07a-c62304e88b17","ios":"levelo://app?vid=ebeb8ff5-e51c-4b18-b07a-c62304e88b17"},"vehicle_type_id":"4","last_reported":1687698904,"current_range_meters":31600,"station_id":"ce4bhpp2rcd13ifvqhgg","pricing_plan_id":"free"},{"bike_id":"ff60adae-f71a-4e2f-9c03-c28e9ecc3c45","system_id":"levelo_inurba_marseille","lat":43.326605,"lon":5.409903,"is_reserved":false,"is_disabled":false,"rental_uris":{"android":"levelo://app?vid=ff60adae-f71a-4e2f-9c03-c28e9ecc3c45","ios":"levelo://app?vid=ff60adae-f71a-4e2f-9c03-c28e9ecc3c45"},"vehicle_type_id":"4","last_reported":1687698904,"current_range_meters":31600,"station_id":"ce4bhpp2rcd13ifvqhgg","pricing_plan_id":"free"},{"bike_id":"7f4e5f33-3d6b-4470-b773-9bb881f7fc86","system_id":"levelo_inurba_marseille","lat":43.326576,"lon":5.409933,"is_reserved":false,"is_disabled":false,"rental_uris":{"android":"levelo://app?vid=7f4e5f33-3d6b-4470-b773-9bb881f7fc86","ios":"levelo://app?vid=7f4e5f33-3d6b-4470-b773-9bb881f7fc86"},"vehicle_type_id":"4","last_reported":1687698904,"current_range_meters":0,"station_id":"ce4bhpp2rcd13ifvqhgg","pricing_plan_id":"free"},{"bike_id":"e5f19913-67c1-4c42-889b-a58207584fb0","system_id":"levelo_inurba_marseille","lat":43.326605,"lon":5.409903,"is_reserved":false,"is_disabled":false,"rental_uris":{"android":"levelo://app?vid=e5f19913-67c1-4c42-889b-a58207584fb0","ios":"levelo://app?vid=e5f19913-67c1-4c42-889b-a58207584fb0"},"vehicle_type_id":"4","last_reported":1687698904,"current_range_meters":23600,"station_id":"ce4bhpp2rcd13ifvqhgg","pricing_plan_id":"free"},{"bike_id":"1700c758-6069-4b09-bec2-365edf85c82c","system_id":"levelo_inurba_marseille","lat":43.279087,"lon":5.380114,"is_reserved":false,"is_disabled":false,"rental_uris":{"android":"levelo://app?vid=1700c758-6069-4b09-bec2-365edf85c82c","ios":"levelo://app?vid=1700c758-6069-4b09-bec2-365edf85c82c"},"vehicle_type_id":"4","last_reported":1687698904,"current_range_meters":3600,"station_id":"ce4bhf92rcd13ifvqf50","pricing_plan_id":"free"},{"bike_id":"50fd953c-9754-45f4-aec7-ae52bb9eb6fe","system_id":"levelo_inurba_marseille","lat":43.287154,"lon":5.399979,"is_reserved":false,"is_disabled":false,"rental_uris":{"android":"levelo://app?vid=50fd953c-9754-45f4-aec7-ae52bb9eb6fe","ios":"levelo://app?vid=50fd953c-9754-45f4-aec7-ae52bb9eb6fe"},"vehicle_type_id":"4","last_reported":1687698904,"current_range_meters":31200,"station_id":"ce4bho92rcd13ifvqh3g","pricing_plan_id":"free"},{"bike_id":"b53c8549-56e4-4970-8294-9584e693bef7","system_id":"levelo_inurba_marseille","lat":43.3321,"lon":5.40747,"is_reserved":false,"is_disabled":false,"rental_uris":{"android":"levelo://app?vid=b53c8549-56e4-4970-8294-9584e693bef7","ios":"levelo://app?vid=b53c8549-56e4-4970-8294-9584e693bef7"},"vehicle_type_id":"4","last_reported":1687698904,"current_range_meters":0,"station_id":"","pricing_plan_id":"free"},{"bike_id":"a172d38c-f93c-4cbf-bf9d-9fcf68806f29","system_id":"levelo_inurba_marseille","lat":43.320045,"lon":5.415046,"is_reserved":false,"is_disabled":false,"rental_uris":{"android":"levelo://app?vid=a172d38c-f93c-4cbf-bf9d-9fcf68806f29","ios":"levelo://app?vid=a172d38c-f93c-4cbf-bf9d-9fcf68806f29"},"vehicle_type_id":"4","last_reported":1687698904,"current_range_meters":28800,"station_id":"ce4bhq92rcd13ifvqhkg","pricing_plan_id":"free"},{"bike_id":"f8bd33ba-cad1-430f-97f0-c9495572dd07","system_id":"levelo_inurba_marseille","lat":43.29961,"lon":5.41316,"is_reserved":false,"is_disabled":false,"rental_uris":{"android":"levelo://app?vid=f8bd33ba-cad1-430f-97f0-c9495572dd07","ios":"levelo://app?vid=f8bd33ba-cad1-430f-97f0-c9495572dd07"},"vehicle_type_id":"4","last_reported":1687698904,"current_range_meters":13200,"station_id":"ce4bhp12rcd13ifvqh9g","pricing_plan_id":"free"},{"bike_id":"6ddd9db2-f031-47fb-9b72-596406d32e01","system_id":"levelo_inurba_marseille","lat":43.320045,"lon":5.415046,"is_reserved":false,"is_disabled":false,"rental_uris":{"android":"levelo://app?vid=6ddd9db2-f031-47fb-9b72-596406d32e01","ios":"levelo://app?vid=6ddd9db2-f031-47fb-9b72-596406d32e01"},"vehicle_type_id":"4","last_reported":1687698904,"current_range_meters":31200,"station_id":"ce4bhq92rcd13ifvqhkg","pricing_plan_id":"free"},{"bike_id":"038c1315-0345-4a1f-a030-5235183c0bf5","system_id":"levelo_inurba_marseille","lat":43.320045,"lon":5.415048,"is_reserved":false,"is_disabled":false,"rental_uris":{"android":"levelo://app?vid=038c1315-0345-4a1f-a030-5235183c0bf5","ios":"levelo://app?vid=038c1315-0345-4a1f-a030-5235183c0bf5"},"vehicle_type_id":"4","last_reported":1687698904,"current_range_meters":22400,"station_id":"ce4bhq92rcd13ifvqhkg","pricing_plan_id":"free"},{"bike_id":"db3f3696-ebf4-4008-98ff-5b41b9bf2322","system_id":"levelo_inurba_marseille","lat":43.320045,"lon":5.415048,"is_reserved":false,"is_disabled":false,"rental_uris":{"android":"levelo://app?vid=db3f3696-ebf4-4008-98ff-5b41b9bf2322","ios":"levelo://app?vid=db3f3696-ebf4-4008-98ff-5b41b9bf2322"},"vehicle_type_id":"4","last_reported":1687698904,"current_range_meters":28800,"station_id":"ce4bhq92rcd13ifvqhkg","pricing_plan_id":"free"},{"bike_id":"b8f19276-1636-4306-822d-3659137967d2","system_id":"levelo_inurba_marseille","lat":43.320045,"lon":5.415046,"is_reserved":false,"is_disabled":false,"rental_uris":{"android":"levelo://app?vid=b8f19276-1636-4306-822d-3659137967d2","ios":"levelo://app?vid=b8f19276-1636-4306-822d-3659137967d2"},"vehicle_type_id":"4","last_reported":1687698904,"current_range_meters":30800,"station_id":"ce4bhq92rcd13ifvqhkg","pricing_plan_id":"free"},{"bike_id":"6b081579-5bc6-4147-a52b-60a25fbaf4d1","system_id":"levelo_inurba_marseille","lat":43.325233,"lon":5.414318,"is_reserved":false,"is_disabled":false,"rental_uris":{"android":"levelo://app?vid=6b081579-5bc6-4147-a52b-60a25fbaf4d1","ios":"levelo://app?vid=6b081579-5bc6-4147-a52b-60a25fbaf4d1"},"vehicle_type_id":"4","last_reported":1687698904,"current_range_meters":29600,"station_id":"ce4bhq12rcd13ifvqhhg","pricing_plan_id":"free"},{"bike_id":"fe75d0f9-4536-4209-9e20-3b6ca64537a9","system_id":"levelo_inurba_marseille","lat":43.276179,"lon":5.361009,"is_reserved":false,"is_disabled":false,"rental_uris":{"android":"levelo://app?vid=fe75d0f9-4536-4209-9e20-3b6ca64537a9","ios":"levelo://app?vid=fe75d0f9-4536-4209-9e20-3b6ca64537a9"},"vehicle_type_id":"4","last_reported":1687698904,"current_range_meters":14000,"station_id":"ce4bgj92rcd13ifvqbe0","pricing_plan_id":"free"},{"bike_id":"60245eca-b85b-4e49-959e-ef046aea2914","system_id":"levelo_inurba_marseille","lat":43.325233,"lon":5.414318,"is_reserved":false,"is_disabled":false,"rental_uris":{"android":"levelo://app?vid=60245eca-b85b-4e49-959e-ef046aea2914","ios":"levelo://app?vid=60245eca-b85b-4e49-959e-ef046aea2914"},"vehicle_type_id":"4","last_reported":1687698904,"current_range_meters":27200,"station_id":"ce4bhq12rcd13ifvqhhg","pricing_plan_id":"free"},{"bike_id":"7214c09a-664c-453e-9789-665897393467","system_id":"levelo_inurba_marseille","lat":43.27616,"lon":5.36104,"is_reserved":false,"is_disabled":false,"rental_uris":{"android":"levelo://app?vid=7214c09a-664c-453e-9789-665897393467","ios":"levelo://app?vid=7214c09a-664c-453e-9789-665897393467"},"vehicle_type_id":"4","last_reported":1687698904,"current_range_meters":16000,"station_id":"ce4bgj92rcd13ifvqbe0","pricing_plan_id":"free"},{"bike_id":"adf0ea61-0d73-49a9-81f8-7ebe6388818f","system_id":"levelo_inurba_marseille","lat":43.325243,"lon":5.414326,"is_reserved":false,"is_disabled":false,"rental_uris":{"android":"levelo://app?vid=adf0ea61-0d73-49a9-81f8-7ebe6388818f","ios":"levelo://app?vid=adf0ea61-0d73-49a9-81f8-7ebe6388818f"},"vehicle_type_id":"4","last_reported":1687698904,"current_range_meters":21600,"station_id":"ce4bhq12rcd13ifvqhhg","pricing_plan_id":"free"},{"bike_id":"e73900ad-bdf3-48b5-892e-cbd3af007b28","system_id":"levelo_inurba_marseille","lat":43.325233,"lon":5.414318,"is_reserved":false,"is_disabled":false,"rental_uris":{"android":"levelo://app?vid=e73900ad-bdf3-48b5-892e-cbd3af007b28","ios":"levelo://app?vid=e73900ad-bdf3-48b5-892e-cbd3af007b28"},"vehicle_type_id":"4","last_reported":1687698904,"current_range_meters":28800,"station_id":"ce4bhq12rcd13ifvqhhg","pricing_plan_id":"free"},{"bike_id":"26a13f28-f50f-4348-8f81-d0cd80a36953","system_id":"levelo_inurba_marseille","lat":43.325233,"lon":5.414318,"is_reserved":false,"is_disabled":false,"rental_uris":{"android":"levelo://app?vid=26a13f28-f50f-4348-8f81-d0cd80a36953","ios":"levelo://app?vid=26a13f28-f50f-4348-8f81-d0cd80a36953"},"vehicle_type_id":"4","last_reported":1687698904,"current_range_meters":28400,"station_id":"ce4bhq12rcd13ifvqhhg","pricing_plan_id":"free"},{"bike_id":"21fe337c-ac48-4570-b7b1-7ecd4c40936c","system_id":"levelo_inurba_marseille","lat":43.280784,"lon":5.396622,"is_reserved":false,"is_disabled":false,"rental_uris":{"android":"levelo://app?vid=21fe337c-ac48-4570-b7b1-7ecd4c40936c","ios":"levelo://app?vid=21fe337c-ac48-4570-b7b1-7ecd4c40936c"},"vehicle_type_id":"4","last_reported":1687698904,"current_range_meters":13200,"station_id":"ce4bho12rcd13ifvqh2g","pricing_plan_id":"free"},{"bike_id":"5c613034-f444-43e2-845c-832192adb647","system_id":"levelo_inurba_marseille","lat":43.280784,"lon":5.396622,"is_reserved":false,"is_disabled":false,"rental_uris":{"android":"levelo://app?vid=5c613034-f444-43e2-845c-832192adb647","ios":"levelo://app?vid=5c613034-f444-43e2-845c-832192adb647"},"vehicle_type_id":"4","last_reported":1687698904,"current_range_meters":28400,"station_id":"ce4bho12rcd13ifvqh2g","pricing_plan_id":"free"},{"bike_id":"5b8ed45a-8d6b-4f5a-9063-f50226e4be5e","system_id":"levelo_inurba_marseille","lat":43.280784,"lon":5.396622,"is_reserved":false,"is_disabled":false,"rental_uris":{"android":"levelo://app?vid=5b8ed45a-8d6b-4f5a-9063-f50226e4be5e","ios":"levelo://app?vid=5b8ed45a-8d6b-4f5a-9063-f50226e4be5e"},"vehicle_type_id":"4","last_reported":1687698904,"current_range_meters":30800,"station_id":"ce4bho12rcd13ifvqh2g","pricing_plan_id":"free"},{"bike_id":"09a7840a-53d6-423f-994e-26e7323145c9","system_id":"levelo_inurba_marseille","lat":43.278399,"lon":5.392139,"is_reserved":false,"is_disabled":false,"rental_uris":{"android":"levelo://app?vid=09a7840a-53d6-423f-994e-26e7323145c9","ios":"levelo://app?vid=09a7840a-53d6-423f-994e-26e7323145c9"},"vehicle_type_id":"4","last_reported":1687698904,"current_range_meters":31200,"station_id":"ce4bhjp2rcd13ifvqga0","pricing_plan_id":"free"},{"bike_id":"538cd761-701d-4444-8a3a-7e26f7206301","system_id":"levelo_inurba_marseille","lat":43.27384,"lon":5.36257,"is_reserved":false,"is_disabled":false,"rental_uris":{"android":"levelo://app?vid=538cd761-701d-4444-8a3a-7e26f7206301","ios":"levelo://app?vid=538cd761-701d-4444-8a3a-7e26f7206301"},"vehicle_type_id":"4","last_reported":1687698904,"current_range_meters":11600,"station_id":"","pricing_plan_id":"free"},{"bike_id":"1bac3160-f7db-4715-bb52-42333d84c069","system_id":"levelo_inurba_marseille","lat":43.27382,"lon":5.36251,"is_reserved":false,"is_disabled":false,"rental_uris":{"android":"levelo://app?vid=1bac3160-f7db-4715-bb52-42333d84c069","ios":"levelo://app?vid=1bac3160-f7db-4715-bb52-42333d84c069"},"vehicle_type_id":"4","last_reported":1687698904,"current_range_meters":0,"station_id":"","pricing_plan_id":"free"},{"bike_id":"70d47b96-39f0-4f0f-bfb4-e641103bf1d8","system_id":"levelo_inurba_marseille","lat":43.27381,"lon":5.36253,"is_reserved":false,"is_disabled":false,"rental_uris":{"android":"levelo://app?vid=70d47b96-39f0-4f0f-bfb4-e641103bf1d8","ios":"levelo://app?vid=70d47b96-39f0-4f0f-bfb4-e641103bf1d8"},"vehicle_type_id":"4","last_reported":1687698904,"current_range_meters":11200,"station_id":"ce4bhbh2rcd13ifvqeo0","pricing_plan_id":"free"},{"bike_id":"4fa69be5-5800-45c1-8c89-479447dda3c7","system_id":"levelo_inurba_marseille","lat":43.2738,"lon":5.36259,"is_reserved":false,"is_disabled":false,"rental_uris":{"android":"levelo://app?vid=4fa69be5-5800-45c1-8c89-479447dda3c7","ios":"levelo://app?vid=4fa69be5-5800-45c1-8c89-479447dda3c7"},"vehicle_type_id":"4","last_reported":1687698904,"current_range_meters":24000,"station_id":"ce4bhbh2rcd13ifvqeo0","pricing_plan_id":"free"},{"bike_id":"1e3853ef-8fc3-4989-b05f-f9eec401636a","system_id":"levelo_inurba_marseille","lat":43.273609,"lon":5.362708,"is_reserved":false,"is_disabled":false,"rental_uris":{"android":"levelo://app?vid=1e3853ef-8fc3-4989-b05f-f9eec401636a","ios":"levelo://app?vid=1e3853ef-8fc3-4989-b05f-f9eec401636a"},"vehicle_type_id":"4","last_reported":1687698904,"current_range_meters":31200,"station_id":"ce4bhbh2rcd13ifvqeo0","pricing_plan_id":"free"},{"bike_id":"4aa4bbc3-5026-40d6-89a4-0a0c6d310717","system_id":"levelo_inurba_marseille","lat":43.273613,"lon":5.362705,"is_reserved":false,"is_disabled":false,"rental_uris":{"android":"levelo://app?vid=4aa4bbc3-5026-40d6-89a4-0a0c6d310717","ios":"levelo://app?vid=4aa4bbc3-5026-40d6-89a4-0a0c6d310717"},"vehicle_type_id":"4","last_reported":1687698904,"current_range_meters":26800,"station_id":"ce4bhbh2rcd13ifvqeo0","pricing_plan_id":"free"},{"bike_id":"333ff5cf-bc22-4a89-a415-a54baff31708","system_id":"levelo_inurba_marseille","lat":43.27377,"lon":5.36249,"is_reserved":false,"is_disabled":false,"rental_uris":{"android":"levelo://app?vid=333ff5cf-bc22-4a89-a415-a54baff31708","ios":"levelo://app?vid=333ff5cf-bc22-4a89-a415-a54baff31708"},"vehicle_type_id":"4","last_reported":1687698904,"current_range_meters":15200,"station_id":"ce4bhbh2rcd13ifvqeo0","pricing_plan_id":"free"},{"bike_id":"80065080-2dff-4d28-b0f6-3d98779da3a8","system_id":"levelo_inurba_marseille","lat":43.273609,"lon":5.362708,"is_reserved":false,"is_disabled":false,"rental_uris":{"android":"levelo://app?vid=80065080-2dff-4d28-b0f6-3d98779da3a8","ios":"levelo://app?vid=80065080-2dff-4d28-b0f6-3d98779da3a8"},"vehicle_type_id":"4","last_reported":1687698904,"current_range_meters":5200,"station_id":"ce4bhbh2rcd13ifvqeo0","pricing_plan_id":"free"},{"bike_id":"f44864ec-1e9e-4e99-8588-90e62969e965","system_id":"levelo_inurba_marseille","lat":43.273609,"lon":5.362708,"is_reserved":false,"is_disabled":false,"rental_uris":{"android":"levelo://app?vid=f44864ec-1e9e-4e99-8588-90e62969e965","ios":"levelo://app?vid=f44864ec-1e9e-4e99-8588-90e62969e965"},"vehicle_type_id":"4","last_reported":1687698904,"current_range_meters":15600,"station_id":"ce4bhbh2rcd13ifvqeo0","pricing_plan_id":"free"},{"bike_id":"82f2fcc2-e659-481c-ba1b-d4b71ae0a98f","system_id":"levelo_inurba_marseille","lat":43.273609,"lon":5.362708,"is_reserved":false,"is_disabled":false,"rental_uris":{"android":"levelo://app?vid=82f2fcc2-e659-481c-ba1b-d4b71ae0a98f","ios":"levelo://app?vid=82f2fcc2-e659-481c-ba1b-d4b71ae0a98f"},"vehicle_type_id":"4","last_reported":1687698904,"current_range_meters":21200,"station_id":"ce4bhbh2rcd13ifvqeo0","pricing_plan_id":"free"},{"bike_id":"9f622ca2-3886-4664-a27e-fef7f261b4c5","system_id":"levelo_inurba_marseille","lat":43.273609,"lon":5.362708,"is_reserved":false,"is_disabled":false,"rental_uris":{"android":"levelo://app?vid=9f622ca2-3886-4664-a27e-fef7f261b4c5","ios":"levelo://app?vid=9f622ca2-3886-4664-a27e-fef7f261b4c5"},"vehicle_type_id":"4","last_reported":1687698904,"current_range_meters":31200,"station_id":"ce4bhbh2rcd13ifvqeo0","pricing_plan_id":"free"},{"bike_id":"d8327044-6bd7-45a6-a47c-80774f60ae04","system_id":"levelo_inurba_marseille","lat":43.276771,"lon":5.388799,"is_reserved":false,"is_disabled":false,"rental_uris":{"android":"levelo://app?vid=d8327044-6bd7-45a6-a47c-80774f60ae04","ios":"levelo://app?vid=d8327044-6bd7-45a6-a47c-80774f60ae04"},"vehicle_type_id":"4","last_reported":1687698904,"current_range_meters":8800,"station_id":"ce4bhi12rcd13ifvqfo0","pricing_plan_id":"free"},{"bike_id":"a754533b-7ead-455e-877f-279b77cadb7c","system_id":"levelo_inurba_marseille","lat":43.30595,"lon":5.42239,"is_reserved":false,"is_disabled":false,"rental_uris":{"android":"levelo://app?vid=a754533b-7ead-455e-877f-279b77cadb7c","ios":"levelo://app?vid=a754533b-7ead-455e-877f-279b77cadb7c"},"vehicle_type_id":"4","last_reported":1687698904,"current_range_meters":28400,"station_id":"","pricing_plan_id":"free"},{"bike_id":"558b88ea-dce2-4c5d-b943-88e77e682d02","system_id":"levelo_inurba_marseille","lat":43.31725,"lon":5.42398,"is_reserved":false,"is_disabled":false,"rental_uris":{"android":"levelo://app?vid=558b88ea-dce2-4c5d-b943-88e77e682d02","ios":"levelo://app?vid=558b88ea-dce2-4c5d-b943-88e77e682d02"},"vehicle_type_id":"4","last_reported":1687698904,"current_range_meters":29200,"station_id":"ce4bhp92rcd13ifvqhbg","pricing_plan_id":"free"},{"bike_id":"6828b7fa-0055-4a77-a3f4-6642dcb71f9b","system_id":"levelo_inurba_marseille","lat":43.273125,"lon":5.390731,"is_reserved":false,"is_disabled":false,"rental_uris":{"android":"levelo://app?vid=6828b7fa-0055-4a77-a3f4-6642dcb71f9b","ios":"levelo://app?vid=6828b7fa-0055-4a77-a3f4-6642dcb71f9b"},"vehicle_type_id":"4","last_reported":1687698904,"current_range_meters":6800,"station_id":"ce4bhgp2rcd13ifvqfe0","pricing_plan_id":"free"},{"bike_id":"01208fbe-9431-4ed6-ac1f-e90329c35bdb","system_id":"levelo_inurba_marseille","lat":43.26955,"lon":5.36633,"is_reserved":false,"is_disabled":false,"rental_uris":{"android":"levelo://app?vid=01208fbe-9431-4ed6-ac1f-e90329c35bdb","ios":"levelo://app?vid=01208fbe-9431-4ed6-ac1f-e90329c35bdb"},"vehicle_type_id":"4","last_reported":1687698904,"current_range_meters":0,"station_id":"","pricing_plan_id":"free"},{"bike_id":"487b254e-8a6e-438f-bed4-bfb94cbac8ff","system_id":"levelo_inurba_marseille","lat":43.27428,"lon":5.39413,"is_reserved":false,"is_disabled":false,"rental_uris":{"android":"levelo://app?vid=487b254e-8a6e-438f-bed4-bfb94cbac8ff","ios":"levelo://app?vid=487b254e-8a6e-438f-bed4-bfb94cbac8ff"},"vehicle_type_id":"4","last_reported":1687698904,"current_range_meters":30800,"station_id":"","pricing_plan_id":"free"},{"bike_id":"1f86a134-70db-4885-99d9-842929873f0d","system_id":"levelo_inurba_marseille","lat":43.27425,"lon":5.39412,"is_reserved":false,"is_disabled":false,"rental_uris":{"android":"levelo://app?vid=1f86a134-70db-4885-99d9-842929873f0d","ios":"levelo://app?vid=1f86a134-70db-4885-99d9-842929873f0d"},"vehicle_type_id":"4","last_reported":1687698904,"current_range_meters":30000,"station_id":"","pricing_plan_id":"free"},{"bike_id":"28cf8a12-f787-4419-8cba-956be39ba6c8","system_id":"levelo_inurba_marseille","lat":43.304096,"lon":5.425385,"is_reserved":false,"is_disabled":false,"rental_uris":{"android":"levelo://app?vid=28cf8a12-f787-4419-8cba-956be39ba6c8","ios":"levelo://app?vid=28cf8a12-f787-4419-8cba-956be39ba6c8"},"vehicle_type_id":"4","last_reported":1687698904,"current_range_meters":21600,"station_id":"ce4bhoh2rcd13ifvqh6g","pricing_plan_id":"free"},{"bike_id":"9b8e2697-587d-4ff3-b8ec-e9ab942b0253","system_id":"levelo_inurba_marseille","lat":43.295523,"lon":5.422926,"is_reserved":false,"is_disabled":false,"rental_uris":{"android":"levelo://app?vid=9b8e2697-587d-4ff3-b8ec-e9ab942b0253","ios":"levelo://app?vid=9b8e2697-587d-4ff3-b8ec-e9ab942b0253"},"vehicle_type_id":"4","last_reported":1687698904,"current_range_meters":28800,"station_id":"ce4bhph2rcd13ifvqhdg","pricing_plan_id":"free"},{"bike_id":"e958e9f7-963a-45ac-9462-a90c3b9c146c","system_id":"levelo_inurba_marseille","lat":43.295511,"lon":5.422926,"is_reserved":false,"is_disabled":false,"rental_uris":{"android":"levelo://app?vid=e958e9f7-963a-45ac-9462-a90c3b9c146c","ios":"levelo://app?vid=e958e9f7-963a-45ac-9462-a90c3b9c146c"},"vehicle_type_id":"4","last_reported":1687698904,"current_range_meters":31200,"station_id":"ce4bhph2rcd13ifvqhdg","pricing_plan_id":"free"},{"bike_id":"4fa21102-9c5c-4785-8da0-3d7f957b0c31","system_id":"levelo_inurba_marseille","lat":43.272118,"lon":5.391758,"is_reserved":false,"is_disabled":false,"rental_uris":{"android":"levelo://app?vid=4fa21102-9c5c-4785-8da0-3d7f957b0c31","ios":"levelo://app?vid=4fa21102-9c5c-4785-8da0-3d7f957b0c31"},"vehicle_type_id":"4","last_reported":1687698904,"current_range_meters":28000,"station_id":"ce4bhhp2rcd13ifvqfm0","pricing_plan_id":"free"},{"bike_id":"28c5c3f1-95e9-4a20-b682-d9d05f494c00","system_id":"levelo_inurba_marseille","lat":43.27211,"lon":5.39188,"is_reserved":false,"is_disabled":false,"rental_uris":{"android":"levelo://app?vid=28c5c3f1-95e9-4a20-b682-d9d05f494c00","ios":"levelo://app?vid=28c5c3f1-95e9-4a20-b682-d9d05f494c00"},"vehicle_type_id":"4","last_reported":1687698904,"current_range_meters":18400,"station_id":"ce4bhhp2rcd13ifvqfm0","pricing_plan_id":"free"},{"bike_id":"629cba13-ccca-48e9-b862-d19e818c3f22","system_id":"levelo_inurba_marseille","lat":43.27207,"lon":5.39176,"is_reserved":false,"is_disabled":false,"rental_uris":{"android":"levelo://app?vid=629cba13-ccca-48e9-b862-d19e818c3f22","ios":"levelo://app?vid=629cba13-ccca-48e9-b862-d19e818c3f22"},"vehicle_type_id":"4","last_reported":1687698904,"current_range_meters":16400,"station_id":"ce4bhhp2rcd13ifvqfm0","pricing_plan_id":"free"},{"bike_id":"f4699fd5-b9ab-4ad1-a3f8-3db1dc6d92a4","system_id":"levelo_inurba_marseille","lat":43.272118,"lon":5.391758,"is_reserved":false,"is_disabled":false,"rental_uris":{"android":"levelo://app?vid=f4699fd5-b9ab-4ad1-a3f8-3db1dc6d92a4","ios":"levelo://app?vid=f4699fd5-b9ab-4ad1-a3f8-3db1dc6d92a4"},"vehicle_type_id":"4","last_reported":1687698904,"current_range_meters":27200,"station_id":"ce4bhhp2rcd13ifvqfm0","pricing_plan_id":"free"},{"bike_id":"58c9d66a-5265-4558-a5a3-005a051011ee","system_id":"levelo_inurba_marseille","lat":43.269319,"lon":5.389397,"is_reserved":false,"is_disabled":false,"rental_uris":{"android":"levelo://app?vid=58c9d66a-5265-4558-a5a3-005a051011ee","ios":"levelo://app?vid=58c9d66a-5265-4558-a5a3-005a051011ee"},"vehicle_type_id":"4","last_reported":1687698904,"current_range_meters":25200,"station_id":"ce4bhhh2rcd13ifvqfl0","pricing_plan_id":"free"},{"bike_id":"0d16edcb-9fcb-4fda-965b-f8230791ad01","system_id":"levelo_inurba_marseille","lat":43.26927,"lon":5.3893,"is_reserved":false,"is_disabled":false,"rental_uris":{"android":"levelo://app?vid=0d16edcb-9fcb-4fda-965b-f8230791ad01","ios":"levelo://app?vid=0d16edcb-9fcb-4fda-965b-f8230791ad01"},"vehicle_type_id":"4","last_reported":1687698904,"current_range_meters":15200,"station_id":"ce4bhhh2rcd13ifvqfl0","pricing_plan_id":"free"},{"bike_id":"afa75d7e-6e05-4504-b328-6f7cf8949ba3","system_id":"levelo_inurba_marseille","lat":43.26681,"lon":5.382694,"is_reserved":false,"is_disabled":false,"rental_uris":{"android":"levelo://app?vid=afa75d7e-6e05-4504-b328-6f7cf8949ba3","ios":"levelo://app?vid=afa75d7e-6e05-4504-b328-6f7cf8949ba3"},"vehicle_type_id":"4","last_reported":1687698904,"current_range_meters":13600,"station_id":"ce4bhg92rcd13ifvqf90","pricing_plan_id":"free"},