{"last_updated":1686444401,"ttl":30,"version":"2.2","data":{"bikes":[{"bike_id":"6f4817b3-1085-4b2e-9ca3-cb67081e15dc","system_id":"levelo_inurba_marseille","lat":43.31341,"lon":5.367098,"is_reserved":false,"is_disabled":false,"rental_uris":{"android":"levelo://app?vid=6f4817b3-1085-4b2e-9ca3-cb67081e15dc","ios":"levelo://app?vid=6f4817b3-1085-4b2e-9ca3-cb67081e15dc"},"vehicle_type_id":"4","last_reported":1686444401,"current_range_meters":19600,"station_id":"ce4bgr92rcd13ifvqc6g","pricing_plan_id":"free"},{"bike_id":"f56dfca6-884d-40e5-bb12-c7bceb2732cd","system_id":"levelo_inurba_marseille","lat":43.31341,"lon":5.367098,"is_reserved":false,"is_disabled":false,"rental_uris":{"android":"levelo://app?vid=f56dfca6-884d-40e5-bb12-c7bceb2732cd","ios":"levelo://app?vid=f56dfca6-884d-40e5-bb12-c7bceb2732cd"},"vehicle_type_id":"4","last_reported":1686444401,"current_range_meters":31600,"station_id":"ce4bgr92rcd13ifvqc6g","pricing_plan_id":"free"},{"bike_id":"0cf6d23b-7698-498e-a196-b2889cfa3973","system_id":"levelo_inurba_marseille","lat":43.312239,"lon":5.368562,"is_reserved":false,"is_disabled":false,"rental_uris":{"android":"levelo://app?vid=0cf6d23b-7698-498e-a196-b2889cfa3973","ios":"levelo://app?vid=0cf6d23b-7698-498e-a196-b2889cfa3973"},"vehicle_type_id":"4","last_reported":1686444401,"current_range_meters":23600,"station_id":"ce4bgl92rcd13ifvqbq0","pricing_plan_id":"free"},{"bike_id":"e215e44b-264e-4626-ae88-2d3a12aefe09","system_id":"levelo_inurba_marseille","lat":43.309076,"lon":5.368465,"is_reserved":false,"is_disabled":false,"rental_uris":{"android":"levelo://app?vid=e215e44b-264e-4626-ae88-2d3a12aefe09","ios":"levelo://app?vid=e215e44b-264e-4626-ae88-2d3a12aefe09"},"vehicle_type_id":"4","last_reported":1686444401,"current_range_meters":11600,"station_id":"ce4bgn92rcd13ifvqbvg","pricing_plan_id":"free"},{"bike_id":"febbd7eb-33ed-449d-b2a9-5bf98a8f91e5","system_id":"levelo_inurba_marseille","lat":43.314811,"lon":5.373103,"is_reserved":false,"is_disabled":false,"rental_uris":{"android":"levelo://app?vid=febbd7eb-33ed-449d-b2a9-5bf98a8f91e5","ios":"levelo://app?vid=febbd7eb-33ed-449d-b2a9-5bf98a8f91e5"},"vehicle_type_id":"4","last_reported":1686444401,"current_range_meters":31200,"station_id":"ce4bgt12rcd13ifvqcd0","pricing_plan_id":"free"},{"bike_id":"df8b1660-030c-46ee-8d0e-8a881c8aa03f","system_id":"levelo_inurba_marseille","lat":43.314811,"lon":5.373103,"is_reserved":false,"is_disabled":false,"rental_uris":{"android":"levelo://app?vid=df8b1660-030c-46ee-8d0e-8a881c8aa03f","ios":"levelo://app?vid=df8b1660-030c-46ee-8d0e-8a881c8aa03f"},"vehicle_type_id":"4","last_reported":1686444401,"current_range_meters":31200,"station_id":"ce4bgt12rcd13ifvqcd0","pricing_plan_id":"free"},{"bike_id":"5d4420b5-d8e0-4366-b2b5-42c41845f817","system_id":"levelo_inurba_marseille","lat":43.314811,"lon":5.373103,"is_reserved":false,"is_disabled":false,"rental_uris":{"android":"levelo://app?vid=5d4420b5-d8e0-4366-b2b5-42c41845f817","ios":"levelo://app?vid=5d4420b5-d8e0-4366-b2b5-42c41845f817"},"vehicle_type_id":"4","last_reported":1686444401,"current_range_meters":31200,"station_id":"ce4bgt12rcd13ifvqcd0","pricing_plan_id":"free"},{"bike_id":"613423e2-1bc5-492f-b17b-06f0a8a477cb","system_id":"levelo_inurba_marseille","lat":43.314811,"lon":5.373103,"is_reserved":false,"is_disabled":false,"rental_uris":{"android":"levelo://app?vid=613423e2-1bc5-492f-b17b-06f0a8a477cb","ios":"levelo://app?vid=613423e2-1bc5-492f-b17b-06f0a8a477cb"},"vehicle_type_id":"4","last_reported":1686444401,"current_range_meters":31200,"station_id":"ce4bgt12rcd13ifvqcd0","pricing_plan_id":"free"},{"bike_id":"89a58938-98df-4e28-865c-9d518e77aa51","system_id":"levelo_inurba_marseille","lat":43.314811,"lon":5.373103,"is_reserved":false,"is_disabled":false,"rental_uris":{"android":"levelo://app?vid=89a58938-98df-4e28-865c-9d518e77aa51","ios":"levelo://app?vid=89a58938-98df-4e28-865c-9d518e77aa51"},"vehicle_type_id":"4","last_reported":1686444401,"current_range_meters":31200,"station_id":"ce4bgt12rcd13ifvqcd0","pricing_plan_id":"free"},{"bike_id":"48503142-5094-4ec9-a511-6541a995f2fe","system_id":"levelo_inurba_marseille","lat":43.314811,"lon":5.373103,"is_reserved":false,"is_disabled":false,"rental_uris":{"android":"levelo://app?vid=48503142-5094-4ec9-a511-6541a995f2fe","ios":"levelo://app?vid=48503142-5094-4ec9-a511-6541a995f2fe"},"vehicle_type_id":"4","last_reported":1686444401,"current_range_meters":27600,"station_id":"ce4bgt12rcd13ifvqcd0","pricing_plan_id":"free"},{"bike_id":"45c34702-1c1a-49dc-8c15-84796b537b9a","system_id":"levelo_inurba_marseille","lat":43.314811,"lon":5.373103,"is_reserved":false,"is_disabled":false,"rental_uris":{"android":"levelo://app?vid=45c34702-1c1a-49dc-8c15-84796b537b9a","ios":"levelo://app?vid=45c34702-1c1a-49dc-8c15-84796b537b9a"},"vehicle_type_id":"4","last_reported":1686444401,"current_range_meters":30800,"station_id":"ce4bgt12rcd13ifvqcd0","pricing_plan_id":"free"},{"bike_id":"8d92bc27-d33c-47cf-9315-19c384c34864","system_id":"levelo_inurba_marseille","lat":43.314811,"lon":5.373104,"is_reserved":false,"is_disabled":false,"rental_uris":{"android":"levelo://app?vid=8d92bc27-d33c-47cf-9315-19c384c34864","ios":"levelo://app?vid=8d92bc27-d33c-47cf-9315-19c384c34864"},"vehicle_type_id":"4","last_reported":1686444401,"current_range_meters":31200,"station_id":"ce4bgt12rcd13ifvqcd0","pricing_plan_id":"free"},{"bike_id":"bccdd6a5-4acd-4f36-84fe-dbfde9070eea","system_id":"levelo_inurba_marseille","lat":43.314811,"lon":5.373104,"is_reserved":false,"is_disabled":false,"rental_uris":{"android":"levelo://app?vid=bccdd6a5-4acd-4f36-84fe-dbfde9070eea","ios":"levelo://app?vid=bccdd6a5-4acd-4f36-84fe-dbfde9070eea"},"vehicle_type_id":"4","last_reported":1686444401,"current_range_meters":31200,"station_id":"ce4bgt12rcd13ifvqcd0","pricing_plan_id":"free"},{"bike_id":"2dbc8303-1e1a-4d08-9dee-6babc9247d38","system_id":"levelo_inurba_marseille","lat":43.30684,"lon":5.36578,"is_reserved":false,"is_disabled":false,"rental_uris":{"android":"levelo://app?vid=2dbc8303-1e1a-4d08-9dee-6babc9247d38","ios":"levelo://app?vid=2dbc8303-1e1a-4d08-9dee-6babc9247d38"},"vehicle_type_id":"4","last_reported":1686444401,"current_range_meters":23600,"station_id":"","pricing_plan_id":"free"},{"bike_id":"726e69fe-0789-44cc-8872-aafade0684ce","system_id":"levelo_inurba_marseille","lat":43.306,"lon":5.36574,"is_reserved":false,"is_disabled":false,"rental_uris":{"android":"levelo://app?vid=726e69fe-0789-44cc-8872-aafade0684ce","ios":"levelo://app?vid=726e69fe-0789-44cc-8872-aafade0684ce"},"vehicle_type_id":"4","last_reported":1686444401,"current_range_meters":7200,"station_id":"","pricing_plan_id":"free"},{"bike_id":"094d6886-8b4d-451e-9e08-cfa9c34fde4d","system_id":"levelo_inurba_marseille","lat":43.30608,"lon":5.37221,"is_reserved":false,"is_disabled":false,"rental_uris":{"android":"levelo://app?vid=094d6886-8b4d-451e-9e08-cfa9c34fde4d","ios":"levelo://app?vid=094d6886-8b4d-451e-9e08-cfa9c34fde4d"},"vehicle_type_id":"4","last_reported":1686444401,"current_range_meters":7600,"station_id":"ce4bgqh2rcd13ifvqc4g","pricing_plan_id":"free"},{"bike_id":"6266f872-a2e6-41b9-8964-71b439a7350a","system_id":"levelo_inurba_marseille","lat":43.30602,"lon":5.37227,"is_reserved":false,"is_disabled":false,"rental_uris":{"android":"levelo://app?vid=6266f872-a2e6-41b9-8964-71b439a7350a","ios":"levelo://app?vid=6266f872-a2e6-41b9-8964-71b439a7350a"},"vehicle_type_id":"4","last_reported":1686444401,"current_range_meters":14800,"station_id":"ce4bgqh2rcd13ifvqc4g","pricing_plan_id":"free"},{"bike_id":"d1dfb593-53b7-49d3-92e2-377b36530255","system_id":"levelo_inurba_marseille","lat":43.30595,"lon":5.37217,"is_reserved":false,"is_disabled":false,"rental_uris":{"android":"levelo://app?vid=d1dfb593-53b7-49d3-92e2-377b36530255","ios":"levelo://app?vid=d1dfb593-53b7-49d3-92e2-377b36530255"},"vehicle_type_id":"4","last_reported":1686444401,"current_range_meters":2400,"station_id":"ce4bgqh2rcd13ifvqc4g","pricing_plan_id":"free"},{"bike_id":"429e2512-0ca0-4289-ac98-25bb5e1c7285","system_id":"levelo_inurba_marseille","lat":43.311131,"lon":5.377651,"is_reserved":false,"is_disabled":false,"rental_uris":{"android":"levelo://app?vid=429e2512-0ca0-4289-ac98-25bb5e1c7285","ios":"levelo://app?vid=429e2512-0ca0-4289-ac98-25bb5e1c7285"},"vehicle_type_id":"4","last_reported":1686444401,"current_range_meters":4000,"station_id":"ce4bgt92rcd13ifvqcg0","pricing_plan_id":"free"},{"bike_id":"a8d4b0a0-ae38-4ee2-a3a4-694c2fa387ae","system_id":"levelo_inurba_marseille","lat":43.311131,"lon":5.377651,"is_reserved":false,"is_disabled":false,"rental_uris":{"android":"levelo://app?vid=a8d4b0a0-ae38-4ee2-a3a4-694c2fa387ae","ios":"levelo://app?vid=a8d4b0a0-ae38-4ee2-a3a4-694c2fa387ae"},"vehicle_type_id":"4","last_reported":1686444401,"current_range_meters":25600,"station_id":"ce4bgt92rcd13ifvqcg0","pricing_plan_id":"free"},{"bike_id":"ebb7f57d-5515-4750-b414-2bc3c6eb1801","system_id":"levelo_inurba_marseille","lat":43.311131,"lon":5.377651,"is_reserved":false,"is_disabled":false,"rental_uris":{"android":"levelo://app?vid=ebb7f57d-5515-4750-b414-2bc3c6eb1801","ios":"levelo://app?vid=ebb7f57d-5515-4750-b414-2bc3c6eb1801"},"vehicle_type_id":"4","last_reported":1686444401,"current_range_meters":30000,"station_id":"ce4bgt92rcd13ifvqcg0","pricing_plan_id":"free"},{"bike_id":"a907e791-4577-48d1-9d68-1a665267cb38","system_id":"levelo_inurba_marseille","lat":43.311131,"lon":5.377651,"is_reserved":false,"is_disabled":false,"rental_uris":{"android":"levelo://app?vid=a907e791-4577-48d1-9d68-1a665267cb38","ios":"levelo://app?vid=a907e791-4577-48d1-9d68-1a665267cb38"},"vehicle_type_id":"4","last_reported":1686444401,"current_range_meters":26400,"station_id":"ce4bgt92rcd13ifvqcg0","pricing_plan_id":"free"},{"bike_id":"f5173079-0c8c-4f05-87d5-b35703ce5f6a","system_id":"levelo_inurba_marseille","lat":43.311131,"lon":5.377651,"is_reserved":false,"is_disabled":false,"rental_uris":{"android":"levelo://app?vid=f5173079-0c8c-4f05-87d5-b35703ce5f6a","ios":"levelo://app?vid=f5173079-0c8c-4f05-87d5-b35703ce5f6a"},"vehicle_type_id":"4","last_reported":1686444401,"current_range_meters":24000,"station_id":"ce4bgt92rcd13ifvqcg0","pricing_plan_id":"free"},{"bike_id":"1e19e926-2506-455e-b3b7-63ed921cadef","system_id":"levelo_inurba_marseille","lat":43.31697,"lon":5.37688,"is_reserved":false,"is_disabled":false,"rental_uris":{"android":"levelo://app?vid=1e19e926-2506-455e-b3b7-63ed921cadef","ios":"levelo://app?vid=1e19e926-2506-455e-b3b7-63ed921cadef"},"vehicle_type_id":"4","last_reported":1686444401,"current_range_meters":1600,"station_id":"","pricing_plan_id":"free"},{"bike_id":"98aa25d1-c212-41b1-af38-52fe7b6df99b","system_id":"levelo_inurba_marseille","lat":43.311131,"lon":5.377651,"is_reserved":false,"is_disabled":false,"rental_uris":{"android":"levelo://app?vid=98aa25d1-c212-41b1-af38-52fe7b6df99b","ios":"levelo://app?vid=98aa25d1-c212-41b1-af38-52fe7b6df99b"},"vehicle_type_id":"4","last_reported":1686444401,"current_range_meters":26800,"station_id":"ce4bgt92rcd13ifvqcg0","pricing_plan_id":"free"},{"bike_id":"371e90ee-aa26-4a2a-8ff4-e0731e5f7267","system_id":"levelo_inurba_marseille","lat":43.317075,"lon":5.377367,"is_reserved":false,"is_disabled":false,"rental_uris":{"android":"levelo://app?vid=371e90ee-aa26-4a2a-8ff4-e0731e5f7267","ios":"levelo://app?vid=371e90ee-aa26-4a2a-8ff4-e0731e5f7267"},"vehicle_type_id":"4","last_reported":1686444401,"current_range_meters":26400,"station_id":"ce4bgth2rcd13ifvqch0","pricing_plan_id":"free"},{"bike_id":"8eca7e10-d6e4-4c71-9168-0a9e8f05aff4","system_id":"levelo_inurba_marseille","lat":43.31125,"lon":5.3795,"is_reserved":false,"is_disabled":false,"rental_uris":{"android":"levelo://app?vid=8eca7e10-d6e4-4c71-9168-0a9e8f05aff4","ios":"levelo://app?vid=8eca7e10-d6e4-4c71-9168-0a9e8f05aff4"},"vehicle_type_id":"4","last_reported":1686444401,"current_range_meters":14400,"station_id":"","pricing_plan_id":"free"},{"bike_id":"cd18ccbf-25e0-4270-90e3-3ed6654d38d0","system_id":"levelo_inurba_marseille","lat":43.31554,"lon":5.38021,"is_reserved":false,"is_disabled":false,"rental_uris":{"android":"levelo://app?vid=cd18ccbf-25e0-4270-90e3-3ed6654d38d0","ios":"levelo://app?vid=cd18ccbf-25e0-4270-90e3-3ed6654d38d0"},"vehicle_type_id":"4","last_reported":1686444401,"current_range_meters":3200,"station_id":"","pricing_plan_id":"free"},{"bike_id":"f436b8ff-7d89-404d-923b-9f816988156c","system_id":"levelo_inurba_marseille","lat":43.30188,"lon":5.36607,"is_reserved":false,"is_disabled":false,"rental_uris":{"android":"levelo://app?vid=f436b8ff-7d89-404d-923b-9f816988156c","ios":"levelo://app?vid=f436b8ff-7d89-404d-923b-9f816988156c"},"vehicle_type_id":"4","last_reported":1686444401,"current_range_meters":22400,"station_id":"ce4bgrh2rcd13ifvqc8g","pricing_plan_id":"free"},{"bike_id":"b1972605-77ec-47ee-9fc0-f04838e99ed6","system_id":"levelo_inurba_marseille","lat":43.30804,"lon":5.38141,"is_reserved":false,"is_disabled":false,"rental_uris":{"android":"levelo://app?vid=b1972605-77ec-47ee-9fc0-f04838e99ed6","ios":"levelo://app?vid=b1972605-77ec-47ee-9fc0-f04838e99ed6"},"vehicle_type_id":"4","last_reported":1686444401,"current_range_meters":22000,"station_id":"ce4bgt12rcd13ifvqce0","pricing_plan_id":"free"},{"bike_id":"c9104461-b5d4-41bb-b852-5d82779e84db","system_id":"levelo_inurba_marseille","lat":43.30799,"lon":5.38145,"is_reserved":false,"is_disabled":false,"rental_uris":{"android":"levelo://app?vid=c9104461-b5d4-41bb-b852-5d82779e84db","ios":"levelo://app?vid=c9104461-b5d4-41bb-b852-5d82779e84db"},"vehicle_type_id":"4","last_reported":1686444401,"current_range_meters":0,"station_id":"ce4bgt12rcd13ifvqce0","pricing_plan_id":"free"},{"bike_id":"69920c32-fff5-4e47-b54c-6493c9cb2318","system_id":"levelo_inurba_marseille","lat":43.31629,"lon":5.38345,"is_reserved":false,"is_disabled":false,"rental_uris":{"android":"levelo://app?vid=69920c32-fff5-4e47-b54c-6493c9cb2318","ios":"levelo://app?vid=69920c32-fff5-4e47-b54c-6493c9cb2318"},"vehicle_type_id":"4","last_reported":1686444401,"current_range_meters":7200,"station_id":"","pricing_plan_id":"free"},{"bike_id":"1a1d24de-e763-4daf-8e89-4473e94a1b54","system_id":"levelo_inurba_marseille","lat":43.31994,"lon":5.38153,"is_reserved":false,"is_disabled":false,"rental_uris":{"android":"levelo://app?vid=1a1d24de-e763-4daf-8e89-4473e94a1b54","ios":"levelo://app?vid=1a1d24de-e763-4daf-8e89-4473e94a1b54"},"vehicle_type_id":"4","last_reported":1686444401,"current_range_meters":30000,"station_id":"ce4bhr12rcd13ifvqhpg","pricing_plan_id":"free"},{"bike_id":"1cc644a1-ed2e-46ff-a819-4c0f0856cafe","system_id":"levelo_inurba_marseille","lat":43.299243,"lon":5.374807,"is_reserved":false,"is_disabled":false,"rental_uris":{"android":"levelo://app?vid=1cc644a1-ed2e-46ff-a819-4c0f0856cafe","ios":"levelo://app?vid=1cc644a1-ed2e-46ff-a819-4c0f0856cafe"},"vehicle_type_id":"4","last_reported":1686444401,"current_range_meters":21200,"station_id":"ce4bgjh2rcd13ifvqbg0","pricing_plan_id":"free"},{"bike_id":"7df39f9e-13b2-4ffa-9dfb-e3fab3256cab","system_id":"levelo_inurba_marseille","lat":43.311722,"lon":5.387247,"is_reserved":false,"is_disabled":false,"rental_uris":{"android":"levelo://app?vid=7df39f9e-13b2-4ffa-9dfb-e3fab3256cab","ios":"levelo://app?vid=7df39f9e-13b2-4ffa-9dfb-e3fab3256cab"},"vehicle_type_id":"4","last_reported":1686444401,"current_range_meters":28400,"station_id":"ce4bgv12rcd13ifvqcp0","pricing_plan_id":"free"},{"bike_id":"7bbfadaf-9667-4ed9-b093-7b58fd989535","system_id":"levelo_inurba_marseille","lat":43.29913,"lon":5.37462,"is_reserved":false,"is_disabled":false,"rental_uris":{"android":"levelo://app?vid=7bbfadaf-9667-4ed9-b093-7b58fd989535","ios":"levelo://app?vid=7bbfadaf-9667-4ed9-b093-7b58fd989535"},"vehicle_type_id":"4","last_reported":1686444401,"current_range_meters":24400,"station_id":"ce4bgjh2rcd13ifvqbg0","pricing_plan_id":"free"},{"bike_id":"1d53dda0-7ecd-4d98-91e9-73c2a3610345","system_id":"levelo_inurba_marseille","lat":43.311722,"lon":5.387247,"is_reserved":false,"is_disabled":false,"rental_uris":{"android":"levelo://app?vid=1d53dda0-7ecd-4d98-91e9-73c2a3610345","ios":"levelo://app?vid=1d53dda0-7ecd-4d98-91e9-73c2a3610345"},"vehicle_type_id":"4","last_reported":1686444401,"current_range_meters":29200,"station_id":"ce4bgv12rcd13ifvqcp0","pricing_plan_id":"free"},{"bike_id":"51edfaa8-850f-4483-8353-bcbec8411e1e","system_id":"levelo_inurba_marseille","lat":43.311722,"lon":5.387247,"is_reserved":false,"is_disabled":false,"rental_uris":{"android":"levelo://app?vid=51edfaa8-850f-4483-8353-bcbec8411e1e","ios":"levelo://app?vid=51edfaa8-850f-4483-8353-bcbec8411e1e"},"vehicle_type_id":"4","last_reported":1686444401,"current_range_meters":9600,"station_id":"ce4bgv12rcd13ifvqcp0","pricing_plan_id":"free"},{"bike_id":"d4c5fb8e-cf15-4677-b251-f5e12fa8eb79","system_id":"levelo_inurba_marseille","lat":43.297774,"lon":5.370875,"is_reserved":false,"is_disabled":false,"rental_uris":{"android":"levelo://app?vid=d4c5fb8e-cf15-4677-b251-f5e12fa8eb79","ios":"levelo://app?vid=d4c5fb8e-cf15-4677-b251-f5e12fa8eb79"},"vehicle_type_id":"4","last_reported":1686444401,"current_range_meters":400,"station_id":"ce4bgop2rcd13ifvqc1g","pricing_plan_id":"free"},{"bike_id":"d96dcc96-ce3c-432f-8f37-1733de830b5a","system_id":"levelo_inurba_marseille","lat":43.328371,"lon":5.366909,"is_reserved":false,"is_disabled":false,"rental_uris":{"android":"levelo://app?vid=d96dcc96-ce3c-432f-8f37-1733de830b5a","ios":"levelo://app?vid=d96dcc96-ce3c-432f-8f37-1733de830b5a"},"vehicle_type_id":"4","last_reported":1686444401,"current_range_meters":29200,"station_id":"ce4bhs92rcd13ifvqi0g","pricing_plan_id":"free"},{"bike_id":"d2ee4f47-c99d-4207-bf1f-965db1bb1561","system_id":"levelo_inurba_marseille","lat":43.328371,"lon":5.366909,"is_reserved":false,"is_disabled":false,"rental_uris":{"android":"levelo://app?vid=d2ee4f47-c99d-4207-bf1f-965db1bb1561","ios":"levelo://app?vid=d2ee4f47-c99d-4207-bf1f-965db1bb1561"},"vehicle_type_id":"4","last_reported":1686444401,"current_range_meters":4000,"station_id":"ce4bhs92rcd13ifvqi0g","pricing_plan_id":"free"},{"bike_id":"a0565906-42fe-436f-8a68-dac07fb0f6a4","system_id":"levelo_inurba_marseille","lat":43.3283,"lon":5.36677,"is_reserved":false,"is_disabled":false,"rental_uris":{"android":"levelo://app?vid=a0565906-42fe-436f-8a68-dac07fb0f6a4","ios":"levelo://app?vid=a0565906-42fe-436f-8a68-dac07fb0f6a4"},"vehicle_type_id":"4","last_reported":1686444401,"current_range_meters":26800,"station_id":"ce4bhs92rcd13ifvqi0g","pricing_plan_id":"free"},{"bike_id":"646e9ad8-7b91-4157-a6bc-9b5f2ad20d49","system_id":"levelo_inurba_marseille","lat":43.32832,"lon":5.36686,"is_reserved":false,"is_disabled":false,"rental_uris":{"android":"levelo://app?vid=646e9ad8-7b91-4157-a6bc-9b5f2ad20d49","ios":"levelo://app?vid=646e9ad8-7b91-4157-a6bc-9b5f2ad20d49"},"vehicle_type_id":"4","last_reported":1686444401,"current_range_meters":5600,"station_id":"ce4bhs92rcd13ifvqi0g","pricing_plan_id":"free"},{"bike_id":"a171b683-f844-4b6f-8205-0c579bd8e9e8","system_id":"levelo_inurba_marseille","lat":43.32838,"lon":5.36675,"is_reserved":false,"is_disabled":false,"rental_uris":{"android":"levelo://app?vid=a171b683-f844-4b6f-8205-0c579bd8e9e8","ios":"levelo://app?vid=a171b683-f844-4b6f-8205-0c579bd8e9e8"},"vehicle_type_id":"4","last_reported":1686444401,"current_range_meters":29600,"station_id":"ce4bhs92rcd13ifvqi0g","pricing_plan_id":"free"},{"bike_id":"e85bf7ad-3cbe-4447-9d68-a7e116585f30","system_id":"levelo_inurba_marseille","lat":43.32839,"lon":5.3668,"is_reserved":false,"is_disabled":false,"rental_uris":{"android":"levelo://app?vid=e85bf7ad-3cbe-4447-9d68-a7e116585f30","ios":"levelo://app?vid=e85bf7ad-3cbe-4447-9d68-a7e116585f30"},"vehicle_type_id":"4","last_reported":1686444401,"current_range_meters":28400,"station_id":"ce4bhs92rcd13ifvqi0g","pricing_plan_id":"free"},{"bike_id":"30b96af1-9616-42c8-bb14-c2ad15278436","system_id":"levelo_inurba_marseille","lat":43.317557,"lon":5.390173,"is_reserved":false,"is_disabled":false,"rental_uris":{"android":"levelo://app?vid=30b96af1-9616-42c8-bb14-c2ad15278436","ios":"levelo://app?vid=30b96af1-9616-42c8-bb14-c2ad15278436"},"vehicle_type_id":"4","last_reported":1686444401,"current_range_meters":31200,"station_id":"ce4bhqp2rcd13ifvqhng","pricing_plan_id":"free"},{"bike_id":"1c5b4e61-5774-4445-94f8-69660facbd18","system_id":"levelo_inurba_marseille","lat":43.317557,"lon":5.390173,"is_reserved":false,"is_disabled":false,"rental_uris":{"android":"levelo://app?vid=1c5b4e61-5774-4445-94f8-69660facbd18","ios":"levelo://app?vid=1c5b4e61-5774-4445-94f8-69660facbd18"},"vehicle_type_id":"4","last_reported":1686444401,"current_range_meters":31200,"station_id":"ce4bhqp2rcd13ifvqhng","pricing_plan_id":"free"},{"bike_id":"013cdf1b-ea32-411d-8d68-909b0944803a","system_id":"levelo_inurba_marseille","lat":43.304278,"lon":5.388868,"is_reserved":false,"is_disabled":false,"rental_uris":{"android":"levelo://app?vid=013cdf1b-ea32-411d-8d68-909b0944803a","ios":"levelo://app?vid=013cdf1b-ea32-411d-8d68-909b0944803a"},"vehicle_type_id":"4","last_reported":1686444401,"current_range_meters":30800,"station_id":"ce4bgk12rcd13ifvqbi0","pricing_plan_id":"free"},{"bike_id":"37ea4fed-1bf7-41cc-b885-f63b14f35a65","system_id":"levelo_inurba_marseille","lat":43.304278,"lon":5.388868,"is_reserved":false,"is_disabled":false,"rental_uris":{"android":"levelo://app?vid=37ea4fed-1bf7-41cc-b885-f63b14f35a65","ios":"levelo://app?vid=37ea4fed-1bf7-41cc-b885-f63b14f35a65"},"vehicle_type_id":"4","last_reported":1686444401,"current_range_meters":28800,"station_id":"ce4bgk12rcd13ifvqbi0","pricing_plan_id":"free"},{"bike_id":"b9fee594-dda5-49a7-923f-828c8f515c9e","system_id":"levelo_inurba_marseille","lat":43.30436,"lon":5.38893,"is_reserved":false,"is_disabled":false,"rental_uris":{"android":"levelo://app?vid=b9fee594-dda5-49a7-923f-828c8f515c9e","ios":"levelo://app?vid=b9fee594-dda5-49a7-923f-828c8f515c9e"},"vehicle_type_id":"4","last_reported":1686444401,"current_range_meters":5200,"station_id":"ce4bgk12rcd13ifvqbi0","pricing_plan_id":"free"},{"bike_id":"eeed0cc4-5a65-47a2-afb8-f74a7fdd7d07","system_id":"levelo_inurba_marseille","lat":43.304278,"lon":5.388868,"is_reserved":false,"is_disabled":false,"rental_uris":{"android":"levelo://app?vid=eeed0cc4-5a65-47a2-afb8-f74a7fdd7d07","ios":"levelo://app?vid=eeed0cc4-5a65-47a2-afb8-f74a7fdd7d07"},"vehicle_type_id":"4","last_reported":1686444401,"current_range_meters":31200,"station_id":"ce4bgk12rcd13ifvqbi0","pricing_plan_id":"free"},{"bike_id":"62961aa2-4aa6-4365-a76c-04bfc6117c45","system_id":"levelo_inurba_marseille","lat":43.295279,"lon":5.375048,"is_reserved":false,"is_disabled":false,"rental_uris":{"android":"levelo://app?vid=62961aa2-4aa6-4365-a76c-04bfc6117c45","ios":"levelo://app?vid=62961aa2-4aa6-4365-a76c-04bfc6117c45"},"vehicle_type_id":"4","last_reported":1686444401,"current_range_meters":800,"station_id":"ce4bgkp2rcd13ifvqbmg","pricing_plan_id":"free"},{"bike_id":"3db23c4d-fe21-4d65-9801-7c9ca9abb154","system_id":"levelo_inurba_marseille","lat":43.32367,"lon":5.388836,"is_reserved":false,"is_disabled":false,"rental_uris":{"android":"levelo://app?vid=3db23c4d-fe21-4d65-9801-7c9ca9abb154","ios":"levelo://app?vid=3db23c4d-fe21-4d65-9801-7c9ca9abb154"},"vehicle_type_id":"4","last_reported":1686444401,"current_range_meters":15200,"station_id":"ce4bhqp2rcd13ifvqhog","pricing_plan_id":"free"},{"bike_id":"dd66a00a-ae87-4f13-8320-0f02c4972732","system_id":"levelo_inurba_marseille","lat":43.323656,"lon":5.38888,"is_reserved":false,"is_disabled":false,"rental_uris":{"android":"levelo://app?vid=dd66a00a-ae87-4f13-8320-0f02c4972732","ios":"levelo://app?vid=dd66a00a-ae87-4f13-8320-0f02c4972732"},"vehicle_type_id":"4","last_reported":1686444401,"current_range_meters":14800,"station_id":"ce4bhqp2rcd13ifvqhog","pricing_plan_id":"free"},{"bike_id":"31f9ff96-41d1-4b73-b7ec-52a20b7030f3","system_id":"levelo_inurba_marseille","lat":43.29274,"lon":5.36838,"is_reserved":false,"is_disabled":false,"rental_uris":{"android":"levelo://app?vid=31f9ff96-41d1-4b73-b7ec-52a20b7030f3","ios":"levelo://app?vid=31f9ff96-41d1-4b73-b7ec-52a20b7030f3"},"vehicle_type_id":"4","last_reported":1686444401,"current_range_meters":29600,"station_id":"ce4bhbp2rcd13ifvqesg","pricing_plan_id":"free"},{"bike_id":"287798b5-69d5-4bbd-995e-e4ed92761aec","system_id":"levelo_inurba_marseille","lat":43.2936,"lon":5.37835,"is_reserved":false,"is_disabled":false,"rental_uris":{"android":"levelo://app?vid=287798b5-69d5-4bbd-995e-e4ed92761aec","ios":"levelo://app?vid=287798b5-69d5-4bbd-995e-e4ed92761aec"},"vehicle_type_id":"4","last_reported":1686444401,"current_range_meters":8000,"station_id":"ce4bgjh2rcd13ifvqbf0","pricing_plan_id":"free"},{"bike_id":"61e4ccfd-dc98-4837-8123-2dfa5e087f42","system_id":"levelo_inurba_marseille","lat":43.293723,"lon":5.378443,"is_reserved":false,"is_disabled":false,"rental_uris":{"android":"levelo://app?vid=61e4ccfd-dc98-4837-8123-2dfa5e087f42","ios":"levelo://app?vid=61e4ccfd-dc98-4837-8123-2dfa5e087f42"},"vehicle_type_id":"4","last_reported":1686444401,"current_range_meters":2000,"station_id":"","pricing_plan_id":"free"},{"bike_id":"9bf65797-118b-4d51-a982-373ec96839c2","system_id":"levelo_inurba_marseille","lat":43.300852,"lon":5.390859,"is_reserved":false,"is_disabled":false,"rental_uris":{"android":"levelo://app?vid=9bf65797-118b-4d51-a982-373ec96839c2","ios":"levelo://app?vid=9bf65797-118b-4d51-a982-373ec96839c2"},"vehicle_type_id":"4","last_reported":1686444401,"current_range_meters":2800,"station_id":"ce4bh192rcd13ifvqdb0","pricing_plan_id":"free"},{"bike_id":"5745b471-2259-47da-b3d3-17618650245e","system_id":"levelo_inurba_marseille","lat":43.29874,"lon":5.38908,"is_reserved":false,"is_disabled":false,"rental_uris":{"android":"levelo://app?vid=5745b471-2259-47da-b3d3-17618650245e","ios":"levelo://app?vid=5745b471-2259-47da-b3d3-17618650245e"},"vehicle_type_id":"4","last_reported":1686444401,"current_range_meters":22800,"station_id":"ce4bh392rcd13ifvqdl0","pricing_plan_id":"free"},{"bike_id":"4fb2caa5-376c-4391-9196-e6c7e352f4e2","system_id":"levelo_inurba_marseille","lat":43.299574,"lon":5.39006,"is_reserved":false,"is_disabled":false,"rental_uris":{"android":"levelo://app?vid=4fb2caa5-376c-4391-9196-e6c7e352f4e2","ios":"levelo://app?vid=4fb2caa5-376c-4391-9196-e6c7e352f4e2"},"vehicle_type_id":"4","last_reported":1686444401,"current_range_meters":0,"station_id":"ce4bh392rcd13ifvqdl0","pricing_plan_id":"free"},{"bike_id":"e894dd1e-50e4-4aae-ab8c-6c0c68354e13","system_id":"levelo_inurba_marseille","lat":43.309038,"lon":5.396546,"is_reserved":false,"is_disabled":false,"rental_uris":{"android":"levelo://app?vid=e894dd1e-50e4-4aae-ab8c-6c0c68354e13","ios":"levelo://app?vid=e894dd1e-50e4-4aae-ab8c-6c0c68354e13"},"vehicle_type_id":"4","last_reported":1686444401,"current_range_meters":31200,"station_id":"ce4bh012rcd13ifvqcv0","pricing_plan_id":"free"},{"bike_id":"319421d1-0a77-46da-b134-bba23cabe2b6","system_id":"levelo_inurba_marseille","lat":43.31361,"lon":5.39683,"is_reserved":false,"is_disabled":false,"rental_uris":{"android":"levelo://app?vid=319421d1-0a77-46da-b134-bba23cabe2b6","ios":"levelo://app?vid=319421d1-0a77-46da-b134-bba23cabe2b6"},"vehicle_type_id":"4","last_reported":1686444401,"current_range_meters":2000,"station_id":"","pricing_plan_id":"free"},{"bike_id":"cd310b02-826c-429c-93fb-6e0471de4029","system_id":"levelo_inurba_marseille","lat":43.309038,"lon":5.396546,"is_reserved":false,"is_disabled":false,"rental_uris":{"android":"levelo://app?vid=cd310b02-826c-429c-93fb-6e0471de4029","ios":"levelo://app?vid=cd310b02-826c-429c-93fb-6e0471de4029"},"vehicle_type_id":"4","last_reported":1686444401,"current_range_meters":31200,"station_id":"ce4bh012rcd13ifvqcv0","pricing_plan_id":"free"},{"bike_id":"2a3ec693-5fa8-4471-ae07-692e39d09198","system_id":"levelo_inurba_marseille","lat":43.313291,"lon":5.396838,"is_reserved":false,"is_disabled":false,"rental_uris":{"android":"levelo://app?vid=2a3ec693-5fa8-4471-ae07-692e39d09198","ios":"levelo://app?vid=2a3ec693-5fa8-4471-ae07-692e39d09198"},"vehicle_type_id":"4","last_reported":1686444401,"current_range_meters":0,"station_id":"ce4bgvp2rcd13ifvqcu0","pricing_plan_id":"free"},{"bike_id":"4bb0206f-01aa-442d-8e4d-35d76b025cc8","system_id":"levelo_inurba_marseille","lat":43.313291,"lon":5.396838,"is_reserved":false,"is_disabled":false,"rental_uris":{"android":"levelo://app?vid=4bb0206f-01aa-442d-8e4d-35d76b025cc8","ios":"levelo://app?vid=4bb0206f-01aa-442d-8e4d-35d76b025cc8"},"vehicle_type_id":"4","last_reported":1686444401,"current_range_meters":31200,"station_id":"ce4bgvp2rcd13ifvqcu0","pricing_plan_id":"free"},{"bike_id":"926fe53a-8414-46a6-bfe0-c65fb433a1b5","system_id":"levelo_inurba_marseille","lat":43.313291,"lon":5.396838,"is_reserved":false,"is_disabled":false,"rental_uris":{"android":"levelo://app?vid=926fe53a-8414-46a6-bfe0-c65fb433a1b5","ios":"levelo://app?vid=926fe53a-8414-46a6-bfe0-c65fb433a1b5"},"vehicle_type_id":"4","last_reported":1686444401,"current_range_meters":30800,"station_id":"ce4bgvp2rcd13ifvqcu0","pricing_plan_id":"free"},{"bike_id":"a922a9f5-fea5-49ff-ac01-d12f16622f4e","system_id":"levelo_inurba_marseille","lat":43.31391,"lon":5.39702,"is_reserved":false,"is_disabled":false,"rental_uris":{"android":"levelo://app?vid=a922a9f5-fea5-49ff-ac01-d12f16622f4e","ios":"levelo://app?vid=a922a9f5-fea5-49ff-ac01-d12f16622f4e"},"vehicle_type_id":"4","last_reported":1686444401,"current_range_meters":19200,"station_id":"","pricing_plan_id":"free"},{"bike_id":"45d73caf-3064-466c-bc94-dd4ced404678","system_id":"levelo_inurba_marseille","lat":43.309038,"lon":5.396546,"is_reserved":false,"is_disabled":false,"rental_uris":{"android":"levelo://app?vid=45d73caf-3064-466c-bc94-dd4ced404678","ios":"levelo://app?vid=45d73caf-3064-466c-bc94-dd4ced404678"},"vehicle_type_id":"4","last_reported":1686444401,"current_range_meters":18400,"station_id":"ce4bh012rcd13ifvqcv0","pricing_plan_id":"free"},{"bike_id":"23aca757-745e-45f1-a0c9-4cad9caf933a","system_id":"levelo_inurba_marseille","lat":43.290624,"lon":5.359245,"is_reserved":false,"is_disabled":false,"rental_uris":{"android":"levelo://app?vid=23aca757-745e-45f1-a0c9-4cad9caf933a","ios":"levelo://app?vid=23aca757-745e-45f1-a0c9-4cad9caf933a"},"vehicle_type_id":"4","last_reported":1686444401,"current_range_meters":26400,"station_id":"ce4bha92rcd13ifvqeg0","pricing_plan_id":"free"},{"bike_id":"b49cd013-81c8-47a0-8fce-31aef55e0544","system_id":"levelo_inurba_marseille","lat":43.290631,"lon":5.359244,"is_reserved":false,"is_disabled":false,"rental_uris":{"android":"levelo://app?vid=b49cd013-81c8-47a0-8fce-31aef55e0544","ios":"levelo://app?vid=b49cd013-81c8-47a0-8fce-31aef55e0544"},"vehicle_type_id":"4","last_reported":1686444401,"current_range_meters":31200,"station_id":"ce4bha92rcd13ifvqeg0","pricing_plan_id":"free"},{"bike_id":"4dd35054-98d1-4658-a3aa-97d69adda7a2","system_id":"levelo_inurba_marseille","lat":43.290631,"lon":5.359244,"is_reserved":false,"is_disabled":false,"rental_uris":{"android":"levelo://app?vid=4dd35054-98d1-4658-a3aa-97d69adda7a2","ios":"levelo://app?vid=4dd35054-98d1-4658-a3aa-97d69adda7a2"},"vehicle_type_id":"4","last_reported":1686444401,"current_range_meters":28800,"station_id":"ce4bha92rcd13ifvqeg0","pricing_plan_id":"free"},{"bike_id":"03950ffe-0704-4296-8718-072d1266085f","system_id":"levelo_inurba_marseille","lat":43.290631,"lon":5.359244,"is_reserved":false,"is_disabled":false,"rental_uris":{"android":"levelo://app?vid=03950ffe-0704-4296-8718-072d1266085f","ios":"levelo://app?vid=03950ffe-0704-4296-8718-072d1266085f"},"vehicle_type_id":"4","last_reported":1686444401,"current_range_meters":31200,"station_id":"ce4bha92rcd13ifvqeg0","pricing_plan_id":"free"},{"bike_id":"6262b9aa-0e75-4f8a-879e-e8c2e991d46a","system_id":"levelo_inurba_marseille","lat":43.290631,"lon":5.359244,"is_reserved":false,"is_disabled":false,"rental_uris":{"android":"levelo://app?vid=6262b9aa-0e75-4f8a-879e-e8c2e991d46a","ios":"levelo://app?vid=6262b9aa-0e75-4f8a-879e-e8c2e991d46a"},"vehicle_type_id":"4","last_reported":1686444401,"current_range_meters":31200,"station_id":"ce4bha92rcd13ifvqeg0","pricing_plan_id":"free"},{"bike_id":"77313d3e-df65-4682-960e-10fb9b0a1899","system_id":"levelo_inurba_marseille","lat":43.290631,"lon":5.359244,"is_reserved":false,"is_disabled":false,"rental_uris":{"android":"levelo://app?vid=77313d3e-df65-4682-960e-10fb9b0a1899","ios":"levelo://app?vid=77313d3e-df65-4682-960e-10fb9b0a1899"},"vehicle_type_id":"4","last_reported":1686444401,"current_range_meters":31200,"station_id":"ce4bha92rcd13ifvqeg0","pricing_plan_id":"free"},{"bike_id":"8d3e0a2e-0c27-47f8-9355-29619f617a83","system_id":"levelo_inurba_marseille","lat":43.289184,"lon":5.366408,"is_reserved":false,"is_disabled":false,"rental_uris":{"android":"levelo://app?vid=8d3e0a2e-0c27-47f8-9355-29619f617a83","ios":"levelo://app?vid=8d3e0a2e-0c27-47f8-9355-29619f617a83"},"vehicle_type_id":"4","last_reported":1686444401,"current_range_meters":22400,"station_id":"ce4bhap2rcd13ifvqek0","pricing_plan_id":"free"},{"bike_id":"5fa8efe5-0e64-4163-9948-49c9aac2fbcd","system_id":"levelo_inurba_marseille","lat":43.289184,"lon":5.366408,"is_reserved":false,"is_disabled":false,"rental_uris":{"android":"levelo://app?vid=5fa8efe5-0e64-4163-9948-49c9aac2fbcd","ios":"levelo://app?vid=5fa8efe5-0e64-4163-9948-49c9aac2fbcd"},"vehicle_type_id":"4","last_reported":1686444401,"current_range_meters":13200,"station_id":"ce4bhap2rcd13ifvqek0","pricing_plan_id":"free"},{"bike_id":"8a5b41da-e67a-4ced-b46c-a639e671c776","system_id":"levelo_inurba_marseille","lat":43.289184,"lon":5.366408,"is_reserved":false,"is_disabled":false,"rental_uris":{"android":"levelo://app?vid=8a5b41da-e67a-4ced-b46c-a639e671c776","ios":"levelo://app?vid=8a5b41da-e67a-4ced-b46c-a639e671c776"},"vehicle_type_id":"4","last_reported":1686444401,"current_range_meters":21600,"station_id":"ce4bhap2rcd13ifvqek0","pricing_plan_id":"free"},{"bike_id":"86fcef90-4ff8-4ff3-b259-682223fdc02b","system_id":"levelo_inurba_marseille","lat":43.289184,"lon":5.366408,"is_reserved":false,"is_disabled":false,"rental_uris":{"android":"levelo://app?vid=86fcef90-4ff8-4ff3-b259-682223fdc02b","ios":"levelo://app?vid=86fcef90-4ff8-4ff3-b259-682223fdc02b"},"vehicle_type_id":"4","last_reported":1686444401,"current_range_meters":31600,"station_id":"ce4bhap2rcd13ifvqek0","pricing_plan_id":"free"},{"bike_id":"4e446d59-9020-45f6-ac58-492e3704dd36","system_id":"levelo_inurba_marseille","lat":43.289184,"lon":5.366408,"is_reserved":false,"is_disabled":false,"rental_uris":{"android":"levelo://app?vid=4e446d59-9020-45f6-ac58-492e3704dd36","ios":"levelo://app?vid=4e446d59-9020-45f6-ac58-492e3704dd36"},"vehicle_type_id":"4","last_reported":1686444401,"current_range_meters":31600,"station_id":"ce4bhap2rcd13ifvqek0","pricing_plan_id":"free"},{"bike_id":"7d9a1af0-d912-4e92-a7b5-52c67c6ba49b","system_id":"levelo_inurba_marseille","lat":43.289184,"lon":5.366408,"is_reserved":false,"is_disabled":false,"rental_uris":{"android":"levelo://app?vid=7d9a1af0-d912-4e92-a7b5-52c67c6ba49b","ios":"levelo://app?vid=7d9a1af0-d912-4e92-a7b5-52c67c6ba49b"},"vehicle_type_id":"4","last_reported":1686444401,"current_range_meters":2400,"station_id":"ce4bhap2rcd13ifvqek0","pricing_plan_id":"free"},{"bike_id":"a361b1c8-b3a1-4ca5-9c7c-23fa39e7c42d","system_id":"levelo_inurba_marseille","lat":43.289468,"lon":5.363719,"is_reserved":false,"is_disabled":false,"rental_uris":{"android":"levelo://app?vid=a361b1c8-b3a1-4ca5-9c7c-23fa39e7c42d","ios":"levelo://app?vid=a361b1c8-b3a1-4ca5-9c7c-23fa39e7c42d"},"vehicle_type_id":"4","last_reported":1686444401,"current_range_meters":26400,"station_id":"ce4bhc92rcd13ifvqetg","pricing_plan_id":"free"},{"bike_id":"5bc69d4e-2347-4a6d-a142-093fbdc38229","system_id":"levelo_inurba_marseille","lat":43.289468,"lon":5.363719,"is_reserved":false,"is_disabled":false,"rental_uris":{"android":"levelo://app?vid=5bc69d4e-2347-4a6d-a142-093fbdc38229","ios":"levelo://app?vid=5bc69d4e-2347-4a6d-a142-093fbdc38229"},"vehicle_type_id":"4","last_reported":1686444401,"current_range_meters":30400,"station_id":"ce4bhc92rcd13ifvqetg","pricing_plan_id":"free"},{"bike_id":"f03c7781-c54f-438e-8de1-313427dd27bd","system_id":"levelo_inurba_marseille","lat":43.3361,"lon":5.36187,"is_reserved":false,"is_disabled":false,"rental_uris":{"android":"levelo://app?vid=f03c7781-c54f-438e-8de1-313427dd27bd","ios":"levelo://app?vid=f03c7781-c54f-438e-8de1-313427dd27bd"},"vehicle_type_id":"4","last_reported":1686444401,"current_range_meters":6800,"station_id":"","pricing_plan_id":"free"},{"bike_id":"e9170bf1-c1d4-4557-956e-3de979f19338","system_id":"levelo_inurba_marseille","lat":43.290057,"lon":5.356213,"is_reserved":false,"is_disabled":false,"rental_uris":{"android":"levelo://app?vid=e9170bf1-c1d4-4557-956e-3de979f19338","ios":"levelo://app?vid=e9170bf1-c1d4-4557-956e-3de979f19338"},"vehicle_type_id":"4","last_reported":1686444401,"current_range_meters":10800,"station_id":"","pricing_plan_id":"free"},{"bike_id":"eebb0572-4916-4105-a791-7d74572be411","system_id":"levelo_inurba_marseille","lat":43.290103,"lon":5.356114,"is_reserved":false,"is_disabled":false,"rental_uris":{"android":"levelo://app?vid=eebb0572-4916-4105-a791-7d74572be411","ios":"levelo://app?vid=eebb0572-4916-4105-a791-7d74572be411"},"vehicle_type_id":"4","last_reported":1686444401,"current_range_meters":3200,"station_id":"ce4bhb92rcd13ifvqen0","pricing_plan_id":"free"},{"bike_id":"cc832879-b0b1-49cf-bd0c-3e4afcaf3cac","system_id":"levelo_inurba_marseille","lat":43.290103,"lon":5.356114,"is_reserved":false,"is_disabled":false,"rental_uris":{"android":"levelo://app?vid=cc832879-b0b1-49cf-bd0c-3e4afcaf3cac","ios":"levelo://app?vid=cc832879-b0b1-49cf-bd0c-3e4afcaf3cac"},"vehicle_type_id":"4","last_reported":1686444401,"current_range_meters":30400,"station_id":"ce4bhb92rcd13ifvqen0","pricing_plan_id":"free"},{"bike_id":"8ce5bc91-f5dc-4850-9113-f123bed6fac5","system_id":"levelo_inurba_marseille","lat":43.297814,"lon":5.393513,"is_reserved":false,"is_disabled":false,"rental_uris":{"android":"levelo://app?vid=8ce5bc91-f5dc-4850-9113-f123bed6fac5","ios":"levelo://app?vid=8ce5bc91-f5dc-4850-9113-f123bed6fac5"},"vehicle_type_id":"4","last_reported":1686444401,"current_range_meters":0,"station_id":"chh1huq6cuj3fo74tm60","pricing_plan_id":"free"},{"bike_id":"a6b6fc12-ba73-46bc-96d7-84fdf6edf7a2","system_id":"levelo_inurba_marseille","lat":43.28856,"lon":5.358371,"is_reserved":false,"is_disabled":false,"rental_uris":{"android":"levelo://app?vid=a6b6fc12-ba73-46bc-96d7-84fdf6edf7a2","ios":"levelo://app?vid=a6b6fc12-ba73-46bc-96d7-84fdf6edf7a2"},"vehicle_type_id":"4","last_reported":1686444401,"current_range_meters":16800,"station_id":"ce4bhb12rcd13ifvqem0","pricing_plan_id":"free"},{"bike_id":"ce72fe69-4b94-445e-bcf2-a6fbd1ce979d","system_id":"levelo_inurba_marseille","lat":43.28856,"lon":5.358371,"is_reserved":false,"is_disabled":false,"rental_uris":{"android":"levelo://app?vid=ce72fe69-4b94-445e-bcf2-a6fbd1ce979d","ios":"levelo://app?vid=ce72fe69-4b94-445e-bcf2-a6fbd1ce979d"},"vehicle_type_id":"4","last_reported":1686444401,"current_range_meters":22800,"station_id":"ce4bhb12rcd13ifvqem0","pricing_plan_id":"free"},{"bike_id":"42c1de33-6185-4344-8c22-3126c1134e4c","system_id":"levelo_inurba_marseille","lat":43.28797,"lon":5.36225,"is_reserved":false,"is_disabled":false,"rental_uris":{"android":"levelo://app?vid=42c1de33-6185-4344-8c22-3126c1134e4c","ios":"levelo://app?vid=42c1de33-6185-4344-8c22-3126c1134e4c"},"vehicle_type_id":"4","last_reported":1686444401,"current_range_meters":17600,"station_id":"","pricing_plan_id":"free"},{"bike_id":"d1e79c47-88c0-41ec-bfd8-d2ccd28a6cf0","system_id":"levelo_inurba_marseille","lat":43.33733,"lon":5.37451,"is_reserved":false,"is_disabled":false,"rental_uris":{"android":"levelo://app?vid=d1e79c47-88c0-41ec-bfd8-d2ccd28a6cf0","ios":"levelo://app?vid=d1e79c47-88c0-41ec-bfd8-d2ccd28a6cf0"},"vehicle_type_id":"4","last_reported":1686444401,"current_range_meters":31200,"station_id":"","pricing_plan_id":"free"},{"bike_id":"1bc90d78-3d07-4998-b938-01896134d530","system_id":"levelo_inurba_marseille","lat":43.309371,"lon":5.401449,"is_reserved":false,"is_disabled":false,"rental_uris":{"android":"levelo://app?vid=1bc90d78-3d07-4998-b938-01896134d530","ios":"levelo://app?vid=1bc90d78-3d07-4998-b938-01896134d530"},"vehicle_type_id":"4","last_reported":1686444401,"current_range_meters":12000,"station_id":"ce4bgvp2rcd13ifvqct0","pricing_plan_id":"free"},{"bike_id":"c477a36a-4461-48d2-9477-0401e3ab8026","system_id":"levelo_inurba_marseille","lat":43.30642,"lon":5.401031,"is_reserved":false,"is_disabled":false,"rental_uris":{"android":"levelo://app?vid=c477a36a-4461-48d2-9477-0401e3ab8026","ios":"levelo://app?vid=c477a36a-4461-48d2-9477-0401e3ab8026"},"vehicle_type_id":"4","last_reported":1686444401,"current_range_meters":6000,"station_id":"ce4bh112rcd13ifvqda0","pricing_plan_id":"free"},{"bike_id":"265c0905-166c-408b-8d33-95a8e86424e1","system_id":"levelo_inurba_marseille","lat":43.337582,"lon":5.374483,"is_reserved":false,"is_disabled":false,"rental_uris":{"android":"levelo://app?vid=265c0905-166c-408b-8d33-95a8e86424e1","ios":"levelo://app?vid=265c0905-166c-408b-8d33-95a8e86424e1"},"vehicle_type_id":"4","last_reported":1686444401,"current_range_meters":14400,"station_id":"","pricing_plan_id":"free"},{"bike_id":"f3500618-1e32-4d5b-8f2a-9fde05440a04","system_id":"levelo_inurba_marseille","lat":43.30642,"lon":5.401031,"is_reserved":false,"is_disabled":false,"rental_uris":{"android":"levelo://app?vid=f3500618-1e32-4d5b-8f2a-9fde05440a04","ios":"levelo://app?vid=f3500618-1e32-4d5b-8f2a-9fde05440a04"},"vehicle_type_id":"4","last_reported":1686444401,"current_range_meters":12800,"station_id":"ce4bh112rcd13ifvqda0","pricing_plan_id":"free"},{"bike_id":"fb041ec1-b611-46eb-9d8b-3229cfb3396a","system_id":"levelo_inurba_marseille","lat":43.33768,"lon":5.37459,"is_reserved":false,"is_disabled":false,"rental_uris":{"android":"levelo://app?vid=fb041ec1-b611-46eb-9d8b-3229cfb3396a","ios":"levelo://app?vid=fb041ec1-b611-46eb-9d8b-3229cfb3396a"},"vehicle_type_id":"4","last_reported":1686444401,"current_range_meters":21600,"station_id":"","pricing_plan_id":"free"},{"bike_id":"e0979c68-1ad8-4441-aea3-b41f9546fadc","system_id":"levelo_inurba_marseille","lat":43.301117,"lon":5.398795,"is_reserved":false,"is_disabled":false,"rental_uris":{"android":"levelo://app?vid=e0979c68-1ad8-4441-aea3-b41f9546fadc","ios":"levelo://app?vid=e0979c68-1ad8-4441-aea3-b41f9546fadc"},"vehicle_type_id":"4","last_reported":1686444401,"current_range_meters":29600,"station_id":"ce4bh0h2rcd13ifvqd40","pricing_plan_id":"free"},{"bike_id":"d8e815a0-71d3-480a-90f9-ccfc65f737ee","system_id":"levelo_inurba_marseille","lat":43.301117,"lon":5.398795,"is_reserved":false,"is_disabled":false,"rental_uris":{"android":"levelo://app?vid=d8e815a0-71d3-480a-90f9-ccfc65f737ee","ios":"levelo://app?vid=d8e815a0-71d3-480a-90f9-ccfc65f737ee"},"vehicle_type_id":"4","last_reported":1686444401,"current_range_meters":31200,"station_id":"ce4bh0h2rcd13ifvqd40","pricing_plan_id":"free"},{"bike_id":"46614cc3-78f5-4e00-b7cf-ace4ef28b883","system_id":"levelo_inurba_marseille","lat":43.301117,"lon":5.398795,"is_reserved":false,"is_disabled":false,"rental_uris":{"android":"levelo://app?vid=46614cc3-78f5-4e00-b7cf-ace4ef28b883","ios":"levelo://app?vid=46614cc3-78f5-4e00-b7cf-ace4ef28b883"},"vehicle_type_id":"4","last_reported":1686444401,"current_range_meters":22800,"station_id":"ce4bh0h2rcd13ifvqd40","pricing_plan_id":"free"},{"bike_id":"054f3258-74c2-49b9-a978-1d1f04fe1d4c","system_id":"levelo_inurba_marseille","lat":43.3013,"lon":5.39878,"is_reserved":false,"is_disabled":false,"rental_uris":{"android":"levelo://app?vid=054f3258-74c2-49b9-a978-1d1f04fe1d4c","ios":"levelo://app?vid=054f3258-74c2-49b9-a978-1d1f04fe1d4c"},"vehicle_type_id":"4","last_reported":1686444401,"current_range_meters":16800,"station_id":"ce4bh0h2rcd13ifvqd40","pricing_plan_id":"free"},{"bike_id":"a42443d3-fa53-48e1-b499-6ce3e5bbcbe0","system_id":"levelo_inurba_marseille","lat":43.298681,"lon":5.397225,"is_reserved":false,"is_disabled":false,"rental_uris":{"android":"levelo://app?vid=a42443d3-fa53-48e1-b499-6ce3e5bbcbe0","ios":"levelo://app?vid=a42443d3-fa53-48e1-b499-6ce3e5bbcbe0"},"vehicle_type_id":"4","last_reported":1686444401,"current_range_meters":2000,"station_id":"ce4bh0h2rcd13ifvqd50","pricing_plan_id":"free"},{"bike_id":"f8479cc8-7b4c-4d96-878b-5487506fded2","system_id":"levelo_inurba_marseille","lat":43.286591,"lon":5.363346,"is_reserved":false,"is_disabled":false,"rental_uris":{"android":"levelo://app?vid=f8479cc8-7b4c-4d96-878b-5487506fded2","ios":"levelo://app?vid=f8479cc8-7b4c-4d96-878b-5487506fded2"},"vehicle_type_id":"4","last_reported":1686444401,"current_range_meters":4800,"station_id":"ce4bhah2rcd13ifvqej0","pricing_plan_id":"free"},{"bike_id":"1fe62604-96f6-44aa-8414-72561b2124aa","system_id":"levelo_inurba_marseille","lat":43.286591,"lon":5.363346,"is_reserved":false,"is_disabled":false,"rental_uris":{"android":"levelo://app?vid=1fe62604-96f6-44aa-8414-72561b2124aa","ios":"levelo://app?vid=1fe62604-96f6-44aa-8414-72561b2124aa"},"vehicle_type_id":"4","last_reported":1686444401,"current_range_meters":19200,"station_id":"ce4bhah2rcd13ifvqej0","pricing_plan_id":"free"},{"bike_id":"a56c4e3d-b7c9-43c0-a4b5-5b68d9eccc7e","system_id":"levelo_inurba_marseille","lat":43.286593,"lon":5.363346,"is_reserved":false,"is_disabled":false,"rental_uris":{"android":"levelo://app?vid=a56c4e3d-b7c9-43c0-a4b5-5b68d9eccc7e","ios":"levelo://app?vid=a56c4e3d-b7c9-43c0-a4b5-5b68d9eccc7e"},"vehicle_type_id":"4","last_reported":1686444401,"current_range_meters":31200,"station_id":"ce4bhah2rcd13ifvqej0","pricing_plan_id":"free"},{"bike_id":"a4bae2de-0104-4799-82f0-4056442c651a","system_id":"levelo_inurba_marseille","lat":43.302759,"lon":5.400793,"is_reserved":false,"is_disabled":false,"rental_uris":{"android":"levelo://app?vid=a4bae2de-0104-4799-82f0-4056442c651a","ios":"levelo://app?vid=a4bae2de-0104-4799-82f0-4056442c651a"},"vehicle_type_id":"4","last_reported":1686444401,"current_range_meters":5600,"station_id":"ce4bgvh2rcd13ifvqcs0","pricing_plan_id":"free"},{"bike_id":"ba04dbdc-7838-4843-bc68-9ba8cda699a9","system_id":"levelo_inurba_marseille","lat":43.302759,"lon":5.400793,"is_reserved":false,"is_disabled":false,"rental_uris":{"android":"levelo://app?vid=ba04dbdc-7838-4843-bc68-9ba8cda699a9","ios":"levelo://app?vid=ba04dbdc-7838-4843-bc68-9ba8cda699a9"},"vehicle_type_id":"4","last_reported":1686444401,"current_range_meters":31200,"station_id":"ce4bgvh2rcd13ifvqcs0","pricing_plan_id":"free"},{"bike_id":"b349cddc-5b10-48ad-a2fc-0b37fb6afd70","system_id":"levelo_inurba_marseille","lat":43.302759,"lon":5.400793,"is_reserved":false,"is_disabled":false,"rental_uris":{"android":"levelo://app?vid=b349cddc-5b10-48ad-a2fc-0b37fb6afd70","ios":"levelo://app?vid=b349cddc-5b10-48ad-a2fc-0b37fb6afd70"},"vehicle_type_id":"4","last_reported":1686444401,"current_range_meters":9200,"station_id":"ce4bgvh2rcd13ifvqcs0","pricing_plan_id":"free"},{"bike_id":"77f1e3b8-f961-47a1-889e-8458e8fc7694","system_id":"levelo_inurba_marseille","lat":43.302759,"lon":5.400793,"is_reserved":false,"is_disabled":false,"rental_uris":{"android":"levelo://app?vid=77f1e3b8-f961-47a1-889e-8458e8fc7694","ios":"levelo://app?vid=77f1e3b8-f961-47a1-889e-8458e8fc7694"},"vehicle_type_id":"4","last_reported":1686444401,"current_range_meters":5200,"station_id":"ce4bgvh2rcd13ifvqcs0","pricing_plan_id":"free"},{"bike_id":"36255029-7701-4773-82df-f077205ad4b6","system_id":"levelo_inurba_marseille","lat":43.28648,"lon":5.37401,"is_reserved":false,"is_disabled":false,"rental_uris":{"android":"levelo://app?vid=36255029-7701-4773-82df-f077205ad4b6","ios":"levelo://app?vid=36255029-7701-4773-82df-f077205ad4b6"},"vehicle_type_id":"4","last_reported":1686444401,"current_range_meters":2800,"station_id":"","pricing_plan_id":"free"},{"bike_id":"d3d9badb-27e6-4070-9751-b808d9a0ac38","system_id":"levelo_inurba_marseille","lat":43.287185,"lon":5.379373,"is_reserved":false,"is_disabled":false,"rental_uris":{"android":"levelo://app?vid=d3d9badb-27e6-4070-9751-b808d9a0ac38","ios":"levelo://app?vid=d3d9badb-27e6-4070-9751-b808d9a0ac38"},"vehicle_type_id":"4","last_reported":1686444401,"current_range_meters":19200,"station_id":"ce4bh9p2rcd13ifvqec0","pricing_plan_id":"free"},{"bike_id":"8a2329e5-1016-4dcd-a5ad-e68d4e12fef9","system_id":"levelo_inurba_marseille","lat":43.287184,"lon":5.37937,"is_reserved":false,"is_disabled":false,"rental_uris":{"android":"levelo://app?vid=8a2329e5-1016-4dcd-a5ad-e68d4e12fef9","ios":"levelo://app?vid=8a2329e5-1016-4dcd-a5ad-e68d4e12fef9"},"vehicle_type_id":"4","last_reported":1686444401,"current_range_meters":18000,"station_id":"ce4bh9p2rcd13ifvqec0","pricing_plan_id":"free"},{"bike_id":"4bc184cf-6162-46cc-99a9-db1360b840b9","system_id":"levelo_inurba_marseille","lat":43.287185,"lon":5.379373,"is_reserved":false,"is_disabled":false,"rental_uris":{"android":"levelo://app?vid=4bc184cf-6162-46cc-99a9-db1360b840b9","ios":"levelo://app?vid=4bc184cf-6162-46cc-99a9-db1360b840b9"},"vehicle_type_id":"4","last_reported":1686444401,"current_range_meters":9200,"station_id":"ce4bh9p2rcd13ifvqec0","pricing_plan_id":"free"},{"bike_id":"3fc29017-99ba-48ab-bcaf-76617656610a","system_id":"levelo_inurba_marseille","lat":43.316517,"lon":5.404375,"is_reserved":false,"is_disabled":false,"rental_uris":{"android":"levelo://app?vid=3fc29017-99ba-48ab-bcaf-76617656610a","ios":"levelo://app?vid=3fc29017-99ba-48ab-bcaf-76617656610a"},"vehicle_type_id":"4","last_reported":1686444401,"current_range_meters":22800,"station_id":"ce4bh012rcd13ifvqd00","pricing_plan_id":"free"},{"bike_id":"815b724d-2b84-4ba1-b906-cb890829f287","system_id":"levelo_inurba_marseille","lat":43.316517,"lon":5.404375,"is_reserved":false,"is_disabled":false,"rental_uris":{"android":"levelo://app?vid=815b724d-2b84-4ba1-b906-cb890829f287","ios":"levelo://app?vid=815b724d-2b84-4ba1-b906-cb890829f287"},"vehicle_type_id":"4","last_reported":1686444401,"current_range_meters":30800,"station_id":"ce4bh012rcd13ifvqd00","pricing_plan_id":"free"},{"bike_id":"4e83b573-c0e7-488c-82c6-411f9e0be026","system_id":"levelo_inurba_marseille","lat":43.316517,"lon":5.404375,"is_reserved":false,"is_disabled":false,"rental_uris":{"android":"levelo://app?vid=4e83b573-c0e7-488c-82c6-411f9e0be026","ios":"levelo://app?vid=4e83b573-c0e7-488c-82c6-411f9e0be026"},"vehicle_type_id":"4","last_reported":1686444401,"current_range_meters":31200,"station_id":"ce4bh012rcd13ifvqd00","pricing_plan_id":"free"},{"bike_id":"f81e6554-5e1a-4e97-8ae6-de3eb065955d","system_id":"levelo_inurba_marseille","lat":43.291994,"lon":5.392907,"is_reserved":false,"is_disabled":false,"rental_uris":{"android":"levelo://app?vid=f81e6554-5e1a-4e97-8ae6-de3eb065955d","ios":"levelo://app?vid=f81e6554-5e1a-4e97-8ae6-de3eb065955d"},"vehicle_type_id":"4","last_reported":1686444401,"current_range_meters":26800,"station_id":"ce4bh192rcd13ifvqdd0","pricing_plan_id":"free"},{"bike_id":"25fad440-be3e-4097-ac16-3eaf5ad762bc","system_id":"levelo_inurba_marseille","lat":43.284534,"lon":5.358662,"is_reserved":false,"is_disabled":false,"rental_uris":{"android":"levelo://app?vid=25fad440-be3e-4097-ac16-3eaf5ad762bc","ios":"levelo://app?vid=25fad440-be3e-4097-ac16-3eaf5ad762bc"},"vehicle_type_id":"4","last_reported":1686444401,"current_range_meters":30000,"station_id":"ce4bhah2rcd13ifvqei0","pricing_plan_id":"free"},{"bike_id":"328fccbe-aeb6-4eba-86e7-a863f015a6ea","system_id":"levelo_inurba_marseille","lat":43.284647,"lon":5.358856,"is_reserved":false,"is_disabled":false,"rental_uris":{"android":"levelo://app?vid=328fccbe-aeb6-4eba-86e7-a863f015a6ea","ios":"levelo://app?vid=328fccbe-aeb6-4eba-86e7-a863f015a6ea"},"vehicle_type_id":"4","last_reported":1686444401,"current_range_meters":27600,"station_id":"ce4bhah2rcd13ifvqei0","pricing_plan_id":"free"},{"bike_id":"653c875a-b007-4e81-a4d6-c6f5ee4691bf","system_id":"levelo_inurba_marseille","lat":43.284534,"lon":5.358662,"is_reserved":false,"is_disabled":false,"rental_uris":{"android":"levelo://app?vid=653c875a-b007-4e81-a4d6-c6f5ee4691bf","ios":"levelo://app?vid=653c875a-b007-4e81-a4d6-c6f5ee4691bf"},"vehicle_type_id":"4","last_reported":1686444401,"current_range_meters":24400,"station_id":"ce4bhah2rcd13ifvqei0","pricing_plan_id":"free"},{"bike_id":"dbb39201-dadb-433c-8478-1167d290ccc4","system_id":"levelo_inurba_marseille","lat":43.284534,"lon":5.358662,"is_reserved":false,"is_disabled":false,"rental_uris":{"android":"levelo://app?vid=dbb39201-dadb-433c-8478-1167d290ccc4","ios":"levelo://app?vid=dbb39201-dadb-433c-8478-1167d290ccc4"},"vehicle_type_id":"4","last_reported":1686444401,"current_range_meters":20000,"station_id":"ce4bhah2rcd13ifvqei0","pricing_plan_id":"free"},{"bike_id":"43b6de74-2eee-4839-a851-d3c8b895feaf","system_id":"levelo_inurba_marseille","lat":43.284534,"lon":5.358662,"is_reserved":false,"is_disabled":false,"rental_uris":{"android":"levelo://app?vid=43b6de74-2eee-4839-a851-d3c8b895feaf","ios":"levelo://app?vid=43b6de74-2eee-4839-a851-d3c8b895feaf"},"vehicle_type_id":"4","last_reported":1686444401,"current_range_meters":4800,"station_id":"ce4bhah2rcd13ifvqei0","pricing_plan_id":"free"},{"bike_id":"d83d6691-fc35-4d86-b94a-8e9d19ac99f1","system_id":"levelo_inurba_marseille","lat":43.296263,"lon":5.40601,"is_reserved":false,"is_disabled":false,"rental_uris":{"android":"levelo://app?vid=d83d6691-fc35-4d86-b94a-8e9d19ac99f1","ios":"levelo://app?vid=d83d6691-fc35-4d86-b94a-8e9d19ac99f1"},"vehicle_type_id":"4","last_reported":1686444401,"current_range_meters":22800,"station_id":"ce4bh0h2rcd13ifvqd60","pricing_plan_id":"free"},{"bike_id":"7cee8e31-41b5-4468-a73a-b60780607147","system_id":"levelo_inurba_marseille","lat":43.33585,"lon":5.39218,"is_reserved":false,"is_disabled":false,"rental_uris":{"android":"levelo://app?vid=7cee8e31-41b5-4468-a73a-b60780607147","ios":"levelo://app?vid=7cee8e31-41b5-4468-a73a-b60780607147"},"vehicle_type_id":"4","last_reported":1686444401,"current_range_meters":0,"station_id":"","pricing_plan_id":"free"},{"bike_id":"069c3683-f74b-49ae-8a89-026e05d2a69e","system_id":"levelo_inurba_marseille","lat":43.2853,"lon":5.35027,"is_reserved":false,"is_disabled":false,"rental_uris":{"android":"levelo://app?vid=069c3683-f74b-49ae-8a89-026e05d2a69e","ios":"levelo://app?vid=069c3683-f74b-49ae-8a89-026e05d2a69e"},"vehicle_type_id":"4","last_reported":1686444401,"current_range_meters":12400,"station_id":"ce4bhbh2rcd13ifvqepg","pricing_plan_id":"free"},{"bike_id":"157945e7-a5e7-46d6-81e0-3c4112c26dd6","system_id":"levelo_inurba_marseille","lat":43.323464,"lon":5.406297,"is_reserved":false,"is_disabled":false,"rental_uris":{"android":"levelo://app?vid=157945e7-a5e7-46d6-81e0-3c4112c26dd6","ios":"levelo://app?vid=157945e7-a5e7-46d6-81e0-3c4112c26dd6"},"vehicle_type_id":"4","last_reported":1686444401,"current_range_meters":30800,"station_id":"ce4bhq92rcd13ifvqhjg","pricing_plan_id":"free"},{"bike_id":"7d89e3b5-958d-47f6-80fa-adc2175a1ff9","system_id":"levelo_inurba_marseille","lat":43.323464,"lon":5.406297,"is_reserved":false,"is_disabled":false,"rental_uris":{"android":"levelo://app?vid=7d89e3b5-958d-47f6-80fa-adc2175a1ff9","ios":"levelo://app?vid=7d89e3b5-958d-47f6-80fa-adc2175a1ff9"},"vehicle_type_id":"4","last_reported":1686444401,"current_range_meters":29600,"station_id":"ce4bhq92rcd13ifvqhjg","pricing_plan_id":"free"},{"bike_id":"f0a3ad06-f877-4848-a800-e3e1b3371c24","system_id":"levelo_inurba_marseille","lat":43.323464,"lon":5.406297,"is_reserved":false,"is_disabled":false,"rental_uris":{"android":"levelo://app?vid=f0a3ad06-f877-4848-a800-e3e1b3371c24","ios":"levelo://app?vid=f0a3ad06-f877-4848-a800-e3e1b3371c24"},"vehicle_type_id":"4","last_reported":1686444401,"current_range_meters":31600,"station_id":"ce4bhq92rcd13ifvqhjg","pricing_plan_id":"free"},{"bike_id":"8e35b5e3-44e6-4423-8b1c-0697ca4f063c","system_id":"levelo_inurba_marseille","lat":43.323464,"lon":5.406297,"is_reserved":false,"is_disabled":false,"rental_uris":{"android":"levelo://app?vid=8e35b5e3-44e6-4423-8b1c-0697ca4f063c","ios":"levelo://app?vid=8e35b5e3-44e6-4423-8b1c-0697ca4f063c"},"vehicle_type_id":"4","last_reported":1686444401,"current_range_meters":24000,"station_id":"ce4bhq92rcd13ifvqhjg","pricing_plan_id":"free"},{"bike_id":"ae232d39-b160-410f-a53c-e104a0631f2e","system_id":"levelo_inurba_marseille","lat":43.323464,"lon":5.406297,"is_reserved":false,"is_disabled":false,"rental_uris":{"android":"levelo://app?vid=ae232d39-b160-410f-a53c-e104a0631f2e","ios":"levelo://app?vid=ae232d39-b160-410f-a53c-e104a0631f2e"},"vehicle_type_id":"4","last_reported":1686444401,"current_range_meters":22400,"station_id":"ce4bhq92rcd13ifvqhjg","pricing_plan_id":"free"},{"bike_id":"06cff570-236d-434b-b41a-bcb364e7356f","system_id":"levelo_inurba_marseille","lat":43.323464,"lon":5.406297,"is_reserved":false,"is_disabled":false,"rental_uris":{"android":"levelo://app?vid=06cff570-236d-434b-b41a-bcb364e7356f","ios":"levelo://app?vid=06cff570-236d-434b-b41a-bcb364e7356f"},"vehicle_type_id":"4","last_reported":1686444401,"current_range_meters":31600,"station_id":"ce4bhq92rcd13ifvqhjg","pricing_plan_id":"free"},{"bike_id":"f74e5191-5771-4c20-82f9-b577ae627053","system_id":"levelo_inurba_marseille","lat":43.323464,"lon":5.406297,"is_reserved":false,"is_disabled":false,"rental_uris":{"android":"levelo://app?vid=f74e5191-5771-4c20-82f9-b577ae627053","ios":"levelo://app?vid=f74e5191-5771-4c20-82f9-b577ae627053"},"vehicle_type_id":"4","last_reported":1686444401,"current_range_meters":31600,"station_id":"ce4bhq92rcd13ifvqhjg","pricing_plan_id":"free"},{"bike_id":"e3110171-1aa1-49f4-9236-ff0a6b2fdbe2","system_id":"levelo_inurba_marseille","lat":43.323464,"lon":5.406297,"is_reserved":false,"is_disabled":false,"rental_uris":{"android":"levelo://app?vid=e3110171-1aa1-49f4-9236-ff0a6b2fdbe2","ios":"levelo://app?vid=e3110171-1aa1-49f4-9236-ff0a6b2fdbe2"},"vehicle_type_id":"4","last_reported":1686444401,"current_range_meters":28800,"station_id":"ce4bhq92rcd13ifvqhjg","pricing_plan_id":"free"},{"bike_id":"30333e77-7cc7-4ad5-b030-c99c7af00601","system_id":"levelo_inurba_marseille","lat":43.323464,"lon":5.406297,"is_reserved":false,"is_disabled":false,"rental_uris":{"android":"levelo://app?vid=30333e77-7cc7-4ad5-b030-c99c7af00601","ios":"levelo://app?vid=30333e77-7cc7-4ad5-b030-c99c7af00601"},"vehicle_type_id":"4","last_reported":1686444401,"current_range_meters":30000,"station_id":"ce4bhq92rcd13ifvqhjg","pricing_plan_id":"free"},{"bike_id":"647fe918-1228-4693-a4db-77439a459136","system_id":"levelo_inurba_marseille","lat":43.2928,"lon":5.40112,"is_reserved":false,"is_disabled":false,"rental_uris":{"android":"levelo://app?vid=647fe918-1228-4693-a4db-77439a459136","ios":"levelo://app?vid=647fe918-1228-4693-a4db-77439a459136"},"vehicle_type_id":"4","last_reported":1686444401,"current_range_meters":13600,"station_id":"ce4bh312rcd13ifvqdk0","pricing_plan_id":"free"},{"bike_id":"bb3c63b3-1dca-476b-a1d6-3f412793495a","system_id":"levelo_inurba_marseille","lat":43.292724,"lon":5.401131,"is_reserved":false,"is_disabled":false,"rental_uris":{"android":"levelo://app?vid=bb3c63b3-1dca-476b-a1d6-3f412793495a","ios":"levelo://app?vid=bb3c63b3-1dca-476b-a1d6-3f412793495a"},"vehicle_type_id":"4","last_reported":1686444401,"current_range_meters":20000,"station_id":"ce4bh312rcd13ifvqdk0","pricing_plan_id":"free"},{"bike_id":"35ff6768-dc84-4f46-955c-37683a9fe28a","system_id":"levelo_inurba_marseille","lat":43.292724,"lon":5.401131,"is_reserved":false,"is_disabled":false,"rental_uris":{"android":"levelo://app?vid=35ff6768-dc84-4f46-955c-37683a9fe28a","ios":"levelo://app?vid=35ff6768-dc84-4f46-955c-37683a9fe28a"},"vehicle_type_id":"4","last_reported":1686444401,"current_range_meters":18400,"station_id":"ce4bh312rcd13ifvqdk0","pricing_plan_id":"free"},{"bike_id":"1bbb90d4-bf04-4de9-8dc8-e5d088192925","system_id":"levelo_inurba_marseille","lat":43.292724,"lon":5.401131,"is_reserved":false,"is_disabled":false,"rental_uris":{"android":"levelo://app?vid=1bbb90d4-bf04-4de9-8dc8-e5d088192925","ios":"levelo://app?vid=1bbb90d4-bf04-4de9-8dc8-e5d088192925"},"vehicle_type_id":"4","last_reported":1686444401,"current_range_meters":4000,"station_id":"ce4bh312rcd13ifvqdk0","pricing_plan_id":"free"},{"bike_id":"1ca6b875-0810-4fd9-930a-8128a573f733","system_id":"levelo_inurba_marseille","lat":43.29273,"lon":5.4012,"is_reserved":false,"is_disabled":false,"rental_uris":{"android":"levelo://app?vid=1ca6b875-0810-4fd9-930a-8128a573f733","ios":"levelo://app?vid=1ca6b875-0810-4fd9-930a-8128a573f733"},"vehicle_type_id":"4","last_reported":1686444401,"current_range_meters":30400,"station_id":"ce4bh312rcd13ifvqdk0","pricing_plan_id":"free"},{"bike_id":"5d692d30-e270-4a66-b03f-039f3a99aae5","system_id":"levelo_inurba_marseille","lat":43.292724,"lon":5.401131,"is_reserved":false,"is_disabled":false,"rental_uris":{"android":"levelo://app?vid=5d692d30-e270-4a66-b03f-039f3a99aae5","ios":"levelo://app?vid=5d692d30-e270-4a66-b03f-039f3a99aae5"},"vehicle_type_id":"4","last_reported":1686444401,"current_range_meters":31200,"station_id":"ce4bh312rcd13ifvqdk0","pricing_plan_id":"free"},{"bike_id":"d3fe144e-e8a7-4955-b99f-f5ddaa0b424a","system_id":"levelo_inurba_marseille","lat":43.282754,"lon":5.350519,"is_reserved":false,"is_disabled":false,"rental_uris":{"android":"levelo://app?vid=d3fe144e-e8a7-4955-b99f-f5ddaa0b424a","ios":"levelo://app?vid=d3fe144e-e8a7-4955-b99f-f5ddaa0b424a"},"vehicle_type_id":"4","last_reported":1686444401,"current_range_meters":9600,"station_id":"ce4bhbp2rcd13ifvqerg","pricing_plan_id":"free"},{"bike_id":"fc07679a-d51b-4d21-9455-2d5ff93129e0","system_id":"levelo_inurba_marseille","lat":43.283502,"lon":5.386471,"is_reserved":false,"is_disabled":false,"rental_uris":{"android":"levelo://app?vid=fc07679a-d51b-4d21-9455-2d5ff93129e0","ios":"levelo://app?vid=fc07679a-d51b-4d21-9455-2d5ff93129e0"},"vehicle_type_id":"4","last_reported":1686444401,"current_range_meters":0,"station_id":"ce4bh492rcd13ifvqdvg","pricing_plan_id":"free"},{"bike_id":"f7d9ddba-a7d0-4749-906e-a665b69d709e","system_id":"levelo_inurba_marseille","lat":43.28039,"lon":5.369297,"is_reserved":false,"is_disabled":false,"rental_uris":{"android":"levelo://app?vid=f7d9ddba-a7d0-4749-906e-a665b69d709e","ios":"levelo://app?vid=f7d9ddba-a7d0-4749-906e-a665b69d709e"},"vehicle_type_id":"4","last_reported":1686444401,"current_range_meters":10000,"station_id":"ce4bha12rcd13ifvqef0","pricing_plan_id":"free"},{"bike_id":"aa0de213-2730-46e4-bebb-d1de1e8b40dd","system_id":"levelo_inurba_marseille","lat":43.281122,"lon":5.378535,"is_reserved":false,"is_disabled":false,"rental_uris":{"android":"levelo://app?vid=aa0de213-2730-46e4-bebb-d1de1e8b40dd","ios":"levelo://app?vid=aa0de213-2730-46e4-bebb-d1de1e8b40dd"},"vehicle_type_id":"4","last_reported":1686444401,"current_range_meters":0,"station_id":"","pricing_plan_id":"free"},{"bike_id":"c6f05330-44a6-4d24-8b62-7ee6b84f0c04","system_id":"levelo_inurba_marseille","lat":43.296263,"lon":5.40601,"is_reserved":false,"is_disabled":false,"rental_uris":{"android":"levelo://app?vid=c6f05330-44a6-4d24-8b62-7ee6b84f0c04","ios":"levelo://app?vid=c6f05330-44a6-4d24-8b62-7ee6b84f0c04"},"vehicle_type_id":"4","last_reported":1686444401,"current_range_meters":28000,"station_id":"ce4bh0h2rcd13ifvqd60","pricing_plan_id":"free"},{"bike_id":"04d422d0-16d6-4cdb-b212-62fbaf6cd62e","system_id":"levelo_inurba_marseille","lat":43.296263,"lon":5.40601,"is_reserved":false,"is_disabled":false,"rental_uris":{"android":"levelo://app?vid=04d422d0-16d6-4cdb-b212-62fbaf6cd62e","ios":"levelo://app?vid=04d422d0-16d6-4cdb-b212-62fbaf6cd62e"},"vehicle_type_id":"4","last_reported":1686444401,"current_range_meters":10000,"station_id":"ce4bh0h2rcd13ifvqd60","pricing_plan_id":"free"},{"bike_id":"d401fd30-da9a-4c44-83b5-ea9adfb47914","system_id":"levelo_inurba_marseille","lat":43.296263,"lon":5.40601,"is_reserved":false,"is_disabled":false,"rental_uris":{"android":"levelo://app?vid=d401fd30-da9a-4c44-83b5-ea9adfb47914","ios":"levelo://app?vid=d401fd30-da9a-4c44-83b5-ea9adfb47914"},"vehicle_type_id":"4","last_reported":1686444401,"current_range_meters":8000,"station_id":"ce4bh0h2rcd13ifvqd60","pricing_plan_id":"free"},{"bike_id":"ca0f1f15-8f5c-4e92-bdac-6de5206c987f","system_id":"levelo_inurba_marseille","lat":43.296263,"lon":5.40601,"is_reserved":false,"is_disabled":false,"rental_uris":{"android":"levelo://app?vid=ca0f1f15-8f5c-4e92-bdac-6de5206c987f","ios":"levelo://app?vid=ca0f1f15-8f5c-4e92-bdac-6de5206c987f"},"vehicle_type_id":"4","last_reported":1686444401,"current_range_meters":24800,"station_id":"ce4bh0h2rcd13ifvqd60","pricing_plan_id":"free"},{"bike_id":"27c023c6-0c6b-4b6f-9ebd-c6a52e80eb5d","system_id":"levelo_inurba_marseille","lat":43.292724,"lon":5.401131,"is_reserved":false,"is_disabled":false,"rental_uris":{"android":"levelo://app?vid=27c023c6-0c6b-4b6f-9ebd-c6a52e80eb5d","ios":"levelo://app?vid=27c023c6-0c6b-4b6f-9ebd-c6a52e80eb5d"},"vehicle_type_id":"4","last_reported":1686444401,"current_range_meters":31200,"station_id":"ce4bh312rcd13ifvqdk0","pricing_plan_id":"free"},{"bike_id":"d24e5e47-9c41-430a-a7fe-67e3d950ae16","system_id":"levelo_inurba_marseille","lat":43.284462,"lon":5.392121,"is_reserved":false,"is_disabled":false,"rental_uris":{"android":"levelo://app?vid=d24e5e47-9c41-430a-a7fe-67e3d950ae16","ios":"levelo://app?vid=d24e5e47-9c41-430a-a7fe-67e3d950ae16"},"vehicle_type_id":"4","last_reported":1686444401,"current_range_meters":0,"station_id":"ce4bhoh2rcd13ifvqh5g","pricing_plan_id":"free"},{"bike_id":"9d45e725-9b0c-4637-8d31-ab51f8441714","system_id":"levelo_inurba_marseille","lat":43.28879,"lon":5.40017,"is_reserved":false,"is_disabled":false,"rental_uris":{"android":"levelo://app?vid=9d45e725-9b0c-4637-8d31-ab51f8441714","ios":"levelo://app?vid=9d45e725-9b0c-4637-8d31-ab51f8441714"},"vehicle_type_id":"4","last_reported":1686444401,"current_range_meters":30800,"station_id":"","pricing_plan_id":"free"},{"bike_id":"261dc9e3-532c-4802-9772-18d0aafbbbf0","system_id":"levelo_inurba_marseille","lat":43.304188,"lon":5.412904,"is_reserved":false,"is_disabled":false,"rental_uris":{"android":"levelo://app?vid=261dc9e3-532c-4802-9772-18d0aafbbbf0","ios":"levelo://app?vid=261dc9e3-532c-4802-9772-18d0aafbbbf0"},"vehicle_type_id":"4","last_reported":1686444401,"current_range_meters":17600,"station_id":"ce4bhop2rcd13ifvqh8g","pricing_plan_id":"free"},{"bike_id":"49b31b14-816d-4c6d-b50c-0d45ba84513a","system_id":"levelo_inurba_marseille","lat":43.304188,"lon":5.412904,"is_reserved":false,"is_disabled":false,"rental_uris":{"android":"levelo://app?vid=49b31b14-816d-4c6d-b50c-0d45ba84513a","ios":"levelo://app?vid=49b31b14-816d-4c6d-b50c-0d45ba84513a"},"vehicle_type_id":"4","last_reported":1686444401,"current_range_meters":11200,"station_id":"ce4bhop2rcd13ifvqh8g","pricing_plan_id":"free"},{"bike_id":"cd8a80a4-b9df-40ed-9f21-9099ee5a5ba3","system_id":"levelo_inurba_marseille","lat":43.304188,"lon":5.412904,"is_reserved":false,"is_disabled":false,"rental_uris":{"android":"levelo://app?vid=cd8a80a4-b9df-40ed-9f21-9099ee5a5ba3","ios":"levelo://app?vid=cd8a80a4-b9df-40ed-9f21-9099ee5a5ba3"},"vehicle_type_id":"4","last_reported":1686444401,"current_range_meters":18400,"station_id":"ce4bhop2rcd13ifvqh8g","pricing_plan_id":"free"},{"bike_id":"299be0b4-9bd1-413d-8e8c-236cec89b0ed","system_id":"levelo_inurba_marseille","lat":43.304188,"lon":5.412904,"is_reserved":false,"is_disabled":false,"rental_uris":{"android":"levelo://app?vid=299be0b4-9bd1-413d-8e8c-236cec89b0ed","ios":"levelo://app?vid=299be0b4-9bd1-413d-8e8c-236cec89b0ed"},"vehicle_type_id":"4","last_reported":1686444401,"current_range_meters":11200,"station_id":"ce4bhop2rcd13ifvqh8g","pricing_plan_id":"free"},{"bike_id":"caa5d4a7-e67b-4cb4-b720-7385cd88e582","system_id":"levelo_inurba_marseille","lat":43.287154,"lon":5.399979,"is_reserved":false,"is_disabled":false,"rental_uris":{"android":"levelo://app?vid=caa5d4a7-e67b-4cb4-b720-7385cd88e582","ios":"levelo://app?vid=caa5d4a7-e67b-4cb4-b720-7385cd88e582"},"vehicle_type_id":"4","last_reported":1686444401,"current_range_meters":23200,"station_id":"ce4bho92rcd13ifvqh3g","pricing_plan_id":"free"},{"bike_id":"5f56f30a-9873-4aaf-8a47-07f0edb162bf","system_id":"levelo_inurba_marseille","lat":43.28714,"lon":5.39991,"is_reserved":false,"is_disabled":false,"rental_uris":{"android":"levelo://app?vid=5f56f30a-9873-4aaf-8a47-07f0edb162bf","ios":"levelo://app?vid=5f56f30a-9873-4aaf-8a47-07f0edb162bf"},"vehicle_type_id":"4","last_reported":1686444401,"current_range_meters":0,"station_id":"ce4bho92rcd13ifvqh3g","pricing_plan_id":"free"},{"bike_id":"7cac79dd-811c-49ac-87c7-3f0ac48d4615","system_id":"levelo_inurba_marseille","lat":43.287154,"lon":5.399979,"is_reserved":false,"is_disabled":false,"rental_uris":{"android":"levelo://app?vid=7cac79dd-811c-49ac-87c7-3f0ac48d4615","ios":"levelo://app?vid=7cac79dd-811c-49ac-87c7-3f0ac48d4615"},"vehicle_type_id":"4","last_reported":1686444401,"current_range_meters":20800,"station_id":"ce4bho92rcd13ifvqh3g","pricing_plan_id":"free"},{"bike_id":"20765944-297b-4f32-b917-2b6722dd7de7","system_id":"levelo_inurba_marseille","lat":43.287154,"lon":5.399979,"is_reserved":false,"is_disabled":false,"rental_uris":{"android":"levelo://app?vid=20765944-297b-4f32-b917-2b6722dd7de7","ios":"levelo://app?vid=20765944-297b-4f32-b917-2b6722dd7de7"},"vehicle_type_id":"4","last_reported":1686444401,"current_range_meters":6400,"station_id":"ce4bho92rcd13ifvqh3g","pricing_plan_id":"free"},{"bike_id":"e8c9d33d-1891-4748-b5f2-672c76d72942","system_id":"levelo_inurba_marseille","lat":43.287154,"lon":5.399979,"is_reserved":false,"is_disabled":false,"rental_uris":{"android":"levelo://app?vid=e8c9d33d-1891-4748-b5f2-672c76d72942","ios":"levelo://app?vid=e8c9d33d-1891-4748-b5f2-672c76d72942"},"vehicle_type_id":"4","last_reported":1686444401,"current_range_meters":5200,"station_id":"ce4bho92rcd13ifvqh3g","pricing_plan_id":"free"},{"bike_id":"5eeef255-79a2-4949-ad2e-0e638f3e36dd","system_id":"levelo_inurba_marseille","lat":43.287154,"lon":5.399979,"is_reserved":false,"is_disabled":false,"rental_uris":{"android":"levelo://app?vid=5eeef255-79a2-4949-ad2e-0e638f3e36dd","ios":"levelo://app?vid=5eeef255-79a2-4949-ad2e-0e638f3e36dd"},"vehicle_type_id":"4","last_reported":1686444401,"current_range_meters":26400,"station_id":"ce4bho92rcd13ifvqh3g","pricing_plan_id":"free"},{"bike_id":"583543eb-b0bf-4785-8b1e-96cd4f7bb70e","system_id":"levelo_inurba_marseille","lat":43.320045,"lon":5.415046,"is_reserved":false,"is_disabled":false,"rental_uris":{"android":"levelo://app?vid=583543eb-b0bf-4785-8b1e-96cd4f7bb70e","ios":"levelo://app?vid=583543eb-b0bf-4785-8b1e-96cd4f7bb70e"},"vehicle_type_id":"4","last_reported":1686444401,"current_range_meters":26000,"station_id":"ce4bhq92rcd13ifvqhkg","pricing_plan_id":"free"},{"bike_id":"6a18d01b-2cb0-4070-b136-9fc46d559f2a","system_id":"levelo_inurba_marseille","lat":43.28603,"lon":5.40048,"is_reserved":false,"is_disabled":false,"rental_uris":{"android":"levelo://app?vid=6a18d01b-2cb0-4070-b136-9fc46d559f2a","ios":"levelo://app?vid=6a18d01b-2cb0-4070-b136-9fc46d559f2a"},"vehicle_type_id":"4","last_reported":1686444401,"current_range_meters":12000,"station_id":"","pricing_plan_id":"free"},{"bike_id":"84738fb7-4998-4e2c-b779-bc63c295d2a7","system_id":"levelo_inurba_marseille","lat":43.292571,"lon":5.409107,"is_reserved":false,"is_disabled":false,"rental_uris":{"android":"levelo://app?vid=84738fb7-4998-4e2c-b779-bc63c295d2a7","ios":"levelo://app?vid=84738fb7-4998-4e2c-b779-bc63c295d2a7"},"vehicle_type_id":"4","last_reported":1686444401,"current_range_meters":22400,"station_id":"ce4bh192rcd13ifvqdc0","pricing_plan_id":"free"},{"bike_id":"0ce33b3f-a626-46d9-9b6e-edd059ab819c","system_id":"levelo_inurba_marseille","lat":43.292571,"lon":5.409107,"is_reserved":false,"is_disabled":false,"rental_uris":{"android":"levelo://app?vid=0ce33b3f-a626-46d9-9b6e-edd059ab819c","ios":"levelo://app?vid=0ce33b3f-a626-46d9-9b6e-edd059ab819c"},"vehicle_type_id":"4","last_reported":1686444401,"current_range_meters":0,"station_id":"ce4bh192rcd13ifvqdc0","pricing_plan_id":"free"},{"bike_id":"7544ef50-10f3-484f-9048-bb9de8b64ee3","system_id":"levelo_inurba_marseille","lat":43.292571,"lon":5.409107,"is_reserved":false,"is_disabled":false,"rental_uris":{"android":"levelo://app?vid=7544ef50-10f3-484f-9048-bb9de8b64ee3","ios":"levelo://app?vid=7544ef50-10f3-484f-9048-bb9de8b64ee3"},"vehicle_type_id":"4","last_reported":1686444401,"current_range_meters":10000,"station_id":"ce4bh192rcd13ifvqdc0","pricing_plan_id":"free"},{"bike_id":"69ac567d-9b58-4aad-b861-c212aec7e4c0","system_id":"levelo_inurba_marseille","lat":43.29262,"lon":5.40908,"is_reserved":false,"is_disabled":false,"rental_uris":{"android":"levelo://app?vid=69ac567d-9b58-4aad-b861-c212aec7e4c0","ios":"levelo://app?vid=69ac567d-9b58-4aad-b861-c212aec7e4c0"},"vehicle_type_id":"4","last_reported":1686444401,"current_range_meters":8400,"station_id":"ce4bh192rcd13ifvqdc0","pricing_plan_id":"free"},{"bike_id":"ce70f64c-b226-400b-b2e8-9b3d5f16350e","system_id":"levelo_inurba_marseille","lat":43.292571,"lon":5.409107,"is_reserved":false,"is_disabled":false,"rental_uris":{"android":"levelo://app?vid=ce70f64c-b226-400b-b2e8-9b3d5f16350e","ios":"levelo://app?vid=ce70f64c-b226-400b-b2e8-9b3d5f16350e"},"vehicle_type_id":"4","last_reported":1686444401,"current_range_meters":15600,"station_id":"ce4bh192rcd13ifvqdc0","pricing_plan_id":"free"},{"bike_id":"8452c3d4-27bb-45ea-bff3-6948bcae831c","system_id":"levelo_inurba_marseille","lat":43.29256,"lon":5.40909,"is_reserved":false,"is_disabled":false,"rental_uris":{"android":"levelo://app?vid=8452c3d4-27bb-45ea-bff3-6948bcae831c","ios":"levelo://app?vid=8452c3d4-27bb-45ea-bff3-6948bcae831c"},"vehicle_type_id":"4","last_reported":1686444401,"current_range_meters":8400,"station_id":"ce4bh192rcd13ifvqdc0","pricing_plan_id":"free"},{"bike_id":"de9c86fe-b9b5-4708-88b1-5076944a2c3f","system_id":"levelo_inurba_marseille","lat":43.29258,"lon":5.40914,"is_reserved":false,"is_disabled":false,"rental_uris":{"android":"levelo://app?vid=de9c86fe-b9b5-4708-88b1-5076944a2c3f","ios":"levelo://app?vid=de9c86fe-b9b5-4708-88b1-5076944a2c3f"},"vehicle_type_id":"4","last_reported":1686444401,"current_range_meters":0,"station_id":"ce4bh192rcd13ifvqdc0","pricing_plan_id":"free"},{"bike_id":"709bed5a-4253-4589-bb22-33e9fa69f2bc","system_id":"levelo_inurba_marseille","lat":43.325233,"lon":5.414318,"is_reserved":false,"is_disabled":false,"rental_uris":{"android":"levelo://app?vid=709bed5a-4253-4589-bb22-33e9fa69f2bc","ios":"levelo://app?vid=709bed5a-4253-4589-bb22-33e9fa69f2bc"},"vehicle_type_id":"4","last_reported":1686444401,"current_range_meters":25200,"station_id":"ce4bhq12rcd13ifvqhhg","pricing_plan_id":"free"},{"bike_id":"085bd568-ec40-4961-8fff-65962dfcc170","system_id":"levelo_inurba_marseille","lat":43.32541,"lon":5.41444,"is_reserved":false,"is_disabled":false,"rental_uris":{"android":"levelo://app?vid=085bd568-ec40-4961-8fff-65962dfcc170","ios":"levelo://app?vid=085bd568-ec40-4961-8fff-65962dfcc170"},"vehicle_type_id":"4","last_reported":1686444401,"current_range_meters":28000,"station_id":"ce4bhq12rcd13ifvqhhg","pricing_plan_id":"free"},{"bike_id":"c0d2610d-dc6d-44ee-b961-a7c309cc7ad1","system_id":"levelo_inurba_marseille","lat":43.325233,"lon":5.414318,"is_reserved":false,"is_disabled":false,"rental_uris":{"android":"levelo://app?vid=c0d2610d-dc6d-44ee-b961-a7c309cc7ad1","ios":"levelo://app?vid=c0d2610d-dc6d-44ee-b961-a7c309cc7ad1"},"vehicle_type_id":"4","last_reported":1686444401,"current_range_meters":17200,"station_id":"ce4bhq12rcd13ifvqhhg","pricing_plan_id":"free"},{"bike_id":"012e93f1-006d-472c-8506-53e3765960b4","system_id":"levelo_inurba_marseille","lat":43.3334,"lon":5.4115,"is_reserved":false,"is_disabled":false,"rental_uris":{"android":"levelo://app?vid=012e93f1-006d-472c-8506-53e3765960b4","ios":"levelo://app?vid=012e93f1-006d-472c-8506-53e3765960b4"},"vehicle_type_id":"4","last_reported":1686444401,"current_range_meters":20400,"station_id":"","pricing_plan_id":"free"},{"bike_id":"d907a15d-0ac4-4c3a-b92d-3339c85c1b4f","system_id":"levelo_inurba_marseille","lat":43.280784,"lon":5.396622,"is_reserved":false,"is_disabled":false,"rental_uris":{"android":"levelo://app?vid=d907a15d-0ac4-4c3a-b92d-3339c85c1b4f","ios":"levelo://app?vid=d907a15d-0ac4-4c3a-b92d-3339c85c1b4f"},"vehicle_type_id":"4","last_reported":1686444401,"current_range_meters":24000,"station_id":"ce4bho12rcd13ifvqh2g","pricing_plan_id":"free"},{"bike_id":"a5751259-d12f-45d7-8c90-f3c6d71102f6","system_id":"levelo_inurba_marseille","lat":43.278401,"lon":5.392152,"is_reserved":false,"is_disabled":false,"rental_uris":{"android":"levelo://app?vid=a5751259-d12f-45d7-8c90-f3c6d71102f6","ios":"levelo://app?vid=a5751259-d12f-45d7-8c90-f3c6d71102f6"},"vehicle_type_id":"4","last_reported":1686444401,"current_range_meters":2400,"station_id":"ce4bhjp2rcd13ifvqga0","pricing_plan_id":"free"},{"bike_id":"d163aae0-9afb-4c61-9a7a-141cbb79da6b","system_id":"levelo_inurba_marseille","lat":43.33612,"lon":5.410321,"is_reserved":false,"is_disabled":false,"rental_uris":{"android":"levelo://app?vid=d163aae0-9afb-4c61-9a7a-141cbb79da6b","ios":"levelo://app?vid=d163aae0-9afb-4c61-9a7a-141cbb79da6b"},"vehicle_type_id":"4","last_reported":1686444401,"current_range_meters":31600,"station_id":"ce4bhqh2rcd13ifvqhmg","pricing_plan_id":"free"},{"bike_id":"96af5fa6-f4d6-4119-aa0f-da687511bf4a","system_id":"levelo_inurba_marseille","lat":43.336134,"lon":5.410341,"is_reserved":false,"is_disabled":false,"rental_uris":{"android":"levelo://app?vid=96af5fa6-f4d6-4119-aa0f-da687511bf4a","ios":"levelo://app?vid=96af5fa6-f4d6-4119-aa0f-da687511bf4a"},"vehicle_type_id":"4","last_reported":1686444401,"current_range_meters":31200,"station_id":"ce4bhqh2rcd13ifvqhmg","pricing_plan_id":"free"},{"bike_id":"d51fb9e3-894e-46fa-8aca-090103ce4e7d","system_id":"levelo_inurba_marseille","lat":43.33612,"lon":5.410321,"is_reserved":false,"is_disabled":false,"rental_uris":{"android":"levelo://app?vid=d51fb9e3-894e-46fa-8aca-090103ce4e7d","ios":"levelo://app?vid=d51fb9e3-894e-46fa-8aca-090103ce4e7d"},"vehicle_type_id":"4","last_reported":1686444401,"current_range_meters":8400,"station_id":"ce4bhqh2rcd13ifvqhmg","pricing_plan_id":"free"},{"bike_id":"b0a01167-bac6-4716-889b-61a6638dac86","system_id":"levelo_inurba_marseille","lat":43.33612,"lon":5.410321,"is_reserved":false,"is_disabled":false,"rental_uris":{"android":"levelo://app?vid=b0a01167-bac6-4716-889b-61a6638dac86","ios":"levelo://app?vid=b0a01167-bac6-4716-889b-61a6638dac86"},"vehicle_type_id":"4","last_reported":1686444401,"current_range_meters":26400,"station_id":"ce4bhqh2rcd13ifvqhmg","pricing_plan_id":"free"},{"bike_id":"8059afcd-7c6e-419f-9e72-170a599de02b","system_id":"levelo_inurba_marseille","lat":43.336134,"lon":5.410341,"is_reserved":false,"is_disabled":false,"rental_uris":{"android":"levelo://app?vid=8059afcd-7c6e-419f-9e72-170a599de02b","ios":"levelo://app?vid=8059afcd-7c6e-419f-9e72-170a599de02b"},"vehicle_type_id":"4","last_reported":1686444401,"current_range_meters":27200,"station_id":"ce4bhqh2rcd13ifvqhmg","pricing_plan_id":"free"},{"bike_id":"9178aa11-f09e-4a41-a4c2-6bed54b52f03","system_id":"levelo_inurba_marseille","lat":43.33612,"lon":5.410321,"is_reserved":false,"is_disabled":false,"rental_uris":{"android":"levelo://app?vid=9178aa11-f09e-4a41-a4c2-6bed54b52f03","ios":"levelo://app?vid=9178aa11-f09e-4a41-a4c2-6bed54b52f03"},"vehicle_type_id":"4","last_reported":1686444401,"current_range_meters":22400,"station_id":"ce4bhqh2rcd13ifvqhmg","pricing_plan_id":"free"},{"bike_id":"d22736af-f0ca-43e8-9a7a-e2b92159624e","system_id":"levelo_inurba_marseille","lat":43.336134,"lon":5.410341,"is_reserved":false,"is_disabled":false,"rental_uris":{"android":"levelo://app?vid=d22736af-f0ca-43e8-9a7a-e2b92159624e","ios":"levelo://app?vid=d22736af-f0ca-43e8-9a7a-e2b92159624e"},"vehicle_type_id":"4","last_reported":1686444401,"current_range_meters":31200,"station_id":"ce4bhqh2rcd13ifvqhmg","pricing_plan_id":"free"},{"bike_id":"75a6ea1e-b51b-4f54-8770-d3478c92f2b3","system_id":"levelo_inurba_marseille","lat":43.33612,"lon":5.410321,"is_reserved":false,"is_disabled":false,"rental_uris":{"android":"levelo://app?vid=75a6ea1e-b51b-4f54-8770-d3478c92f2b3","ios":"levelo://app?vid=75a6ea1e-b51b-4f54-8770-d3478c92f2b3"},"vehicle_type_id":"4","last_reported":1686444401,"current_range_meters":31200,"station_id":"ce4bhqh2rcd13ifvqhmg","pricing_plan_id":"free"},{"bike_id":"3ce0be96-3841-4018-905f-d50e86cafab6","system_id":"levelo_inurba_marseille","lat":43.336134,"lon":5.410341,"is_reserved":false,"is_disabled":false,"rental_uris":{"android":"levelo://app?vid=3ce0be96-3841-4018-905f-d50e86cafab6","ios":"levelo://app?vid=3ce0be96-3841-4018-905f-d50e86cafab6"},"vehicle_type_id":"4","last_reported":1686444401,"current_range_meters":31200,"station_id":"ce4bhqh2rcd13ifvqhmg","pricing_plan_id":"free"},{"bike_id":"d416fb3a-6803-4052-b540-b47e325d848e","system_id":"levelo_inurba_marseille","lat":43.336134,"lon":5.410341,"is_reserved":false,"is_disabled":false,"rental_uris":{"android":"levelo://app?vid=d416fb3a-6803-4052-b540-b47e325d848e","ios":"levelo://app?vid=d416fb3a-6803-4052-b540-b47e325d848e"},"vehicle_type_id":"4","last_reported":1686444401,"current_range_meters":22800,"station_id":"ce4bhqh2rcd13ifvqhmg","pricing_plan_id":"free"},{"bike_id":"f75f8d3d-f4fb-465a-a5ba-1018069ced9c","system_id":"levelo_inurba_marseille","lat":43.33613,"lon":5.41034,"is_reserved":false,"is_disabled":false,"rental_uris":{"android":"levelo://app?vid=f75f8d3d-f4fb-465a-a5ba-1018069ced9c","ios":"levelo://app?vid=f75f8d3d-f4fb-465a-a5ba-1018069ced9c"},"vehicle_type_id":"4","last_reported":1686444401,"current_range_meters":30400,"station_id":"ce4bhqh2rcd13ifvqhmg","pricing_plan_id":"free"},{"bike_id":"9e605f1c-4b55-40e4-85e8-8fb4eefbf9f2","system_id":"levelo_inurba_marseille","lat":43.33609,"lon":5.41047,"is_reserved":false,"is_disabled":false,"rental_uris":{"android":"levelo://app?vid=9e605f1c-4b55-40e4-85e8-8fb4eefbf9f2","ios":"levelo://app?vid=9e605f1c-4b55-40e4-85e8-8fb4eefbf9f2"},"vehicle_type_id":"4","last_reported":1686444401,"current_range_meters":31200,"station_id":"ce4bhqh2rcd13ifvqhmg","pricing_plan_id":"free"},{"bike_id":"0c3071ec-6018-4eb6-b6cb-9506d36e45db","system_id":"levelo_inurba_marseille","lat":43.2804,"lon":5.3992,"is_reserved":false,"is_disabled":false,"rental_uris":{"android":"levelo://app?vid=0c3071ec-6018-4eb6-b6cb-9506d36e45db","ios":"levelo://app?vid=0c3071ec-6018-4eb6-b6cb-9506d36e45db"},"vehicle_type_id":"4","last_reported":1686444401,"current_range_meters":22800,"station_id":"","pricing_plan_id":"free"},{"bike_id":"a40f60da-ee44-48e6-99aa-fe3fcdc5deb5","system_id":"levelo_inurba_marseille","lat":43.27268,"lon":5.36263,"is_reserved":false,"is_disabled":false,"rental_uris":{"android":"levelo://app?vid=a40f60da-ee44-48e6-99aa-fe3fcdc5deb5","ios":"levelo://app?vid=a40f60da-ee44-48e6-99aa-fe3fcdc5deb5"},"vehicle_type_id":"4","last_reported":1686444401,"current_range_meters":4000,"station_id":"","pricing_plan_id":"free"},{"bike_id":"21a9e4ae-78f3-473b-9016-ae0b5d27fa3c","system_id":"levelo_inurba_marseille","lat":43.27166,"lon":5.36262,"is_reserved":false,"is_disabled":false,"rental_uris":{"android":"levelo://app?vid=21a9e4ae-78f3-473b-9016-ae0b5d27fa3c","ios":"levelo://app?vid=21a9e4ae-78f3-473b-9016-ae0b5d27fa3c"},"vehicle_type_id":"4","last_reported":1686444401,"current_range_meters":16800,"station_id":"","pricing_plan_id":"free"},{"bike_id":"379a908c-0c5a-468b-a970-117380501a82","system_id":"levelo_inurba_marseille","lat":43.317121,"lon":5.423936,"is_reserved":false,"is_disabled":false,"rental_uris":{"android":"levelo://app?vid=379a908c-0c5a-468b-a970-117380501a82","ios":"levelo://app?vid=379a908c-0c5a-468b-a970-117380501a82"},"vehicle_type_id":"4","last_reported":1686444401,"current_range_meters":21600,"station_id":"ce4bhp92rcd13ifvqhbg","pricing_plan_id":"free"},{"bike_id":"c75ec162-0efe-467a-a98a-50133ea5de05","system_id":"levelo_inurba_marseille","lat":43.27614,"lon":5.39489,"is_reserved":false,"is_disabled":false,"rental_uris":{"android":"levelo://app?vid=c75ec162-0efe-467a-a98a-50133ea5de05","ios":"levelo://app?vid=c75ec162-0efe-467a-a98a-50133ea5de05"},"vehicle_type_id":"4","last_reported":1686444401,"current_range_meters":22800,"station_id":"","pricing_plan_id":"free"},{"bike_id":"4eadd5b5-1b6e-43ec-bb31-0e0764320a12","system_id":"levelo_inurba_marseille","lat":43.304096,"lon":5.425385,"is_reserved":false,"is_disabled":false,"rental_uris":{"android":"levelo://app?vid=4eadd5b5-1b6e-43ec-bb31-0e0764320a12","ios":"levelo://app?vid=4eadd5b5-1b6e-43ec-bb31-0e0764320a12"},"vehicle_type_id":"4","last_reported":1686444401,"current_range_meters":0,"station_id":"ce4bhoh2rcd13ifvqh6g","pricing_plan_id":"free"},{"bike_id":"1e53b94c-e1fc-49d9-b046-7a08370f467d","system_id":"levelo_inurba_marseille","lat":43.295523,"lon":5.422926,"is_reserved":false,"is_disabled":false,"rental_uris":{"android":"levelo://app?vid=1e53b94c-e1fc-49d9-b046-7a08370f467d","ios":"levelo://app?vid=1e53b94c-e1fc-49d9-b046-7a08370f467d"},"vehicle_type_id":"4","last_reported":1686444401,"current_range_meters":20800,"station_id":"ce4bhph2rcd13ifvqhdg","pricing_plan_id":"free"},{"bike_id":"ba47d376-bdb4-4a0a-9241-ba87114038fd","system_id":"levelo_inurba_marseille","lat":43.278128,"lon":5.407195,"is_reserved":false,"is_disabled":false,"rental_uris":{"android":"levelo://app?vid=ba47d376-bdb4-4a0a-9241-ba87114038fd","ios":"levelo://app?vid=ba47d376-bdb4-4a0a-9241-ba87114038fd"},"vehicle_type_id":"4","last_reported":1686444401,"current_range_meters":11200,"station_id":"ce4bhnh2rcd13ifvqgtg","pricing_plan_id":"free"},{"bike_id":"79318e00-f7a3-4418-ac92-54ce75c18617","system_id":"levelo_inurba_marseille","lat":43.278128,"lon":5.407195,"is_reserved":false,"is_disabled":false,"rental_uris":{"android":"levelo://app?vid=79318e00-f7a3-4418-ac92-54ce75c18617","ios":"levelo://app?vid=79318e00-f7a3-4418-ac92-54ce75c18617"},"vehicle_type_id":"4","last_reported":1686444401,"current_range_meters":7200,"station_id":"ce4bhnh2rcd13ifvqgtg","pricing_plan_id":"free"},{"bike_id":"43d5dfd9-949c-4aad-8e07-bdb40827139b","system_id":"levelo_inurba_marseille","lat":43.27992,"lon":5.4165,"is_reserved":false,"is_disabled":false,"rental_uris":{"android":"levelo://app?vid=43d5dfd9-949c-4aad-8e07-bdb40827139b","ios":"levelo://app?vid=43d5dfd9-949c-4aad-8e07-bdb40827139b"},"vehicle_type_id":"4","last_reported":1686444401,"current_range_meters":2400,"station_id":"ce4bho12rcd13ifvqh1g","pricing_plan_id":"free"},{"bike_id":"52048638-6e61-4bf1-a884-e5f5d76255e9","system_id":"levelo_inurba_marseille","lat":43.27996,"lon":5.416624,"is_reserved":false,"is_disabled":false,"rental_uris":{"android":"levelo://app?vid=52048638-6e61-4bf1-a884-e5f5d76255e9","ios":"levelo://app?vid=52048638-6e61-4bf1-a884-e5f5d76255e9"},"vehicle_type_id":"4","last_reported":1686444401,"current_range_meters":22800,"station_id":"ce4bho12rcd13ifvqh1g","pricing_plan_id":"free"},{"bike_id":"abbb75a8-ae18-4f05-b549-ec47994e9056","system_id":"levelo_inurba_marseille","lat":43.27996,"lon":5.416624,"is_reserved":false,"is_disabled":false,"rental_uris":{"android":"levelo://app?vid=abbb75a8-ae18-4f05-b549-ec47994e9056","ios":"levelo://app?vid=abbb75a8-ae18-4f05-b549-ec47994e9056"},"vehicle_type_id":"4","last_reported":1686444401,"current_range_meters":17200,"station_id":"ce4bho12rcd13ifvqh1g","pricing_plan_id":"free"},{"bike_id":"a048d73e-e72b-4ba9-93e1-d90f83aef26f","system_id":"levelo_inurba_marseille","lat":43.27996,"lon":5.416624,"is_reserved":false,"is_disabled":false,"rental_uris":{"android":"levelo://app?vid=a048d73e-e72b-4ba9-93e1-d90f83aef26f","ios":"levelo://app?vid=a048d73e-e72b-4ba9-93e1-d90f83aef26f"},"vehicle_type_id":"4","last_reported":1686444401,"current_range_meters":800,"station_id":"ce4bho12rcd13ifvqh1g","pricing_plan_id":"free"},{"bike_id":"4ed72a3f-374e-446b-be1a-f09cb228d8a7","system_id":"levelo_inurba_marseille","lat":43.27996,"lon":5.416624,"is_reserved":false,"is_disabled":false,"rental_uris":{"android":"levelo://app?vid=4ed72a3f-374e-446b-be1a-f09cb228d8a7","ios":"levelo://app?vid=4ed72a3f-374e-446b-be1a-f09cb228d8a7"},"vehicle_type_id":"4","last_reported":1686444401,"current_range_meters":0,"station_id":"ce4bho12rcd13ifvqh1g","pricing_plan_id":"free"},{"bike_id":"08531d09-91bb-4d88-b346-8b3dbf3e5429","system_id":"levelo_inurba_marseille","lat":43.27986,"lon":5.41658,"is_reserved":false,"is_disabled":false,"rental_uris":{"android":"levelo://app?vid=08531d09-91bb-4d88-b346-8b3dbf3e5429","ios":"levelo://app?vid=08531d09-91bb-4d88-b346-8b3dbf3e5429"},"vehicle_type_id":"4","last_reported":1686444401,"current_range_meters":4800,"station_id":"ce4bho12rcd13ifvqh1g","pricing_plan_id":"free"},{"bike_id":"2b0b5b99-0b89-4067-b82a-10e105e59bb8","system_id":"levelo_inurba_marseille","lat":43.27996,"lon":5.416624,"is_reserved":false,"is_disabled":false,"rental_uris":{"android":"levelo://app?vid=2b0b5b99-0b89-4067-b82a-10e105e59bb8","ios":"levelo://app?vid=2b0b5b99-0b89-4067-b82a-10e105e59bb8"},"vehicle_type_id":"4","last_reported":1686444401,"current_range_meters":21200,"station_id":"ce4bho12rcd13ifvqh1g","pricing_plan_id":"free"},{"bike_id":"8bae052b-3edc-4345-85b1-d116189b7c89","system_id":"levelo_inurba_marseille","lat":43.3323,"lon":5.42963,"is_reserved":false,"is_disabled":false,"rental_uris":{"android":"levelo://app?vid=8bae052b-3edc-4345-85b1-d116189b7c89","ios":"levelo://app?vid=8bae052b-3edc-4345-85b1-d116189b7c89"},"vehicle_type_id":"4","last_reported":1686444401,"current_range_meters":10800,"station_id":"","pricing_plan_id":"free"},{"bike_id":"2387dd6c-60a9-41c7-855d-be91e1283ec2","system_id":"levelo_inurba_marseille","lat":43.33236,"lon":5.42964,"is_reserved":false,"is_disabled":false,"rental_uris":{"android":"levelo://app?vid=2387dd6c-60a9-41c7-855d-be91e1283ec2","ios":"levelo://app?vid=2387dd6c-60a9-41c7-855d-be91e1283ec2"},"vehicle_type_id":"4","last_reported":1686444401,"current_range_meters":19600,"station_id":"","pricing_plan_id":"free"},{"bike_id":"f9eeff49-f17a-4155-b7fa-411650003821","system_id":"levelo_inurba_marseille","lat":43.30796,"lon":5.43512,"is_reserved":false,"is_disabled":false,"rental_uris":{"android":"levelo://app?vid=f9eeff49-f17a-4155-b7fa-411650003821","ios":"levelo://app?vid=f9eeff49-f17a-4155-b7fa-411650003821"},"vehicle_type_id":"4","last_reported":1686444401,"current_range_meters":13600,"station_id":"","pricing_plan_id":"free"},{"bike_id":"57288bea-32ab-4428-85ae-de2889eb1839","system_id":"levelo_inurba_marseille","lat":43.30802,"lon":5.43524,"is_reserved":false,"is_disabled":false,"rental_uris":{"android":"levelo://app?vid=57288bea-32ab-4428-85ae-de2889eb1839","ios":"levelo://app?vid=57288bea-32ab-4428-85ae-de2889eb1839"},"vehicle_type_id":"4","last_reported":1686444401,"current_range_meters":20000,"station_id":"","pricing_plan_id":"free"},{"bike_id":"734fd071-f5ad-4775-a270-eb92bf03f950","system_id":"levelo_inurba_marseille","lat":43.265569,"lon":5.390047,"is_reserved":false,"is_disabled":false,"rental_uris":{"android":"levelo://app?vid=734fd071-f5ad-4775-a270-eb92bf03f950","ios":"levelo://app?vid=734fd071-f5ad-4775-a270-eb92bf03f950"},"vehicle_type_id":"4","last_reported":1686444401,"current_range_meters":28800,"station_id":"ce4bhe12rcd13ifvqf30","pricing_plan_id":"free"},{"bike_id":"2acd571f-4af7-45f7-b511-83c13ea9c327","system_id":"levelo_inurba_marseille","lat":43.265569,"lon":5.390047,"is_reserved":false,"is_disabled":false,"rental_uris":{"android":"levelo://app?vid=2acd571f-4af7-45f7-b511-83c13ea9c327","ios":"levelo://app?vid=2acd571f-4af7-45f7-b511-83c13ea9c327"},"vehicle_type_id":"4","last_reported":1686444401,"current_range_meters":23600,"station_id":"ce4bhe12rcd13ifvqf30","pricing_plan_id":"free"},{"bike_id":"91d94c71-8533-4efc-a134-db40f05119ac","system_id":"levelo_inurba_marseille","lat":43.26234,"lon":5.37046,"is_reserved":false,"is_disabled":false,"rental_uris":{"android":"levelo://app?vid=91d94c71-8533-4efc-a134-db40f05119ac","ios":"levelo://app?vid=91d94c71-8533-4efc-a134-db40f05119ac"},"vehicle_type_id":"4","last_reported":1686444401,"current_range_meters":14800,"station_id":"","pricing_plan_id":"free"},{"bike_id":"149bbb21-169f-480c-8358-5667841d551f","system_id":"levelo_inurba_marseille","lat":43.317104,"lon":5.436818,"is_reserved":false,"is_disabled":false,"rental_uris":{"android":"levelo://app?vid=149bbb21-169f-480c-8358-5667841d551f","ios":"levelo://app?vid=149bbb21-169f-480c-8358-5667841d551f"},"vehicle_type_id":"4","last_reported":1686444401,"current_range_meters":4800,"station_id":"ce4bhp92rcd13ifvqhcg","pricing_plan_id":"free"},{"bike_id":"863dfd5d-6853-41fb-a542-fceba13d5b43","system_id":"levelo_inurba_marseille","lat":43.317104,"lon":5.436818,"is_reserved":false,"is_disabled":false,"rental_uris":{"android":"levelo://app?vid=863dfd5d-6853-41fb-a542-fceba13d5b43","ios":"levelo://app?vid=863dfd5d-6853-41fb-a542-fceba13d5b43"},"vehicle_type_id":"4","last_reported":1686444401,"current_range_meters":8400,"station_id":"ce4bhp92rcd13ifvqhcg","pricing_plan_id":"free"},{"bike_id":"548fa899-e809-400a-9841-51eb2edf1e94","system_id":"levelo_inurba_marseille","lat":43.271388,"lon":5.409269,"is_reserved":false,"is_disabled":false,"rental_uris":{"android":"levelo://app?vid=548fa899-e809-400a-9841-51eb2edf1e94","ios":"levelo://app?vid=548fa899-e809-400a-9841-51eb2edf1e94"},"vehicle_type_id":"4","last_reported":1686444401,"current_range_meters":26000,"station_id":"ce4bhl12rcd13ifvqgf0","pricing_plan_id":"free"},{"bike_id":"b942cf10-e138-43cf-ab06-21a930dd15f7","system_id":"levelo_inurba_marseille","lat":43.271368,"lon":5.40928,"is_reserved":false,"is_disabled":false,"rental_uris":{"android":"levelo://app?vid=b942cf10-e138-43cf-ab06-21a930dd15f7","ios":"levelo://app?vid=b942cf10-e138-43cf-ab06-21a930dd15f7"},"vehicle_type_id":"4","last_reported":1686444401,"current_range_meters":1200,"station_id":"ce4bhl12rcd13ifvqgf0","pricing_plan_id":"free"},{"bike_id":"88f46f74-0b58-4b7c-b86f-72940c8acc84","system_id":"levelo_inurba_marseille","lat":43.271388,"lon":5.409269,"is_reserved":false,"is_disabled":false,"rental_uris":{"android":"levelo://app?vid=88f46f74-0b58-4b7c-b86f-72940c8acc84","ios":"levelo://app?vid=88f46f74-0b58-4b7c-b86f-72940c8acc84"},"vehicle_type_id":"4","last_reported":1686444401,"current_range_meters":3200,"station_id":"ce4bhl12rcd13ifvqgf0","pricing_plan_id":"free"},{"bike_id":"5b2a0c71-3aaf-44df-bf4e-91c0b6e7ba10","system_id":"levelo_inurba_marseille","lat":43.267959,"lon":5.402685,"is_reserved":false,"is_disabled":false,"rental_uris":{"android":"levelo://app?vid=5b2a0c71-3aaf-44df-bf4e-91c0b6e7ba10","ios":"levelo://app?vid=5b2a0c71-3aaf-44df-bf4e-91c0b6e7ba10"},"vehicle_type_id":"4","last_reported":1686444401,"current_range_meters":27200,"station_id":"ce501612rcd8frsf0b60","pricing_plan_id":"free"},{"bike_id":"f1577a57-c3b6-4df2-a3cd-e80f398c7238","system_id":"levelo_inurba_marseille","lat":43.267959,"lon":5.402685,"is_reserved":false,"is_disabled":false,"rental_uris":{"android":"levelo://app?vid=f1577a57-c3b6-4df2-a3cd-e80f398c7238","ios":"levelo://app?vid=f1577a57-c3b6-4df2-a3cd-e80f398c7238"},"vehicle_type_id":"4","last_reported":1686444401,"current_range_meters":31600,"station_id":"ce501612rcd8frsf0b60","pricing_plan_id":"free"},{"bike_id":"dd5a15be-f15b-4edd-a5fb-b4e49efaaa9a","system_id":"levelo_inurba_marseille","lat":43.267959,"lon":5.402685,"is_reserved":false,"is_disabled":false,"rental_uris":{"android":"levelo://app?vid=dd5a15be-f15b-4edd-a5fb-b4e49efaaa9a","ios":"levelo://app?vid=dd5a15be-f15b-4edd-a5fb-b4e49efaaa9a"},"vehicle_type_id":"4","last_reported":1686444401,"current_range_meters":4400,"station_id":"ce501612rcd8frsf0b60","pricing_plan_id":"free"},{"bike_id":"f7f3c3b3-300a-4186-a83c-4bfdc1a5ed04","system_id":"levelo_inurba_marseille","lat":43.267959,"lon":5.402685,"is_reserved":false,"is_disabled":false,"rental_uris":{"android":"levelo://app?vid=f7f3c3b3-300a-4186-a83c-4bfdc1a5ed04","ios":"levelo://app?vid=f7f3c3b3-300a-4186-a83c-4bfdc1a5ed04"},"vehicle_type_id":"4","last_reported":1686444401,"current_range_meters":4400,"station_id":"ce501612rcd8frsf0b60","pricing_plan_id":"free"},{"bike_id":"5aa5faa0-6d97-4a9e-9244-bcb0dc0cee8e","system_id":"levelo_inurba_marseille","lat":43.298768,"lon":5.43643,"is_reserved":false,"is_disabled":false,"rental_uris":{"android":"levelo://app?vid=5aa5faa0-6d97-4a9e-9244-bcb0dc0cee8e","ios":"levelo://app?vid=5aa5faa0-6d97-4a9e-9244-bcb0dc0cee8e"},"vehicle_type_id":"4","last_reported":1686444401,"current_range_meters":20400,"station_id":"ce4bhpp2rcd13ifvqhfg","pricing_plan_id":"free"},{"bike_id":"a3d8898c-42ea-4424-b229-590f5f81bdad","system_id":"levelo_inurba_marseille","lat":43.26364,"lon":5.39252,"is_reserved":false,"is_disabled":false,"rental_uris":{"android":"levelo://app?vid=a3d8898c-42ea-4424-b229-590f5f81bdad","ios":"levelo://app?vid=a3d8898c-42ea-4424-b229-590f5f81bdad"},"vehicle_type_id":"4","last_reported":1686444401,"current_range_meters":14400,"station_id":"","pricing_plan_id":"free"},{"bike_id":"e8b1dd75-820e-42ab-9294-8a4810ab689a","system_id":"levelo_inurba_marseille","lat":43.298768,"lon":5.43643,"is_reserved":false,"is_disabled":false,"rental_uris":{"android":"levelo://app?vid=e8b1dd75-820e-42ab-9294-8a4810ab689a","ios":"levelo://app?vid=e8b1dd75-820e-42ab-9294-8a4810ab689a"},"vehicle_type_id":"4","last_reported":1686444401,"current_range_meters":29200,"station_id":"ce4bhpp2rcd13ifvqhfg","pricing_plan_id":"free"},{"bike_id":"a52f1f28-ae49-4a4c-84e0-4c54b9a5804c","system_id":"levelo_inurba_marseille","lat":43.298768,"lon":5.43643,"is_reserved":false,"is_disabled":false,"rental_uris":{"android":"levelo://app?vid=a52f1f28-ae49-4a4c-84e0-4c54b9a5804c","ios":"levelo://app?vid=a52f1f28-ae49-4a4c-84e0-4c54b9a5804c"},"vehicle_type_id":"4","last_reported":1686444401,"current_range_meters":16000,"station_id":"ce4bhpp2rcd13ifvqhfg","pricing_plan_id":"free"},{"bike_id":"a6cbde89-5cb6-41d1-93c6-724a385882e0","system_id":"levelo_inurba_marseille","lat":43.298768,"lon":5.43643,"is_reserved":false,"is_disabled":false,"rental_uris":{"android":"levelo://app?vid=a6cbde89-5cb6-41d1-93c6-724a385882e0","ios":"levelo://app?vid=a6cbde89-5cb6-41d1-93c6-724a385882e0"},"vehicle_type_id":"4","last_reported":1686444401,"current_range_meters":23200,"station_id":"ce4bhpp2rcd13ifvqhfg","pricing_plan_id":"free"},{"bike_id":"1e50d4c5-46cf-4d7c-9130-3b1369edbffb","system_id":"levelo_inurba_marseille","lat":43.27345,"lon":5.41504,"is_reserved":false,"is_disabled":false,"rental_uris":{"android":"levelo://app?vid=1e50d4c5-46cf-4d7c-9130-3b1369edbffb","ios":"levelo://app?vid=1e50d4c5-46cf-4d7c-9130-3b1369edbffb"},"vehicle_type_id":"4","last_reported":1686444401,"current_range_meters":18000,"station_id":"","pricing_plan_id":"free"},{"bike_id":"09706511-9637-4cfb-a8cf-69d9cc386777","system_id":"levelo_inurba_marseille","lat":43.27295,"lon":5.41587,"is_reserved":false,"is_disabled":false,"rental_uris":{"android":"levelo://app?vid=09706511-9637-4cfb-a8cf-69d9cc386777","ios":"levelo://app?vid=09706511-9637-4cfb-a8cf-69d9cc386777"},"vehicle_type_id":"4","last_reported":1686444401,"current_range_meters":27200,"station_id":"","pricing_plan_id":"free"},{"bike_id":"0abd466f-ae7a-4789-a218-e3b2c168a2b3","system_id":"levelo_inurba_marseille","lat":43.25961,"lon":5.3755,"is_reserved":false,"is_disabled":false,"rental_uris":{"android":"levelo://app?vid=0abd466f-ae7a-4789-a218-e3b2c168a2b3","ios":"levelo://app?vid=0abd466f-ae7a-4789-a218-e3b2c168a2b3"},"vehicle_type_id":"4","last_reported":1686444401,"current_range_meters":400,"station_id":"","pricing_plan_id":"free"},{"bike_id":"6853ea80-78f9-4825-8105-002e10c67b8f","system_id":"levelo_inurba_marseille","lat":43.33288,"lon":5.43582,"is_reserved":false,"is_disabled":false,"rental_uris":{"android":"levelo://app?vid=6853ea80-78f9-4825-8105-002e10c67b8f","ios":"levelo://app?vid=6853ea80-78f9-4825-8105-002e10c67b8f"},