{"last_updated":1753809297,"ttl":60,"version":"2.2","data":{"bikes":[{"bike_id":"96e8f984-7081-4daf-b31a-a4587b9d3175","system_id":"levelo_inurba_marseille","lat":43.25104,"lon":5.40323,"is_reserved":false,"is_disabled":false,"rental_uris":{"android":"levelo://app?vid=96e8f984-7081-4daf-b31a-a4587b9d3175","ios":"levelo://app?vid=96e8f984-7081-4daf-b31a-a4587b9d3175"},"vehicle_type_id":"4","last_reported":1753809298,"current_range_meters":2800,"station_id":"ce4bhlh2rcd13ifvqgig","pricing_plan_id":"cebpf4jnsgd1na2vs0mg"},{"bike_id":"83fdb9f2-ef9d-4a70-8333-65f103ec90ae","system_id":"levelo_inurba_marseille","lat":43.27375,"lon":5.36259,"is_reserved":false,"is_disabled":false,"rental_uris":{"android":"levelo://app?vid=83fdb9f2-ef9d-4a70-8333-65f103ec90ae","ios":"levelo://app?vid=83fdb9f2-ef9d-4a70-8333-65f103ec90ae"},"vehicle_type_id":"4","last_reported":1753809298,"current_range_meters":2800,"station_id":"ce4bhbh2rcd13ifvqeo0","pricing_plan_id":"cebpf4jnsgd1na2vs0mg"},{"bike_id":"8cb6e691-125a-47f5-94cb-3ff20b7c881e","system_id":"levelo_inurba_marseille","lat":43.24072,"lon":5.37764,"is_reserved":false,"is_disabled":false,"rental_uris":{"android":"levelo://app?vid=8cb6e691-125a-47f5-94cb-3ff20b7c881e","ios":"levelo://app?vid=8cb6e691-125a-47f5-94cb-3ff20b7c881e"},"vehicle_type_id":"4","last_reported":1753809298,"current_range_meters":2800,"station_id":"ce4bhnp2rcd13ifvqgvg","pricing_plan_id":"cebpf4jnsgd1na2vs0mg"},{"bike_id":"c566fac1-bdc0-44b4-b51d-6079acd80ddc","system_id":"levelo_inurba_marseille","lat":43.322862,"lon":5.382732,"is_reserved":false,"is_disabled":false,"rental_uris":{"android":"levelo://app?vid=c566fac1-bdc0-44b4-b51d-6079acd80ddc","ios":"levelo://app?vid=c566fac1-bdc0-44b4-b51d-6079acd80ddc"},"vehicle_type_id":"4","last_reported":1753809298,"current_range_meters":3200,"station_id":"ce4bhr12rcd13ifvqhqg","pricing_plan_id":"cebpf4jnsgd1na2vs0mg"},{"bike_id":"27315764-be3b-4a53-b910-50c7ee4d1406","system_id":"levelo_inurba_marseille","lat":43.2893,"lon":5.36623,"is_reserved":false,"is_disabled":false,"rental_uris":{"android":"levelo://app?vid=27315764-be3b-4a53-b910-50c7ee4d1406","ios":"levelo://app?vid=27315764-be3b-4a53-b910-50c7ee4d1406"},"vehicle_type_id":"4","last_reported":1753809298,"current_range_meters":3600,"station_id":"ce4bhap2rcd13ifvqek0","pricing_plan_id":"cebpf4jnsgd1na2vs0mg"},{"bike_id":"ddb5cf7a-8335-4170-ad31-17947f3bcb56","system_id":"levelo_inurba_marseille","lat":43.2554,"lon":5.37621,"is_reserved":false,"is_disabled":false,"rental_uris":{"android":"levelo://app?vid=ddb5cf7a-8335-4170-ad31-17947f3bcb56","ios":"levelo://app?vid=ddb5cf7a-8335-4170-ad31-17947f3bcb56"},"vehicle_type_id":"4","last_reported":1753809298,"current_range_meters":4000,"station_id":"","pricing_plan_id":"cebpf4jnsgd1na2vs0mg"},{"bike_id":"513e696b-f93d-470a-9cf0-2fc59d6f206e","system_id":"levelo_inurba_marseille","lat":43.30297,"lon":5.3921,"is_reserved":false,"is_disabled":false,"rental_uris":{"android":"levelo://app?vid=513e696b-f93d-470a-9cf0-2fc59d6f206e","ios":"levelo://app?vid=513e696b-f93d-470a-9cf0-2fc59d6f206e"},"vehicle_type_id":"4","last_reported":1753809298,"current_range_meters":4000,"station_id":"ce4bgkh2rcd13ifvqbk0","pricing_plan_id":"cebpf4jnsgd1na2vs0mg"},{"bike_id":"2ed106db-c784-4c99-a853-a88ebcf1c245","system_id":"levelo_inurba_marseille","lat":43.29197,"lon":5.39318,"is_reserved":false,"is_disabled":false,"rental_uris":{"android":"levelo://app?vid=2ed106db-c784-4c99-a853-a88ebcf1c245","ios":"levelo://app?vid=2ed106db-c784-4c99-a853-a88ebcf1c245"},"vehicle_type_id":"4","last_reported":1753809298,"current_range_meters":4000,"station_id":"ce4bh192rcd13ifvqdd0","pricing_plan_id":"cebpf4jnsgd1na2vs0mg"},{"bike_id":"f2ed36f9-0f01-4b33-af18-8a277c95e69c","system_id":"levelo_inurba_marseille","lat":43.33767,"lon":5.37483,"is_reserved":false,"is_disabled":false,"rental_uris":{"android":"levelo://app?vid=f2ed36f9-0f01-4b33-af18-8a277c95e69c","ios":"levelo://app?vid=f2ed36f9-0f01-4b33-af18-8a277c95e69c"},"vehicle_type_id":"4","last_reported":1753809298,"current_range_meters":4000,"station_id":"","pricing_plan_id":"cebpf4jnsgd1na2vs0mg"},{"bike_id":"e774ddb1-b1a5-42fb-a919-1dda1f6dccee","system_id":"levelo_inurba_marseille","lat":43.309113,"lon":5.368458,"is_reserved":false,"is_disabled":false,"rental_uris":{"android":"levelo://app?vid=e774ddb1-b1a5-42fb-a919-1dda1f6dccee","ios":"levelo://app?vid=e774ddb1-b1a5-42fb-a919-1dda1f6dccee"},"vehicle_type_id":"4","last_reported":1753809298,"current_range_meters":4000,"station_id":"ce4bgn92rcd13ifvqbvg","pricing_plan_id":"cebpf4jnsgd1na2vs0mg"},{"bike_id":"06ee8124-49a8-4974-82a6-b703fae6d98b","system_id":"levelo_inurba_marseille","lat":43.29519,"lon":5.39391,"is_reserved":false,"is_disabled":false,"rental_uris":{"android":"levelo://app?vid=06ee8124-49a8-4974-82a6-b703fae6d98b","ios":"levelo://app?vid=06ee8124-49a8-4974-82a6-b703fae6d98b"},"vehicle_type_id":"4","last_reported":1753809298,"current_range_meters":4000,"station_id":"ce4bh292rcd13ifvqdf0","pricing_plan_id":"cebpf4jnsgd1na2vs0mg"},{"bike_id":"da0dea9a-07a2-4249-aa7c-2489e28d40de","system_id":"levelo_inurba_marseille","lat":43.29683,"lon":5.36239,"is_reserved":false,"is_disabled":false,"rental_uris":{"android":"levelo://app?vid=da0dea9a-07a2-4249-aa7c-2489e28d40de","ios":"levelo://app?vid=da0dea9a-07a2-4249-aa7c-2489e28d40de"},"vehicle_type_id":"4","last_reported":1753809298,"current_range_meters":4400,"station_id":"","pricing_plan_id":"cebpf4jnsgd1na2vs0mg"},{"bike_id":"744f8647-1a81-4247-82c8-a72a302d2eda","system_id":"levelo_inurba_marseille","lat":43.28619,"lon":5.351,"is_reserved":false,"is_disabled":false,"rental_uris":{"android":"levelo://app?vid=744f8647-1a81-4247-82c8-a72a302d2eda","ios":"levelo://app?vid=744f8647-1a81-4247-82c8-a72a302d2eda"},"vehicle_type_id":"4","last_reported":1753809298,"current_range_meters":4400,"station_id":"ce4bhch2rcd13ifvqeug","pricing_plan_id":"cebpf4jnsgd1na2vs0mg"},{"bike_id":"4648a2c4-05f6-41c1-9d02-40c47c32bbb9","system_id":"levelo_inurba_marseille","lat":43.29189,"lon":5.3581,"is_reserved":false,"is_disabled":false,"rental_uris":{"android":"levelo://app?vid=4648a2c4-05f6-41c1-9d02-40c47c32bbb9","ios":"levelo://app?vid=4648a2c4-05f6-41c1-9d02-40c47c32bbb9"},"vehicle_type_id":"4","last_reported":1753809298,"current_range_meters":4400,"station_id":"ce4bhb12rcd13ifvqel0","pricing_plan_id":"cebpf4jnsgd1na2vs0mg"},{"bike_id":"9ba1569b-1a24-40a5-ae44-0e6fa6ac8431","system_id":"levelo_inurba_marseille","lat":43.292572,"lon":5.384393,"is_reserved":false,"is_disabled":false,"rental_uris":{"android":"levelo://app?vid=9ba1569b-1a24-40a5-ae44-0e6fa6ac8431","ios":"levelo://app?vid=9ba1569b-1a24-40a5-ae44-0e6fa6ac8431"},"vehicle_type_id":"4","last_reported":1753809298,"current_range_meters":4400,"station_id":"ce4bh692rcd13ifvqea0","pricing_plan_id":"cebpf4jnsgd1na2vs0mg"},{"bike_id":"c64d357d-9c3c-40c7-8f5b-7413bf292ed7","system_id":"levelo_inurba_marseille","lat":43.30371,"lon":5.42479,"is_reserved":false,"is_disabled":false,"rental_uris":{"android":"levelo://app?vid=c64d357d-9c3c-40c7-8f5b-7413bf292ed7","ios":"levelo://app?vid=c64d357d-9c3c-40c7-8f5b-7413bf292ed7"},"vehicle_type_id":"4","last_reported":1753809298,"current_range_meters":4800,"station_id":"ce4bhoh2rcd13ifvqh6g","pricing_plan_id":"cebpf4jnsgd1na2vs0mg"},{"bike_id":"5a67886b-2f40-46df-b0be-1179491cb0a7","system_id":"levelo_inurba_marseille","lat":43.299683,"lon":5.386239,"is_reserved":false,"is_disabled":false,"rental_uris":{"android":"levelo://app?vid=5a67886b-2f40-46df-b0be-1179491cb0a7","ios":"levelo://app?vid=5a67886b-2f40-46df-b0be-1179491cb0a7"},"vehicle_type_id":"4","last_reported":1753809298,"current_range_meters":4800,"station_id":"","pricing_plan_id":"cebpf4jnsgd1na2vs0mg"},{"bike_id":"d26365d2-3cd7-4e3c-808d-3362d6bbfb56","system_id":"levelo_inurba_marseille","lat":43.337652,"lon":5.374791,"is_reserved":false,"is_disabled":false,"rental_uris":{"android":"levelo://app?vid=d26365d2-3cd7-4e3c-808d-3362d6bbfb56","ios":"levelo://app?vid=d26365d2-3cd7-4e3c-808d-3362d6bbfb56"},"vehicle_type_id":"4","last_reported":1753809298,"current_range_meters":4800,"station_id":"","pricing_plan_id":"cebpf4jnsgd1na2vs0mg"},{"bike_id":"edb027ea-0530-4783-9fd4-015e04f4ecd4","system_id":"levelo_inurba_marseille","lat":43.29314,"lon":5.37035,"is_reserved":false,"is_disabled":false,"rental_uris":{"android":"levelo://app?vid=edb027ea-0530-4783-9fd4-015e04f4ecd4","ios":"levelo://app?vid=edb027ea-0530-4783-9fd4-015e04f4ecd4"},"vehicle_type_id":"4","last_reported":1753809298,"current_range_meters":4800,"station_id":"","pricing_plan_id":"cebpf4jnsgd1na2vs0mg"},{"bike_id":"07fb2897-ee55-47d5-903c-f772a091c5a7","system_id":"levelo_inurba_marseille","lat":43.284715,"lon":5.385362,"is_reserved":false,"is_disabled":false,"rental_uris":{"android":"levelo://app?vid=07fb2897-ee55-47d5-903c-f772a091c5a7","ios":"levelo://app?vid=07fb2897-ee55-47d5-903c-f772a091c5a7"},"vehicle_type_id":"4","last_reported":1753809298,"current_range_meters":4400,"station_id":"ce4bhdp2rcd13ifvqf20","pricing_plan_id":"cebpf4jnsgd1na2vs0mg"},{"bike_id":"036815cb-96e3-4473-8cbc-459e03a83811","system_id":"levelo_inurba_marseille","lat":43.29815,"lon":5.40403,"is_reserved":false,"is_disabled":false,"rental_uris":{"android":"levelo://app?vid=036815cb-96e3-4473-8cbc-459e03a83811","ios":"levelo://app?vid=036815cb-96e3-4473-8cbc-459e03a83811"},"vehicle_type_id":"4","last_reported":1753809298,"current_range_meters":4800,"station_id":"ce4bh112rcd13ifvqd90","pricing_plan_id":"cebpf4jnsgd1na2vs0mg"},{"bike_id":"6cb11f4f-f451-4a1b-a7c5-61054d6b97f6","system_id":"levelo_inurba_marseille","lat":43.23639,"lon":5.40985,"is_reserved":false,"is_disabled":false,"rental_uris":{"android":"levelo://app?vid=6cb11f4f-f451-4a1b-a7c5-61054d6b97f6","ios":"levelo://app?vid=6cb11f4f-f451-4a1b-a7c5-61054d6b97f6"},"vehicle_type_id":"4","last_reported":1753809298,"current_range_meters":4800,"station_id":"","pricing_plan_id":"cebpf4jnsgd1na2vs0mg"},{"bike_id":"95cf2996-91f0-4c99-bf90-d92c46adc782","system_id":"levelo_inurba_marseille","lat":43.27375,"lon":5.36256,"is_reserved":false,"is_disabled":false,"rental_uris":{"android":"levelo://app?vid=95cf2996-91f0-4c99-bf90-d92c46adc782","ios":"levelo://app?vid=95cf2996-91f0-4c99-bf90-d92c46adc782"},"vehicle_type_id":"4","last_reported":1753809298,"current_range_meters":5600,"station_id":"ce4bhbh2rcd13ifvqeo0","pricing_plan_id":"cebpf4jnsgd1na2vs0mg"},{"bike_id":"ae63cb69-b653-40db-9f40-aab87514f240","system_id":"levelo_inurba_marseille","lat":43.27568,"lon":5.384186,"is_reserved":false,"is_disabled":false,"rental_uris":{"android":"levelo://app?vid=ae63cb69-b653-40db-9f40-aab87514f240","ios":"levelo://app?vid=ae63cb69-b653-40db-9f40-aab87514f240"},"vehicle_type_id":"4","last_reported":1753809298,"current_range_meters":5600,"station_id":"ce4bhh92rcd13ifvqfi0","pricing_plan_id":"cebpf4jnsgd1na2vs0mg"},{"bike_id":"fb45cff3-08fa-4cc9-bf53-0d8295f6b8d1","system_id":"levelo_inurba_marseille","lat":43.2788,"lon":5.42809,"is_reserved":false,"is_disabled":false,"rental_uris":{"android":"levelo://app?vid=fb45cff3-08fa-4cc9-bf53-0d8295f6b8d1","ios":"levelo://app?vid=fb45cff3-08fa-4cc9-bf53-0d8295f6b8d1"},"vehicle_type_id":"4","last_reported":1753809298,"current_range_meters":5600,"station_id":"","pricing_plan_id":"cebpf4jnsgd1na2vs0mg"},{"bike_id":"b65c215c-2501-4154-a5e3-ea72b5149a08","system_id":"levelo_inurba_marseille","lat":43.27368,"lon":5.36261,"is_reserved":false,"is_disabled":false,"rental_uris":{"android":"levelo://app?vid=b65c215c-2501-4154-a5e3-ea72b5149a08","ios":"levelo://app?vid=b65c215c-2501-4154-a5e3-ea72b5149a08"},"vehicle_type_id":"4","last_reported":1753809298,"current_range_meters":4800,"station_id":"ce4bhbh2rcd13ifvqeo0","pricing_plan_id":"cebpf4jnsgd1na2vs0mg"},{"bike_id":"f41613aa-8bc2-43f6-9cd7-cb1265ab4f3f","system_id":"levelo_inurba_marseille","lat":43.27617,"lon":5.36109,"is_reserved":false,"is_disabled":false,"rental_uris":{"android":"levelo://app?vid=f41613aa-8bc2-43f6-9cd7-cb1265ab4f3f","ios":"levelo://app?vid=f41613aa-8bc2-43f6-9cd7-cb1265ab4f3f"},"vehicle_type_id":"4","last_reported":1753809298,"current_range_meters":5600,"station_id":"ce4bgj92rcd13ifvqbe0","pricing_plan_id":"cebpf4jnsgd1na2vs0mg"},{"bike_id":"3152576e-d602-4c3f-980e-717f41aed773","system_id":"levelo_inurba_marseille","lat":43.33737,"lon":5.37465,"is_reserved":false,"is_disabled":false,"rental_uris":{"android":"levelo://app?vid=3152576e-d602-4c3f-980e-717f41aed773","ios":"levelo://app?vid=3152576e-d602-4c3f-980e-717f41aed773"},"vehicle_type_id":"4","last_reported":1753809298,"current_range_meters":5600,"station_id":"","pricing_plan_id":"cebpf4jnsgd1na2vs0mg"},{"bike_id":"c602e176-6ece-492b-9096-09b506562030","system_id":"levelo_inurba_marseille","lat":43.305359,"lon":5.367179,"is_reserved":false,"is_disabled":false,"rental_uris":{"android":"levelo://app?vid=c602e176-6ece-492b-9096-09b506562030","ios":"levelo://app?vid=c602e176-6ece-492b-9096-09b506562030"},"vehicle_type_id":"4","last_reported":1753809298,"current_range_meters":6000,"station_id":"ce4bgrp2rcd13ifvqc9g","pricing_plan_id":"cebpf4jnsgd1na2vs0mg"},{"bike_id":"e05a1331-8d9f-4a6f-b79a-51fdb38927f1","system_id":"levelo_inurba_marseille","lat":43.28459,"lon":5.35882,"is_reserved":false,"is_disabled":false,"rental_uris":{"android":"levelo://app?vid=e05a1331-8d9f-4a6f-b79a-51fdb38927f1","ios":"levelo://app?vid=e05a1331-8d9f-4a6f-b79a-51fdb38927f1"},"vehicle_type_id":"4","last_reported":1753809298,"current_range_meters":6000,"station_id":"ce4bhah2rcd13ifvqei0","pricing_plan_id":"cebpf4jnsgd1na2vs0mg"},{"bike_id":"dfeef013-405d-4d83-bff9-fe3d4f9e6756","system_id":"levelo_inurba_marseille","lat":43.31734,"lon":5.40484,"is_reserved":false,"is_disabled":true,"rental_uris":{"android":"levelo://app?vid=dfeef013-405d-4d83-bff9-fe3d4f9e6756","ios":"levelo://app?vid=dfeef013-405d-4d83-bff9-fe3d4f9e6756"},"vehicle_type_id":"4","last_reported":1753809298,"current_range_meters":6000,"station_id":"ce4bh012rcd13ifvqd00","pricing_plan_id":"cebpf4jnsgd1na2vs0mg"},{"bike_id":"c9dee86a-a161-43f6-b513-ace68565ee4c","system_id":"levelo_inurba_marseille","lat":43.29165,"lon":5.37165,"is_reserved":false,"is_disabled":false,"rental_uris":{"android":"levelo://app?vid=c9dee86a-a161-43f6-b513-ace68565ee4c","ios":"levelo://app?vid=c9dee86a-a161-43f6-b513-ace68565ee4c"},"vehicle_type_id":"4","last_reported":1753809298,"current_range_meters":6400,"station_id":"ce4bha92rcd13ifvqeh0","pricing_plan_id":"cebpf4jnsgd1na2vs0mg"},{"bike_id":"cc46fd03-d40a-4bb5-af03-61d3a43b0cf0","system_id":"levelo_inurba_marseille","lat":43.29438,"lon":5.39747,"is_reserved":false,"is_disabled":false,"rental_uris":{"android":"levelo://app?vid=cc46fd03-d40a-4bb5-af03-61d3a43b0cf0","ios":"levelo://app?vid=cc46fd03-d40a-4bb5-af03-61d3a43b0cf0"},"vehicle_type_id":"4","last_reported":1753809298,"current_range_meters":6400,"station_id":"ce4bh3h2rcd13ifvqdo0","pricing_plan_id":"cebpf4jnsgd1na2vs0mg"},{"bike_id":"7731a41a-4ac6-4fb4-b330-92fc6126b901","system_id":"levelo_inurba_marseille","lat":43.30126,"lon":5.39867,"is_reserved":false,"is_disabled":false,"rental_uris":{"android":"levelo://app?vid=7731a41a-4ac6-4fb4-b330-92fc6126b901","ios":"levelo://app?vid=7731a41a-4ac6-4fb4-b330-92fc6126b901"},"vehicle_type_id":"4","last_reported":1753809298,"current_range_meters":6400,"station_id":"ce4bh0h2rcd13ifvqd40","pricing_plan_id":"cebpf4jnsgd1na2vs0mg"},{"bike_id":"82bd16e6-a5b6-4afe-bc6e-75c13258abc0","system_id":"levelo_inurba_marseille","lat":43.27904,"lon":5.38011,"is_reserved":false,"is_disabled":false,"rental_uris":{"android":"levelo://app?vid=82bd16e6-a5b6-4afe-bc6e-75c13258abc0","ios":"levelo://app?vid=82bd16e6-a5b6-4afe-bc6e-75c13258abc0"},"vehicle_type_id":"4","last_reported":1753809298,"current_range_meters":6400,"station_id":"ce4bhf92rcd13ifvqf50","pricing_plan_id":"cebpf4jnsgd1na2vs0mg"},{"bike_id":"925ac7e7-8882-4820-89a6-01994e9fcb2d","system_id":"levelo_inurba_marseille","lat":43.30322,"lon":5.40444,"is_reserved":false,"is_disabled":false,"rental_uris":{"android":"levelo://app?vid=925ac7e7-8882-4820-89a6-01994e9fcb2d","ios":"levelo://app?vid=925ac7e7-8882-4820-89a6-01994e9fcb2d"},"vehicle_type_id":"4","last_reported":1753809298,"current_range_meters":6400,"station_id":"ce4bh012rcd13ifvqd10","pricing_plan_id":"cebpf4jnsgd1na2vs0mg"},{"bike_id":"e9d06569-dc2f-4ea5-a803-08858f2b3ccf","system_id":"levelo_inurba_marseille","lat":43.29896,"lon":5.43663,"is_reserved":false,"is_disabled":false,"rental_uris":{"android":"levelo://app?vid=e9d06569-dc2f-4ea5-a803-08858f2b3ccf","ios":"levelo://app?vid=e9d06569-dc2f-4ea5-a803-08858f2b3ccf"},"vehicle_type_id":"4","last_reported":1753809298,"current_range_meters":6800,"station_id":"ce4bhpp2rcd13ifvqhfg","pricing_plan_id":"cebpf4jnsgd1na2vs0mg"},{"bike_id":"ce1fb1c7-ac91-406d-8898-afb315f2d0c1","system_id":"levelo_inurba_marseille","lat":43.28409,"lon":5.37507,"is_reserved":false,"is_disabled":false,"rental_uris":{"android":"levelo://app?vid=ce1fb1c7-ac91-406d-8898-afb315f2d0c1","ios":"levelo://app?vid=ce1fb1c7-ac91-406d-8898-afb315f2d0c1"},"vehicle_type_id":"4","last_reported":1753809298,"current_range_meters":6800,"station_id":"ce4bh412rcd13ifvqds0","pricing_plan_id":"cebpf4jnsgd1na2vs0mg"},{"bike_id":"195eb2a3-b139-49b5-8400-750f07cf701b","system_id":"levelo_inurba_marseille","lat":43.29686,"lon":5.37289,"is_reserved":false,"is_disabled":false,"rental_uris":{"android":"levelo://app?vid=195eb2a3-b139-49b5-8400-750f07cf701b","ios":"levelo://app?vid=195eb2a3-b139-49b5-8400-750f07cf701b"},"vehicle_type_id":"4","last_reported":1753809298,"current_range_meters":6800,"station_id":"ce4bgk12rcd13ifvqbj0","pricing_plan_id":"cebpf4jnsgd1na2vs0mg"},{"bike_id":"495f9f77-34aa-4678-bcaf-8a3a4d726e8d","system_id":"levelo_inurba_marseille","lat":43.28415,"lon":5.34967,"is_reserved":false,"is_disabled":false,"rental_uris":{"android":"levelo://app?vid=495f9f77-34aa-4678-bcaf-8a3a4d726e8d","ios":"levelo://app?vid=495f9f77-34aa-4678-bcaf-8a3a4d726e8d"},"vehicle_type_id":"4","last_reported":1753809298,"current_range_meters":6800,"station_id":"ce4bhbh2rcd13ifvqepg","pricing_plan_id":"cebpf4jnsgd1na2vs0mg"},{"bike_id":"9be0ded7-dce0-4cb1-bf35-ee57348eb49e","system_id":"levelo_inurba_marseille","lat":43.28611,"lon":5.35103,"is_reserved":false,"is_disabled":false,"rental_uris":{"android":"levelo://app?vid=9be0ded7-dce0-4cb1-bf35-ee57348eb49e","ios":"levelo://app?vid=9be0ded7-dce0-4cb1-bf35-ee57348eb49e"},"vehicle_type_id":"4","last_reported":1753809298,"current_range_meters":6800,"station_id":"ce4bhch2rcd13ifvqeug","pricing_plan_id":"cebpf4jnsgd1na2vs0mg"},{"bike_id":"437eef9a-49ef-49a8-821a-2545c0c815ab","system_id":"levelo_inurba_marseille","lat":43.24648,"lon":5.38884,"is_reserved":false,"is_disabled":false,"rental_uris":{"android":"levelo://app?vid=437eef9a-49ef-49a8-821a-2545c0c815ab","ios":"levelo://app?vid=437eef9a-49ef-49a8-821a-2545c0c815ab"},"vehicle_type_id":"4","last_reported":1753809298,"current_range_meters":6800,"station_id":"ce4bhg12rcd13ifvqf60","pricing_plan_id":"cebpf4jnsgd1na2vs0mg"},{"bike_id":"ece1f240-de67-4e9b-8a3a-23853eca21eb","system_id":"levelo_inurba_marseille","lat":43.24651,"lon":5.38887,"is_reserved":false,"is_disabled":false,"rental_uris":{"android":"levelo://app?vid=ece1f240-de67-4e9b-8a3a-23853eca21eb","ios":"levelo://app?vid=ece1f240-de67-4e9b-8a3a-23853eca21eb"},"vehicle_type_id":"4","last_reported":1753809298,"current_range_meters":7200,"station_id":"ce4bhg12rcd13ifvqf60","pricing_plan_id":"cebpf4jnsgd1na2vs0mg"},{"bike_id":"a6922362-229d-41a8-aeb7-b5772e221610","system_id":"levelo_inurba_marseille","lat":43.29202,"lon":5.39309,"is_reserved":false,"is_disabled":true,"rental_uris":{"android":"levelo://app?vid=a6922362-229d-41a8-aeb7-b5772e221610","ios":"levelo://app?vid=a6922362-229d-41a8-aeb7-b5772e221610"},"vehicle_type_id":"4","last_reported":1753809298,"current_range_meters":7200,"station_id":"ce4bh192rcd13ifvqdd0","pricing_plan_id":"cebpf4jnsgd1na2vs0mg"},{"bike_id":"9be43685-762e-4960-825b-9d542a645faa","system_id":"levelo_inurba_marseille","lat":43.30651,"lon":5.40069,"is_reserved":false,"is_disabled":false,"rental_uris":{"android":"levelo://app?vid=9be43685-762e-4960-825b-9d542a645faa","ios":"levelo://app?vid=9be43685-762e-4960-825b-9d542a645faa"},"vehicle_type_id":"4","last_reported":1753809298,"current_range_meters":7200,"station_id":"ce4bh112rcd13ifvqda0","pricing_plan_id":"cebpf4jnsgd1na2vs0mg"},{"bike_id":"d99716cc-03d7-4ec6-9afb-f243b2d67578","system_id":"levelo_inurba_marseille","lat":43.33758,"lon":5.37482,"is_reserved":false,"is_disabled":false,"rental_uris":{"android":"levelo://app?vid=d99716cc-03d7-4ec6-9afb-f243b2d67578","ios":"levelo://app?vid=d99716cc-03d7-4ec6-9afb-f243b2d67578"},"vehicle_type_id":"4","last_reported":1753809298,"current_range_meters":7200,"station_id":"","pricing_plan_id":"cebpf4jnsgd1na2vs0mg"},{"bike_id":"d230030f-8946-43c0-a0a1-0a6039e8450f","system_id":"levelo_inurba_marseille","lat":43.29017,"lon":5.38642,"is_reserved":false,"is_disabled":false,"rental_uris":{"android":"levelo://app?vid=d230030f-8946-43c0-a0a1-0a6039e8450f","ios":"levelo://app?vid=d230030f-8946-43c0-a0a1-0a6039e8450f"},"vehicle_type_id":"4","last_reported":1753809298,"current_range_meters":7200,"station_id":"ce4bh4p2rcd13ifvqe0g","pricing_plan_id":"cebpf4jnsgd1na2vs0mg"},{"bike_id":"eba4ca94-8e8f-458d-aadb-7d4d0bbecb4a","system_id":"levelo_inurba_marseille","lat":43.28262,"lon":5.35062,"is_reserved":false,"is_disabled":false,"rental_uris":{"android":"levelo://app?vid=eba4ca94-8e8f-458d-aadb-7d4d0bbecb4a","ios":"levelo://app?vid=eba4ca94-8e8f-458d-aadb-7d4d0bbecb4a"},"vehicle_type_id":"4","last_reported":1753809298,"current_range_meters":7200,"station_id":"ce4bhbp2rcd13ifvqerg","pricing_plan_id":"cebpf4jnsgd1na2vs0mg"},{"bike_id":"242708d8-5b06-4303-b4b9-54d01927125e","system_id":"levelo_inurba_marseille","lat":43.290741,"lon":5.371654,"is_reserved":false,"is_disabled":false,"rental_uris":{"android":"levelo://app?vid=242708d8-5b06-4303-b4b9-54d01927125e","ios":"levelo://app?vid=242708d8-5b06-4303-b4b9-54d01927125e"},"vehicle_type_id":"4","last_reported":1753809298,"current_range_meters":7200,"station_id":"ce4bh5p2rcd13ifvqe4g","pricing_plan_id":"cebpf4jnsgd1na2vs0mg"},{"bike_id":"e6ef631f-cb1c-4865-93d6-c0e9e4a2a32a","system_id":"levelo_inurba_marseille","lat":43.3107,"lon":5.38354,"is_reserved":false,"is_disabled":false,"rental_uris":{"android":"levelo://app?vid=e6ef631f-cb1c-4865-93d6-c0e9e4a2a32a","ios":"levelo://app?vid=e6ef631f-cb1c-4865-93d6-c0e9e4a2a32a"},"vehicle_type_id":"4","last_reported":1753809298,"current_range_meters":7200,"station_id":"ce4bgv92rcd13ifvqcr0","pricing_plan_id":"cebpf4jnsgd1na2vs0mg"},{"bike_id":"64f258c6-1e92-4dd0-a4f6-11b336a5b138","system_id":"levelo_inurba_marseille","lat":43.2252,"lon":5.34777,"is_reserved":false,"is_disabled":false,"rental_uris":{"android":"levelo://app?vid=64f258c6-1e92-4dd0-a4f6-11b336a5b138","ios":"levelo://app?vid=64f258c6-1e92-4dd0-a4f6-11b336a5b138"},"vehicle_type_id":"4","last_reported":1753809298,"current_range_meters":7200,"station_id":"st_cvj5dfep6f1abm77gieg","pricing_plan_id":"cebpf4jnsgd1na2vs0mg"},{"bike_id":"80915a30-ef88-4d81-b5d1-969d1c17a42d","system_id":"levelo_inurba_marseille","lat":43.3041,"lon":5.40831,"is_reserved":false,"is_disabled":false,"rental_uris":{"android":"levelo://app?vid=80915a30-ef88-4d81-b5d1-969d1c17a42d","ios":"levelo://app?vid=80915a30-ef88-4d81-b5d1-969d1c17a42d"},"vehicle_type_id":"4","last_reported":1753809298,"current_range_meters":8000,"station_id":"","pricing_plan_id":"cebpf4jnsgd1na2vs0mg"},{"bike_id":"8e37ef79-bd01-46c2-9d9e-3d3f7741a07a","system_id":"levelo_inurba_marseille","lat":43.297302,"lon":5.374166,"is_reserved":false,"is_disabled":false,"rental_uris":{"android":"levelo://app?vid=8e37ef79-bd01-46c2-9d9e-3d3f7741a07a","ios":"levelo://app?vid=8e37ef79-bd01-46c2-9d9e-3d3f7741a07a"},"vehicle_type_id":"4","last_reported":1753809298,"current_range_meters":8000,"station_id":"","pricing_plan_id":"cebpf4jnsgd1na2vs0mg"},{"bike_id":"37fcf059-83b8-4b6e-bc28-0c83f77e3c05","system_id":"levelo_inurba_marseille","lat":43.337444,"lon":5.374475,"is_reserved":false,"is_disabled":false,"rental_uris":{"android":"levelo://app?vid=37fcf059-83b8-4b6e-bc28-0c83f77e3c05","ios":"levelo://app?vid=37fcf059-83b8-4b6e-bc28-0c83f77e3c05"},"vehicle_type_id":"4","last_reported":1753809298,"current_range_meters":8000,"station_id":"","pricing_plan_id":"cebpf4jnsgd1na2vs0mg"},{"bike_id":"2eb04546-ede1-428f-96bd-3263d48d24cf","system_id":"levelo_inurba_marseille","lat":43.28925,"lon":5.36631,"is_reserved":false,"is_disabled":false,"rental_uris":{"android":"levelo://app?vid=2eb04546-ede1-428f-96bd-3263d48d24cf","ios":"levelo://app?vid=2eb04546-ede1-428f-96bd-3263d48d24cf"},"vehicle_type_id":"4","last_reported":1753809298,"current_range_meters":8000,"station_id":"ce4bhap2rcd13ifvqek0","pricing_plan_id":"cebpf4jnsgd1na2vs0mg"},{"bike_id":"95dd70e4-879c-49e7-b318-a6c71b22a43e","system_id":"levelo_inurba_marseille","lat":43.2703,"lon":5.39295,"is_reserved":false,"is_disabled":false,"rental_uris":{"android":"levelo://app?vid=95dd70e4-879c-49e7-b318-a6c71b22a43e","ios":"levelo://app?vid=95dd70e4-879c-49e7-b318-a6c71b22a43e"},"vehicle_type_id":"4","last_reported":1753809298,"current_range_meters":8000,"station_id":"","pricing_plan_id":"cebpf4jnsgd1na2vs0mg"},{"bike_id":"1cf9bbb7-0efe-4985-a46a-87ee7a29645a","system_id":"levelo_inurba_marseille","lat":43.30135,"lon":5.39856,"is_reserved":false,"is_disabled":false,"rental_uris":{"android":"levelo://app?vid=1cf9bbb7-0efe-4985-a46a-87ee7a29645a","ios":"levelo://app?vid=1cf9bbb7-0efe-4985-a46a-87ee7a29645a"},"vehicle_type_id":"4","last_reported":1753809298,"current_range_meters":8000,"station_id":"ce4bh0h2rcd13ifvqd40","pricing_plan_id":"cebpf4jnsgd1na2vs0mg"},{"bike_id":"89549ec0-4668-4d2b-9674-56e77c9d47fa","system_id":"levelo_inurba_marseille","lat":43.26204,"lon":5.3793,"is_reserved":false,"is_disabled":false,"rental_uris":{"android":"levelo://app?vid=89549ec0-4668-4d2b-9674-56e77c9d47fa","ios":"levelo://app?vid=89549ec0-4668-4d2b-9674-56e77c9d47fa"},"vehicle_type_id":"4","last_reported":1753809298,"current_range_meters":9200,"station_id":"ce4bhjp2rcd13ifvqg90","pricing_plan_id":"cebpf4jnsgd1na2vs0mg"},{"bike_id":"209c73e6-1f69-4d13-9fed-77cb46eecd05","system_id":"levelo_inurba_marseille","lat":43.34681,"lon":5.38065,"is_reserved":false,"is_disabled":false,"rental_uris":{"android":"levelo://app?vid=209c73e6-1f69-4d13-9fed-77cb46eecd05","ios":"levelo://app?vid=209c73e6-1f69-4d13-9fed-77cb46eecd05"},"vehicle_type_id":"4","last_reported":1753809298,"current_range_meters":8000,"station_id":"","pricing_plan_id":"cebpf4jnsgd1na2vs0mg"},{"bike_id":"3b513104-0304-493c-9215-438a9d2db08a","system_id":"levelo_inurba_marseille","lat":43.29532,"lon":5.39268,"is_reserved":false,"is_disabled":false,"rental_uris":{"android":"levelo://app?vid=3b513104-0304-493c-9215-438a9d2db08a","ios":"levelo://app?vid=3b513104-0304-493c-9215-438a9d2db08a"},"vehicle_type_id":"4","last_reported":1753809298,"current_range_meters":8400,"station_id":"","pricing_plan_id":"cebpf4jnsgd1na2vs0mg"},{"bike_id":"ce654acb-1f7b-4305-8e3c-c841dd5003ce","system_id":"levelo_inurba_marseille","lat":43.30883,"lon":5.37186,"is_reserved":false,"is_disabled":false,"rental_uris":{"android":"levelo://app?vid=ce654acb-1f7b-4305-8e3c-c841dd5003ce","ios":"levelo://app?vid=ce654acb-1f7b-4305-8e3c-c841dd5003ce"},"vehicle_type_id":"4","last_reported":1753809298,"current_range_meters":8000,"station_id":"ce4bguh2rcd13ifvqckg","pricing_plan_id":"cebpf4jnsgd1na2vs0mg"},{"bike_id":"4d6e6cdb-6821-4641-bb50-ecaf2d40cb8a","system_id":"levelo_inurba_marseille","lat":43.2927,"lon":5.36846,"is_reserved":false,"is_disabled":false,"rental_uris":{"android":"levelo://app?vid=4d6e6cdb-6821-4641-bb50-ecaf2d40cb8a","ios":"levelo://app?vid=4d6e6cdb-6821-4641-bb50-ecaf2d40cb8a"},"vehicle_type_id":"4","last_reported":1753809298,"current_range_meters":8400,"station_id":"ce4bhbp2rcd13ifvqesg","pricing_plan_id":"cebpf4jnsgd1na2vs0mg"},{"bike_id":"c5d7b892-0e85-490a-a77f-968ac9585f91","system_id":"levelo_inurba_marseille","lat":43.24805,"lon":5.37458,"is_reserved":false,"is_disabled":false,"rental_uris":{"android":"levelo://app?vid=c5d7b892-0e85-490a-a77f-968ac9585f91","ios":"levelo://app?vid=c5d7b892-0e85-490a-a77f-968ac9585f91"},"vehicle_type_id":"4","last_reported":1753809298,"current_range_meters":8400,"station_id":"ce4bhgh2rcd13ifvqfb0","pricing_plan_id":"cebpf4jnsgd1na2vs0mg"},{"bike_id":"66ac3df5-713a-4163-a45b-2d3c41f776f9","system_id":"levelo_inurba_marseille","lat":43.25581,"lon":5.38234,"is_reserved":false,"is_disabled":false,"rental_uris":{"android":"levelo://app?vid=66ac3df5-713a-4163-a45b-2d3c41f776f9","ios":"levelo://app?vid=66ac3df5-713a-4163-a45b-2d3c41f776f9"},"vehicle_type_id":"4","last_reported":1753809298,"current_range_meters":8400,"station_id":"ce4bhih2rcd13ifvqfs0","pricing_plan_id":"cebpf4jnsgd1na2vs0mg"},{"bike_id":"65e3db07-f188-422b-b687-3d06cfe2bcf8","system_id":"levelo_inurba_marseille","lat":43.28024,"lon":5.3503,"is_reserved":false,"is_disabled":false,"rental_uris":{"android":"levelo://app?vid=65e3db07-f188-422b-b687-3d06cfe2bcf8","ios":"levelo://app?vid=65e3db07-f188-422b-b687-3d06cfe2bcf8"},"vehicle_type_id":"4","last_reported":1753809298,"current_range_meters":8400,"station_id":"","pricing_plan_id":"cebpf4jnsgd1na2vs0mg"},{"bike_id":"0b1ae653-7da3-4890-9b93-10787b3f4388","system_id":"levelo_inurba_marseille","lat":43.30416,"lon":5.41295,"is_reserved":false,"is_disabled":false,"rental_uris":{"android":"levelo://app?vid=0b1ae653-7da3-4890-9b93-10787b3f4388","ios":"levelo://app?vid=0b1ae653-7da3-4890-9b93-10787b3f4388"},"vehicle_type_id":"4","last_reported":1753809298,"current_range_meters":8400,"station_id":"ce4bhop2rcd13ifvqh8g","pricing_plan_id":"cebpf4jnsgd1na2vs0mg"},{"bike_id":"0c308ff4-f8e0-4961-a792-5a3d17b8c5f6","system_id":"levelo_inurba_marseille","lat":43.29218,"lon":5.36074,"is_reserved":false,"is_disabled":false,"rental_uris":{"android":"levelo://app?vid=0c308ff4-f8e0-4961-a792-5a3d17b8c5f6","ios":"levelo://app?vid=0c308ff4-f8e0-4961-a792-5a3d17b8c5f6"},"vehicle_type_id":"4","last_reported":1753809298,"current_range_meters":8400,"station_id":"ce4bhbh2rcd13ifvqeqg","pricing_plan_id":"cebpf4jnsgd1na2vs0mg"},{"bike_id":"b7f9a0b8-7836-4c27-a184-cfb6e0281076","system_id":"levelo_inurba_marseille","lat":43.28037,"lon":5.36952,"is_reserved":false,"is_disabled":false,"rental_uris":{"android":"levelo://app?vid=b7f9a0b8-7836-4c27-a184-cfb6e0281076","ios":"levelo://app?vid=b7f9a0b8-7836-4c27-a184-cfb6e0281076"},"vehicle_type_id":"4","last_reported":1753809298,"current_range_meters":8400,"station_id":"ce4bha12rcd13ifvqef0","pricing_plan_id":"cebpf4jnsgd1na2vs0mg"},{"bike_id":"891f508f-be4c-40f8-967c-bb261bc98dab","system_id":"levelo_inurba_marseille","lat":43.320427,"lon":5.415617,"is_reserved":false,"is_disabled":false,"rental_uris":{"android":"levelo://app?vid=891f508f-be4c-40f8-967c-bb261bc98dab","ios":"levelo://app?vid=891f508f-be4c-40f8-967c-bb261bc98dab"},"vehicle_type_id":"4","last_reported":1753809298,"current_range_meters":8000,"station_id":"ce4bhq92rcd13ifvqhkg","pricing_plan_id":"cebpf4jnsgd1na2vs0mg"},{"bike_id":"1904220d-df86-4e4e-8a78-87ea59f3a9bc","system_id":"levelo_inurba_marseille","lat":43.292603,"lon":5.384444,"is_reserved":false,"is_disabled":false,"rental_uris":{"android":"levelo://app?vid=1904220d-df86-4e4e-8a78-87ea59f3a9bc","ios":"levelo://app?vid=1904220d-df86-4e4e-8a78-87ea59f3a9bc"},"vehicle_type_id":"4","last_reported":1753809298,"current_range_meters":8800,"station_id":"ce4bh692rcd13ifvqea0","pricing_plan_id":"cebpf4jnsgd1na2vs0mg"},{"bike_id":"05cbfde1-bc8b-4494-8924-fea2291ddb1f","system_id":"levelo_inurba_marseille","lat":43.29563,"lon":5.36532,"is_reserved":false,"is_disabled":false,"rental_uris":{"android":"levelo://app?vid=05cbfde1-bc8b-4494-8924-fea2291ddb1f","ios":"levelo://app?vid=05cbfde1-bc8b-4494-8924-fea2291ddb1f"},"vehicle_type_id":"4","last_reported":1753809298,"current_range_meters":8800,"station_id":"","pricing_plan_id":"cebpf4jnsgd1na2vs0mg"},{"bike_id":"fb1755d7-1955-4e46-843c-d1c0e73892f6","system_id":"levelo_inurba_marseille","lat":43.25496,"lon":5.37659,"is_reserved":false,"is_disabled":false,"rental_uris":{"android":"levelo://app?vid=fb1755d7-1955-4e46-843c-d1c0e73892f6","ios":"levelo://app?vid=fb1755d7-1955-4e46-843c-d1c0e73892f6"},"vehicle_type_id":"4","last_reported":1753809298,"current_range_meters":8400,"station_id":"ce4bhh12rcd13ifvqff0","pricing_plan_id":"cebpf4jnsgd1na2vs0mg"},{"bike_id":"e8f9d7cd-c2f9-444d-a7c4-13119a1789b2","system_id":"levelo_inurba_marseille","lat":43.2762,"lon":5.36104,"is_reserved":false,"is_disabled":false,"rental_uris":{"android":"levelo://app?vid=e8f9d7cd-c2f9-444d-a7c4-13119a1789b2","ios":"levelo://app?vid=e8f9d7cd-c2f9-444d-a7c4-13119a1789b2"},"vehicle_type_id":"4","last_reported":1753809298,"current_range_meters":8800,"station_id":"ce4bgj92rcd13ifvqbe0","pricing_plan_id":"cebpf4jnsgd1na2vs0mg"},{"bike_id":"5bd95e3e-567c-4954-a2b8-da3c48005a1e","system_id":"levelo_inurba_marseille","lat":43.289391,"lon":5.366397,"is_reserved":false,"is_disabled":false,"rental_uris":{"android":"levelo://app?vid=5bd95e3e-567c-4954-a2b8-da3c48005a1e","ios":"levelo://app?vid=5bd95e3e-567c-4954-a2b8-da3c48005a1e"},"vehicle_type_id":"4","last_reported":1753809298,"current_range_meters":8800,"station_id":"","pricing_plan_id":"cebpf4jnsgd1na2vs0mg"},{"bike_id":"149fbe11-3bce-47a0-b584-c7c7bd6bb12f","system_id":"levelo_inurba_marseille","lat":43.21626,"lon":5.34436,"is_reserved":false,"is_disabled":false,"rental_uris":{"android":"levelo://app?vid=149fbe11-3bce-47a0-b584-c7c7bd6bb12f","ios":"levelo://app?vid=149fbe11-3bce-47a0-b584-c7c7bd6bb12f"},"vehicle_type_id":"4","last_reported":1753809298,"current_range_meters":8800,"station_id":"","pricing_plan_id":"cebpf4jnsgd1na2vs0mg"},{"bike_id":"05405269-8a82-4e59-ab5c-a207e2ceb406","system_id":"levelo_inurba_marseille","lat":43.29525,"lon":5.37527,"is_reserved":false,"is_disabled":false,"rental_uris":{"android":"levelo://app?vid=05405269-8a82-4e59-ab5c-a207e2ceb406","ios":"levelo://app?vid=05405269-8a82-4e59-ab5c-a207e2ceb406"},"vehicle_type_id":"4","last_reported":1753809298,"current_range_meters":8800,"station_id":"ce4bgkp2rcd13ifvqbmg","pricing_plan_id":"cebpf4jnsgd1na2vs0mg"},{"bike_id":"90485282-ecc7-4e3e-b8c7-54790da2412c","system_id":"levelo_inurba_marseille","lat":43.337444,"lon":5.374475,"is_reserved":false,"is_disabled":false,"rental_uris":{"android":"levelo://app?vid=90485282-ecc7-4e3e-b8c7-54790da2412c","ios":"levelo://app?vid=90485282-ecc7-4e3e-b8c7-54790da2412c"},"vehicle_type_id":"4","last_reported":1753809298,"current_range_meters":9200,"station_id":"","pricing_plan_id":"cebpf4jnsgd1na2vs0mg"},{"bike_id":"d4d3155a-ebe8-4e6f-b997-1873d3882e36","system_id":"levelo_inurba_marseille","lat":43.292633,"lon":5.384444,"is_reserved":false,"is_disabled":false,"rental_uris":{"android":"levelo://app?vid=d4d3155a-ebe8-4e6f-b997-1873d3882e36","ios":"levelo://app?vid=d4d3155a-ebe8-4e6f-b997-1873d3882e36"},"vehicle_type_id":"4","last_reported":1753809298,"current_range_meters":9200,"station_id":"ce4bh692rcd13ifvqea0","pricing_plan_id":"cebpf4jnsgd1na2vs0mg"},{"bike_id":"8bd158e8-5642-4317-9e36-dfec40de885c","system_id":"levelo_inurba_marseille","lat":43.273685,"lon":5.362645,"is_reserved":false,"is_disabled":false,"rental_uris":{"android":"levelo://app?vid=8bd158e8-5642-4317-9e36-dfec40de885c","ios":"levelo://app?vid=8bd158e8-5642-4317-9e36-dfec40de885c"},"vehicle_type_id":"4","last_reported":1753809298,"current_range_meters":9200,"station_id":"ce4bhbh2rcd13ifvqeo0","pricing_plan_id":"cebpf4jnsgd1na2vs0mg"},{"bike_id":"65555960-a801-474f-bc14-5691ad6e942b","system_id":"levelo_inurba_marseille","lat":43.28701,"lon":5.37379,"is_reserved":false,"is_disabled":false,"rental_uris":{"android":"levelo://app?vid=65555960-a801-474f-bc14-5691ad6e942b","ios":"levelo://app?vid=65555960-a801-474f-bc14-5691ad6e942b"},"vehicle_type_id":"4","last_reported":1753809298,"current_range_meters":9200,"station_id":"ce4bh3p2rcd13ifvqdq0","pricing_plan_id":"cebpf4jnsgd1na2vs0mg"},{"bike_id":"e0ce0053-71c4-4b07-8b9e-379e7ce2bf22","system_id":"levelo_inurba_marseille","lat":43.30292,"lon":5.39803,"is_reserved":false,"is_disabled":false,"rental_uris":{"android":"levelo://app?vid=e0ce0053-71c4-4b07-8b9e-379e7ce2bf22","ios":"levelo://app?vid=e0ce0053-71c4-4b07-8b9e-379e7ce2bf22"},"vehicle_type_id":"4","last_reported":1753809298,"current_range_meters":9200,"station_id":"","pricing_plan_id":"cebpf4jnsgd1na2vs0mg"},{"bike_id":"882bdff1-651a-41c1-9ab0-596f43205cf1","system_id":"levelo_inurba_marseille","lat":43.337444,"lon":5.374475,"is_reserved":false,"is_disabled":false,"rental_uris":{"android":"levelo://app?vid=882bdff1-651a-41c1-9ab0-596f43205cf1","ios":"levelo://app?vid=882bdff1-651a-41c1-9ab0-596f43205cf1"},"vehicle_type_id":"4","last_reported":1753809298,"current_range_meters":9600,"station_id":"ce4bgkp2rcd13ifvqbmg","pricing_plan_id":"cebpf4jnsgd1na2vs0mg"},{"bike_id":"9f90e81c-82b6-4e93-8820-47a6570c2ab4","system_id":"levelo_inurba_marseille","lat":43.28414,"lon":5.34983,"is_reserved":false,"is_disabled":false,"rental_uris":{"android":"levelo://app?vid=9f90e81c-82b6-4e93-8820-47a6570c2ab4","ios":"levelo://app?vid=9f90e81c-82b6-4e93-8820-47a6570c2ab4"},"vehicle_type_id":"4","last_reported":1753809298,"current_range_meters":9600,"station_id":"ce4bhbh2rcd13ifvqepg","pricing_plan_id":"cebpf4jnsgd1na2vs0mg"},{"bike_id":"1d5be4ee-5ffc-4f29-8a12-4347aec148fe","system_id":"levelo_inurba_marseille","lat":43.284102,"lon":5.34992,"is_reserved":false,"is_disabled":false,"rental_uris":{"android":"levelo://app?vid=1d5be4ee-5ffc-4f29-8a12-4347aec148fe","ios":"levelo://app?vid=1d5be4ee-5ffc-4f29-8a12-4347aec148fe"},"vehicle_type_id":"4","last_reported":1753809298,"current_range_meters":9600,"station_id":"ce4bhbh2rcd13ifvqepg","pricing_plan_id":"cebpf4jnsgd1na2vs0mg"},{"bike_id":"7882dcbf-f626-433b-a099-51f848de011d","system_id":"levelo_inurba_marseille","lat":43.27374,"lon":5.36258,"is_reserved":false,"is_disabled":false,"rental_uris":{"android":"levelo://app?vid=7882dcbf-f626-433b-a099-51f848de011d","ios":"levelo://app?vid=7882dcbf-f626-433b-a099-51f848de011d"},"vehicle_type_id":"4","last_reported":1753809298,"current_range_meters":9600,"station_id":"ce4bhbh2rcd13ifvqeo0","pricing_plan_id":"cebpf4jnsgd1na2vs0mg"},{"bike_id":"c5d6c16c-667e-4c61-9e09-b5efae6e86bc","system_id":"levelo_inurba_marseille","lat":43.2989,"lon":5.43663,"is_reserved":false,"is_disabled":false,"rental_uris":{"android":"levelo://app?vid=c5d6c16c-667e-4c61-9e09-b5efae6e86bc","ios":"levelo://app?vid=c5d6c16c-667e-4c61-9e09-b5efae6e86bc"},"vehicle_type_id":"4","last_reported":1753809298,"current_range_meters":9600,"station_id":"ce4bhpp2rcd13ifvqhfg","pricing_plan_id":"cebpf4jnsgd1na2vs0mg"},{"bike_id":"2a3a9f20-00d1-4c95-a093-ba8e28724bc0","system_id":"levelo_inurba_marseille","lat":43.30667,"lon":5.37575,"is_reserved":false,"is_disabled":false,"rental_uris":{"android":"levelo://app?vid=2a3a9f20-00d1-4c95-a093-ba8e28724bc0","ios":"levelo://app?vid=2a3a9f20-00d1-4c95-a093-ba8e28724bc0"},"vehicle_type_id":"4","last_reported":1753809298,"current_range_meters":9600,"station_id":"","pricing_plan_id":"cebpf4jnsgd1na2vs0mg"},{"bike_id":"6b7aef10-6ea3-4f15-8f97-883780aa294e","system_id":"levelo_inurba_marseille","lat":43.26559,"lon":5.37285,"is_reserved":false,"is_disabled":false,"rental_uris":{"android":"levelo://app?vid=6b7aef10-6ea3-4f15-8f97-883780aa294e","ios":"levelo://app?vid=6b7aef10-6ea3-4f15-8f97-883780aa294e"},"vehicle_type_id":"4","last_reported":1753809298,"current_range_meters":14000,"station_id":"ce4bhg12rcd13ifvqf70","pricing_plan_id":"cebpf4jnsgd1na2vs0mg"},{"bike_id":"971b9572-dacb-4705-afa3-ab8ef8fd0141","system_id":"levelo_inurba_marseille","lat":43.24661,"lon":5.38144,"is_reserved":false,"is_disabled":false,"rental_uris":{"android":"levelo://app?vid=971b9572-dacb-4705-afa3-ab8ef8fd0141","ios":"levelo://app?vid=971b9572-dacb-4705-afa3-ab8ef8fd0141"},"vehicle_type_id":"4","last_reported":1753809298,"current_range_meters":10000,"station_id":"ce4bhih2rcd13ifvqfr0","pricing_plan_id":"cebpf4jnsgd1na2vs0mg"},{"bike_id":"87f1ef79-3895-4c93-b43f-49877af95a81","system_id":"levelo_inurba_marseille","lat":43.26551,"lon":5.37287,"is_reserved":false,"is_disabled":false,"rental_uris":{"android":"levelo://app?vid=87f1ef79-3895-4c93-b43f-49877af95a81","ios":"levelo://app?vid=87f1ef79-3895-4c93-b43f-49877af95a81"},"vehicle_type_id":"4","last_reported":1753809298,"current_range_meters":10000,"station_id":"ce4bhg12rcd13ifvqf70","pricing_plan_id":"cebpf4jnsgd1na2vs0mg"},{"bike_id":"c13ce413-660f-4ff8-9547-d17d0704485e","system_id":"levelo_inurba_marseille","lat":43.21199,"lon":5.35064,"is_reserved":false,"is_disabled":false,"rental_uris":{"android":"levelo://app?vid=c13ce413-660f-4ff8-9547-d17d0704485e","ios":"levelo://app?vid=c13ce413-660f-4ff8-9547-d17d0704485e"},"vehicle_type_id":"4","last_reported":1753809298,"current_range_meters":10000,"station_id":"","pricing_plan_id":"cebpf4jnsgd1na2vs0mg"},{"bike_id":"7380861c-9697-4283-9e10-38addb8bd01e","system_id":"levelo_inurba_marseille","lat":43.30268,"lon":5.37712,"is_reserved":false,"is_disabled":false,"rental_uris":{"android":"levelo://app?vid=7380861c-9697-4283-9e10-38addb8bd01e","ios":"levelo://app?vid=7380861c-9697-4283-9e10-38addb8bd01e"},"vehicle_type_id":"4","last_reported":1753809298,"current_range_meters":10000,"station_id":"ce4bguh2rcd13ifvqcj0","pricing_plan_id":"cebpf4jnsgd1na2vs0mg"},{"bike_id":"f1f8a3b2-c20c-43f7-9651-d4b7f67e94c9","system_id":"levelo_inurba_marseille","lat":43.231934,"lon":5.355537,"is_reserved":false,"is_disabled":true,"rental_uris":{"android":"levelo://app?vid=f1f8a3b2-c20c-43f7-9651-d4b7f67e94c9","ios":"levelo://app?vid=f1f8a3b2-c20c-43f7-9651-d4b7f67e94c9"},"vehicle_type_id":"4","last_reported":1753809298,"current_range_meters":10000,"station_id":"ce4bhu92rcd13ifvqi70","pricing_plan_id":"cebpf4jnsgd1na2vs0mg"},{"bike_id":"3b08c7fe-da62-4fb4-8da1-3e8b0064e2d8","system_id":"levelo_inurba_marseille","lat":43.30882,"lon":5.39619,"is_reserved":false,"is_disabled":true,"rental_uris":{"android":"levelo://app?vid=3b08c7fe-da62-4fb4-8da1-3e8b0064e2d8","ios":"levelo://app?vid=3b08c7fe-da62-4fb4-8da1-3e8b0064e2d8"},"vehicle_type_id":"4","last_reported":1753809298,"current_range_meters":10000,"station_id":"ce4bh012rcd13ifvqcv0","pricing_plan_id":"cebpf4jnsgd1na2vs0mg"},{"bike_id":"7949e024-8858-462d-917e-07d1faaa663c","system_id":"levelo_inurba_marseille","lat":43.28847,"lon":5.35845,"is_reserved":false,"is_disabled":false,"rental_uris":{"android":"levelo://app?vid=7949e024-8858-462d-917e-07d1faaa663c","ios":"levelo://app?vid=7949e024-8858-462d-917e-07d1faaa663c"},"vehicle_type_id":"4","last_reported":1753809298,"current_range_meters":10000,"station_id":"ce4bhb12rcd13ifvqem0","pricing_plan_id":"cebpf4jnsgd1na2vs0mg"},{"bike_id":"ded3ca32-79cf-499e-a93e-78e8e0a58def","system_id":"levelo_inurba_marseille","lat":43.29212,"lon":5.35778,"is_reserved":false,"is_disabled":true,"rental_uris":{"android":"levelo://app?vid=ded3ca32-79cf-499e-a93e-78e8e0a58def","ios":"levelo://app?vid=ded3ca32-79cf-499e-a93e-78e8e0a58def"},"vehicle_type_id":"4","last_reported":1753809298,"current_range_meters":10000,"station_id":"ce4bhb12rcd13ifvqel0","pricing_plan_id":"cebpf4jnsgd1na2vs0mg"},{"bike_id":"93cd9f46-da6b-40f3-951f-d8374d7621fa","system_id":"levelo_inurba_marseille","lat":43.30303,"lon":5.39208,"is_reserved":false,"is_disabled":false,"rental_uris":{"android":"levelo://app?vid=93cd9f46-da6b-40f3-951f-d8374d7621fa","ios":"levelo://app?vid=93cd9f46-da6b-40f3-951f-d8374d7621fa"},"vehicle_type_id":"4","last_reported":1753809298,"current_range_meters":10000,"station_id":"ce4bgkh2rcd13ifvqbk0","pricing_plan_id":"cebpf4jnsgd1na2vs0mg"},{"bike_id":"f4c59c80-40f0-4999-896e-9e0a199046c0","system_id":"levelo_inurba_marseille","lat":43.2844,"lon":5.35014,"is_reserved":false,"is_disabled":false,"rental_uris":{"android":"levelo://app?vid=f4c59c80-40f0-4999-896e-9e0a199046c0","ios":"levelo://app?vid=f4c59c80-40f0-4999-896e-9e0a199046c0"},"vehicle_type_id":"4","last_reported":1753809298,"current_range_meters":10000,"station_id":"ce4bhbh2rcd13ifvqepg","pricing_plan_id":"cebpf4jnsgd1na2vs0mg"},{"bike_id":"f31f6972-a7db-4e00-86af-f8d365a5e5ec","system_id":"levelo_inurba_marseille","lat":43.231825,"lon":5.399889,"is_reserved":false,"is_disabled":false,"rental_uris":{"android":"levelo://app?vid=f31f6972-a7db-4e00-86af-f8d365a5e5ec","ios":"levelo://app?vid=f31f6972-a7db-4e00-86af-f8d365a5e5ec"},"vehicle_type_id":"4","last_reported":1753809298,"current_range_meters":10000,"station_id":"ce4bhn12rcd13ifvqgqg","pricing_plan_id":"cebpf4jnsgd1na2vs0mg"},{"bike_id":"56c14b1d-cdff-4645-b34b-9b0de65b440a","system_id":"levelo_inurba_marseille","lat":43.30425,"lon":5.39747,"is_reserved":false,"is_disabled":false,"rental_uris":{"android":"levelo://app?vid=56c14b1d-cdff-4645-b34b-9b0de65b440a","ios":"levelo://app?vid=56c14b1d-cdff-4645-b34b-9b0de65b440a"},"vehicle_type_id":"4","last_reported":1753809298,"current_range_meters":10000,"station_id":"ce4bh092rcd13ifvqd20","pricing_plan_id":"cebpf4jnsgd1na2vs0mg"},{"bike_id":"5dec02eb-e64a-487f-ba18-38817336aca8","system_id":"levelo_inurba_marseille","lat":43.28975,"lon":5.37834,"is_reserved":false,"is_disabled":true,"rental_uris":{"android":"levelo://app?vid=5dec02eb-e64a-487f-ba18-38817336aca8","ios":"levelo://app?vid=5dec02eb-e64a-487f-ba18-38817336aca8"},"vehicle_type_id":"4","last_reported":1753809298,"current_range_meters":10000,"station_id":"ce4bh9p2rcd13ifvqed0","pricing_plan_id":"cebpf4jnsgd1na2vs0mg"},{"bike_id":"e7267901-5d76-4a43-932a-6fe84e2f0400","system_id":"levelo_inurba_marseille","lat":43.30297,"lon":5.39207,"is_reserved":false,"is_disabled":false,"rental_uris":{"android":"levelo://app?vid=e7267901-5d76-4a43-932a-6fe84e2f0400","ios":"levelo://app?vid=e7267901-5d76-4a43-932a-6fe84e2f0400"},"vehicle_type_id":"4","last_reported":1753809298,"current_range_meters":10000,"station_id":"ce4bgkh2rcd13ifvqbk0","pricing_plan_id":"cebpf4jnsgd1na2vs0mg"},{"bike_id":"da913aa8-3d8c-4ab2-b48f-187998fd2a99","system_id":"levelo_inurba_marseille","lat":43.33761,"lon":5.37479,"is_reserved":false,"is_disabled":false,"rental_uris":{"android":"levelo://app?vid=da913aa8-3d8c-4ab2-b48f-187998fd2a99","ios":"levelo://app?vid=da913aa8-3d8c-4ab2-b48f-187998fd2a99"},"vehicle_type_id":"4","last_reported":1753809298,"current_range_meters":10800,"station_id":"","pricing_plan_id":"cebpf4jnsgd1na2vs0mg"},{"bike_id":"945df923-9023-4cf1-9332-5cdab402e7a0","system_id":"levelo_inurba_marseille","lat":43.25083,"lon":5.39521,"is_reserved":false,"is_disabled":false,"rental_uris":{"android":"levelo://app?vid=945df923-9023-4cf1-9332-5cdab402e7a0","ios":"levelo://app?vid=945df923-9023-4cf1-9332-5cdab402e7a0"},"vehicle_type_id":"4","last_reported":1753809298,"current_range_meters":10800,"station_id":"ce4bhm12rcd13ifvqgkg","pricing_plan_id":"cebpf4jnsgd1na2vs0mg"},{"bike_id":"d4b0442d-37e3-4887-8827-87b59f4e9086","system_id":"levelo_inurba_marseille","lat":43.2977,"lon":5.38108,"is_reserved":false,"is_disabled":false,"rental_uris":{"android":"levelo://app?vid=d4b0442d-37e3-4887-8827-87b59f4e9086","ios":"levelo://app?vid=d4b0442d-37e3-4887-8827-87b59f4e9086"},"vehicle_type_id":"4","last_reported":1753809298,"current_range_meters":10800,"station_id":"","pricing_plan_id":"cebpf4jnsgd1na2vs0mg"},{"bike_id":"36a4311d-f13b-4729-8d27-70dfef909ab6","system_id":"levelo_inurba_marseille","lat":43.27375,"lon":5.36261,"is_reserved":false,"is_disabled":false,"rental_uris":{"android":"levelo://app?vid=36a4311d-f13b-4729-8d27-70dfef909ab6","ios":"levelo://app?vid=36a4311d-f13b-4729-8d27-70dfef909ab6"},"vehicle_type_id":"4","last_reported":1753809298,"current_range_meters":10800,"station_id":"ce4bhbh2rcd13ifvqeo0","pricing_plan_id":"cebpf4jnsgd1na2vs0mg"},{"bike_id":"01ca6952-3e9e-4134-8856-0ba477a4a5b7","system_id":"levelo_inurba_marseille","lat":43.28038,"lon":5.36947,"is_reserved":false,"is_disabled":false,"rental_uris":{"android":"levelo://app?vid=01ca6952-3e9e-4134-8856-0ba477a4a5b7","ios":"levelo://app?vid=01ca6952-3e9e-4134-8856-0ba477a4a5b7"},"vehicle_type_id":"4","last_reported":1753809298,"current_range_meters":10800,"station_id":"ce4bha12rcd13ifvqef0","pricing_plan_id":"cebpf4jnsgd1na2vs0mg"},{"bike_id":"baebe4c9-a6e8-4d2b-9927-e45b3a953104","system_id":"levelo_inurba_marseille","lat":43.29816,"lon":5.38213,"is_reserved":false,"is_disabled":false,"rental_uris":{"android":"levelo://app?vid=baebe4c9-a6e8-4d2b-9927-e45b3a953104","ios":"levelo://app?vid=baebe4c9-a6e8-4d2b-9927-e45b3a953104"},"vehicle_type_id":"4","last_reported":1753809298,"current_range_meters":10800,"station_id":"","pricing_plan_id":"cebpf4jnsgd1na2vs0mg"},{"bike_id":"b6107dbe-b2cc-4e60-8284-cb67a1211599","system_id":"levelo_inurba_marseille","lat":43.298461,"lon":5.383528,"is_reserved":false,"is_disabled":false,"rental_uris":{"android":"levelo://app?vid=b6107dbe-b2cc-4e60-8284-cb67a1211599","ios":"levelo://app?vid=b6107dbe-b2cc-4e60-8284-cb67a1211599"},"vehicle_type_id":"4","last_reported":1753809298,"current_range_meters":11200,"station_id":"","pricing_plan_id":"cebpf4jnsgd1na2vs0mg"},{"bike_id":"692414aa-d3dc-4f85-8a34-5de3a8b2cb1c","system_id":"levelo_inurba_marseille","lat":43.2902,"lon":5.38636,"is_reserved":false,"is_disabled":false,"rental_uris":{"android":"levelo://app?vid=692414aa-d3dc-4f85-8a34-5de3a8b2cb1c","ios":"levelo://app?vid=692414aa-d3dc-4f85-8a34-5de3a8b2cb1c"},"vehicle_type_id":"4","last_reported":1753809298,"current_range_meters":11200,"station_id":"ce4bh4p2rcd13ifvqe0g","pricing_plan_id":"cebpf4jnsgd1na2vs0mg"},{"bike_id":"45212c79-9ef8-4253-8b95-ad8f29b8aba0","system_id":"levelo_inurba_marseille","lat":43.27376,"lon":5.36262,"is_reserved":false,"is_disabled":false,"rental_uris":{"android":"levelo://app?vid=45212c79-9ef8-4253-8b95-ad8f29b8aba0","ios":"levelo://app?vid=45212c79-9ef8-4253-8b95-ad8f29b8aba0"},"vehicle_type_id":"4","last_reported":1753809298,"current_range_meters":11200,"station_id":"ce4bhbh2rcd13ifvqeo0","pricing_plan_id":"cebpf4jnsgd1na2vs0mg"},{"bike_id":"5af70030-0b3a-4f0e-9df5-9d12397b244f","system_id":"levelo_inurba_marseille","lat":43.21743,"lon":5.34603,"is_reserved":false,"is_disabled":false,"rental_uris":{"android":"levelo://app?vid=5af70030-0b3a-4f0e-9df5-9d12397b244f","ios":"levelo://app?vid=5af70030-0b3a-4f0e-9df5-9d12397b244f"},"vehicle_type_id":"4","last_reported":1753809298,"current_range_meters":11200,"station_id":"st_cvj6r9ubvosntc0bgbag","pricing_plan_id":"cebpf4jnsgd1na2vs0mg"},{"bike_id":"171507f3-ab32-467d-b78b-88b1763cb110","system_id":"levelo_inurba_marseille","lat":43.272067,"lon":5.39185,"is_reserved":false,"is_disabled":false,"rental_uris":{"android":"levelo://app?vid=171507f3-ab32-467d-b78b-88b1763cb110","ios":"levelo://app?vid=171507f3-ab32-467d-b78b-88b1763cb110"},"vehicle_type_id":"4","last_reported":1753809298,"current_range_meters":11200,"station_id":"ce4bhap2rcd13ifvqek0","pricing_plan_id":"cebpf4jnsgd1na2vs0mg"},{"bike_id":"32c91b89-99f6-4337-9b1e-759d888d9d38","system_id":"levelo_inurba_marseille","lat":43.297167,"lon":5.377202,"is_reserved":false,"is_disabled":false,"rental_uris":{"android":"levelo://app?vid=32c91b89-99f6-4337-9b1e-759d888d9d38","ios":"levelo://app?vid=32c91b89-99f6-4337-9b1e-759d888d9d38"},"vehicle_type_id":"4","last_reported":1753809298,"current_range_meters":11200,"station_id":"ce4bgkh2rcd13ifvqbl0","pricing_plan_id":"cebpf4jnsgd1na2vs0mg"},{"bike_id":"a8de028e-1a71-455a-a0cd-6826fe237846","system_id":"levelo_inurba_marseille","lat":43.32055,"lon":5.41563,"is_reserved":false,"is_disabled":false,"rental_uris":{"android":"levelo://app?vid=a8de028e-1a71-455a-a0cd-6826fe237846","ios":"levelo://app?vid=a8de028e-1a71-455a-a0cd-6826fe237846"},"vehicle_type_id":"4","last_reported":1753809298,"current_range_meters":11200,"station_id":"ce4bhq92rcd13ifvqhkg","pricing_plan_id":"cebpf4jnsgd1na2vs0mg"},{"bike_id":"7cf62c04-91f9-4e0a-bdd9-c677d355fb11","system_id":"levelo_inurba_marseille","lat":43.29901,"lon":5.383,"is_reserved":false,"is_disabled":false,"rental_uris":{"android":"levelo://app?vid=7cf62c04-91f9-4e0a-bdd9-c677d355fb11","ios":"levelo://app?vid=7cf62c04-91f9-4e0a-bdd9-c677d355fb11"},"vehicle_type_id":"4","last_reported":1753809298,"current_range_meters":11200,"station_id":"","pricing_plan_id":"cebpf4jnsgd1na2vs0mg"},{"bike_id":"ba6a73ff-6f5b-4816-b276-76a738a76f97","system_id":"levelo_inurba_marseille","lat":43.2762,"lon":5.36108,"is_reserved":false,"is_disabled":false,"rental_uris":{"android":"levelo://app?vid=ba6a73ff-6f5b-4816-b276-76a738a76f97","ios":"levelo://app?vid=ba6a73ff-6f5b-4816-b276-76a738a76f97"},"vehicle_type_id":"4","last_reported":1753809298,"current_range_meters":11600,"station_id":"ce4bgj92rcd13ifvqbe0","pricing_plan_id":"cebpf4jnsgd1na2vs0mg"},{"bike_id":"07185b3e-19b6-4689-bdef-10828ab2adbb","system_id":"levelo_inurba_marseille","lat":43.29871,"lon":5.39729,"is_reserved":false,"is_disabled":false,"rental_uris":{"android":"levelo://app?vid=07185b3e-19b6-4689-bdef-10828ab2adbb","ios":"levelo://app?vid=07185b3e-19b6-4689-bdef-10828ab2adbb"},"vehicle_type_id":"4","last_reported":1753809298,"current_range_meters":11200,"station_id":"ce4bh0h2rcd13ifvqd50","pricing_plan_id":"cebpf4jnsgd1na2vs0mg"},{"bike_id":"62f5da51-1009-4002-b725-5765ccaaf3ec","system_id":"levelo_inurba_marseille","lat":43.29419,"lon":5.43219,"is_reserved":false,"is_disabled":false,"rental_uris":{"android":"levelo://app?vid=62f5da51-1009-4002-b725-5765ccaaf3ec","ios":"levelo://app?vid=62f5da51-1009-4002-b725-5765ccaaf3ec"},"vehicle_type_id":"4","last_reported":1753809298,"current_range_meters":11600,"station_id":"","pricing_plan_id":"cebpf4jnsgd1na2vs0mg"},{"bike_id":"149441a1-4a20-4aba-ad8b-5cb0f28aa1c9","system_id":"levelo_inurba_marseille","lat":43.23063,"lon":5.35468,"is_reserved":false,"is_disabled":false,"rental_uris":{"android":"levelo://app?vid=149441a1-4a20-4aba-ad8b-5cb0f28aa1c9","ios":"levelo://app?vid=149441a1-4a20-4aba-ad8b-5cb0f28aa1c9"},"vehicle_type_id":"4","last_reported":1753809298,"current_range_meters":11600,"station_id":"cpo3342slgdg3j2ifvpg","pricing_plan_id":"cebpf4jnsgd1na2vs0mg"},{"bike_id":"8e3e7abc-430b-450c-a44e-cd24c4fa709e","system_id":"levelo_inurba_marseille","lat":43.27919,"lon":5.39574,"is_reserved":false,"is_disabled":false,"rental_uris":{"android":"levelo://app?vid=8e3e7abc-430b-450c-a44e-cd24c4fa709e","ios":"levelo://app?vid=8e3e7abc-430b-450c-a44e-cd24c4fa709e"},"vehicle_type_id":"4","last_reported":1753809298,"current_range_meters":12000,"station_id":"ce4bhf92rcd13ifvqf40","pricing_plan_id":"cebpf4jnsgd1na2vs0mg"},{"bike_id":"12aecde3-64c8-43cb-b27f-fc7122ab25a3","system_id":"levelo_inurba_marseille","lat":43.23957,"lon":5.366367,"is_reserved":false,"is_disabled":false,"rental_uris":{"android":"levelo://app?vid=12aecde3-64c8-43cb-b27f-fc7122ab25a3","ios":"levelo://app?vid=12aecde3-64c8-43cb-b27f-fc7122ab25a3"},"vehicle_type_id":"4","last_reported":1753809298,"current_range_meters":12000,"station_id":"ce4bhi12rcd13ifvqfp0","pricing_plan_id":"cebpf4jnsgd1na2vs0mg"},{"bike_id":"cb1cc6ba-5b77-40fb-ad0c-c41a4d15d014","system_id":"levelo_inurba_marseille","lat":43.21769,"lon":5.34587,"is_reserved":false,"is_disabled":false,"rental_uris":{"android":"levelo://app?vid=cb1cc6ba-5b77-40fb-ad0c-c41a4d15d014","ios":"levelo://app?vid=cb1cc6ba-5b77-40fb-ad0c-c41a4d15d014"},"vehicle_type_id":"4","last_reported":1753809298,"current_range_meters":12000,"station_id":"st_cvj6r9ubvosntc0bgbag","pricing_plan_id":"cebpf4jnsgd1na2vs0mg"},{"bike_id":"bf992b70-3c30-4c86-bbc9-cd4a96bdeb46","system_id":"levelo_inurba_marseille","lat":43.25078,"lon":5.39524,"is_reserved":false,"is_disabled":false,"rental_uris":{"android":"levelo://app?vid=bf992b70-3c30-4c86-bbc9-cd4a96bdeb46","ios":"levelo://app?vid=bf992b70-3c30-4c86-bbc9-cd4a96bdeb46"},"vehicle_type_id":"4","last_reported":1753809298,"current_range_meters":12000,"station_id":"ce4bhm12rcd13ifvqgkg","pricing_plan_id":"cebpf4jnsgd1na2vs0mg"},{"bike_id":"846024a3-eff5-4bdd-8dbc-16da7afe783d","system_id":"levelo_inurba_marseille","lat":43.2845,"lon":5.35882,"is_reserved":false,"is_disabled":false,"rental_uris":{"android":"levelo://app?vid=846024a3-eff5-4bdd-8dbc-16da7afe783d","ios":"levelo://app?vid=846024a3-eff5-4bdd-8dbc-16da7afe783d"},"vehicle_type_id":"4","last_reported":1753809298,"current_range_meters":12000,"station_id":"ce4bhah2rcd13ifvqei0","pricing_plan_id":"cebpf4jnsgd1na2vs0mg"},{"bike_id":"3d9f2061-7fb9-4387-9262-8d2451911c2b","system_id":"levelo_inurba_marseille","lat":43.22926,"lon":5.35404,"is_reserved":false,"is_disabled":false,"rental_uris":{"android":"levelo://app?vid=3d9f2061-7fb9-4387-9262-8d2451911c2b","ios":"levelo://app?vid=3d9f2061-7fb9-4387-9262-8d2451911c2b"},"vehicle_type_id":"4","last_reported":1753809298,"current_range_meters":12000,"station_id":"cpo3532slgdg3j2ikp40","pricing_plan_id":"cebpf4jnsgd1na2vs0mg"},{"bike_id":"55201a9e-328f-452a-8b58-b76f0e5a4511","system_id":"levelo_inurba_marseille","lat":43.2318,"lon":5.39982,"is_reserved":false,"is_disabled":false,"rental_uris":{"android":"levelo://app?vid=55201a9e-328f-452a-8b58-b76f0e5a4511","ios":"levelo://app?vid=55201a9e-328f-452a-8b58-b76f0e5a4511"},"vehicle_type_id":"4","last_reported":1753809298,"current_range_meters":12000,"station_id":"ce4bhn12rcd13ifvqgqg","pricing_plan_id":"cebpf4jnsgd1na2vs0mg"},{"bike_id":"781d1b23-d4f9-4493-9221-7e7d3ffb798d","system_id":"levelo_inurba_marseille","lat":43.28414,"lon":5.3497,"is_reserved":false,"is_disabled":false,"rental_uris":{"android":"levelo://app?vid=781d1b23-d4f9-4493-9221-7e7d3ffb798d","ios":"levelo://app?vid=781d1b23-d4f9-4493-9221-7e7d3ffb798d"},"vehicle_type_id":"4","last_reported":1753809298,"current_range_meters":12400,"station_id":"ce4bhbh2rcd13ifvqepg","pricing_plan_id":"cebpf4jnsgd1na2vs0mg"},{"bike_id":"50427cb4-f7c5-45fa-9402-39ede650aa5c","system_id":"levelo_inurba_marseille","lat":43.31284,"lon":5.40162,"is_reserved":false,"is_disabled":true,"rental_uris":{"android":"levelo://app?vid=50427cb4-f7c5-45fa-9402-39ede650aa5c","ios":"levelo://app?vid=50427cb4-f7c5-45fa-9402-39ede650aa5c"},"vehicle_type_id":"4","last_reported":1753809298,"current_range_meters":12400,"station_id":"ce4bh092rcd13ifvqd30","pricing_plan_id":"cebpf4jnsgd1na2vs0mg"},{"bike_id":"43348ea9-7f7d-45e7-9344-a5a742188c65","system_id":"levelo_inurba_marseille","lat":43.28694,"lon":5.37403,"is_reserved":false,"is_disabled":true,"rental_uris":{"android":"levelo://app?vid=43348ea9-7f7d-45e7-9344-a5a742188c65","ios":"levelo://app?vid=43348ea9-7f7d-45e7-9344-a5a742188c65"},"vehicle_type_id":"4","last_reported":1753809298,"current_range_meters":12400,"station_id":"ce4bh3p2rcd13ifvqdq0","pricing_plan_id":"cebpf4jnsgd1na2vs0mg"},{"bike_id":"df8e86e4-6c86-41a5-b7de-25e7553f3104","system_id":"levelo_inurba_marseille","lat":43.29023,"lon":5.38643,"is_reserved":false,"is_disabled":false,"rental_uris":{"android":"levelo://app?vid=df8e86e4-6c86-41a5-b7de-25e7553f3104","ios":"levelo://app?vid=df8e86e4-6c86-41a5-b7de-25e7553f3104"},"vehicle_type_id":"4","last_reported":1753809298,"current_range_meters":14400,"station_id":"ce4bh4p2rcd13ifvqe0g","pricing_plan_id":"cebpf4jnsgd1na2vs0mg"},{"bike_id":"13886c75-e622-4209-9da9-5aeb03c3a8ea","system_id":"levelo_inurba_marseille","lat":43.28408,"lon":5.34973,"is_reserved":false,"is_disabled":false,"rental_uris":{"android":"levelo://app?vid=13886c75-e622-4209-9da9-5aeb03c3a8ea","ios":"levelo://app?vid=13886c75-e622-4209-9da9-5aeb03c3a8ea"},"vehicle_type_id":"4","last_reported":1753809298,"current_range_meters":12800,"station_id":"ce4bhbh2rcd13ifvqepg","pricing_plan_id":"cebpf4jnsgd1na2vs0mg"},{"bike_id":"1c2cee29-6d27-4bdf-b97c-eecf71616341","system_id":"levelo_inurba_marseille","lat":43.23204,"lon":5.35541,"is_reserved":false,"is_disabled":false,"rental_uris":{"android":"levelo://app?vid=1c2cee29-6d27-4bdf-b97c-eecf71616341","ios":"levelo://app?vid=1c2cee29-6d27-4bdf-b97c-eecf71616341"},"vehicle_type_id":"4","last_reported":1753809298,"current_range_meters":12800,"station_id":"ce4bhu92rcd13ifvqi70","pricing_plan_id":"cebpf4jnsgd1na2vs0mg"},{"bike_id":"63687873-d6b5-4ad3-b5a6-0181b0675dc8","system_id":"levelo_inurba_marseille","lat":43.267828,"lon":5.394147,"is_reserved":false,"is_disabled":false,"rental_uris":{"android":"levelo://app?vid=63687873-d6b5-4ad3-b5a6-0181b0675dc8","ios":"levelo://app?vid=63687873-d6b5-4ad3-b5a6-0181b0675dc8"},"vehicle_type_id":"4","last_reported":1753809298,"current_range_meters":12800,"station_id":"","pricing_plan_id":"cebpf4jnsgd1na2vs0mg"},{"bike_id":"b0f2b2c1-b378-4164-a22b-6eceaa434acc","system_id":"levelo_inurba_marseille","lat":43.29325,"lon":5.42775,"is_reserved":false,"is_disabled":false,"rental_uris":{"android":"levelo://app?vid=b0f2b2c1-b378-4164-a22b-6eceaa434acc","ios":"levelo://app?vid=b0f2b2c1-b378-4164-a22b-6eceaa434acc"},"vehicle_type_id":"4","last_reported":1753809298,"current_range_meters":12800,"station_id":"","pricing_plan_id":"cebpf4jnsgd1na2vs0mg"},{"bike_id":"6d40d0dc-56be-4684-ab62-30a9f8bcd161","system_id":"levelo_inurba_marseille","lat":43.292633,"lon":5.384356,"is_reserved":false,"is_disabled":false,"rental_uris":{"android":"levelo://app?vid=6d40d0dc-56be-4684-ab62-30a9f8bcd161","ios":"levelo://app?vid=6d40d0dc-56be-4684-ab62-30a9f8bcd161"},"vehicle_type_id":"4","last_reported":1753809298,"current_range_meters":10000,"station_id":"ce4bh692rcd13ifvqea0","pricing_plan_id":"cebpf4jnsgd1na2vs0mg"},{"bike_id":"5e6cda1e-1a74-410f-b1b8-670c0cc82134","system_id":"levelo_inurba_marseille","lat":43.25863,"lon":5.39892,"is_reserved":false,"is_disabled":false,"rental_uris":{"android":"levelo://app?vid=5e6cda1e-1a74-410f-b1b8-670c0cc82134","ios":"levelo://app?vid=5e6cda1e-1a74-410f-b1b8-670c0cc82134"},"vehicle_type_id":"4","last_reported":1753809298,"current_range_meters":12800,"station_id":"ce4bhl92rcd13ifvqghg","pricing_plan_id":"cebpf4jnsgd1na2vs0mg"},{"bike_id":"e137dc03-26cf-440c-b3ea-1ea522645199","system_id":"levelo_inurba_marseille","lat":43.280815,"lon":5.396626,"is_reserved":false,"is_disabled":false,"rental_uris":{"android":"levelo://app?vid=e137dc03-26cf-440c-b3ea-1ea522645199","ios":"levelo://app?vid=e137dc03-26cf-440c-b3ea-1ea522645199"},"vehicle_type_id":"4","last_reported":1753809298,"current_range_meters":12800,"station_id":"","pricing_plan_id":"cebpf4jnsgd1na2vs0mg"},{"bike_id":"cb3090cc-554f-4f41-b790-59b884367172","system_id":"levelo_inurba_marseille","lat":43.27611,"lon":5.361,"is_reserved":false,"is_disabled":false,"rental_uris":{"android":"levelo://app?vid=cb3090cc-554f-4f41-b790-59b884367172","ios":"levelo://app?vid=cb3090cc-554f-4f41-b790-59b884367172"},"vehicle_type_id":"4","last_reported":1753809298,"current_range_meters":12800,"station_id":"ce4bgj92rcd13ifvqbe0","pricing_plan_id":"cebpf4jnsgd1na2vs0mg"},{"bike_id":"e0e6f85d-cbe2-4ea1-8a76-5c79a838094f","system_id":"levelo_inurba_marseille","lat":43.2307,"lon":5.35455,"is_reserved":false,"is_disabled":false,"rental_uris":{"android":"levelo://app?vid=e0e6f85d-cbe2-4ea1-8a76-5c79a838094f","ios":"levelo://app?vid=e0e6f85d-cbe2-4ea1-8a76-5c79a838094f"},"vehicle_type_id":"4","last_reported":1753809298,"current_range_meters":12800,"station_id":"cpo3342slgdg3j2ifvpg","pricing_plan_id":"cebpf4jnsgd1na2vs0mg"},{"bike_id":"81e8891e-1a84-4ba1-80e9-7b29fd5f77a1","system_id":"levelo_inurba_marseille","lat":43.31271,"lon":5.40173,"is_reserved":false,"is_disabled":false,"rental_uris":{"android":"levelo://app?vid=81e8891e-1a84-4ba1-80e9-7b29fd5f77a1","ios":"levelo://app?vid=81e8891e-1a84-4ba1-80e9-7b29fd5f77a1"},"vehicle_type_id":"4","last_reported":1753809298,"current_range_meters":12800,"station_id":"ce4bh092rcd13ifvqd30","pricing_plan_id":"cebpf4jnsgd1na2vs0mg"},{"bike_id":"4ffc9d79-d56a-482d-b7d9-a5892348f435","system_id":"levelo_inurba_marseille","lat":43.28401,"lon":5.3499,"is_reserved":false,"is_disabled":false,"rental_uris":{"android":"levelo://app?vid=4ffc9d79-d56a-482d-b7d9-a5892348f435","ios":"levelo://app?vid=4ffc9d79-d56a-482d-b7d9-a5892348f435"},"vehicle_type_id":"4","last_reported":1753809298,"current_range_meters":13600,"station_id":"ce4bhbh2rcd13ifvqepg","pricing_plan_id":"cebpf4jnsgd1na2vs0mg"},{"bike_id":"e101e50b-21bd-45a0-b214-c938397e4d5c","system_id":"levelo_inurba_marseille","lat":43.26941,"lon":5.3892,"is_reserved":false,"is_disabled":false,"rental_uris":{"android":"levelo://app?vid=e101e50b-21bd-45a0-b214-c938397e4d5c","ios":"levelo://app?vid=e101e50b-21bd-45a0-b214-c938397e4d5c"},"vehicle_type_id":"4","last_reported":1753809298,"current_range_meters":13600,"station_id":"ce4bhhh2rcd13ifvqfl0","pricing_plan_id":"cebpf4jnsgd1na2vs0mg"},{"bike_id":"27fed96f-43c0-434c-9de1-7cb3f59310ac","system_id":"levelo_inurba_marseille","lat":43.27369,"lon":5.36258,"is_reserved":false,"is_disabled":false,"rental_uris":{"android":"levelo://app?vid=27fed96f-43c0-434c-9de1-7cb3f59310ac","ios":"levelo://app?vid=27fed96f-43c0-434c-9de1-7cb3f59310ac"},"vehicle_type_id":"4","last_reported":1753809298,"current_range_meters":13600,"station_id":"ce4bhbh2rcd13ifvqeo0","pricing_plan_id":"cebpf4jnsgd1na2vs0mg"},{"bike_id":"bb0441fb-f5c7-4d31-84a8-cb32e63be4af","system_id":"levelo_inurba_marseille","lat":43.29571,"lon":5.39973,"is_reserved":false,"is_disabled":false,"rental_uris":{"android":"levelo://app?vid=bb0441fb-f5c7-4d31-84a8-cb32e63be4af","ios":"levelo://app?vid=bb0441fb-f5c7-4d31-84a8-cb32e63be4af"},"vehicle_type_id":"4","last_reported":1753809298,"current_range_meters":12800,"station_id":"ce4bh312rcd13ifvqdj0","pricing_plan_id":"cebpf4jnsgd1na2vs0mg"},{"bike_id":"d02fa50b-9417-40c4-a50e-0f043497e0f7","system_id":"levelo_inurba_marseille","lat":43.29801,"lon":5.40393,"is_reserved":false,"is_disabled":false,"rental_uris":{"android":"levelo://app?vid=d02fa50b-9417-40c4-a50e-0f043497e0f7","ios":"levelo://app?vid=d02fa50b-9417-40c4-a50e-0f043497e0f7"},"vehicle_type_id":"4","last_reported":1753809298,"current_range_meters":13600,"station_id":"ce4bh112rcd13ifvqd90","pricing_plan_id":"cebpf4jnsgd1na2vs0mg"},{"bike_id":"9f42dd1e-fd25-4e4a-818d-d735cb7038eb","system_id":"levelo_inurba_marseille","lat":43.29263,"lon":5.38434,"is_reserved":false,"is_disabled":false,"rental_uris":{"android":"levelo://app?vid=9f42dd1e-fd25-4e4a-818d-d735cb7038eb","ios":"levelo://app?vid=9f42dd1e-fd25-4e4a-818d-d735cb7038eb"},"vehicle_type_id":"4","last_reported":1753809298,"current_range_meters":12800,"station_id":"ce4bh692rcd13ifvqea0","pricing_plan_id":"cebpf4jnsgd1na2vs0mg"},{"bike_id":"a5d21f19-a2f8-4c79-9341-84f97b97beb0","system_id":"levelo_inurba_marseille","lat":43.33396,"lon":5.40062,"is_reserved":false,"is_disabled":false,"rental_uris":{"android":"levelo://app?vid=a5d21f19-a2f8-4c79-9341-84f97b97beb0","ios":"levelo://app?vid=a5d21f19-a2f8-4c79-9341-84f97b97beb0"},"vehicle_type_id":"4","last_reported":1753809298,"current_range_meters":13600,"station_id":"","pricing_plan_id":"cebpf4jnsgd1na2vs0mg"},{"bike_id":"0dc99cab-1546-4588-8ef9-e9c6ae8e0a6f","system_id":"levelo_inurba_marseille","lat":43.23058,"lon":5.35508,"is_reserved":false,"is_disabled":false,"rental_uris":{"android":"levelo://app?vid=0dc99cab-1546-4588-8ef9-e9c6ae8e0a6f","ios":"levelo://app?vid=0dc99cab-1546-4588-8ef9-e9c6ae8e0a6f"},"vehicle_type_id":"4","last_reported":1753809298,"current_range_meters":13600,"station_id":"cpo3342slgdg3j2ifvpg","pricing_plan_id":"cebpf4jnsgd1na2vs0mg"},{"bike_id":"e9624a09-b572-4bcb-944b-ef4683557984","system_id":"levelo_inurba_marseille","lat":43.23063,"lon":5.35488,"is_reserved":false,"is_disabled":false,"rental_uris":{"android":"levelo://app?vid=e9624a09-b572-4bcb-944b-ef4683557984","ios":"levelo://app?vid=e9624a09-b572-4bcb-944b-ef4683557984"},"vehicle_type_id":"4","last_reported":1753809298,"current_range_meters":13600,"station_id":"cpo3342slgdg3j2ifvpg","pricing_plan_id":"cebpf4jnsgd1na2vs0mg"},{"bike_id":"590af998-9244-4ce2-be55-4177d8c9c195","system_id":"levelo_inurba_marseille","lat":43.30877,"lon":5.3721,"is_reserved":false,"is_disabled":false,"rental_uris":{"android":"levelo://app?vid=590af998-9244-4ce2-be55-4177d8c9c195","ios":"levelo://app?vid=590af998-9244-4ce2-be55-4177d8c9c195"},"vehicle_type_id":"4","last_reported":1753809298,"current_range_meters":14000,"station_id":"ce4bguh2rcd13ifvqckg","pricing_plan_id":"cebpf4jnsgd1na2vs0mg"},{"bike_id":"73c28b44-fb9a-4083-b9eb-e60de241e4cb","system_id":"levelo_inurba_marseille","lat":43.323222,"lon":5.388999,"is_reserved":false,"is_disabled":false,"rental_uris":{"android":"levelo://app?vid=73c28b44-fb9a-4083-b9eb-e60de241e4cb","ios":"levelo://app?vid=73c28b44-fb9a-4083-b9eb-e60de241e4cb"},"vehicle_type_id":"4","last_reported":1753809298,"current_range_meters":14000,"station_id":"ce4bhqp2rcd13ifvqhog","pricing_plan_id":"cebpf4jnsgd1na2vs0mg"},{"bike_id":"2f5a766e-3ece-4a36-9442-eef7b36a8a22","system_id":"levelo_inurba_marseille","lat":43.24837,"lon":5.37451,"is_reserved":false,"is_disabled":false,"rental_uris":{"android":"levelo://app?vid=2f5a766e-3ece-4a36-9442-eef7b36a8a22","ios":"levelo://app?vid=2f5a766e-3ece-4a36-9442-eef7b36a8a22"},"vehicle_type_id":"4","last_reported":1753809298,"current_range_meters":14000,"station_id":"","pricing_plan_id":"cebpf4jnsgd1na2vs0mg"},{"bike_id":"0be31b6f-fc53-4eca-85af-db1572822452","system_id":"levelo_inurba_marseille","lat":43.29243,"lon":5.36046,"is_reserved":false,"is_disabled":false,"rental_uris":{"android":"levelo://app?vid=0be31b6f-fc53-4eca-85af-db1572822452","ios":"levelo://app?vid=0be31b6f-fc53-4eca-85af-db1572822452"},"vehicle_type_id":"4","last_reported":1753809298,"current_range_meters":14000,"station_id":"ce4bhbh2rcd13ifvqeqg","pricing_plan_id":"cebpf4jnsgd1na2vs0mg"},{"bike_id":"32cce757-d157-4661-a931-c31799bff2b6","system_id":"levelo_inurba_marseille","lat":43.28416,"lon":5.34969,"is_reserved":false,"is_disabled":false,"rental_uris":{"android":"levelo://app?vid=32cce757-d157-4661-a931-c31799bff2b6","ios":"levelo://app?vid=32cce757-d157-4661-a931-c31799bff2b6"},"vehicle_type_id":"4","last_reported":1753809298,"current_range_meters":14000,"station_id":"ce4bhbh2rcd13ifvqepg","pricing_plan_id":"cebpf4jnsgd1na2vs0mg"},{"bike_id":"b7234136-bf62-4ef1-9964-a9c43529d354","system_id":"levelo_inurba_marseille","lat":43.31817,"lon":5.39434,"is_reserved":false,"is_disabled":false,"rental_uris":{"android":"levelo://app?vid=b7234136-bf62-4ef1-9964-a9c43529d354","ios":"levelo://app?vid=b7234136-bf62-4ef1-9964-a9c43529d354"},"vehicle_type_id":"4","last_reported":1753809298,"current_range_meters":14000,"station_id":"","pricing_plan_id":"cebpf4jnsgd1na2vs0mg"},{"bike_id":"be690b13-eeca-4b7f-9d72-b160e6421e13","system_id":"levelo_inurba_marseille","lat":43.29596,"lon":5.38101,"is_reserved":false,"is_disabled":false,"rental_uris":{"android":"levelo://app?vid=be690b13-eeca-4b7f-9d72-b160e6421e13","ios":"levelo://app?vid=be690b13-eeca-4b7f-9d72-b160e6421e13"},"vehicle_type_id":"4","last_reported":1753809298,"current_range_meters":13600,"station_id":"ce4bgl12rcd13ifvqbo0","pricing_plan_id":"cebpf4jnsgd1na2vs0mg"},{"bike_id":"996fe539-42e6-4511-a382-9c507d4c6b32","system_id":"levelo_inurba_marseille","lat":43.29529,"lon":5.38539,"is_reserved":false,"is_disabled":false,"rental_uris":{"android":"levelo://app?vid=996fe539-42e6-4511-a382-9c507d4c6b32","ios":"levelo://app?vid=996fe539-42e6-4511-a382-9c507d4c6b32"},"vehicle_type_id":"4","last_reported":1753809298,"current_range_meters":14000,"station_id":"ce4bgih2rcd13ifvqba0","pricing_plan_id":"cebpf4jnsgd1na2vs0mg"},{"bike_id":"7f3262f8-b9db-4ce0-9f33-68bc0d73023a","system_id":"levelo_inurba_marseille","lat":43.29216,"lon":5.36041,"is_reserved":false,"is_disabled":false,"rental_uris":{"android":"levelo://app?vid=7f3262f8-b9db-4ce0-9f33-68bc0d73023a","ios":"levelo://app?vid=7f3262f8-b9db-4ce0-9f33-68bc0d73023a"},"vehicle_type_id":"4","last_reported":1753809298,"current_range_meters":14000,"station_id":"ce4bhbh2rcd13ifvqeqg","pricing_plan_id":"cebpf4jnsgd1na2vs0mg"},{"bike_id":"0284b153-ed18-4aff-854a-398618bd67fc","system_id":"levelo_inurba_marseille","lat":43.28429,"lon":5.34969,"is_reserved":false,"is_disabled":false,"rental_uris":{"android":"levelo://app?vid=0284b153-ed18-4aff-854a-398618bd67fc","ios":"levelo://app?vid=0284b153-ed18-4aff-854a-398618bd67fc"},"vehicle_type_id":"4","last_reported":1753809298,"current_range_meters":14000,"station_id":"ce4bhbh2rcd13ifvqepg","pricing_plan_id":"cebpf4jnsgd1na2vs0mg"},{"bike_id":"82bde7ca-70b9-4f0e-a19f-f761e37d819e","system_id":"levelo_inurba_marseille","lat":43.28428,"lon":5.35009,"is_reserved":false,"is_disabled":false,"rental_uris":{"android":"levelo://app?vid=82bde7ca-70b9-4f0e-a19f-f761e37d819e","ios":"levelo://app?vid=82bde7ca-70b9-4f0e-a19f-f761e37d819e"},"vehicle_type_id":"4","last_reported":1753809298,"current_range_meters":14000,"station_id":"ce4bhbh2rcd13ifvqepg","pricing_plan_id":"cebpf4jnsgd1na2vs0mg"},{"bike_id":"7887f1f5-6e70-43f7-9388-01ef84d4cdc0","system_id":"levelo_inurba_marseille","lat":43.262133,"lon":5.374442,"is_reserved":false,"is_disabled":false,"rental_uris":{"android":"levelo://app?vid=7887f1f5-6e70-43f7-9388-01ef84d4cdc0","ios":"levelo://app?vid=7887f1f5-6e70-43f7-9388-01ef84d4cdc0"},"vehicle_type_id":"4","last_reported":1753809298,"current_range_meters":14400,"station_id":"ce4bgh92rcd13ifvqb40","pricing_plan_id":"cebpf4jnsgd1na2vs0mg"},{"bike_id":"a027973f-c8c9-4811-a512-806c935b4c27","system_id":"levelo_inurba_marseille","lat":43.21205,"lon":5.35053,"is_reserved":false,"is_disabled":true,"rental_uris":{"android":"levelo://app?vid=a027973f-c8c9-4811-a512-806c935b4c27","ios":"levelo://app?vid=a027973f-c8c9-4811-a512-806c935b4c27"},"vehicle_type_id":"4","last_reported":1753809298,"current_range_meters":14400,"station_id":"st_cvj6sg6p6f1abm77japg","pricing_plan_id":"cebpf4jnsgd1na2vs0mg"},{"bike_id":"d8e6094c-0de7-412e-bab8-3969f4a35524","system_id":"levelo_inurba_marseille","lat":43.29847,"lon":5.37574,"is_reserved":false,"is_disabled":false,"rental_uris":{"android":"levelo://app?vid=d8e6094c-0de7-412e-bab8-3969f4a35524","ios":"levelo://app?vid=d8e6094c-0de7-412e-bab8-3969f4a35524"},"vehicle_type_id":"4","last_reported":1753809298,"current_range_meters":14400,"station_id":"","pricing_plan_id":"cebpf4jnsgd1na2vs0mg"},{"bike_id":"b93ce78a-91c6-4fce-9307-3a583d277b06","system_id":"levelo_inurba_marseille","lat":43.28711,"lon":5.37943,"is_reserved":false,"is_disabled":true,"rental_uris":{"android":"levelo://app?vid=b93ce78a-91c6-4fce-9307-3a583d277b06","ios":"levelo://app?vid=b93ce78a-91c6-4fce-9307-3a583d277b06"},"vehicle_type_id":"4","last_reported":1753809298,"current_range_meters":14400,"station_id":"ce4bh9p2rcd13ifvqec0","pricing_plan_id":"cebpf4jnsgd1na2vs0mg"},{"bike_id":"20b3bbc6-9e70-49f2-bf23-8a8cc787936c","system_id":"levelo_inurba_marseille","lat":43.28613,"lon":5.35108,"is_reserved":false,"is_disabled":false,"rental_uris":{"android":"levelo://app?vid=20b3bbc6-9e70-49f2-bf23-8a8cc787936c","ios":"levelo://app?vid=20b3bbc6-9e70-49f2-bf23-8a8cc787936c"},"vehicle_type_id":"4","last_reported":1753809298,"current_range_meters":14400,"station_id":"ce4bhch2rcd13ifvqeug","pricing_plan_id":"cebpf4jnsgd1na2vs0mg"},{"bike_id":"d15023d0-0c6a-4f07-a484-cecb9eb44674","system_id":"levelo_inurba_marseille","lat":43.28411,"lon":5.34989,"is_reserved":false,"is_disabled":false,"rental_uris":{"android":"levelo://app?vid=d15023d0-0c6a-4f07-a484-cecb9eb44674","ios":"levelo://app?vid=d15023d0-0c6a-4f07-a484-cecb9eb44674"},"vehicle_type_id":"4","last_reported":1753809298,"current_range_meters":14400,"station_id":"ce4bhbh2rcd13ifvqepg","pricing_plan_id":"cebpf4jnsgd1na2vs0mg"},{"bike_id":"f8dc5321-8955-4a32-a70e-fa1dc7d0e8d6","system_id":"levelo_inurba_marseille","lat":43.28427,"lon":5.34966,"is_reserved":false,"is_disabled":false,"rental_uris":{"android":"levelo://app?vid=f8dc5321-8955-4a32-a70e-fa1dc7d0e8d6","ios":"levelo://app?vid=f8dc5321-8955-4a32-a70e-fa1dc7d0e8d6"},"vehicle_type_id":"4","last_reported":1753809298,"current_range_meters":14400,"station_id":"ce4bhbh2rcd13ifvqepg","pricing_plan_id":"cebpf4jnsgd1na2vs0mg"},{"bike_id":"7ae9a301-af81-4c61-b264-f97fbac78c92","system_id":"levelo_inurba_marseille","lat":43.24815,"lon":5.37458,"is_reserved":false,"is_disabled":false,"rental_uris":{"android":"levelo://app?vid=7ae9a301-af81-4c61-b264-f97fbac78c92","ios":"levelo://app?vid=7ae9a301-af81-4c61-b264-f97fbac78c92"},"vehicle_type_id":"4","last_reported":1753809298,"current_range_meters":14800,"station_id":"ce4bhgh2rcd13ifvqfb0","pricing_plan_id":"cebpf4jnsgd1na2vs0mg"},{"bike_id":"e8a0c05d-7272-4138-a1f4-e9de17058e9b","system_id":"levelo_inurba_marseille","lat":43.2829,"lon":5.35048,"is_reserved":false,"is_disabled":true,"rental_uris":{"android":"levelo://app?vid=e8a0c05d-7272-4138-a1f4-e9de17058e9b","ios":"levelo://app?vid=e8a0c05d-7272-4138-a1f4-e9de17058e9b"},"vehicle_type_id":"4","last_reported":1753809298,"current_range_meters":14800,"station_id":"ce4bhbp2rcd13ifvqerg","pricing_plan_id":"cebpf4jnsgd1na2vs0mg"},{"bike_id":"8f67ab8e-e5f0-4522-af92-e9ace9dd0207","system_id":"levelo_inurba_marseille","lat":43.265602,"lon":5.390166,"is_reserved":false,"is_disabled":false,"rental_uris":{"android":"levelo://app?vid=8f67ab8e-e5f0-4522-af92-e9ace9dd0207","ios":"levelo://app?vid=8f67ab8e-e5f0-4522-af92-e9ace9dd0207"},"vehicle_type_id":"4","last_reported":1753809298,"current_range_meters":15200,"station_id":"ce4bhe12rcd13ifvqf30","pricing_plan_id":"cebpf4jnsgd1na2vs0mg"},{"bike_id":"58d60ef7-501e-48a0-a97f-c0e09ff3aab0","system_id":"levelo_inurba_marseille","lat":43.222792,"lon":5.345958,"is_reserved":false,"is_disabled":false,"rental_uris":{"android":"levelo://app?vid=58d60ef7-501e-48a0-a97f-c0e09ff3aab0","ios":"levelo://app?vid=58d60ef7-501e-48a0-a97f-c0e09ff3aab0"},"vehicle_type_id":"4","last_reported":1753809298,"current_range_meters":15200,"station_id":"ce4bhp92rcd13ifvqhag","pricing_plan_id":"cebpf4jnsgd1na2vs0mg"},{"bike_id":"d24e661e-c377-4e80-ab69-c34eefe7c2d4","system_id":"levelo_inurba_marseille","lat":43.27381,"lon":5.36253,"is_reserved":false,"is_disabled":false,"rental_uris":{"android":"levelo://app?vid=d24e661e-c377-4e80-ab69-c34eefe7c2d4","ios":"levelo://app?vid=d24e661e-c377-4e80-ab69-c34eefe7c2d4"},"vehicle_type_id":"4","last_reported":1753809298,"current_range_meters":15200,"station_id":"","pricing_plan_id":"cebpf4jnsgd1na2vs0mg"},{"bike_id":"9bce8e5c-a4ba-4340-b778-04e8bb78b0ed","system_id":"levelo_inurba_marseille","lat":43.23178,"lon":5.39989,"is_reserved":false,"is_disabled":false,"rental_uris":{"android":"levelo://app?vid=9bce8e5c-a4ba-4340-b778-04e8bb78b0ed","ios":"levelo://app?vid=9bce8e5c-a4ba-4340-b778-04e8bb78b0ed"},"vehicle_type_id":"4","last_reported":1753809298,"current_range_meters":15200,"station_id":"ce4bhn12rcd13ifvqgqg","pricing_plan_id":"cebpf4jnsgd1na2vs0mg"},{"bike_id":"ef65f066-de96-432a-a3bf-b1b3ad0e62a1","system_id":"levelo_inurba_marseille","lat":43.32108,"lon":5.36785,"is_reserved":false,"is_disabled":false,"rental_uris":{"android":"levelo://app?vid=ef65f066-de96-432a-a3bf-b1b3ad0e62a1","ios":"levelo://app?vid=ef65f066-de96-432a-a3bf-b1b3ad0e62a1"},"vehicle_type_id":"4","last_reported":1753809298,"current_range_meters":15200,"station_id":"ce4bhrh2rcd13ifvqhug","pricing_plan_id":"cebpf4jnsgd1na2vs0mg"},{"bike_id":"9381f2fb-081b-47c8-9994-18b7b997b470","system_id":"levelo_inurba_marseille","lat":43.32052,"lon":5.40938,"is_reserved":false,"is_disabled":false,"rental_uris":{"android":"levelo://app?vid=9381f2fb-081b-47c8-9994-18b7b997b470","ios":"levelo://app?vid=9381f2fb-081b-47c8-9994-18b7b997b470"},"vehicle_type_id":"4","last_reported":1753809298,"current_range_meters":15200,"station_id":"","pricing_plan_id":"cebpf4jnsgd1na2vs0mg"},{"bike_id":"8e4fd4e2-1eee-4251-80e5-7d69f348f230","system_id":"levelo_inurba_marseille","lat":43.2732,"lon":5.39098,"is_reserved":false,"is_disabled":false,"rental_uris":{"android":"levelo://app?vid=8e4fd4e2-1eee-4251-80e5-7d69f348f230","ios":"levelo://app?vid=8e4fd4e2-1eee-4251-80e5-7d69f348f230"},"vehicle_type_id":"4","last_reported":1753809298,"current_range_meters":16000,"station_id":"ce4bhgp2rcd13ifvqfe0","pricing_plan_id":"cebpf4jnsgd1na2vs0mg"},{"bike_id":"ab9c577b-9cc3-4d9b-9e71-2ee231744295","system_id":"levelo_inurba_marseille","lat":43.281206,"lon":5.38333,"is_reserved":false,"is_disabled":false,"rental_uris":{"android":"levelo://app?vid=ab9c577b-9cc3-4d9b-9e71-2ee231744295","ios":"levelo://app?vid=ab9c577b-9cc3-4d9b-9e71-2ee231744295"},"vehicle_type_id":"4","last_reported":1753809298,"current_range_meters":16000,"station_id":"","pricing_plan_id":"cebpf4jnsgd1na2vs0mg"},{"bike_id":"61f4885e-2b18-4a8a-b089-d38275122655","system_id":"levelo_inurba_marseille","lat":43.25823,"lon":5.39435,"is_reserved":false,"is_disabled":false,"rental_uris":{"android":"levelo://app?vid=61f4885e-2b18-4a8a-b089-d38275122655","ios":"levelo://app?vid=61f4885e-2b18-4a8a-b089-d38275122655"},"vehicle_type_id":"4","last_reported":1753809298,"current_range_meters":16000,"station_id":"ce4bhip2rcd13ifvqft0","pricing_plan_id":"cebpf4jnsgd1na2vs0mg"},{"bike_id":"96f2817b-2168-4f43-87e5-f90384c5b505","system_id":"levelo_inurba_marseille","lat":43.231991,"lon":5.355468,"is_reserved":false,"is_disabled":false,"rental_uris":{"android":"levelo://app?vid=96f2817b-2168-4f43-87e5-f90384c5b505","ios":"levelo://app?vid=96f2817b-2168-4f43-87e5-f90384c5b505"},"vehicle_type_id":"4","last_reported":1753809298,"current_range_meters":16000,"station_id":"ce4bhu92rcd13ifvqi70","pricing_plan_id":"cebpf4jnsgd1na2vs0mg"},{"bike_id":"a16d408b-87b7-4ea5-b6d0-ce9b4fba403c","system_id":"levelo_inurba_marseille","lat":43.28637,"lon":5.37048,"is_reserved":false,"is_disabled":false,"rental_uris":{"android":"levelo://app?vid=a16d408b-87b7-4ea5-b6d0-ce9b4fba403c","ios":"levelo://app?vid=a16d408b-87b7-4ea5-b6d0-ce9b4fba403c"},"vehicle_type_id":"4","last_reported":1753809298,"current_range_meters":16000,"station_id":"ce4bht12rcd13ifvqi60","pricing_plan_id":"cebpf4jnsgd1na2vs0mg"},{"bike_id":"b48f5dd0-6dba-4454-bab2-8fe0e77c0439","system_id":"levelo_inurba_marseille","lat":43.24159,"lon":5.36398,"is_reserved":false,"is_disabled":false,"rental_uris":{"android":"levelo://app?vid=b48f5dd0-6dba-4454-bab2-8fe0e77c0439","ios":"levelo://app?vid=b48f5dd0-6dba-4454-bab2-8fe0e77c0439"},"vehicle_type_id":"4","last_reported":1753809298,"current_range_meters":16000,"station_id":"cpo36qri1sfpv3e86is0","pricing_plan_id":"cebpf4jnsgd1na2vs0mg"},{"bike_id":"3c65e3a4-d98b-4db2-8d36-951b9612ba65","system_id":"levelo_inurba_marseille","lat":43.23201,"lon":5.3555,"is_reserved":false,"is_disabled":false,"rental_uris":{"android":"levelo://app?vid=3c65e3a4-d98b-4db2-8d36-951b9612ba65","ios":"levelo://app?vid=3c65e3a4-d98b-4db2-8d36-951b9612ba65"},"vehicle_type_id":"4","last_reported":1753809298,"current_range_meters":16000,"station_id":"ce4bhu92rcd13ifvqi70","pricing_plan_id":"cebpf4jnsgd1na2vs0mg"},{"bike_id":"9e56c702-1158-4245-ba5a-296b64affdd5","system_id":"levelo_inurba_marseille","lat":43.23962,"lon":5.36638,"is_reserved":false,"is_disabled":false,"rental_uris":{"android":"levelo://app?vid=9e56c702-1158-4245-ba5a-296b64affdd5","ios":"levelo://app?vid=9e56c702-1158-4245-ba5a-296b64affdd5"},"vehicle_type_id":"4","last_reported":1753809298,"current_range_meters":16000,"station_id":"ce4bhi12rcd13ifvqfp0","pricing_plan_id":"cebpf4jnsgd1na2vs0mg"},{"bike_id":"3e632e67-e785-475b-93e1-b0a668624c02","system_id":"levelo_inurba_marseille","lat":43.2815,"lon":5.42637,"is_reserved":false,"is_disabled":false,"rental_uris":{"android":"levelo://app?vid=3e632e67-e785-475b-93e1-b0a668624c02","ios":"levelo://app?vid=3e632e67-e785-475b-93e1-b0a668624c02"},"vehicle_type_id":"4","last_reported":1753809298,"current_range_meters":16000,"station_id":"ce4bhnh2rcd13ifvqgug","pricing_plan_id":"cebpf4jnsgd1na2vs0mg"},{"bike_id":"e293ed13-a5f8-47d4-bbe1-9c9b52c0a2e5","system_id":"levelo_inurba_marseille","lat":43.28979,"lon":5.37844,"is_reserved":false,"is_disabled":true,"rental_uris":{"android":"levelo://app?vid=e293ed13-a5f8-47d4-bbe1-9c9b52c0a2e5","ios":"levelo://app?vid=e293ed13-a5f8-47d4-bbe1-9c9b52c0a2e5"},"vehicle_type_id":"4","last_reported":1753809298,"current_range_meters":16000,"station_id":"ce4bh9p2rcd13ifvqed0","pricing_plan_id":"cebpf4jnsgd1na2vs0mg"},{"bike_id":"45141418-1de7-4321-a5ac-3e73e63f79d2","system_id":"levelo_inurba_marseille","lat":43.28401,"lon":5.34977,"is_reserved":false,"is_disabled":false,"rental_uris":{"android":"levelo://app?vid=45141418-1de7-4321-a5ac-3e73e63f79d2","ios":"levelo://app?vid=45141418-1de7-4321-a5ac-3e73e63f79d2"},"vehicle_type_id":"4","last_reported":1753809298,"current_range_meters":16000,"station_id":"ce4bhbh2rcd13ifvqepg","pricing_plan_id":"cebpf4jnsgd1na2vs0mg"},{"bike_id":"1ae5d7eb-1e99-401d-bdff-f20d11a3625e","system_id":"levelo_inurba_marseille","lat":43.303291,"lon":5.40441,"is_reserved":false,"is_disabled":true,"rental_uris":{"android":"levelo://app?vid=1ae5d7eb-1e99-401d-bdff-f20d11a3625e","ios":"levelo://app?vid=1ae5d7eb-1e99-401d-bdff-f20d11a3625e"},"vehicle_type_id":"4","last_reported":1753809298,"current_range_meters":16000,"station_id":"","pricing_plan_id":"cebpf4jnsgd1na2vs0mg"},{"bike_id":"bb2ea87d-a546-482d-ac87-df8f159116b0","system_id":"levelo_inurba_marseille","lat":43.29199,"lon":5.35797,"is_reserved":false,"is_disabled":false,"rental_uris":{"android":"levelo://app?vid=bb2ea87d-a546-482d-ac87-df8f159116b0","ios":"levelo://app?vid=bb2ea87d-a546-482d-ac87-df8f159116b0"},"vehicle_type_id":"4","last_reported":1753809298,"current_range_meters":16400,"station_id":"ce4bhb12rcd13ifvqel0","pricing_plan_id":"cebpf4jnsgd1na2vs0mg"},{"bike_id":"d305fa65-a6e4-4a49-8d67-1fe630e34331","system_id":"levelo_inurba_marseille","lat":43.2862,"lon":5.35104,"is_reserved":false,"is_disabled":false,"rental_uris":{"android":"levelo://app?vid=d305fa65-a6e4-4a49-8d67-1fe630e34331","ios":"levelo://app?vid=d305fa65-a6e4-4a49-8d67-1fe630e34331"},"vehicle_type_id":"4","last_reported":1753809298,"current_range_meters":16400,"station_id":"ce4bhch2rcd13ifvqeug","pricing_plan_id":"cebpf4jnsgd1na2vs0mg"},{"bike_id":"bcd4db20-7cfd-4c69-92d5-9b1c35a388f7","system_id":"levelo_inurba_marseille","lat":43.23061,"lon":5.354922,"is_reserved":false,"is_disabled":false,"rental_uris":{"android":"levelo://app?vid=bcd4db20-7cfd-4c69-92d5-9b1c35a388f7","ios":"levelo://app?vid=bcd4db20-7cfd-4c69-92d5-9b1c35a388f7"},"vehicle_type_id":"4","last_reported":1753809298,"current_range_meters":16400,"station_id":"cpo3342slgdg3j2ifvpg","pricing_plan_id":"cebpf4jnsgd1na2vs0mg"},{"bike_id":"5de1b9c7-6d09-468e-a1c8-be81d6128fc7","system_id":"levelo_inurba_marseille","lat":43.30375,"lon":5.42485,"is_reserved":false,"is_disabled":false,"rental_uris":{"android":"levelo://app?vid=5de1b9c7-6d09-468e-a1c8-be81d6128fc7","ios":"levelo://app?vid=5de1b9c7-6d09-468e-a1c8-be81d6128fc7"},"vehicle_type_id":"4","last_reported":1753809298,"current_range_meters":16400,"station_id":"ce4bhoh2rcd13ifvqh6g","pricing_plan_id":"cebpf4jnsgd1na2vs0mg"},{"bike_id":"5cc5e290-c9e6-44c9-bee3-ec494abe9db7","system_id":"levelo_inurba_marseille","lat":43.30307,"lon":5.38975,"is_reserved":false,"is_disabled":false,"rental_uris":{"android":"levelo://app?vid=5cc5e290-c9e6-44c9-bee3-ec494abe9db7","ios":"levelo://app?vid=5cc5e290-c9e6-44c9-bee3-ec494abe9db7"},"vehicle_type_id":"4","last_reported":1753809298,"current_range_meters":16400,"station_id":"","pricing_plan_id":"cebpf4jnsgd1na2vs0mg"},{"bike_id":"642d267b-b2b2-4a56-8479-e23253e6949c","system_id":"levelo_inurba_marseille","lat":43.23964,"lon":5.36635,"is_reserved":false,"is_disabled":false,"rental_uris":{"android":"levelo://app?vid=642d267b-b2b2-4a56-8479-e23253e6949c","ios":"levelo://app?vid=642d267b-b2b2-4a56-8479-e23253e6949c"},"vehicle_type_id":"4","last_reported":1753809298,"current_range_meters":16400,"station_id":"ce4bhi12rcd13ifvqfp0","pricing_plan_id":"cebpf4jnsgd1na2vs0mg"},{"bike_id":"04b4dbd4-a9ff-47ad-9bb3-9eff121edcfc","system_id":"levelo_inurba_marseille","lat":43.28409,"lon":5.35,"is_reserved":false,"is_disabled":false,"rental_uris":{"android":"levelo://app?vid=04b4dbd4-a9ff-47ad-9bb3-9eff121edcfc","ios":"levelo://app?vid=04b4dbd4-a9ff-47ad-9bb3-9eff121edcfc"},"vehicle_type_id":"4","last_reported":1753809298,"current_range_meters":16400,"station_id":"ce4bhbh2rcd13ifvqepg","pricing_plan_id":"cebpf4jnsgd1na2vs0mg"},{"bike_id":"863b2e2b-1f2d-4c94-b7fc-5e3cf1d176ec","system_id":"levelo_inurba_marseille","lat":43.32104,"lon":5.3681,"is_reserved":false,"is_disabled":false,"rental_uris":{"android":"levelo://app?vid=863b2e2b-1f2d-4c94-b7fc-5e3cf1d176ec","ios":"levelo://app?vid=863b2e2b-1f2d-4c94-b7fc-5e3cf1d176ec"},"vehicle_type_id":"4","last_reported":1753809298,"current_range_meters":16400,"station_id":"ce4bhrh2rcd13ifvqhug","pricing_plan_id":"cebpf4jnsgd1na2vs0mg"},{"bike_id":"5b055d36-5e6d-455f-a1bb-5c8293bd7f32","system_id":"levelo_inurba_marseille","lat":43.3033,"lon":5.4044,"is_reserved":false,"is_disabled":false,"rental_uris":{"android":"levelo://app?vid=5b055d36-5e6d-455f-a1bb-5c8293bd7f32","ios":"levelo://app?vid=5b055d36-5e6d-455f-a1bb-5c8293bd7f32"},"vehicle_type_id":"4","last_reported":1753809298,"current_range_meters":16400,"station_id":"ce4bh012rcd13ifvqd10","pricing_plan_id":"cebpf4jnsgd1na2vs0mg"},{"bike_id":"006989d0-e964-4aa4-ad1e-5b81a65c337e","system_id":"levelo_inurba_marseille","lat":43.30805,"lon":5.38163,"is_reserved":false,"is_disabled":true,"rental_uris":{"android":"levelo://app?vid=006989d0-e964-4aa4-ad1e-5b81a65c337e","ios":"levelo://app?vid=006989d0-e964-4aa4-ad1e-5b81a65c337e"},"vehicle_type_id":"4","last_reported":1753809298,"current_range_meters":16400,"station_id":"ce4bgt12rcd13ifvqce0","pricing_plan_id":"cebpf4jnsgd1na2vs0mg"},{"bike_id":"00de3457-bb26-4f86-be97-d29604933a4d","system_id":"levelo_inurba_marseille","lat":43.28639,"lon":5.371861,"is_reserved":false,"is_disabled":false,"rental_uris":{"android":"levelo://app?vid=00de3457-bb26-4f86-be97-d29604933a4d","ios":"levelo://app?vid=00de3457-bb26-4f86-be97-d29604933a4d"},"vehicle_type_id":"4","last_reported":1753809298,"current_range_meters":16400,"station_id":"","pricing_plan_id":"cebpf4jnsgd1na2vs0mg"},{"bike_id":"d915e9bd-d934-4ddd-badd-5ec88cf451fc","system_id":"levelo_inurba_marseille","lat":43.28617,"lon":5.35111,"is_reserved":false,"is_disabled":false,"rental_uris":{"android":"levelo://app?vid=d915e9bd-d934-4ddd-badd-5ec88cf451fc","ios":"levelo://app?vid=d915e9bd-d934-4ddd-badd-5ec88cf451fc"},"vehicle_type_id":"4","last_reported":1753809298,"current_range_meters":16400,"station_id":"ce4bhch2rcd13ifvqeug","pricing_plan_id":"cebpf4jnsgd1na2vs0mg"},{"bike_id":"d77a0db6-09c1-4add-9e54-6f6a5c0286b6","system_id":"levelo_inurba_marseille","lat":43.2926,"lon":5.38438,"is_reserved":false,"is_disabled":false,"rental_uris":{"android":"levelo://app?vid=d77a0db6-09c1-4add-9e54-6f6a5c0286b6","ios":"levelo://app?vid=d77a0db6-09c1-4add-9e54-6f6a5c0286b6"},"vehicle_type_id":"4","last_reported":1753809298,"current_range_meters":16400,"station_id":"ce4bh692rcd13ifvqea0","pricing_plan_id":"cebpf4jnsgd1na2vs0mg"},{"bike_id":"135ab1ea-fc9a-4785-9240-6bfa3adf7c7c","system_id":"levelo_inurba_marseille","lat":43.32372,"lon":5.36732,"is_reserved":false,"is_disabled":false,"rental_uris":{"android":"levelo://app?vid=135ab1ea-fc9a-4785-9240-6bfa3adf7c7c","ios":"levelo://app?vid=135ab1ea-fc9a-4785-9240-6bfa3adf7c7c"},"vehicle_type_id":"4","last_reported":1753809298,"current_range_meters":16800,"station_id":"ce4bhsh2rcd13ifvqi2g","pricing_plan_id":"cebpf4jnsgd1na2vs0mg"},{"bike_id":"22a76ee8-f553-454b-8e2c-89c9a43fef04","system_id":"levelo_inurba_marseille","lat":43.25823,"lon":5.39425,"is_reserved":false,"is_disabled":false,"rental_uris":{"android":"levelo://app?vid=22a76ee8-f553-454b-8e2c-89c9a43fef04","ios":"levelo://app?vid=22a76ee8-f553-454b-8e2c-89c9a43fef04"},"vehicle_type_id":"4","last_reported":1753809298,"current_range_meters":16800,"station_id":"ce4bhip2rcd13ifvqft0","pricing_plan_id":"cebpf4jnsgd1na2vs0mg"},{"bike_id":"8c3ebc72-5bf5-411d-aff8-aa0a81276e9a","system_id":"levelo_inurba_marseille","lat":43.28084,"lon":5.39663,"is_reserved":false,"is_disabled":false,"rental_uris":{"android":"levelo://app?vid=8c3ebc72-5bf5-411d-aff8-aa0a81276e9a","ios":"levelo://app?vid=8c3ebc72-5bf5-411d-aff8-aa0a81276e9a"},"vehicle_type_id":"4","last_reported":1753809298,"current_range_meters":16800,"station_id":"ce4bho12rcd13ifvqh2g","pricing_plan_id":"cebpf4jnsgd1na2vs0mg"},{"bike_id":"d2a74895-e846-45f5-a706-f79dccbdde17","system_id":"levelo_inurba_marseille","lat":43.28628,"lon":5.35104,"is_reserved":false,"is_disabled":false,"rental_uris":{"android":"levelo://app?vid=d2a74895-e846-45f5-a706-f79dccbdde17","ios":"levelo://app?vid=d2a74895-e846-45f5-a706-f79dccbdde17"},"vehicle_type_id":"4","last_reported":1753809298,"current_range_meters":16800,"station_id":"ce4bhch2rcd13ifvqeug","pricing_plan_id":"cebpf4jnsgd1na2vs0mg"},{"bike_id":"e835e740-02a8-4b55-b83d-8f7e332e158e","system_id":"levelo_inurba_marseille","lat":43.23083,"lon":5.35448,"is_reserved":false,"is_disabled":false,"rental_uris":{"android":"levelo://app?vid=e835e740-02a8-4b55-b83d-8f7e332e158e","ios":"levelo://app?vid=e835e740-02a8-4b55-b83d-8f7e332e158e"},"vehicle_type_id":"4","last_reported":1753809298,"current_range_meters":16800,"station_id":"cpo3342slgdg3j2ifvpg","pricing_plan_id":"cebpf4jnsgd1na2vs0mg"},{"bike_id":"f129605f-c561-462b-9dd8-38b1fae764e6","system_id":"levelo_inurba_marseille","lat":43.32353,"lon":5.3676,"is_reserved":false,"is_disabled":false,"rental_uris":{"android":"levelo://app?vid=f129605f-c561-462b-9dd8-38b1fae764e6","ios":"levelo://app?vid=f129605f-c561-462b-9dd8-38b1fae764e6"},"vehicle_type_id":"4","last_reported":1753809298,"current_range_meters":16800,"station_id":"ce4bhsh2rcd13ifvqi2g","pricing_plan_id":"cebpf4jnsgd1na2vs0mg"},{"bike_id":"24ddc855-9db1-447b-8cc7-fb33f85a47fb","system_id":"levelo_inurba_marseille","lat":43.30595,"lon":5.37213,"is_reserved":false,"is_disabled":false,"rental_uris":{"android":"levelo://app?vid=24ddc855-9db1-447b-8cc7-fb33f85a47fb","ios":"levelo://app?vid=24ddc855-9db1-447b-8cc7-fb33f85a47fb"},"vehicle_type_id":"4","last_reported":1753809298,"current_range_meters":16800,"station_id":"ce4bgqh2rcd13ifvqc4g","pricing_plan_id":"cebpf4jnsgd1na2vs0mg"},{"bike_id":"daabd21d-fe72-4bef-9caa-c5886e1b6fe4","system_id":"levelo_inurba_marseille","lat":43.3201,"lon":5.374266,"is_reserved":false,"is_disabled":false,"rental_uris":{"android":"levelo://app?vid=daabd21d-fe72-4bef-9caa-c5886e1b6fe4","ios":"levelo://app?vid=daabd21d-fe72-4bef-9caa-c5886e1b6fe4"},"vehicle_type_id":"4","last_reported":1753809298,"current_range_meters":16800,"station_id":"","pricing_plan_id":"cebpf4jnsgd1na2vs0mg"},{"bike_id":"b30f820b-4554-463e-a0a7-3a51d0ebcf2a","system_id":"levelo_inurba_marseille","lat":43.26828,"lon":5.4028,"is_reserved":false,"is_disabled":false,"rental_uris":{"android":"levelo://app?vid=b30f820b-4554-463e-a0a7-3a51d0ebcf2a","ios":"levelo://app?vid=b30f820b-4554-463e-a0a7-3a51d0ebcf2a"},"vehicle_type_id":"4","last_reported":1753809298,"current_range_meters":16800,"station_id":"ce501612rcd8frsf0b60","pricing_plan_id":"cebpf4jnsgd1na2vs0mg"},{"bike_id":"db37252e-04cf-4e40-906c-1eef23088990","system_id":"levelo_inurba_marseille","lat":43.24645,"lon":5.38891,"is_reserved":false,"is_disabled":false,"rental_uris":{"android":"levelo://app?vid=db37252e-04cf-4e40-906c-1eef23088990","ios":"levelo://app?vid=db37252e-04cf-4e40-906c-1eef23088990"},"vehicle_type_id":"4","last_reported":1753809298,"current_range_meters":16800,"station_id":"ce4bhg12rcd13ifvqf60","pricing_plan_id":"cebpf4jnsgd1na2vs0mg"},{"bike_id":"0316867c-9b7c-41d8-8300-64868abbe8ab","system_id":"levelo_inurba_marseille","lat":43.2894,"lon":5.36638,"is_reserved":false,"is_disabled":false,"rental_uris":{"android":"levelo://app?vid=0316867c-9b7c-41d8-8300-64868abbe8ab","ios":"levelo://app?vid=0316867c-9b7c-41d8-8300-64868abbe8ab"},"vehicle_type_id":"4","last_reported":1753809298,"current_range_meters":16800,"station_id":"ce4bhap2rcd13ifvqek0","pricing_plan_id":"cebpf4jnsgd1na2vs0mg"},{"bike_id":"d1fde4cb-722c-4fa2-a329-99c3a8403a83","system_id":"levelo_inurba_marseille","lat":43.28609,"lon":5.35093,"is_reserved":false,"is_disabled":false,"rental_uris":{"android":"levelo://app?vid=d1fde4cb-722c-4fa2-a329-99c3a8403a83","ios":"levelo://app?vid=d1fde4cb-722c-4fa2-a329-99c3a8403a83"},"vehicle_type_id":"4","last_reported":1753809298,"current_range_meters":16800,"station_id":"ce4bhch2rcd13ifvqeug","pricing_plan_id":"cebpf4jnsgd1na2vs0mg"},{"bike_id":"387c87e1-c5b1-48c0-9404-1355c544d5a6","system_id":"levelo_inurba_marseille","lat":43.286179,"lon":5.350863,"is_reserved":false,"is_disabled":false,"rental_uris":{"android":"levelo://app?vid=387c87e1-c5b1-48c0-9404-1355c544d5a6","ios":"levelo://app?vid=387c87e1-c5b1-48c0-9404-1355c544d5a6"},"vehicle_type_id":"4","last_reported":1753809298,"current_range_meters":17200,"station_id":"ce4bhch2rcd13ifvqeug","pricing_plan_id":"cebpf4jnsgd1na2vs0mg"},{"bike_id":"6bbfeed4-58db-41ab-9853-70043099cc03","system_id":"levelo_inurba_marseille","lat":43.27821,"lon":5.39211,"is_reserved":false,"is_disabled":false,"rental_uris":{"android":"levelo://app?vid=6bbfeed4-58db-41ab-9853-70043099cc03","ios":"levelo://app?vid=6bbfeed4-58db-41ab-9853-70043099cc03"},"vehicle_type_id":"4","last_reported":1753809298,"current_range_meters":16800,"station_id":"ce4bhjp2rcd13ifvqga0","pricing_plan_id":"cebpf4jnsgd1na2vs0mg"},{"bike_id":"23cb5642-15b1-4dff-8751-77349dab4204","system_id":"levelo_inurba_marseille","lat":43.22963,"lon":5.35337,"is_reserved":false,"is_disabled":false,"rental_uris":{"android":"levelo://app?vid=23cb5642-15b1-4dff-8751-77349dab4204","ios":"levelo://app?vid=23cb5642-15b1-4dff-8751-77349dab4204"},"vehicle_type_id":"4","last_reported":1753809298,"current_range_meters":17200,"station_id":"","pricing_plan_id":"cebpf4jnsgd1na2vs0mg"},{"bike_id":"b6dc1e10-0e8e-4b8b-ac14-8b9148a007dc","system_id":"levelo_inurba_marseille","lat":43.2963,"lon":5.40591,"is_reserved":false,"is_disabled":false,"rental_uris":{"android":"levelo://app?vid=b6dc1e10-0e8e-4b8b-ac14-8b9148a007dc","ios":"levelo://app?vid=b6dc1e10-0e8e-4b8b-ac14-8b9148a007dc"},"vehicle_type_id":"4","last_reported":1753809298,"current_range_meters":17200,"station_id":"ce4bh0h2rcd13ifvqd60","pricing_plan_id":"cebpf4jnsgd1na2vs0mg"},{"bike_id":"70cde570-e018-4c9d-a397-bdf9624c4205","system_id":"levelo_inurba_marseille","lat":43.29522,"lon":5.38545,"is_reserved":false,"is_disabled":false,"rental_uris":{"android":"levelo://app?vid=70cde570-e018-4c9d-a397-bdf9624c4205","ios":"levelo://app?vid=70cde570-e018-4c9d-a397-bdf9624c4205"},"vehicle_type_id":"4","last_reported":1753809298,"current_range_meters":17200,"station_id":"ce4bgih2rcd13ifvqba0","pricing_plan_id":"cebpf4jnsgd1na2vs0mg"},{"bike_id":"6a8221ad-83c9-40bd-8997-bb175766af1b","system_id":"levelo_inurba_marseille","lat":43.28407,"lon":5.34978,"is_reserved":false,"is_disabled":false,"rental_uris":{"android":"levelo://app?vid=6a8221ad-83c9-40bd-8997-bb175766af1b","ios":"levelo://app?vid=6a8221ad-83c9-40bd-8997-bb175766af1b"},"vehicle_type_id":"4","last_reported":1753809298,"current_range_meters":17200,"station_id":"ce4bhbh2rcd13ifvqepg","pricing_plan_id":"cebpf4jnsgd1na2vs0mg"},{"bike_id":"7fc2e429-b4c1-4214-acab-92f75faa1768","system_id":"levelo_inurba_marseille","lat":43.29873,"lon":5.38904,"is_reserved":false,"is_disabled":false,"rental_uris":{"android":"levelo://app?vid=7fc2e429-b4c1-4214-acab-92f75faa1768","ios":"levelo://app?vid=7fc2e429-b4c1-4214-acab-92f75faa1768"},"vehicle_type_id":"4","last_reported":1753809298,"current_range_meters":17200,"station_id":"ce4bh392rcd13ifvqdl0","pricing_plan_id":"cebpf4jnsgd1na2vs0mg"},{"bike_id":"5e86d76b-d91e-4117-892d-2fc9519a61c9","system_id":"levelo_inurba_marseille","lat":43.29003,"lon":5.3561,"is_reserved":false,"is_disabled":false,"rental_uris":{"android":"levelo://app?vid=5e86d76b-d91e-4117-892d-2fc9519a61c9","ios":"levelo://app?vid=5e86d76b-d91e-4117-892d-2fc9519a61c9"},