{"last_updated":1756199497,"ttl":60,"version":"2.2","data":{"bikes":[{"bike_id":"320f3e56-46bd-45f5-b26b-732a477dff45","system_id":"levelo_inurba_marseille","lat":43.30153,"lon":5.38088,"is_reserved":false,"is_disabled":false,"rental_uris":{"android":"levelo://app?vid=320f3e56-46bd-45f5-b26b-732a477dff45","ios":"levelo://app?vid=320f3e56-46bd-45f5-b26b-732a477dff45"},"vehicle_type_id":"4","last_reported":1756199497,"current_range_meters":3200,"station_id":"ce4bgjp2rcd13ifvqbh0","pricing_plan_id":"cebpf4jnsgd1na2vs0mg"},{"bike_id":"147a01e9-45e9-4920-8515-3a693293a525","system_id":"levelo_inurba_marseille","lat":43.28269,"lon":5.35084,"is_reserved":false,"is_disabled":false,"rental_uris":{"android":"levelo://app?vid=147a01e9-45e9-4920-8515-3a693293a525","ios":"levelo://app?vid=147a01e9-45e9-4920-8515-3a693293a525"},"vehicle_type_id":"4","last_reported":1756199497,"current_range_meters":3200,"station_id":"ce4bhbp2rcd13ifvqerg","pricing_plan_id":"cebpf4jnsgd1na2vs0mg"},{"bike_id":"5a94cd1f-5ae1-47d0-a15d-d5554856827f","system_id":"levelo_inurba_marseille","lat":43.30599,"lon":5.37534,"is_reserved":false,"is_disabled":false,"rental_uris":{"android":"levelo://app?vid=5a94cd1f-5ae1-47d0-a15d-d5554856827f","ios":"levelo://app?vid=5a94cd1f-5ae1-47d0-a15d-d5554856827f"},"vehicle_type_id":"4","last_reported":1756199497,"current_range_meters":3600,"station_id":"","pricing_plan_id":"cebpf4jnsgd1na2vs0mg"},{"bike_id":"0490c530-845d-44f9-bf75-09a8b4d2b9b9","system_id":"levelo_inurba_marseille","lat":43.297545,"lon":5.38086,"is_reserved":false,"is_disabled":false,"rental_uris":{"android":"levelo://app?vid=0490c530-845d-44f9-bf75-09a8b4d2b9b9","ios":"levelo://app?vid=0490c530-845d-44f9-bf75-09a8b4d2b9b9"},"vehicle_type_id":"4","last_reported":1756199497,"current_range_meters":3600,"station_id":"ce4bgip2rcd13ifvqbb0","pricing_plan_id":"cebpf4jnsgd1na2vs0mg"},{"bike_id":"44ce78c9-c7e8-4cae-881e-b43a8a4aea0a","system_id":"levelo_inurba_marseille","lat":43.27824,"lon":5.40707,"is_reserved":false,"is_disabled":false,"rental_uris":{"android":"levelo://app?vid=44ce78c9-c7e8-4cae-881e-b43a8a4aea0a","ios":"levelo://app?vid=44ce78c9-c7e8-4cae-881e-b43a8a4aea0a"},"vehicle_type_id":"4","last_reported":1756199497,"current_range_meters":3600,"station_id":"ce4bhnh2rcd13ifvqgtg","pricing_plan_id":"cebpf4jnsgd1na2vs0mg"},{"bike_id":"158fe4a9-48cc-491f-95fd-2aa73bd55cc0","system_id":"levelo_inurba_marseille","lat":43.30564,"lon":5.36917,"is_reserved":false,"is_disabled":false,"rental_uris":{"android":"levelo://app?vid=158fe4a9-48cc-491f-95fd-2aa73bd55cc0","ios":"levelo://app?vid=158fe4a9-48cc-491f-95fd-2aa73bd55cc0"},"vehicle_type_id":"4","last_reported":1756199497,"current_range_meters":4000,"station_id":"","pricing_plan_id":"cebpf4jnsgd1na2vs0mg"},{"bike_id":"80a26986-4626-4f55-9fff-fde3cb354347","system_id":"levelo_inurba_marseille","lat":43.29582,"lon":5.36743,"is_reserved":false,"is_disabled":false,"rental_uris":{"android":"levelo://app?vid=80a26986-4626-4f55-9fff-fde3cb354347","ios":"levelo://app?vid=80a26986-4626-4f55-9fff-fde3cb354347"},"vehicle_type_id":"4","last_reported":1756199497,"current_range_meters":4000,"station_id":"ce4bgph2rcd13ifvqc2g","pricing_plan_id":"cebpf4jnsgd1na2vs0mg"},{"bike_id":"77cdb76e-1c86-4716-a6af-d29a3605cc21","system_id":"levelo_inurba_marseille","lat":43.30952,"lon":5.39043,"is_reserved":false,"is_disabled":false,"rental_uris":{"android":"levelo://app?vid=77cdb76e-1c86-4716-a6af-d29a3605cc21","ios":"levelo://app?vid=77cdb76e-1c86-4716-a6af-d29a3605cc21"},"vehicle_type_id":"4","last_reported":1756199497,"current_range_meters":4000,"station_id":"ce4bgup2rcd13ifvqco0","pricing_plan_id":"cebpf4jnsgd1na2vs0mg"},{"bike_id":"8278d03d-5584-48a8-a86a-7847a162c713","system_id":"levelo_inurba_marseille","lat":43.30909,"lon":5.38161,"is_reserved":false,"is_disabled":false,"rental_uris":{"android":"levelo://app?vid=8278d03d-5584-48a8-a86a-7847a162c713","ios":"levelo://app?vid=8278d03d-5584-48a8-a86a-7847a162c713"},"vehicle_type_id":"4","last_reported":1756199497,"current_range_meters":4400,"station_id":"","pricing_plan_id":"cebpf4jnsgd1na2vs0mg"},{"bike_id":"14d0ef54-ef75-42f0-9e69-2dc557c63355","system_id":"levelo_inurba_marseille","lat":43.25498,"lon":5.37649,"is_reserved":false,"is_disabled":false,"rental_uris":{"android":"levelo://app?vid=14d0ef54-ef75-42f0-9e69-2dc557c63355","ios":"levelo://app?vid=14d0ef54-ef75-42f0-9e69-2dc557c63355"},"vehicle_type_id":"4","last_reported":1756199497,"current_range_meters":4800,"station_id":"ce4bhh12rcd13ifvqff0","pricing_plan_id":"cebpf4jnsgd1na2vs0mg"},{"bike_id":"2769db35-9fe8-4d80-af73-d266e1196cc3","system_id":"levelo_inurba_marseille","lat":43.27818,"lon":5.40721,"is_reserved":false,"is_disabled":false,"rental_uris":{"android":"levelo://app?vid=2769db35-9fe8-4d80-af73-d266e1196cc3","ios":"levelo://app?vid=2769db35-9fe8-4d80-af73-d266e1196cc3"},"vehicle_type_id":"4","last_reported":1756199497,"current_range_meters":5600,"station_id":"ce4bhnh2rcd13ifvqgtg","pricing_plan_id":"cebpf4jnsgd1na2vs0mg"},{"bike_id":"7cad09b0-44f7-43d1-afc8-954590e4f7f2","system_id":"levelo_inurba_marseille","lat":43.29032,"lon":5.3757,"is_reserved":false,"is_disabled":false,"rental_uris":{"android":"levelo://app?vid=7cad09b0-44f7-43d1-afc8-954590e4f7f2","ios":"levelo://app?vid=7cad09b0-44f7-43d1-afc8-954590e4f7f2"},"vehicle_type_id":"4","last_reported":1756199497,"current_range_meters":6000,"station_id":"ce4bh692rcd13ifvqe90","pricing_plan_id":"cebpf4jnsgd1na2vs0mg"},{"bike_id":"3fcb1ecf-014d-414b-8e46-6cb5a3a18d8d","system_id":"levelo_inurba_marseille","lat":43.270963,"lon":5.387159,"is_reserved":false,"is_disabled":false,"rental_uris":{"android":"levelo://app?vid=3fcb1ecf-014d-414b-8e46-6cb5a3a18d8d","ios":"levelo://app?vid=3fcb1ecf-014d-414b-8e46-6cb5a3a18d8d"},"vehicle_type_id":"4","last_reported":1756199497,"current_range_meters":6400,"station_id":"","pricing_plan_id":"cebpf4jnsgd1na2vs0mg"},{"bike_id":"459f3c5b-caeb-4d46-a351-46b218540e0d","system_id":"levelo_inurba_marseille","lat":43.27172,"lon":5.40986,"is_reserved":false,"is_disabled":false,"rental_uris":{"android":"levelo://app?vid=459f3c5b-caeb-4d46-a351-46b218540e0d","ios":"levelo://app?vid=459f3c5b-caeb-4d46-a351-46b218540e0d"},"vehicle_type_id":"4","last_reported":1756199497,"current_range_meters":6400,"station_id":"ce4bhl12rcd13ifvqgf0","pricing_plan_id":"cebpf4jnsgd1na2vs0mg"},{"bike_id":"b2dc4ab3-2395-4d9f-8e07-ef1f157dc94e","system_id":"levelo_inurba_marseille","lat":43.241679,"lon":5.364085,"is_reserved":false,"is_disabled":false,"rental_uris":{"android":"levelo://app?vid=b2dc4ab3-2395-4d9f-8e07-ef1f157dc94e","ios":"levelo://app?vid=b2dc4ab3-2395-4d9f-8e07-ef1f157dc94e"},"vehicle_type_id":"4","last_reported":1756199497,"current_range_meters":6400,"station_id":"cpo36qri1sfpv3e86is0","pricing_plan_id":"cebpf4jnsgd1na2vs0mg"},{"bike_id":"c4ccc10f-8ccd-44be-a00a-f6ebdc6ec159","system_id":"levelo_inurba_marseille","lat":43.30411,"lon":5.43447,"is_reserved":false,"is_disabled":false,"rental_uris":{"android":"levelo://app?vid=c4ccc10f-8ccd-44be-a00a-f6ebdc6ec159","ios":"levelo://app?vid=c4ccc10f-8ccd-44be-a00a-f6ebdc6ec159"},"vehicle_type_id":"4","last_reported":1756199497,"current_range_meters":6800,"station_id":"","pricing_plan_id":"cebpf4jnsgd1na2vs0mg"},{"bike_id":"5460667f-33c3-4e8d-8ece-a4e491713ed9","system_id":"levelo_inurba_marseille","lat":43.29657,"lon":5.40376,"is_reserved":false,"is_disabled":false,"rental_uris":{"android":"levelo://app?vid=5460667f-33c3-4e8d-8ece-a4e491713ed9","ios":"levelo://app?vid=5460667f-33c3-4e8d-8ece-a4e491713ed9"},"vehicle_type_id":"4","last_reported":1756199497,"current_range_meters":6800,"station_id":"","pricing_plan_id":"cebpf4jnsgd1na2vs0mg"},{"bike_id":"fb0ecd7c-2c0f-42f1-9e73-9448c9893367","system_id":"levelo_inurba_marseille","lat":43.26467,"lon":5.37021,"is_reserved":false,"is_disabled":false,"rental_uris":{"android":"levelo://app?vid=fb0ecd7c-2c0f-42f1-9e73-9448c9893367","ios":"levelo://app?vid=fb0ecd7c-2c0f-42f1-9e73-9448c9893367"},"vehicle_type_id":"4","last_reported":1756199497,"current_range_meters":6800,"station_id":"","pricing_plan_id":"cebpf4jnsgd1na2vs0mg"},{"bike_id":"0394a526-4bd8-4efa-bec2-3e8db1fa215c","system_id":"levelo_inurba_marseille","lat":43.30543,"lon":5.36539,"is_reserved":false,"is_disabled":false,"rental_uris":{"android":"levelo://app?vid=0394a526-4bd8-4efa-bec2-3e8db1fa215c","ios":"levelo://app?vid=0394a526-4bd8-4efa-bec2-3e8db1fa215c"},"vehicle_type_id":"4","last_reported":1756199497,"current_range_meters":6800,"station_id":"ce4bgs12rcd13ifvqcag","pricing_plan_id":"cebpf4jnsgd1na2vs0mg"},{"bike_id":"ae6e7466-f79a-43dd-ba01-51043638613b","system_id":"levelo_inurba_marseille","lat":43.22875,"lon":5.35288,"is_reserved":false,"is_disabled":false,"rental_uris":{"android":"levelo://app?vid=ae6e7466-f79a-43dd-ba01-51043638613b","ios":"levelo://app?vid=ae6e7466-f79a-43dd-ba01-51043638613b"},"vehicle_type_id":"4","last_reported":1756199497,"current_range_meters":6800,"station_id":"","pricing_plan_id":"cebpf4jnsgd1na2vs0mg"},{"bike_id":"5600247e-5be9-42ab-871a-21be4f245096","system_id":"levelo_inurba_marseille","lat":43.28402,"lon":5.34989,"is_reserved":false,"is_disabled":false,"rental_uris":{"android":"levelo://app?vid=5600247e-5be9-42ab-871a-21be4f245096","ios":"levelo://app?vid=5600247e-5be9-42ab-871a-21be4f245096"},"vehicle_type_id":"4","last_reported":1756199497,"current_range_meters":7200,"station_id":"ce4bhbh2rcd13ifvqepg","pricing_plan_id":"cebpf4jnsgd1na2vs0mg"},{"bike_id":"2a3016f2-32bb-4f7a-b933-f0f47d2a2fdf","system_id":"levelo_inurba_marseille","lat":43.26062,"lon":5.39397,"is_reserved":false,"is_disabled":false,"rental_uris":{"android":"levelo://app?vid=2a3016f2-32bb-4f7a-b933-f0f47d2a2fdf","ios":"levelo://app?vid=2a3016f2-32bb-4f7a-b933-f0f47d2a2fdf"},"vehicle_type_id":"4","last_reported":1756199497,"current_range_meters":7200,"station_id":"ce4bhh92rcd13ifvqfj0","pricing_plan_id":"cebpf4jnsgd1na2vs0mg"},{"bike_id":"f1fe5379-1bdf-4970-ae21-6bf7f8fac95a","system_id":"levelo_inurba_marseille","lat":43.29505,"lon":5.37557,"is_reserved":false,"is_disabled":false,"rental_uris":{"android":"levelo://app?vid=f1fe5379-1bdf-4970-ae21-6bf7f8fac95a","ios":"levelo://app?vid=f1fe5379-1bdf-4970-ae21-6bf7f8fac95a"},"vehicle_type_id":"4","last_reported":1756199497,"current_range_meters":8000,"station_id":"ce4bgkp2rcd13ifvqbmg","pricing_plan_id":"cebpf4jnsgd1na2vs0mg"},{"bike_id":"4914b99b-bbad-44c9-8c7f-2b8a4a7b66e2","system_id":"levelo_inurba_marseille","lat":43.31228,"lon":5.36851,"is_reserved":false,"is_disabled":false,"rental_uris":{"android":"levelo://app?vid=4914b99b-bbad-44c9-8c7f-2b8a4a7b66e2","ios":"levelo://app?vid=4914b99b-bbad-44c9-8c7f-2b8a4a7b66e2"},"vehicle_type_id":"4","last_reported":1756199497,"current_range_meters":8000,"station_id":"ce4bgl92rcd13ifvqbq0","pricing_plan_id":"cebpf4jnsgd1na2vs0mg"},{"bike_id":"0d944743-e134-48e5-94b4-4ee23c5bf363","system_id":"levelo_inurba_marseille","lat":43.23148,"lon":5.437174,"is_reserved":false,"is_disabled":false,"rental_uris":{"android":"levelo://app?vid=0d944743-e134-48e5-94b4-4ee23c5bf363","ios":"levelo://app?vid=0d944743-e134-48e5-94b4-4ee23c5bf363"},"vehicle_type_id":"4","last_reported":1756199497,"current_range_meters":8400,"station_id":"ce4bhmp2rcd13ifvqgog","pricing_plan_id":"cebpf4jnsgd1na2vs0mg"},{"bike_id":"f5b9bdf3-e981-4ec9-b3c8-e8477d05dbe8","system_id":"levelo_inurba_marseille","lat":43.32538,"lon":5.41442,"is_reserved":false,"is_disabled":false,"rental_uris":{"android":"levelo://app?vid=f5b9bdf3-e981-4ec9-b3c8-e8477d05dbe8","ios":"levelo://app?vid=f5b9bdf3-e981-4ec9-b3c8-e8477d05dbe8"},"vehicle_type_id":"4","last_reported":1756199497,"current_range_meters":8400,"station_id":"ce4bhq12rcd13ifvqhhg","pricing_plan_id":"cebpf4jnsgd1na2vs0mg"},{"bike_id":"572e340e-d72c-464a-9ef1-e4a3c0afb1e3","system_id":"levelo_inurba_marseille","lat":43.295715,"lon":5.37524,"is_reserved":false,"is_disabled":false,"rental_uris":{"android":"levelo://app?vid=572e340e-d72c-464a-9ef1-e4a3c0afb1e3","ios":"levelo://app?vid=572e340e-d72c-464a-9ef1-e4a3c0afb1e3"},"vehicle_type_id":"4","last_reported":1756199497,"current_range_meters":8400,"station_id":"ce4bgh92rcd13ifvqb50","pricing_plan_id":"cebpf4jnsgd1na2vs0mg"},{"bike_id":"8c88195d-5a44-43ef-b609-ac6fb7affa83","system_id":"levelo_inurba_marseille","lat":43.28158,"lon":5.42651,"is_reserved":false,"is_disabled":false,"rental_uris":{"android":"levelo://app?vid=8c88195d-5a44-43ef-b609-ac6fb7affa83","ios":"levelo://app?vid=8c88195d-5a44-43ef-b609-ac6fb7affa83"},"vehicle_type_id":"4","last_reported":1756199497,"current_range_meters":8800,"station_id":"ce4bhnh2rcd13ifvqgug","pricing_plan_id":"cebpf4jnsgd1na2vs0mg"},{"bike_id":"236f1a17-bd84-4b8e-977f-7df7d8cf402c","system_id":"levelo_inurba_marseille","lat":43.308159,"lon":5.435257,"is_reserved":false,"is_disabled":true,"rental_uris":{"android":"levelo://app?vid=236f1a17-bd84-4b8e-977f-7df7d8cf402c","ios":"levelo://app?vid=236f1a17-bd84-4b8e-977f-7df7d8cf402c"},"vehicle_type_id":"4","last_reported":1756199497,"current_range_meters":8800,"station_id":"ce4bhph2rcd13ifvqheg","pricing_plan_id":"cebpf4jnsgd1na2vs0mg"},{"bike_id":"6a148ec3-6ce8-4203-8b02-7d76e63f0d00","system_id":"levelo_inurba_marseille","lat":43.25504,"lon":5.37655,"is_reserved":false,"is_disabled":false,"rental_uris":{"android":"levelo://app?vid=6a148ec3-6ce8-4203-8b02-7d76e63f0d00","ios":"levelo://app?vid=6a148ec3-6ce8-4203-8b02-7d76e63f0d00"},"vehicle_type_id":"4","last_reported":1756199497,"current_range_meters":8800,"station_id":"ce4bhh12rcd13ifvqff0","pricing_plan_id":"cebpf4jnsgd1na2vs0mg"},{"bike_id":"a56b1b3b-6984-44e2-8f1c-7aa6cacead20","system_id":"levelo_inurba_marseille","lat":43.23958,"lon":5.36637,"is_reserved":false,"is_disabled":false,"rental_uris":{"android":"levelo://app?vid=a56b1b3b-6984-44e2-8f1c-7aa6cacead20","ios":"levelo://app?vid=a56b1b3b-6984-44e2-8f1c-7aa6cacead20"},"vehicle_type_id":"4","last_reported":1756199497,"current_range_meters":8800,"station_id":"ce4bhi12rcd13ifvqfp0","pricing_plan_id":"cebpf4jnsgd1na2vs0mg"},{"bike_id":"73a68aec-9723-43c7-a494-6d76d73f9e76","system_id":"levelo_inurba_marseille","lat":43.31381,"lon":5.36715,"is_reserved":false,"is_disabled":false,"rental_uris":{"android":"levelo://app?vid=73a68aec-9723-43c7-a494-6d76d73f9e76","ios":"levelo://app?vid=73a68aec-9723-43c7-a494-6d76d73f9e76"},"vehicle_type_id":"4","last_reported":1756199497,"current_range_meters":8800,"station_id":"ce4bgr92rcd13ifvqc6g","pricing_plan_id":"cebpf4jnsgd1na2vs0mg"},{"bike_id":"2212480b-bee6-4788-b430-60f8d621ca9e","system_id":"levelo_inurba_marseille","lat":43.30538,"lon":5.36534,"is_reserved":false,"is_disabled":false,"rental_uris":{"android":"levelo://app?vid=2212480b-bee6-4788-b430-60f8d621ca9e","ios":"levelo://app?vid=2212480b-bee6-4788-b430-60f8d621ca9e"},"vehicle_type_id":"4","last_reported":1756199497,"current_range_meters":8800,"station_id":"ce4bgs12rcd13ifvqcag","pricing_plan_id":"cebpf4jnsgd1na2vs0mg"},{"bike_id":"03f8797f-79e8-4b71-a934-437f274b1762","system_id":"levelo_inurba_marseille","lat":43.28428,"lon":5.34999,"is_reserved":false,"is_disabled":false,"rental_uris":{"android":"levelo://app?vid=03f8797f-79e8-4b71-a934-437f274b1762","ios":"levelo://app?vid=03f8797f-79e8-4b71-a934-437f274b1762"},"vehicle_type_id":"4","last_reported":1756199497,"current_range_meters":9200,"station_id":"ce4bhbh2rcd13ifvqepg","pricing_plan_id":"cebpf4jnsgd1na2vs0mg"},{"bike_id":"a8e303c4-60a0-4201-811f-ef38fd01b35b","system_id":"levelo_inurba_marseille","lat":43.32356,"lon":5.40613,"is_reserved":false,"is_disabled":false,"rental_uris":{"android":"levelo://app?vid=a8e303c4-60a0-4201-811f-ef38fd01b35b","ios":"levelo://app?vid=a8e303c4-60a0-4201-811f-ef38fd01b35b"},"vehicle_type_id":"4","last_reported":1756199497,"current_range_meters":9200,"station_id":"ce4bhq92rcd13ifvqhjg","pricing_plan_id":"cebpf4jnsgd1na2vs0mg"},{"bike_id":"0e256118-fe33-4307-b7cb-16c76027513c","system_id":"levelo_inurba_marseille","lat":43.2406,"lon":5.37772,"is_reserved":false,"is_disabled":false,"rental_uris":{"android":"levelo://app?vid=0e256118-fe33-4307-b7cb-16c76027513c","ios":"levelo://app?vid=0e256118-fe33-4307-b7cb-16c76027513c"},"vehicle_type_id":"4","last_reported":1756199497,"current_range_meters":9200,"station_id":"ce4bhnp2rcd13ifvqgvg","pricing_plan_id":"cebpf4jnsgd1na2vs0mg"},{"bike_id":"fcdfb1d4-2f58-4004-b07f-bc087fd0169f","system_id":"levelo_inurba_marseille","lat":43.303887,"lon":5.373754,"is_reserved":false,"is_disabled":false,"rental_uris":{"android":"levelo://app?vid=fcdfb1d4-2f58-4004-b07f-bc087fd0169f","ios":"levelo://app?vid=fcdfb1d4-2f58-4004-b07f-bc087fd0169f"},"vehicle_type_id":"4","last_reported":1756199497,"current_range_meters":9200,"station_id":"","pricing_plan_id":"cebpf4jnsgd1na2vs0mg"},{"bike_id":"b3be3691-8748-4b1e-a996-4b65fd835c4d","system_id":"levelo_inurba_marseille","lat":43.2894,"lon":5.36628,"is_reserved":false,"is_disabled":false,"rental_uris":{"android":"levelo://app?vid=b3be3691-8748-4b1e-a996-4b65fd835c4d","ios":"levelo://app?vid=b3be3691-8748-4b1e-a996-4b65fd835c4d"},"vehicle_type_id":"4","last_reported":1756199497,"current_range_meters":9600,"station_id":"ce4bhap2rcd13ifvqek0","pricing_plan_id":"cebpf4jnsgd1na2vs0mg"},{"bike_id":"df75f1fa-75ae-4074-a5b6-5911a8c1b6a8","system_id":"levelo_inurba_marseille","lat":43.30752,"lon":5.37172,"is_reserved":false,"is_disabled":false,"rental_uris":{"android":"levelo://app?vid=df75f1fa-75ae-4074-a5b6-5911a8c1b6a8","ios":"levelo://app?vid=df75f1fa-75ae-4074-a5b6-5911a8c1b6a8"},"vehicle_type_id":"4","last_reported":1756199497,"current_range_meters":9600,"station_id":"","pricing_plan_id":"cebpf4jnsgd1na2vs0mg"},{"bike_id":"b2fdd713-7d5e-43d4-ac38-07b026df7f96","system_id":"levelo_inurba_marseille","lat":43.29727,"lon":5.37712,"is_reserved":false,"is_disabled":false,"rental_uris":{"android":"levelo://app?vid=b2fdd713-7d5e-43d4-ac38-07b026df7f96","ios":"levelo://app?vid=b2fdd713-7d5e-43d4-ac38-07b026df7f96"},"vehicle_type_id":"4","last_reported":1756199497,"current_range_meters":10000,"station_id":"ce4bgkh2rcd13ifvqbl0","pricing_plan_id":"cebpf4jnsgd1na2vs0mg"},{"bike_id":"1382c2c3-f5b0-440b-ace9-bd2181b6baea","system_id":"levelo_inurba_marseille","lat":43.30568,"lon":5.36512,"is_reserved":false,"is_disabled":false,"rental_uris":{"android":"levelo://app?vid=1382c2c3-f5b0-440b-ace9-bd2181b6baea","ios":"levelo://app?vid=1382c2c3-f5b0-440b-ace9-bd2181b6baea"},"vehicle_type_id":"4","last_reported":1756199497,"current_range_meters":10000,"station_id":"ce4bgs12rcd13ifvqcag","pricing_plan_id":"cebpf4jnsgd1na2vs0mg"},{"bike_id":"1cd21559-399f-4936-b4ac-cb1d7223c9c3","system_id":"levelo_inurba_marseille","lat":43.239968,"lon":5.362751,"is_reserved":false,"is_disabled":false,"rental_uris":{"android":"levelo://app?vid=1cd21559-399f-4936-b4ac-cb1d7223c9c3","ios":"levelo://app?vid=1cd21559-399f-4936-b4ac-cb1d7223c9c3"},"vehicle_type_id":"4","last_reported":1756199497,"current_range_meters":10000,"station_id":"","pricing_plan_id":"cebpf4jnsgd1na2vs0mg"},{"bike_id":"47edd1b9-d9bc-490e-a41e-0905be5d216c","system_id":"levelo_inurba_marseille","lat":43.2706,"lon":5.40259,"is_reserved":false,"is_disabled":false,"rental_uris":{"android":"levelo://app?vid=47edd1b9-d9bc-490e-a41e-0905be5d216c","ios":"levelo://app?vid=47edd1b9-d9bc-490e-a41e-0905be5d216c"},"vehicle_type_id":"4","last_reported":1756199497,"current_range_meters":10000,"station_id":"ce4bhk92rcd13ifvqgc0","pricing_plan_id":"cebpf4jnsgd1na2vs0mg"},{"bike_id":"cf8222a6-6465-4c76-908b-e8cd0fb3cf62","system_id":"levelo_inurba_marseille","lat":43.28418,"lon":5.34983,"is_reserved":false,"is_disabled":false,"rental_uris":{"android":"levelo://app?vid=cf8222a6-6465-4c76-908b-e8cd0fb3cf62","ios":"levelo://app?vid=cf8222a6-6465-4c76-908b-e8cd0fb3cf62"},"vehicle_type_id":"4","last_reported":1756199497,"current_range_meters":10800,"station_id":"ce4bhbh2rcd13ifvqepg","pricing_plan_id":"cebpf4jnsgd1na2vs0mg"},{"bike_id":"268cd559-7a2d-4e5c-bedb-fd24d5efe9ac","system_id":"levelo_inurba_marseille","lat":43.32648,"lon":5.41014,"is_reserved":false,"is_disabled":false,"rental_uris":{"android":"levelo://app?vid=268cd559-7a2d-4e5c-bedb-fd24d5efe9ac","ios":"levelo://app?vid=268cd559-7a2d-4e5c-bedb-fd24d5efe9ac"},"vehicle_type_id":"4","last_reported":1756199497,"current_range_meters":10800,"station_id":"ce4bhpp2rcd13ifvqhgg","pricing_plan_id":"cebpf4jnsgd1na2vs0mg"},{"bike_id":"96290dcb-5422-4c66-b871-eb048cbeec71","system_id":"levelo_inurba_marseille","lat":43.21199,"lon":5.35078,"is_reserved":false,"is_disabled":false,"rental_uris":{"android":"levelo://app?vid=96290dcb-5422-4c66-b871-eb048cbeec71","ios":"levelo://app?vid=96290dcb-5422-4c66-b871-eb048cbeec71"},"vehicle_type_id":"4","last_reported":1756199497,"current_range_meters":10800,"station_id":"st_cvj6sg6p6f1abm77japg","pricing_plan_id":"cebpf4jnsgd1na2vs0mg"},{"bike_id":"bea9b573-b0c0-471b-a983-7d2a5da760bb","system_id":"levelo_inurba_marseille","lat":43.30374,"lon":5.4249,"is_reserved":false,"is_disabled":false,"rental_uris":{"android":"levelo://app?vid=bea9b573-b0c0-471b-a983-7d2a5da760bb","ios":"levelo://app?vid=bea9b573-b0c0-471b-a983-7d2a5da760bb"},"vehicle_type_id":"4","last_reported":1756199497,"current_range_meters":11200,"station_id":"ce4bhoh2rcd13ifvqh6g","pricing_plan_id":"cebpf4jnsgd1na2vs0mg"},{"bike_id":"1b0571ec-e39e-4107-b4d8-cb5cd0f8f5ea","system_id":"levelo_inurba_marseille","lat":43.29022,"lon":5.39997,"is_reserved":false,"is_disabled":false,"rental_uris":{"android":"levelo://app?vid=1b0571ec-e39e-4107-b4d8-cb5cd0f8f5ea","ios":"levelo://app?vid=1b0571ec-e39e-4107-b4d8-cb5cd0f8f5ea"},"vehicle_type_id":"4","last_reported":1756199497,"current_range_meters":11200,"station_id":"ce4bh392rcd13ifvqdm0","pricing_plan_id":"cebpf4jnsgd1na2vs0mg"},{"bike_id":"4e326991-524a-498f-8eda-9c8ae7d86a4d","system_id":"levelo_inurba_marseille","lat":43.30537,"lon":5.36538,"is_reserved":false,"is_disabled":false,"rental_uris":{"android":"levelo://app?vid=4e326991-524a-498f-8eda-9c8ae7d86a4d","ios":"levelo://app?vid=4e326991-524a-498f-8eda-9c8ae7d86a4d"},"vehicle_type_id":"4","last_reported":1756199497,"current_range_meters":11200,"station_id":"ce4bgs12rcd13ifvqcag","pricing_plan_id":"cebpf4jnsgd1na2vs0mg"},{"bike_id":"1f8b66a7-7d0e-4bd0-8036-b71126b0720a","system_id":"levelo_inurba_marseille","lat":43.27422,"lon":5.39401,"is_reserved":false,"is_disabled":false,"rental_uris":{"android":"levelo://app?vid=1f8b66a7-7d0e-4bd0-8036-b71126b0720a","ios":"levelo://app?vid=1f8b66a7-7d0e-4bd0-8036-b71126b0720a"},"vehicle_type_id":"4","last_reported":1756199497,"current_range_meters":11200,"station_id":"ce4bhdp2rcd13ifvqf20","pricing_plan_id":"cebpf4jnsgd1na2vs0mg"},{"bike_id":"56549030-cc83-4b19-a3aa-2f805261aac3","system_id":"levelo_inurba_marseille","lat":43.27495,"lon":5.42453,"is_reserved":false,"is_disabled":false,"rental_uris":{"android":"levelo://app?vid=56549030-cc83-4b19-a3aa-2f805261aac3","ios":"levelo://app?vid=56549030-cc83-4b19-a3aa-2f805261aac3"},"vehicle_type_id":"4","last_reported":1756199497,"current_range_meters":11200,"station_id":"ce4bhn92rcd13ifvqgrg","pricing_plan_id":"cebpf4jnsgd1na2vs0mg"},{"bike_id":"ef2306e3-475c-4485-89e7-a529722d5354","system_id":"levelo_inurba_marseille","lat":43.29036,"lon":5.39976,"is_reserved":false,"is_disabled":false,"rental_uris":{"android":"levelo://app?vid=ef2306e3-475c-4485-89e7-a529722d5354","ios":"levelo://app?vid=ef2306e3-475c-4485-89e7-a529722d5354"},"vehicle_type_id":"4","last_reported":1756199497,"current_range_meters":11600,"station_id":"ce4bh392rcd13ifvqdm0","pricing_plan_id":"cebpf4jnsgd1na2vs0mg"},{"bike_id":"66fe0d3d-3f11-4f9b-b708-9233fa227550","system_id":"levelo_inurba_marseille","lat":43.31447,"lon":5.37378,"is_reserved":false,"is_disabled":false,"rental_uris":{"android":"levelo://app?vid=66fe0d3d-3f11-4f9b-b708-9233fa227550","ios":"levelo://app?vid=66fe0d3d-3f11-4f9b-b708-9233fa227550"},"vehicle_type_id":"4","last_reported":1756199497,"current_range_meters":11600,"station_id":"","pricing_plan_id":"cebpf4jnsgd1na2vs0mg"},{"bike_id":"2613af16-1d21-4fcf-8aa1-4dd4f82ce60e","system_id":"levelo_inurba_marseille","lat":43.21749,"lon":5.34608,"is_reserved":false,"is_disabled":false,"rental_uris":{"android":"levelo://app?vid=2613af16-1d21-4fcf-8aa1-4dd4f82ce60e","ios":"levelo://app?vid=2613af16-1d21-4fcf-8aa1-4dd4f82ce60e"},"vehicle_type_id":"4","last_reported":1756199497,"current_range_meters":11600,"station_id":"","pricing_plan_id":"cebpf4jnsgd1na2vs0mg"},{"bike_id":"5e97e168-d640-47cd-99ee-a829a0731703","system_id":"levelo_inurba_marseille","lat":43.29571,"lon":5.37524,"is_reserved":false,"is_disabled":false,"rental_uris":{"android":"levelo://app?vid=5e97e168-d640-47cd-99ee-a829a0731703","ios":"levelo://app?vid=5e97e168-d640-47cd-99ee-a829a0731703"},"vehicle_type_id":"4","last_reported":1756199497,"current_range_meters":11600,"station_id":"ce4bgh92rcd13ifvqb50","pricing_plan_id":"cebpf4jnsgd1na2vs0mg"},{"bike_id":"c8f19ab0-2650-42bf-bf99-315bb14cecb1","system_id":"levelo_inurba_marseille","lat":43.323652,"lon":5.367612,"is_reserved":false,"is_disabled":false,"rental_uris":{"android":"levelo://app?vid=c8f19ab0-2650-42bf-bf99-315bb14cecb1","ios":"levelo://app?vid=c8f19ab0-2650-42bf-bf99-315bb14cecb1"},"vehicle_type_id":"4","last_reported":1756199497,"current_range_meters":12000,"station_id":"ce4bhsh2rcd13ifvqi2g","pricing_plan_id":"cebpf4jnsgd1na2vs0mg"},{"bike_id":"80ca4da6-3284-4b8a-ade1-4216b77968fe","system_id":"levelo_inurba_marseille","lat":43.30788,"lon":5.37659,"is_reserved":false,"is_disabled":false,"rental_uris":{"android":"levelo://app?vid=80ca4da6-3284-4b8a-ade1-4216b77968fe","ios":"levelo://app?vid=80ca4da6-3284-4b8a-ade1-4216b77968fe"},"vehicle_type_id":"4","last_reported":1756199497,"current_range_meters":12000,"station_id":"ce4bgv92rcd13ifvqcq0","pricing_plan_id":"cebpf4jnsgd1na2vs0mg"},{"bike_id":"8b09d6e8-3175-46a4-a882-3f13b9ad4be3","system_id":"levelo_inurba_marseille","lat":43.24624,"lon":5.43185,"is_reserved":false,"is_disabled":false,"rental_uris":{"android":"levelo://app?vid=8b09d6e8-3175-46a4-a882-3f13b9ad4be3","ios":"levelo://app?vid=8b09d6e8-3175-46a4-a882-3f13b9ad4be3"},"vehicle_type_id":"4","last_reported":1756199497,"current_range_meters":12000,"station_id":"st_d2m6c4gdas8pm72e190g","pricing_plan_id":"cebpf4jnsgd1na2vs0mg"},{"bike_id":"ac67170e-cff2-442a-a07c-ac3b27760c6e","system_id":"levelo_inurba_marseille","lat":43.2977,"lon":5.37105,"is_reserved":false,"is_disabled":false,"rental_uris":{"android":"levelo://app?vid=ac67170e-cff2-442a-a07c-ac3b27760c6e","ios":"levelo://app?vid=ac67170e-cff2-442a-a07c-ac3b27760c6e"},"vehicle_type_id":"4","last_reported":1756199497,"current_range_meters":12000,"station_id":"ce4bgop2rcd13ifvqc1g","pricing_plan_id":"cebpf4jnsgd1na2vs0mg"},{"bike_id":"cf74d62f-b268-4aa4-8171-0fa021a43d95","system_id":"levelo_inurba_marseille","lat":43.292008,"lon":5.357975,"is_reserved":false,"is_disabled":false,"rental_uris":{"android":"levelo://app?vid=cf74d62f-b268-4aa4-8171-0fa021a43d95","ios":"levelo://app?vid=cf74d62f-b268-4aa4-8171-0fa021a43d95"},"vehicle_type_id":"4","last_reported":1756199497,"current_range_meters":12000,"station_id":"ce4bhb12rcd13ifvqel0","pricing_plan_id":"cebpf4jnsgd1na2vs0mg"},{"bike_id":"b79d5d66-6a46-4ded-9257-8ef64a7f6764","system_id":"levelo_inurba_marseille","lat":43.211932,"lon":5.350762,"is_reserved":false,"is_disabled":false,"rental_uris":{"android":"levelo://app?vid=b79d5d66-6a46-4ded-9257-8ef64a7f6764","ios":"levelo://app?vid=b79d5d66-6a46-4ded-9257-8ef64a7f6764"},"vehicle_type_id":"4","last_reported":1756199497,"current_range_meters":12000,"station_id":"st_cvj6sg6p6f1abm77japg","pricing_plan_id":"cebpf4jnsgd1na2vs0mg"},{"bike_id":"176d453a-9ee7-4b7c-be4c-b27ddc81b25a","system_id":"levelo_inurba_marseille","lat":43.21751,"lon":5.3459,"is_reserved":false,"is_disabled":false,"rental_uris":{"android":"levelo://app?vid=176d453a-9ee7-4b7c-be4c-b27ddc81b25a","ios":"levelo://app?vid=176d453a-9ee7-4b7c-be4c-b27ddc81b25a"},"vehicle_type_id":"4","last_reported":1756199497,"current_range_meters":12000,"station_id":"st_cvj6r9ubvosntc0bgbag","pricing_plan_id":"cebpf4jnsgd1na2vs0mg"},{"bike_id":"21eb40d5-7fd2-45a4-860c-60f76c18b134","system_id":"levelo_inurba_marseille","lat":43.29274,"lon":5.36848,"is_reserved":false,"is_disabled":false,"rental_uris":{"android":"levelo://app?vid=21eb40d5-7fd2-45a4-860c-60f76c18b134","ios":"levelo://app?vid=21eb40d5-7fd2-45a4-860c-60f76c18b134"},"vehicle_type_id":"4","last_reported":1756199497,"current_range_meters":12000,"station_id":"ce4bhbp2rcd13ifvqesg","pricing_plan_id":"cebpf4jnsgd1na2vs0mg"},{"bike_id":"cfd66be3-eb77-4fcb-9808-b084ac439d43","system_id":"levelo_inurba_marseille","lat":43.33756,"lon":5.3744,"is_reserved":false,"is_disabled":false,"rental_uris":{"android":"levelo://app?vid=cfd66be3-eb77-4fcb-9808-b084ac439d43","ios":"levelo://app?vid=cfd66be3-eb77-4fcb-9808-b084ac439d43"},"vehicle_type_id":"4","last_reported":1756199497,"current_range_meters":12000,"station_id":"","pricing_plan_id":"cebpf4jnsgd1na2vs0mg"},{"bike_id":"835158ef-2ca2-4502-8586-44926243843a","system_id":"levelo_inurba_marseille","lat":43.2766,"lon":5.38887,"is_reserved":false,"is_disabled":false,"rental_uris":{"android":"levelo://app?vid=835158ef-2ca2-4502-8586-44926243843a","ios":"levelo://app?vid=835158ef-2ca2-4502-8586-44926243843a"},"vehicle_type_id":"4","last_reported":1756199497,"current_range_meters":13600,"station_id":"ce4bhi12rcd13ifvqfo0","pricing_plan_id":"cebpf4jnsgd1na2vs0mg"},{"bike_id":"cb1eb6d7-4acd-4aa6-be9a-ffa1ac8012d5","system_id":"levelo_inurba_marseille","lat":43.27075,"lon":5.4228,"is_reserved":false,"is_disabled":false,"rental_uris":{"android":"levelo://app?vid=cb1eb6d7-4acd-4aa6-be9a-ffa1ac8012d5","ios":"levelo://app?vid=cb1eb6d7-4acd-4aa6-be9a-ffa1ac8012d5"},"vehicle_type_id":"4","last_reported":1756199497,"current_range_meters":12400,"station_id":"ce4bhk92rcd13ifvqgb0","pricing_plan_id":"cebpf4jnsgd1na2vs0mg"},{"bike_id":"e2b0f307-cfe9-4ad5-b104-d661fcb0d809","system_id":"levelo_inurba_marseille","lat":43.22912,"lon":5.35415,"is_reserved":false,"is_disabled":false,"rental_uris":{"android":"levelo://app?vid=e2b0f307-cfe9-4ad5-b104-d661fcb0d809","ios":"levelo://app?vid=e2b0f307-cfe9-4ad5-b104-d661fcb0d809"},"vehicle_type_id":"4","last_reported":1756199497,"current_range_meters":12800,"station_id":"cpo3532slgdg3j2ikp40","pricing_plan_id":"cebpf4jnsgd1na2vs0mg"},{"bike_id":"a4d6ab12-1208-4743-8e08-029e30efc8ad","system_id":"levelo_inurba_marseille","lat":43.3014,"lon":5.38783,"is_reserved":false,"is_disabled":false,"rental_uris":{"android":"levelo://app?vid=a4d6ab12-1208-4743-8e08-029e30efc8ad","ios":"levelo://app?vid=a4d6ab12-1208-4743-8e08-029e30efc8ad"},"vehicle_type_id":"4","last_reported":1756199497,"current_range_meters":11200,"station_id":"ce4bghh2rcd13ifvqb60","pricing_plan_id":"cebpf4jnsgd1na2vs0mg"},{"bike_id":"c30b301c-7f7b-494a-8ee4-1d6c5f9cce1b","system_id":"levelo_inurba_marseille","lat":43.284118,"lon":5.375098,"is_reserved":false,"is_disabled":true,"rental_uris":{"android":"levelo://app?vid=c30b301c-7f7b-494a-8ee4-1d6c5f9cce1b","ios":"levelo://app?vid=c30b301c-7f7b-494a-8ee4-1d6c5f9cce1b"},"vehicle_type_id":"4","last_reported":1756199497,"current_range_meters":12800,"station_id":"ce4bh412rcd13ifvqds0","pricing_plan_id":"cebpf4jnsgd1na2vs0mg"},{"bike_id":"a02c36f2-5c73-4274-9dab-3dcfac8b6d0b","system_id":"levelo_inurba_marseille","lat":43.323521,"lon":5.367478,"is_reserved":false,"is_disabled":false,"rental_uris":{"android":"levelo://app?vid=a02c36f2-5c73-4274-9dab-3dcfac8b6d0b","ios":"levelo://app?vid=a02c36f2-5c73-4274-9dab-3dcfac8b6d0b"},"vehicle_type_id":"4","last_reported":1756199497,"current_range_meters":12800,"station_id":"ce4bhsh2rcd13ifvqi2g","pricing_plan_id":"cebpf4jnsgd1na2vs0mg"},{"bike_id":"62394e64-0931-4884-a218-c384979eff86","system_id":"levelo_inurba_marseille","lat":43.30555,"lon":5.36542,"is_reserved":false,"is_disabled":false,"rental_uris":{"android":"levelo://app?vid=62394e64-0931-4884-a218-c384979eff86","ios":"levelo://app?vid=62394e64-0931-4884-a218-c384979eff86"},"vehicle_type_id":"4","last_reported":1756199497,"current_range_meters":12800,"station_id":"ce4bgs12rcd13ifvqcag","pricing_plan_id":"cebpf4jnsgd1na2vs0mg"},{"bike_id":"af732ca8-2cea-448a-9928-59e03d12656f","system_id":"levelo_inurba_marseille","lat":43.335744,"lon":5.358744,"is_reserved":false,"is_disabled":false,"rental_uris":{"android":"levelo://app?vid=af732ca8-2cea-448a-9928-59e03d12656f","ios":"levelo://app?vid=af732ca8-2cea-448a-9928-59e03d12656f"},"vehicle_type_id":"4","last_reported":1756199497,"current_range_meters":12800,"station_id":"","pricing_plan_id":"cebpf4jnsgd1na2vs0mg"},{"bike_id":"3fdab342-812b-4e87-a622-3fd4fcd806fa","system_id":"levelo_inurba_marseille","lat":43.31252,"lon":5.36842,"is_reserved":false,"is_disabled":false,"rental_uris":{"android":"levelo://app?vid=3fdab342-812b-4e87-a622-3fd4fcd806fa","ios":"levelo://app?vid=3fdab342-812b-4e87-a622-3fd4fcd806fa"},"vehicle_type_id":"4","last_reported":1756199497,"current_range_meters":12800,"station_id":"ce4bgl92rcd13ifvqbq0","pricing_plan_id":"cebpf4jnsgd1na2vs0mg"},{"bike_id":"3e130ff4-87da-4c51-a264-44d1f277fd66","system_id":"levelo_inurba_marseille","lat":43.32119,"lon":5.36937,"is_reserved":false,"is_disabled":false,"rental_uris":{"android":"levelo://app?vid=3e130ff4-87da-4c51-a264-44d1f277fd66","ios":"levelo://app?vid=3e130ff4-87da-4c51-a264-44d1f277fd66"},"vehicle_type_id":"4","last_reported":1756199497,"current_range_meters":12800,"station_id":"","pricing_plan_id":"cebpf4jnsgd1na2vs0mg"},{"bike_id":"fd0d17b8-25ae-4ac8-9d67-05955a2b3e59","system_id":"levelo_inurba_marseille","lat":43.28271,"lon":5.35062,"is_reserved":false,"is_disabled":false,"rental_uris":{"android":"levelo://app?vid=fd0d17b8-25ae-4ac8-9d67-05955a2b3e59","ios":"levelo://app?vid=fd0d17b8-25ae-4ac8-9d67-05955a2b3e59"},"vehicle_type_id":"4","last_reported":1756199497,"current_range_meters":12800,"station_id":"ce4bhbp2rcd13ifvqerg","pricing_plan_id":"cebpf4jnsgd1na2vs0mg"},{"bike_id":"531d9ab7-49a5-4eb1-b075-60a9e93e5981","system_id":"levelo_inurba_marseille","lat":43.30494,"lon":5.37905,"is_reserved":false,"is_disabled":false,"rental_uris":{"android":"levelo://app?vid=531d9ab7-49a5-4eb1-b075-60a9e93e5981","ios":"levelo://app?vid=531d9ab7-49a5-4eb1-b075-60a9e93e5981"},"vehicle_type_id":"4","last_reported":1756199497,"current_range_meters":13600,"station_id":"ce4bgup2rcd13ifvqcn0","pricing_plan_id":"cebpf4jnsgd1na2vs0mg"},{"bike_id":"28a46ebf-fd86-4ff5-8115-23d1c6fedaa3","system_id":"levelo_inurba_marseille","lat":43.22936,"lon":5.35379,"is_reserved":false,"is_disabled":false,"rental_uris":{"android":"levelo://app?vid=28a46ebf-fd86-4ff5-8115-23d1c6fedaa3","ios":"levelo://app?vid=28a46ebf-fd86-4ff5-8115-23d1c6fedaa3"},"vehicle_type_id":"4","last_reported":1756199497,"current_range_meters":13600,"station_id":"cpo3532slgdg3j2ikp40","pricing_plan_id":"cebpf4jnsgd1na2vs0mg"},{"bike_id":"b6d727d8-b5ab-46d2-9978-fd5ba1dad8e0","system_id":"levelo_inurba_marseille","lat":43.309024,"lon":5.368512,"is_reserved":false,"is_disabled":false,"rental_uris":{"android":"levelo://app?vid=b6d727d8-b5ab-46d2-9978-fd5ba1dad8e0","ios":"levelo://app?vid=b6d727d8-b5ab-46d2-9978-fd5ba1dad8e0"},"vehicle_type_id":"4","last_reported":1756199497,"current_range_meters":14000,"station_id":"ce4bgn92rcd13ifvqbvg","pricing_plan_id":"cebpf4jnsgd1na2vs0mg"},{"bike_id":"918a8321-cc33-4b9f-a116-5d203c1520a1","system_id":"levelo_inurba_marseille","lat":43.29167,"lon":5.37161,"is_reserved":false,"is_disabled":false,"rental_uris":{"android":"levelo://app?vid=918a8321-cc33-4b9f-a116-5d203c1520a1","ios":"levelo://app?vid=918a8321-cc33-4b9f-a116-5d203c1520a1"},"vehicle_type_id":"4","last_reported":1756199497,"current_range_meters":14000,"station_id":"ce4bha92rcd13ifvqeh0","pricing_plan_id":"cebpf4jnsgd1na2vs0mg"},{"bike_id":"b375d41b-9575-4c77-a6a9-d089747042e7","system_id":"levelo_inurba_marseille","lat":43.32291,"lon":5.36771,"is_reserved":false,"is_disabled":false,"rental_uris":{"android":"levelo://app?vid=b375d41b-9575-4c77-a6a9-d089747042e7","ios":"levelo://app?vid=b375d41b-9575-4c77-a6a9-d089747042e7"},"vehicle_type_id":"4","last_reported":1756199497,"current_range_meters":14000,"station_id":"","pricing_plan_id":"cebpf4jnsgd1na2vs0mg"},{"bike_id":"979e73f7-3abb-449f-9bdc-cb11a72712d9","system_id":"levelo_inurba_marseille","lat":43.28605,"lon":5.35099,"is_reserved":false,"is_disabled":true,"rental_uris":{"android":"levelo://app?vid=979e73f7-3abb-449f-9bdc-cb11a72712d9","ios":"levelo://app?vid=979e73f7-3abb-449f-9bdc-cb11a72712d9"},"vehicle_type_id":"4","last_reported":1756199497,"current_range_meters":14000,"station_id":"ce4bhch2rcd13ifvqeug","pricing_plan_id":"cebpf4jnsgd1na2vs0mg"},{"bike_id":"0d502687-08ef-4491-8893-8a03d8688be8","system_id":"levelo_inurba_marseille","lat":43.29621,"lon":5.36123,"is_reserved":false,"is_disabled":false,"rental_uris":{"android":"levelo://app?vid=0d502687-08ef-4491-8893-8a03d8688be8","ios":"levelo://app?vid=0d502687-08ef-4491-8893-8a03d8688be8"},"vehicle_type_id":"4","last_reported":1756199497,"current_range_meters":14000,"station_id":"","pricing_plan_id":"cebpf4jnsgd1na2vs0mg"},{"bike_id":"8504bf26-65b5-428f-9a94-d8bbb49ef76a","system_id":"levelo_inurba_marseille","lat":43.2821,"lon":5.39068,"is_reserved":false,"is_disabled":false,"rental_uris":{"android":"levelo://app?vid=8504bf26-65b5-428f-9a94-d8bbb49ef76a","ios":"levelo://app?vid=8504bf26-65b5-428f-9a94-d8bbb49ef76a"},"vehicle_type_id":"4","last_reported":1756199497,"current_range_meters":14000,"station_id":"ce4bhn92rcd13ifvqgsg","pricing_plan_id":"cebpf4jnsgd1na2vs0mg"},{"bike_id":"f8dc753e-c188-4ad9-abd2-e512924ce35e","system_id":"levelo_inurba_marseille","lat":43.23153,"lon":5.43731,"is_reserved":false,"is_disabled":false,"rental_uris":{"android":"levelo://app?vid=f8dc753e-c188-4ad9-abd2-e512924ce35e","ios":"levelo://app?vid=f8dc753e-c188-4ad9-abd2-e512924ce35e"},"vehicle_type_id":"4","last_reported":1756199497,"current_range_meters":14400,"station_id":"ce4bhmp2rcd13ifvqgog","pricing_plan_id":"cebpf4jnsgd1na2vs0mg"},{"bike_id":"632030b5-1498-47c0-aa28-dfb19d01a1ea","system_id":"levelo_inurba_marseille","lat":43.2621,"lon":5.3746,"is_reserved":false,"is_disabled":false,"rental_uris":{"android":"levelo://app?vid=632030b5-1498-47c0-aa28-dfb19d01a1ea","ios":"levelo://app?vid=632030b5-1498-47c0-aa28-dfb19d01a1ea"},"vehicle_type_id":"4","last_reported":1756199497,"current_range_meters":14400,"station_id":"ce4bhgp2rcd13ifvqfc0","pricing_plan_id":"cebpf4jnsgd1na2vs0mg"},{"bike_id":"83e818dd-7ff3-45dd-b46a-ecfe9cbc3bf8","system_id":"levelo_inurba_marseille","lat":43.26231,"lon":5.37459,"is_reserved":false,"is_disabled":false,"rental_uris":{"android":"levelo://app?vid=83e818dd-7ff3-45dd-b46a-ecfe9cbc3bf8","ios":"levelo://app?vid=83e818dd-7ff3-45dd-b46a-ecfe9cbc3bf8"},"vehicle_type_id":"4","last_reported":1756199497,"current_range_meters":14400,"station_id":"","pricing_plan_id":"cebpf4jnsgd1na2vs0mg"},{"bike_id":"f84f46c8-243d-42cd-b308-2b289e4c09d3","system_id":"levelo_inurba_marseille","lat":43.334514,"lon":5.356717,"is_reserved":false,"is_disabled":false,"rental_uris":{"android":"levelo://app?vid=f84f46c8-243d-42cd-b308-2b289e4c09d3","ios":"levelo://app?vid=f84f46c8-243d-42cd-b308-2b289e4c09d3"},"vehicle_type_id":"4","last_reported":1756199497,"current_range_meters":14400,"station_id":"","pricing_plan_id":"cebpf4jnsgd1na2vs0mg"},{"bike_id":"dce577a5-abf4-4b19-951f-52d436009f04","system_id":"levelo_inurba_marseille","lat":43.2862,"lon":5.37065,"is_reserved":false,"is_disabled":false,"rental_uris":{"android":"levelo://app?vid=dce577a5-abf4-4b19-951f-52d436009f04","ios":"levelo://app?vid=dce577a5-abf4-4b19-951f-52d436009f04"},"vehicle_type_id":"4","last_reported":1756199497,"current_range_meters":14400,"station_id":"ce4bht12rcd13ifvqi60","pricing_plan_id":"cebpf4jnsgd1na2vs0mg"},{"bike_id":"0936c97a-6c56-4e49-ac86-b02ace48248e","system_id":"levelo_inurba_marseille","lat":43.2938,"lon":5.37852,"is_reserved":false,"is_disabled":false,"rental_uris":{"android":"levelo://app?vid=0936c97a-6c56-4e49-ac86-b02ace48248e","ios":"levelo://app?vid=0936c97a-6c56-4e49-ac86-b02ace48248e"},"vehicle_type_id":"4","last_reported":1756199497,"current_range_meters":14800,"station_id":"ce4bgjh2rcd13ifvqbf0","pricing_plan_id":"cebpf4jnsgd1na2vs0mg"},{"bike_id":"b891d3ff-c9da-40a4-99de-c8abd0aa5eb1","system_id":"levelo_inurba_marseille","lat":43.2439,"lon":5.37075,"is_reserved":false,"is_disabled":false,"rental_uris":{"android":"levelo://app?vid=b891d3ff-c9da-40a4-99de-c8abd0aa5eb1","ios":"levelo://app?vid=b891d3ff-c9da-40a4-99de-c8abd0aa5eb1"},"vehicle_type_id":"4","last_reported":1756199497,"current_range_meters":14800,"station_id":"ce4bhhh2rcd13ifvqfk0","pricing_plan_id":"cebpf4jnsgd1na2vs0mg"},{"bike_id":"a7cf380d-ca55-46f9-88ca-c0606390f591","system_id":"levelo_inurba_marseille","lat":43.24079,"lon":5.37776,"is_reserved":false,"is_disabled":false,"rental_uris":{"android":"levelo://app?vid=a7cf380d-ca55-46f9-88ca-c0606390f591","ios":"levelo://app?vid=a7cf380d-ca55-46f9-88ca-c0606390f591"},"vehicle_type_id":"4","last_reported":1756199497,"current_range_meters":14800,"station_id":"ce4bhnp2rcd13ifvqgvg","pricing_plan_id":"cebpf4jnsgd1na2vs0mg"},{"bike_id":"51842e17-ef10-4624-a23e-c8a182427991","system_id":"levelo_inurba_marseille","lat":43.315585,"lon":5.381993,"is_reserved":false,"is_disabled":false,"rental_uris":{"android":"levelo://app?vid=51842e17-ef10-4624-a23e-c8a182427991","ios":"levelo://app?vid=51842e17-ef10-4624-a23e-c8a182427991"},"vehicle_type_id":"4","last_reported":1756199497,"current_range_meters":14800,"station_id":"","pricing_plan_id":"cebpf4jnsgd1na2vs0mg"},{"bike_id":"74b142cc-4c9b-4dc0-81b0-614e4490c4cb","system_id":"levelo_inurba_marseille","lat":43.29259,"lon":5.37622,"is_reserved":false,"is_disabled":false,"rental_uris":{"android":"levelo://app?vid=74b142cc-4c9b-4dc0-81b0-614e4490c4cb","ios":"levelo://app?vid=74b142cc-4c9b-4dc0-81b0-614e4490c4cb"},"vehicle_type_id":"4","last_reported":1756199497,"current_range_meters":14800,"station_id":"ce4bgi12rcd13ifvqb80","pricing_plan_id":"cebpf4jnsgd1na2vs0mg"},{"bike_id":"ffdeb992-8638-464c-a724-8f9598c3da36","system_id":"levelo_inurba_marseille","lat":43.29286,"lon":5.36856,"is_reserved":false,"is_disabled":false,"rental_uris":{"android":"levelo://app?vid=ffdeb992-8638-464c-a724-8f9598c3da36","ios":"levelo://app?vid=ffdeb992-8638-464c-a724-8f9598c3da36"},"vehicle_type_id":"4","last_reported":1756199497,"current_range_meters":14800,"station_id":"ce4bhbp2rcd13ifvqesg","pricing_plan_id":"cebpf4jnsgd1na2vs0mg"},{"bike_id":"5f9365e2-60dc-4158-a2c3-0e40911a7a32","system_id":"levelo_inurba_marseille","lat":43.334201,"lon":5.400488,"is_reserved":false,"is_disabled":false,"rental_uris":{"android":"levelo://app?vid=5f9365e2-60dc-4158-a2c3-0e40911a7a32","ios":"levelo://app?vid=5f9365e2-60dc-4158-a2c3-0e40911a7a32"},"vehicle_type_id":"4","last_reported":1756199497,"current_range_meters":14800,"station_id":"","pricing_plan_id":"cebpf4jnsgd1na2vs0mg"},{"bike_id":"b5ffa393-2ace-4441-a658-0017f1ce8c98","system_id":"levelo_inurba_marseille","lat":43.24162,"lon":5.39759,"is_reserved":false,"is_disabled":false,"rental_uris":{"android":"levelo://app?vid=b5ffa393-2ace-4441-a658-0017f1ce8c98","ios":"levelo://app?vid=b5ffa393-2ace-4441-a658-0017f1ce8c98"},"vehicle_type_id":"4","last_reported":1756199497,"current_range_meters":14800,"station_id":"ce4bhn12rcd13ifvqgpg","pricing_plan_id":"cebpf4jnsgd1na2vs0mg"},{"bike_id":"a15a1c44-718b-407d-acaa-0383628c87d7","system_id":"levelo_inurba_marseille","lat":43.32682,"lon":5.39239,"is_reserved":false,"is_disabled":false,"rental_uris":{"android":"levelo://app?vid=a15a1c44-718b-407d-acaa-0383628c87d7","ios":"levelo://app?vid=a15a1c44-718b-407d-acaa-0383628c87d7"},"vehicle_type_id":"4","last_reported":1756199497,"current_range_meters":15200,"station_id":"","pricing_plan_id":"cebpf4jnsgd1na2vs0mg"},{"bike_id":"f50e029c-78e4-4943-96e6-f587e062386c","system_id":"levelo_inurba_marseille","lat":43.3172,"lon":5.42433,"is_reserved":false,"is_disabled":false,"rental_uris":{"android":"levelo://app?vid=f50e029c-78e4-4943-96e6-f587e062386c","ios":"levelo://app?vid=f50e029c-78e4-4943-96e6-f587e062386c"},"vehicle_type_id":"4","last_reported":1756199497,"current_range_meters":15200,"station_id":"ce4bhp92rcd13ifvqhbg","pricing_plan_id":"cebpf4jnsgd1na2vs0mg"},{"bike_id":"c47b2876-c564-417f-9d7f-97cdd2f94270","system_id":"levelo_inurba_marseille","lat":43.2416,"lon":5.36417,"is_reserved":false,"is_disabled":false,"rental_uris":{"android":"levelo://app?vid=c47b2876-c564-417f-9d7f-97cdd2f94270","ios":"levelo://app?vid=c47b2876-c564-417f-9d7f-97cdd2f94270"},"vehicle_type_id":"4","last_reported":1756199497,"current_range_meters":15200,"station_id":"cpo36qri1sfpv3e86is0","pricing_plan_id":"cebpf4jnsgd1na2vs0mg"},{"bike_id":"9216cded-5e8a-4cb7-b2a2-caf56ad43067","system_id":"levelo_inurba_marseille","lat":43.28999,"lon":5.35608,"is_reserved":false,"is_disabled":false,"rental_uris":{"android":"levelo://app?vid=9216cded-5e8a-4cb7-b2a2-caf56ad43067","ios":"levelo://app?vid=9216cded-5e8a-4cb7-b2a2-caf56ad43067"},"vehicle_type_id":"4","last_reported":1756199497,"current_range_meters":15200,"station_id":"ce4bhb92rcd13ifvqen0","pricing_plan_id":"cebpf4jnsgd1na2vs0mg"},{"bike_id":"1fd5828d-aedf-498c-a4b7-8dc5722f6783","system_id":"levelo_inurba_marseille","lat":43.30309,"lon":5.36894,"is_reserved":false,"is_disabled":false,"rental_uris":{"android":"levelo://app?vid=1fd5828d-aedf-498c-a4b7-8dc5722f6783","ios":"levelo://app?vid=1fd5828d-aedf-498c-a4b7-8dc5722f6783"},"vehicle_type_id":"4","last_reported":1756199497,"current_range_meters":15200,"station_id":"ce4bgqh2rcd13ifvqc5g","pricing_plan_id":"cebpf4jnsgd1na2vs0mg"},{"bike_id":"026e3973-93d1-4c5c-ae15-8b22641bac68","system_id":"levelo_inurba_marseille","lat":43.286156,"lon":5.351024,"is_reserved":false,"is_disabled":false,"rental_uris":{"android":"levelo://app?vid=026e3973-93d1-4c5c-ae15-8b22641bac68","ios":"levelo://app?vid=026e3973-93d1-4c5c-ae15-8b22641bac68"},"vehicle_type_id":"4","last_reported":1756199497,"current_range_meters":16000,"station_id":"ce4bhch2rcd13ifvqeug","pricing_plan_id":"cebpf4jnsgd1na2vs0mg"},{"bike_id":"943d95a7-9535-411f-ba22-8068aaf6ac69","system_id":"levelo_inurba_marseille","lat":43.29596,"lon":5.381,"is_reserved":false,"is_disabled":true,"rental_uris":{"android":"levelo://app?vid=943d95a7-9535-411f-ba22-8068aaf6ac69","ios":"levelo://app?vid=943d95a7-9535-411f-ba22-8068aaf6ac69"},"vehicle_type_id":"4","last_reported":1756199497,"current_range_meters":16000,"station_id":"ce4bgl12rcd13ifvqbo0","pricing_plan_id":"cebpf4jnsgd1na2vs0mg"},{"bike_id":"610e40a3-9668-4895-ab6e-a358c5f84120","system_id":"levelo_inurba_marseille","lat":43.33597,"lon":5.41021,"is_reserved":false,"is_disabled":false,"rental_uris":{"android":"levelo://app?vid=610e40a3-9668-4895-ab6e-a358c5f84120","ios":"levelo://app?vid=610e40a3-9668-4895-ab6e-a358c5f84120"},"vehicle_type_id":"4","last_reported":1756199497,"current_range_meters":16000,"station_id":"ce4bhqh2rcd13ifvqhmg","pricing_plan_id":"cebpf4jnsgd1na2vs0mg"},{"bike_id":"974ad24a-ebe3-4eaf-93e5-d979d93ceb49","system_id":"levelo_inurba_marseille","lat":43.30533,"lon":5.36569,"is_reserved":false,"is_disabled":false,"rental_uris":{"android":"levelo://app?vid=974ad24a-ebe3-4eaf-93e5-d979d93ceb49","ios":"levelo://app?vid=974ad24a-ebe3-4eaf-93e5-d979d93ceb49"},"vehicle_type_id":"4","last_reported":1756199497,"current_range_meters":16000,"station_id":"ce4bgs12rcd13ifvqcag","pricing_plan_id":"cebpf4jnsgd1na2vs0mg"},{"bike_id":"a0a3ccd5-0448-4d79-89b6-8a085e37fcf7","system_id":"levelo_inurba_marseille","lat":43.29268,"lon":5.37625,"is_reserved":false,"is_disabled":false,"rental_uris":{"android":"levelo://app?vid=a0a3ccd5-0448-4d79-89b6-8a085e37fcf7","ios":"levelo://app?vid=a0a3ccd5-0448-4d79-89b6-8a085e37fcf7"},"vehicle_type_id":"4","last_reported":1756199497,"current_range_meters":16000,"station_id":"ce4bgi12rcd13ifvqb80","pricing_plan_id":"cebpf4jnsgd1na2vs0mg"},{"bike_id":"f4815bc1-d6e8-4722-84cb-35db309bd697","system_id":"levelo_inurba_marseille","lat":43.25859,"lon":5.39909,"is_reserved":false,"is_disabled":true,"rental_uris":{"android":"levelo://app?vid=f4815bc1-d6e8-4722-84cb-35db309bd697","ios":"levelo://app?vid=f4815bc1-d6e8-4722-84cb-35db309bd697"},"vehicle_type_id":"4","last_reported":1756199497,"current_range_meters":16000,"station_id":"ce4bhl92rcd13ifvqghg","pricing_plan_id":"cebpf4jnsgd1na2vs0mg"},{"bike_id":"a7eb1621-fe48-4826-b4a9-10f2e8984e50","system_id":"levelo_inurba_marseille","lat":43.26551,"lon":5.37308,"is_reserved":false,"is_disabled":false,"rental_uris":{"android":"levelo://app?vid=a7eb1621-fe48-4826-b4a9-10f2e8984e50","ios":"levelo://app?vid=a7eb1621-fe48-4826-b4a9-10f2e8984e50"},"vehicle_type_id":"4","last_reported":1756199497,"current_range_meters":16000,"station_id":"ce4bhg12rcd13ifvqf70","pricing_plan_id":"cebpf4jnsgd1na2vs0mg"},{"bike_id":"50080086-5ad6-41c2-b993-d4f4d5e2439a","system_id":"levelo_inurba_marseille","lat":43.329517,"lon":5.389786,"is_reserved":false,"is_disabled":false,"rental_uris":{"android":"levelo://app?vid=50080086-5ad6-41c2-b993-d4f4d5e2439a","ios":"levelo://app?vid=50080086-5ad6-41c2-b993-d4f4d5e2439a"},"vehicle_type_id":"4","last_reported":1756199497,"current_range_meters":16400,"station_id":"ce4bhr92rcd13ifvqhrg","pricing_plan_id":"cebpf4jnsgd1na2vs0mg"},{"bike_id":"ad9bd69b-d68c-4c45-91a0-01922e0e465b","system_id":"levelo_inurba_marseille","lat":43.28623,"lon":5.35103,"is_reserved":false,"is_disabled":false,"rental_uris":{"android":"levelo://app?vid=ad9bd69b-d68c-4c45-91a0-01922e0e465b","ios":"levelo://app?vid=ad9bd69b-d68c-4c45-91a0-01922e0e465b"},"vehicle_type_id":"4","last_reported":1756199497,"current_range_meters":16400,"station_id":"ce4bhch2rcd13ifvqeug","pricing_plan_id":"cebpf4jnsgd1na2vs0mg"},{"bike_id":"977df7ca-21e9-43e2-ade8-22de20bad5aa","system_id":"levelo_inurba_marseille","lat":43.26206,"lon":5.37445,"is_reserved":false,"is_disabled":false,"rental_uris":{"android":"levelo://app?vid=977df7ca-21e9-43e2-ade8-22de20bad5aa","ios":"levelo://app?vid=977df7ca-21e9-43e2-ade8-22de20bad5aa"},"vehicle_type_id":"4","last_reported":1756199497,"current_range_meters":16400,"station_id":"ce4bhgp2rcd13ifvqfc0","pricing_plan_id":"cebpf4jnsgd1na2vs0mg"},{"bike_id":"89e7e073-5608-466f-87a7-1ccb01113393","system_id":"levelo_inurba_marseille","lat":43.28001,"lon":5.40018,"is_reserved":false,"is_disabled":false,"rental_uris":{"android":"levelo://app?vid=89e7e073-5608-466f-87a7-1ccb01113393","ios":"levelo://app?vid=89e7e073-5608-466f-87a7-1ccb01113393"},"vehicle_type_id":"4","last_reported":1756199497,"current_range_meters":16400,"station_id":"ce4bho92rcd13ifvqh4g","pricing_plan_id":"cebpf4jnsgd1na2vs0mg"},{"bike_id":"84d12ccb-6366-409a-bb47-44f6ad184127","system_id":"levelo_inurba_marseille","lat":43.31218,"lon":5.36835,"is_reserved":false,"is_disabled":false,"rental_uris":{"android":"levelo://app?vid=84d12ccb-6366-409a-bb47-44f6ad184127","ios":"levelo://app?vid=84d12ccb-6366-409a-bb47-44f6ad184127"},"vehicle_type_id":"4","last_reported":1756199497,"current_range_meters":16400,"station_id":"ce4bgl92rcd13ifvqbq0","pricing_plan_id":"cebpf4jnsgd1na2vs0mg"},{"bike_id":"5f53055e-ec35-4946-a1b8-f2f3fe998e49","system_id":"levelo_inurba_marseille","lat":43.24803,"lon":5.37454,"is_reserved":false,"is_disabled":false,"rental_uris":{"android":"levelo://app?vid=5f53055e-ec35-4946-a1b8-f2f3fe998e49","ios":"levelo://app?vid=5f53055e-ec35-4946-a1b8-f2f3fe998e49"},"vehicle_type_id":"4","last_reported":1756199497,"current_range_meters":16400,"station_id":"ce4bhgh2rcd13ifvqfb0","pricing_plan_id":"cebpf4jnsgd1na2vs0mg"},{"bike_id":"507bfa7a-77ad-4faf-874f-5e94ad334f53","system_id":"levelo_inurba_marseille","lat":43.23191,"lon":5.40007,"is_reserved":false,"is_disabled":false,"rental_uris":{"android":"levelo://app?vid=507bfa7a-77ad-4faf-874f-5e94ad334f53","ios":"levelo://app?vid=507bfa7a-77ad-4faf-874f-5e94ad334f53"},"vehicle_type_id":"4","last_reported":1756199497,"current_range_meters":16400,"station_id":"ce4bhn12rcd13ifvqgqg","pricing_plan_id":"cebpf4jnsgd1na2vs0mg"},{"bike_id":"362e989e-a4bd-4853-a096-119dc695446f","system_id":"levelo_inurba_marseille","lat":43.304869,"lon":5.37891,"is_reserved":false,"is_disabled":false,"rental_uris":{"android":"levelo://app?vid=362e989e-a4bd-4853-a096-119dc695446f","ios":"levelo://app?vid=362e989e-a4bd-4853-a096-119dc695446f"},"vehicle_type_id":"4","last_reported":1756199497,"current_range_meters":16400,"station_id":"ce4bgup2rcd13ifvqcn0","pricing_plan_id":"cebpf4jnsgd1na2vs0mg"},{"bike_id":"db7d3d83-f39a-4469-8445-29697e69fec4","system_id":"levelo_inurba_marseille","lat":43.322334,"lon":5.385664,"is_reserved":false,"is_disabled":false,"rental_uris":{"android":"levelo://app?vid=db7d3d83-f39a-4469-8445-29697e69fec4","ios":"levelo://app?vid=db7d3d83-f39a-4469-8445-29697e69fec4"},"vehicle_type_id":"4","last_reported":1756199497,"current_range_meters":16400,"station_id":"","pricing_plan_id":"cebpf4jnsgd1na2vs0mg"},{"bike_id":"826f9c0a-980b-43d8-bf4c-e43d77c221ed","system_id":"levelo_inurba_marseille","lat":43.231885,"lon":5.399863,"is_reserved":false,"is_disabled":false,"rental_uris":{"android":"levelo://app?vid=826f9c0a-980b-43d8-bf4c-e43d77c221ed","ios":"levelo://app?vid=826f9c0a-980b-43d8-bf4c-e43d77c221ed"},"vehicle_type_id":"4","last_reported":1756199497,"current_range_meters":16800,"station_id":"ce4bhn12rcd13ifvqgqg","pricing_plan_id":"cebpf4jnsgd1na2vs0mg"},{"bike_id":"f0400c37-c7f6-4929-b1ac-d92430ff6f2d","system_id":"levelo_inurba_marseille","lat":43.27565,"lon":5.39679,"is_reserved":false,"is_disabled":false,"rental_uris":{"android":"levelo://app?vid=f0400c37-c7f6-4929-b1ac-d92430ff6f2d","ios":"levelo://app?vid=f0400c37-c7f6-4929-b1ac-d92430ff6f2d"},"vehicle_type_id":"4","last_reported":1756199497,"current_range_meters":16800,"station_id":"","pricing_plan_id":"cebpf4jnsgd1na2vs0mg"},{"bike_id":"5bce688b-fc81-4596-8277-b66f54be87c1","system_id":"levelo_inurba_marseille","lat":43.33768,"lon":5.37438,"is_reserved":false,"is_disabled":false,"rental_uris":{"android":"levelo://app?vid=5bce688b-fc81-4596-8277-b66f54be87c1","ios":"levelo://app?vid=5bce688b-fc81-4596-8277-b66f54be87c1"},"vehicle_type_id":"4","last_reported":1756199497,"current_range_meters":16800,"station_id":"","pricing_plan_id":"cebpf4jnsgd1na2vs0mg"},{"bike_id":"c074df6b-f094-42e8-9430-f2f34f0ef1eb","system_id":"levelo_inurba_marseille","lat":43.29817,"lon":5.36279,"is_reserved":false,"is_disabled":true,"rental_uris":{"android":"levelo://app?vid=c074df6b-f094-42e8-9430-f2f34f0ef1eb","ios":"levelo://app?vid=c074df6b-f094-42e8-9430-f2f34f0ef1eb"},"vehicle_type_id":"4","last_reported":1756199497,"current_range_meters":16800,"station_id":"ce4bgpp2rcd13ifvqc3g","pricing_plan_id":"cebpf4jnsgd1na2vs0mg"},{"bike_id":"777a8c83-aed8-4881-84b6-34465956e738","system_id":"levelo_inurba_marseille","lat":43.25748,"lon":5.41018,"is_reserved":false,"is_disabled":false,"rental_uris":{"android":"levelo://app?vid=777a8c83-aed8-4881-84b6-34465956e738","ios":"levelo://app?vid=777a8c83-aed8-4881-84b6-34465956e738"},"vehicle_type_id":"4","last_reported":1756199497,"current_range_meters":16800,"station_id":"","pricing_plan_id":"cebpf4jnsgd1na2vs0mg"},{"bike_id":"af744081-2681-4d1e-9525-a9843cca33d2","system_id":"levelo_inurba_marseille","lat":43.325424,"lon":5.364695,"is_reserved":false,"is_disabled":false,"rental_uris":{"android":"levelo://app?vid=af744081-2681-4d1e-9525-a9843cca33d2","ios":"levelo://app?vid=af744081-2681-4d1e-9525-a9843cca33d2"},"vehicle_type_id":"4","last_reported":1756199497,"current_range_meters":16800,"station_id":"","pricing_plan_id":"cebpf4jnsgd1na2vs0mg"},{"bike_id":"231124fa-5254-48db-97bd-834b4665937b","system_id":"levelo_inurba_marseille","lat":43.28263,"lon":5.35074,"is_reserved":false,"is_disabled":false,"rental_uris":{"android":"levelo://app?vid=231124fa-5254-48db-97bd-834b4665937b","ios":"levelo://app?vid=231124fa-5254-48db-97bd-834b4665937b"},"vehicle_type_id":"4","last_reported":1756199497,"current_range_meters":17200,"station_id":"ce4bhbp2rcd13ifvqerg","pricing_plan_id":"cebpf4jnsgd1na2vs0mg"},{"bike_id":"e2b41c8d-b7be-4c7b-ad76-1f3c49f5b69f","system_id":"levelo_inurba_marseille","lat":43.29043,"lon":5.40011,"is_reserved":false,"is_disabled":false,"rental_uris":{"android":"levelo://app?vid=e2b41c8d-b7be-4c7b-ad76-1f3c49f5b69f","ios":"levelo://app?vid=e2b41c8d-b7be-4c7b-ad76-1f3c49f5b69f"},"vehicle_type_id":"4","last_reported":1756199497,"current_range_meters":17200,"station_id":"ce4bh392rcd13ifvqdm0","pricing_plan_id":"cebpf4jnsgd1na2vs0mg"},{"bike_id":"070c5c08-8102-4233-9aa2-6dc44cc7988e","system_id":"levelo_inurba_marseille","lat":43.30287,"lon":5.38432,"is_reserved":false,"is_disabled":false,"rental_uris":{"android":"levelo://app?vid=070c5c08-8102-4233-9aa2-6dc44cc7988e","ios":"levelo://app?vid=070c5c08-8102-4233-9aa2-6dc44cc7988e"},"vehicle_type_id":"4","last_reported":1756199497,"current_range_meters":17200,"station_id":"","pricing_plan_id":"cebpf4jnsgd1na2vs0mg"},{"bike_id":"2be1f5b3-c908-41bb-a3d4-60efea6b3c4e","system_id":"levelo_inurba_marseille","lat":43.2826,"lon":5.35067,"is_reserved":false,"is_disabled":false,"rental_uris":{"android":"levelo://app?vid=2be1f5b3-c908-41bb-a3d4-60efea6b3c4e","ios":"levelo://app?vid=2be1f5b3-c908-41bb-a3d4-60efea6b3c4e"},"vehicle_type_id":"4","last_reported":1756199497,"current_range_meters":17200,"station_id":"ce4bhbp2rcd13ifvqerg","pricing_plan_id":"cebpf4jnsgd1na2vs0mg"},{"bike_id":"1f8abda0-b398-458e-b1d4-8f630b737e5e","system_id":"levelo_inurba_marseille","lat":43.257237,"lon":5.411177,"is_reserved":false,"is_disabled":false,"rental_uris":{"android":"levelo://app?vid=1f8abda0-b398-458e-b1d4-8f630b737e5e","ios":"levelo://app?vid=1f8abda0-b398-458e-b1d4-8f630b737e5e"},"vehicle_type_id":"4","last_reported":1756199497,"current_range_meters":17200,"station_id":"ce4bhkp2rcd13ifvqgd0","pricing_plan_id":"cebpf4jnsgd1na2vs0mg"},{"bike_id":"80e85dd1-4c23-41ef-bb24-2b8de14aaf1f","system_id":"levelo_inurba_marseille","lat":43.2655,"lon":5.37301,"is_reserved":false,"is_disabled":false,"rental_uris":{"android":"levelo://app?vid=80e85dd1-4c23-41ef-bb24-2b8de14aaf1f","ios":"levelo://app?vid=80e85dd1-4c23-41ef-bb24-2b8de14aaf1f"},"vehicle_type_id":"4","last_reported":1756199497,"current_range_meters":17200,"station_id":"ce4bhg12rcd13ifvqf70","pricing_plan_id":"cebpf4jnsgd1na2vs0mg"},{"bike_id":"4719b46d-9bda-4a90-9b9a-ece640249286","system_id":"levelo_inurba_marseille","lat":43.24406,"lon":5.37071,"is_reserved":false,"is_disabled":false,"rental_uris":{"android":"levelo://app?vid=4719b46d-9bda-4a90-9b9a-ece640249286","ios":"levelo://app?vid=4719b46d-9bda-4a90-9b9a-ece640249286"},"vehicle_type_id":"4","last_reported":1756199497,"current_range_meters":17200,"station_id":"ce4bhhh2rcd13ifvqfk0","pricing_plan_id":"cebpf4jnsgd1na2vs0mg"},{"bike_id":"717e40bb-e08f-4f3f-b96d-71f6fd6a8917","system_id":"levelo_inurba_marseille","lat":43.275665,"lon":5.384129,"is_reserved":false,"is_disabled":false,"rental_uris":{"android":"levelo://app?vid=717e40bb-e08f-4f3f-b96d-71f6fd6a8917","ios":"levelo://app?vid=717e40bb-e08f-4f3f-b96d-71f6fd6a8917"},"vehicle_type_id":"4","last_reported":1756199497,"current_range_meters":17200,"station_id":"ce4bhh92rcd13ifvqfi0","pricing_plan_id":"cebpf4jnsgd1na2vs0mg"},{"bike_id":"8c5907a3-ee80-4821-a7f8-82ac1417cc1c","system_id":"levelo_inurba_marseille","lat":43.30537,"lon":5.36529,"is_reserved":false,"is_disabled":false,"rental_uris":{"android":"levelo://app?vid=8c5907a3-ee80-4821-a7f8-82ac1417cc1c","ios":"levelo://app?vid=8c5907a3-ee80-4821-a7f8-82ac1417cc1c"},"vehicle_type_id":"4","last_reported":1756199497,"current_range_meters":17200,"station_id":"ce4bgs12rcd13ifvqcag","pricing_plan_id":"cebpf4jnsgd1na2vs0mg"},{"bike_id":"fd901496-f7d4-4e5b-a522-b1197318894b","system_id":"levelo_inurba_marseille","lat":43.21196,"lon":5.35075,"is_reserved":false,"is_disabled":false,"rental_uris":{"android":"levelo://app?vid=fd901496-f7d4-4e5b-a522-b1197318894b","ios":"levelo://app?vid=fd901496-f7d4-4e5b-a522-b1197318894b"},"vehicle_type_id":"4","last_reported":1756199497,"current_range_meters":17200,"station_id":"st_cvj6sg6p6f1abm77japg","pricing_plan_id":"cebpf4jnsgd1na2vs0mg"},{"bike_id":"a30d9dc8-3587-4727-92c7-3342534aaaa9","system_id":"levelo_inurba_marseille","lat":43.24399,"lon":5.37085,"is_reserved":false,"is_disabled":false,"rental_uris":{"android":"levelo://app?vid=a30d9dc8-3587-4727-92c7-3342534aaaa9","ios":"levelo://app?vid=a30d9dc8-3587-4727-92c7-3342534aaaa9"},"vehicle_type_id":"4","last_reported":1756199497,"current_range_meters":17600,"station_id":"ce4bhhh2rcd13ifvqfk0","pricing_plan_id":"cebpf4jnsgd1na2vs0mg"},{"bike_id":"7bfd8980-8850-4e6d-8d6f-68a4aab71cf2","system_id":"levelo_inurba_marseille","lat":43.2799,"lon":5.40045,"is_reserved":false,"is_disabled":false,"rental_uris":{"android":"levelo://app?vid=7bfd8980-8850-4e6d-8d6f-68a4aab71cf2","ios":"levelo://app?vid=7bfd8980-8850-4e6d-8d6f-68a4aab71cf2"},"vehicle_type_id":"4","last_reported":1756199497,"current_range_meters":17600,"station_id":"ce4bho92rcd13ifvqh4g","pricing_plan_id":"cebpf4jnsgd1na2vs0mg"},{"bike_id":"4fc0d636-130b-4784-b54f-8e669b16fbd9","system_id":"levelo_inurba_marseille","lat":43.32475,"lon":5.36571,"is_reserved":false,"is_disabled":false,"rental_uris":{"android":"levelo://app?vid=4fc0d636-130b-4784-b54f-8e669b16fbd9","ios":"levelo://app?vid=4fc0d636-130b-4784-b54f-8e669b16fbd9"},"vehicle_type_id":"4","last_reported":1756199497,"current_range_meters":17600,"station_id":"ce4bhs12rcd13ifvqhvg","pricing_plan_id":"cebpf4jnsgd1na2vs0mg"},{"bike_id":"7b18f92f-d001-4a12-87f2-bca57f7f6017","system_id":"levelo_inurba_marseille","lat":43.29631,"lon":5.37738,"is_reserved":false,"is_disabled":false,"rental_uris":{"android":"levelo://app?vid=7b18f92f-d001-4a12-87f2-bca57f7f6017","ios":"levelo://app?vid=7b18f92f-d001-4a12-87f2-bca57f7f6017"},"vehicle_type_id":"4","last_reported":1756199497,"current_range_meters":17600,"station_id":"ce4bgi92rcd13ifvqb90","pricing_plan_id":"cebpf4jnsgd1na2vs0mg"},{"bike_id":"3ec00db0-f693-4c8c-9e12-fd8bad428f40","system_id":"levelo_inurba_marseille","lat":43.29709,"lon":5.37711,"is_reserved":false,"is_disabled":false,"rental_uris":{"android":"levelo://app?vid=3ec00db0-f693-4c8c-9e12-fd8bad428f40","ios":"levelo://app?vid=3ec00db0-f693-4c8c-9e12-fd8bad428f40"},"vehicle_type_id":"4","last_reported":1756199497,"current_range_meters":18000,"station_id":"ce4bgkh2rcd13ifvqbl0","pricing_plan_id":"cebpf4jnsgd1na2vs0mg"},{"bike_id":"4fef95ca-f40b-4b40-8821-0a3c8f81e875","system_id":"levelo_inurba_marseille","lat":43.25581,"lon":5.3821,"is_reserved":false,"is_disabled":false,"rental_uris":{"android":"levelo://app?vid=4fef95ca-f40b-4b40-8821-0a3c8f81e875","ios":"levelo://app?vid=4fef95ca-f40b-4b40-8821-0a3c8f81e875"},"vehicle_type_id":"4","last_reported":1756199497,"current_range_meters":18000,"station_id":"ce4bhih2rcd13ifvqfs0","pricing_plan_id":"cebpf4jnsgd1na2vs0mg"},{"bike_id":"0beb95ba-3726-477a-8aa7-6ae0dfc1af3b","system_id":"levelo_inurba_marseille","lat":43.29225,"lon":5.36068,"is_reserved":false,"is_disabled":false,"rental_uris":{"android":"levelo://app?vid=0beb95ba-3726-477a-8aa7-6ae0dfc1af3b","ios":"levelo://app?vid=0beb95ba-3726-477a-8aa7-6ae0dfc1af3b"},"vehicle_type_id":"4","last_reported":1756199497,"current_range_meters":18000,"station_id":"ce4bhbh2rcd13ifvqeqg","pricing_plan_id":"cebpf4jnsgd1na2vs0mg"},{"bike_id":"fb720fc8-aae2-4709-bc44-b8ffb32380b6","system_id":"levelo_inurba_marseille","lat":43.23191,"lon":5.35558,"is_reserved":false,"is_disabled":false,"rental_uris":{"android":"levelo://app?vid=fb720fc8-aae2-4709-bc44-b8ffb32380b6","ios":"levelo://app?vid=fb720fc8-aae2-4709-bc44-b8ffb32380b6"},"vehicle_type_id":"4","last_reported":1756199497,"current_range_meters":18000,"station_id":"ce4bhu92rcd13ifvqi70","pricing_plan_id":"cebpf4jnsgd1na2vs0mg"},{"bike_id":"bd6ec27d-6f08-4b96-9fb4-f1e7e2dc5f6a","system_id":"levelo_inurba_marseille","lat":43.25578,"lon":5.3825,"is_reserved":false,"is_disabled":false,"rental_uris":{"android":"levelo://app?vid=bd6ec27d-6f08-4b96-9fb4-f1e7e2dc5f6a","ios":"levelo://app?vid=bd6ec27d-6f08-4b96-9fb4-f1e7e2dc5f6a"},"vehicle_type_id":"4","last_reported":1756199497,"current_range_meters":18800,"station_id":"ce4bhih2rcd13ifvqfs0","pricing_plan_id":"cebpf4jnsgd1na2vs0mg"},{"bike_id":"d6c6da60-128c-46a7-bf1f-93a7524b2ea1","system_id":"levelo_inurba_marseille","lat":43.29706,"lon":5.36615,"is_reserved":false,"is_disabled":false,"rental_uris":{"android":"levelo://app?vid=d6c6da60-128c-46a7-bf1f-93a7524b2ea1","ios":"levelo://app?vid=d6c6da60-128c-46a7-bf1f-93a7524b2ea1"},"vehicle_type_id":"4","last_reported":1756199497,"current_range_meters":18800,"station_id":"ce4bgn12rcd13ifvqbt0","pricing_plan_id":"cebpf4jnsgd1na2vs0mg"},{"bike_id":"b312719e-9f87-4720-8bb9-8182bd4bc78f","system_id":"levelo_inurba_marseille","lat":43.282678,"lon":5.350607,"is_reserved":false,"is_disabled":false,"rental_uris":{"android":"levelo://app?vid=b312719e-9f87-4720-8bb9-8182bd4bc78f","ios":"levelo://app?vid=b312719e-9f87-4720-8bb9-8182bd4bc78f"},"vehicle_type_id":"4","last_reported":1756199497,"current_range_meters":18800,"station_id":"ce4bhbp2rcd13ifvqerg","pricing_plan_id":"cebpf4jnsgd1na2vs0mg"},{"bike_id":"fd0865b3-af49-4c3e-86f4-49934bd2d289","system_id":"levelo_inurba_marseille","lat":43.297055,"lon":5.366114,"is_reserved":false,"is_disabled":true,"rental_uris":{"android":"levelo://app?vid=fd0865b3-af49-4c3e-86f4-49934bd2d289","ios":"levelo://app?vid=fd0865b3-af49-4c3e-86f4-49934bd2d289"},"vehicle_type_id":"4","last_reported":1756199497,"current_range_meters":18800,"station_id":"ce4bgn12rcd13ifvqbt0","pricing_plan_id":"cebpf4jnsgd1na2vs0mg"},{"bike_id":"3dff11d5-3872-4ffe-8cce-b5631d6c6058","system_id":"levelo_inurba_marseille","lat":43.3269,"lon":5.39251,"is_reserved":false,"is_disabled":false,"rental_uris":{"android":"levelo://app?vid=3dff11d5-3872-4ffe-8cce-b5631d6c6058","ios":"levelo://app?vid=3dff11d5-3872-4ffe-8cce-b5631d6c6058"},"vehicle_type_id":"4","last_reported":1756199497,"current_range_meters":18800,"station_id":"","pricing_plan_id":"cebpf4jnsgd1na2vs0mg"},{"bike_id":"bbc70fb9-c407-4334-934d-5a72510c7baf","system_id":"levelo_inurba_marseille","lat":43.23965,"lon":5.36634,"is_reserved":false,"is_disabled":false,"rental_uris":{"android":"levelo://app?vid=bbc70fb9-c407-4334-934d-5a72510c7baf","ios":"levelo://app?vid=bbc70fb9-c407-4334-934d-5a72510c7baf"},"vehicle_type_id":"4","last_reported":1756199497,"current_range_meters":18800,"station_id":"ce4bhi12rcd13ifvqfp0","pricing_plan_id":"cebpf4jnsgd1na2vs0mg"},{"bike_id":"07aa328f-367b-493e-9727-2ee7d68590a5","system_id":"levelo_inurba_marseille","lat":43.32485,"lon":5.36577,"is_reserved":false,"is_disabled":false,"rental_uris":{"android":"levelo://app?vid=07aa328f-367b-493e-9727-2ee7d68590a5","ios":"levelo://app?vid=07aa328f-367b-493e-9727-2ee7d68590a5"},"vehicle_type_id":"4","last_reported":1756199497,"current_range_meters":18800,"station_id":"ce4bhs12rcd13ifvqhvg","pricing_plan_id":"cebpf4jnsgd1na2vs0mg"},{"bike_id":"68f941b2-06f0-421e-be05-29512e442899","system_id":"levelo_inurba_marseille","lat":43.292311,"lon":5.360734,"is_reserved":false,"is_disabled":false,"rental_uris":{"android":"levelo://app?vid=68f941b2-06f0-421e-be05-29512e442899","ios":"levelo://app?vid=68f941b2-06f0-421e-be05-29512e442899"},"vehicle_type_id":"4","last_reported":1756199497,"current_range_meters":18800,"station_id":"ce4bhbh2rcd13ifvqeqg","pricing_plan_id":"cebpf4jnsgd1na2vs0mg"},{"bike_id":"c27f3b24-32ef-4905-a33d-9a2c44907bce","system_id":"levelo_inurba_marseille","lat":43.32491,"lon":5.36561,"is_reserved":false,"is_disabled":false,"rental_uris":{"android":"levelo://app?vid=c27f3b24-32ef-4905-a33d-9a2c44907bce","ios":"levelo://app?vid=c27f3b24-32ef-4905-a33d-9a2c44907bce"},"vehicle_type_id":"4","last_reported":1756199497,"current_range_meters":19200,"station_id":"ce4bhs12rcd13ifvqhvg","pricing_plan_id":"cebpf4jnsgd1na2vs0mg"},{"bike_id":"248bf14d-378d-4e2f-9999-982acfdf56f9","system_id":"levelo_inurba_marseille","lat":43.28425,"lon":5.34999,"is_reserved":false,"is_disabled":false,"rental_uris":{"android":"levelo://app?vid=248bf14d-378d-4e2f-9999-982acfdf56f9","ios":"levelo://app?vid=248bf14d-378d-4e2f-9999-982acfdf56f9"},"vehicle_type_id":"4","last_reported":1756199497,"current_range_meters":19200,"station_id":"ce4bhbh2rcd13ifvqepg","pricing_plan_id":"cebpf4jnsgd1na2vs0mg"},{"bike_id":"145bd2df-5d83-4b65-a7a4-73938d68d216","system_id":"levelo_inurba_marseille","lat":43.26677,"lon":5.38268,"is_reserved":false,"is_disabled":false,"rental_uris":{"android":"levelo://app?vid=145bd2df-5d83-4b65-a7a4-73938d68d216","ios":"levelo://app?vid=145bd2df-5d83-4b65-a7a4-73938d68d216"},"vehicle_type_id":"4","last_reported":1756199497,"current_range_meters":19200,"station_id":"ce4bhg92rcd13ifvqf90","pricing_plan_id":"cebpf4jnsgd1na2vs0mg"},{"bike_id":"b578eacf-0633-4cc1-814b-98d359eb35e9","system_id":"levelo_inurba_marseille","lat":43.270761,"lon":5.422851,"is_reserved":false,"is_disabled":false,"rental_uris":{"android":"levelo://app?vid=b578eacf-0633-4cc1-814b-98d359eb35e9","ios":"levelo://app?vid=b578eacf-0633-4cc1-814b-98d359eb35e9"},"vehicle_type_id":"4","last_reported":1756199497,"current_range_meters":19200,"station_id":"ce4bhk92rcd13ifvqgb0","pricing_plan_id":"cebpf4jnsgd1na2vs0mg"},{"bike_id":"abaf99ca-5823-4460-ba5c-ff01280743d0","system_id":"levelo_inurba_marseille","lat":43.270759,"lon":5.422868,"is_reserved":false,"is_disabled":false,"rental_uris":{"android":"levelo://app?vid=abaf99ca-5823-4460-ba5c-ff01280743d0","ios":"levelo://app?vid=abaf99ca-5823-4460-ba5c-ff01280743d0"},"vehicle_type_id":"4","last_reported":1756199497,"current_range_meters":19200,"station_id":"ce4bhk92rcd13ifvqgb0","pricing_plan_id":"cebpf4jnsgd1na2vs0mg"},{"bike_id":"4dd066a3-5039-4c08-96e4-92ee4cbb306d","system_id":"levelo_inurba_marseille","lat":43.23204,"lon":5.35541,"is_reserved":false,"is_disabled":false,"rental_uris":{"android":"levelo://app?vid=4dd066a3-5039-4c08-96e4-92ee4cbb306d","ios":"levelo://app?vid=4dd066a3-5039-4c08-96e4-92ee4cbb306d"},"vehicle_type_id":"4","last_reported":1756199497,"current_range_meters":19200,"station_id":"ce4bhu92rcd13ifvqi70","pricing_plan_id":"cebpf4jnsgd1na2vs0mg"},{"bike_id":"d5edd176-dc20-48cc-aea0-c4b4119653a3","system_id":"levelo_inurba_marseille","lat":43.28413,"lon":5.34989,"is_reserved":false,"is_disabled":false,"rental_uris":{"android":"levelo://app?vid=d5edd176-dc20-48cc-aea0-c4b4119653a3","ios":"levelo://app?vid=d5edd176-dc20-48cc-aea0-c4b4119653a3"},"vehicle_type_id":"4","last_reported":1756199497,"current_range_meters":19200,"station_id":"ce4bhbh2rcd13ifvqepg","pricing_plan_id":"cebpf4jnsgd1na2vs0mg"},{"bike_id":"e0c28886-efce-41c0-b92e-4da140642cd7","system_id":"levelo_inurba_marseille","lat":43.23181,"lon":5.40002,"is_reserved":false,"is_disabled":false,"rental_uris":{"android":"levelo://app?vid=e0c28886-efce-41c0-b92e-4da140642cd7","ios":"levelo://app?vid=e0c28886-efce-41c0-b92e-4da140642cd7"},"vehicle_type_id":"4","last_reported":1756199497,"current_range_meters":19200,"station_id":"ce4bhn12rcd13ifvqgqg","pricing_plan_id":"cebpf4jnsgd1na2vs0mg"},{"bike_id":"5ba8ae03-6645-42fb-9ff7-00254f164c9a","system_id":"levelo_inurba_marseille","lat":43.30894,"lon":5.37201,"is_reserved":false,"is_disabled":false,"rental_uris":{"android":"levelo://app?vid=5ba8ae03-6645-42fb-9ff7-00254f164c9a","ios":"levelo://app?vid=5ba8ae03-6645-42fb-9ff7-00254f164c9a"},"vehicle_type_id":"4","last_reported":1756199497,"current_range_meters":19200,"station_id":"ce4bguh2rcd13ifvqckg","pricing_plan_id":"cebpf4jnsgd1na2vs0mg"},{"bike_id":"3efd5b4c-544b-47ae-b771-88c8225668bb","system_id":"levelo_inurba_marseille","lat":43.24172,"lon":5.36416,"is_reserved":false,"is_disabled":false,"rental_uris":{"android":"levelo://app?vid=3efd5b4c-544b-47ae-b771-88c8225668bb","ios":"levelo://app?vid=3efd5b4c-544b-47ae-b771-88c8225668bb"},"vehicle_type_id":"4","last_reported":1756199497,"current_range_meters":19600,"station_id":"cpo36qri1sfpv3e86is0","pricing_plan_id":"cebpf4jnsgd1na2vs0mg"},{"bike_id":"e5eabf25-4e1c-476e-b130-9f83cdcfc80c","system_id":"levelo_inurba_marseille","lat":43.298135,"lon":5.417165,"is_reserved":false,"is_disabled":false,"rental_uris":{"android":"levelo://app?vid=e5eabf25-4e1c-476e-b130-9f83cdcfc80c","ios":"levelo://app?vid=e5eabf25-4e1c-476e-b130-9f83cdcfc80c"},"vehicle_type_id":"4","last_reported":1756199497,"current_range_meters":19600,"station_id":"","pricing_plan_id":"cebpf4jnsgd1na2vs0mg"},{"bike_id":"fbf0e9b4-0244-4455-89e8-bb336b1646cf","system_id":"levelo_inurba_marseille","lat":43.2319,"lon":5.40006,"is_reserved":false,"is_disabled":false,"rental_uris":{"android":"levelo://app?vid=fbf0e9b4-0244-4455-89e8-bb336b1646cf","ios":"levelo://app?vid=fbf0e9b4-0244-4455-89e8-bb336b1646cf"},"vehicle_type_id":"4","last_reported":1756199497,"current_range_meters":19600,"station_id":"ce4bhn12rcd13ifvqgqg","pricing_plan_id":"cebpf4jnsgd1na2vs0mg"},{"bike_id":"900bbe11-ef93-430f-98d2-d72b420655c0","system_id":"levelo_inurba_marseille","lat":43.30467,"lon":5.37879,"is_reserved":false,"is_disabled":false,"rental_uris":{"android":"levelo://app?vid=900bbe11-ef93-430f-98d2-d72b420655c0","ios":"levelo://app?vid=900bbe11-ef93-430f-98d2-d72b420655c0"},"vehicle_type_id":"4","last_reported":1756199497,"current_range_meters":19600,"station_id":"ce4bgup2rcd13ifvqcn0","pricing_plan_id":"cebpf4jnsgd1na2vs0mg"},{"bike_id":"f646ff42-2ccf-4579-bfdd-0752cc7cefa9","system_id":"levelo_inurba_marseille","lat":43.24393,"lon":5.37063,"is_reserved":false,"is_disabled":false,"rental_uris":{"android":"levelo://app?vid=f646ff42-2ccf-4579-bfdd-0752cc7cefa9","ios":"levelo://app?vid=f646ff42-2ccf-4579-bfdd-0752cc7cefa9"},"vehicle_type_id":"4","last_reported":1756199497,"current_range_meters":19600,"station_id":"ce4bhhh2rcd13ifvqfk0","pricing_plan_id":"cebpf4jnsgd1na2vs0mg"},{"bike_id":"1ec9dbcb-a507-4f12-96fb-e06429b32826","system_id":"levelo_inurba_marseille","lat":43.29277,"lon":5.36848,"is_reserved":false,"is_disabled":false,"rental_uris":{"android":"levelo://app?vid=1ec9dbcb-a507-4f12-96fb-e06429b32826","ios":"levelo://app?vid=1ec9dbcb-a507-4f12-96fb-e06429b32826"},"vehicle_type_id":"4","last_reported":1756199497,"current_range_meters":19600,"station_id":"ce4bhbp2rcd13ifvqesg","pricing_plan_id":"cebpf4jnsgd1na2vs0mg"},{"bike_id":"e56f2f8f-380a-484f-9528-670d6b3f332e","system_id":"levelo_inurba_marseille","lat":43.284855,"lon":5.384157,"is_reserved":false,"is_disabled":false,"rental_uris":{"android":"levelo://app?vid=e56f2f8f-380a-484f-9528-670d6b3f332e","ios":"levelo://app?vid=e56f2f8f-380a-484f-9528-670d6b3f332e"},"vehicle_type_id":"4","last_reported":1756199497,"current_range_meters":19600,"station_id":"ce4bh512rcd13ifvqe3g","pricing_plan_id":"cebpf4jnsgd1na2vs0mg"},{"bike_id":"0acc39f7-82d9-4ee5-99e0-3bcf19e8b8e4","system_id":"levelo_inurba_marseille","lat":43.24545,"lon":5.3953,"is_reserved":false,"is_disabled":true,"rental_uris":{"android":"levelo://app?vid=0acc39f7-82d9-4ee5-99e0-3bcf19e8b8e4","ios":"levelo://app?vid=0acc39f7-82d9-4ee5-99e0-3bcf19e8b8e4"},"vehicle_type_id":"4","last_reported":1756199497,"current_range_meters":20000,"station_id":"ce4bhlp2rcd13ifvqgjg","pricing_plan_id":"cebpf4jnsgd1na2vs0mg"},{"bike_id":"a39dc74b-12eb-409e-b9e7-8d5451b5c858","system_id":"levelo_inurba_marseille","lat":43.28615,"lon":5.35103,"is_reserved":false,"is_disabled":false,"rental_uris":{"android":"levelo://app?vid=a39dc74b-12eb-409e-b9e7-8d5451b5c858","ios":"levelo://app?vid=a39dc74b-12eb-409e-b9e7-8d5451b5c858"},"vehicle_type_id":"4","last_reported":1756199497,"current_range_meters":20000,"station_id":"ce4bhch2rcd13ifvqeug","pricing_plan_id":"cebpf4jnsgd1na2vs0mg"},{"bike_id":"dcd6491e-a011-42be-92f1-b959630add63","system_id":"levelo_inurba_marseille","lat":43.28,"lon":5.40014,"is_reserved":false,"is_disabled":false,"rental_uris":{"android":"levelo://app?vid=dcd6491e-a011-42be-92f1-b959630add63","ios":"levelo://app?vid=dcd6491e-a011-42be-92f1-b959630add63"},"vehicle_type_id":"4","last_reported":1756199497,"current_range_meters":20000,"station_id":"ce4bho92rcd13ifvqh4g","pricing_plan_id":"cebpf4jnsgd1na2vs0mg"},{"bike_id":"f5ed9522-5cbe-404d-bad2-c09ee7deb40b","system_id":"levelo_inurba_marseille","lat":43.27073,"lon":5.4228,"is_reserved":false,"is_disabled":false,"rental_uris":{"android":"levelo://app?vid=f5ed9522-5cbe-404d-bad2-c09ee7deb40b","ios":"levelo://app?vid=f5ed9522-5cbe-404d-bad2-c09ee7deb40b"},"vehicle_type_id":"4","last_reported":1756199497,"current_range_meters":20000,"station_id":"ce4bhk92rcd13ifvqgb0","pricing_plan_id":"cebpf4jnsgd1na2vs0mg"},{"bike_id":"ea3f0e70-58f7-4c4e-9a18-402a5de5f326","system_id":"levelo_inurba_marseille","lat":43.31228,"lon":5.36857,"is_reserved":false,"is_disabled":false,"rental_uris":{"android":"levelo://app?vid=ea3f0e70-58f7-4c4e-9a18-402a5de5f326","ios":"levelo://app?vid=ea3f0e70-58f7-4c4e-9a18-402a5de5f326"},"vehicle_type_id":"4","last_reported":1756199497,"current_range_meters":20000,"station_id":"ce4bgl92rcd13ifvqbq0","pricing_plan_id":"cebpf4jnsgd1na2vs0mg"},{"bike_id":"c6952b68-73a7-4e45-86b1-28992978a514","system_id":"levelo_inurba_marseille","lat":43.30909,"lon":5.36855,"is_reserved":false,"is_disabled":false,"rental_uris":{"android":"levelo://app?vid=c6952b68-73a7-4e45-86b1-28992978a514","ios":"levelo://app?vid=c6952b68-73a7-4e45-86b1-28992978a514"},"vehicle_type_id":"4","last_reported":1756199497,"current_range_meters":20000,"station_id":"ce4bgn92rcd13ifvqbvg","pricing_plan_id":"cebpf4jnsgd1na2vs0mg"},{"bike_id":"50bdb719-89cb-41fc-aa92-0f2bd4971dc2","system_id":"levelo_inurba_marseille","lat":43.29007,"lon":5.3561,"is_reserved":false,"is_disabled":false,"rental_uris":{"android":"levelo://app?vid=50bdb719-89cb-41fc-aa92-0f2bd4971dc2","ios":"levelo://app?vid=50bdb719-89cb-41fc-aa92-0f2bd4971dc2"},"vehicle_type_id":"4","last_reported":1756199497,"current_range_meters":20000,"station_id":"ce4bhb92rcd13ifvqen0","pricing_plan_id":"cebpf4jnsgd1na2vs0mg"},{"bike_id":"4369cde1-4a03-4187-8fa8-36de47124511","system_id":"levelo_inurba_marseille","lat":43.27368,"lon":5.3626,"is_reserved":false,"is_disabled":false,"rental_uris":{"android":"levelo://app?vid=4369cde1-4a03-4187-8fa8-36de47124511","ios":"levelo://app?vid=4369cde1-4a03-4187-8fa8-36de47124511"},"vehicle_type_id":"4","last_reported":1756199497,"current_range_meters":20000,"station_id":"ce4bhbh2rcd13ifvqeo0","pricing_plan_id":"cebpf4jnsgd1na2vs0mg"},{"bike_id":"06986b65-cd45-4940-8340-cfdab787c20c","system_id":"levelo_inurba_marseille","lat":43.3108,"lon":5.38353,"is_reserved":false,"is_disabled":false,"rental_uris":{"android":"levelo://app?vid=06986b65-cd45-4940-8340-cfdab787c20c","ios":"levelo://app?vid=06986b65-cd45-4940-8340-cfdab787c20c"},"vehicle_type_id":"4","last_reported":1756199497,"current_range_meters":20000,"station_id":"ce4bgv92rcd13ifvqcr0","pricing_plan_id":"cebpf4jnsgd1na2vs0mg"},{"bike_id":"5557189e-4d8c-412b-8888-94db0ea051a7","system_id":"levelo_inurba_marseille","lat":43.33757,"lon":5.37443,"is_reserved":false,"is_disabled":false,"rental_uris":{"android":"levelo://app?vid=5557189e-4d8c-412b-8888-94db0ea051a7","ios":"levelo://app?vid=5557189e-4d8c-412b-8888-94db0ea051a7"},"vehicle_type_id":"4","last_reported":1756199497,"current_range_meters":20000,"station_id":"","pricing_plan_id":"cebpf4jnsgd1na2vs0mg"},{"bike_id":"84ba8b0b-6d6a-4919-9e45-3a5593232fd2","system_id":"levelo_inurba_marseille","lat":43.2417,"lon":5.36409,"is_reserved":false,"is_disabled":false,"rental_uris":{"android":"levelo://app?vid=84ba8b0b-6d6a-4919-9e45-3a5593232fd2","ios":"levelo://app?vid=84ba8b0b-6d6a-4919-9e45-3a5593232fd2"},"vehicle_type_id":"4","last_reported":1756199497,"current_range_meters":20000,"station_id":"cpo36qri1sfpv3e86is0","pricing_plan_id":"cebpf4jnsgd1na2vs0mg"},{"bike_id":"7d802eb3-8055-4765-a5e9-6c32f6d7ebc7","system_id":"levelo_inurba_marseille","lat":43.239609,"lon":5.366239,"is_reserved":false,"is_disabled":false,"rental_uris":{"android":"levelo://app?vid=7d802eb3-8055-4765-a5e9-6c32f6d7ebc7","ios":"levelo://app?vid=7d802eb3-8055-4765-a5e9-6c32f6d7ebc7"},"vehicle_type_id":"4","last_reported":1756199497,"current_range_meters":20400,"station_id":"ce4bhi12rcd13ifvqfp0","pricing_plan_id":"cebpf4jnsgd1na2vs0mg"},{"bike_id":"5002ab8f-0c9d-4313-b523-fd24100199d7","system_id":"levelo_inurba_marseille","lat":43.32472,"lon":5.36594,"is_reserved":false,"is_disabled":false,"rental_uris":{"android":"levelo://app?vid=5002ab8f-0c9d-4313-b523-fd24100199d7","ios":"levelo://app?vid=5002ab8f-0c9d-4313-b523-fd24100199d7"},"vehicle_type_id":"4","last_reported":1756199497,"current_range_meters":20400,"station_id":"ce4bhs12rcd13ifvqhvg","pricing_plan_id":"cebpf4jnsgd1na2vs0mg"},{"bike_id":"5c26a54e-1e97-4ad3-a16d-614ad930b130","system_id":"levelo_inurba_marseille","lat":43.32102,"lon":5.367695,"is_reserved":false,"is_disabled":false,"rental_uris":{"android":"levelo://app?vid=5c26a54e-1e97-4ad3-a16d-614ad930b130","ios":"levelo://app?vid=5c26a54e-1e97-4ad3-a16d-614ad930b130"},"vehicle_type_id":"4","last_reported":1756199497,"current_range_meters":20400,"station_id":"ce4bhrh2rcd13ifvqhug","pricing_plan_id":"cebpf4jnsgd1na2vs0mg"},{"bike_id":"2f38b9be-c9bc-410d-8515-20f9d9c227e4","system_id":"levelo_inurba_marseille","lat":43.27073,"lon":5.42282,"is_reserved":false,"is_disabled":false,"rental_uris":{"android":"levelo://app?vid=2f38b9be-c9bc-410d-8515-20f9d9c227e4","ios":"levelo://app?vid=2f38b9be-c9bc-410d-8515-20f9d9c227e4"},"vehicle_type_id":"4","last_reported":1756199497,"current_range_meters":20400,"station_id":"ce4bhk92rcd13ifvqgb0","pricing_plan_id":"cebpf4jnsgd1na2vs0mg"},{"bike_id":"71136ea1-3aaf-4521-8084-554abe261412","system_id":"levelo_inurba_marseille","lat":43.303037,"lon":5.369059,"is_reserved":false,"is_disabled":true,"rental_uris":{"android":"levelo://app?vid=71136ea1-3aaf-4521-8084-554abe261412","ios":"levelo://app?vid=71136ea1-3aaf-4521-8084-554abe261412"},"vehicle_type_id":"4","last_reported":1756199497,"current_range_meters":20400,"station_id":"","pricing_plan_id":"cebpf4jnsgd1na2vs0mg"},{"bike_id":"21c4ff17-d83a-4faa-9359-094f4cb37fa0","system_id":"levelo_inurba_marseille","lat":43.29577,"lon":5.37523,"is_reserved":false,"is_disabled":false,"rental_uris":{"android":"levelo://app?vid=21c4ff17-d83a-4faa-9359-094f4cb37fa0","ios":"levelo://app?vid=21c4ff17-d83a-4faa-9359-094f4cb37fa0"},"vehicle_type_id":"4","last_reported":1756199497,"current_range_meters":20400,"station_id":"ce4bgh92rcd13ifvqb50","pricing_plan_id":"cebpf4jnsgd1na2vs0mg"},{"bike_id":"3115c199-1541-45cb-a98a-f6ff5bbd4b1f","system_id":"levelo_inurba_marseille","lat":43.308044,"lon":5.369819,"is_reserved":false,"is_disabled":false,"rental_uris":{"android":"levelo://app?vid=3115c199-1541-45cb-a98a-f6ff5bbd4b1f","ios":"levelo://app?vid=3115c199-1541-45cb-a98a-f6ff5bbd4b1f"},"vehicle_type_id":"4","last_reported":1756199497,"current_range_meters":20400,"station_id":"","pricing_plan_id":"cebpf4jnsgd1na2vs0mg"},{"bike_id":"a9d83b21-9821-4029-bb59-40c830188146","system_id":"levelo_inurba_marseille","lat":43.32387,"lon":5.3678,"is_reserved":false,"is_disabled":false,"rental_uris":{"android":"levelo://app?vid=a9d83b21-9821-4029-bb59-40c830188146","ios":"levelo://app?vid=a9d83b21-9821-4029-bb59-40c830188146"},"vehicle_type_id":"4","last_reported":1756199497,"current_range_meters":20400,"station_id":"","pricing_plan_id":"cebpf4jnsgd1na2vs0mg"},{"bike_id":"ddbcda8c-4ef0-4b4d-b81f-da17b558e668","system_id":"levelo_inurba_marseille","lat":43.28473,"lon":5.38417,"is_reserved":false,"is_disabled":false,"rental_uris":{"android":"levelo://app?vid=ddbcda8c-4ef0-4b4d-b81f-da17b558e668","ios":"levelo://app?vid=ddbcda8c-4ef0-4b4d-b81f-da17b558e668"},"vehicle_type_id":"4","last_reported":1756199497,"current_range_meters":20400,"station_id":"ce4bh512rcd13ifvqe3g","pricing_plan_id":"cebpf4jnsgd1na2vs0mg"},{"bike_id":"f67c8e5e-7af8-4847-a4ce-1e12088b4291","system_id":"levelo_inurba_marseille","lat":43.32524,"lon":5.36857,"is_reserved":false,"is_disabled":false,"rental_uris":{"android":"levelo://app?vid=f67c8e5e-7af8-4847-a4ce-1e12088b4291","ios":"levelo://app?vid=f67c8e5e-7af8-4847-a4ce-1e12088b4291"},"vehicle_type_id":"4","last_reported":1756199497,"current_range_meters":20400,"station_id":"","pricing_plan_id":"cebpf4jnsgd1na2vs0mg"},{"bike_id":"265b9454-8093-49f3-a871-5e969b912c74","system_id":"levelo_inurba_marseille","lat":43.29036,"lon":5.3997,"is_reserved":false,"is_disabled":false,"rental_uris":{"android":"levelo://app?vid=265b9454-8093-49f3-a871-5e969b912c74","ios":"levelo://app?vid=265b9454-8093-49f3-a871-5e969b912c74"},"vehicle_type_id":"4","last_reported":1756199497,"current_range_meters":20400,"station_id":"ce4bh392rcd13ifvqdm0","pricing_plan_id":"cebpf4jnsgd1na2vs0mg"},{"bike_id":"547e9b96-9c55-431a-bfba-68a5bf6594bc","system_id":"levelo_inurba_marseille","lat":43.29,"lon":5.35628,"is_reserved":false,"is_disabled":false,"rental_uris":{"android":"levelo://app?vid=547e9b96-9c55-431a-bfba-68a5bf6594bc","ios":"levelo://app?vid=547e9b96-9c55-431a-bfba-68a5bf6594bc"},"vehicle_type_id":"4","last_reported":1756199497,"current_range_meters":20400,"station_id":"ce4bhb92rcd13ifvqen0","pricing_plan_id":"cebpf4jnsgd1na2vs0mg"},{"bike_id":"1ef248bb-a4ad-4469-87c6-e462343a012d","system_id":"levelo_inurba_marseille","lat":43.31374,"lon":5.36718,"is_reserved":false,"is_disabled":false,"rental_uris":{"android":"levelo://app?vid=1ef248bb-a4ad-4469-87c6-e462343a012d","ios":"levelo://app?vid=1ef248bb-a4ad-4469-87c6-e462343a012d"},"vehicle_type_id":"4","last_reported":1756199497,"current_range_meters":20400,"station_id":"ce4bgr92rcd13ifvqc6g","pricing_plan_id":"cebpf4jnsgd1na2vs0mg"},{"bike_id":"dcde8d9e-f882-4230-a37f-7ddc04dac0e0","system_id":"levelo_inurba_marseille","lat":43.29917,"lon":5.37491,"is_reserved":false,"is_disabled":false,"rental_uris":{"android":"levelo://app?vid=dcde8d9e-f882-4230-a37f-7ddc04dac0e0","ios":"levelo://app?vid=dcde8d9e-f882-4230-a37f-7ddc04dac0e0"},"vehicle_type_id":"4","last_reported":1756199497,"current_range_meters":20800,"station_id":"ce4bgjh2rcd13ifvqbg0","pricing_plan_id":"cebpf4jnsgd1na2vs0mg"},{"bike_id":"3f9be686-da07-4cff-aa83-58ad7250b77b","system_id":"levelo_inurba_marseille","lat":43.28411,"lon":5.34986,"is_reserved":false,"is_disabled":false,"rental_uris":{"android":"levelo://app?vid=3f9be686-da07-4cff-aa83-58ad7250b77b","ios":"levelo://app?vid=3f9be686-da07-4cff-aa83-58ad7250b77b"},"vehicle_type_id":"4","last_reported":1756199497,"current_range_meters":20800,"station_id":"ce4bhbh2rcd13ifvqepg","pricing_plan_id":"cebpf4jnsgd1na2vs0mg"},{"bike_id":"b17e9630-4e67-4e4a-bb95-0a4f7773f222","system_id":"levelo_inurba_marseille","lat":43.29636,"lon":5.37629,"is_reserved":false,"is_disabled":false,"rental_uris":{"android":"levelo://app?vid=b17e9630-4e67-4e4a-bb95-0a4f7773f222","ios":"levelo://app?vid=b17e9630-4e67-4e4a-bb95-0a4f7773f222"},"vehicle_type_id":"4","last_reported":1756199497,"current_range_meters":20800,"station_id":"","pricing_plan_id":"cebpf4jnsgd1na2vs0mg"},{"bike_id":"9f2bb7dc-bd4f-42d8-99ee-fec2cba10242","system_id":"levelo_inurba_marseille","lat":43.299485,"lon":5.379655,"is_reserved":false,"is_disabled":false,"rental_uris":{"android":"levelo://app?vid=9f2bb7dc-bd4f-42d8-99ee-fec2cba10242","ios":"levelo://app?vid=9f2bb7dc-bd4f-42d8-99ee-fec2cba10242"},"vehicle_type_id":"4","last_reported":1756199497,"current_range_meters":21600,"station_id":"","pricing_plan_id":"cebpf4jnsgd1na2vs0mg"},{"bike_id":"e59d7723-76fb-4bbd-b741-d84b788526bf","system_id":"levelo_inurba_marseille","lat":43.33605,"lon":5.410267,"is_reserved":false,"is_disabled":false,"rental_uris":{"android":"levelo://app?vid=e59d7723-76fb-4bbd-b741-d84b788526bf","ios":"levelo://app?vid=e59d7723-76fb-4bbd-b741-d84b788526bf"},"vehicle_type_id":"4","last_reported":1756199497,"current_range_meters":21600,"station_id":"ce4bhqh2rcd13ifvqhmg","pricing_plan_id":"cebpf4jnsgd1na2vs0mg"},{"bike_id":"56012dee-194d-468e-8253-ac47edab59fe","system_id":"levelo_inurba_marseille","lat":43.29009,"lon":5.35611,"is_reserved":false,"is_disabled":false,"rental_uris":{"android":"levelo://app?vid=56012dee-194d-468e-8253-ac47edab59fe","ios":"levelo://app?vid=56012dee-194d-468e-8253-ac47edab59fe"},"vehicle_type_id":"4","last_reported":1756199497,"current_range_meters":21600,"station_id":"ce4bhb92rcd13ifvqen0","pricing_plan_id":"cebpf4jnsgd1na2vs0mg"},{"bike_id":"5ae0b730-282c-47e7-ad5d-6c44221d9fc5","system_id":"levelo_inurba_marseille","lat":43.28616,"lon":5.3511,"is_reserved":false,"is_disabled":false,"rental_uris":{"android":"levelo://app?vid=5ae0b730-282c-47e7-ad5d-6c44221d9fc5","ios":"levelo://app?vid=5ae0b730-282c-47e7-ad5d-6c44221d9fc5"},"vehicle_type_id":"4","last_reported":1756199497,"current_range_meters":21600,"station_id":"ce4bhch2rcd13ifvqeug","pricing_plan_id":"cebpf4jnsgd1na2vs0mg"},{"bike_id":"36036a36-829b-47c5-a8e3-74d91dc2970b","system_id":"levelo_inurba_marseille","lat":43.26205,"lon":5.37454,"is_reserved":false,"is_disabled":false,"rental_uris":{"android":"levelo://app?vid=36036a36-829b-47c5-a8e3-74d91dc2970b","ios":"levelo://app?vid=36036a36-829b-47c5-a8e3-74d91dc2970b"},"vehicle_type_id":"4","last_reported":1756199497,"current_range_meters":21600,"station_id":"ce4bhgp2rcd13ifvqfc0","pricing_plan_id":"cebpf4jnsgd1na2vs0mg"},{"bike_id":"bd4376ea-7d2d-4cf4-9dc1-caf98f82dced","system_id":"levelo_inurba_marseille","lat":43.33325,"lon":5.39745,"is_reserved":false,"is_disabled":false,"rental_uris":{"android":"levelo://app?vid=bd4376ea-7d2d-4cf4-9dc1-caf98f82dced","ios":"levelo://app?vid=bd4376ea-7d2d-4cf4-9dc1-caf98f82dced"},"vehicle_type_id":"4","last_reported":1756199497,"current_range_meters":22000,"station_id":"","pricing_plan_id":"cebpf4jnsgd1na2vs0mg"},{"bike_id":"366c555a-221f-4fca-9998-5a71db0c5aab","system_id":"levelo_inurba_marseille","lat":43.265531,"lon":5.372874,"is_reserved":false,"is_disabled":false,"rental_uris":{"android":"levelo://app?vid=366c555a-221f-4fca-9998-5a71db0c5aab","ios":"levelo://app?vid=366c555a-221f-4fca-9998-5a71db0c5aab"},"vehicle_type_id":"4","last_reported":1756199497,"current_range_meters":22000,"station_id":"ce4bhg12rcd13ifvqf70","pricing_plan_id":"cebpf4jnsgd1na2vs0mg"},{"bike_id":"f41112e9-aa22-4a4e-8da5-21c07780b294","system_id":"levelo_inurba_marseille","lat":43.24077,"lon":5.37766,"is_reserved":false,"is_disabled":false,"rental_uris":{"android":"levelo://app?vid=f41112e9-aa22-4a4e-8da5-21c07780b294","ios":"levelo://app?vid=f41112e9-aa22-4a4e-8da5-21c07780b294"},"vehicle_type_id":"4","last_reported":1756199497,"current_range_meters":22000,"station_id":"ce4bhnp2rcd13ifvqgvg","pricing_plan_id":"cebpf4jnsgd1na2vs0mg"},{"bike_id":"d810acf0-5bd2-4bf1-848d-31cd30d105e6","system_id":"levelo_inurba_marseille","lat":43.269831,"lon":5.392782,"is_reserved":false,"is_disabled":false,"rental_uris":{"android":"levelo://app?vid=d810acf0-5bd2-4bf1-848d-31cd30d105e6","ios":"levelo://app?vid=d810acf0-5bd2-4bf1-848d-31cd30d105e6"},"vehicle_type_id":"4","last_reported":1756199497,"current_range_meters":22000,"station_id":"","pricing_plan_id":"cebpf4jnsgd1na2vs0mg"},{"bike_id":"7aa64f9a-7267-493e-9caa-932cee76bf1b","system_id":"levelo_inurba_marseille","lat":43.29291,"lon":5.37468,"is_reserved":false,"is_disabled":false,"rental_uris":{"android":"levelo://app?vid=7aa64f9a-7267-493e-9caa-932cee76bf1b","ios":"levelo://app?vid=7aa64f9a-7267-493e-9caa-932cee76bf1b"},"vehicle_type_id":"4","last_reported":1756199497,"current_range_meters":22000,"station_id":"ce4bgi12rcd13ifvqb70","pricing_plan_id":"cebpf4jnsgd1na2vs0mg"},{"bike_id":"199c9404-98ce-4e5b-a7f1-4fde1cbac680","system_id":"levelo_inurba_marseille","lat":43.272083,"lon":5.39185,"is_reserved":false,"is_disabled":false,"rental_uris":{"android":"levelo://app?vid=199c9404-98ce-4e5b-a7f1-4fde1cbac680","ios":"levelo://app?vid=199c9404-98ce-4e5b-a7f1-4fde1cbac680"},"vehicle_type_id":"4","last_reported":1756199497,"current_range_meters":22000,"station_id":"ce4bhhp2rcd13ifvqfm0","pricing_plan_id":"cebpf4jnsgd1na2vs0mg"},{"bike_id":"b171250d-876e-4452-8b26-adff8e652ae4","system_id":"levelo_inurba_marseille","lat":43.30779,"lon":5.37674,"is_reserved":false,"is_disabled":false,"rental_uris":{"android":"levelo://app?vid=b171250d-876e-4452-8b26-adff8e652ae4","ios":"levelo://app?vid=b171250d-876e-4452-8b26-adff8e652ae4"},"vehicle_type_id":"4","last_reported":1756199497,"current_range_meters":22000,"station_id":"ce4bgv92rcd13ifvqcq0","pricing_plan_id":"cebpf4jnsgd1na2vs0mg"},{"bike_id":"0b56a93b-e284-4698-9a80-9c054c2fc3c9","system_id":"levelo_inurba_marseille","lat":43.268059,"lon":5.390577,"is_reserved":false,"is_disabled":false,"rental_uris":{"android":"levelo://app?vid=0b56a93b-e284-4698-9a80-9c054c2fc3c9","ios":"levelo://app?vid=0b56a93b-e284-4698-9a80-9c054c2fc3c9"},"vehicle_type_id":"4","last_reported":1756199497,"current_range_meters":22000,"station_id":"","pricing_plan_id":"cebpf4jnsgd1na2vs0mg"},{"bike_id":"e564862f-31e7-4d3c-a6d9-15762769e435","system_id":"levelo_inurba_marseille","lat":43.2952,"lon":5.37534,"is_reserved":false,"is_disabled":false,"rental_uris":{"android":"levelo://app?vid=e564862f-31e7-4d3c-a6d9-15762769e435","ios":"levelo://app?vid=e564862f-31e7-4d3c-a6d9-15762769e435"},"vehicle_type_id":"4","last_reported":1756199497,"current_range_meters":22000,"station_id":"ce4bgkp2rcd13ifvqbmg","pricing_plan_id":"cebpf4jnsgd1na2vs0mg"},{"bike_id":"2624aae5-9ba3-4f09-8178-030b99ca9a56","system_id":"levelo_inurba_marseille","lat":43.297039,"lon":5.370116,"is_reserved":false,"is_disabled":false,"rental_uris":{"android":"levelo://app?vid=2624aae5-9ba3-4f09-8178-030b99ca9a56","ios":"levelo://app?vid=2624aae5-9ba3-4f09-8178-030b99ca9a56"},"vehicle_type_id":"4","last_reported":1756199497,"current_range_meters":22000,"station_id":"","pricing_plan_id":"cebpf4jnsgd1na2vs0mg"},{"bike_id":"bf3a85c1-7e1f-452c-8c2b-563a3906b4da","system_id":"levelo_inurba_marseille","lat":43.25924,"lon":5.40922,"is_reserved":false,"is_disabled":false,"rental_uris":{"android":"levelo://app?vid=bf3a85c1-7e1f-452c-8c2b-563a3906b4da","ios":"levelo://app?vid=bf3a85c1-7e1f-452c-8c2b-563a3906b4da"},"vehicle_type_id":"4","last_reported":1756199497,"current_range_meters":22400,"station_id":"ce4bhm92rcd13ifvqglg","pricing_plan_id":"cebpf4jnsgd1na2vs0mg"},{"bike_id":"dc0aff09-54eb-44ca-b2db-76465f39a0ad","system_id":"levelo_inurba_marseille","lat":43.25565,"lon":5.38236,"is_reserved":false,"is_disabled":false,"rental_uris":{"android":"levelo://app?vid=dc0aff09-54eb-44ca-b2db-76465f39a0ad","ios":"levelo://app?vid=dc0aff09-54eb-44ca-b2db-76465f39a0ad"},"vehicle_type_id":"4","last_reported":1756199497,"current_range_meters":22400,"station_id":"ce4bhih2rcd13ifvqfs0","pricing_plan_id":"cebpf4jnsgd1na2vs0mg"},{"bike_id":"d5c57a1a-928a-455d-918b-cbd133cfbe71","system_id":"levelo_inurba_marseille","lat":43.21749,"lon":5.34605,"is_reserved":false,"is_disabled":false,"rental_uris":{"android":"levelo://app?vid=d5c57a1a-928a-455d-918b-cbd133cfbe71","ios":"levelo://app?vid=d5c57a1a-928a-455d-918b-cbd133cfbe71"},"vehicle_type_id":"4","last_reported":1756199497,"current_range_meters":22400,"station_id":"","pricing_plan_id":"cebpf4jnsgd1na2vs0mg"},{"bike_id":"23ae6fed-deff-411b-8b6e-f95e32ccd4d0","system_id":"levelo_inurba_marseille","lat":43.32086,"lon":5.36761,"is_reserved":false,"is_disabled":false,"rental_uris":{"android":"levelo://app?vid=23ae6fed-deff-411b-8b6e-f95e32ccd4d0","ios":"levelo://app?vid=23ae6fed-deff-411b-8b6e-f95e32ccd4d0"},"vehicle_type_id":"4","last_reported":1756199497,"current_range_meters":22400,"station_id":"ce4bhrh2rcd13ifvqhug","pricing_plan_id":"cebpf4jnsgd1na2vs0mg"},{"bike_id":"4c82beab-1cad-46f7-a8ca-eb8dcbd949ef","system_id":"levelo_inurba_marseille","lat":43.27585,"lon":5.39702,"is_reserved":false,"is_disabled":false,"rental_uris":{"android":"levelo://app?vid=4c82beab-1cad-46f7-a8ca-eb8dcbd949ef","ios":"levelo://app?vid=4c82beab-1cad-46f7-a8ca-eb8dcbd949ef"},"vehicle_type_id":"4","last_reported":1756199497,"current_range_meters":22400,"station_id":"","pricing_plan_id":"cebpf4jnsgd1na2vs0mg"},{"bike_id":"d91839b0-e7a0-46f5-a182-2d76a894fdae","system_id":"levelo_inurba_marseille","lat":43.24244,"lon":5.39762,"is_reserved":false,"is_disabled":false,"rental_uris":{"android":"levelo://app?vid=d91839b0-e7a0-46f5-a182-2d76a894fdae","ios":"levelo://app?vid=d91839b0-e7a0-46f5-a182-2d76a894fdae"},"vehicle_type_id":"4","last_reported":1756199497,"current_range_meters":22400,"station_id":"ce4bhn12rcd13ifvqgpg","pricing_plan_id":"cebpf4jnsgd1na2vs0mg"},{"bike_id":"ddb47c97-dae8-4aed-a716-3515b8a72bad","system_id":"levelo_inurba_marseille","lat":43.25924,"lon":5.40901,"is_reserved":false,"is_disabled":false,"rental_uris":{"android":"levelo://app?vid=ddb47c97-dae8-4aed-a716-3515b8a72bad","ios":"levelo://app?vid=ddb47c97-dae8-4aed-a716-3515b8a72bad"},"vehicle_type_id":"4","last_reported":1756199497,"current_range_meters":22400,"station_id":"ce4bhm92rcd13ifvqglg","pricing_plan_id":"cebpf4jnsgd1na2vs0mg"},{"bike_id":"6aa893cc-1fc1-44ee-8d93-abcccbff0559","system_id":"levelo_inurba_marseille","lat":43.3079,"lon":5.37648,"is_reserved":false,"is_disabled":false,"rental_uris":{"android":"levelo://app?vid=6aa893cc-1fc1-44ee-8d93-abcccbff0559","ios":"levelo://app?vid=6aa893cc-1fc1-44ee-8d93-abcccbff0559"},"vehicle_type_id":"4","last_reported":1756199497,"current_range_meters":22400,"station_id":"ce4bgv92rcd13ifvqcq0","pricing_plan_id":"cebpf4jnsgd1na2vs0mg"},{"bike_id":"fc5cb29c-9cfc-49ce-b26b-cfdca67f1345","system_id":"levelo_inurba_marseille","lat":43.25911,"lon":5.40881,"is_reserved":false,"is_disabled":false,"rental_uris":{"android":"levelo://app?vid=fc5cb29c-9cfc-49ce-b26b-cfdca67f1345","ios":"levelo://app?vid=fc5cb29c-9cfc-49ce-b26b-cfdca67f1345"},"vehicle_type_id":"4","last_reported":1756199497,"current_range_meters":22400,"station_id":"ce4bhm92rcd13ifvqglg","pricing_plan_id":"cebpf4jnsgd1na2vs0mg"},{"bike_id":"9f0005d5-d358-4f4a-af02-69d72ad93a9e","system_id":"levelo_inurba_marseille","lat":43.31236,"lon":5.36868,"is_reserved":false,"is_disabled":false,"rental_uris":{"android":"levelo://app?vid=9f0005d5-d358-4f4a-af02-69d72ad93a9e","ios":"levelo://app?vid=9f0005d5-d358-4f4a-af02-69d72ad93a9e"},"vehicle_type_id":"4","last_reported":1756199497,"current_range_meters":22800,"station_id":"ce4bgl92rcd13ifvqbq0","pricing_plan_id":"cebpf4jnsgd1na2vs0mg"},{"bike_id":"6c83adfd-6e50-4a57-980c-569b605502d1","system_id":"levelo_inurba_marseille","lat":43.23192,"lon":5.39989,"is_reserved":false,"is_disabled":false,"rental_uris":{"android":"levelo://app?vid=6c83adfd-6e50-4a57-980c-569b605502d1","ios":"levelo://app?vid=6c83adfd-6e50-4a57-980c-569b605502d1"},"vehicle_type_id":"4","last_reported":1756199497,"current_range_meters":22800,"station_id":"ce4bhn12rcd13ifvqgqg","pricing_plan_id":"cebpf4jnsgd1na2vs0mg"},{"bike_id":"b3a00b77-9f70-41e9-b18c-426e8a9bc147","system_id":"levelo_inurba_marseille","lat":43.24991,"lon":5.38943,"is_reserved":false,"is_disabled":false,"rental_uris":{"android":"levelo://app?vid=b3a00b77-9f70-41e9-b18c-426e8a9bc147","ios":"levelo://app?vid=b3a00b77-9f70-41e9-b18c-426e8a9bc147"},"vehicle_type_id":"4","last_reported":1756199497,"current_range_meters":22800,"station_id":"ce4bhgp2rcd13ifvqfd0","pricing_plan_id":"cebpf4jnsgd1na2vs0mg"},{"bike_id":"4d9231c1-fb88-4e2d-b4bf-cbc3b88b39f9","system_id":"levelo_inurba_marseille","lat":43.295433,"lon":5.387352,"is_reserved":false,"is_disabled":false,"rental_uris":{"android":"levelo://app?vid=4d9231c1-fb88-4e2d-b4bf-cbc3b88b39f9","ios":"levelo://app?vid=4d9231c1-fb88-4e2d-b4bf-cbc3b88b39f9"},"vehicle_type_id":"4","last_reported":1756199497,"current_range_meters":22800,"station_id":"","pricing_plan_id":"cebpf4jnsgd1na2vs0mg"},