{"last_updated":1715962108,"ttl":30,"version":"2.2","data":{"bikes":[{"bike_id":"68e2a277-4694-4348-b8bc-c9297fb8681d","system_id":"levelo_inurba_marseille","lat":43.312239,"lon":5.368562,"is_reserved":false,"is_disabled":false,"rental_uris":{"android":"levelo://app?vid=68e2a277-4694-4348-b8bc-c9297fb8681d","ios":"levelo://app?vid=68e2a277-4694-4348-b8bc-c9297fb8681d"},"vehicle_type_id":"4","last_reported":1715962108,"current_range_meters":14000,"station_id":"ce4bgl92rcd13ifvqbq0","pricing_plan_id":"cebpf4jnsgd1na2vs0mg"},{"bike_id":"e6f3a52f-691d-4bde-b846-58a9ab0434c1","system_id":"levelo_inurba_marseille","lat":43.31227,"lon":5.36851,"is_reserved":false,"is_disabled":false,"rental_uris":{"android":"levelo://app?vid=e6f3a52f-691d-4bde-b846-58a9ab0434c1","ios":"levelo://app?vid=e6f3a52f-691d-4bde-b846-58a9ab0434c1"},"vehicle_type_id":"4","last_reported":1715962108,"current_range_meters":0,"station_id":"ce4bgl92rcd13ifvqbq0","pricing_plan_id":"cebpf4jnsgd1na2vs0mg"},{"bike_id":"144537ed-db13-4997-8991-6fa2ee65bfef","system_id":"levelo_inurba_marseille","lat":43.312239,"lon":5.368562,"is_reserved":false,"is_disabled":false,"rental_uris":{"android":"levelo://app?vid=144537ed-db13-4997-8991-6fa2ee65bfef","ios":"levelo://app?vid=144537ed-db13-4997-8991-6fa2ee65bfef"},"vehicle_type_id":"4","last_reported":1715962108,"current_range_meters":23200,"station_id":"ce4bgl92rcd13ifvqbq0","pricing_plan_id":"cebpf4jnsgd1na2vs0mg"},{"bike_id":"bcf11963-5b7e-448b-b4cc-a59a0ab73d09","system_id":"levelo_inurba_marseille","lat":43.312239,"lon":5.368562,"is_reserved":false,"is_disabled":false,"rental_uris":{"android":"levelo://app?vid=bcf11963-5b7e-448b-b4cc-a59a0ab73d09","ios":"levelo://app?vid=bcf11963-5b7e-448b-b4cc-a59a0ab73d09"},"vehicle_type_id":"4","last_reported":1715962108,"current_range_meters":13600,"station_id":"ce4bgl92rcd13ifvqbq0","pricing_plan_id":"cebpf4jnsgd1na2vs0mg"},{"bike_id":"ec48f958-0ecd-485d-8634-ba3be4a3f628","system_id":"levelo_inurba_marseille","lat":43.309076,"lon":5.368465,"is_reserved":false,"is_disabled":false,"rental_uris":{"android":"levelo://app?vid=ec48f958-0ecd-485d-8634-ba3be4a3f628","ios":"levelo://app?vid=ec48f958-0ecd-485d-8634-ba3be4a3f628"},"vehicle_type_id":"4","last_reported":1715962108,"current_range_meters":6800,"station_id":"ce4bgn92rcd13ifvqbvg","pricing_plan_id":"cebpf4jnsgd1na2vs0mg"},{"bike_id":"7246fd1f-f7f6-463d-b9c4-86ff3c4abf2f","system_id":"levelo_inurba_marseille","lat":43.314811,"lon":5.373103,"is_reserved":false,"is_disabled":false,"rental_uris":{"android":"levelo://app?vid=7246fd1f-f7f6-463d-b9c4-86ff3c4abf2f","ios":"levelo://app?vid=7246fd1f-f7f6-463d-b9c4-86ff3c4abf2f"},"vehicle_type_id":"4","last_reported":1715962108,"current_range_meters":0,"station_id":"ce4bgt12rcd13ifvqcd0","pricing_plan_id":"cebpf4jnsgd1na2vs0mg"},{"bike_id":"08f7ca3f-1f17-4623-8935-c21674023a05","system_id":"levelo_inurba_marseille","lat":43.314811,"lon":5.373103,"is_reserved":false,"is_disabled":false,"rental_uris":{"android":"levelo://app?vid=08f7ca3f-1f17-4623-8935-c21674023a05","ios":"levelo://app?vid=08f7ca3f-1f17-4623-8935-c21674023a05"},"vehicle_type_id":"4","last_reported":1715962108,"current_range_meters":24000,"station_id":"ce4bgt12rcd13ifvqcd0","pricing_plan_id":"cebpf4jnsgd1na2vs0mg"},{"bike_id":"10f05ced-b840-469f-b1a1-0dfd247718ef","system_id":"levelo_inurba_marseille","lat":43.314811,"lon":5.373103,"is_reserved":false,"is_disabled":false,"rental_uris":{"android":"levelo://app?vid=10f05ced-b840-469f-b1a1-0dfd247718ef","ios":"levelo://app?vid=10f05ced-b840-469f-b1a1-0dfd247718ef"},"vehicle_type_id":"4","last_reported":1715962108,"current_range_meters":22800,"station_id":"ce4bgt12rcd13ifvqcd0","pricing_plan_id":"cebpf4jnsgd1na2vs0mg"},{"bike_id":"358cd9ce-2039-42fd-ba45-e82de8386074","system_id":"levelo_inurba_marseille","lat":43.314811,"lon":5.373103,"is_reserved":false,"is_disabled":false,"rental_uris":{"android":"levelo://app?vid=358cd9ce-2039-42fd-ba45-e82de8386074","ios":"levelo://app?vid=358cd9ce-2039-42fd-ba45-e82de8386074"},"vehicle_type_id":"4","last_reported":1715962108,"current_range_meters":23600,"station_id":"ce4bgt12rcd13ifvqcd0","pricing_plan_id":"cebpf4jnsgd1na2vs0mg"},{"bike_id":"6e5f7aab-017c-4ba8-883f-2720d03042a8","system_id":"levelo_inurba_marseille","lat":43.314811,"lon":5.373103,"is_reserved":false,"is_disabled":false,"rental_uris":{"android":"levelo://app?vid=6e5f7aab-017c-4ba8-883f-2720d03042a8","ios":"levelo://app?vid=6e5f7aab-017c-4ba8-883f-2720d03042a8"},"vehicle_type_id":"4","last_reported":1715962108,"current_range_meters":6800,"station_id":"ce4bgt12rcd13ifvqcd0","pricing_plan_id":"cebpf4jnsgd1na2vs0mg"},{"bike_id":"7e13bd6b-d4b9-4a03-824f-1ebbf4d03e99","system_id":"levelo_inurba_marseille","lat":43.314811,"lon":5.373103,"is_reserved":false,"is_disabled":false,"rental_uris":{"android":"levelo://app?vid=7e13bd6b-d4b9-4a03-824f-1ebbf4d03e99","ios":"levelo://app?vid=7e13bd6b-d4b9-4a03-824f-1ebbf4d03e99"},"vehicle_type_id":"4","last_reported":1715962108,"current_range_meters":0,"station_id":"ce4bgt12rcd13ifvqcd0","pricing_plan_id":"cebpf4jnsgd1na2vs0mg"},{"bike_id":"a83c3549-447c-467f-90e4-95af8ab3e700","system_id":"levelo_inurba_marseille","lat":43.314811,"lon":5.373103,"is_reserved":false,"is_disabled":false,"rental_uris":{"android":"levelo://app?vid=a83c3549-447c-467f-90e4-95af8ab3e700","ios":"levelo://app?vid=a83c3549-447c-467f-90e4-95af8ab3e700"},"vehicle_type_id":"4","last_reported":1715962108,"current_range_meters":26000,"station_id":"ce4bgt12rcd13ifvqcd0","pricing_plan_id":"cebpf4jnsgd1na2vs0mg"},{"bike_id":"519af8ef-6207-46ec-9033-2f4e078f48c9","system_id":"levelo_inurba_marseille","lat":43.314811,"lon":5.373103,"is_reserved":false,"is_disabled":false,"rental_uris":{"android":"levelo://app?vid=519af8ef-6207-46ec-9033-2f4e078f48c9","ios":"levelo://app?vid=519af8ef-6207-46ec-9033-2f4e078f48c9"},"vehicle_type_id":"4","last_reported":1715962108,"current_range_meters":1200,"station_id":"ce4bgt12rcd13ifvqcd0","pricing_plan_id":"cebpf4jnsgd1na2vs0mg"},{"bike_id":"e32e419f-c2c9-4070-b132-966e4c4ce287","system_id":"levelo_inurba_marseille","lat":43.314867,"lon":5.373099,"is_reserved":false,"is_disabled":false,"rental_uris":{"android":"levelo://app?vid=e32e419f-c2c9-4070-b132-966e4c4ce287","ios":"levelo://app?vid=e32e419f-c2c9-4070-b132-966e4c4ce287"},"vehicle_type_id":"4","last_reported":1715962108,"current_range_meters":17200,"station_id":"ce4bgt12rcd13ifvqcd0","pricing_plan_id":"cebpf4jnsgd1na2vs0mg"},{"bike_id":"f28ba416-a101-4767-ae14-70fca0d92261","system_id":"levelo_inurba_marseille","lat":43.314811,"lon":5.373103,"is_reserved":false,"is_disabled":false,"rental_uris":{"android":"levelo://app?vid=f28ba416-a101-4767-ae14-70fca0d92261","ios":"levelo://app?vid=f28ba416-a101-4767-ae14-70fca0d92261"},"vehicle_type_id":"4","last_reported":1715962108,"current_range_meters":0,"station_id":"ce4bgt12rcd13ifvqcd0","pricing_plan_id":"cebpf4jnsgd1na2vs0mg"},{"bike_id":"2ce80277-b627-455b-8860-f8f992dc5710","system_id":"levelo_inurba_marseille","lat":43.314811,"lon":5.373103,"is_reserved":false,"is_disabled":false,"rental_uris":{"android":"levelo://app?vid=2ce80277-b627-455b-8860-f8f992dc5710","ios":"levelo://app?vid=2ce80277-b627-455b-8860-f8f992dc5710"},"vehicle_type_id":"4","last_reported":1715962108,"current_range_meters":2800,"station_id":"ce4bgt12rcd13ifvqcd0","pricing_plan_id":"cebpf4jnsgd1na2vs0mg"},{"bike_id":"00658c09-b29a-40a7-b07e-6cd712d3d485","system_id":"levelo_inurba_marseille","lat":43.314963,"lon":5.373072,"is_reserved":false,"is_disabled":false,"rental_uris":{"android":"levelo://app?vid=00658c09-b29a-40a7-b07e-6cd712d3d485","ios":"levelo://app?vid=00658c09-b29a-40a7-b07e-6cd712d3d485"},"vehicle_type_id":"4","last_reported":1715962108,"current_range_meters":31200,"station_id":"ce4bgt12rcd13ifvqcd0","pricing_plan_id":"cebpf4jnsgd1na2vs0mg"},{"bike_id":"fc04f023-8ce5-43d4-8338-22eb59f7b6c1","system_id":"levelo_inurba_marseille","lat":43.317557,"lon":5.390173,"is_reserved":false,"is_disabled":false,"rental_uris":{"android":"levelo://app?vid=fc04f023-8ce5-43d4-8338-22eb59f7b6c1","ios":"levelo://app?vid=fc04f023-8ce5-43d4-8338-22eb59f7b6c1"},"vehicle_type_id":"4","last_reported":1715962108,"current_range_meters":28400,"station_id":"ce4bhqp2rcd13ifvqhng","pricing_plan_id":"cebpf4jnsgd1na2vs0mg"},{"bike_id":"a4e741ca-6190-437f-9c6d-19923459845d","system_id":"levelo_inurba_marseille","lat":43.314811,"lon":5.373103,"is_reserved":false,"is_disabled":false,"rental_uris":{"android":"levelo://app?vid=a4e741ca-6190-437f-9c6d-19923459845d","ios":"levelo://app?vid=a4e741ca-6190-437f-9c6d-19923459845d"},"vehicle_type_id":"4","last_reported":1715962108,"current_range_meters":23200,"station_id":"ce4bgt12rcd13ifvqcd0","pricing_plan_id":"cebpf4jnsgd1na2vs0mg"},{"bike_id":"9c2b436a-9cc7-414b-86f1-3add19081559","system_id":"levelo_inurba_marseille","lat":43.314811,"lon":5.373103,"is_reserved":false,"is_disabled":false,"rental_uris":{"android":"levelo://app?vid=9c2b436a-9cc7-414b-86f1-3add19081559","ios":"levelo://app?vid=9c2b436a-9cc7-414b-86f1-3add19081559"},"vehicle_type_id":"4","last_reported":1715962108,"current_range_meters":0,"station_id":"ce4bgt12rcd13ifvqcd0","pricing_plan_id":"cebpf4jnsgd1na2vs0mg"},{"bike_id":"8356ddff-7712-401b-b26a-04be769e40bb","system_id":"levelo_inurba_marseille","lat":43.309054,"lon":5.371596,"is_reserved":false,"is_disabled":false,"rental_uris":{"android":"levelo://app?vid=8356ddff-7712-401b-b26a-04be769e40bb","ios":"levelo://app?vid=8356ddff-7712-401b-b26a-04be769e40bb"},"vehicle_type_id":"4","last_reported":1715962108,"current_range_meters":20400,"station_id":"ce4bguh2rcd13ifvqckg","pricing_plan_id":"cebpf4jnsgd1na2vs0mg"},{"bike_id":"b8b4b0d2-ac7b-4d61-8b33-cd93a3232be8","system_id":"levelo_inurba_marseille","lat":43.314811,"lon":5.373103,"is_reserved":false,"is_disabled":false,"rental_uris":{"android":"levelo://app?vid=b8b4b0d2-ac7b-4d61-8b33-cd93a3232be8","ios":"levelo://app?vid=b8b4b0d2-ac7b-4d61-8b33-cd93a3232be8"},"vehicle_type_id":"4","last_reported":1715962108,"current_range_meters":2400,"station_id":"ce4bgt12rcd13ifvqcd0","pricing_plan_id":"cebpf4jnsgd1na2vs0mg"},{"bike_id":"05eff449-7a39-4da2-b898-7d7d56519a94","system_id":"levelo_inurba_marseille","lat":43.309034,"lon":5.371783,"is_reserved":false,"is_disabled":false,"rental_uris":{"android":"levelo://app?vid=05eff449-7a39-4da2-b898-7d7d56519a94","ios":"levelo://app?vid=05eff449-7a39-4da2-b898-7d7d56519a94"},"vehicle_type_id":"4","last_reported":1715962108,"current_range_meters":26800,"station_id":"ce4bguh2rcd13ifvqckg","pricing_plan_id":"cebpf4jnsgd1na2vs0mg"},{"bike_id":"c7ece8c4-c9a9-4b74-8e51-575731669ab5","system_id":"levelo_inurba_marseille","lat":43.314811,"lon":5.373103,"is_reserved":false,"is_disabled":false,"rental_uris":{"android":"levelo://app?vid=c7ece8c4-c9a9-4b74-8e51-575731669ab5","ios":"levelo://app?vid=c7ece8c4-c9a9-4b74-8e51-575731669ab5"},"vehicle_type_id":"4","last_reported":1715962108,"current_range_meters":16000,"station_id":"ce4bgt12rcd13ifvqcd0","pricing_plan_id":"cebpf4jnsgd1na2vs0mg"},{"bike_id":"0d1b23ac-74d2-4300-97fe-2e63365c67c7","system_id":"levelo_inurba_marseille","lat":43.305409,"lon":5.365566,"is_reserved":false,"is_disabled":false,"rental_uris":{"android":"levelo://app?vid=0d1b23ac-74d2-4300-97fe-2e63365c67c7","ios":"levelo://app?vid=0d1b23ac-74d2-4300-97fe-2e63365c67c7"},"vehicle_type_id":"4","last_reported":1715962108,"current_range_meters":4800,"station_id":"ce4bgs12rcd13ifvqcag","pricing_plan_id":"cebpf4jnsgd1na2vs0mg"},{"bike_id":"1f0e73bc-ac8a-4b1d-9a8c-57eb4b99a69a","system_id":"levelo_inurba_marseille","lat":43.305989,"lon":5.37225,"is_reserved":false,"is_disabled":false,"rental_uris":{"android":"levelo://app?vid=1f0e73bc-ac8a-4b1d-9a8c-57eb4b99a69a","ios":"levelo://app?vid=1f0e73bc-ac8a-4b1d-9a8c-57eb4b99a69a"},"vehicle_type_id":"4","last_reported":1715962108,"current_range_meters":22800,"station_id":"ce4bgqh2rcd13ifvqc4g","pricing_plan_id":"cebpf4jnsgd1na2vs0mg"},{"bike_id":"948110ea-8842-43e8-b2fb-1d86c1db481a","system_id":"levelo_inurba_marseille","lat":43.305989,"lon":5.37225,"is_reserved":false,"is_disabled":false,"rental_uris":{"android":"levelo://app?vid=948110ea-8842-43e8-b2fb-1d86c1db481a","ios":"levelo://app?vid=948110ea-8842-43e8-b2fb-1d86c1db481a"},"vehicle_type_id":"4","last_reported":1715962108,"current_range_meters":18400,"station_id":"ce4bgqh2rcd13ifvqc4g","pricing_plan_id":"cebpf4jnsgd1na2vs0mg"},{"bike_id":"fa4a7300-0017-4980-912b-2215a4deefbb","system_id":"levelo_inurba_marseille","lat":43.305989,"lon":5.37225,"is_reserved":false,"is_disabled":false,"rental_uris":{"android":"levelo://app?vid=fa4a7300-0017-4980-912b-2215a4deefbb","ios":"levelo://app?vid=fa4a7300-0017-4980-912b-2215a4deefbb"},"vehicle_type_id":"4","last_reported":1715962108,"current_range_meters":11200,"station_id":"ce4bgqh2rcd13ifvqc4g","pricing_plan_id":"cebpf4jnsgd1na2vs0mg"},{"bike_id":"213fdb91-677c-4e41-ab76-bb7f7df8dea4","system_id":"levelo_inurba_marseille","lat":43.311017,"lon":5.377366,"is_reserved":false,"is_disabled":false,"rental_uris":{"android":"levelo://app?vid=213fdb91-677c-4e41-ab76-bb7f7df8dea4","ios":"levelo://app?vid=213fdb91-677c-4e41-ab76-bb7f7df8dea4"},"vehicle_type_id":"4","last_reported":1715962108,"current_range_meters":0,"station_id":"ce4bgt92rcd13ifvqcg0","pricing_plan_id":"cebpf4jnsgd1na2vs0mg"},{"bike_id":"087add5d-bcc4-49d6-958b-b4f23ccabd7d","system_id":"levelo_inurba_marseille","lat":43.305989,"lon":5.37225,"is_reserved":false,"is_disabled":false,"rental_uris":{"android":"levelo://app?vid=087add5d-bcc4-49d6-958b-b4f23ccabd7d","ios":"levelo://app?vid=087add5d-bcc4-49d6-958b-b4f23ccabd7d"},"vehicle_type_id":"4","last_reported":1715962108,"current_range_meters":5200,"station_id":"ce4bgqh2rcd13ifvqc4g","pricing_plan_id":"cebpf4jnsgd1na2vs0mg"},{"bike_id":"526e8bed-4ec5-4056-881e-e8a0edf39f86","system_id":"levelo_inurba_marseille","lat":43.311238,"lon":5.377545,"is_reserved":false,"is_disabled":false,"rental_uris":{"android":"levelo://app?vid=526e8bed-4ec5-4056-881e-e8a0edf39f86","ios":"levelo://app?vid=526e8bed-4ec5-4056-881e-e8a0edf39f86"},"vehicle_type_id":"4","last_reported":1715962108,"current_range_meters":4400,"station_id":"ce4bgt92rcd13ifvqcg0","pricing_plan_id":"cebpf4jnsgd1na2vs0mg"},{"bike_id":"db85a442-597d-48c4-afaf-8223c40efa0b","system_id":"levelo_inurba_marseille","lat":43.311125,"lon":5.377624,"is_reserved":false,"is_disabled":false,"rental_uris":{"android":"levelo://app?vid=db85a442-597d-48c4-afaf-8223c40efa0b","ios":"levelo://app?vid=db85a442-597d-48c4-afaf-8223c40efa0b"},"vehicle_type_id":"4","last_reported":1715962108,"current_range_meters":0,"station_id":"ce4bgt92rcd13ifvqcg0","pricing_plan_id":"cebpf4jnsgd1na2vs0mg"},{"bike_id":"5139e02b-2523-44c8-9729-97bd72759698","system_id":"levelo_inurba_marseille","lat":43.307945,"lon":5.376487,"is_reserved":false,"is_disabled":false,"rental_uris":{"android":"levelo://app?vid=5139e02b-2523-44c8-9729-97bd72759698","ios":"levelo://app?vid=5139e02b-2523-44c8-9729-97bd72759698"},"vehicle_type_id":"4","last_reported":1715962108,"current_range_meters":12000,"station_id":"ce4bgv92rcd13ifvqcq0","pricing_plan_id":"cebpf4jnsgd1na2vs0mg"},{"bike_id":"a18a277c-3764-47f2-ae7c-9ab1353cf1a8","system_id":"levelo_inurba_marseille","lat":43.30786,"lon":5.37647,"is_reserved":false,"is_disabled":false,"rental_uris":{"android":"levelo://app?vid=a18a277c-3764-47f2-ae7c-9ab1353cf1a8","ios":"levelo://app?vid=a18a277c-3764-47f2-ae7c-9ab1353cf1a8"},"vehicle_type_id":"4","last_reported":1715962108,"current_range_meters":0,"station_id":"ce4bgv92rcd13ifvqcq0","pricing_plan_id":"cebpf4jnsgd1na2vs0mg"},{"bike_id":"ccecdaee-dcfc-495f-b201-275903d7e8cb","system_id":"levelo_inurba_marseille","lat":43.317075,"lon":5.377367,"is_reserved":false,"is_disabled":false,"rental_uris":{"android":"levelo://app?vid=ccecdaee-dcfc-495f-b201-275903d7e8cb","ios":"levelo://app?vid=ccecdaee-dcfc-495f-b201-275903d7e8cb"},"vehicle_type_id":"4","last_reported":1715962108,"current_range_meters":6000,"station_id":"ce4bgth2rcd13ifvqch0","pricing_plan_id":"cebpf4jnsgd1na2vs0mg"},{"bike_id":"3188de10-a512-48c3-a15c-0ac300408b43","system_id":"levelo_inurba_marseille","lat":43.3171,"lon":5.37748,"is_reserved":false,"is_disabled":false,"rental_uris":{"android":"levelo://app?vid=3188de10-a512-48c3-a15c-0ac300408b43","ios":"levelo://app?vid=3188de10-a512-48c3-a15c-0ac300408b43"},"vehicle_type_id":"4","last_reported":1715962108,"current_range_meters":0,"station_id":"ce4bgth2rcd13ifvqch0","pricing_plan_id":"cebpf4jnsgd1na2vs0mg"},{"bike_id":"0e8a560e-438f-4f06-b034-2973d6ab4faa","system_id":"levelo_inurba_marseille","lat":43.317075,"lon":5.377367,"is_reserved":false,"is_disabled":false,"rental_uris":{"android":"levelo://app?vid=0e8a560e-438f-4f06-b034-2973d6ab4faa","ios":"levelo://app?vid=0e8a560e-438f-4f06-b034-2973d6ab4faa"},"vehicle_type_id":"4","last_reported":1715962108,"current_range_meters":30800,"station_id":"ce4bgth2rcd13ifvqch0","pricing_plan_id":"cebpf4jnsgd1na2vs0mg"},{"bike_id":"c14453f3-cccb-4e5d-a2f2-0cca9e953ec3","system_id":"levelo_inurba_marseille","lat":43.317075,"lon":5.377367,"is_reserved":false,"is_disabled":false,"rental_uris":{"android":"levelo://app?vid=c14453f3-cccb-4e5d-a2f2-0cca9e953ec3","ios":"levelo://app?vid=c14453f3-cccb-4e5d-a2f2-0cca9e953ec3"},"vehicle_type_id":"4","last_reported":1715962108,"current_range_meters":8000,"station_id":"ce4bgth2rcd13ifvqch0","pricing_plan_id":"cebpf4jnsgd1na2vs0mg"},{"bike_id":"b4b647a8-9c7a-4f2c-9f7c-0416d1006265","system_id":"levelo_inurba_marseille","lat":43.317075,"lon":5.377367,"is_reserved":false,"is_disabled":false,"rental_uris":{"android":"levelo://app?vid=b4b647a8-9c7a-4f2c-9f7c-0416d1006265","ios":"levelo://app?vid=b4b647a8-9c7a-4f2c-9f7c-0416d1006265"},"vehicle_type_id":"4","last_reported":1715962108,"current_range_meters":29600,"station_id":"ce4bgth2rcd13ifvqch0","pricing_plan_id":"cebpf4jnsgd1na2vs0mg"},{"bike_id":"a634758a-cbbd-4530-981f-9202c7b1fb54","system_id":"levelo_inurba_marseille","lat":43.317125,"lon":5.377549,"is_reserved":false,"is_disabled":false,"rental_uris":{"android":"levelo://app?vid=a634758a-cbbd-4530-981f-9202c7b1fb54","ios":"levelo://app?vid=a634758a-cbbd-4530-981f-9202c7b1fb54"},"vehicle_type_id":"4","last_reported":1715962108,"current_range_meters":18400,"station_id":"ce4bgth2rcd13ifvqch0","pricing_plan_id":"cebpf4jnsgd1na2vs0mg"},{"bike_id":"4ab20d39-94d2-4b70-825f-34af4946c320","system_id":"levelo_inurba_marseille","lat":43.317075,"lon":5.377367,"is_reserved":false,"is_disabled":false,"rental_uris":{"android":"levelo://app?vid=4ab20d39-94d2-4b70-825f-34af4946c320","ios":"levelo://app?vid=4ab20d39-94d2-4b70-825f-34af4946c320"},"vehicle_type_id":"4","last_reported":1715962108,"current_range_meters":11600,"station_id":"ce4bgth2rcd13ifvqch0","pricing_plan_id":"cebpf4jnsgd1na2vs0mg"},{"bike_id":"10f35097-2643-4e5e-a8b9-c09f86f89747","system_id":"levelo_inurba_marseille","lat":43.317075,"lon":5.377367,"is_reserved":false,"is_disabled":false,"rental_uris":{"android":"levelo://app?vid=10f35097-2643-4e5e-a8b9-c09f86f89747","ios":"levelo://app?vid=10f35097-2643-4e5e-a8b9-c09f86f89747"},"vehicle_type_id":"4","last_reported":1715962108,"current_range_meters":26000,"station_id":"ce4bgth2rcd13ifvqch0","pricing_plan_id":"cebpf4jnsgd1na2vs0mg"},{"bike_id":"50ef0be6-797c-4899-9470-19337badfb4f","system_id":"levelo_inurba_marseille","lat":43.317098,"lon":5.377613,"is_reserved":false,"is_disabled":false,"rental_uris":{"android":"levelo://app?vid=50ef0be6-797c-4899-9470-19337badfb4f","ios":"levelo://app?vid=50ef0be6-797c-4899-9470-19337badfb4f"},"vehicle_type_id":"4","last_reported":1715962108,"current_range_meters":12400,"station_id":"ce4bgth2rcd13ifvqch0","pricing_plan_id":"cebpf4jnsgd1na2vs0mg"},{"bike_id":"84b12753-80bf-47af-9502-f8e46524e089","system_id":"levelo_inurba_marseille","lat":43.317075,"lon":5.377367,"is_reserved":false,"is_disabled":false,"rental_uris":{"android":"levelo://app?vid=84b12753-80bf-47af-9502-f8e46524e089","ios":"levelo://app?vid=84b12753-80bf-47af-9502-f8e46524e089"},"vehicle_type_id":"4","last_reported":1715962108,"current_range_meters":3600,"station_id":"ce4bgth2rcd13ifvqch0","pricing_plan_id":"cebpf4jnsgd1na2vs0mg"},{"bike_id":"0aef39ac-af3c-4d2b-964f-029aaf5a212e","system_id":"levelo_inurba_marseille","lat":43.30304,"lon":5.368987,"is_reserved":false,"is_disabled":false,"rental_uris":{"android":"levelo://app?vid=0aef39ac-af3c-4d2b-964f-029aaf5a212e","ios":"levelo://app?vid=0aef39ac-af3c-4d2b-964f-029aaf5a212e"},"vehicle_type_id":"4","last_reported":1715962108,"current_range_meters":4400,"station_id":"ce4bgqh2rcd13ifvqc5g","pricing_plan_id":"cebpf4jnsgd1na2vs0mg"},{"bike_id":"76c9694f-d34c-443c-a7f0-f09871eec79c","system_id":"levelo_inurba_marseille","lat":43.303046,"lon":5.368981,"is_reserved":false,"is_disabled":false,"rental_uris":{"android":"levelo://app?vid=76c9694f-d34c-443c-a7f0-f09871eec79c","ios":"levelo://app?vid=76c9694f-d34c-443c-a7f0-f09871eec79c"},"vehicle_type_id":"4","last_reported":1715962108,"current_range_meters":0,"station_id":"ce4bgqh2rcd13ifvqc5g","pricing_plan_id":"cebpf4jnsgd1na2vs0mg"},{"bike_id":"30513bfa-5a9b-4be6-941d-da49323aac4e","system_id":"levelo_inurba_marseille","lat":43.315293,"lon":5.380349,"is_reserved":false,"is_disabled":false,"rental_uris":{"android":"levelo://app?vid=30513bfa-5a9b-4be6-941d-da49323aac4e","ios":"levelo://app?vid=30513bfa-5a9b-4be6-941d-da49323aac4e"},"vehicle_type_id":"4","last_reported":1715962108,"current_range_meters":0,"station_id":"ce4bhsp2rcd13ifvqi50","pricing_plan_id":"cebpf4jnsgd1na2vs0mg"},{"bike_id":"28fdf2df-2768-4955-ad92-1d1b0eb83ced","system_id":"levelo_inurba_marseille","lat":43.303046,"lon":5.368981,"is_reserved":false,"is_disabled":false,"rental_uris":{"android":"levelo://app?vid=28fdf2df-2768-4955-ad92-1d1b0eb83ced","ios":"levelo://app?vid=28fdf2df-2768-4955-ad92-1d1b0eb83ced"},"vehicle_type_id":"4","last_reported":1715962108,"current_range_meters":0,"station_id":"ce4bgqh2rcd13ifvqc5g","pricing_plan_id":"cebpf4jnsgd1na2vs0mg"},{"bike_id":"34e0707d-12fc-4ae9-908c-64a4d4a7e51f","system_id":"levelo_inurba_marseille","lat":43.315293,"lon":5.380349,"is_reserved":false,"is_disabled":false,"rental_uris":{"android":"levelo://app?vid=34e0707d-12fc-4ae9-908c-64a4d4a7e51f","ios":"levelo://app?vid=34e0707d-12fc-4ae9-908c-64a4d4a7e51f"},"vehicle_type_id":"4","last_reported":1715962108,"current_range_meters":30800,"station_id":"ce4bhsp2rcd13ifvqi50","pricing_plan_id":"cebpf4jnsgd1na2vs0mg"},{"bike_id":"fc85bf12-b0bd-41ac-b7ba-6cc271751961","system_id":"levelo_inurba_marseille","lat":43.301967,"lon":5.366158,"is_reserved":false,"is_disabled":false,"rental_uris":{"android":"levelo://app?vid=fc85bf12-b0bd-41ac-b7ba-6cc271751961","ios":"levelo://app?vid=fc85bf12-b0bd-41ac-b7ba-6cc271751961"},"vehicle_type_id":"4","last_reported":1715962108,"current_range_meters":0,"station_id":"ce4bgrh2rcd13ifvqc8g","pricing_plan_id":"cebpf4jnsgd1na2vs0mg"},{"bike_id":"1af4343d-ec08-41d8-9e02-281e0b6fc1dc","system_id":"levelo_inurba_marseille","lat":43.301939,"lon":5.366286,"is_reserved":false,"is_disabled":false,"rental_uris":{"android":"levelo://app?vid=1af4343d-ec08-41d8-9e02-281e0b6fc1dc","ios":"levelo://app?vid=1af4343d-ec08-41d8-9e02-281e0b6fc1dc"},"vehicle_type_id":"4","last_reported":1715962108,"current_range_meters":16000,"station_id":"ce4bgrh2rcd13ifvqc8g","pricing_plan_id":"cebpf4jnsgd1na2vs0mg"},{"bike_id":"313bce6c-9f66-4c0e-b3e3-845f86027455","system_id":"levelo_inurba_marseille","lat":43.308012,"lon":5.381511,"is_reserved":false,"is_disabled":false,"rental_uris":{"android":"levelo://app?vid=313bce6c-9f66-4c0e-b3e3-845f86027455","ios":"levelo://app?vid=313bce6c-9f66-4c0e-b3e3-845f86027455"},"vehicle_type_id":"4","last_reported":1715962108,"current_range_meters":31200,"station_id":"ce4bgt12rcd13ifvqce0","pricing_plan_id":"cebpf4jnsgd1na2vs0mg"},{"bike_id":"07ec4832-2b7e-42d8-86ed-4f69fe265184","system_id":"levelo_inurba_marseille","lat":43.308073,"lon":5.381468,"is_reserved":false,"is_disabled":false,"rental_uris":{"android":"levelo://app?vid=07ec4832-2b7e-42d8-86ed-4f69fe265184","ios":"levelo://app?vid=07ec4832-2b7e-42d8-86ed-4f69fe265184"},"vehicle_type_id":"4","last_reported":1715962108,"current_range_meters":0,"station_id":"ce4bgt12rcd13ifvqce0","pricing_plan_id":"cebpf4jnsgd1na2vs0mg"},{"bike_id":"7a159650-7409-4b21-8e0b-6e918c342a73","system_id":"levelo_inurba_marseille","lat":43.308012,"lon":5.381511,"is_reserved":false,"is_disabled":false,"rental_uris":{"android":"levelo://app?vid=7a159650-7409-4b21-8e0b-6e918c342a73","ios":"levelo://app?vid=7a159650-7409-4b21-8e0b-6e918c342a73"},"vehicle_type_id":"4","last_reported":1715962108,"current_range_meters":11200,"station_id":"ce4bgt12rcd13ifvqce0","pricing_plan_id":"cebpf4jnsgd1na2vs0mg"},{"bike_id":"6d051132-d5a4-4e4a-81e2-47be3038f225","system_id":"levelo_inurba_marseille","lat":43.304606,"lon":5.379026,"is_reserved":false,"is_disabled":false,"rental_uris":{"android":"levelo://app?vid=6d051132-d5a4-4e4a-81e2-47be3038f225","ios":"levelo://app?vid=6d051132-d5a4-4e4a-81e2-47be3038f225"},"vehicle_type_id":"4","last_reported":1715962108,"current_range_meters":3200,"station_id":"ce4bgup2rcd13ifvqcn0","pricing_plan_id":"cebpf4jnsgd1na2vs0mg"},{"bike_id":"347f08b3-fd6a-4124-ac23-097c61656306","system_id":"levelo_inurba_marseille","lat":43.30465,"lon":5.379,"is_reserved":false,"is_disabled":false,"rental_uris":{"android":"levelo://app?vid=347f08b3-fd6a-4124-ac23-097c61656306","ios":"levelo://app?vid=347f08b3-fd6a-4124-ac23-097c61656306"},"vehicle_type_id":"4","last_reported":1715962108,"current_range_meters":4800,"station_id":"","pricing_plan_id":"cebpf4jnsgd1na2vs0mg"},{"bike_id":"57c5631d-11d2-46b9-9aef-f6843e35593a","system_id":"levelo_inurba_marseille","lat":43.304606,"lon":5.379026,"is_reserved":false,"is_disabled":false,"rental_uris":{"android":"levelo://app?vid=57c5631d-11d2-46b9-9aef-f6843e35593a","ios":"levelo://app?vid=57c5631d-11d2-46b9-9aef-f6843e35593a"},"vehicle_type_id":"4","last_reported":1715962108,"current_range_meters":19600,"station_id":"ce4bgup2rcd13ifvqcn0","pricing_plan_id":"cebpf4jnsgd1na2vs0mg"},{"bike_id":"be4caed9-47a0-43a1-9e49-168770edbd54","system_id":"levelo_inurba_marseille","lat":43.304473,"lon":5.378883,"is_reserved":false,"is_disabled":false,"rental_uris":{"android":"levelo://app?vid=be4caed9-47a0-43a1-9e49-168770edbd54","ios":"levelo://app?vid=be4caed9-47a0-43a1-9e49-168770edbd54"},"vehicle_type_id":"4","last_reported":1715962108,"current_range_meters":0,"station_id":"ce4bgup2rcd13ifvqcn0","pricing_plan_id":"cebpf4jnsgd1na2vs0mg"},{"bike_id":"51379051-5743-4c82-b0f8-8ec4f52b0e15","system_id":"levelo_inurba_marseille","lat":43.310804,"lon":5.38359,"is_reserved":false,"is_disabled":false,"rental_uris":{"android":"levelo://app?vid=51379051-5743-4c82-b0f8-8ec4f52b0e15","ios":"levelo://app?vid=51379051-5743-4c82-b0f8-8ec4f52b0e15"},"vehicle_type_id":"4","last_reported":1715962108,"current_range_meters":31200,"station_id":"ce4bgv92rcd13ifvqcr0","pricing_plan_id":"cebpf4jnsgd1na2vs0mg"},{"bike_id":"07135b99-d4cd-4fd7-8c8d-de37de312641","system_id":"levelo_inurba_marseille","lat":43.324771,"lon":5.36557,"is_reserved":false,"is_disabled":false,"rental_uris":{"android":"levelo://app?vid=07135b99-d4cd-4fd7-8c8d-de37de312641","ios":"levelo://app?vid=07135b99-d4cd-4fd7-8c8d-de37de312641"},"vehicle_type_id":"4","last_reported":1715962108,"current_range_meters":24400,"station_id":"ce4bhs12rcd13ifvqhvg","pricing_plan_id":"cebpf4jnsgd1na2vs0mg"},{"bike_id":"6b1ef999-4ea6-45a6-a6c7-1432d37a2ab5","system_id":"levelo_inurba_marseille","lat":43.302753,"lon":5.377187,"is_reserved":false,"is_disabled":false,"rental_uris":{"android":"levelo://app?vid=6b1ef999-4ea6-45a6-a6c7-1432d37a2ab5","ios":"levelo://app?vid=6b1ef999-4ea6-45a6-a6c7-1432d37a2ab5"},"vehicle_type_id":"4","last_reported":1715962108,"current_range_meters":800,"station_id":"ce4bguh2rcd13ifvqcj0","pricing_plan_id":"cebpf4jnsgd1na2vs0mg"},{"bike_id":"65c24e61-8cc8-4d29-8184-3e2a3fc426c9","system_id":"levelo_inurba_marseille","lat":43.301429,"lon":5.37413,"is_reserved":false,"is_disabled":false,"rental_uris":{"android":"levelo://app?vid=65c24e61-8cc8-4d29-8184-3e2a3fc426c9","ios":"levelo://app?vid=65c24e61-8cc8-4d29-8184-3e2a3fc426c9"},"vehicle_type_id":"4","last_reported":1715962108,"current_range_meters":0,"station_id":"ce4bgs92rcd13ifvqcc0","pricing_plan_id":"cebpf4jnsgd1na2vs0mg"},{"bike_id":"a430326e-558f-4cdb-bcdc-cdf00ea6bc51","system_id":"levelo_inurba_marseille","lat":43.319935,"lon":5.381699,"is_reserved":false,"is_disabled":false,"rental_uris":{"android":"levelo://app?vid=a430326e-558f-4cdb-bcdc-cdf00ea6bc51","ios":"levelo://app?vid=a430326e-558f-4cdb-bcdc-cdf00ea6bc51"},"vehicle_type_id":"4","last_reported":1715962108,"current_range_meters":6400,"station_id":"ce4bhr12rcd13ifvqhpg","pricing_plan_id":"cebpf4jnsgd1na2vs0mg"},{"bike_id":"dfcfe5c2-ea48-4667-a029-261d81d7da43","system_id":"levelo_inurba_marseille","lat":43.313571,"lon":5.384829,"is_reserved":false,"is_disabled":false,"rental_uris":{"android":"levelo://app?vid=dfcfe5c2-ea48-4667-a029-261d81d7da43","ios":"levelo://app?vid=dfcfe5c2-ea48-4667-a029-261d81d7da43"},"vehicle_type_id":"4","last_reported":1715962108,"current_range_meters":18000,"station_id":"ce4bgt92rcd13ifvqcf0","pricing_plan_id":"cebpf4jnsgd1na2vs0mg"},{"bike_id":"e7f15465-3991-49cd-8b85-980d94fe042b","system_id":"levelo_inurba_marseille","lat":43.313571,"lon":5.384829,"is_reserved":false,"is_disabled":false,"rental_uris":{"android":"levelo://app?vid=e7f15465-3991-49cd-8b85-980d94fe042b","ios":"levelo://app?vid=e7f15465-3991-49cd-8b85-980d94fe042b"},"vehicle_type_id":"4","last_reported":1715962108,"current_range_meters":3200,"station_id":"ce4bgt92rcd13ifvqcf0","pricing_plan_id":"cebpf4jnsgd1na2vs0mg"},{"bike_id":"d1e25f36-0454-43b7-8b24-d947a8671bc5","system_id":"levelo_inurba_marseille","lat":43.313571,"lon":5.384829,"is_reserved":false,"is_disabled":false,"rental_uris":{"android":"levelo://app?vid=d1e25f36-0454-43b7-8b24-d947a8671bc5","ios":"levelo://app?vid=d1e25f36-0454-43b7-8b24-d947a8671bc5"},"vehicle_type_id":"4","last_reported":1715962108,"current_range_meters":22800,"station_id":"ce4bgt92rcd13ifvqcf0","pricing_plan_id":"cebpf4jnsgd1na2vs0mg"},{"bike_id":"9291b5a3-c28e-430c-a7a8-7d9affc8ee00","system_id":"levelo_inurba_marseille","lat":43.299795,"lon":5.371822,"is_reserved":false,"is_disabled":false,"rental_uris":{"android":"levelo://app?vid=9291b5a3-c28e-430c-a7a8-7d9affc8ee00","ios":"levelo://app?vid=9291b5a3-c28e-430c-a7a8-7d9affc8ee00"},"vehicle_type_id":"4","last_reported":1715962108,"current_range_meters":400,"station_id":"ce4bgr92rcd13ifvqc7g","pricing_plan_id":"cebpf4jnsgd1na2vs0mg"},{"bike_id":"6aa80e03-48b3-436d-bf76-24f2ba1a7a42","system_id":"levelo_inurba_marseille","lat":43.299591,"lon":5.371581,"is_reserved":false,"is_disabled":false,"rental_uris":{"android":"levelo://app?vid=6aa80e03-48b3-436d-bf76-24f2ba1a7a42","ios":"levelo://app?vid=6aa80e03-48b3-436d-bf76-24f2ba1a7a42"},"vehicle_type_id":"4","last_reported":1715962108,"current_range_meters":29600,"station_id":"ce4bgr92rcd13ifvqc7g","pricing_plan_id":"cebpf4jnsgd1na2vs0mg"},{"bike_id":"5ddac38f-3272-4a1c-bec2-12e205e95dfd","system_id":"levelo_inurba_marseille","lat":43.313571,"lon":5.384829,"is_reserved":false,"is_disabled":false,"rental_uris":{"android":"levelo://app?vid=5ddac38f-3272-4a1c-bec2-12e205e95dfd","ios":"levelo://app?vid=5ddac38f-3272-4a1c-bec2-12e205e95dfd"},"vehicle_type_id":"4","last_reported":1715962108,"current_range_meters":15600,"station_id":"ce4bgt92rcd13ifvqcf0","pricing_plan_id":"cebpf4jnsgd1na2vs0mg"},{"bike_id":"fa2437b3-cfce-4f22-947a-bc35cb2eb68d","system_id":"levelo_inurba_marseille","lat":43.311722,"lon":5.387247,"is_reserved":false,"is_disabled":false,"rental_uris":{"android":"levelo://app?vid=fa2437b3-cfce-4f22-947a-bc35cb2eb68d","ios":"levelo://app?vid=fa2437b3-cfce-4f22-947a-bc35cb2eb68d"},"vehicle_type_id":"4","last_reported":1715962108,"current_range_meters":21600,"station_id":"ce4bgv12rcd13ifvqcp0","pricing_plan_id":"cebpf4jnsgd1na2vs0mg"},{"bike_id":"56065bac-ea58-47e1-9e95-e50f14571014","system_id":"levelo_inurba_marseille","lat":43.298433,"lon":5.362774,"is_reserved":false,"is_disabled":false,"rental_uris":{"android":"levelo://app?vid=56065bac-ea58-47e1-9e95-e50f14571014","ios":"levelo://app?vid=56065bac-ea58-47e1-9e95-e50f14571014"},"vehicle_type_id":"4","last_reported":1715962108,"current_range_meters":12800,"station_id":"ce4bgpp2rcd13ifvqc3g","pricing_plan_id":"cebpf4jnsgd1na2vs0mg"},{"bike_id":"ee66fe8c-7158-4869-a0ec-d8b218d13e58","system_id":"levelo_inurba_marseille","lat":43.298433,"lon":5.362774,"is_reserved":false,"is_disabled":false,"rental_uris":{"android":"levelo://app?vid=ee66fe8c-7158-4869-a0ec-d8b218d13e58","ios":"levelo://app?vid=ee66fe8c-7158-4869-a0ec-d8b218d13e58"},"vehicle_type_id":"4","last_reported":1715962108,"current_range_meters":16800,"station_id":"ce4bgpp2rcd13ifvqc3g","pricing_plan_id":"cebpf4jnsgd1na2vs0mg"},{"bike_id":"158f60f9-64d1-43ac-9a98-552b64965038","system_id":"levelo_inurba_marseille","lat":43.298433,"lon":5.362774,"is_reserved":false,"is_disabled":false,"rental_uris":{"android":"levelo://app?vid=158f60f9-64d1-43ac-9a98-552b64965038","ios":"levelo://app?vid=158f60f9-64d1-43ac-9a98-552b64965038"},"vehicle_type_id":"4","last_reported":1715962108,"current_range_meters":30000,"station_id":"ce4bgpp2rcd13ifvqc3g","pricing_plan_id":"cebpf4jnsgd1na2vs0mg"},{"bike_id":"9112a563-c073-4694-9ea2-457b01e2e27a","system_id":"levelo_inurba_marseille","lat":43.298433,"lon":5.362774,"is_reserved":false,"is_disabled":false,"rental_uris":{"android":"levelo://app?vid=9112a563-c073-4694-9ea2-457b01e2e27a","ios":"levelo://app?vid=9112a563-c073-4694-9ea2-457b01e2e27a"},"vehicle_type_id":"4","last_reported":1715962108,"current_range_meters":0,"station_id":"ce4bgpp2rcd13ifvqc3g","pricing_plan_id":"cebpf4jnsgd1na2vs0mg"},{"bike_id":"a8420d12-5ea1-4553-ba77-74153419b9a1","system_id":"levelo_inurba_marseille","lat":43.305364,"lon":5.384119,"is_reserved":false,"is_disabled":false,"rental_uris":{"android":"levelo://app?vid=a8420d12-5ea1-4553-ba77-74153419b9a1","ios":"levelo://app?vid=a8420d12-5ea1-4553-ba77-74153419b9a1"},"vehicle_type_id":"4","last_reported":1715962108,"current_range_meters":28400,"station_id":"ce4bgg92rcd13ifvqb30","pricing_plan_id":"cebpf4jnsgd1na2vs0mg"},{"bike_id":"0c4eb777-e5e3-4e3a-851d-89925a8a8d85","system_id":"levelo_inurba_marseille","lat":43.305364,"lon":5.384119,"is_reserved":false,"is_disabled":false,"rental_uris":{"android":"levelo://app?vid=0c4eb777-e5e3-4e3a-851d-89925a8a8d85","ios":"levelo://app?vid=0c4eb777-e5e3-4e3a-851d-89925a8a8d85"},"vehicle_type_id":"4","last_reported":1715962108,"current_range_meters":30800,"station_id":"ce4bgg92rcd13ifvqb30","pricing_plan_id":"cebpf4jnsgd1na2vs0mg"},{"bike_id":"847c4055-b134-405f-ad77-dc5f73b1a179","system_id":"levelo_inurba_marseille","lat":43.311722,"lon":5.387247,"is_reserved":false,"is_disabled":false,"rental_uris":{"android":"levelo://app?vid=847c4055-b134-405f-ad77-dc5f73b1a179","ios":"levelo://app?vid=847c4055-b134-405f-ad77-dc5f73b1a179"},"vehicle_type_id":"4","last_reported":1715962108,"current_range_meters":14000,"station_id":"ce4bgv12rcd13ifvqcp0","pricing_plan_id":"cebpf4jnsgd1na2vs0mg"},{"bike_id":"0fbe0cfe-a754-460f-9f75-f087be6d56ea","system_id":"levelo_inurba_marseille","lat":43.299243,"lon":5.37481,"is_reserved":false,"is_disabled":false,"rental_uris":{"android":"levelo://app?vid=0fbe0cfe-a754-460f-9f75-f087be6d56ea","ios":"levelo://app?vid=0fbe0cfe-a754-460f-9f75-f087be6d56ea"},"vehicle_type_id":"4","last_reported":1715962108,"current_range_meters":1600,"station_id":"ce4bgjh2rcd13ifvqbg0","pricing_plan_id":"cebpf4jnsgd1na2vs0mg"},{"bike_id":"0bca675e-f588-426a-9e75-f5b8d833513b","system_id":"levelo_inurba_marseille","lat":43.294162,"lon":5.386292,"is_reserved":false,"is_disabled":false,"rental_uris":{"android":"levelo://app?vid=0bca675e-f588-426a-9e75-f5b8d833513b","ios":"levelo://app?vid=0bca675e-f588-426a-9e75-f5b8d833513b"},"vehicle_type_id":"4","last_reported":1715962108,"current_range_meters":0,"station_id":"ce4bh2h2rcd13ifvqdh0","pricing_plan_id":"cebpf4jnsgd1na2vs0mg"},{"bike_id":"d31fcba5-fcc3-4696-8691-9a9eca675215","system_id":"levelo_inurba_marseille","lat":43.297774,"lon":5.370875,"is_reserved":false,"is_disabled":false,"rental_uris":{"android":"levelo://app?vid=d31fcba5-fcc3-4696-8691-9a9eca675215","ios":"levelo://app?vid=d31fcba5-fcc3-4696-8691-9a9eca675215"},"vehicle_type_id":"4","last_reported":1715962108,"current_range_meters":0,"station_id":"ce4bgop2rcd13ifvqc1g","pricing_plan_id":"cebpf4jnsgd1na2vs0mg"},{"bike_id":"94d79cf2-3466-42ac-bba8-4a7f3a38e38b","system_id":"levelo_inurba_marseille","lat":43.29793,"lon":5.37095,"is_reserved":false,"is_disabled":false,"rental_uris":{"android":"levelo://app?vid=94d79cf2-3466-42ac-bba8-4a7f3a38e38b","ios":"levelo://app?vid=94d79cf2-3466-42ac-bba8-4a7f3a38e38b"},"vehicle_type_id":"4","last_reported":1715962108,"current_range_meters":0,"station_id":"ce4bgop2rcd13ifvqc1g","pricing_plan_id":"cebpf4jnsgd1na2vs0mg"},{"bike_id":"c79614d0-6967-4ce6-ba2d-5aac2612c2c4","system_id":"levelo_inurba_marseille","lat":43.322872,"lon":5.382756,"is_reserved":false,"is_disabled":false,"rental_uris":{"android":"levelo://app?vid=c79614d0-6967-4ce6-ba2d-5aac2612c2c4","ios":"levelo://app?vid=c79614d0-6967-4ce6-ba2d-5aac2612c2c4"},"vehicle_type_id":"4","last_reported":1715962108,"current_range_meters":6400,"station_id":"ce4bhr12rcd13ifvqhqg","pricing_plan_id":"cebpf4jnsgd1na2vs0mg"},{"bike_id":"82031f0f-98e3-440a-90e8-10bdb387b48f","system_id":"levelo_inurba_marseille","lat":43.322872,"lon":5.382756,"is_reserved":false,"is_disabled":false,"rental_uris":{"android":"levelo://app?vid=82031f0f-98e3-440a-90e8-10bdb387b48f","ios":"levelo://app?vid=82031f0f-98e3-440a-90e8-10bdb387b48f"},"vehicle_type_id":"4","last_reported":1715962108,"current_range_meters":5200,"station_id":"ce4bhr12rcd13ifvqhqg","pricing_plan_id":"cebpf4jnsgd1na2vs0mg"},{"bike_id":"d005acf2-e342-4afa-9fc8-41f06f8d05c6","system_id":"levelo_inurba_marseille","lat":43.297163,"lon":5.365866,"is_reserved":false,"is_disabled":false,"rental_uris":{"android":"levelo://app?vid=d005acf2-e342-4afa-9fc8-41f06f8d05c6","ios":"levelo://app?vid=d005acf2-e342-4afa-9fc8-41f06f8d05c6"},"vehicle_type_id":"4","last_reported":1715962108,"current_range_meters":3600,"station_id":"ce4bgn12rcd13ifvqbt0","pricing_plan_id":"cebpf4jnsgd1na2vs0mg"},{"bike_id":"e8b74b53-1f66-4822-bc9f-59e0cd63ffdc","system_id":"levelo_inurba_marseille","lat":43.297001,"lon":5.368986,"is_reserved":false,"is_disabled":false,"rental_uris":{"android":"levelo://app?vid=e8b74b53-1f66-4822-bc9f-59e0cd63ffdc","ios":"levelo://app?vid=e8b74b53-1f66-4822-bc9f-59e0cd63ffdc"},"vehicle_type_id":"4","last_reported":1715962108,"current_range_meters":5200,"station_id":"","pricing_plan_id":"cebpf4jnsgd1na2vs0mg"},{"bike_id":"1196cbad-4322-42aa-b602-49dcd97f5c47","system_id":"levelo_inurba_marseille","lat":43.29669,"lon":5.37285,"is_reserved":false,"is_disabled":false,"rental_uris":{"android":"levelo://app?vid=1196cbad-4322-42aa-b602-49dcd97f5c47","ios":"levelo://app?vid=1196cbad-4322-42aa-b602-49dcd97f5c47"},"vehicle_type_id":"4","last_reported":1715962108,"current_range_meters":22000,"station_id":"ce4bgk12rcd13ifvqbj0","pricing_plan_id":"cebpf4jnsgd1na2vs0mg"},{"bike_id":"cffc6cca-4403-43eb-a5e1-efed4262977b","system_id":"levelo_inurba_marseille","lat":43.297296,"lon":5.376851,"is_reserved":false,"is_disabled":false,"rental_uris":{"android":"levelo://app?vid=cffc6cca-4403-43eb-a5e1-efed4262977b","ios":"levelo://app?vid=cffc6cca-4403-43eb-a5e1-efed4262977b"},"vehicle_type_id":"4","last_reported":1715962108,"current_range_meters":0,"station_id":"ce4bgi92rcd13ifvqb90","pricing_plan_id":"cebpf4jnsgd1na2vs0mg"},{"bike_id":"ac5304b2-dea0-4ccc-8d4c-ebd03af1c8a0","system_id":"levelo_inurba_marseille","lat":43.29913,"lon":5.38135,"is_reserved":false,"is_disabled":false,"rental_uris":{"android":"levelo://app?vid=ac5304b2-dea0-4ccc-8d4c-ebd03af1c8a0","ios":"levelo://app?vid=ac5304b2-dea0-4ccc-8d4c-ebd03af1c8a0"},"vehicle_type_id":"4","last_reported":1715962108,"current_range_meters":0,"station_id":"ce4bgj12rcd13ifvqbc0","pricing_plan_id":"cebpf4jnsgd1na2vs0mg"},{"bike_id":"50c82b36-e437-4ab8-a92d-5f3e25ebed70","system_id":"levelo_inurba_marseille","lat":43.309589,"lon":5.390258,"is_reserved":false,"is_disabled":false,"rental_uris":{"android":"levelo://app?vid=50c82b36-e437-4ab8-a92d-5f3e25ebed70","ios":"levelo://app?vid=50c82b36-e437-4ab8-a92d-5f3e25ebed70"},"vehicle_type_id":"4","last_reported":1715962108,"current_range_meters":0,"station_id":"ce4bgup2rcd13ifvqco0","pricing_plan_id":"cebpf4jnsgd1na2vs0mg"},{"bike_id":"f8fbf234-2c57-45c3-a041-79ded06411a0","system_id":"levelo_inurba_marseille","lat":43.304274,"lon":5.388873,"is_reserved":false,"is_disabled":false,"rental_uris":{"android":"levelo://app?vid=f8fbf234-2c57-45c3-a041-79ded06411a0","ios":"levelo://app?vid=f8fbf234-2c57-45c3-a041-79ded06411a0"},"vehicle_type_id":"4","last_reported":1715962108,"current_range_meters":9600,"station_id":"ce4bgk12rcd13ifvqbi0","pricing_plan_id":"cebpf4jnsgd1na2vs0mg"},{"bike_id":"67cc62ce-2e44-46b3-b7fa-52376983fa12","system_id":"levelo_inurba_marseille","lat":43.309589,"lon":5.390258,"is_reserved":false,"is_disabled":false,"rental_uris":{"android":"levelo://app?vid=67cc62ce-2e44-46b3-b7fa-52376983fa12","ios":"levelo://app?vid=67cc62ce-2e44-46b3-b7fa-52376983fa12"},"vehicle_type_id":"4","last_reported":1715962108,"current_range_meters":25200,"station_id":"ce4bgup2rcd13ifvqco0","pricing_plan_id":"cebpf4jnsgd1na2vs0mg"},{"bike_id":"d46e8f16-45f9-47e6-92a2-05d81f9ac0b8","system_id":"levelo_inurba_marseille","lat":43.317557,"lon":5.390173,"is_reserved":false,"is_disabled":false,"rental_uris":{"android":"levelo://app?vid=d46e8f16-45f9-47e6-92a2-05d81f9ac0b8","ios":"levelo://app?vid=d46e8f16-45f9-47e6-92a2-05d81f9ac0b8"},"vehicle_type_id":"4","last_reported":1715962108,"current_range_meters":19600,"station_id":"ce4bhqp2rcd13ifvqhng","pricing_plan_id":"cebpf4jnsgd1na2vs0mg"},{"bike_id":"05b04fe5-cb2b-4f8a-bf97-e6829ad9cc1b","system_id":"levelo_inurba_marseille","lat":43.317557,"lon":5.390173,"is_reserved":false,"is_disabled":false,"rental_uris":{"android":"levelo://app?vid=05b04fe5-cb2b-4f8a-bf97-e6829ad9cc1b","ios":"levelo://app?vid=05b04fe5-cb2b-4f8a-bf97-e6829ad9cc1b"},"vehicle_type_id":"4","last_reported":1715962108,"current_range_meters":13200,"station_id":"ce4bhqp2rcd13ifvqhng","pricing_plan_id":"cebpf4jnsgd1na2vs0mg"},{"bike_id":"0ae41a20-d624-4f90-a859-b5bc9297a1b4","system_id":"levelo_inurba_marseille","lat":43.304209,"lon":5.388145,"is_reserved":false,"is_disabled":false,"rental_uris":{"android":"levelo://app?vid=0ae41a20-d624-4f90-a859-b5bc9297a1b4","ios":"levelo://app?vid=0ae41a20-d624-4f90-a859-b5bc9297a1b4"},"vehicle_type_id":"4","last_reported":1715962108,"current_range_meters":0,"station_id":"ce4bgk12rcd13ifvqbi0","pricing_plan_id":"cebpf4jnsgd1na2vs0mg"},{"bike_id":"b7b19664-6f1e-49fc-9bef-0b57e627b5e7","system_id":"levelo_inurba_marseille","lat":43.317557,"lon":5.390173,"is_reserved":false,"is_disabled":false,"rental_uris":{"android":"levelo://app?vid=b7b19664-6f1e-49fc-9bef-0b57e627b5e7","ios":"levelo://app?vid=b7b19664-6f1e-49fc-9bef-0b57e627b5e7"},"vehicle_type_id":"4","last_reported":1715962108,"current_range_meters":13200,"station_id":"ce4bhqp2rcd13ifvqhng","pricing_plan_id":"cebpf4jnsgd1na2vs0mg"},{"bike_id":"ae620fc8-d825-4bc3-9d5f-3f7e0ab13f56","system_id":"levelo_inurba_marseille","lat":43.298037,"lon":5.381066,"is_reserved":false,"is_disabled":false,"rental_uris":{"android":"levelo://app?vid=ae620fc8-d825-4bc3-9d5f-3f7e0ab13f56","ios":"levelo://app?vid=ae620fc8-d825-4bc3-9d5f-3f7e0ab13f56"},"vehicle_type_id":"4","last_reported":1715962108,"current_range_meters":26000,"station_id":"ce4bgip2rcd13ifvqbb0","pricing_plan_id":"cebpf4jnsgd1na2vs0mg"},{"bike_id":"96524163-7720-472d-a315-dfa24c947e0f","system_id":"levelo_inurba_marseille","lat":43.295748,"lon":5.37522,"is_reserved":false,"is_disabled":false,"rental_uris":{"android":"levelo://app?vid=96524163-7720-472d-a315-dfa24c947e0f","ios":"levelo://app?vid=96524163-7720-472d-a315-dfa24c947e0f"},"vehicle_type_id":"4","last_reported":1715962108,"current_range_meters":13600,"station_id":"ce4bgh92rcd13ifvqb50","pricing_plan_id":"cebpf4jnsgd1na2vs0mg"},{"bike_id":"2a092f49-a539-4b13-bcc8-ad6022df7286","system_id":"levelo_inurba_marseille","lat":43.295748,"lon":5.37522,"is_reserved":false,"is_disabled":false,"rental_uris":{"android":"levelo://app?vid=2a092f49-a539-4b13-bcc8-ad6022df7286","ios":"levelo://app?vid=2a092f49-a539-4b13-bcc8-ad6022df7286"},"vehicle_type_id":"4","last_reported":1715962108,"current_range_meters":18000,"station_id":"ce4bgh92rcd13ifvqb50","pricing_plan_id":"cebpf4jnsgd1na2vs0mg"},{"bike_id":"23eb4103-ca58-48cb-85c7-6c0cc4fc0ca2","system_id":"levelo_inurba_marseille","lat":43.304278,"lon":5.388868,"is_reserved":false,"is_disabled":false,"rental_uris":{"android":"levelo://app?vid=23eb4103-ca58-48cb-85c7-6c0cc4fc0ca2","ios":"levelo://app?vid=23eb4103-ca58-48cb-85c7-6c0cc4fc0ca2"},"vehicle_type_id":"4","last_reported":1715962108,"current_range_meters":31200,"station_id":"ce4bgk12rcd13ifvqbi0","pricing_plan_id":"cebpf4jnsgd1na2vs0mg"},{"bike_id":"c0e278f8-b56a-4547-9e1f-93684c43209a","system_id":"levelo_inurba_marseille","lat":43.30434,"lon":5.38883,"is_reserved":false,"is_disabled":false,"rental_uris":{"android":"levelo://app?vid=c0e278f8-b56a-4547-9e1f-93684c43209a","ios":"levelo://app?vid=c0e278f8-b56a-4547-9e1f-93684c43209a"},"vehicle_type_id":"4","last_reported":1715962108,"current_range_meters":0,"station_id":"ce4bgk12rcd13ifvqbi0","pricing_plan_id":"cebpf4jnsgd1na2vs0mg"},{"bike_id":"94d67079-4a2b-4f25-81e2-26f57c436540","system_id":"levelo_inurba_marseille","lat":43.295748,"lon":5.37522,"is_reserved":false,"is_disabled":false,"rental_uris":{"android":"levelo://app?vid=94d67079-4a2b-4f25-81e2-26f57c436540","ios":"levelo://app?vid=94d67079-4a2b-4f25-81e2-26f57c436540"},"vehicle_type_id":"4","last_reported":1715962108,"current_range_meters":0,"station_id":"ce4bgh92rcd13ifvqb50","pricing_plan_id":"cebpf4jnsgd1na2vs0mg"},{"bike_id":"8a8a2059-072f-4396-895c-7a76c9521e7a","system_id":"levelo_inurba_marseille","lat":43.295748,"lon":5.37522,"is_reserved":false,"is_disabled":false,"rental_uris":{"android":"levelo://app?vid=8a8a2059-072f-4396-895c-7a76c9521e7a","ios":"levelo://app?vid=8a8a2059-072f-4396-895c-7a76c9521e7a"},"vehicle_type_id":"4","last_reported":1715962108,"current_range_meters":16400,"station_id":"ce4bgh92rcd13ifvqb50","pricing_plan_id":"cebpf4jnsgd1na2vs0mg"},{"bike_id":"5d09d126-8c7c-45ea-a856-13dc3f20be59","system_id":"levelo_inurba_marseille","lat":43.295748,"lon":5.37522,"is_reserved":false,"is_disabled":false,"rental_uris":{"android":"levelo://app?vid=5d09d126-8c7c-45ea-a856-13dc3f20be59","ios":"levelo://app?vid=5d09d126-8c7c-45ea-a856-13dc3f20be59"},"vehicle_type_id":"4","last_reported":1715962108,"current_range_meters":12000,"station_id":"ce4bgh92rcd13ifvqb50","pricing_plan_id":"cebpf4jnsgd1na2vs0mg"},{"bike_id":"6240d9b6-f029-4080-9838-6fe556b8f390","system_id":"levelo_inurba_marseille","lat":43.29768,"lon":5.380645,"is_reserved":false,"is_disabled":false,"rental_uris":{"android":"levelo://app?vid=6240d9b6-f029-4080-9838-6fe556b8f390","ios":"levelo://app?vid=6240d9b6-f029-4080-9838-6fe556b8f390"},"vehicle_type_id":"4","last_reported":1715962108,"current_range_meters":20400,"station_id":"","pricing_plan_id":"cebpf4jnsgd1na2vs0mg"},{"bike_id":"aad0b997-4faa-482b-82da-faec86a55f52","system_id":"levelo_inurba_marseille","lat":43.29791,"lon":5.38124,"is_reserved":false,"is_disabled":false,"rental_uris":{"android":"levelo://app?vid=aad0b997-4faa-482b-82da-faec86a55f52","ios":"levelo://app?vid=aad0b997-4faa-482b-82da-faec86a55f52"},"vehicle_type_id":"4","last_reported":1715962108,"current_range_meters":0,"station_id":"ce4bgip2rcd13ifvqbb0","pricing_plan_id":"cebpf4jnsgd1na2vs0mg"},{"bike_id":"3337d4ce-3e86-4ef6-80a3-3c9497c72a91","system_id":"levelo_inurba_marseille","lat":43.298037,"lon":5.381066,"is_reserved":false,"is_disabled":false,"rental_uris":{"android":"levelo://app?vid=3337d4ce-3e86-4ef6-80a3-3c9497c72a91","ios":"levelo://app?vid=3337d4ce-3e86-4ef6-80a3-3c9497c72a91"},"vehicle_type_id":"4","last_reported":1715962108,"current_range_meters":1600,"station_id":"ce4bgip2rcd13ifvqbb0","pricing_plan_id":"cebpf4jnsgd1na2vs0mg"},{"bike_id":"27c2b0ac-fd81-4272-a917-a5c8adb844d2","system_id":"levelo_inurba_marseille","lat":43.295748,"lon":5.37522,"is_reserved":false,"is_disabled":false,"rental_uris":{"android":"levelo://app?vid=27c2b0ac-fd81-4272-a917-a5c8adb844d2","ios":"levelo://app?vid=27c2b0ac-fd81-4272-a917-a5c8adb844d2"},"vehicle_type_id":"4","last_reported":1715962108,"current_range_meters":0,"station_id":"ce4bgh92rcd13ifvqb50","pricing_plan_id":"cebpf4jnsgd1na2vs0mg"},{"bike_id":"ff27003c-8f5b-41ed-b6b0-2bfb0512a89c","system_id":"levelo_inurba_marseille","lat":43.295279,"lon":5.375048,"is_reserved":false,"is_disabled":false,"rental_uris":{"android":"levelo://app?vid=ff27003c-8f5b-41ed-b6b0-2bfb0512a89c","ios":"levelo://app?vid=ff27003c-8f5b-41ed-b6b0-2bfb0512a89c"},"vehicle_type_id":"4","last_reported":1715962108,"current_range_meters":14800,"station_id":"ce4bgkp2rcd13ifvqbmg","pricing_plan_id":"cebpf4jnsgd1na2vs0mg"},{"bike_id":"409ecdc0-3b2e-437a-9580-687bff8e2c84","system_id":"levelo_inurba_marseille","lat":43.29971,"lon":5.38498,"is_reserved":false,"is_disabled":false,"rental_uris":{"android":"levelo://app?vid=409ecdc0-3b2e-437a-9580-687bff8e2c84","ios":"levelo://app?vid=409ecdc0-3b2e-437a-9580-687bff8e2c84"},"vehicle_type_id":"4","last_reported":1715962108,"current_range_meters":6800,"station_id":"ce4bgj92rcd13ifvqbd0","pricing_plan_id":"cebpf4jnsgd1na2vs0mg"},{"bike_id":"ba06119c-ae27-4684-a6ae-0bdd8de5e010","system_id":"levelo_inurba_marseille","lat":43.29968,"lon":5.38494,"is_reserved":false,"is_disabled":false,"rental_uris":{"android":"levelo://app?vid=ba06119c-ae27-4684-a6ae-0bdd8de5e010","ios":"levelo://app?vid=ba06119c-ae27-4684-a6ae-0bdd8de5e010"},"vehicle_type_id":"4","last_reported":1715962108,"current_range_meters":15200,"station_id":"ce4bgj92rcd13ifvqbd0","pricing_plan_id":"cebpf4jnsgd1na2vs0mg"},{"bike_id":"5e02db71-ced3-49c8-a8a3-cb9e710ae2c8","system_id":"levelo_inurba_marseille","lat":43.29966,"lon":5.38492,"is_reserved":false,"is_disabled":false,"rental_uris":{"android":"levelo://app?vid=5e02db71-ced3-49c8-a8a3-cb9e710ae2c8","ios":"levelo://app?vid=5e02db71-ced3-49c8-a8a3-cb9e710ae2c8"},"vehicle_type_id":"4","last_reported":1715962108,"current_range_meters":12800,"station_id":"ce4bgj92rcd13ifvqbd0","pricing_plan_id":"cebpf4jnsgd1na2vs0mg"},{"bike_id":"c1805d7a-0d93-4b77-8786-9fa4e0d3b3c7","system_id":"levelo_inurba_marseille","lat":43.295279,"lon":5.375048,"is_reserved":false,"is_disabled":false,"rental_uris":{"android":"levelo://app?vid=c1805d7a-0d93-4b77-8786-9fa4e0d3b3c7","ios":"levelo://app?vid=c1805d7a-0d93-4b77-8786-9fa4e0d3b3c7"},"vehicle_type_id":"4","last_reported":1715962108,"current_range_meters":0,"station_id":"ce4bgkp2rcd13ifvqbmg","pricing_plan_id":"cebpf4jnsgd1na2vs0mg"},{"bike_id":"4c29035e-0968-4433-8faf-da17d914a34a","system_id":"levelo_inurba_marseille","lat":43.299668,"lon":5.385043,"is_reserved":false,"is_disabled":false,"rental_uris":{"android":"levelo://app?vid=4c29035e-0968-4433-8faf-da17d914a34a","ios":"levelo://app?vid=4c29035e-0968-4433-8faf-da17d914a34a"},"vehicle_type_id":"4","last_reported":1715962108,"current_range_meters":14800,"station_id":"ce4bh192rcd13ifvqdb0","pricing_plan_id":"cebpf4jnsgd1na2vs0mg"},{"bike_id":"f54593d0-0454-4c94-a7b3-eea3f462f3d6","system_id":"levelo_inurba_marseille","lat":43.299566,"lon":5.385039,"is_reserved":false,"is_disabled":false,"rental_uris":{"android":"levelo://app?vid=f54593d0-0454-4c94-a7b3-eea3f462f3d6","ios":"levelo://app?vid=f54593d0-0454-4c94-a7b3-eea3f462f3d6"},"vehicle_type_id":"4","last_reported":1715962108,"current_range_meters":4000,"station_id":"ce4bgj92rcd13ifvqbd0","pricing_plan_id":"cebpf4jnsgd1na2vs0mg"},{"bike_id":"7157e234-15a9-4e28-8095-092355a640b3","system_id":"levelo_inurba_marseille","lat":43.297199,"lon":5.381119,"is_reserved":false,"is_disabled":false,"rental_uris":{"android":"levelo://app?vid=7157e234-15a9-4e28-8095-092355a640b3","ios":"levelo://app?vid=7157e234-15a9-4e28-8095-092355a640b3"},"vehicle_type_id":"4","last_reported":1715962108,"current_range_meters":16800,"station_id":"ce4bgip2rcd13ifvqbb0","pricing_plan_id":"cebpf4jnsgd1na2vs0mg"},{"bike_id":"ee1bd59e-8b08-4dc0-9eaf-74a59c279ba6","system_id":"levelo_inurba_marseille","lat":43.299523,"lon":5.385032,"is_reserved":false,"is_disabled":false,"rental_uris":{"android":"levelo://app?vid=ee1bd59e-8b08-4dc0-9eaf-74a59c279ba6","ios":"levelo://app?vid=ee1bd59e-8b08-4dc0-9eaf-74a59c279ba6"},"vehicle_type_id":"4","last_reported":1715962108,"current_range_meters":19600,"station_id":"ce4bgj92rcd13ifvqbd0","pricing_plan_id":"cebpf4jnsgd1na2vs0mg"},{"bike_id":"6c757166-6cb3-4424-9c2f-ac5c0534864e","system_id":"levelo_inurba_marseille","lat":43.29602,"lon":5.381084,"is_reserved":false,"is_disabled":false,"rental_uris":{"android":"levelo://app?vid=6c757166-6cb3-4424-9c2f-ac5c0534864e","ios":"levelo://app?vid=6c757166-6cb3-4424-9c2f-ac5c0534864e"},"vehicle_type_id":"4","last_reported":1715962108,"current_range_meters":0,"station_id":"ce4bgl12rcd13ifvqbo0","pricing_plan_id":"cebpf4jnsgd1na2vs0mg"},{"bike_id":"42b3aaa9-d3ab-4c1c-980d-b425f5924811","system_id":"levelo_inurba_marseille","lat":43.29602,"lon":5.381084,"is_reserved":false,"is_disabled":false,"rental_uris":{"android":"levelo://app?vid=42b3aaa9-d3ab-4c1c-980d-b425f5924811","ios":"levelo://app?vid=42b3aaa9-d3ab-4c1c-980d-b425f5924811"},"vehicle_type_id":"4","last_reported":1715962108,"current_range_meters":16800,"station_id":"ce4bgl12rcd13ifvqbo0","pricing_plan_id":"cebpf4jnsgd1na2vs0mg"},{"bike_id":"781c1c26-f9aa-4e79-9f3b-b86d1c09f7ef","system_id":"levelo_inurba_marseille","lat":43.29439,"lon":5.37636,"is_reserved":false,"is_disabled":false,"rental_uris":{"android":"levelo://app?vid=781c1c26-f9aa-4e79-9f3b-b86d1c09f7ef","ios":"levelo://app?vid=781c1c26-f9aa-4e79-9f3b-b86d1c09f7ef"},"vehicle_type_id":"4","last_reported":1715962108,"current_range_meters":5600,"station_id":"","pricing_plan_id":"cebpf4jnsgd1na2vs0mg"},{"bike_id":"3e9e985a-284c-43c9-b33d-15ee91b7c79c","system_id":"levelo_inurba_marseille","lat":43.296029,"lon":5.381008,"is_reserved":false,"is_disabled":false,"rental_uris":{"android":"levelo://app?vid=3e9e985a-284c-43c9-b33d-15ee91b7c79c","ios":"levelo://app?vid=3e9e985a-284c-43c9-b33d-15ee91b7c79c"},"vehicle_type_id":"4","last_reported":1715962108,"current_range_meters":0,"station_id":"ce4bgl12rcd13ifvqbo0","pricing_plan_id":"cebpf4jnsgd1na2vs0mg"},{"bike_id":"6b471cd6-b89a-4a3a-a389-3b6b845d2939","system_id":"levelo_inurba_marseille","lat":43.29602,"lon":5.381084,"is_reserved":false,"is_disabled":false,"rental_uris":{"android":"levelo://app?vid=6b471cd6-b89a-4a3a-a389-3b6b845d2939","ios":"levelo://app?vid=6b471cd6-b89a-4a3a-a389-3b6b845d2939"},"vehicle_type_id":"4","last_reported":1715962108,"current_range_meters":4800,"station_id":"ce4bgl12rcd13ifvqbo0","pricing_plan_id":"cebpf4jnsgd1na2vs0mg"},{"bike_id":"b8bb0c06-37cf-4bc4-b18e-36f6ff485b71","system_id":"levelo_inurba_marseille","lat":43.297064,"lon":5.384129,"is_reserved":false,"is_disabled":false,"rental_uris":{"android":"levelo://app?vid=b8bb0c06-37cf-4bc4-b18e-36f6ff485b71","ios":"levelo://app?vid=b8bb0c06-37cf-4bc4-b18e-36f6ff485b71"},"vehicle_type_id":"4","last_reported":1715962108,"current_range_meters":12800,"station_id":"","pricing_plan_id":"cebpf4jnsgd1na2vs0mg"},{"bike_id":"953c7397-99dd-4a3a-b4ab-b3282a0f7aed","system_id":"levelo_inurba_marseille","lat":43.293283,"lon":5.374483,"is_reserved":false,"is_disabled":false,"rental_uris":{"android":"levelo://app?vid=953c7397-99dd-4a3a-b4ab-b3282a0f7aed","ios":"levelo://app?vid=953c7397-99dd-4a3a-b4ab-b3282a0f7aed"},"vehicle_type_id":"4","last_reported":1715962108,"current_range_meters":0,"station_id":"ce4bgi12rcd13ifvqb70","pricing_plan_id":"cebpf4jnsgd1na2vs0mg"},{"bike_id":"545dbf96-9a0b-4b7a-9c7c-08d56a12ae1e","system_id":"levelo_inurba_marseille","lat":43.293236,"lon":5.374286,"is_reserved":false,"is_disabled":false,"rental_uris":{"android":"levelo://app?vid=545dbf96-9a0b-4b7a-9c7c-08d56a12ae1e","ios":"levelo://app?vid=545dbf96-9a0b-4b7a-9c7c-08d56a12ae1e"},"vehicle_type_id":"4","last_reported":1715962108,"current_range_meters":0,"station_id":"ce4bgi12rcd13ifvqb70","pricing_plan_id":"cebpf4jnsgd1na2vs0mg"},{"bike_id":"511dfa75-5908-48ef-84dc-23c2cc1d1c21","system_id":"levelo_inurba_marseille","lat":43.29312,"lon":5.37444,"is_reserved":false,"is_disabled":false,"rental_uris":{"android":"levelo://app?vid=511dfa75-5908-48ef-84dc-23c2cc1d1c21","ios":"levelo://app?vid=511dfa75-5908-48ef-84dc-23c2cc1d1c21"},"vehicle_type_id":"4","last_reported":1715962108,"current_range_meters":0,"station_id":"ce4bgi12rcd13ifvqb70","pricing_plan_id":"cebpf4jnsgd1na2vs0mg"},{"bike_id":"0eb60441-46b0-4bd7-bb8a-fcf7deaf5990","system_id":"levelo_inurba_marseille","lat":43.30602,"lon":5.3935,"is_reserved":false,"is_disabled":false,"rental_uris":{"android":"levelo://app?vid=0eb60441-46b0-4bd7-bb8a-fcf7deaf5990","ios":"levelo://app?vid=0eb60441-46b0-4bd7-bb8a-fcf7deaf5990"},"vehicle_type_id":"4","last_reported":1715962108,"current_range_meters":0,"station_id":"ce4bh0p2rcd13ifvqd80","pricing_plan_id":"cebpf4jnsgd1na2vs0mg"},{"bike_id":"53872bc4-8f47-42c3-86e3-7acda23d75e2","system_id":"levelo_inurba_marseille","lat":43.30605,"lon":5.39354,"is_reserved":false,"is_disabled":false,"rental_uris":{"android":"levelo://app?vid=53872bc4-8f47-42c3-86e3-7acda23d75e2","ios":"levelo://app?vid=53872bc4-8f47-42c3-86e3-7acda23d75e2"},"vehicle_type_id":"4","last_reported":1715962108,"current_range_meters":0,"station_id":"ce4bh0p2rcd13ifvqd80","pricing_plan_id":"cebpf4jnsgd1na2vs0mg"},{"bike_id":"0159de7e-5651-43a0-b5ca-fd24f0fb0740","system_id":"levelo_inurba_marseille","lat":43.292993,"lon":5.37452,"is_reserved":false,"is_disabled":false,"rental_uris":{"android":"levelo://app?vid=0159de7e-5651-43a0-b5ca-fd24f0fb0740","ios":"levelo://app?vid=0159de7e-5651-43a0-b5ca-fd24f0fb0740"},"vehicle_type_id":"4","last_reported":1715962108,"current_range_meters":0,"station_id":"ce4bgi12rcd13ifvqb70","pricing_plan_id":"cebpf4jnsgd1na2vs0mg"},{"bike_id":"4ed04240-3a8a-4ec1-8af0-6e962fcb5135","system_id":"levelo_inurba_marseille","lat":43.293,"lon":5.37457,"is_reserved":false,"is_disabled":false,"rental_uris":{"android":"levelo://app?vid=4ed04240-3a8a-4ec1-8af0-6e962fcb5135","ios":"levelo://app?vid=4ed04240-3a8a-4ec1-8af0-6e962fcb5135"},"vehicle_type_id":"4","last_reported":1715962108,"current_range_meters":0,"station_id":"ce4bgi12rcd13ifvqb70","pricing_plan_id":"cebpf4jnsgd1na2vs0mg"},{"bike_id":"c13b053e-143d-4e73-bf36-d30c312ef5c3","system_id":"levelo_inurba_marseille","lat":43.303002,"lon":5.392142,"is_reserved":false,"is_disabled":false,"rental_uris":{"android":"levelo://app?vid=c13b053e-143d-4e73-bf36-d30c312ef5c3","ios":"levelo://app?vid=c13b053e-143d-4e73-bf36-d30c312ef5c3"},"vehicle_type_id":"4","last_reported":1715962108,"current_range_meters":5200,"station_id":"ce4bgkh2rcd13ifvqbk0","pricing_plan_id":"cebpf4jnsgd1na2vs0mg"},{"bike_id":"8895043c-73c6-4d5f-beba-c80bf7a19766","system_id":"levelo_inurba_marseille","lat":43.302992,"lon":5.392136,"is_reserved":false,"is_disabled":false,"rental_uris":{"android":"levelo://app?vid=8895043c-73c6-4d5f-beba-c80bf7a19766","ios":"levelo://app?vid=8895043c-73c6-4d5f-beba-c80bf7a19766"},"vehicle_type_id":"4","last_reported":1715962108,"current_range_meters":0,"station_id":"ce4bgkh2rcd13ifvqbk0","pricing_plan_id":"cebpf4jnsgd1na2vs0mg"},{"bike_id":"d18d61b9-cf5d-432e-8eb7-74b8f94d0dc6","system_id":"levelo_inurba_marseille","lat":43.292311,"lon":5.360731,"is_reserved":false,"is_disabled":false,"rental_uris":{"android":"levelo://app?vid=d18d61b9-cf5d-432e-8eb7-74b8f94d0dc6","ios":"levelo://app?vid=d18d61b9-cf5d-432e-8eb7-74b8f94d0dc6"},"vehicle_type_id":"4","last_reported":1715962108,"current_range_meters":30800,"station_id":"ce4bhbh2rcd13ifvqeqg","pricing_plan_id":"cebpf4jnsgd1na2vs0mg"},{"bike_id":"0aa2f6c1-07cc-4645-b044-9699523b2cf0","system_id":"levelo_inurba_marseille","lat":43.293803,"lon":5.378673,"is_reserved":false,"is_disabled":false,"rental_uris":{"android":"levelo://app?vid=0aa2f6c1-07cc-4645-b044-9699523b2cf0","ios":"levelo://app?vid=0aa2f6c1-07cc-4645-b044-9699523b2cf0"},"vehicle_type_id":"4","last_reported":1715962108,"current_range_meters":0,"station_id":"ce4bgjh2rcd13ifvqbf0","pricing_plan_id":"cebpf4jnsgd1na2vs0mg"},{"bike_id":"d607e123-cdc6-42e3-8c99-0ed0f61723d5","system_id":"levelo_inurba_marseille","lat":43.309589,"lon":5.390258,"is_reserved":false,"is_disabled":false,"rental_uris":{"android":"levelo://app?vid=d607e123-cdc6-42e3-8c99-0ed0f61723d5","ios":"levelo://app?vid=d607e123-cdc6-42e3-8c99-0ed0f61723d5"},"vehicle_type_id":"4","last_reported":1715962108,"current_range_meters":22800,"station_id":"ce4bgup2rcd13ifvqco0","pricing_plan_id":"cebpf4jnsgd1na2vs0mg"},{"bike_id":"2bf1867b-e9fb-4438-bcdb-36b0882ea35e","system_id":"levelo_inurba_marseille","lat":43.2936,"lon":5.37835,"is_reserved":false,"is_disabled":false,"rental_uris":{"android":"levelo://app?vid=2bf1867b-e9fb-4438-bcdb-36b0882ea35e","ios":"levelo://app?vid=2bf1867b-e9fb-4438-bcdb-36b0882ea35e"},"vehicle_type_id":"4","last_reported":1715962108,"current_range_meters":2800,"station_id":"ce4bgjh2rcd13ifvqbf0","pricing_plan_id":"cebpf4jnsgd1na2vs0mg"},{"bike_id":"05a9e57a-90fd-4c3d-8672-0a9c5ca9a737","system_id":"levelo_inurba_marseille","lat":43.298764,"lon":5.388973,"is_reserved":false,"is_disabled":false,"rental_uris":{"android":"levelo://app?vid=05a9e57a-90fd-4c3d-8672-0a9c5ca9a737","ios":"levelo://app?vid=05a9e57a-90fd-4c3d-8672-0a9c5ca9a737"},"vehicle_type_id":"4","last_reported":1715962108,"current_range_meters":16000,"station_id":"ce4bh392rcd13ifvqdl0","pricing_plan_id":"cebpf4jnsgd1na2vs0mg"},{"bike_id":"2ad2dce3-8521-48c0-a6c8-e135b7e16674","system_id":"levelo_inurba_marseille","lat":43.300852,"lon":5.390859,"is_reserved":false,"is_disabled":false,"rental_uris":{"android":"levelo://app?vid=2ad2dce3-8521-48c0-a6c8-e135b7e16674","ios":"levelo://app?vid=2ad2dce3-8521-48c0-a6c8-e135b7e16674"},"vehicle_type_id":"4","last_reported":1715962108,"current_range_meters":0,"station_id":"ce4bh192rcd13ifvqdb0","pricing_plan_id":"cebpf4jnsgd1na2vs0mg"},{"bike_id":"3fbbe138-97e7-4244-bdb5-3ce21463df70","system_id":"levelo_inurba_marseille","lat":43.300852,"lon":5.390859,"is_reserved":false,"is_disabled":false,"rental_uris":{"android":"levelo://app?vid=3fbbe138-97e7-4244-bdb5-3ce21463df70","ios":"levelo://app?vid=3fbbe138-97e7-4244-bdb5-3ce21463df70"},"vehicle_type_id":"4","last_reported":1715962108,"current_range_meters":0,"station_id":"ce4bh192rcd13ifvqdb0","pricing_plan_id":"cebpf4jnsgd1na2vs0mg"},{"bike_id":"92f2b686-d1ac-4bb4-a9e7-74c1246c1688","system_id":"levelo_inurba_marseille","lat":43.292311,"lon":5.360731,"is_reserved":false,"is_disabled":false,"rental_uris":{"android":"levelo://app?vid=92f2b686-d1ac-4bb4-a9e7-74c1246c1688","ios":"levelo://app?vid=92f2b686-d1ac-4bb4-a9e7-74c1246c1688"},"vehicle_type_id":"4","last_reported":1715962108,"current_range_meters":23200,"station_id":"ce4bhbh2rcd13ifvqeqg","pricing_plan_id":"cebpf4jnsgd1na2vs0mg"},{"bike_id":"e518e8df-4c34-4941-96f0-0ac10e31b3f4","system_id":"levelo_inurba_marseille","lat":43.292311,"lon":5.360731,"is_reserved":false,"is_disabled":false,"rental_uris":{"android":"levelo://app?vid=e518e8df-4c34-4941-96f0-0ac10e31b3f4","ios":"levelo://app?vid=e518e8df-4c34-4941-96f0-0ac10e31b3f4"},"vehicle_type_id":"4","last_reported":1715962108,"current_range_meters":8400,"station_id":"ce4bhbh2rcd13ifvqeqg","pricing_plan_id":"cebpf4jnsgd1na2vs0mg"},{"bike_id":"cc56e7f8-1065-4048-85a8-d97440fcc846","system_id":"levelo_inurba_marseille","lat":43.298884,"lon":5.389017,"is_reserved":false,"is_disabled":false,"rental_uris":{"android":"levelo://app?vid=cc56e7f8-1065-4048-85a8-d97440fcc846","ios":"levelo://app?vid=cc56e7f8-1065-4048-85a8-d97440fcc846"},"vehicle_type_id":"4","last_reported":1715962108,"current_range_meters":0,"station_id":"ce4bh392rcd13ifvqdl0","pricing_plan_id":"cebpf4jnsgd1na2vs0mg"},{"bike_id":"7870d808-0be1-48c9-9b8e-eefa8806e78f","system_id":"levelo_inurba_marseille","lat":43.291675,"lon":5.371583,"is_reserved":false,"is_disabled":false,"rental_uris":{"android":"levelo://app?vid=7870d808-0be1-48c9-9b8e-eefa8806e78f","ios":"levelo://app?vid=7870d808-0be1-48c9-9b8e-eefa8806e78f"},"vehicle_type_id":"4","last_reported":1715962108,"current_range_meters":11600,"station_id":"ce4bha92rcd13ifvqeh0","pricing_plan_id":"cebpf4jnsgd1na2vs0mg"},{"bike_id":"7d62d4ea-747c-4728-9d11-8873ccabccd3","system_id":"levelo_inurba_marseille","lat":43.298764,"lon":5.388973,"is_reserved":false,"is_disabled":false,"rental_uris":{"android":"levelo://app?vid=7d62d4ea-747c-4728-9d11-8873ccabccd3","ios":"levelo://app?vid=7d62d4ea-747c-4728-9d11-8873ccabccd3"},"vehicle_type_id":"4","last_reported":1715962108,"current_range_meters":0,"station_id":"ce4bh392rcd13ifvqdl0","pricing_plan_id":"cebpf4jnsgd1na2vs0mg"},{"bike_id":"966753e0-6acf-49f4-b9ce-a03fac44113e","system_id":"levelo_inurba_marseille","lat":43.291671,"lon":5.371575,"is_reserved":false,"is_disabled":false,"rental_uris":{"android":"levelo://app?vid=966753e0-6acf-49f4-b9ce-a03fac44113e","ios":"levelo://app?vid=966753e0-6acf-49f4-b9ce-a03fac44113e"},"vehicle_type_id":"4","last_reported":1715962108,"current_range_meters":8800,"station_id":"ce4bha92rcd13ifvqeh0","pricing_plan_id":"cebpf4jnsgd1na2vs0mg"},{"bike_id":"79bb4612-6645-4e8b-a569-dc0321e1974c","system_id":"levelo_inurba_marseille","lat":43.29894,"lon":5.38922,"is_reserved":false,"is_disabled":false,"rental_uris":{"android":"levelo://app?vid=79bb4612-6645-4e8b-a569-dc0321e1974c","ios":"levelo://app?vid=79bb4612-6645-4e8b-a569-dc0321e1974c"},"vehicle_type_id":"4","last_reported":1715962108,"current_range_meters":0,"station_id":"ce4bh392rcd13ifvqdl0","pricing_plan_id":"cebpf4jnsgd1na2vs0mg"},{"bike_id":"0b171785-d99e-48cc-b659-5143cc95f601","system_id":"levelo_inurba_marseille","lat":43.298764,"lon":5.388973,"is_reserved":false,"is_disabled":false,"rental_uris":{"android":"levelo://app?vid=0b171785-d99e-48cc-b659-5143cc95f601","ios":"levelo://app?vid=0b171785-d99e-48cc-b659-5143cc95f601"},"vehicle_type_id":"4","last_reported":1715962108,"current_range_meters":22000,"station_id":"ce4bh392rcd13ifvqdl0","pricing_plan_id":"cebpf4jnsgd1na2vs0mg"},{"bike_id":"52573dfd-5fc5-4268-8d48-3f50ef062181","system_id":"levelo_inurba_marseille","lat":43.291671,"lon":5.371575,"is_reserved":false,"is_disabled":false,"rental_uris":{"android":"levelo://app?vid=52573dfd-5fc5-4268-8d48-3f50ef062181","ios":"levelo://app?vid=52573dfd-5fc5-4268-8d48-3f50ef062181"},"vehicle_type_id":"4","last_reported":1715962108,"current_range_meters":11200,"station_id":"ce4bha92rcd13ifvqeh0","pricing_plan_id":"cebpf4jnsgd1na2vs0mg"},{"bike_id":"c4f05da1-3b40-4562-9f42-31f3a029e618","system_id":"levelo_inurba_marseille","lat":43.291671,"lon":5.371575,"is_reserved":false,"is_disabled":false,"rental_uris":{"android":"levelo://app?vid=c4f05da1-3b40-4562-9f42-31f3a029e618","ios":"levelo://app?vid=c4f05da1-3b40-4562-9f42-31f3a029e618"},"vehicle_type_id":"4","last_reported":1715962108,"current_range_meters":6800,"station_id":"ce4bha92rcd13ifvqeh0","pricing_plan_id":"cebpf4jnsgd1na2vs0mg"},{"bike_id":"d98ac623-0fcf-452a-a5d7-34279b419483","system_id":"levelo_inurba_marseille","lat":43.291671,"lon":5.371575,"is_reserved":false,"is_disabled":false,"rental_uris":{"android":"levelo://app?vid=d98ac623-0fcf-452a-a5d7-34279b419483","ios":"levelo://app?vid=d98ac623-0fcf-452a-a5d7-34279b419483"},"vehicle_type_id":"4","last_reported":1715962108,"current_range_meters":11200,"station_id":"ce4bha92rcd13ifvqeh0","pricing_plan_id":"cebpf4jnsgd1na2vs0mg"},{"bike_id":"8a8690a1-f229-4e6a-9300-042a22740ac6","system_id":"levelo_inurba_marseille","lat":43.292005,"lon":5.357875,"is_reserved":false,"is_disabled":false,"rental_uris":{"android":"levelo://app?vid=8a8690a1-f229-4e6a-9300-042a22740ac6","ios":"levelo://app?vid=8a8690a1-f229-4e6a-9300-042a22740ac6"},"vehicle_type_id":"4","last_reported":1715962108,"current_range_meters":400,"station_id":"ce4bhb12rcd13ifvqel0","pricing_plan_id":"cebpf4jnsgd1na2vs0mg"},{"bike_id":"facdef06-d418-4fd6-8136-890e36236214","system_id":"levelo_inurba_marseille","lat":43.291994,"lon":5.357886,"is_reserved":false,"is_disabled":false,"rental_uris":{"android":"levelo://app?vid=facdef06-d418-4fd6-8136-890e36236214","ios":"levelo://app?vid=facdef06-d418-4fd6-8136-890e36236214"},"vehicle_type_id":"4","last_reported":1715962108,"current_range_meters":12400,"station_id":"ce4bhb12rcd13ifvqel0","pricing_plan_id":"cebpf4jnsgd1na2vs0mg"},{"bike_id":"0640e150-ed75-44b2-aeaf-8499ce22c843","system_id":"levelo_inurba_marseille","lat":43.291994,"lon":5.357886,"is_reserved":false,"is_disabled":false,"rental_uris":{"android":"levelo://app?vid=0640e150-ed75-44b2-aeaf-8499ce22c843","ios":"levelo://app?vid=0640e150-ed75-44b2-aeaf-8499ce22c843"},"vehicle_type_id":"4","last_reported":1715962108,"current_range_meters":28800,"station_id":"ce4bhb12rcd13ifvqel0","pricing_plan_id":"cebpf4jnsgd1na2vs0mg"},{"bike_id":"686975fd-d49c-4d1f-af1f-0f5b0798b0ae","system_id":"levelo_inurba_marseille","lat":43.309038,"lon":5.396546,"is_reserved":false,"is_disabled":false,"rental_uris":{"android":"levelo://app?vid=686975fd-d49c-4d1f-af1f-0f5b0798b0ae","ios":"levelo://app?vid=686975fd-d49c-4d1f-af1f-0f5b0798b0ae"},"vehicle_type_id":"4","last_reported":1715962108,"current_range_meters":30800,"station_id":"ce4bh012rcd13ifvqcv0","pricing_plan_id":"cebpf4jnsgd1na2vs0mg"},{"bike_id":"b13df7c3-7de3-411e-aca4-9eb6d586e6a6","system_id":"levelo_inurba_marseille","lat":43.309047,"lon":5.396551,"is_reserved":false,"is_disabled":false,"rental_uris":{"android":"levelo://app?vid=b13df7c3-7de3-411e-aca4-9eb6d586e6a6","ios":"levelo://app?vid=b13df7c3-7de3-411e-aca4-9eb6d586e6a6"},"vehicle_type_id":"4","last_reported":1715962108,"current_range_meters":7200,"station_id":"ce4bh012rcd13ifvqcv0","pricing_plan_id":"cebpf4jnsgd1na2vs0mg"},{"bike_id":"0748ebac-67bc-40c7-ac43-e298b54e0c1a","system_id":"levelo_inurba_marseille","lat":43.309038,"lon":5.396546,"is_reserved":false,"is_disabled":false,"rental_uris":{"android":"levelo://app?vid=0748ebac-67bc-40c7-ac43-e298b54e0c1a","ios":"levelo://app?vid=0748ebac-67bc-40c7-ac43-e298b54e0c1a"},"vehicle_type_id":"4","last_reported":1715962108,"current_range_meters":14800,"station_id":"ce4bh012rcd13ifvqcv0","pricing_plan_id":"cebpf4jnsgd1na2vs0mg"},{"bike_id":"83dff4b2-db28-4e24-a042-3294a0d4a629","system_id":"levelo_inurba_marseille","lat":43.295354,"lon":5.38534,"is_reserved":false,"is_disabled":false,"rental_uris":{"android":"levelo://app?vid=83dff4b2-db28-4e24-a042-3294a0d4a629","ios":"levelo://app?vid=83dff4b2-db28-4e24-a042-3294a0d4a629"},"vehicle_type_id":"4","last_reported":1715962108,"current_range_meters":0,"station_id":"ce4bgih2rcd13ifvqba0","pricing_plan_id":"cebpf4jnsgd1na2vs0mg"},{"bike_id":"852c69df-deb5-4e35-b199-7465596a6ad0","system_id":"levelo_inurba_marseille","lat":43.309038,"lon":5.396546,"is_reserved":false,"is_disabled":false,"rental_uris":{"android":"levelo://app?vid=852c69df-deb5-4e35-b199-7465596a6ad0","ios":"levelo://app?vid=852c69df-deb5-4e35-b199-7465596a6ad0"},"vehicle_type_id":"4","last_reported":1715962108,"current_range_meters":18400,"station_id":"ce4bh012rcd13ifvqcv0","pricing_plan_id":"cebpf4jnsgd1na2vs0mg"},{"bike_id":"b612deea-09ae-4a7e-ae11-a9f6c0bcea7f","system_id":"levelo_inurba_marseille","lat":43.29529,"lon":5.385581,"is_reserved":false,"is_disabled":false,"rental_uris":{"android":"levelo://app?vid=b612deea-09ae-4a7e-ae11-a9f6c0bcea7f","ios":"levelo://app?vid=b612deea-09ae-4a7e-ae11-a9f6c0bcea7f"},"vehicle_type_id":"4","last_reported":1715962108,"current_range_meters":14400,"station_id":"ce4bgih2rcd13ifvqba0","pricing_plan_id":"cebpf4jnsgd1na2vs0mg"},{"bike_id":"859bdb7a-69bf-4fac-897d-c8957a138e0e","system_id":"levelo_inurba_marseille","lat":43.291994,"lon":5.357886,"is_reserved":false,"is_disabled":false,"rental_uris":{"android":"levelo://app?vid=859bdb7a-69bf-4fac-897d-c8957a138e0e","ios":"levelo://app?vid=859bdb7a-69bf-4fac-897d-c8957a138e0e"},"vehicle_type_id":"4","last_reported":1715962108,"current_range_meters":6000,"station_id":"ce4bhb12rcd13ifvqel0","pricing_plan_id":"cebpf4jnsgd1na2vs0mg"},{"bike_id":"f7725e63-02f2-4feb-85af-eb169f9e5f6d","system_id":"levelo_inurba_marseille","lat":43.295271,"lon":5.385545,"is_reserved":false,"is_disabled":false,"rental_uris":{"android":"levelo://app?vid=f7725e63-02f2-4feb-85af-eb169f9e5f6d","ios":"levelo://app?vid=f7725e63-02f2-4feb-85af-eb169f9e5f6d"},"vehicle_type_id":"4","last_reported":1715962108,"current_range_meters":0,"station_id":"ce4bgih2rcd13ifvqba0","pricing_plan_id":"cebpf4jnsgd1na2vs0mg"},{"bike_id":"c4a3759f-655f-4416-bae7-6735b2b1cd0d","system_id":"levelo_inurba_marseille","lat":43.290779,"lon":5.371482,"is_reserved":false,"is_disabled":false,"rental_uris":{"android":"levelo://app?vid=c4a3759f-655f-4416-bae7-6735b2b1cd0d","ios":"levelo://app?vid=c4a3759f-655f-4416-bae7-6735b2b1cd0d"},"vehicle_type_id":"4","last_reported":1715962108,"current_range_meters":18400,"station_id":"ce4bh5p2rcd13ifvqe4g","pricing_plan_id":"cebpf4jnsgd1na2vs0mg"},{"bike_id":"139d9e9f-4e3d-4673-b9e6-97c1c81d605e","system_id":"levelo_inurba_marseille","lat":43.290103,"lon":5.356114,"is_reserved":false,"is_disabled":false,"rental_uris":{"android":"levelo://app?vid=139d9e9f-4e3d-4673-b9e6-97c1c81d605e","ios":"levelo://app?vid=139d9e9f-4e3d-4673-b9e6-97c1c81d605e"},"vehicle_type_id":"4","last_reported":1715962108,"current_range_meters":0,"station_id":"ce4bhb92rcd13ifvqen0","pricing_plan_id":"cebpf4jnsgd1na2vs0mg"},{"bike_id":"dd8d57b1-0591-447e-8d6e-ff16bf4993ad","system_id":"levelo_inurba_marseille","lat":43.283502,"lon":5.386471,"is_reserved":false,"is_disabled":false,"rental_uris":{"android":"levelo://app?vid=dd8d57b1-0591-447e-8d6e-ff16bf4993ad","ios":"levelo://app?vid=dd8d57b1-0591-447e-8d6e-ff16bf4993ad"},"vehicle_type_id":"4","last_reported":1715962108,"current_range_meters":400,"station_id":"ce4bh492rcd13ifvqdvg","pricing_plan_id":"cebpf4jnsgd1na2vs0mg"},{"bike_id":"2da990a2-5ca3-4ad9-9626-c2c5156f9d69","system_id":"levelo_inurba_marseille","lat":43.30212,"lon":5.39457,"is_reserved":false,"is_disabled":false,"rental_uris":{"android":"levelo://app?vid=2da990a2-5ca3-4ad9-9626-c2c5156f9d69","ios":"levelo://app?vid=2da990a2-5ca3-4ad9-9626-c2c5156f9d69"},"vehicle_type_id":"4","last_reported":1715962108,"current_range_meters":2400,"station_id":"ce4bh0p2rcd13ifvqd70","pricing_plan_id":"cebpf4jnsgd1na2vs0mg"},{"bike_id":"462f4959-6491-4dad-99ca-e5a62937cbb0","system_id":"levelo_inurba_marseille","lat":43.302008,"lon":5.394694,"is_reserved":false,"is_disabled":false,"rental_uris":{"android":"levelo://app?vid=462f4959-6491-4dad-99ca-e5a62937cbb0","ios":"levelo://app?vid=462f4959-6491-4dad-99ca-e5a62937cbb0"},"vehicle_type_id":"4","last_reported":1715962108,"current_range_meters":17600,"station_id":"ce4bh0p2rcd13ifvqd70","pricing_plan_id":"cebpf4jnsgd1na2vs0mg"},{"bike_id":"de3fc3cd-3691-4986-bed6-7513c31d9480","system_id":"levelo_inurba_marseille","lat":43.289905,"lon":5.366138,"is_reserved":false,"is_disabled":false,"rental_uris":{"android":"levelo://app?vid=de3fc3cd-3691-4986-bed6-7513c31d9480","ios":"levelo://app?vid=de3fc3cd-3691-4986-bed6-7513c31d9480"},"vehicle_type_id":"4","last_reported":1715962108,"current_range_meters":26800,"station_id":"","pricing_plan_id":"cebpf4jnsgd1na2vs0mg"},{"bike_id":"ede60227-4fdb-4e1d-b478-4489011f026c","system_id":"levelo_inurba_marseille","lat":43.294162,"lon":5.386292,"is_reserved":false,"is_disabled":false,"rental_uris":{"android":"levelo://app?vid=ede60227-4fdb-4e1d-b478-4489011f026c","ios":"levelo://app?vid=ede60227-4fdb-4e1d-b478-4489011f026c"},"vehicle_type_id":"4","last_reported":1715962108,"current_range_meters":1600,"station_id":"ce4bh2h2rcd13ifvqdh0","pricing_plan_id":"cebpf4jnsgd1na2vs0mg"},{"bike_id":"c73a23f4-ce9d-4497-a6fc-8ce408546861","system_id":"levelo_inurba_marseille","lat":43.294153,"lon":5.386305,"is_reserved":false,"is_disabled":false,"rental_uris":{"android":"levelo://app?vid=c73a23f4-ce9d-4497-a6fc-8ce408546861","ios":"levelo://app?vid=c73a23f4-ce9d-4497-a6fc-8ce408546861"},"vehicle_type_id":"4","last_reported":1715962108,"current_range_meters":8000,"station_id":"ce4bh2h2rcd13ifvqdh0","pricing_plan_id":"cebpf4jnsgd1na2vs0mg"},{"bike_id":"03bfb0ca-698e-4a89-92e8-41c2c276e794","system_id":"levelo_inurba_marseille","lat":43.294162,"lon":5.386292,"is_reserved":false,"is_disabled":false,"rental_uris":{"android":"levelo://app?vid=03bfb0ca-698e-4a89-92e8-41c2c276e794","ios":"levelo://app?vid=03bfb0ca-698e-4a89-92e8-41c2c276e794"},"vehicle_type_id":"4","last_reported":1715962108,"current_range_meters":0,"station_id":"ce4bh2h2rcd13ifvqdh0","pricing_plan_id":"cebpf4jnsgd1na2vs0mg"},{"bike_id":"1dbfb760-1a36-4810-99c8-b213da486629","system_id":"levelo_inurba_marseille","lat":43.289516,"lon":5.366189,"is_reserved":false,"is_disabled":false,"rental_uris":{"android":"levelo://app?vid=1dbfb760-1a36-4810-99c8-b213da486629","ios":"levelo://app?vid=1dbfb760-1a36-4810-99c8-b213da486629"},"vehicle_type_id":"4","last_reported":1715962108,"current_range_meters":14400,"station_id":"ce4bhap2rcd13ifvqek0","pricing_plan_id":"cebpf4jnsgd1na2vs0mg"},{"bike_id":"8a245a9c-a105-4aa9-be89-e127930e94e7","system_id":"levelo_inurba_marseille","lat":43.29419,"lon":5.38624,"is_reserved":false,"is_disabled":false,"rental_uris":{"android":"levelo://app?vid=8a245a9c-a105-4aa9-be89-e127930e94e7","ios":"levelo://app?vid=8a245a9c-a105-4aa9-be89-e127930e94e7"},"vehicle_type_id":"4","last_reported":1715962108,"current_range_meters":0,"station_id":"ce4bh2h2rcd13ifvqdh0","pricing_plan_id":"cebpf4jnsgd1na2vs0mg"},{"bike_id":"5acc1b23-b486-4889-94b8-c5b9301717c1","system_id":"levelo_inurba_marseille","lat":43.28946,"lon":5.3663,"is_reserved":false,"is_disabled":false,"rental_uris":{"android":"levelo://app?vid=5acc1b23-b486-4889-94b8-c5b9301717c1","ios":"levelo://app?vid=5acc1b23-b486-4889-94b8-c5b9301717c1"},"vehicle_type_id":"4","last_reported":1715962108,"current_range_meters":24400,"station_id":"ce4bhap2rcd13ifvqek0","pricing_plan_id":"cebpf4jnsgd1na2vs0mg"},{"bike_id":"b9200997-b031-426c-83bc-006a3e5cdcc2","system_id":"levelo_inurba_marseille","lat":43.289468,"lon":5.363719,"is_reserved":false,"is_disabled":false,"rental_uris":{"android":"levelo://app?vid=b9200997-b031-426c-83bc-006a3e5cdcc2","ios":"levelo://app?vid=b9200997-b031-426c-83bc-006a3e5cdcc2"},"vehicle_type_id":"4","last_reported":1715962108,"current_range_meters":2400,"station_id":"ce4bhc92rcd13ifvqetg","pricing_plan_id":"cebpf4jnsgd1na2vs0mg"},{"bike_id":"827a2e6d-7c14-454a-959b-440033e3f1f9","system_id":"levelo_inurba_marseille","lat":43.29415,"lon":5.38626,"is_reserved":false,"is_disabled":false,"rental_uris":{"android":"levelo://app?vid=827a2e6d-7c14-454a-959b-440033e3f1f9","ios":"levelo://app?vid=827a2e6d-7c14-454a-959b-440033e3f1f9"},"vehicle_type_id":"4","last_reported":1715962108,"current_range_meters":0,"station_id":"ce4bh2h2rcd13ifvqdh0","pricing_plan_id":"cebpf4jnsgd1na2vs0mg"},{"bike_id":"d6ec34e0-3c7b-4cf3-a063-d6674efaeced","system_id":"levelo_inurba_marseille","lat":43.294162,"lon":5.386292,"is_reserved":false,"is_disabled":false,"rental_uris":{"android":"levelo://app?vid=d6ec34e0-3c7b-4cf3-a063-d6674efaeced","ios":"levelo://app?vid=d6ec34e0-3c7b-4cf3-a063-d6674efaeced"},"vehicle_type_id":"4","last_reported":1715962108,"current_range_meters":4800,"station_id":"ce4bh2h2rcd13ifvqdh0","pricing_plan_id":"cebpf4jnsgd1na2vs0mg"},{"bike_id":"66fe655a-529d-4b44-bcd0-a4db1236eebf","system_id":"levelo_inurba_marseille","lat":43.289389,"lon":5.366374,"is_reserved":false,"is_disabled":false,"rental_uris":{"android":"levelo://app?vid=66fe655a-529d-4b44-bcd0-a4db1236eebf","ios":"levelo://app?vid=66fe655a-529d-4b44-bcd0-a4db1236eebf"},"vehicle_type_id":"4","last_reported":1715962108,"current_range_meters":0,"station_id":"ce4bhap2rcd13ifvqek0","pricing_plan_id":"cebpf4jnsgd1na2vs0mg"},{"bike_id":"9ed70e2d-6978-4d94-97cb-68e0910e6d9f","system_id":"levelo_inurba_marseille","lat":43.289184,"lon":5.366408,"is_reserved":false,"is_disabled":false,"rental_uris":{"android":"levelo://app?vid=9ed70e2d-6978-4d94-97cb-68e0910e6d9f","ios":"levelo://app?vid=9ed70e2d-6978-4d94-97cb-68e0910e6d9f"},"vehicle_type_id":"4","last_reported":1715962108,"current_range_meters":25600,"station_id":"ce4bhap2rcd13ifvqek0","pricing_plan_id":"cebpf4jnsgd1na2vs0mg"},{"bike_id":"6625dc36-6af2-4ba4-ae05-e7ee8575acc0","system_id":"levelo_inurba_marseille","lat":43.294162,"lon":5.386292,"is_reserved":false,"is_disabled":false,"rental_uris":{"android":"levelo://app?vid=6625dc36-6af2-4ba4-ae05-e7ee8575acc0","ios":"levelo://app?vid=6625dc36-6af2-4ba4-ae05-e7ee8575acc0"},"vehicle_type_id":"4","last_reported":1715962108,"current_range_meters":8000,"station_id":"ce4bh2h2rcd13ifvqdh0","pricing_plan_id":"cebpf4jnsgd1na2vs0mg"},{"bike_id":"f3ec4fb0-3286-40e2-b56b-90a35271e0f8","system_id":"levelo_inurba_marseille","lat":43.292644,"lon":5.384257,"is_reserved":false,"is_disabled":false,"rental_uris":{"android":"levelo://app?vid=f3ec4fb0-3286-40e2-b56b-90a35271e0f8","ios":"levelo://app?vid=f3ec4fb0-3286-40e2-b56b-90a35271e0f8"},"vehicle_type_id":"4","last_reported":1715962108,"current_range_meters":19600,"station_id":"ce4bh692rcd13ifvqea0","pricing_plan_id":"cebpf4jnsgd1na2vs0mg"},{"bike_id":"92dfdd2f-4e7d-419f-bc27-9cab62676f46","system_id":"levelo_inurba_marseille","lat":43.292642,"lon":5.384254,"is_reserved":false,"is_disabled":false,"rental_uris":{"android":"levelo://app?vid=92dfdd2f-4e7d-419f-bc27-9cab62676f46","ios":"levelo://app?vid=92dfdd2f-4e7d-419f-bc27-9cab62676f46"},"vehicle_type_id":"4","last_reported":1715962108,"current_range_meters":4400,"station_id":"ce4bh692rcd13ifvqea0","pricing_plan_id":"cebpf4jnsgd1na2vs0mg"},{"bike_id":"b4188d2c-1254-4e80-9486-b94ad1b3bf0f","system_id":"levelo_inurba_marseille","lat":43.304274,"lon":5.397513,"is_reserved":false,"is_disabled":false,"rental_uris":{"android":"levelo://app?vid=b4188d2c-1254-4e80-9486-b94ad1b3bf0f","ios":"levelo://app?vid=b4188d2c-1254-4e80-9486-b94ad1b3bf0f"},"vehicle_type_id":"4","last_reported":1715962108,"current_range_meters":2800,"station_id":"ce4bh092rcd13ifvqd20","pricing_plan_id":"cebpf4jnsgd1na2vs0mg"},{"bike_id":"805950a7-8496-4b36-a5d6-2e64a12b4091","system_id":"levelo_inurba_marseille","lat":43.290104,"lon":5.356111,"is_reserved":false,"is_disabled":false,"rental_uris":{"android":"levelo://app?vid=805950a7-8496-4b36-a5d6-2e64a12b4091","ios":"levelo://app?vid=805950a7-8496-4b36-a5d6-2e64a12b4091"},"vehicle_type_id":"4","last_reported":1715962108,"current_range_meters":18400,"station_id":"ce4bhb92rcd13ifvqen0","pricing_plan_id":"cebpf4jnsgd1na2vs0mg"},{"bike_id":"8b38bd00-33d9-42ee-929d-76e6dac5455b","system_id":"levelo_inurba_marseille","lat":43.290104,"lon":5.356111,"is_reserved":false,"is_disabled":false,"rental_uris":{"android":"levelo://app?vid=8b38bd00-33d9-42ee-929d-76e6dac5455b","ios":"levelo://app?vid=8b38bd00-33d9-42ee-929d-76e6dac5455b"},"vehicle_type_id":"4","last_reported":1715962108,"current_range_meters":1200,"station_id":"ce4bhb92rcd13ifvqen0","pricing_plan_id":"cebpf4jnsgd1na2vs0mg"},{"bike_id":"8673d4b0-9524-481d-891b-af65a2e5c7b0","system_id":"levelo_inurba_marseille","lat":43.290103,"lon":5.356114,"is_reserved":false,"is_disabled":false,"rental_uris":{"android":"levelo://app?vid=8673d4b0-9524-481d-891b-af65a2e5c7b0","ios":"levelo://app?vid=8673d4b0-9524-481d-891b-af65a2e5c7b0"},"vehicle_type_id":"4","last_reported":1715962108,"current_range_meters":0,"station_id":"ce4bhb92rcd13ifvqen0","pricing_plan_id":"cebpf4jnsgd1na2vs0mg"},{"bike_id":"92372704-bbb0-490c-a841-86822d43176c","system_id":"levelo_inurba_marseille","lat":43.30253,"lon":5.3968,"is_reserved":false,"is_disabled":false,"rental_uris":{"android":"levelo://app?vid=92372704-bbb0-490c-a841-86822d43176c","ios":"levelo://app?vid=92372704-bbb0-490c-a841-86822d43176c"},"vehicle_type_id":"4","last_reported":1715962108,"current_range_meters":14400,"station_id":"ce4bh192rcd13ifvqdc0","pricing_plan_id":"cebpf4jnsgd1na2vs0mg"},{"bike_id":"27a4ad69-e29b-4dea-bf0a-a8cbb1792973","system_id":"levelo_inurba_marseille","lat":43.290103,"lon":5.356114,"is_reserved":false,"is_disabled":false,"rental_uris":{"android":"levelo://app?vid=27a4ad69-e29b-4dea-bf0a-a8cbb1792973","ios":"levelo://app?vid=27a4ad69-e29b-4dea-bf0a-a8cbb1792973"},"vehicle_type_id":"4","last_reported":1715962108,"current_range_meters":3200,"station_id":"ce4bhb92rcd13ifvqen0","pricing_plan_id":"cebpf4jnsgd1na2vs0mg"},{"bike_id":"4ca5126a-cc19-4d3d-bbf5-68c02ac9ef43","system_id":"levelo_inurba_marseille","lat":43.295169,"lon":5.390426,"is_reserved":false,"is_disabled":false,"rental_uris":{"android":"levelo://app?vid=4ca5126a-cc19-4d3d-bbf5-68c02ac9ef43","ios":"levelo://app?vid=4ca5126a-cc19-4d3d-bbf5-68c02ac9ef43"},"vehicle_type_id":"4","last_reported":1715962108,"current_range_meters":30800,"station_id":"ce4bh3p2rcd13ifvqdp0","pricing_plan_id":"cebpf4jnsgd1na2vs0mg"},{"bike_id":"726f7768-5a8b-45f4-8b1c-00662c8c6cf5","system_id":"levelo_inurba_marseille","lat":43.289743,"lon":5.378304,"is_reserved":false,"is_disabled":false,"rental_uris":{"android":"levelo://app?vid=726f7768-5a8b-45f4-8b1c-00662c8c6cf5","ios":"levelo://app?vid=726f7768-5a8b-45f4-8b1c-00662c8c6cf5"},"vehicle_type_id":"4","last_reported":1715962108,"current_range_meters":10000,"station_id":"ce4bh9p2rcd13ifvqed0","pricing_plan_id":"cebpf4jnsgd1na2vs0mg"},{"bike_id":"d8d27924-e61a-4887-885e-847b12febd47","system_id":"levelo_inurba_marseille","lat":43.330442,"lon":5.389148,"is_reserved":false,"is_disabled":false,"rental_uris":{"android":"levelo://app?vid=d8d27924-e61a-4887-885e-847b12febd47","ios":"levelo://app?vid=d8d27924-e61a-4887-885e-847b12febd47"},"vehicle_type_id":"4","last_reported":1715962108,"current_range_meters":12000,"station_id":"ce4bhr92rcd13ifvqhrg","pricing_plan_id":"cebpf4jnsgd1na2vs0mg"},{"bike_id":"21e7d28b-9fff-420e-a61b-cf1704700fc3","system_id":"levelo_inurba_marseille","lat":43.29523,"lon":5.39043,"is_reserved":false,"is_disabled":false,"rental_uris":{"android":"levelo://app?vid=21e7d28b-9fff-420e-a61b-cf1704700fc3","ios":"levelo://app?vid=21e7d28b-9fff-420e-a61b-cf1704700fc3"},"vehicle_type_id":"4","last_reported":1715962108,"current_range_meters":0,"station_id":"ce4bh3p2rcd13ifvqdp0","pricing_plan_id":"cebpf4jnsgd1na2vs0mg"},{"bike_id":"e957f5cc-4842-48ab-9f0d-1436d40497af","system_id":"levelo_inurba_marseille","lat":43.330262,"lon":5.390421,"is_reserved":false,"is_disabled":false,"rental_uris":{"android":"levelo://app?vid=e957f5cc-4842-48ab-9f0d-1436d40497af","ios":"levelo://app?vid=e957f5cc-4842-48ab-9f0d-1436d40497af"},"vehicle_type_id":"4","last_reported":1715962108,"current_range_meters":1200,"station_id":"ce4bhr92rcd13ifvqhrg","pricing_plan_id":"cebpf4jnsgd1na2vs0mg"},{"bike_id":"eabf028e-351b-4989-bc86-1e09ff7adeec","system_id":"levelo_inurba_marseille","lat":43.2952,"lon":5.39041,"is_reserved":false,"is_disabled":false,"rental_uris":{"android":"levelo://app?vid=eabf028e-351b-4989-bc86-1e09ff7adeec","ios":"levelo://app?vid=eabf028e-351b-4989-bc86-1e09ff7adeec"},"vehicle_type_id":"4","last_reported":1715962108,"current_range_meters":16400,"station_id":"","pricing_plan_id":"cebpf4jnsgd1na2vs0mg"},{"bike_id":"f59b68ec-091a-4c54-a08b-0039fd5992cd","system_id":"levelo_inurba_marseille","lat":43.295244,"lon":5.390516,"is_reserved":false,"is_disabled":false,"rental_uris":{"android":"levelo://app?vid=f59b68ec-091a-4c54-a08b-0039fd5992cd","ios":"levelo://app?vid=f59b68ec-091a-4c54-a08b-0039fd5992cd"},"vehicle_type_id":"4","last_reported":1715962108,"current_range_meters":0,"station_id":"ce4bh3p2rcd13ifvqdp0","pricing_plan_id":"cebpf4jnsgd1na2vs0mg"},{"bike_id":"4f93ac46-11b2-418d-a6fa-61ef16690e31","system_id":"levelo_inurba_marseille","lat":43.28856,"lon":5.358371,"is_reserved":false,"is_disabled":false,"rental_uris":{"android":"levelo://app?vid=4f93ac46-11b2-418d-a6fa-61ef16690e31","ios":"levelo://app?vid=4f93ac46-11b2-418d-a6fa-61ef16690e31"},"vehicle_type_id":"4","last_reported":1715962108,"current_range_meters":0,"station_id":"ce4bhb12rcd13ifvqem0","pricing_plan_id":"cebpf4jnsgd1na2vs0mg"},{"bike_id":"ec56b860-a605-4aa2-aa9e-1a050d6548d9","system_id":"levelo_inurba_marseille","lat":43.290103,"lon":5.356114,"is_reserved":false,"is_disabled":false,"rental_uris":{"android":"levelo://app?vid=ec56b860-a605-4aa2-aa9e-1a050d6548d9","ios":"levelo://app?vid=ec56b860-a605-4aa2-aa9e-1a050d6548d9"},"vehicle_type_id":"4","last_reported":1715962108,"current_range_meters":28400,"station_id":"ce4bhb92rcd13ifvqen0","pricing_plan_id":"cebpf4jnsgd1na2vs0mg"},{"bike_id":"18b1e776-9269-4167-b2da-6a7339797ec2","system_id":"levelo_inurba_marseille","lat":43.288664,"lon":5.358838,"is_reserved":false,"is_disabled":false,"rental_uris":{"android":"levelo://app?vid=18b1e776-9269-4167-b2da-6a7339797ec2","ios":"levelo://app?vid=18b1e776-9269-4167-b2da-6a7339797ec2"},"vehicle_type_id":"4","last_reported":1715962108,"current_range_meters":16800,"station_id":"ce4bhb12rcd13ifvqem0","pricing_plan_id":"cebpf4jnsgd1na2vs0mg"},{"bike_id":"41913881-fdbe-49f4-bc40-bedd3afe390d","system_id":"levelo_inurba_marseille","lat":43.28856,"lon":5.358371,"is_reserved":false,"is_disabled":false,"rental_uris":{"android":"levelo://app?vid=41913881-fdbe-49f4-bc40-bedd3afe390d","ios":"levelo://app?vid=41913881-fdbe-49f4-bc40-bedd3afe390d"},"vehicle_type_id":"4","last_reported":1715962108,"current_range_meters":27200,"station_id":"ce4bhb12rcd13ifvqem0","pricing_plan_id":"cebpf4jnsgd1na2vs0mg"},{"bike_id":"33ab4d91-77e6-424c-a300-d84fa7d870b7","system_id":"levelo_inurba_marseille","lat":43.288602,"lon":5.358852,"is_reserved":false,"is_disabled":false,"rental_uris":{"android":"levelo://app?vid=33ab4d91-77e6-424c-a300-d84fa7d870b7","ios":"levelo://app?vid=33ab4d91-77e6-424c-a300-d84fa7d870b7"},"vehicle_type_id":"4","last_reported":1715962108,"current_range_meters":1600,"station_id":"ce4bhb12rcd13ifvqem0","pricing_plan_id":"cebpf4jnsgd1na2vs0mg"},{"bike_id":"7f8976cf-e227-4bde-924a-f360e573d544","system_id":"levelo_inurba_marseille","lat":43.28866,"lon":5.3584,"is_reserved":false,"is_disabled":false,"rental_uris":{"android":"levelo://app?vid=7f8976cf-e227-4bde-924a-f360e573d544","ios":"levelo://app?vid=7f8976cf-e227-4bde-924a-f360e573d544"},"vehicle_type_id":"4","last_reported":1715962108,"current_range_meters":400,"station_id":"ce4bhb12rcd13ifvqem0","pricing_plan_id":"cebpf4jnsgd1na2vs0mg"},{"bike_id":"ed09d798-cf72-4220-8e08-f39308b9c7d9","system_id":"levelo_inurba_marseille","lat":43.28857,"lon":5.35866,"is_reserved":false,"is_disabled":false,"rental_uris":{"android":"levelo://app?vid=ed09d798-cf72-4220-8e08-f39308b9c7d9","ios":"levelo://app?vid=ed09d798-cf72-4220-8e08-f39308b9c7d9"},"vehicle_type_id":"4","last_reported":1715962108,"current_range_meters":1600,"station_id":"ce4bhb12rcd13ifvqem0","pricing_plan_id":"cebpf4jnsgd1na2vs0mg"},{"bike_id":"b70d16cc-d5ab-4e22-b1ef-3ee14240527b","system_id":"levelo_inurba_marseille","lat":43.29018,"lon":5.38144,"is_reserved":false,"is_disabled":false,"rental_uris":{"android":"levelo://app?vid=b70d16cc-d5ab-4e22-b1ef-3ee14240527b","ios":"levelo://app?vid=b70d16cc-d5ab-4e22-b1ef-3ee14240527b"},"vehicle_type_id":"4","last_reported":1715962108,"current_range_meters":6000,"station_id":"ce4bh3h2rcd13ifvqdo0","pricing_plan_id":"cebpf4jnsgd1na2vs0mg"},{"bike_id":"df25aa72-a0f1-44f4-b1fe-81259f06015b","system_id":"levelo_inurba_marseille","lat":43.28856,"lon":5.358371,"is_reserved":false,"is_disabled":false,"rental_uris":{"android":"levelo://app?vid=df25aa72-a0f1-44f4-b1fe-81259f06015b","ios":"levelo://app?vid=df25aa72-a0f1-44f4-b1fe-81259f06015b"},"vehicle_type_id":"4","last_reported":1715962108,"current_range_meters":11200,"station_id":"ce4bhb12rcd13ifvqem0","pricing_plan_id":"cebpf4jnsgd1na2vs0mg"},{"bike_id":"2327b174-611f-4c14-9384-95ffbd50de77","system_id":"levelo_inurba_marseille","lat":43.28856,"lon":5.358371,"is_reserved":false,"is_disabled":false,"rental_uris":{"android":"levelo://app?vid=2327b174-611f-4c14-9384-95ffbd50de77","ios":"levelo://app?vid=2327b174-611f-4c14-9384-95ffbd50de77"},"vehicle_type_id":"4","last_reported":1715962108,"current_range_meters":20400,"station_id":"ce4bhb12rcd13ifvqem0","pricing_plan_id":"cebpf4jnsgd1na2vs0mg"},{"bike_id":"be64ad3c-ec73-41ac-8eec-5400933de8d0","system_id":"levelo_inurba_marseille","lat":43.312609,"lon":5.401662,"is_reserved":false,"is_disabled":false,"rental_uris":{"android":"levelo://app?vid=be64ad3c-ec73-41ac-8eec-5400933de8d0","ios":"levelo://app?vid=be64ad3c-ec73-41ac-8eec-5400933de8d0"},"vehicle_type_id":"4","last_reported":1715962108,"current_range_meters":20800,"station_id":"ce4bh092rcd13ifvqd30","pricing_plan_id":"cebpf4jnsgd1na2vs0mg"},{"bike_id":"3e5e58b9-1396-4e31-b037-f3a5d467b7e4","system_id":"levelo_inurba_marseille","lat":43.28855,"lon":5.35841,"is_reserved":false,"is_disabled":false,"rental_uris":{"android":"levelo://app?vid=3e5e58b9-1396-4e31-b037-f3a5d467b7e4","ios":"levelo://app?vid=3e5e58b9-1396-4e31-b037-f3a5d467b7e4"},"vehicle_type_id":"4","last_reported":1715962108,"current_range_meters":21600,"station_id":"ce4bhb12rcd13ifvqem0","pricing_plan_id":"cebpf4jnsgd1na2vs0mg"},{"bike_id":"879315bc-f345-4c43-bc1f-bd9f6f049efe","system_id":"levelo_inurba_marseille","lat":43.312609,"lon":5.401662,"is_reserved":false,"is_disabled":false,"rental_uris":{"android":"levelo://app?vid=879315bc-f345-4c43-bc1f-bd9f6f049efe","ios":"levelo://app?vid=879315bc-f345-4c43-bc1f-bd9f6f049efe"},"vehicle_type_id":"4","last_reported":1715962108,"current_range_meters":6400,"station_id":"ce4bh092rcd13ifvqd30","pricing_plan_id":"cebpf4jnsgd1na2vs0mg"},{"bike_id":"6f30f0ac-ecd8-4695-adb3-8ec9c1237c61","system_id":"levelo_inurba_marseille","lat":43.312609,"lon":5.401662,"is_reserved":false,"is_disabled":false,"rental_uris":{"android":"levelo://app?vid=6f30f0ac-ecd8-4695-adb3-8ec9c1237c61","ios":"levelo://app?vid=6f30f0ac-ecd8-4695-adb3-8ec9c1237c61"},"vehicle_type_id":"4","last_reported":1715962108,"current_range_meters":12800,"station_id":"ce4bh092rcd13ifvqd30","pricing_plan_id":"cebpf4jnsgd1na2vs0mg"},{"bike_id":"252e3071-817d-4238-932e-587dd71eed6d","system_id":"levelo_inurba_marseille","lat":43.312609,"lon":5.401662,"is_reserved":false,"is_disabled":false,"rental_uris":{"android":"levelo://app?vid=252e3071-817d-4238-932e-587dd71eed6d","ios":"levelo://app?vid=252e3071-817d-4238-932e-587dd71eed6d"},"vehicle_type_id":"4","last_reported":1715962108,"current_range_meters":6400,"station_id":"ce4bh092rcd13ifvqd30","pricing_plan_id":"cebpf4jnsgd1na2vs0mg"},{"bike_id":"9e34d977-57fd-4f35-832d-30ef931bd3ce","system_id":"levelo_inurba_marseille","lat":43.309371,"lon":5.401449,"is_reserved":false,"is_disabled":false,"rental_uris":{"android":"levelo://app?vid=9e34d977-57fd-4f35-832d-30ef931bd3ce","ios":"levelo://app?vid=9e34d977-57fd-4f35-832d-30ef931bd3ce"},"vehicle_type_id":"4","last_reported":1715962108,"current_range_meters":8000,"station_id":"ce4bgvp2rcd13ifvqct0","pricing_plan_id":"cebpf4jnsgd1na2vs0mg"},{"bike_id":"4fa81c91-a39d-4160-93d7-b314e9fd0ee8","system_id":"levelo_inurba_marseille","lat":43.33745,"lon":5.37453,"is_reserved":false,"is_disabled":false,"rental_uris":{"android":"levelo://app?vid=4fa81c91-a39d-4160-93d7-b314e9fd0ee8","ios":"levelo://app?vid=4fa81c91-a39d-4160-93d7-b314e9fd0ee8"},"vehicle_type_id":"4","last_reported":1715962108,"current_range_meters":17200,"station_id":"","pricing_plan_id":"cebpf4jnsgd1na2vs0mg"},{"bike_id":"91d9714b-b35f-47ce-8f34-022bf351236f","system_id":"levelo_inurba_marseille","lat":43.337448,"lon":5.374619,"is_reserved":false,"is_disabled":false,"rental_uris":{"android":"levelo://app?vid=91d9714b-b35f-47ce-8f34-022bf351236f","ios":"levelo://app?vid=91d9714b-b35f-47ce-8f34-022bf351236f"},"vehicle_type_id":"4","last_reported":1715962108,"current_range_meters":18400,"station_id":"","pricing_plan_id":"cebpf4jnsgd1na2vs0mg"},{"bike_id":"abc7cc6b-dd23-494e-b16d-5e065c0b887a","system_id":"levelo_inurba_marseille","lat":43.312609,"lon":5.401662,"is_reserved":false,"is_disabled":false,"rental_uris":{"android":"levelo://app?vid=abc7cc6b-dd23-494e-b16d-5e065c0b887a","ios":"levelo://app?vid=abc7cc6b-dd23-494e-b16d-5e065c0b887a"},"vehicle_type_id":"4","last_reported":1715962108,"current_range_meters":0,"station_id":"ce4bh092rcd13ifvqd30","pricing_plan_id":"cebpf4jnsgd1na2vs0mg"},{"bike_id":"bc625a83-f6e8-44ac-b305-8fd225c71ed3","system_id":"levelo_inurba_marseille","lat":43.312609,"lon":5.401662,"is_reserved":false,"is_disabled":false,"rental_uris":{"android":"levelo://app?vid=bc625a83-f6e8-44ac-b305-8fd225c71ed3","ios":"levelo://app?vid=bc625a83-f6e8-44ac-b305-8fd225c71ed3"},"vehicle_type_id":"4","last_reported":1715962108,"current_range_meters":3200,"station_id":"ce4bh092rcd13ifvqd30","pricing_plan_id":"cebpf4jnsgd1na2vs0mg"},{"bike_id":"8fc6ebe8-68ab-4991-9aa7-185ef6592e71","system_id":"levelo_inurba_marseille","lat":43.337568,"lon":5.37449,"is_reserved":false,"is_disabled":false,"rental_uris":{"android":"levelo://app?vid=8fc6ebe8-68ab-4991-9aa7-185ef6592e71","ios":"levelo://app?vid=8fc6ebe8-68ab-4991-9aa7-185ef6592e71"},"vehicle_type_id":"4","last_reported":1715962108,"current_range_meters":15200,"station_id":"","pricing_plan_id":"cebpf4jnsgd1na2vs0mg"},{"bike_id":"f8b8f7b2-4800-46c5-b20b-bbe07d23a263","system_id":"levelo_inurba_marseille","lat":43.306412,"lon":5.401035,"is_reserved":false,"is_disabled":false,"rental_uris":{"android":"levelo://app?vid=f8b8f7b2-4800-46c5-b20b-bbe07d23a263","ios":"levelo://app?vid=f8b8f7b2-4800-46c5-b20b-bbe07d23a263"},"vehicle_type_id":"4","last_reported":1715962108,"current_range_meters":20400,"station_id":"ce4bh112rcd13ifvqda0","pricing_plan_id":"cebpf4jnsgd1na2vs0mg"},{"bike_id":"aa3b7139-b8c9-487f-8ecc-df007ee3d964","system_id":"levelo_inurba_marseille","lat":43.301117,"lon":5.398795,"is_reserved":false,"is_disabled":false,"rental_uris":{"android":"levelo://app?vid=aa3b7139-b8c9-487f-8ecc-df007ee3d964","ios":"levelo://app?vid=aa3b7139-b8c9-487f-8ecc-df007ee3d964"},"vehicle_type_id":"4","last_reported":1715962108,"current_range_meters":20000,"station_id":"ce4bh0h2rcd13ifvqd40","pricing_plan_id":"cebpf4jnsgd1na2vs0mg"},{"bike_id":"e5aad24b-2763-4568-94d1-bb4b2abf9c34","system_id":"levelo_inurba_marseille","lat":43.286591,"lon":5.363346,"is_reserved":false,"is_disabled":false,"rental_uris":{"android":"levelo://app?vid=e5aad24b-2763-4568-94d1-bb4b2abf9c34","ios":"levelo://app?vid=e5aad24b-2763-4568-94d1-bb4b2abf9c34"},"vehicle_type_id":"4","last_reported":1715962108,"current_range_meters":6800,"station_id":"ce4bhah2rcd13ifvqej0","pricing_plan_id":"cebpf4jnsgd1na2vs0mg"},{"bike_id":"297c21c8-8d13-4c87-a567-e464f919847c","system_id":"levelo_inurba_marseille","lat":43.301117,"lon":5.398795,"is_reserved":false,"is_disabled":false,"rental_uris":{"android":"levelo://app?vid=297c21c8-8d13-4c87-a567-e464f919847c","ios":"levelo://app?vid=297c21c8-8d13-4c87-a567-e464f919847c"},"vehicle_type_id":"4","last_reported":1715962108,"current_range_meters":0,"station_id":"ce4bh0h2rcd13ifvqd40","pricing_plan_id":"cebpf4jnsgd1na2vs0mg"},{"bike_id":"fcc4e901-12f1-4e87-ac5d-a2fd4796651b","system_id":"levelo_inurba_marseille","lat":43.299579,"lon":5.413255,"is_reserved":false,"is_disabled":false,"rental_uris":{"android":"levelo://app?vid=fcc4e901-12f1-4e87-ac5d-a2fd4796651b","ios":"levelo://app?vid=fcc4e901-12f1-4e87-ac5d-a2fd4796651b"},"vehicle_type_id":"4","last_reported":1715962108,"current_range_meters":4800,"station_id":"ce4bhp12rcd13ifvqh9g","pricing_plan_id":"cebpf4jnsgd1na2vs0mg"},