{"last_updated":1718046393,"ttl":30,"version":"2.2","data":{"bikes":[{"bike_id":"2148f8c4-27cd-4f60-9cc2-07ebfbd7ba08","system_id":"levelo_inurba_marseille","lat":43.312288,"lon":5.367224,"is_reserved":false,"is_disabled":false,"rental_uris":{"android":"levelo://app?vid=2148f8c4-27cd-4f60-9cc2-07ebfbd7ba08","ios":"levelo://app?vid=2148f8c4-27cd-4f60-9cc2-07ebfbd7ba08"},"vehicle_type_id":"4","last_reported":1718046393,"current_range_meters":26000,"station_id":"","pricing_plan_id":"cebpf4jnsgd1na2vs0mg"},{"bike_id":"7a25cceb-6ded-451c-b7d6-76756ba3a161","system_id":"levelo_inurba_marseille","lat":43.312239,"lon":5.368562,"is_reserved":false,"is_disabled":false,"rental_uris":{"android":"levelo://app?vid=7a25cceb-6ded-451c-b7d6-76756ba3a161","ios":"levelo://app?vid=7a25cceb-6ded-451c-b7d6-76756ba3a161"},"vehicle_type_id":"4","last_reported":1718046393,"current_range_meters":11600,"station_id":"ce4bgl92rcd13ifvqbq0","pricing_plan_id":"cebpf4jnsgd1na2vs0mg"},{"bike_id":"f01d7129-d76f-45c4-b25e-568d8f59c585","system_id":"levelo_inurba_marseille","lat":43.312239,"lon":5.368562,"is_reserved":false,"is_disabled":false,"rental_uris":{"android":"levelo://app?vid=f01d7129-d76f-45c4-b25e-568d8f59c585","ios":"levelo://app?vid=f01d7129-d76f-45c4-b25e-568d8f59c585"},"vehicle_type_id":"4","last_reported":1718046393,"current_range_meters":26400,"station_id":"ce4bgl92rcd13ifvqbq0","pricing_plan_id":"cebpf4jnsgd1na2vs0mg"},{"bike_id":"92425662-c816-4bed-a4cb-c0e677ba58c5","system_id":"levelo_inurba_marseille","lat":43.309076,"lon":5.368465,"is_reserved":false,"is_disabled":false,"rental_uris":{"android":"levelo://app?vid=92425662-c816-4bed-a4cb-c0e677ba58c5","ios":"levelo://app?vid=92425662-c816-4bed-a4cb-c0e677ba58c5"},"vehicle_type_id":"4","last_reported":1718046393,"current_range_meters":23200,"station_id":"ce4bgn92rcd13ifvqbvg","pricing_plan_id":"cebpf4jnsgd1na2vs0mg"},{"bike_id":"2c33821a-9399-4720-99bc-ec165ece86bf","system_id":"levelo_inurba_marseille","lat":43.314811,"lon":5.373104,"is_reserved":false,"is_disabled":false,"rental_uris":{"android":"levelo://app?vid=2c33821a-9399-4720-99bc-ec165ece86bf","ios":"levelo://app?vid=2c33821a-9399-4720-99bc-ec165ece86bf"},"vehicle_type_id":"4","last_reported":1718046393,"current_range_meters":2000,"station_id":"ce4bgt12rcd13ifvqcd0","pricing_plan_id":"cebpf4jnsgd1na2vs0mg"},{"bike_id":"69de753d-6152-4c0f-9103-3c81569e33d9","system_id":"levelo_inurba_marseille","lat":43.309039,"lon":5.371797,"is_reserved":false,"is_disabled":false,"rental_uris":{"android":"levelo://app?vid=69de753d-6152-4c0f-9103-3c81569e33d9","ios":"levelo://app?vid=69de753d-6152-4c0f-9103-3c81569e33d9"},"vehicle_type_id":"4","last_reported":1718046393,"current_range_meters":14000,"station_id":"ce4bguh2rcd13ifvqckg","pricing_plan_id":"cebpf4jnsgd1na2vs0mg"},{"bike_id":"e1fd2ba7-6419-4c1e-93dc-c43b173651f6","system_id":"levelo_inurba_marseille","lat":43.31471,"lon":5.3739,"is_reserved":false,"is_disabled":false,"rental_uris":{"android":"levelo://app?vid=e1fd2ba7-6419-4c1e-93dc-c43b173651f6","ios":"levelo://app?vid=e1fd2ba7-6419-4c1e-93dc-c43b173651f6"},"vehicle_type_id":"4","last_reported":1718046393,"current_range_meters":0,"station_id":"","pricing_plan_id":"cebpf4jnsgd1na2vs0mg"},{"bike_id":"4a6207d4-a96b-43ff-8f80-65a6c671460c","system_id":"levelo_inurba_marseille","lat":43.309034,"lon":5.371783,"is_reserved":false,"is_disabled":false,"rental_uris":{"android":"levelo://app?vid=4a6207d4-a96b-43ff-8f80-65a6c671460c","ios":"levelo://app?vid=4a6207d4-a96b-43ff-8f80-65a6c671460c"},"vehicle_type_id":"4","last_reported":1718046393,"current_range_meters":9200,"station_id":"ce4bguh2rcd13ifvqckg","pricing_plan_id":"cebpf4jnsgd1na2vs0mg"},{"bike_id":"15eed7f3-2021-47b3-96d7-4eaaccee7201","system_id":"levelo_inurba_marseille","lat":43.31639,"lon":5.374014,"is_reserved":false,"is_disabled":false,"rental_uris":{"android":"levelo://app?vid=15eed7f3-2021-47b3-96d7-4eaaccee7201","ios":"levelo://app?vid=15eed7f3-2021-47b3-96d7-4eaaccee7201"},"vehicle_type_id":"4","last_reported":1718046393,"current_range_meters":0,"station_id":"","pricing_plan_id":"cebpf4jnsgd1na2vs0mg"},{"bike_id":"60f2dc25-2eee-45d8-9ef4-7e5519f5fd6f","system_id":"levelo_inurba_marseille","lat":43.309799,"lon":5.376586,"is_reserved":false,"is_disabled":false,"rental_uris":{"android":"levelo://app?vid=60f2dc25-2eee-45d8-9ef4-7e5519f5fd6f","ios":"levelo://app?vid=60f2dc25-2eee-45d8-9ef4-7e5519f5fd6f"},"vehicle_type_id":"4","last_reported":1718046393,"current_range_meters":15200,"station_id":"","pricing_plan_id":"cebpf4jnsgd1na2vs0mg"},{"bike_id":"1a01638d-6d2d-4ae6-b5aa-537c0274cbb9","system_id":"levelo_inurba_marseille","lat":43.311125,"lon":5.377624,"is_reserved":false,"is_disabled":false,"rental_uris":{"android":"levelo://app?vid=1a01638d-6d2d-4ae6-b5aa-537c0274cbb9","ios":"levelo://app?vid=1a01638d-6d2d-4ae6-b5aa-537c0274cbb9"},"vehicle_type_id":"4","last_reported":1718046393,"current_range_meters":6400,"station_id":"ce4bgt92rcd13ifvqcg0","pricing_plan_id":"cebpf4jnsgd1na2vs0mg"},{"bike_id":"72eeef8f-0dd6-4656-9657-2090fe8fadda","system_id":"levelo_inurba_marseille","lat":43.317075,"lon":5.377367,"is_reserved":false,"is_disabled":false,"rental_uris":{"android":"levelo://app?vid=72eeef8f-0dd6-4656-9657-2090fe8fadda","ios":"levelo://app?vid=72eeef8f-0dd6-4656-9657-2090fe8fadda"},"vehicle_type_id":"4","last_reported":1718046393,"current_range_meters":18400,"station_id":"ce4bgth2rcd13ifvqch0","pricing_plan_id":"cebpf4jnsgd1na2vs0mg"},{"bike_id":"32ea6026-857b-463e-a79d-a95bc759d0d2","system_id":"levelo_inurba_marseille","lat":43.317075,"lon":5.377367,"is_reserved":false,"is_disabled":false,"rental_uris":{"android":"levelo://app?vid=32ea6026-857b-463e-a79d-a95bc759d0d2","ios":"levelo://app?vid=32ea6026-857b-463e-a79d-a95bc759d0d2"},"vehicle_type_id":"4","last_reported":1718046393,"current_range_meters":16400,"station_id":"ce4bgth2rcd13ifvqch0","pricing_plan_id":"cebpf4jnsgd1na2vs0mg"},{"bike_id":"b323be5e-b73e-456c-89ba-81bf703cdbb6","system_id":"levelo_inurba_marseille","lat":43.317075,"lon":5.377367,"is_reserved":false,"is_disabled":false,"rental_uris":{"android":"levelo://app?vid=b323be5e-b73e-456c-89ba-81bf703cdbb6","ios":"levelo://app?vid=b323be5e-b73e-456c-89ba-81bf703cdbb6"},"vehicle_type_id":"4","last_reported":1718046393,"current_range_meters":15200,"station_id":"ce4bgth2rcd13ifvqch0","pricing_plan_id":"cebpf4jnsgd1na2vs0mg"},{"bike_id":"66a2d197-d647-4ec4-a69d-58a7163f2a10","system_id":"levelo_inurba_marseille","lat":43.317514,"lon":5.378061,"is_reserved":false,"is_disabled":false,"rental_uris":{"android":"levelo://app?vid=66a2d197-d647-4ec4-a69d-58a7163f2a10","ios":"levelo://app?vid=66a2d197-d647-4ec4-a69d-58a7163f2a10"},"vehicle_type_id":"4","last_reported":1718046393,"current_range_meters":22800,"station_id":"ce4bgth2rcd13ifvqch0","pricing_plan_id":"cebpf4jnsgd1na2vs0mg"},{"bike_id":"c48a2beb-7059-4d6d-8643-0a00923c27b8","system_id":"levelo_inurba_marseille","lat":43.315289,"lon":5.380349,"is_reserved":false,"is_disabled":false,"rental_uris":{"android":"levelo://app?vid=c48a2beb-7059-4d6d-8643-0a00923c27b8","ios":"levelo://app?vid=c48a2beb-7059-4d6d-8643-0a00923c27b8"},"vehicle_type_id":"4","last_reported":1718046393,"current_range_meters":7200,"station_id":"ce4bhsp2rcd13ifvqi50","pricing_plan_id":"cebpf4jnsgd1na2vs0mg"},{"bike_id":"3e3fe189-957c-498c-9f38-5543321fd70c","system_id":"levelo_inurba_marseille","lat":43.31531,"lon":5.3803,"is_reserved":false,"is_disabled":false,"rental_uris":{"android":"levelo://app?vid=3e3fe189-957c-498c-9f38-5543321fd70c","ios":"levelo://app?vid=3e3fe189-957c-498c-9f38-5543321fd70c"},"vehicle_type_id":"4","last_reported":1718046393,"current_range_meters":22400,"station_id":"ce4bhsp2rcd13ifvqi50","pricing_plan_id":"cebpf4jnsgd1na2vs0mg"},{"bike_id":"b57fa076-0a37-4e4d-89b8-2482990c5aaf","system_id":"levelo_inurba_marseille","lat":43.315289,"lon":5.380349,"is_reserved":false,"is_disabled":false,"rental_uris":{"android":"levelo://app?vid=b57fa076-0a37-4e4d-89b8-2482990c5aaf","ios":"levelo://app?vid=b57fa076-0a37-4e4d-89b8-2482990c5aaf"},"vehicle_type_id":"4","last_reported":1718046393,"current_range_meters":31200,"station_id":"ce4bhsp2rcd13ifvqi50","pricing_plan_id":"cebpf4jnsgd1na2vs0mg"},{"bike_id":"ceede4c5-2e1f-488d-b1af-6119fc3a8fc9","system_id":"levelo_inurba_marseille","lat":43.301939,"lon":5.366286,"is_reserved":false,"is_disabled":false,"rental_uris":{"android":"levelo://app?vid=ceede4c5-2e1f-488d-b1af-6119fc3a8fc9","ios":"levelo://app?vid=ceede4c5-2e1f-488d-b1af-6119fc3a8fc9"},"vehicle_type_id":"4","last_reported":1718046393,"current_range_meters":4400,"station_id":"ce4bgrh2rcd13ifvqc8g","pricing_plan_id":"cebpf4jnsgd1na2vs0mg"},{"bike_id":"b79598b9-6232-492c-8723-eabc41d9f79b","system_id":"levelo_inurba_marseille","lat":43.301939,"lon":5.366286,"is_reserved":false,"is_disabled":false,"rental_uris":{"android":"levelo://app?vid=b79598b9-6232-492c-8723-eabc41d9f79b","ios":"levelo://app?vid=b79598b9-6232-492c-8723-eabc41d9f79b"},"vehicle_type_id":"4","last_reported":1718046393,"current_range_meters":27200,"station_id":"ce4bgrh2rcd13ifvqc8g","pricing_plan_id":"cebpf4jnsgd1na2vs0mg"},{"bike_id":"a2040e67-2436-4d6d-8a88-bea73e1e2ea5","system_id":"levelo_inurba_marseille","lat":43.308012,"lon":5.381511,"is_reserved":false,"is_disabled":false,"rental_uris":{"android":"levelo://app?vid=a2040e67-2436-4d6d-8a88-bea73e1e2ea5","ios":"levelo://app?vid=a2040e67-2436-4d6d-8a88-bea73e1e2ea5"},"vehicle_type_id":"4","last_reported":1718046393,"current_range_meters":19600,"station_id":"ce4bgt12rcd13ifvqce0","pricing_plan_id":"cebpf4jnsgd1na2vs0mg"},{"bike_id":"613f48d1-f617-4a55-84cc-5f62478bfa10","system_id":"levelo_inurba_marseille","lat":43.324504,"lon":5.366378,"is_reserved":false,"is_disabled":false,"rental_uris":{"android":"levelo://app?vid=613f48d1-f617-4a55-84cc-5f62478bfa10","ios":"levelo://app?vid=613f48d1-f617-4a55-84cc-5f62478bfa10"},"vehicle_type_id":"4","last_reported":1718046393,"current_range_meters":21200,"station_id":"ce4bhs12rcd13ifvqhvg","pricing_plan_id":"cebpf4jnsgd1na2vs0mg"},{"bike_id":"79768115-39cb-477f-a1f7-b5850f1245d4","system_id":"levelo_inurba_marseille","lat":43.309709,"lon":5.382737,"is_reserved":false,"is_disabled":false,"rental_uris":{"android":"levelo://app?vid=79768115-39cb-477f-a1f7-b5850f1245d4","ios":"levelo://app?vid=79768115-39cb-477f-a1f7-b5850f1245d4"},"vehicle_type_id":"4","last_reported":1718046393,"current_range_meters":30800,"station_id":"ce4bgg92rcd13ifvqb30","pricing_plan_id":"cebpf4jnsgd1na2vs0mg"},{"bike_id":"433f0166-7e1d-4d48-b35c-2d4fe3e34476","system_id":"levelo_inurba_marseille","lat":43.324771,"lon":5.36557,"is_reserved":false,"is_disabled":false,"rental_uris":{"android":"levelo://app?vid=433f0166-7e1d-4d48-b35c-2d4fe3e34476","ios":"levelo://app?vid=433f0166-7e1d-4d48-b35c-2d4fe3e34476"},"vehicle_type_id":"4","last_reported":1718046393,"current_range_meters":21600,"station_id":"ce4bhs12rcd13ifvqhvg","pricing_plan_id":"cebpf4jnsgd1na2vs0mg"},{"bike_id":"97a89233-b186-4d20-b87e-ba011f1363de","system_id":"levelo_inurba_marseille","lat":43.32484,"lon":5.36567,"is_reserved":false,"is_disabled":false,"rental_uris":{"android":"levelo://app?vid=97a89233-b186-4d20-b87e-ba011f1363de","ios":"levelo://app?vid=97a89233-b186-4d20-b87e-ba011f1363de"},"vehicle_type_id":"4","last_reported":1718046393,"current_range_meters":0,"station_id":"ce4bhs12rcd13ifvqhvg","pricing_plan_id":"cebpf4jnsgd1na2vs0mg"},{"bike_id":"31f05fe5-e943-4ec8-bb18-57dde8b62088","system_id":"levelo_inurba_marseille","lat":43.324875,"lon":5.365773,"is_reserved":false,"is_disabled":false,"rental_uris":{"android":"levelo://app?vid=31f05fe5-e943-4ec8-bb18-57dde8b62088","ios":"levelo://app?vid=31f05fe5-e943-4ec8-bb18-57dde8b62088"},"vehicle_type_id":"4","last_reported":1718046393,"current_range_meters":20400,"station_id":"ce4bhs12rcd13ifvqhvg","pricing_plan_id":"cebpf4jnsgd1na2vs0mg"},{"bike_id":"a232de33-1ac7-493e-8a3f-b624a324f9ce","system_id":"levelo_inurba_marseille","lat":43.310559,"lon":5.383438,"is_reserved":false,"is_disabled":false,"rental_uris":{"android":"levelo://app?vid=a232de33-1ac7-493e-8a3f-b624a324f9ce","ios":"levelo://app?vid=a232de33-1ac7-493e-8a3f-b624a324f9ce"},"vehicle_type_id":"4","last_reported":1718046393,"current_range_meters":25200,"station_id":"","pricing_plan_id":"cebpf4jnsgd1na2vs0mg"},{"bike_id":"2183f5a4-9caa-441d-9814-93ce688dedcb","system_id":"levelo_inurba_marseille","lat":43.310804,"lon":5.38359,"is_reserved":false,"is_disabled":false,"rental_uris":{"android":"levelo://app?vid=2183f5a4-9caa-441d-9814-93ce688dedcb","ios":"levelo://app?vid=2183f5a4-9caa-441d-9814-93ce688dedcb"},"vehicle_type_id":"4","last_reported":1718046393,"current_range_meters":24000,"station_id":"ce4bgv92rcd13ifvqcr0","pricing_plan_id":"cebpf4jnsgd1na2vs0mg"},{"bike_id":"f0f0cf8b-cc7f-42f3-b782-b989e7ad1db9","system_id":"levelo_inurba_marseille","lat":43.310804,"lon":5.38359,"is_reserved":false,"is_disabled":false,"rental_uris":{"android":"levelo://app?vid=f0f0cf8b-cc7f-42f3-b782-b989e7ad1db9","ios":"levelo://app?vid=f0f0cf8b-cc7f-42f3-b782-b989e7ad1db9"},"vehicle_type_id":"4","last_reported":1718046393,"current_range_meters":19600,"station_id":"ce4bgv92rcd13ifvqcr0","pricing_plan_id":"cebpf4jnsgd1na2vs0mg"},{"bike_id":"43b014f7-a7d2-486a-84fb-9f543ea38c36","system_id":"levelo_inurba_marseille","lat":43.302784,"lon":5.377158,"is_reserved":false,"is_disabled":false,"rental_uris":{"android":"levelo://app?vid=43b014f7-a7d2-486a-84fb-9f543ea38c36","ios":"levelo://app?vid=43b014f7-a7d2-486a-84fb-9f543ea38c36"},"vehicle_type_id":"4","last_reported":1718046393,"current_range_meters":13200,"station_id":"ce4bguh2rcd13ifvqcj0","pricing_plan_id":"cebpf4jnsgd1na2vs0mg"},{"bike_id":"5031eacc-0655-4cc3-97d6-ddaea4e6ec9e","system_id":"levelo_inurba_marseille","lat":43.30143,"lon":5.37413,"is_reserved":false,"is_disabled":false,"rental_uris":{"android":"levelo://app?vid=5031eacc-0655-4cc3-97d6-ddaea4e6ec9e","ios":"levelo://app?vid=5031eacc-0655-4cc3-97d6-ddaea4e6ec9e"},"vehicle_type_id":"4","last_reported":1718046393,"current_range_meters":14800,"station_id":"ce4bgs92rcd13ifvqcc0","pricing_plan_id":"cebpf4jnsgd1na2vs0mg"},{"bike_id":"70ca43bb-66c9-4c55-ae3e-3bc53ad813bb","system_id":"levelo_inurba_marseille","lat":43.31078,"lon":5.383775,"is_reserved":false,"is_disabled":false,"rental_uris":{"android":"levelo://app?vid=70ca43bb-66c9-4c55-ae3e-3bc53ad813bb","ios":"levelo://app?vid=70ca43bb-66c9-4c55-ae3e-3bc53ad813bb"},"vehicle_type_id":"4","last_reported":1718046393,"current_range_meters":12400,"station_id":"ce4bgv92rcd13ifvqcr0","pricing_plan_id":"cebpf4jnsgd1na2vs0mg"},{"bike_id":"7b66f1f5-cbd8-4427-993c-5c0727ec31d7","system_id":"levelo_inurba_marseille","lat":43.310875,"lon":5.3838,"is_reserved":false,"is_disabled":false,"rental_uris":{"android":"levelo://app?vid=7b66f1f5-cbd8-4427-993c-5c0727ec31d7","ios":"levelo://app?vid=7b66f1f5-cbd8-4427-993c-5c0727ec31d7"},"vehicle_type_id":"4","last_reported":1718046393,"current_range_meters":21200,"station_id":"ce4bgv92rcd13ifvqcr0","pricing_plan_id":"cebpf4jnsgd1na2vs0mg"},{"bike_id":"3e10539e-a7af-44c1-913c-3e22a2f5ff52","system_id":"levelo_inurba_marseille","lat":43.284462,"lon":5.392121,"is_reserved":false,"is_disabled":false,"rental_uris":{"android":"levelo://app?vid=3e10539e-a7af-44c1-913c-3e22a2f5ff52","ios":"levelo://app?vid=3e10539e-a7af-44c1-913c-3e22a2f5ff52"},"vehicle_type_id":"4","last_reported":1718046393,"current_range_meters":22000,"station_id":"ce4bhoh2rcd13ifvqh5g","pricing_plan_id":"cebpf4jnsgd1na2vs0mg"},{"bike_id":"9b2f4846-59a5-4cff-861b-e8045bc2841f","system_id":"levelo_inurba_marseille","lat":43.319935,"lon":5.381699,"is_reserved":false,"is_disabled":false,"rental_uris":{"android":"levelo://app?vid=9b2f4846-59a5-4cff-861b-e8045bc2841f","ios":"levelo://app?vid=9b2f4846-59a5-4cff-861b-e8045bc2841f"},"vehicle_type_id":"4","last_reported":1718046393,"current_range_meters":0,"station_id":"ce4bhr12rcd13ifvqhpg","pricing_plan_id":"cebpf4jnsgd1na2vs0mg"},{"bike_id":"f634c020-8f5f-4f1b-86be-bcd0f11bbc23","system_id":"levelo_inurba_marseille","lat":43.313558,"lon":5.38487,"is_reserved":false,"is_disabled":false,"rental_uris":{"android":"levelo://app?vid=f634c020-8f5f-4f1b-86be-bcd0f11bbc23","ios":"levelo://app?vid=f634c020-8f5f-4f1b-86be-bcd0f11bbc23"},"vehicle_type_id":"4","last_reported":1718046393,"current_range_meters":26000,"station_id":"ce4bgt92rcd13ifvqcf0","pricing_plan_id":"cebpf4jnsgd1na2vs0mg"},{"bike_id":"878337a4-36d4-4162-bb65-7ac43dfc677a","system_id":"levelo_inurba_marseille","lat":43.313571,"lon":5.384829,"is_reserved":false,"is_disabled":false,"rental_uris":{"android":"levelo://app?vid=878337a4-36d4-4162-bb65-7ac43dfc677a","ios":"levelo://app?vid=878337a4-36d4-4162-bb65-7ac43dfc677a"},"vehicle_type_id":"4","last_reported":1718046393,"current_range_meters":30400,"station_id":"ce4bgt92rcd13ifvqcf0","pricing_plan_id":"cebpf4jnsgd1na2vs0mg"},{"bike_id":"6074e2ba-d1f1-464d-8b2c-f99c74b9dab0","system_id":"levelo_inurba_marseille","lat":43.313571,"lon":5.384829,"is_reserved":false,"is_disabled":false,"rental_uris":{"android":"levelo://app?vid=6074e2ba-d1f1-464d-8b2c-f99c74b9dab0","ios":"levelo://app?vid=6074e2ba-d1f1-464d-8b2c-f99c74b9dab0"},"vehicle_type_id":"4","last_reported":1718046393,"current_range_meters":25600,"station_id":"ce4bgt92rcd13ifvqcf0","pricing_plan_id":"cebpf4jnsgd1na2vs0mg"},{"bike_id":"fd995a21-7306-4e81-893a-dcf07a58393d","system_id":"levelo_inurba_marseille","lat":43.313571,"lon":5.384829,"is_reserved":false,"is_disabled":false,"rental_uris":{"android":"levelo://app?vid=fd995a21-7306-4e81-893a-dcf07a58393d","ios":"levelo://app?vid=fd995a21-7306-4e81-893a-dcf07a58393d"},"vehicle_type_id":"4","last_reported":1718046393,"current_range_meters":6800,"station_id":"ce4bgt92rcd13ifvqcf0","pricing_plan_id":"cebpf4jnsgd1na2vs0mg"},{"bike_id":"de789858-8bf4-4a1b-922c-f19662f5b641","system_id":"levelo_inurba_marseille","lat":43.299756,"lon":5.371871,"is_reserved":false,"is_disabled":false,"rental_uris":{"android":"levelo://app?vid=de789858-8bf4-4a1b-922c-f19662f5b641","ios":"levelo://app?vid=de789858-8bf4-4a1b-922c-f19662f5b641"},"vehicle_type_id":"4","last_reported":1718046393,"current_range_meters":1600,"station_id":"ce4bgr92rcd13ifvqc7g","pricing_plan_id":"cebpf4jnsgd1na2vs0mg"},{"bike_id":"e201148f-e039-4e27-bf96-e0bd167c16f5","system_id":"levelo_inurba_marseille","lat":43.305364,"lon":5.384119,"is_reserved":false,"is_disabled":false,"rental_uris":{"android":"levelo://app?vid=e201148f-e039-4e27-bf96-e0bd167c16f5","ios":"levelo://app?vid=e201148f-e039-4e27-bf96-e0bd167c16f5"},"vehicle_type_id":"4","last_reported":1718046393,"current_range_meters":26400,"station_id":"ce4bgg92rcd13ifvqb30","pricing_plan_id":"cebpf4jnsgd1na2vs0mg"},{"bike_id":"9bcb63dc-43d9-4577-bb38-d17ff021e6d7","system_id":"levelo_inurba_marseille","lat":43.30541,"lon":5.38415,"is_reserved":false,"is_disabled":false,"rental_uris":{"android":"levelo://app?vid=9bcb63dc-43d9-4577-bb38-d17ff021e6d7","ios":"levelo://app?vid=9bcb63dc-43d9-4577-bb38-d17ff021e6d7"},"vehicle_type_id":"4","last_reported":1718046393,"current_range_meters":8400,"station_id":"ce4bgg92rcd13ifvqb30","pricing_plan_id":"cebpf4jnsgd1na2vs0mg"},{"bike_id":"fb86dcc3-bbda-4cbf-9a78-d767341bbb84","system_id":"levelo_inurba_marseille","lat":43.298433,"lon":5.362774,"is_reserved":false,"is_disabled":false,"rental_uris":{"android":"levelo://app?vid=fb86dcc3-bbda-4cbf-9a78-d767341bbb84","ios":"levelo://app?vid=fb86dcc3-bbda-4cbf-9a78-d767341bbb84"},"vehicle_type_id":"4","last_reported":1718046393,"current_range_meters":2000,"station_id":"ce4bgpp2rcd13ifvqc3g","pricing_plan_id":"cebpf4jnsgd1na2vs0mg"},{"bike_id":"bff7b7b6-bc89-496d-93a1-96369dc1ec8a","system_id":"levelo_inurba_marseille","lat":43.298433,"lon":5.362774,"is_reserved":false,"is_disabled":false,"rental_uris":{"android":"levelo://app?vid=bff7b7b6-bc89-496d-93a1-96369dc1ec8a","ios":"levelo://app?vid=bff7b7b6-bc89-496d-93a1-96369dc1ec8a"},"vehicle_type_id":"4","last_reported":1718046393,"current_range_meters":13200,"station_id":"ce4bgpp2rcd13ifvqc3g","pricing_plan_id":"cebpf4jnsgd1na2vs0mg"},{"bike_id":"fc0e9541-50b2-493b-82eb-f0756e4a3f0d","system_id":"levelo_inurba_marseille","lat":43.30535,"lon":5.3842,"is_reserved":false,"is_disabled":false,"rental_uris":{"android":"levelo://app?vid=fc0e9541-50b2-493b-82eb-f0756e4a3f0d","ios":"levelo://app?vid=fc0e9541-50b2-493b-82eb-f0756e4a3f0d"},"vehicle_type_id":"4","last_reported":1718046393,"current_range_meters":0,"station_id":"ce4bgg92rcd13ifvqb30","pricing_plan_id":"cebpf4jnsgd1na2vs0mg"},{"bike_id":"c867d108-cef1-4bad-94b1-27da19bb54b1","system_id":"levelo_inurba_marseille","lat":43.298446,"lon":5.362856,"is_reserved":false,"is_disabled":false,"rental_uris":{"android":"levelo://app?vid=c867d108-cef1-4bad-94b1-27da19bb54b1","ios":"levelo://app?vid=c867d108-cef1-4bad-94b1-27da19bb54b1"},"vehicle_type_id":"4","last_reported":1718046393,"current_range_meters":0,"station_id":"ce4bgpp2rcd13ifvqc3g","pricing_plan_id":"cebpf4jnsgd1na2vs0mg"},{"bike_id":"5cea2436-cc0c-4f38-8dc0-d34456a26c90","system_id":"levelo_inurba_marseille","lat":43.30536,"lon":5.384241,"is_reserved":false,"is_disabled":false,"rental_uris":{"android":"levelo://app?vid=5cea2436-cc0c-4f38-8dc0-d34456a26c90","ios":"levelo://app?vid=5cea2436-cc0c-4f38-8dc0-d34456a26c90"},"vehicle_type_id":"4","last_reported":1718046393,"current_range_meters":25200,"station_id":"ce4bgg92rcd13ifvqb30","pricing_plan_id":"cebpf4jnsgd1na2vs0mg"},{"bike_id":"0da45662-0090-470c-b047-465c29d481be","system_id":"levelo_inurba_marseille","lat":43.299243,"lon":5.37481,"is_reserved":false,"is_disabled":false,"rental_uris":{"android":"levelo://app?vid=0da45662-0090-470c-b047-465c29d481be","ios":"levelo://app?vid=0da45662-0090-470c-b047-465c29d481be"},"vehicle_type_id":"4","last_reported":1718046393,"current_range_meters":4800,"station_id":"ce4bgjh2rcd13ifvqbg0","pricing_plan_id":"cebpf4jnsgd1na2vs0mg"},{"bike_id":"1aa8b6f3-3d83-404e-97b3-3049aac2e40c","system_id":"levelo_inurba_marseille","lat":43.305364,"lon":5.384119,"is_reserved":false,"is_disabled":false,"rental_uris":{"android":"levelo://app?vid=1aa8b6f3-3d83-404e-97b3-3049aac2e40c","ios":"levelo://app?vid=1aa8b6f3-3d83-404e-97b3-3049aac2e40c"},"vehicle_type_id":"4","last_reported":1718046393,"current_range_meters":29600,"station_id":"ce4bgg92rcd13ifvqb30","pricing_plan_id":"cebpf4jnsgd1na2vs0mg"},{"bike_id":"83a6a852-4f45-4d2a-9794-3bc21568fed9","system_id":"levelo_inurba_marseille","lat":43.299243,"lon":5.374807,"is_reserved":false,"is_disabled":false,"rental_uris":{"android":"levelo://app?vid=83a6a852-4f45-4d2a-9794-3bc21568fed9","ios":"levelo://app?vid=83a6a852-4f45-4d2a-9794-3bc21568fed9"},"vehicle_type_id":"4","last_reported":1718046393,"current_range_meters":28400,"station_id":"ce4bgjh2rcd13ifvqbg0","pricing_plan_id":"cebpf4jnsgd1na2vs0mg"},{"bike_id":"7b1f1fbc-1647-4ea7-b293-87bfb7e5116c","system_id":"levelo_inurba_marseille","lat":43.311722,"lon":5.387247,"is_reserved":false,"is_disabled":false,"rental_uris":{"android":"levelo://app?vid=7b1f1fbc-1647-4ea7-b293-87bfb7e5116c","ios":"levelo://app?vid=7b1f1fbc-1647-4ea7-b293-87bfb7e5116c"},"vehicle_type_id":"4","last_reported":1718046393,"current_range_meters":14000,"station_id":"ce4bgv12rcd13ifvqcp0","pricing_plan_id":"cebpf4jnsgd1na2vs0mg"},{"bike_id":"12b429a5-99b2-4d5a-a6c7-bc0748a14995","system_id":"levelo_inurba_marseille","lat":43.305364,"lon":5.384119,"is_reserved":false,"is_disabled":false,"rental_uris":{"android":"levelo://app?vid=12b429a5-99b2-4d5a-a6c7-bc0748a14995","ios":"levelo://app?vid=12b429a5-99b2-4d5a-a6c7-bc0748a14995"},"vehicle_type_id":"4","last_reported":1718046393,"current_range_meters":15600,"station_id":"ce4bgg92rcd13ifvqb30","pricing_plan_id":"cebpf4jnsgd1na2vs0mg"},{"bike_id":"7cc60960-fb11-46e0-90a7-898a527e47b4","system_id":"levelo_inurba_marseille","lat":43.311722,"lon":5.387247,"is_reserved":false,"is_disabled":false,"rental_uris":{"android":"levelo://app?vid=7cc60960-fb11-46e0-90a7-898a527e47b4","ios":"levelo://app?vid=7cc60960-fb11-46e0-90a7-898a527e47b4"},"vehicle_type_id":"4","last_reported":1718046393,"current_range_meters":0,"station_id":"ce4bgv12rcd13ifvqcp0","pricing_plan_id":"cebpf4jnsgd1na2vs0mg"},{"bike_id":"44633568-3934-497b-8674-62af8ef7d3fb","system_id":"levelo_inurba_marseille","lat":43.30747,"lon":5.38592,"is_reserved":false,"is_disabled":false,"rental_uris":{"android":"levelo://app?vid=44633568-3934-497b-8674-62af8ef7d3fb","ios":"levelo://app?vid=44633568-3934-497b-8674-62af8ef7d3fb"},"vehicle_type_id":"4","last_reported":1718046393,"current_range_meters":18800,"station_id":"","pricing_plan_id":"cebpf4jnsgd1na2vs0mg"},{"bike_id":"2af90074-dbeb-4ddc-83a5-0b327a91804f","system_id":"levelo_inurba_marseille","lat":43.311722,"lon":5.387247,"is_reserved":false,"is_disabled":false,"rental_uris":{"android":"levelo://app?vid=2af90074-dbeb-4ddc-83a5-0b327a91804f","ios":"levelo://app?vid=2af90074-dbeb-4ddc-83a5-0b327a91804f"},"vehicle_type_id":"4","last_reported":1718046393,"current_range_meters":5600,"station_id":"ce4bgv12rcd13ifvqcp0","pricing_plan_id":"cebpf4jnsgd1na2vs0mg"},{"bike_id":"548ce180-cae6-4880-8a9a-96018bf4ef5b","system_id":"levelo_inurba_marseille","lat":43.311722,"lon":5.387247,"is_reserved":false,"is_disabled":false,"rental_uris":{"android":"levelo://app?vid=548ce180-cae6-4880-8a9a-96018bf4ef5b","ios":"levelo://app?vid=548ce180-cae6-4880-8a9a-96018bf4ef5b"},"vehicle_type_id":"4","last_reported":1718046393,"current_range_meters":15200,"station_id":"ce4bgv12rcd13ifvqcp0","pricing_plan_id":"cebpf4jnsgd1na2vs0mg"},{"bike_id":"ef1868ac-52d2-4028-8a75-075dd74bd91f","system_id":"levelo_inurba_marseille","lat":43.311722,"lon":5.387247,"is_reserved":false,"is_disabled":false,"rental_uris":{"android":"levelo://app?vid=ef1868ac-52d2-4028-8a75-075dd74bd91f","ios":"levelo://app?vid=ef1868ac-52d2-4028-8a75-075dd74bd91f"},"vehicle_type_id":"4","last_reported":1718046393,"current_range_meters":6400,"station_id":"ce4bgv12rcd13ifvqcp0","pricing_plan_id":"cebpf4jnsgd1na2vs0mg"},{"bike_id":"0bbca660-b478-452a-989c-94633c95011b","system_id":"levelo_inurba_marseille","lat":43.29706,"lon":5.36616,"is_reserved":false,"is_disabled":false,"rental_uris":{"android":"levelo://app?vid=0bbca660-b478-452a-989c-94633c95011b","ios":"levelo://app?vid=0bbca660-b478-452a-989c-94633c95011b"},"vehicle_type_id":"4","last_reported":1718046393,"current_range_meters":12800,"station_id":"ce4bgn12rcd13ifvqbt0","pricing_plan_id":"cebpf4jnsgd1na2vs0mg"},{"bike_id":"d27128ee-5f3e-4056-85a6-b1ddf082fb68","system_id":"levelo_inurba_marseille","lat":43.297163,"lon":5.365866,"is_reserved":false,"is_disabled":false,"rental_uris":{"android":"levelo://app?vid=d27128ee-5f3e-4056-85a6-b1ddf082fb68","ios":"levelo://app?vid=d27128ee-5f3e-4056-85a6-b1ddf082fb68"},"vehicle_type_id":"4","last_reported":1718046393,"current_range_meters":10000,"station_id":"ce4bgn12rcd13ifvqbt0","pricing_plan_id":"cebpf4jnsgd1na2vs0mg"},{"bike_id":"d5381ccb-9b45-4970-947d-0e5458b18a3e","system_id":"levelo_inurba_marseille","lat":43.305364,"lon":5.384119,"is_reserved":false,"is_disabled":false,"rental_uris":{"android":"levelo://app?vid=d5381ccb-9b45-4970-947d-0e5458b18a3e","ios":"levelo://app?vid=d5381ccb-9b45-4970-947d-0e5458b18a3e"},"vehicle_type_id":"4","last_reported":1718046393,"current_range_meters":19200,"station_id":"ce4bgg92rcd13ifvqb30","pricing_plan_id":"cebpf4jnsgd1na2vs0mg"},{"bike_id":"ee6dc0c2-c655-4db3-aebd-4f0141eafbfa","system_id":"levelo_inurba_marseille","lat":43.296921,"lon":5.376579,"is_reserved":false,"is_disabled":false,"rental_uris":{"android":"levelo://app?vid=ee6dc0c2-c655-4db3-aebd-4f0141eafbfa","ios":"levelo://app?vid=ee6dc0c2-c655-4db3-aebd-4f0141eafbfa"},"vehicle_type_id":"4","last_reported":1718046393,"current_range_meters":4400,"station_id":"ce4bgkh2rcd13ifvqbl0","pricing_plan_id":"cebpf4jnsgd1na2vs0mg"},{"bike_id":"1ad2a8fe-ecf7-4f51-965c-18cfee1c9fb7","system_id":"levelo_inurba_marseille","lat":43.309589,"lon":5.390258,"is_reserved":false,"is_disabled":false,"rental_uris":{"android":"levelo://app?vid=1ad2a8fe-ecf7-4f51-965c-18cfee1c9fb7","ios":"levelo://app?vid=1ad2a8fe-ecf7-4f51-965c-18cfee1c9fb7"},"vehicle_type_id":"4","last_reported":1718046393,"current_range_meters":0,"station_id":"ce4bgup2rcd13ifvqco0","pricing_plan_id":"cebpf4jnsgd1na2vs0mg"},{"bike_id":"373d8a7f-8565-414c-9f5f-4441fd676ff9","system_id":"levelo_inurba_marseille","lat":43.304274,"lon":5.388873,"is_reserved":false,"is_disabled":false,"rental_uris":{"android":"levelo://app?vid=373d8a7f-8565-414c-9f5f-4441fd676ff9","ios":"levelo://app?vid=373d8a7f-8565-414c-9f5f-4441fd676ff9"},"vehicle_type_id":"4","last_reported":1718046393,"current_range_meters":15200,"station_id":"ce4bgk12rcd13ifvqbi0","pricing_plan_id":"cebpf4jnsgd1na2vs0mg"},{"bike_id":"7b937859-27a2-45fd-a7ce-23f7e7a692b8","system_id":"levelo_inurba_marseille","lat":43.299028,"lon":5.381509,"is_reserved":false,"is_disabled":false,"rental_uris":{"android":"levelo://app?vid=7b937859-27a2-45fd-a7ce-23f7e7a692b8","ios":"levelo://app?vid=7b937859-27a2-45fd-a7ce-23f7e7a692b8"},"vehicle_type_id":"4","last_reported":1718046393,"current_range_meters":12400,"station_id":"ce4bgj12rcd13ifvqbc0","pricing_plan_id":"cebpf4jnsgd1na2vs0mg"},{"bike_id":"608d338f-8b7b-48ab-9355-62c1748981c1","system_id":"levelo_inurba_marseille","lat":43.305364,"lon":5.384119,"is_reserved":false,"is_disabled":false,"rental_uris":{"android":"levelo://app?vid=608d338f-8b7b-48ab-9355-62c1748981c1","ios":"levelo://app?vid=608d338f-8b7b-48ab-9355-62c1748981c1"},"vehicle_type_id":"4","last_reported":1718046393,"current_range_meters":7200,"station_id":"ce4bgg92rcd13ifvqb30","pricing_plan_id":"cebpf4jnsgd1na2vs0mg"},{"bike_id":"8c77690f-3886-413a-91fd-8db50332479b","system_id":"levelo_inurba_marseille","lat":43.29723,"lon":5.37879,"is_reserved":false,"is_disabled":false,"rental_uris":{"android":"levelo://app?vid=8c77690f-3886-413a-91fd-8db50332479b","ios":"levelo://app?vid=8c77690f-3886-413a-91fd-8db50332479b"},"vehicle_type_id":"4","last_reported":1718046393,"current_range_meters":30400,"station_id":"","pricing_plan_id":"cebpf4jnsgd1na2vs0mg"},{"bike_id":"a3dbe899-0898-4c0c-8554-d343a42232d3","system_id":"levelo_inurba_marseille","lat":43.29577,"lon":5.37513,"is_reserved":false,"is_disabled":false,"rental_uris":{"android":"levelo://app?vid=a3dbe899-0898-4c0c-8554-d343a42232d3","ios":"levelo://app?vid=a3dbe899-0898-4c0c-8554-d343a42232d3"},"vehicle_type_id":"4","last_reported":1718046393,"current_range_meters":26000,"station_id":"ce4bgh92rcd13ifvqb50","pricing_plan_id":"cebpf4jnsgd1na2vs0mg"},{"bike_id":"ea75a7e3-73c4-402c-b535-be14071c62ab","system_id":"levelo_inurba_marseille","lat":43.295728,"lon":5.375205,"is_reserved":false,"is_disabled":false,"rental_uris":{"android":"levelo://app?vid=ea75a7e3-73c4-402c-b535-be14071c62ab","ios":"levelo://app?vid=ea75a7e3-73c4-402c-b535-be14071c62ab"},"vehicle_type_id":"4","last_reported":1718046393,"current_range_meters":15600,"station_id":"ce4bgh92rcd13ifvqb50","pricing_plan_id":"cebpf4jnsgd1na2vs0mg"},{"bike_id":"418ba41c-241d-48c3-a17d-61b6d9355b16","system_id":"levelo_inurba_marseille","lat":43.29571,"lon":5.37523,"is_reserved":false,"is_disabled":false,"rental_uris":{"android":"levelo://app?vid=418ba41c-241d-48c3-a17d-61b6d9355b16","ios":"levelo://app?vid=418ba41c-241d-48c3-a17d-61b6d9355b16"},"vehicle_type_id":"4","last_reported":1718046393,"current_range_meters":27600,"station_id":"ce4bgh92rcd13ifvqb50","pricing_plan_id":"cebpf4jnsgd1na2vs0mg"},{"bike_id":"840492a9-9372-4529-8975-302a81914861","system_id":"levelo_inurba_marseille","lat":43.29568,"lon":5.37516,"is_reserved":false,"is_disabled":false,"rental_uris":{"android":"levelo://app?vid=840492a9-9372-4529-8975-302a81914861","ios":"levelo://app?vid=840492a9-9372-4529-8975-302a81914861"},"vehicle_type_id":"4","last_reported":1718046393,"current_range_meters":20000,"station_id":"ce4bgh92rcd13ifvqb50","pricing_plan_id":"cebpf4jnsgd1na2vs0mg"},{"bike_id":"fa435e1d-0b20-4552-a7c9-5d77a0d8af8d","system_id":"levelo_inurba_marseille","lat":43.304274,"lon":5.388873,"is_reserved":false,"is_disabled":false,"rental_uris":{"android":"levelo://app?vid=fa435e1d-0b20-4552-a7c9-5d77a0d8af8d","ios":"levelo://app?vid=fa435e1d-0b20-4552-a7c9-5d77a0d8af8d"},"vehicle_type_id":"4","last_reported":1718046393,"current_range_meters":0,"station_id":"ce4bgk12rcd13ifvqbi0","pricing_plan_id":"cebpf4jnsgd1na2vs0mg"},{"bike_id":"bda96a46-0b2e-47a3-b03e-6a83556c8985","system_id":"levelo_inurba_marseille","lat":43.296263,"lon":5.377094,"is_reserved":false,"is_disabled":false,"rental_uris":{"android":"levelo://app?vid=bda96a46-0b2e-47a3-b03e-6a83556c8985","ios":"levelo://app?vid=bda96a46-0b2e-47a3-b03e-6a83556c8985"},"vehicle_type_id":"4","last_reported":1718046393,"current_range_meters":0,"station_id":"ce4bgi92rcd13ifvqb90","pricing_plan_id":"cebpf4jnsgd1na2vs0mg"},{"bike_id":"97c56879-8795-4023-9480-080f6c26417a","system_id":"levelo_inurba_marseille","lat":43.296277,"lon":5.377108,"is_reserved":false,"is_disabled":false,"rental_uris":{"android":"levelo://app?vid=97c56879-8795-4023-9480-080f6c26417a","ios":"levelo://app?vid=97c56879-8795-4023-9480-080f6c26417a"},"vehicle_type_id":"4","last_reported":1718046393,"current_range_meters":2000,"station_id":"ce4bgi92rcd13ifvqb90","pricing_plan_id":"cebpf4jnsgd1na2vs0mg"},{"bike_id":"7f4acec1-7fc0-4058-8f3a-cd366ae4cfcb","system_id":"levelo_inurba_marseille","lat":43.295279,"lon":5.375048,"is_reserved":false,"is_disabled":false,"rental_uris":{"android":"levelo://app?vid=7f4acec1-7fc0-4058-8f3a-cd366ae4cfcb","ios":"levelo://app?vid=7f4acec1-7fc0-4058-8f3a-cd366ae4cfcb"},"vehicle_type_id":"4","last_reported":1718046393,"current_range_meters":25200,"station_id":"ce4bgkp2rcd13ifvqbmg","pricing_plan_id":"cebpf4jnsgd1na2vs0mg"},{"bike_id":"cda1139f-d640-4ec7-b5f5-fa03c75651ad","system_id":"levelo_inurba_marseille","lat":43.298556,"lon":5.383843,"is_reserved":false,"is_disabled":false,"rental_uris":{"android":"levelo://app?vid=cda1139f-d640-4ec7-b5f5-fa03c75651ad","ios":"levelo://app?vid=cda1139f-d640-4ec7-b5f5-fa03c75651ad"},"vehicle_type_id":"4","last_reported":1718046393,"current_range_meters":25600,"station_id":"","pricing_plan_id":"cebpf4jnsgd1na2vs0mg"},{"bike_id":"026dc1a2-be76-4462-97c2-445b9b9b4172","system_id":"levelo_inurba_marseille","lat":43.299717,"lon":5.384845,"is_reserved":false,"is_disabled":false,"rental_uris":{"android":"levelo://app?vid=026dc1a2-be76-4462-97c2-445b9b9b4172","ios":"levelo://app?vid=026dc1a2-be76-4462-97c2-445b9b9b4172"},"vehicle_type_id":"4","last_reported":1718046393,"current_range_meters":14800,"station_id":"ce4bgj92rcd13ifvqbd0","pricing_plan_id":"cebpf4jnsgd1na2vs0mg"},{"bike_id":"515f9d4c-901e-40b1-bff2-7c0a2f83d3f9","system_id":"levelo_inurba_marseille","lat":43.32367,"lon":5.388836,"is_reserved":false,"is_disabled":false,"rental_uris":{"android":"levelo://app?vid=515f9d4c-901e-40b1-bff2-7c0a2f83d3f9","ios":"levelo://app?vid=515f9d4c-901e-40b1-bff2-7c0a2f83d3f9"},"vehicle_type_id":"4","last_reported":1718046393,"current_range_meters":0,"station_id":"ce4bhqp2rcd13ifvqhog","pricing_plan_id":"cebpf4jnsgd1na2vs0mg"},{"bike_id":"f07f95cc-38cd-4948-b236-4f8ca5c37972","system_id":"levelo_inurba_marseille","lat":43.32367,"lon":5.388836,"is_reserved":false,"is_disabled":false,"rental_uris":{"android":"levelo://app?vid=f07f95cc-38cd-4948-b236-4f8ca5c37972","ios":"levelo://app?vid=f07f95cc-38cd-4948-b236-4f8ca5c37972"},"vehicle_type_id":"4","last_reported":1718046393,"current_range_meters":19600,"station_id":"ce4bhqp2rcd13ifvqhog","pricing_plan_id":"cebpf4jnsgd1na2vs0mg"},{"bike_id":"9278dcf9-ad9b-4b53-818d-8ae198f7fab5","system_id":"levelo_inurba_marseille","lat":43.32367,"lon":5.388836,"is_reserved":false,"is_disabled":false,"rental_uris":{"android":"levelo://app?vid=9278dcf9-ad9b-4b53-818d-8ae198f7fab5","ios":"levelo://app?vid=9278dcf9-ad9b-4b53-818d-8ae198f7fab5"},"vehicle_type_id":"4","last_reported":1718046393,"current_range_meters":4000,"station_id":"ce4bhqp2rcd13ifvqhog","pricing_plan_id":"cebpf4jnsgd1na2vs0mg"},{"bike_id":"8c21ce60-68a1-416b-947e-57782f077f4a","system_id":"levelo_inurba_marseille","lat":43.32374,"lon":5.388812,"is_reserved":false,"is_disabled":false,"rental_uris":{"android":"levelo://app?vid=8c21ce60-68a1-416b-947e-57782f077f4a","ios":"levelo://app?vid=8c21ce60-68a1-416b-947e-57782f077f4a"},"vehicle_type_id":"4","last_reported":1718046393,"current_range_meters":0,"station_id":"ce4bhqp2rcd13ifvqhog","pricing_plan_id":"cebpf4jnsgd1na2vs0mg"},{"bike_id":"cdc48b51-c8a6-46d7-bd13-ea15c05b42e3","system_id":"levelo_inurba_marseille","lat":43.32367,"lon":5.388836,"is_reserved":false,"is_disabled":false,"rental_uris":{"android":"levelo://app?vid=cdc48b51-c8a6-46d7-bd13-ea15c05b42e3","ios":"levelo://app?vid=cdc48b51-c8a6-46d7-bd13-ea15c05b42e3"},"vehicle_type_id":"4","last_reported":1718046393,"current_range_meters":0,"station_id":"ce4bhqp2rcd13ifvqhog","pricing_plan_id":"cebpf4jnsgd1na2vs0mg"},{"bike_id":"95c3eefc-14b5-4e74-8f9f-9623766bd34b","system_id":"levelo_inurba_marseille","lat":43.32367,"lon":5.388836,"is_reserved":false,"is_disabled":false,"rental_uris":{"android":"levelo://app?vid=95c3eefc-14b5-4e74-8f9f-9623766bd34b","ios":"levelo://app?vid=95c3eefc-14b5-4e74-8f9f-9623766bd34b"},"vehicle_type_id":"4","last_reported":1718046393,"current_range_meters":18000,"station_id":"ce4bhqp2rcd13ifvqhog","pricing_plan_id":"cebpf4jnsgd1na2vs0mg"},{"bike_id":"d6a5a4eb-3674-449c-8688-3bf55330bb1d","system_id":"levelo_inurba_marseille","lat":43.294153,"lon":5.386305,"is_reserved":false,"is_disabled":false,"rental_uris":{"android":"levelo://app?vid=d6a5a4eb-3674-449c-8688-3bf55330bb1d","ios":"levelo://app?vid=d6a5a4eb-3674-449c-8688-3bf55330bb1d"},"vehicle_type_id":"4","last_reported":1718046393,"current_range_meters":4800,"station_id":"ce4bh2h2rcd13ifvqdh0","pricing_plan_id":"cebpf4jnsgd1na2vs0mg"},{"bike_id":"2b979962-494b-499e-9897-7b958ee1fe17","system_id":"levelo_inurba_marseille","lat":43.29602,"lon":5.381084,"is_reserved":false,"is_disabled":false,"rental_uris":{"android":"levelo://app?vid=2b979962-494b-499e-9897-7b958ee1fe17","ios":"levelo://app?vid=2b979962-494b-499e-9897-7b958ee1fe17"},"vehicle_type_id":"4","last_reported":1718046393,"current_range_meters":0,"station_id":"ce4bgl12rcd13ifvqbo0","pricing_plan_id":"cebpf4jnsgd1na2vs0mg"},{"bike_id":"091d0760-44da-4d52-91d5-c81ebd757699","system_id":"levelo_inurba_marseille","lat":43.289184,"lon":5.366408,"is_reserved":false,"is_disabled":false,"rental_uris":{"android":"levelo://app?vid=091d0760-44da-4d52-91d5-c81ebd757699","ios":"levelo://app?vid=091d0760-44da-4d52-91d5-c81ebd757699"},"vehicle_type_id":"4","last_reported":1718046393,"current_range_meters":12000,"station_id":"ce4bhap2rcd13ifvqek0","pricing_plan_id":"cebpf4jnsgd1na2vs0mg"},{"bike_id":"9093f3c5-4725-45ad-b4d2-f6404eef5de1","system_id":"levelo_inurba_marseille","lat":43.30085,"lon":5.390856,"is_reserved":false,"is_disabled":false,"rental_uris":{"android":"levelo://app?vid=9093f3c5-4725-45ad-b4d2-f6404eef5de1","ios":"levelo://app?vid=9093f3c5-4725-45ad-b4d2-f6404eef5de1"},"vehicle_type_id":"4","last_reported":1718046393,"current_range_meters":800,"station_id":"ce4bh192rcd13ifvqdb0","pricing_plan_id":"cebpf4jnsgd1na2vs0mg"},{"bike_id":"444ace67-e84a-404c-9af7-90299b0b99e2","system_id":"levelo_inurba_marseille","lat":43.293259,"lon":5.371586,"is_reserved":false,"is_disabled":false,"rental_uris":{"android":"levelo://app?vid=444ace67-e84a-404c-9af7-90299b0b99e2","ios":"levelo://app?vid=444ace67-e84a-404c-9af7-90299b0b99e2"},"vehicle_type_id":"4","last_reported":1718046393,"current_range_meters":19200,"station_id":"ce4bgh92rcd13ifvqb40","pricing_plan_id":"cebpf4jnsgd1na2vs0mg"},{"bike_id":"114b5954-2f8a-4aec-8800-25b1aa3ae9a8","system_id":"levelo_inurba_marseille","lat":43.293064,"lon":5.371766,"is_reserved":false,"is_disabled":false,"rental_uris":{"android":"levelo://app?vid=114b5954-2f8a-4aec-8800-25b1aa3ae9a8","ios":"levelo://app?vid=114b5954-2f8a-4aec-8800-25b1aa3ae9a8"},"vehicle_type_id":"4","last_reported":1718046393,"current_range_meters":0,"station_id":"ce4bgh92rcd13ifvqb40","pricing_plan_id":"cebpf4jnsgd1na2vs0mg"},{"bike_id":"10cb67f5-38c3-499f-b08b-f59fee9258c3","system_id":"levelo_inurba_marseille","lat":43.292752,"lon":5.368444,"is_reserved":false,"is_disabled":false,"rental_uris":{"android":"levelo://app?vid=10cb67f5-38c3-499f-b08b-f59fee9258c3","ios":"levelo://app?vid=10cb67f5-38c3-499f-b08b-f59fee9258c3"},"vehicle_type_id":"4","last_reported":1718046393,"current_range_meters":0,"station_id":"ce4bhbp2rcd13ifvqesg","pricing_plan_id":"cebpf4jnsgd1na2vs0mg"},{"bike_id":"d928cccc-104c-40ce-bc41-157fc60718d4","system_id":"levelo_inurba_marseille","lat":43.292749,"lon":5.368402,"is_reserved":false,"is_disabled":false,"rental_uris":{"android":"levelo://app?vid=d928cccc-104c-40ce-bc41-157fc60718d4","ios":"levelo://app?vid=d928cccc-104c-40ce-bc41-157fc60718d4"},"vehicle_type_id":"4","last_reported":1718046393,"current_range_meters":26000,"station_id":"ce4bhbp2rcd13ifvqesg","pricing_plan_id":"cebpf4jnsgd1na2vs0mg"},{"bike_id":"c3cf4517-687a-4757-b9fe-bfc075f0d30e","system_id":"levelo_inurba_marseille","lat":43.29294,"lon":5.37458,"is_reserved":false,"is_disabled":false,"rental_uris":{"android":"levelo://app?vid=c3cf4517-687a-4757-b9fe-bfc075f0d30e","ios":"levelo://app?vid=c3cf4517-687a-4757-b9fe-bfc075f0d30e"},"vehicle_type_id":"4","last_reported":1718046393,"current_range_meters":0,"station_id":"ce4bgkp2rcd13ifvqbmg","pricing_plan_id":"cebpf4jnsgd1na2vs0mg"},{"bike_id":"5fddc2f9-88c8-42d5-b539-be7209382867","system_id":"levelo_inurba_marseille","lat":43.29375,"lon":5.37842,"is_reserved":false,"is_disabled":false,"rental_uris":{"android":"levelo://app?vid=5fddc2f9-88c8-42d5-b539-be7209382867","ios":"levelo://app?vid=5fddc2f9-88c8-42d5-b539-be7209382867"},"vehicle_type_id":"4","last_reported":1718046393,"current_range_meters":22000,"station_id":"","pricing_plan_id":"cebpf4jnsgd1na2vs0mg"},{"bike_id":"f0e64f54-cc7c-42c8-8824-852d315a77f1","system_id":"levelo_inurba_marseille","lat":43.2936,"lon":5.37835,"is_reserved":false,"is_disabled":false,"rental_uris":{"android":"levelo://app?vid=f0e64f54-cc7c-42c8-8824-852d315a77f1","ios":"levelo://app?vid=f0e64f54-cc7c-42c8-8824-852d315a77f1"},"vehicle_type_id":"4","last_reported":1718046393,"current_range_meters":16000,"station_id":"ce4bgjh2rcd13ifvqbf0","pricing_plan_id":"cebpf4jnsgd1na2vs0mg"},{"bike_id":"fa376505-c4c6-4b9a-ab61-0378ccf79564","system_id":"levelo_inurba_marseille","lat":43.2936,"lon":5.37835,"is_reserved":false,"is_disabled":false,"rental_uris":{"android":"levelo://app?vid=fa376505-c4c6-4b9a-ab61-0378ccf79564","ios":"levelo://app?vid=fa376505-c4c6-4b9a-ab61-0378ccf79564"},"vehicle_type_id":"4","last_reported":1718046393,"current_range_meters":4400,"station_id":"ce4bgjh2rcd13ifvqbf0","pricing_plan_id":"cebpf4jnsgd1na2vs0mg"},{"bike_id":"c3c9aabf-c534-4927-a464-8bc36b5e5953","system_id":"levelo_inurba_marseille","lat":43.29228,"lon":5.36066,"is_reserved":false,"is_disabled":false,"rental_uris":{"android":"levelo://app?vid=c3c9aabf-c534-4927-a464-8bc36b5e5953","ios":"levelo://app?vid=c3c9aabf-c534-4927-a464-8bc36b5e5953"},"vehicle_type_id":"4","last_reported":1718046393,"current_range_meters":0,"station_id":"ce4bhbh2rcd13ifvqeqg","pricing_plan_id":"cebpf4jnsgd1na2vs0mg"},{"bike_id":"4deb5969-dba6-4d29-8bfe-d8a8091de419","system_id":"levelo_inurba_marseille","lat":43.30085,"lon":5.390856,"is_reserved":false,"is_disabled":false,"rental_uris":{"android":"levelo://app?vid=4deb5969-dba6-4d29-8bfe-d8a8091de419","ios":"levelo://app?vid=4deb5969-dba6-4d29-8bfe-d8a8091de419"},"vehicle_type_id":"4","last_reported":1718046393,"current_range_meters":23200,"station_id":"ce4bh192rcd13ifvqdb0","pricing_plan_id":"cebpf4jnsgd1na2vs0mg"},{"bike_id":"1c3f6997-e18a-45b7-9c24-579994e736fd","system_id":"levelo_inurba_marseille","lat":43.292311,"lon":5.360731,"is_reserved":false,"is_disabled":false,"rental_uris":{"android":"levelo://app?vid=1c3f6997-e18a-45b7-9c24-579994e736fd","ios":"levelo://app?vid=1c3f6997-e18a-45b7-9c24-579994e736fd"},"vehicle_type_id":"4","last_reported":1718046393,"current_range_meters":26400,"station_id":"ce4bhbh2rcd13ifvqeqg","pricing_plan_id":"cebpf4jnsgd1na2vs0mg"},{"bike_id":"02964a2f-a9ac-47df-8336-e6ea8d31319f","system_id":"levelo_inurba_marseille","lat":43.30085,"lon":5.390856,"is_reserved":false,"is_disabled":false,"rental_uris":{"android":"levelo://app?vid=02964a2f-a9ac-47df-8336-e6ea8d31319f","ios":"levelo://app?vid=02964a2f-a9ac-47df-8336-e6ea8d31319f"},"vehicle_type_id":"4","last_reported":1718046393,"current_range_meters":30000,"station_id":"ce4bh192rcd13ifvqdb0","pricing_plan_id":"cebpf4jnsgd1na2vs0mg"},{"bike_id":"5e739360-b3be-47f3-8e29-d0b8c792a0e5","system_id":"levelo_inurba_marseille","lat":43.292311,"lon":5.360731,"is_reserved":false,"is_disabled":false,"rental_uris":{"android":"levelo://app?vid=5e739360-b3be-47f3-8e29-d0b8c792a0e5","ios":"levelo://app?vid=5e739360-b3be-47f3-8e29-d0b8c792a0e5"},"vehicle_type_id":"4","last_reported":1718046393,"current_range_meters":26400,"station_id":"ce4bhbh2rcd13ifvqeqg","pricing_plan_id":"cebpf4jnsgd1na2vs0mg"},{"bike_id":"2d31bf33-d4d1-4c84-9087-94b564cf0edb","system_id":"levelo_inurba_marseille","lat":43.291675,"lon":5.371583,"is_reserved":false,"is_disabled":false,"rental_uris":{"android":"levelo://app?vid=2d31bf33-d4d1-4c84-9087-94b564cf0edb","ios":"levelo://app?vid=2d31bf33-d4d1-4c84-9087-94b564cf0edb"},"vehicle_type_id":"4","last_reported":1718046393,"current_range_meters":15200,"station_id":"ce4bha92rcd13ifvqeh0","pricing_plan_id":"cebpf4jnsgd1na2vs0mg"},{"bike_id":"0b5724ec-b181-43bb-8dee-2112ff9f055d","system_id":"levelo_inurba_marseille","lat":43.298764,"lon":5.388973,"is_reserved":false,"is_disabled":false,"rental_uris":{"android":"levelo://app?vid=0b5724ec-b181-43bb-8dee-2112ff9f055d","ios":"levelo://app?vid=0b5724ec-b181-43bb-8dee-2112ff9f055d"},"vehicle_type_id":"4","last_reported":1718046393,"current_range_meters":2400,"station_id":"ce4bh392rcd13ifvqdl0","pricing_plan_id":"cebpf4jnsgd1na2vs0mg"},{"bike_id":"d56f682d-e417-42fe-9fba-ea63556041d7","system_id":"levelo_inurba_marseille","lat":43.302992,"lon":5.392136,"is_reserved":false,"is_disabled":false,"rental_uris":{"android":"levelo://app?vid=d56f682d-e417-42fe-9fba-ea63556041d7","ios":"levelo://app?vid=d56f682d-e417-42fe-9fba-ea63556041d7"},"vehicle_type_id":"4","last_reported":1718046393,"current_range_meters":17200,"station_id":"ce4bgkh2rcd13ifvqbk0","pricing_plan_id":"cebpf4jnsgd1na2vs0mg"},{"bike_id":"295d82fa-fe12-4bb8-a6f0-980bd62cf05b","system_id":"levelo_inurba_marseille","lat":43.291675,"lon":5.371583,"is_reserved":false,"is_disabled":false,"rental_uris":{"android":"levelo://app?vid=295d82fa-fe12-4bb8-a6f0-980bd62cf05b","ios":"levelo://app?vid=295d82fa-fe12-4bb8-a6f0-980bd62cf05b"},"vehicle_type_id":"4","last_reported":1718046393,"current_range_meters":0,"station_id":"ce4bha92rcd13ifvqeh0","pricing_plan_id":"cebpf4jnsgd1na2vs0mg"},{"bike_id":"6b8e5080-1430-4385-a768-f33ca60c410a","system_id":"levelo_inurba_marseille","lat":43.313291,"lon":5.396838,"is_reserved":false,"is_disabled":false,"rental_uris":{"android":"levelo://app?vid=6b8e5080-1430-4385-a768-f33ca60c410a","ios":"levelo://app?vid=6b8e5080-1430-4385-a768-f33ca60c410a"},"vehicle_type_id":"4","last_reported":1718046393,"current_range_meters":8800,"station_id":"ce4bgvp2rcd13ifvqcu0","pricing_plan_id":"cebpf4jnsgd1na2vs0mg"},{"bike_id":"17897394-6730-4b59-90c6-274b40f089cb","system_id":"levelo_inurba_marseille","lat":43.291675,"lon":5.371583,"is_reserved":false,"is_disabled":false,"rental_uris":{"android":"levelo://app?vid=17897394-6730-4b59-90c6-274b40f089cb","ios":"levelo://app?vid=17897394-6730-4b59-90c6-274b40f089cb"},"vehicle_type_id":"4","last_reported":1718046393,"current_range_meters":0,"station_id":"ce4bha92rcd13ifvqeh0","pricing_plan_id":"cebpf4jnsgd1na2vs0mg"},{"bike_id":"825088de-67d6-4ed6-b831-3c50f10406e8","system_id":"levelo_inurba_marseille","lat":43.29192,"lon":5.35805,"is_reserved":false,"is_disabled":false,"rental_uris":{"android":"levelo://app?vid=825088de-67d6-4ed6-b831-3c50f10406e8","ios":"levelo://app?vid=825088de-67d6-4ed6-b831-3c50f10406e8"},"vehicle_type_id":"4","last_reported":1718046393,"current_range_meters":0,"station_id":"ce4bhb12rcd13ifvqel0","pricing_plan_id":"cebpf4jnsgd1na2vs0mg"},{"bike_id":"58912c00-1f3c-4b0d-90cd-9be0503ba43f","system_id":"levelo_inurba_marseille","lat":43.291896,"lon":5.357959,"is_reserved":false,"is_disabled":false,"rental_uris":{"android":"levelo://app?vid=58912c00-1f3c-4b0d-90cd-9be0503ba43f","ios":"levelo://app?vid=58912c00-1f3c-4b0d-90cd-9be0503ba43f"},"vehicle_type_id":"4","last_reported":1718046393,"current_range_meters":14000,"station_id":"","pricing_plan_id":"cebpf4jnsgd1na2vs0mg"},{"bike_id":"d67e2b85-b10f-4a66-85a5-cda37e04ec30","system_id":"levelo_inurba_marseille","lat":43.295455,"lon":5.385515,"is_reserved":false,"is_disabled":false,"rental_uris":{"android":"levelo://app?vid=d67e2b85-b10f-4a66-85a5-cda37e04ec30","ios":"levelo://app?vid=d67e2b85-b10f-4a66-85a5-cda37e04ec30"},"vehicle_type_id":"4","last_reported":1718046393,"current_range_meters":5600,"station_id":"ce4bgih2rcd13ifvqba0","pricing_plan_id":"cebpf4jnsgd1na2vs0mg"},{"bike_id":"8fb380d7-d2ea-450c-b72c-d85895ae11c9","system_id":"levelo_inurba_marseille","lat":43.29529,"lon":5.385581,"is_reserved":false,"is_disabled":false,"rental_uris":{"android":"levelo://app?vid=8fb380d7-d2ea-450c-b72c-d85895ae11c9","ios":"levelo://app?vid=8fb380d7-d2ea-450c-b72c-d85895ae11c9"},"vehicle_type_id":"4","last_reported":1718046393,"current_range_meters":800,"station_id":"ce4bgih2rcd13ifvqba0","pricing_plan_id":"cebpf4jnsgd1na2vs0mg"},{"bike_id":"40013bf0-656e-4c3d-a9a8-ac319de2e27b","system_id":"levelo_inurba_marseille","lat":43.29527,"lon":5.385331,"is_reserved":false,"is_disabled":false,"rental_uris":{"android":"levelo://app?vid=40013bf0-656e-4c3d-a9a8-ac319de2e27b","ios":"levelo://app?vid=40013bf0-656e-4c3d-a9a8-ac319de2e27b"},"vehicle_type_id":"4","last_reported":1718046393,"current_range_meters":4400,"station_id":"ce4bgih2rcd13ifvqba0","pricing_plan_id":"cebpf4jnsgd1na2vs0mg"},{"bike_id":"219c7286-4ccd-46af-ac49-0721bff86f38","system_id":"levelo_inurba_marseille","lat":43.29529,"lon":5.385581,"is_reserved":false,"is_disabled":false,"rental_uris":{"android":"levelo://app?vid=219c7286-4ccd-46af-ac49-0721bff86f38","ios":"levelo://app?vid=219c7286-4ccd-46af-ac49-0721bff86f38"},"vehicle_type_id":"4","last_reported":1718046393,"current_range_meters":9600,"station_id":"ce4bgih2rcd13ifvqba0","pricing_plan_id":"cebpf4jnsgd1na2vs0mg"},{"bike_id":"b1d54a4d-a203-44f4-8249-3e344829ac52","system_id":"levelo_inurba_marseille","lat":43.29529,"lon":5.385581,"is_reserved":false,"is_disabled":false,"rental_uris":{"android":"levelo://app?vid=b1d54a4d-a203-44f4-8249-3e344829ac52","ios":"levelo://app?vid=b1d54a4d-a203-44f4-8249-3e344829ac52"},"vehicle_type_id":"4","last_reported":1718046393,"current_range_meters":30800,"station_id":"ce4bgih2rcd13ifvqba0","pricing_plan_id":"cebpf4jnsgd1na2vs0mg"},{"bike_id":"b59a3760-bf95-4ca6-8eac-a9ac80257605","system_id":"levelo_inurba_marseille","lat":43.29529,"lon":5.385581,"is_reserved":false,"is_disabled":false,"rental_uris":{"android":"levelo://app?vid=b59a3760-bf95-4ca6-8eac-a9ac80257605","ios":"levelo://app?vid=b59a3760-bf95-4ca6-8eac-a9ac80257605"},"vehicle_type_id":"4","last_reported":1718046393,"current_range_meters":12400,"station_id":"ce4bgih2rcd13ifvqba0","pricing_plan_id":"cebpf4jnsgd1na2vs0mg"},{"bike_id":"df06682b-f872-4a27-a7cd-0841d0e54a6e","system_id":"levelo_inurba_marseille","lat":43.29529,"lon":5.385581,"is_reserved":false,"is_disabled":false,"rental_uris":{"android":"levelo://app?vid=df06682b-f872-4a27-a7cd-0841d0e54a6e","ios":"levelo://app?vid=df06682b-f872-4a27-a7cd-0841d0e54a6e"},"vehicle_type_id":"4","last_reported":1718046393,"current_range_meters":10800,"station_id":"ce4bgih2rcd13ifvqba0","pricing_plan_id":"cebpf4jnsgd1na2vs0mg"},{"bike_id":"3ca310f7-0928-42eb-b0a3-a48b5db851fc","system_id":"levelo_inurba_marseille","lat":43.290779,"lon":5.371482,"is_reserved":false,"is_disabled":false,"rental_uris":{"android":"levelo://app?vid=3ca310f7-0928-42eb-b0a3-a48b5db851fc","ios":"levelo://app?vid=3ca310f7-0928-42eb-b0a3-a48b5db851fc"},"vehicle_type_id":"4","last_reported":1718046393,"current_range_meters":21600,"station_id":"ce4bh5p2rcd13ifvqe4g","pricing_plan_id":"cebpf4jnsgd1na2vs0mg"},{"bike_id":"fb50e090-e84d-4530-9005-35b0d1d15b48","system_id":"levelo_inurba_marseille","lat":43.302008,"lon":5.394694,"is_reserved":false,"is_disabled":false,"rental_uris":{"android":"levelo://app?vid=fb50e090-e84d-4530-9005-35b0d1d15b48","ios":"levelo://app?vid=fb50e090-e84d-4530-9005-35b0d1d15b48"},"vehicle_type_id":"4","last_reported":1718046393,"current_range_meters":0,"station_id":"ce4bh0p2rcd13ifvqd70","pricing_plan_id":"cebpf4jnsgd1na2vs0mg"},{"bike_id":"21ead906-58f6-4996-bf2d-0fefbbdab813","system_id":"levelo_inurba_marseille","lat":43.28944,"lon":5.36641,"is_reserved":false,"is_disabled":false,"rental_uris":{"android":"levelo://app?vid=21ead906-58f6-4996-bf2d-0fefbbdab813","ios":"levelo://app?vid=21ead906-58f6-4996-bf2d-0fefbbdab813"},"vehicle_type_id":"4","last_reported":1718046393,"current_range_meters":23600,"station_id":"ce4bhap2rcd13ifvqek0","pricing_plan_id":"cebpf4jnsgd1na2vs0mg"},{"bike_id":"f821b79b-675d-4bc3-b0f0-6f9064b2ecf7","system_id":"levelo_inurba_marseille","lat":43.294162,"lon":5.386292,"is_reserved":false,"is_disabled":false,"rental_uris":{"android":"levelo://app?vid=f821b79b-675d-4bc3-b0f0-6f9064b2ecf7","ios":"levelo://app?vid=f821b79b-675d-4bc3-b0f0-6f9064b2ecf7"},"vehicle_type_id":"4","last_reported":1718046393,"current_range_meters":12800,"station_id":"ce4bh2h2rcd13ifvqdh0","pricing_plan_id":"cebpf4jnsgd1na2vs0mg"},{"bike_id":"62590fd4-1452-4d49-8494-b0e9d4b36352","system_id":"levelo_inurba_marseille","lat":43.28941,"lon":5.36629,"is_reserved":false,"is_disabled":false,"rental_uris":{"android":"levelo://app?vid=62590fd4-1452-4d49-8494-b0e9d4b36352","ios":"levelo://app?vid=62590fd4-1452-4d49-8494-b0e9d4b36352"},"vehicle_type_id":"4","last_reported":1718046393,"current_range_meters":16000,"station_id":"ce4bhap2rcd13ifvqek0","pricing_plan_id":"cebpf4jnsgd1na2vs0mg"},{"bike_id":"edfdba63-9afd-475c-b4ab-e579f3cb7d1a","system_id":"levelo_inurba_marseille","lat":43.294114,"lon":5.386252,"is_reserved":false,"is_disabled":false,"rental_uris":{"android":"levelo://app?vid=edfdba63-9afd-475c-b4ab-e579f3cb7d1a","ios":"levelo://app?vid=edfdba63-9afd-475c-b4ab-e579f3cb7d1a"},"vehicle_type_id":"4","last_reported":1718046393,"current_range_meters":0,"station_id":"ce4bh2h2rcd13ifvqdh0","pricing_plan_id":"cebpf4jnsgd1na2vs0mg"},{"bike_id":"6a014e2c-8138-43b3-bdcf-bacd0549179c","system_id":"levelo_inurba_marseille","lat":43.28939,"lon":5.36632,"is_reserved":false,"is_disabled":false,"rental_uris":{"android":"levelo://app?vid=6a014e2c-8138-43b3-bdcf-bacd0549179c","ios":"levelo://app?vid=6a014e2c-8138-43b3-bdcf-bacd0549179c"},"vehicle_type_id":"4","last_reported":1718046393,"current_range_meters":12000,"station_id":"ce4bhap2rcd13ifvqek0","pricing_plan_id":"cebpf4jnsgd1na2vs0mg"},{"bike_id":"6e1b7a05-9229-4e11-8178-6f5c46f73194","system_id":"levelo_inurba_marseille","lat":43.289184,"lon":5.366408,"is_reserved":false,"is_disabled":false,"rental_uris":{"android":"levelo://app?vid=6e1b7a05-9229-4e11-8178-6f5c46f73194","ios":"levelo://app?vid=6e1b7a05-9229-4e11-8178-6f5c46f73194"},"vehicle_type_id":"4","last_reported":1718046393,"current_range_meters":22800,"station_id":"ce4bhap2rcd13ifvqek0","pricing_plan_id":"cebpf4jnsgd1na2vs0mg"},{"bike_id":"0ed44365-50a2-43dc-a83e-de075ff4a84e","system_id":"levelo_inurba_marseille","lat":43.289184,"lon":5.366408,"is_reserved":false,"is_disabled":false,"rental_uris":{"android":"levelo://app?vid=0ed44365-50a2-43dc-a83e-de075ff4a84e","ios":"levelo://app?vid=0ed44365-50a2-43dc-a83e-de075ff4a84e"},"vehicle_type_id":"4","last_reported":1718046393,"current_range_meters":16400,"station_id":"ce4bhap2rcd13ifvqek0","pricing_plan_id":"cebpf4jnsgd1na2vs0mg"},{"bike_id":"1480a11b-c629-47d8-ad61-70b303349c45","system_id":"levelo_inurba_marseille","lat":43.29048,"lon":5.377203,"is_reserved":false,"is_disabled":false,"rental_uris":{"android":"levelo://app?vid=1480a11b-c629-47d8-ad61-70b303349c45","ios":"levelo://app?vid=1480a11b-c629-47d8-ad61-70b303349c45"},"vehicle_type_id":"4","last_reported":1718046393,"current_range_meters":19600,"station_id":"","pricing_plan_id":"cebpf4jnsgd1na2vs0mg"},{"bike_id":"f61d8abc-ce94-450c-b9c0-fef6b34d37a3","system_id":"levelo_inurba_marseille","lat":43.289468,"lon":5.363719,"is_reserved":false,"is_disabled":false,"rental_uris":{"android":"levelo://app?vid=f61d8abc-ce94-450c-b9c0-fef6b34d37a3","ios":"levelo://app?vid=f61d8abc-ce94-450c-b9c0-fef6b34d37a3"},"vehicle_type_id":"4","last_reported":1718046393,"current_range_meters":3200,"station_id":"ce4bhc92rcd13ifvqetg","pricing_plan_id":"cebpf4jnsgd1na2vs0mg"},{"bike_id":"eae926ba-dcc1-497a-b8bd-85946b9d7635","system_id":"levelo_inurba_marseille","lat":43.289743,"lon":5.378304,"is_reserved":false,"is_disabled":false,"rental_uris":{"android":"levelo://app?vid=eae926ba-dcc1-497a-b8bd-85946b9d7635","ios":"levelo://app?vid=eae926ba-dcc1-497a-b8bd-85946b9d7635"},"vehicle_type_id":"4","last_reported":1718046393,"current_range_meters":22400,"station_id":"ce4bh9p2rcd13ifvqed0","pricing_plan_id":"cebpf4jnsgd1na2vs0mg"},{"bike_id":"d49bcdc5-6593-42ea-b1bd-98ddfb4f45ed","system_id":"levelo_inurba_marseille","lat":43.292671,"lon":5.384377,"is_reserved":false,"is_disabled":false,"rental_uris":{"android":"levelo://app?vid=d49bcdc5-6593-42ea-b1bd-98ddfb4f45ed","ios":"levelo://app?vid=d49bcdc5-6593-42ea-b1bd-98ddfb4f45ed"},"vehicle_type_id":"4","last_reported":1718046393,"current_range_meters":0,"station_id":"ce4bh692rcd13ifvqea0","pricing_plan_id":"cebpf4jnsgd1na2vs0mg"},{"bike_id":"e6db0471-c965-44af-b12a-6c949b15eb66","system_id":"levelo_inurba_marseille","lat":43.292642,"lon":5.384254,"is_reserved":false,"is_disabled":false,"rental_uris":{"android":"levelo://app?vid=e6db0471-c965-44af-b12a-6c949b15eb66","ios":"levelo://app?vid=e6db0471-c965-44af-b12a-6c949b15eb66"},"vehicle_type_id":"4","last_reported":1718046393,"current_range_meters":19200,"station_id":"ce4bh692rcd13ifvqea0","pricing_plan_id":"cebpf4jnsgd1na2vs0mg"},{"bike_id":"0006bf2a-d615-4d90-bae2-5a4658fb553a","system_id":"levelo_inurba_marseille","lat":43.292642,"lon":5.384254,"is_reserved":false,"is_disabled":false,"rental_uris":{"android":"levelo://app?vid=0006bf2a-d615-4d90-bae2-5a4658fb553a","ios":"levelo://app?vid=0006bf2a-d615-4d90-bae2-5a4658fb553a"},"vehicle_type_id":"4","last_reported":1718046393,"current_range_meters":3600,"station_id":"ce4bh692rcd13ifvqea0","pricing_plan_id":"cebpf4jnsgd1na2vs0mg"},{"bike_id":"6de7bf88-ecc5-42e4-ad68-66ee863d5166","system_id":"levelo_inurba_marseille","lat":43.29264,"lon":5.38441,"is_reserved":false,"is_disabled":false,"rental_uris":{"android":"levelo://app?vid=6de7bf88-ecc5-42e4-ad68-66ee863d5166","ios":"levelo://app?vid=6de7bf88-ecc5-42e4-ad68-66ee863d5166"},"vehicle_type_id":"4","last_reported":1718046393,"current_range_meters":18000,"station_id":"ce4bh692rcd13ifvqea0","pricing_plan_id":"cebpf4jnsgd1na2vs0mg"},{"bike_id":"3fea167a-47bf-4c49-bb81-0acc87f0460c","system_id":"levelo_inurba_marseille","lat":43.3042,"lon":5.39744,"is_reserved":false,"is_disabled":false,"rental_uris":{"android":"levelo://app?vid=3fea167a-47bf-4c49-bb81-0acc87f0460c","ios":"levelo://app?vid=3fea167a-47bf-4c49-bb81-0acc87f0460c"},"vehicle_type_id":"4","last_reported":1718046393,"current_range_meters":21200,"station_id":"ce4bh012rcd13ifvqd00","pricing_plan_id":"cebpf4jnsgd1na2vs0mg"},{"bike_id":"c4f824d8-15c9-41c3-b1fc-adc5179ff89f","system_id":"levelo_inurba_marseille","lat":43.292642,"lon":5.384254,"is_reserved":false,"is_disabled":false,"rental_uris":{"android":"levelo://app?vid=c4f824d8-15c9-41c3-b1fc-adc5179ff89f","ios":"levelo://app?vid=c4f824d8-15c9-41c3-b1fc-adc5179ff89f"},"vehicle_type_id":"4","last_reported":1718046393,"current_range_meters":0,"station_id":"ce4bh692rcd13ifvqea0","pricing_plan_id":"cebpf4jnsgd1na2vs0mg"},{"bike_id":"ed4e364e-fa47-4cfc-acf3-21807c388587","system_id":"levelo_inurba_marseille","lat":43.292642,"lon":5.384254,"is_reserved":false,"is_disabled":false,"rental_uris":{"android":"levelo://app?vid=ed4e364e-fa47-4cfc-acf3-21807c388587","ios":"levelo://app?vid=ed4e364e-fa47-4cfc-acf3-21807c388587"},"vehicle_type_id":"4","last_reported":1718046393,"current_range_meters":12000,"station_id":"ce4bh692rcd13ifvqea0","pricing_plan_id":"cebpf4jnsgd1na2vs0mg"},{"bike_id":"6d7a3e71-61dc-4ef6-9c7a-b78c664950c0","system_id":"levelo_inurba_marseille","lat":43.29264,"lon":5.38449,"is_reserved":false,"is_disabled":false,"rental_uris":{"android":"levelo://app?vid=6d7a3e71-61dc-4ef6-9c7a-b78c664950c0","ios":"levelo://app?vid=6d7a3e71-61dc-4ef6-9c7a-b78c664950c0"},"vehicle_type_id":"4","last_reported":1718046393,"current_range_meters":0,"station_id":"ce4bh692rcd13ifvqea0","pricing_plan_id":"cebpf4jnsgd1na2vs0mg"},{"bike_id":"1f19a5c8-d890-41ef-8190-0e31de55e24c","system_id":"levelo_inurba_marseille","lat":43.292642,"lon":5.384254,"is_reserved":false,"is_disabled":false,"rental_uris":{"android":"levelo://app?vid=1f19a5c8-d890-41ef-8190-0e31de55e24c","ios":"levelo://app?vid=1f19a5c8-d890-41ef-8190-0e31de55e24c"},"vehicle_type_id":"4","last_reported":1718046393,"current_range_meters":1600,"station_id":"ce4bh692rcd13ifvqea0","pricing_plan_id":"cebpf4jnsgd1na2vs0mg"},{"bike_id":"cda3a03a-2e86-447b-817c-9fafeaeedd5c","system_id":"levelo_inurba_marseille","lat":43.290103,"lon":5.356114,"is_reserved":false,"is_disabled":false,"rental_uris":{"android":"levelo://app?vid=cda3a03a-2e86-447b-817c-9fafeaeedd5c","ios":"levelo://app?vid=cda3a03a-2e86-447b-817c-9fafeaeedd5c"},"vehicle_type_id":"4","last_reported":1718046393,"current_range_meters":0,"station_id":"ce4bhb92rcd13ifvqen0","pricing_plan_id":"cebpf4jnsgd1na2vs0mg"},{"bike_id":"7732bfe7-6ad5-48fe-898b-983414ef36bb","system_id":"levelo_inurba_marseille","lat":43.290103,"lon":5.356114,"is_reserved":false,"is_disabled":false,"rental_uris":{"android":"levelo://app?vid=7732bfe7-6ad5-48fe-898b-983414ef36bb","ios":"levelo://app?vid=7732bfe7-6ad5-48fe-898b-983414ef36bb"},"vehicle_type_id":"4","last_reported":1718046393,"current_range_meters":29600,"station_id":"ce4bhb92rcd13ifvqen0","pricing_plan_id":"cebpf4jnsgd1na2vs0mg"},{"bike_id":"44089c6e-6b7f-4e64-8d13-ce9a32b3f21a","system_id":"levelo_inurba_marseille","lat":43.295169,"lon":5.390426,"is_reserved":false,"is_disabled":false,"rental_uris":{"android":"levelo://app?vid=44089c6e-6b7f-4e64-8d13-ce9a32b3f21a","ios":"levelo://app?vid=44089c6e-6b7f-4e64-8d13-ce9a32b3f21a"},"vehicle_type_id":"4","last_reported":1718046393,"current_range_meters":4000,"station_id":"ce4bh3p2rcd13ifvqdp0","pricing_plan_id":"cebpf4jnsgd1na2vs0mg"},{"bike_id":"917fa4b5-3613-4ed0-b34b-61a9f4e22ee0","system_id":"levelo_inurba_marseille","lat":43.289741,"lon":5.378306,"is_reserved":false,"is_disabled":false,"rental_uris":{"android":"levelo://app?vid=917fa4b5-3613-4ed0-b34b-61a9f4e22ee0","ios":"levelo://app?vid=917fa4b5-3613-4ed0-b34b-61a9f4e22ee0"},"vehicle_type_id":"4","last_reported":1718046393,"current_range_meters":3200,"station_id":"ce4bh9p2rcd13ifvqed0","pricing_plan_id":"cebpf4jnsgd1na2vs0mg"},{"bike_id":"73e55871-043a-45fd-bb27-9ab1babbd6bf","system_id":"levelo_inurba_marseille","lat":43.29785,"lon":5.39327,"is_reserved":false,"is_disabled":false,"rental_uris":{"android":"levelo://app?vid=73e55871-043a-45fd-bb27-9ab1babbd6bf","ios":"levelo://app?vid=73e55871-043a-45fd-bb27-9ab1babbd6bf"},"vehicle_type_id":"4","last_reported":1718046393,"current_range_meters":16800,"station_id":"chh1huq6cuj3fo74tm60","pricing_plan_id":"cebpf4jnsgd1na2vs0mg"},{"bike_id":"f4756d7d-0d78-410f-ae29-504df19a4de2","system_id":"levelo_inurba_marseille","lat":43.295169,"lon":5.390426,"is_reserved":false,"is_disabled":false,"rental_uris":{"android":"levelo://app?vid=f4756d7d-0d78-410f-ae29-504df19a4de2","ios":"levelo://app?vid=f4756d7d-0d78-410f-ae29-504df19a4de2"},"vehicle_type_id":"4","last_reported":1718046393,"current_range_meters":12000,"station_id":"ce4bh3p2rcd13ifvqdp0","pricing_plan_id":"cebpf4jnsgd1na2vs0mg"},{"bike_id":"b1e02625-cca4-414b-a942-1f8c4bf169bd","system_id":"levelo_inurba_marseille","lat":43.295169,"lon":5.390426,"is_reserved":false,"is_disabled":false,"rental_uris":{"android":"levelo://app?vid=b1e02625-cca4-414b-a942-1f8c4bf169bd","ios":"levelo://app?vid=b1e02625-cca4-414b-a942-1f8c4bf169bd"},"vehicle_type_id":"4","last_reported":1718046393,"current_range_meters":0,"station_id":"ce4bh3p2rcd13ifvqdp0","pricing_plan_id":"cebpf4jnsgd1na2vs0mg"},{"bike_id":"e71a045a-0b3c-49d1-814f-6f5e9134c22e","system_id":"levelo_inurba_marseille","lat":43.330442,"lon":5.389148,"is_reserved":false,"is_disabled":false,"rental_uris":{"android":"levelo://app?vid=e71a045a-0b3c-49d1-814f-6f5e9134c22e","ios":"levelo://app?vid=e71a045a-0b3c-49d1-814f-6f5e9134c22e"},"vehicle_type_id":"4","last_reported":1718046393,"current_range_meters":11200,"station_id":"ce4bhr92rcd13ifvqhrg","pricing_plan_id":"cebpf4jnsgd1na2vs0mg"},{"bike_id":"085fe6a8-e12b-493b-9394-4d87d50e4a59","system_id":"levelo_inurba_marseille","lat":43.295169,"lon":5.390426,"is_reserved":false,"is_disabled":false,"rental_uris":{"android":"levelo://app?vid=085fe6a8-e12b-493b-9394-4d87d50e4a59","ios":"levelo://app?vid=085fe6a8-e12b-493b-9394-4d87d50e4a59"},"vehicle_type_id":"4","last_reported":1718046393,"current_range_meters":800,"station_id":"ce4bh3p2rcd13ifvqdp0","pricing_plan_id":"cebpf4jnsgd1na2vs0mg"},{"bike_id":"b92e8af7-d4a3-411c-aa8f-ed7039aa7fc1","system_id":"levelo_inurba_marseille","lat":43.33022,"lon":5.39045,"is_reserved":false,"is_disabled":false,"rental_uris":{"android":"levelo://app?vid=b92e8af7-d4a3-411c-aa8f-ed7039aa7fc1","ios":"levelo://app?vid=b92e8af7-d4a3-411c-aa8f-ed7039aa7fc1"},"vehicle_type_id":"4","last_reported":1718046393,"current_range_meters":0,"station_id":"ce4bhr92rcd13ifvqhrg","pricing_plan_id":"cebpf4jnsgd1na2vs0mg"},{"bike_id":"d7130989-eaa2-49f9-9c44-33811e7d20b9","system_id":"levelo_inurba_marseille","lat":43.295169,"lon":5.390426,"is_reserved":false,"is_disabled":false,"rental_uris":{"android":"levelo://app?vid=d7130989-eaa2-49f9-9c44-33811e7d20b9","ios":"levelo://app?vid=d7130989-eaa2-49f9-9c44-33811e7d20b9"},"vehicle_type_id":"4","last_reported":1718046393,"current_range_meters":14000,"station_id":"ce4bh3p2rcd13ifvqdp0","pricing_plan_id":"cebpf4jnsgd1na2vs0mg"},{"bike_id":"90c8cb18-3af5-456a-a813-e995cd777346","system_id":"levelo_inurba_marseille","lat":43.297815,"lon":5.393548,"is_reserved":false,"is_disabled":false,"rental_uris":{"android":"levelo://app?vid=90c8cb18-3af5-456a-a813-e995cd777346","ios":"levelo://app?vid=90c8cb18-3af5-456a-a813-e995cd777346"},"vehicle_type_id":"4","last_reported":1718046393,"current_range_meters":16400,"station_id":"chh1huq6cuj3fo74tm60","pricing_plan_id":"cebpf4jnsgd1na2vs0mg"},{"bike_id":"481e70c5-d737-4206-a915-248c287a2800","system_id":"levelo_inurba_marseille","lat":43.286961,"lon":5.373785,"is_reserved":false,"is_disabled":false,"rental_uris":{"android":"levelo://app?vid=481e70c5-d737-4206-a915-248c287a2800","ios":"levelo://app?vid=481e70c5-d737-4206-a915-248c287a2800"},"vehicle_type_id":"4","last_reported":1718046393,"current_range_meters":7600,"station_id":"ce4bh3p2rcd13ifvqdq0","pricing_plan_id":"cebpf4jnsgd1na2vs0mg"},{"bike_id":"d04200a4-dbb4-4f21-afaf-62813eda3b23","system_id":"levelo_inurba_marseille","lat":43.297409,"lon":5.39343,"is_reserved":false,"is_disabled":false,"rental_uris":{"android":"levelo://app?vid=d04200a4-dbb4-4f21-afaf-62813eda3b23","ios":"levelo://app?vid=d04200a4-dbb4-4f21-afaf-62813eda3b23"},"vehicle_type_id":"4","last_reported":1718046393,"current_range_meters":30800,"station_id":"chh1huq6cuj3fo74tm60","pricing_plan_id":"cebpf4jnsgd1na2vs0mg"},{"bike_id":"5e04b92f-13a1-4cb5-8044-8a13ca2b1b37","system_id":"levelo_inurba_marseille","lat":43.289551,"lon":5.378427,"is_reserved":false,"is_disabled":false,"rental_uris":{"android":"levelo://app?vid=5e04b92f-13a1-4cb5-8044-8a13ca2b1b37","ios":"levelo://app?vid=5e04b92f-13a1-4cb5-8044-8a13ca2b1b37"},"vehicle_type_id":"4","last_reported":1718046393,"current_range_meters":28400,"station_id":"ce4bh9p2rcd13ifvqed0","pricing_plan_id":"cebpf4jnsgd1na2vs0mg"},{"bike_id":"3f46d27a-4b3e-40a1-bbff-026a8e7cac08","system_id":"levelo_inurba_marseille","lat":43.290079,"lon":5.381231,"is_reserved":false,"is_disabled":false,"rental_uris":{"android":"levelo://app?vid=3f46d27a-4b3e-40a1-bbff-026a8e7cac08","ios":"levelo://app?vid=3f46d27a-4b3e-40a1-bbff-026a8e7cac08"},"vehicle_type_id":"4","last_reported":1718046393,"current_range_meters":0,"station_id":"ce4bh4p2rcd13ifvqe1g","pricing_plan_id":"cebpf4jnsgd1na2vs0mg"},{"bike_id":"145a36dd-7b6d-40d9-8c1b-9ab625a429d5","system_id":"levelo_inurba_marseille","lat":43.28856,"lon":5.358371,"is_reserved":false,"is_disabled":false,"rental_uris":{"android":"levelo://app?vid=145a36dd-7b6d-40d9-8c1b-9ab625a429d5","ios":"levelo://app?vid=145a36dd-7b6d-40d9-8c1b-9ab625a429d5"},"vehicle_type_id":"4","last_reported":1718046393,"current_range_meters":25600,"station_id":"ce4bhb12rcd13ifvqem0","pricing_plan_id":"cebpf4jnsgd1na2vs0mg"},{"bike_id":"36715d94-0798-413a-b7b4-d89ff805696e","system_id":"levelo_inurba_marseille","lat":43.28856,"lon":5.358371,"is_reserved":false,"is_disabled":false,"rental_uris":{"android":"levelo://app?vid=36715d94-0798-413a-b7b4-d89ff805696e","ios":"levelo://app?vid=36715d94-0798-413a-b7b4-d89ff805696e"},"vehicle_type_id":"4","last_reported":1718046393,"current_range_meters":4800,"station_id":"ce4bhb12rcd13ifvqem0","pricing_plan_id":"cebpf4jnsgd1na2vs0mg"},{"bike_id":"3c0324c5-c393-43fa-8dcd-aa986d88a712","system_id":"levelo_inurba_marseille","lat":43.29175,"lon":5.38605,"is_reserved":false,"is_disabled":false,"rental_uris":{"android":"levelo://app?vid=3c0324c5-c393-43fa-8dcd-aa986d88a712","ios":"levelo://app?vid=3c0324c5-c393-43fa-8dcd-aa986d88a712"},"vehicle_type_id":"4","last_reported":1718046393,"current_range_meters":16000,"station_id":"","pricing_plan_id":"cebpf4jnsgd1na2vs0mg"},{"bike_id":"c40f01b7-df28-40eb-98f3-fd2b90372b6f","system_id":"levelo_inurba_marseille","lat":43.31266,"lon":5.40163,"is_reserved":false,"is_disabled":false,"rental_uris":{"android":"levelo://app?vid=c40f01b7-df28-40eb-98f3-fd2b90372b6f","ios":"levelo://app?vid=c40f01b7-df28-40eb-98f3-fd2b90372b6f"},"vehicle_type_id":"4","last_reported":1718046393,"current_range_meters":4000,"station_id":"ce4bh092rcd13ifvqd30","pricing_plan_id":"cebpf4jnsgd1na2vs0mg"},{"bike_id":"bbe016a4-fa21-468a-b39a-032a173376cb","system_id":"levelo_inurba_marseille","lat":43.309371,"lon":5.401449,"is_reserved":false,"is_disabled":false,"rental_uris":{"android":"levelo://app?vid=bbe016a4-fa21-468a-b39a-032a173376cb","ios":"levelo://app?vid=bbe016a4-fa21-468a-b39a-032a173376cb"},"vehicle_type_id":"4","last_reported":1718046393,"current_range_meters":15600,"station_id":"ce4bgvp2rcd13ifvqct0","pricing_plan_id":"cebpf4jnsgd1na2vs0mg"},{"bike_id":"b17e867e-c0f6-49c1-b91a-7b354ca6d67b","system_id":"levelo_inurba_marseille","lat":43.337444,"lon":5.374475,"is_reserved":false,"is_disabled":false,"rental_uris":{"android":"levelo://app?vid=b17e867e-c0f6-49c1-b91a-7b354ca6d67b","ios":"levelo://app?vid=b17e867e-c0f6-49c1-b91a-7b354ca6d67b"},"vehicle_type_id":"4","last_reported":1718046393,"current_range_meters":30800,"station_id":"","pricing_plan_id":"cebpf4jnsgd1na2vs0mg"},{"bike_id":"4396aaa5-71a2-4c2b-998c-c744a777bc41","system_id":"levelo_inurba_marseille","lat":43.312609,"lon":5.401662,"is_reserved":false,"is_disabled":false,"rental_uris":{"android":"levelo://app?vid=4396aaa5-71a2-4c2b-998c-c744a777bc41","ios":"levelo://app?vid=4396aaa5-71a2-4c2b-998c-c744a777bc41"},"vehicle_type_id":"4","last_reported":1718046393,"current_range_meters":22400,"station_id":"ce4bh092rcd13ifvqd30","pricing_plan_id":"cebpf4jnsgd1na2vs0mg"},{"bike_id":"1c505e53-8997-4d53-ada3-736d8d3cf9e2","system_id":"levelo_inurba_marseille","lat":43.30645,"lon":5.40069,"is_reserved":false,"is_disabled":false,"rental_uris":{"android":"levelo://app?vid=1c505e53-8997-4d53-ada3-736d8d3cf9e2","ios":"levelo://app?vid=1c505e53-8997-4d53-ada3-736d8d3cf9e2"},"vehicle_type_id":"4","last_reported":1718046393,"current_range_meters":0,"station_id":"ce4bh112rcd13ifvqda0","pricing_plan_id":"cebpf4jnsgd1na2vs0mg"},{"bike_id":"a0e046dd-fc0a-4d14-87f2-86e414c80339","system_id":"levelo_inurba_marseille","lat":43.309371,"lon":5.401449,"is_reserved":false,"is_disabled":false,"rental_uris":{"android":"levelo://app?vid=a0e046dd-fc0a-4d14-87f2-86e414c80339","ios":"levelo://app?vid=a0e046dd-fc0a-4d14-87f2-86e414c80339"},"vehicle_type_id":"4","last_reported":1718046393,"current_range_meters":10000,"station_id":"ce4bgvp2rcd13ifvqct0","pricing_plan_id":"cebpf4jnsgd1na2vs0mg"},{"bike_id":"2edd7024-d9ac-40f4-a4d6-9dd09c07648c","system_id":"levelo_inurba_marseille","lat":43.309371,"lon":5.401449,"is_reserved":false,"is_disabled":false,"rental_uris":{"android":"levelo://app?vid=2edd7024-d9ac-40f4-a4d6-9dd09c07648c","ios":"levelo://app?vid=2edd7024-d9ac-40f4-a4d6-9dd09c07648c"},"vehicle_type_id":"4","last_reported":1718046393,"current_range_meters":5200,"station_id":"ce4bgvp2rcd13ifvqct0","pricing_plan_id":"cebpf4jnsgd1na2vs0mg"},{"bike_id":"58e8b916-c44f-4c8a-9407-698e8f6d9d5c","system_id":"levelo_inurba_marseille","lat":43.337591,"lon":5.374541,"is_reserved":false,"is_disabled":false,"rental_uris":{"android":"levelo://app?vid=58e8b916-c44f-4c8a-9407-698e8f6d9d5c","ios":"levelo://app?vid=58e8b916-c44f-4c8a-9407-698e8f6d9d5c"},"vehicle_type_id":"4","last_reported":1718046393,"current_range_meters":8400,"station_id":"","pricing_plan_id":"cebpf4jnsgd1na2vs0mg"},{"bike_id":"e387e881-4380-48cf-bd89-00a8390556fd","system_id":"levelo_inurba_marseille","lat":43.30642,"lon":5.401031,"is_reserved":false,"is_disabled":false,"rental_uris":{"android":"levelo://app?vid=e387e881-4380-48cf-bd89-00a8390556fd","ios":"levelo://app?vid=e387e881-4380-48cf-bd89-00a8390556fd"},"vehicle_type_id":"4","last_reported":1718046393,"current_range_meters":12400,"station_id":"ce4bh112rcd13ifvqda0","pricing_plan_id":"cebpf4jnsgd1na2vs0mg"},{"bike_id":"905b8dc4-b59a-4c8d-b4d8-3839a64e32a0","system_id":"levelo_inurba_marseille","lat":43.301117,"lon":5.398795,"is_reserved":false,"is_disabled":false,"rental_uris":{"android":"levelo://app?vid=905b8dc4-b59a-4c8d-b4d8-3839a64e32a0","ios":"levelo://app?vid=905b8dc4-b59a-4c8d-b4d8-3839a64e32a0"},"vehicle_type_id":"4","last_reported":1718046393,"current_range_meters":5600,"station_id":"ce4bh0h2rcd13ifvqd40","pricing_plan_id":"cebpf4jnsgd1na2vs0mg"},{"bike_id":"c967d16d-c265-46f7-92da-e45566e52ee4","system_id":"levelo_inurba_marseille","lat":43.306412,"lon":5.401035,"is_reserved":false,"is_disabled":false,"rental_uris":{"android":"levelo://app?vid=c967d16d-c265-46f7-92da-e45566e52ee4","ios":"levelo://app?vid=c967d16d-c265-46f7-92da-e45566e52ee4"},"vehicle_type_id":"4","last_reported":1718046393,"current_range_meters":2800,"station_id":"ce4bh112rcd13ifvqda0","pricing_plan_id":"cebpf4jnsgd1na2vs0mg"},{"bike_id":"e45f581f-c822-454b-8d18-de0640f655c3","system_id":"levelo_inurba_marseille","lat":43.29795,"lon":5.404086,"is_reserved":false,"is_disabled":false,"rental_uris":{"android":"levelo://app?vid=e45f581f-c822-454b-8d18-de0640f655c3","ios":"levelo://app?vid=e45f581f-c822-454b-8d18-de0640f655c3"},"vehicle_type_id":"4","last_reported":1718046393,"current_range_meters":6800,"station_id":"ce4bh112rcd13ifvqd90","pricing_plan_id":"cebpf4jnsgd1na2vs0mg"},{"bike_id":"7e18bccc-c6a0-41dc-befe-fa77d6c28d65","system_id":"levelo_inurba_marseille","lat":43.306412,"lon":5.401035,"is_reserved":false,"is_disabled":false,"rental_uris":{"android":"levelo://app?vid=7e18bccc-c6a0-41dc-befe-fa77d6c28d65","ios":"levelo://app?vid=7e18bccc-c6a0-41dc-befe-fa77d6c28d65"},"vehicle_type_id":"4","last_reported":1718046393,"current_range_meters":400,"station_id":"ce4bh112rcd13ifvqda0","pricing_plan_id":"cebpf4jnsgd1na2vs0mg"},{"bike_id":"67873329-c88f-4d14-bbef-45c1533fec16","system_id":"levelo_inurba_marseille","lat":43.301117,"lon":5.398795,"is_reserved":false,"is_disabled":false,"rental_uris":{"android":"levelo://app?vid=67873329-c88f-4d14-bbef-45c1533fec16","ios":"levelo://app?vid=67873329-c88f-4d14-bbef-45c1533fec16"},"vehicle_type_id":"4","last_reported":1718046393,"current_range_meters":29600,"station_id":"ce4bh0h2rcd13ifvqd40","pricing_plan_id":"cebpf4jnsgd1na2vs0mg"},{"bike_id":"77853772-8ba2-4f73-8655-bd53cf1bdcdc","system_id":"levelo_inurba_marseille","lat":43.287185,"lon":5.379373,"is_reserved":false,"is_disabled":false,"rental_uris":{"android":"levelo://app?vid=77853772-8ba2-4f73-8655-bd53cf1bdcdc","ios":"levelo://app?vid=77853772-8ba2-4f73-8655-bd53cf1bdcdc"},"vehicle_type_id":"4","last_reported":1718046393,"current_range_meters":3600,"station_id":"ce4bh9p2rcd13ifvqec0","pricing_plan_id":"cebpf4jnsgd1na2vs0mg"},{"bike_id":"432a6239-d6e5-4dbd-bf30-ab3633d4a58e","system_id":"levelo_inurba_marseille","lat":43.287307,"lon":5.373789,"is_reserved":false,"is_disabled":false,"rental_uris":{"android":"levelo://app?vid=432a6239-d6e5-4dbd-bf30-ab3633d4a58e","ios":"levelo://app?vid=432a6239-d6e5-4dbd-bf30-ab3633d4a58e"},"vehicle_type_id":"4","last_reported":1718046393,"current_range_meters":2400,"station_id":"ce4bh3p2rcd13ifvqdq0","pricing_plan_id":"cebpf4jnsgd1na2vs0mg"},{"bike_id":"e2829e15-c8a6-41c8-aa91-4aff8adef0a3","system_id":"levelo_inurba_marseille","lat":43.2871,"lon":5.37403,"is_reserved":false,"is_disabled":false,"rental_uris":{"android":"levelo://app?vid=e2829e15-c8a6-41c8-aa91-4aff8adef0a3","ios":"levelo://app?vid=e2829e15-c8a6-41c8-aa91-4aff8adef0a3"},"vehicle_type_id":"4","last_reported":1718046393,"current_range_meters":0,"station_id":"ce4bh3p2rcd13ifvqdq0","pricing_plan_id":"cebpf4jnsgd1na2vs0mg"},{"bike_id":"457e06de-072f-49f7-847c-ff4b93934192","system_id":"levelo_inurba_marseille","lat":43.312609,"lon":5.401662,"is_reserved":false,"is_disabled":false,"rental_uris":{"android":"levelo://app?vid=457e06de-072f-49f7-847c-ff4b93934192","ios":"levelo://app?vid=457e06de-072f-49f7-847c-ff4b93934192"},"vehicle_type_id":"4","last_reported":1718046393,"current_range_meters":17600,"station_id":"ce4bh092rcd13ifvqd30","pricing_plan_id":"cebpf4jnsgd1na2vs0mg"},{"bike_id":"d3d61ed1-451c-4c11-bc51-dc5da61e3857","system_id":"levelo_inurba_marseille","lat":43.290336,"lon":5.386425,"is_reserved":false,"is_disabled":false,"rental_uris":{"android":"levelo://app?vid=d3d61ed1-451c-4c11-bc51-dc5da61e3857","ios":"levelo://app?vid=d3d61ed1-451c-4c11-bc51-dc5da61e3857"},"vehicle_type_id":"4","last_reported":1718046393,"current_range_meters":0,"station_id":"ce4bh4p2rcd13ifvqe0g","pricing_plan_id":"cebpf4jnsgd1na2vs0mg"},{"bike_id":"eeba3be2-ad46-49d3-acd1-3fa3f2425cf8","system_id":"levelo_inurba_marseille","lat":43.301117,"lon":5.398795,"is_reserved":false,"is_disabled":false,"rental_uris":{"android":"levelo://app?vid=eeba3be2-ad46-49d3-acd1-3fa3f2425cf8","ios":"levelo://app?vid=eeba3be2-ad46-49d3-acd1-3fa3f2425cf8"},"vehicle_type_id":"4","last_reported":1718046393,"current_range_meters":10000,"station_id":"ce4bh0h2rcd13ifvqd40","pricing_plan_id":"cebpf4jnsgd1na2vs0mg"},{"bike_id":"e421d3c4-f5ba-490f-9042-8efffcf3b804","system_id":"levelo_inurba_marseille","lat":43.298681,"lon":5.397225,"is_reserved":false,"is_disabled":false,"rental_uris":{"android":"levelo://app?vid=e421d3c4-f5ba-490f-9042-8efffcf3b804","ios":"levelo://app?vid=e421d3c4-f5ba-490f-9042-8efffcf3b804"},"vehicle_type_id":"4","last_reported":1718046393,"current_range_meters":14800,"station_id":"ce4bh0h2rcd13ifvqd50","pricing_plan_id":"cebpf4jnsgd1na2vs0mg"},{"bike_id":"ed9cf4f6-4a83-4eb6-8acc-86dc4628cac4","system_id":"levelo_inurba_marseille","lat":43.286591,"lon":5.363346,"is_reserved":false,"is_disabled":false,"rental_uris":{"android":"levelo://app?vid=ed9cf4f6-4a83-4eb6-8acc-86dc4628cac4","ios":"levelo://app?vid=ed9cf4f6-4a83-4eb6-8acc-86dc4628cac4"},"vehicle_type_id":"4","last_reported":1718046393,"current_range_meters":1200,"station_id":"ce4bhah2rcd13ifvqej0","pricing_plan_id":"cebpf4jnsgd1na2vs0mg"},{"bike_id":"d54ab6c2-23db-42db-895f-18864060abfd","system_id":"levelo_inurba_marseille","lat":43.286961,"lon":5.373785,"is_reserved":false,"is_disabled":false,"rental_uris":{"android":"levelo://app?vid=d54ab6c2-23db-42db-895f-18864060abfd","ios":"levelo://app?vid=d54ab6c2-23db-42db-895f-18864060abfd"},"vehicle_type_id":"4","last_reported":1718046393,"current_range_meters":9600,"station_id":"ce4bh3p2rcd13ifvqdq0","pricing_plan_id":"cebpf4jnsgd1na2vs0mg"},{"bike_id":"8bf5b2a7-e557-4dcc-b630-dbc4d633239f","system_id":"levelo_inurba_marseille","lat":43.286961,"lon":5.373785,"is_reserved":false,"is_disabled":false,"rental_uris":{"android":"levelo://app?vid=8bf5b2a7-e557-4dcc-b630-dbc4d633239f","ios":"levelo://app?vid=8bf5b2a7-e557-4dcc-b630-dbc4d633239f"},"vehicle_type_id":"4","last_reported":1718046393,"current_range_meters":6800,"station_id":"ce4bh3p2rcd13ifvqdq0","pricing_plan_id":"cebpf4jnsgd1na2vs0mg"},{"bike_id":"aa121863-7c58-42a3-86ef-d1032b7f8010","system_id":"levelo_inurba_marseille","lat":43.286961,"lon":5.373785,"is_reserved":false,"is_disabled":false,"rental_uris":{"android":"levelo://app?vid=aa121863-7c58-42a3-86ef-d1032b7f8010","ios":"levelo://app?vid=aa121863-7c58-42a3-86ef-d1032b7f8010"},"vehicle_type_id":"4","last_reported":1718046393,"current_range_meters":10000,"station_id":"ce4bh3p2rcd13ifvqdq0","pricing_plan_id":"cebpf4jnsgd1na2vs0mg"},{"bike_id":"704a07d5-452d-4293-8c8f-7b88f0f5f307","system_id":"levelo_inurba_marseille","lat":43.286986,"lon":5.373957,"is_reserved":false,"is_disabled":false,"rental_uris":{"android":"levelo://app?vid=704a07d5-452d-4293-8c8f-7b88f0f5f307","ios":"levelo://app?vid=704a07d5-452d-4293-8c8f-7b88f0f5f307"},"vehicle_type_id":"4","last_reported":1718046393,"current_range_meters":19200,"station_id":"ce4bh3p2rcd13ifvqdq0","pricing_plan_id":"cebpf4jnsgd1na2vs0mg"},{"bike_id":"c9512ae8-1ca5-49d5-9979-f77652e35225","system_id":"levelo_inurba_marseille","lat":43.286593,"lon":5.363346,"is_reserved":false,"is_disabled":false,"rental_uris":{"android":"levelo://app?vid=c9512ae8-1ca5-49d5-9979-f77652e35225","ios":"levelo://app?vid=c9512ae8-1ca5-49d5-9979-f77652e35225"},"vehicle_type_id":"4","last_reported":1718046393,"current_range_meters":3600,"station_id":"ce4bhah2rcd13ifvqej0","pricing_plan_id":"cebpf4jnsgd1na2vs0mg"},{"bike_id":"03fe3b6a-9904-4cbf-bc64-e63998c485b2","system_id":"levelo_inurba_marseille","lat":43.286961,"lon":5.373785,"is_reserved":false,"is_disabled":false,"rental_uris":{"android":"levelo://app?vid=03fe3b6a-9904-4cbf-bc64-e63998c485b2","ios":"levelo://app?vid=03fe3b6a-9904-4cbf-bc64-e63998c485b2"},"vehicle_type_id":"4","last_reported":1718046393,"current_range_meters":15200,"station_id":"ce4bh3p2rcd13ifvqdq0","pricing_plan_id":"cebpf4jnsgd1na2vs0mg"},{"bike_id":"4d61088b-cd8e-4f81-bbc9-ca14908f223b","system_id":"levelo_inurba_marseille","lat":43.286593,"lon":5.363346,"is_reserved":false,"is_disabled":false,"rental_uris":{"android":"levelo://app?vid=4d61088b-cd8e-4f81-bbc9-ca14908f223b","ios":"levelo://app?vid=4d61088b-cd8e-4f81-bbc9-ca14908f223b"},"vehicle_type_id":"4","last_reported":1718046393,"current_range_meters":29200,"station_id":"ce4bhah2rcd13ifvqej0","pricing_plan_id":"cebpf4jnsgd1na2vs0mg"},{"bike_id":"2aa167d3-0b6b-4751-b849-449ecee4bc44","system_id":"levelo_inurba_marseille","lat":43.298681,"lon":5.397225,"is_reserved":false,"is_disabled":false,"rental_uris":{"android":"levelo://app?vid=2aa167d3-0b6b-4751-b849-449ecee4bc44","ios":"levelo://app?vid=2aa167d3-0b6b-4751-b849-449ecee4bc44"},"vehicle_type_id":"4","last_reported":1718046393,"current_range_meters":7200,"station_id":"ce4bh0h2rcd13ifvqd50","pricing_plan_id":"cebpf4jnsgd1na2vs0mg"},{"bike_id":"0e1b409c-99d0-4853-9da7-f7800c7b38a5","system_id":"levelo_inurba_marseille","lat":43.295196,"lon":5.39397,"is_reserved":false,"is_disabled":false,"rental_uris":{"android":"levelo://app?vid=0e1b409c-99d0-4853-9da7-f7800c7b38a5","ios":"levelo://app?vid=0e1b409c-99d0-4853-9da7-f7800c7b38a5"},"vehicle_type_id":"4","last_reported":1718046393,"current_range_meters":4000,"station_id":"ce4bh292rcd13ifvqdf0","pricing_plan_id":"cebpf4jnsgd1na2vs0mg"},{"bike_id":"25c11cb5-2e5f-4545-a99e-42ca51e51db7","system_id":"levelo_inurba_marseille","lat":43.289307,"lon":5.38406,"is_reserved":false,"is_disabled":false,"rental_uris":{"android":"levelo://app?vid=25c11cb5-2e5f-4545-a99e-42ca51e51db7","ios":"levelo://app?vid=25c11cb5-2e5f-4545-a99e-42ca51e51db7"},"vehicle_type_id":"4","last_reported":1718046393,"current_range_meters":28000,"station_id":"ce4bh612rcd13ifvqe6g","pricing_plan_id":"cebpf4jnsgd1na2vs0mg"},{"bike_id":"f90211e8-278e-4927-a9c0-e01b12ff8836","system_id":"levelo_inurba_marseille","lat":43.289307,"lon":5.38406,"is_reserved":false,"is_disabled":false,"rental_uris":{"android":"levelo://app?vid=f90211e8-278e-4927-a9c0-e01b12ff8836","ios":"levelo://app?vid=f90211e8-278e-4927-a9c0-e01b12ff8836"},"vehicle_type_id":"4","last_reported":1718046393,"current_range_meters":19600,"station_id":"ce4bh612rcd13ifvqe6g","pricing_plan_id":"cebpf4jnsgd1na2vs0mg"},{"bike_id":"ad26d8ea-38e8-4995-ba49-c5554e98e429","system_id":"levelo_inurba_marseille","lat":43.30424,"lon":5.40133,"is_reserved":false,"is_disabled":false,"rental_uris":{"android":"levelo://app?vid=ad26d8ea-38e8-4995-ba49-c5554e98e429","ios":"levelo://app?vid=ad26d8ea-38e8-4995-ba49-c5554e98e429"},"vehicle_type_id":"4","last_reported":1718046393,"current_range_meters":25200,"station_id":"","pricing_plan_id":"cebpf4jnsgd1na2vs0mg"},{"bike_id":"71f54ee6-b765-44a2-9c78-48b158f57b5d","system_id":"levelo_inurba_marseille","lat":43.295194,"lon":5.39397,"is_reserved":false,"is_disabled":false,"rental_uris":{"android":"levelo://app?vid=71f54ee6-b765-44a2-9c78-48b158f57b5d","ios":"levelo://app?vid=71f54ee6-b765-44a2-9c78-48b158f57b5d"},"vehicle_type_id":"4","last_reported":1718046393,"current_range_meters":0,"station_id":"ce4bh292rcd13ifvqdf0","pricing_plan_id":"cebpf4jnsgd1na2vs0mg"},{"bike_id":"af3d7ae0-c638-40e5-9355-2974de148b1e","system_id":"levelo_inurba_marseille","lat":43.290345,"lon":5.38646,"is_reserved":false,"is_disabled":false,"rental_uris":{"android":"levelo://app?vid=af3d7ae0-c638-40e5-9355-2974de148b1e","ios":"levelo://app?vid=af3d7ae0-c638-40e5-9355-2974de148b1e"},"vehicle_type_id":"4","last_reported":1718046393,"current_range_meters":12000,"station_id":"ce4bh4p2rcd13ifvqe0g","pricing_plan_id":"cebpf4jnsgd1na2vs0mg"},{"bike_id":"45644731-ca02-40ae-b6f3-2c2efe19604f","system_id":"levelo_inurba_marseille","lat":43.290295,"lon":5.386286,"is_reserved":false,"is_disabled":false,"rental_uris":{"android":"levelo://app?vid=45644731-ca02-40ae-b6f3-2c2efe19604f","ios":"levelo://app?vid=45644731-ca02-40ae-b6f3-2c2efe19604f"},"vehicle_type_id":"4","last_reported":1718046393,"current_range_meters":0,"station_id":"ce4bh4p2rcd13ifvqe0g","pricing_plan_id":"cebpf4jnsgd1na2vs0mg"},{"bike_id":"5c51b38d-af6c-4487-a7f9-9cad3c2addf6","system_id":"levelo_inurba_marseille","lat":43.290345,"lon":5.38646,"is_reserved":false,"is_disabled":false,"rental_uris":{"android":"levelo://app?vid=5c51b38d-af6c-4487-a7f9-9cad3c2addf6","ios":"levelo://app?vid=5c51b38d-af6c-4487-a7f9-9cad3c2addf6"},"vehicle_type_id":"4","last_reported":1718046393,"current_range_meters":24000,"station_id":"ce4bh4p2rcd13ifvqe0g","pricing_plan_id":"cebpf4jnsgd1na2vs0mg"},{"bike_id":"a2d40737-486f-482f-8194-c03b7800c038","system_id":"levelo_inurba_marseille","lat":43.290336,"lon":5.386425,"is_reserved":false,"is_disabled":false,"rental_uris":{"android":"levelo://app?vid=a2d40737-486f-482f-8194-c03b7800c038","ios":"levelo://app?vid=a2d40737-486f-482f-8194-c03b7800c038"},"vehicle_type_id":"4","last_reported":1718046393,"current_range_meters":14000,"station_id":"ce4bh4p2rcd13ifvqe0g","pricing_plan_id":"cebpf4jnsgd1na2vs0mg"},{"bike_id":"51954a1d-db1b-4f36-abd0-2c9e0dbf8a75","system_id":"levelo_inurba_marseille","lat":43.290345,"lon":5.38646,"is_reserved":false,"is_disabled":false,"rental_uris":{"android":"levelo://app?vid=51954a1d-db1b-4f36-abd0-2c9e0dbf8a75","ios":"levelo://app?vid=51954a1d-db1b-4f36-abd0-2c9e0dbf8a75"},"vehicle_type_id":"4","last_reported":1718046393,"current_range_meters":0,"station_id":"ce4bh4p2rcd13ifvqe0g","pricing_plan_id":"cebpf4jnsgd1na2vs0mg"},{"bike_id":"179f8f53-df95-4c83-9e73-a5959b02c1cd","system_id":"levelo_inurba_marseille","lat":43.290345,"lon":5.38646,"is_reserved":false,"is_disabled":false,"rental_uris":{"android":"levelo://app?vid=179f8f53-df95-4c83-9e73-a5959b02c1cd","ios":"levelo://app?vid=179f8f53-df95-4c83-9e73-a5959b02c1cd"},"vehicle_type_id":"4","last_reported":1718046393,"current_range_meters":7600,"station_id":"ce4bh4p2rcd13ifvqe0g","pricing_plan_id":"cebpf4jnsgd1na2vs0mg"},{"bike_id":"f684aca4-c75b-4a2a-a07c-52e819db48d6","system_id":"levelo_inurba_marseille","lat":43.289307,"lon":5.38406,"is_reserved":false,"is_disabled":false,"rental_uris":{"android":"levelo://app?vid=f684aca4-c75b-4a2a-a07c-52e819db48d6","ios":"levelo://app?vid=f684aca4-c75b-4a2a-a07c-52e819db48d6"},"vehicle_type_id":"4","last_reported":1718046393,"current_range_meters":16400,"station_id":"ce4bh612rcd13ifvqe6g","pricing_plan_id":"cebpf4jnsgd1na2vs0mg"},{"bike_id":"4ae966bb-43f5-44c0-9ae9-5bc2a480204d","system_id":"levelo_inurba_marseille","lat":43.290336,"lon":5.386425,"is_reserved":false,"is_disabled":false,"rental_uris":{"android":"levelo://app?vid=4ae966bb-43f5-44c0-9ae9-5bc2a480204d","ios":"levelo://app?vid=4ae966bb-43f5-44c0-9ae9-5bc2a480204d"},"vehicle_type_id":"4","last_reported":1718046393,"current_range_meters":1200,"station_id":"ce4bh4p2rcd13ifvqe0g","pricing_plan_id":"cebpf4jnsgd1na2vs0mg"},{"bike_id":"ce2c880d-fa54-47fb-b33c-ffdcdfb438eb","system_id":"levelo_inurba_marseille","lat":43.290345,"lon":5.38646,"is_reserved":false,"is_disabled":false,"rental_uris":{"android":"levelo://app?vid=ce2c880d-fa54-47fb-b33c-ffdcdfb438eb","ios":"levelo://app?vid=ce2c880d-fa54-47fb-b33c-ffdcdfb438eb"},"vehicle_type_id":"4","last_reported":1718046393,"current_range_meters":0,"station_id":"ce4bh4p2rcd13ifvqe0g","pricing_plan_id":"cebpf4jnsgd1na2vs0mg"},{"bike_id":"4ccf3020-ee88-4f61-b2e7-6cde3dd5a4b4","system_id":"levelo_inurba_marseille","lat":43.289218,"lon":5.383911,"is_reserved":false,"is_disabled":false,"rental_uris":{"android":"levelo://app?vid=4ccf3020-ee88-4f61-b2e7-6cde3dd5a4b4","ios":"levelo://app?vid=4ccf3020-ee88-4f61-b2e7-6cde3dd5a4b4"},"vehicle_type_id":"4","last_reported":1718046393,"current_range_meters":0,"station_id":"ce4bh612rcd13ifvqe6g","pricing_plan_id":"cebpf4jnsgd1na2vs0mg"},{"bike_id":"731f1dd2-6ce8-4d08-a483-92dface27b6b","system_id":"levelo_inurba_marseille","lat":43.2903,"lon":5.38649,"is_reserved":false,"is_disabled":false,"rental_uris":{"android":"levelo://app?vid=731f1dd2-6ce8-4d08-a483-92dface27b6b","ios":"levelo://app?vid=731f1dd2-6ce8-4d08-a483-92dface27b6b"},"vehicle_type_id":"4","last_reported":1718046393,"current_range_meters":0,"station_id":"ce4bh4p2rcd13ifvqe0g","pricing_plan_id":"cebpf4jnsgd1na2vs0mg"},{"bike_id":"9ed37421-3307-4921-a9eb-9f2a85f84e2f","system_id":"levelo_inurba_marseille","lat":43.28924,"lon":5.384,"is_reserved":false,"is_disabled":false,"rental_uris":{"android":"levelo://app?vid=9ed37421-3307-4921-a9eb-9f2a85f84e2f","ios":"levelo://app?vid=9ed37421-3307-4921-a9eb-9f2a85f84e2f"},"vehicle_type_id":"4","last_reported":1718046393,"current_range_meters":0,"station_id":"ce4bh612rcd13ifvqe6g","pricing_plan_id":"cebpf4jnsgd1na2vs0mg"},{"bike_id":"0e3c0462-71ea-4888-b004-8b84ddf52f2a","system_id":"levelo_inurba_marseille","lat":43.290345,"lon":5.38646,"is_reserved":false,"is_disabled":false,"rental_uris":{"android":"levelo://app?vid=0e3c0462-71ea-4888-b004-8b84ddf52f2a","ios":"levelo://app?vid=0e3c0462-71ea-4888-b004-8b84ddf52f2a"},"vehicle_type_id":"4","last_reported":1718046393,"current_range_meters":0,"station_id":"ce4bh4p2rcd13ifvqe0g","pricing_plan_id":"cebpf4jnsgd1na2vs0mg"},{"bike_id":"cc631f6b-3397-477c-9c96-251a4dd6e7ce","system_id":"levelo_inurba_marseille","lat":43.290336,"lon":5.386425,"is_reserved":false,"is_disabled":false,"rental_uris":{"android":"levelo://app?vid=cc631f6b-3397-477c-9c96-251a4dd6e7ce","ios":"levelo://app?vid=cc631f6b-3397-477c-9c96-251a4dd6e7ce"},"vehicle_type_id":"4","last_reported":1718046393,"current_range_meters":12000,"station_id":"ce4bh4p2rcd13ifvqe0g","pricing_plan_id":"cebpf4jnsgd1na2vs0mg"},{"bike_id":"f2647331-4624-4981-9744-cf63ae1c3a39","system_id":"levelo_inurba_marseille","lat":43.290211,"lon":5.386435,"is_reserved":false,"is_disabled":false,"rental_uris":{"android":"levelo://app?vid=f2647331-4624-4981-9744-cf63ae1c3a39","ios":"levelo://app?vid=f2647331-4624-4981-9744-cf63ae1c3a39"},"vehicle_type_id":"4","last_reported":1718046393,"current_range_meters":0,"station_id":"ce4bh4p2rcd13ifvqe0g","pricing_plan_id":"cebpf4jnsgd1na2vs0mg"},{"bike_id":"5f9c4b8f-b7ed-46cc-8c28-10f40416b2e0","system_id":"levelo_inurba_marseille","lat":43.302759,"lon":5.400793,"is_reserved":false,"is_disabled":false,"rental_uris":{"android":"levelo://app?vid=5f9c4b8f-b7ed-46cc-8c28-10f40416b2e0","ios":"levelo://app?vid=5f9c4b8f-b7ed-46cc-8c28-10f40416b2e0"},"vehicle_type_id":"4","last_reported":1718046393,"current_range_meters":13200,"station_id":"ce4bgvh2rcd13ifvqcs0","pricing_plan_id":"cebpf4jnsgd1na2vs0mg"},{"bike_id":"3df61b7a-4f5b-4181-b31f-4be478f23279","system_id":"levelo_inurba_marseille","lat":43.286039,"lon":5.370681,"is_reserved":false,"is_disabled":false,"rental_uris":{"android":"levelo://app?vid=3df61b7a-4f5b-4181-b31f-4be478f23279","ios":"levelo://app?vid=3df61b7a-4f5b-4181-b31f-4be478f23279"},"vehicle_type_id":"4","last_reported":1718046393,"current_range_meters":17200,"station_id":"ce4bht12rcd13ifvqi60","pricing_plan_id":"cebpf4jnsgd1na2vs0mg"},{"bike_id":"cb39c621-f83e-4407-9659-67c1ccb95b7c","system_id":"levelo_inurba_marseille","lat":43.29358,"lon":5.39261,"is_reserved":false,"is_disabled":false,"rental_uris":{"android":"levelo://app?vid=cb39c621-f83e-4407-9659-67c1ccb95b7c","ios":"levelo://app?vid=cb39c621-f83e-4407-9659-67c1ccb95b7c"},"vehicle_type_id":"4","last_reported":1718046393,"current_range_meters":15200,"station_id":"","pricing_plan_id":"cebpf4jnsgd1na2vs0mg"},{"bike_id":"1b0fec60-95dc-436f-adba-8d82b0845561","system_id":"levelo_inurba_marseille","lat":43.286039,"lon":5.370681,"is_reserved":false,"is_disabled":false,"rental_uris":{"android":"levelo://app?vid=1b0fec60-95dc-436f-adba-8d82b0845561","ios":"levelo://app?vid=1b0fec60-95dc-436f-adba-8d82b0845561"},"vehicle_type_id":"4","last_reported":1718046393,"current_range_meters":14400,"station_id":"ce4bht12rcd13ifvqi60","pricing_plan_id":"cebpf4jnsgd1na2vs0mg"},{"bike_id":"fda4ab1e-0cdf-4917-9b2f-696bc7d9c2ac","system_id":"levelo_inurba_marseille","lat":43.286039,"lon":5.370679,"is_reserved":false,"is_disabled":false,"rental_uris":{"android":"levelo://app?vid=fda4ab1e-0cdf-4917-9b2f-696bc7d9c2ac","ios":"levelo://app?vid=fda4ab1e-0cdf-4917-9b2f-696bc7d9c2ac"},"vehicle_type_id":"4","last_reported":1718046393,"current_range_meters":26000,"station_id":"ce4bht12rcd13ifvqi60","pricing_plan_id":"cebpf4jnsgd1na2vs0mg"},{"bike_id":"fdcf17d0-f30f-4218-9493-93e4b841c982","system_id":"levelo_inurba_marseille","lat":43.286039,"lon":5.370679,"is_reserved":false,"is_disabled":false,"rental_uris":{"android":"levelo://app?vid=fdcf17d0-f30f-4218-9493-93e4b841c982","ios":"levelo://app?vid=fdcf17d0-f30f-4218-9493-93e4b841c982"},"vehicle_type_id":"4","last_reported":1718046393,"current_range_meters":12000,"station_id":"ce4bht12rcd13ifvqi60","pricing_plan_id":"cebpf4jnsgd1na2vs0mg"},{"bike_id":"d18280a3-808a-4cc1-96ff-d31ddf0aa020","system_id":"levelo_inurba_marseille","lat":43.287185,"lon":5.379373,"is_reserved":false,"is_disabled":false,"rental_uris":{"android":"levelo://app?vid=d18280a3-808a-4cc1-96ff-d31ddf0aa020","ios":"levelo://app?vid=d18280a3-808a-4cc1-96ff-d31ddf0aa020"},"vehicle_type_id":"4","last_reported":1718046393,"current_range_meters":0,"station_id":"ce4bh9p2rcd13ifvqec0","pricing_plan_id":"cebpf4jnsgd1na2vs0mg"},{"bike_id":"34508af0-6504-48f7-9f65-e162b7820463","system_id":"levelo_inurba_marseille","lat":43.286039,"lon":5.370681,"is_reserved":false,"is_disabled":false,"rental_uris":{"android":"levelo://app?vid=34508af0-6504-48f7-9f65-e162b7820463","ios":"levelo://app?vid=34508af0-6504-48f7-9f65-e162b7820463"},"vehicle_type_id":"4","last_reported":1718046393,"current_range_meters":10400,"station_id":"ce4bht12rcd13ifvqi60","pricing_plan_id":"cebpf4jnsgd1na2vs0mg"},{"bike_id":"d66360d7-5e87-4665-82be-7020f62aa380","system_id":"levelo_inurba_marseille","lat":43.31691,"lon":5.40468,"is_reserved":false,"is_disabled":false,"rental_uris":{"android":"levelo://app?vid=d66360d7-5e87-4665-82be-7020f62aa380","ios":"levelo://app?vid=d66360d7-5e87-4665-82be-7020f62aa380"},"vehicle_type_id":"4","last_reported":1718046393,"current_range_meters":6000,"station_id":"ce4bh012rcd13ifvqd00","pricing_plan_id":"cebpf4jnsgd1na2vs0mg"},{"bike_id":"4705a2d4-526a-4d87-a641-bd83a79f4a47","system_id":"levelo_inurba_marseille","lat":43.316821,"lon":5.404737,"is_reserved":false,"is_disabled":false,"rental_uris":{"android":"levelo://app?vid=4705a2d4-526a-4d87-a641-bd83a79f4a47","ios":"levelo://app?vid=4705a2d4-526a-4d87-a641-bd83a79f4a47"},"vehicle_type_id":"4","last_reported":1718046393,"current_range_meters":26000,"station_id":"ce4bh012rcd13ifvqd00","pricing_plan_id":"cebpf4jnsgd1na2vs0mg"},{"bike_id":"18c027ce-20f1-4826-8f47-71e44302b61e","system_id":"levelo_inurba_marseille","lat":43.31688,"lon":5.40473,"is_reserved":false,"is_disabled":false,"rental_uris":{"android":"levelo://app?vid=18c027ce-20f1-4826-8f47-71e44302b61e","ios":"levelo://app?vid=18c027ce-20f1-4826-8f47-71e44302b61e"},"vehicle_type_id":"4","last_reported":1718046393,"current_range_meters":22800,"station_id":"ce4bh012rcd13ifvqd00","pricing_plan_id":"cebpf4jnsgd1na2vs0mg"},{"bike_id":"7f77cecf-1c0e-4a3b-94e1-1e595da3991c","system_id":"levelo_inurba_marseille","lat":43.316883,"lon":5.404731,"is_reserved":false,"is_disabled":false,"rental_uris":{"android":"levelo://app?vid=7f77cecf-1c0e-4a3b-94e1-1e595da3991c","ios":"levelo://app?vid=7f77cecf-1c0e-4a3b-94e1-1e595da3991c"},"vehicle_type_id":"4","last_reported":1718046393,"current_range_meters":0,"station_id":"ce4bh012rcd13ifvqd00","pricing_plan_id":"cebpf4jnsgd1na2vs0mg"},{"bike_id":"4caa398b-d6c8-4e5c-a853-8ebd4b7d0559","system_id":"levelo_inurba_marseille","lat":43.316821,"lon":5.404737,"is_reserved":false,"is_disabled":false,"rental_uris":{"android":"levelo://app?vid=4caa398b-d6c8-4e5c-a853-8ebd4b7d0559","ios":"levelo://app?vid=4caa398b-d6c8-4e5c-a853-8ebd4b7d0559"},"vehicle_type_id":"4","last_reported":1718046393,"current_range_meters":4400,"station_id":"ce4bh012rcd13ifvqd00","pricing_plan_id":"cebpf4jnsgd1na2vs0mg"},{"bike_id":"7a466563-d211-43a3-a601-5f1eadef80c5","system_id":"levelo_inurba_marseille","lat":43.31686,"lon":5.40477,"is_reserved":false,"is_disabled":false,"rental_uris":{"android":"levelo://app?vid=7a466563-d211-43a3-a601-5f1eadef80c5","ios":"levelo://app?vid=7a466563-d211-43a3-a601-5f1eadef80c5"},"vehicle_type_id":"4","last_reported":1718046393,"current_range_meters":2000,"station_id":"ce4bh012rcd13ifvqd00","pricing_plan_id":"cebpf4jnsgd1na2vs0mg"},{"bike_id":"1b28cccc-6a94-4382-94cf-66296e313e2d","system_id":"levelo_inurba_marseille","lat":43.316821,"lon":5.404737,"is_reserved":false,"is_disabled":false,"rental_uris":{"android":"levelo://app?vid=1b28cccc-6a94-4382-94cf-66296e313e2d","ios":"levelo://app?vid=1b28cccc-6a94-4382-94cf-66296e313e2d"},"vehicle_type_id":"4","last_reported":1718046393,"current_range_meters":0,"station_id":"ce4bh012rcd13ifvqd00","pricing_plan_id":"cebpf4jnsgd1na2vs0mg"},