{"last_updated":1728443695,"ttl":60,"version":"2.2","data":{"bikes":[{"bike_id":"6b61f2b8-fd20-4a7a-bf5f-cad5b95e67dd","system_id":"levelo_inurba_marseille","lat":43.25864,"lon":5.39902,"is_reserved":false,"is_disabled":false,"rental_uris":{"android":"levelo://app?vid=6b61f2b8-fd20-4a7a-bf5f-cad5b95e67dd","ios":"levelo://app?vid=6b61f2b8-fd20-4a7a-bf5f-cad5b95e67dd"},"vehicle_type_id":"4","last_reported":1728443695,"current_range_meters":36400,"station_id":"ce4bhl92rcd13ifvqghg","pricing_plan_id":"cebpf4jnsgd1na2vs0mg"},{"bike_id":"5c3d9ec3-6ed1-4b1c-bb1f-0ea8a0b707d9","system_id":"levelo_inurba_marseille","lat":43.24655,"lon":5.38892,"is_reserved":false,"is_disabled":false,"rental_uris":{"android":"levelo://app?vid=5c3d9ec3-6ed1-4b1c-bb1f-0ea8a0b707d9","ios":"levelo://app?vid=5c3d9ec3-6ed1-4b1c-bb1f-0ea8a0b707d9"},"vehicle_type_id":"4","last_reported":1728443695,"current_range_meters":38400,"station_id":"ce4bhg12rcd13ifvqf60","pricing_plan_id":"cebpf4jnsgd1na2vs0mg"},{"bike_id":"c187adff-8196-458a-91cd-04726261726b","system_id":"levelo_inurba_marseille","lat":43.27814,"lon":5.40711,"is_reserved":false,"is_disabled":false,"rental_uris":{"android":"levelo://app?vid=c187adff-8196-458a-91cd-04726261726b","ios":"levelo://app?vid=c187adff-8196-458a-91cd-04726261726b"},"vehicle_type_id":"4","last_reported":1728443695,"current_range_meters":28400,"station_id":"ce4bhnh2rcd13ifvqgtg","pricing_plan_id":"cebpf4jnsgd1na2vs0mg"},{"bike_id":"aa2838aa-07b1-447b-a086-a1d2547a28f5","system_id":"levelo_inurba_marseille","lat":43.27613,"lon":5.36109,"is_reserved":false,"is_disabled":false,"rental_uris":{"android":"levelo://app?vid=aa2838aa-07b1-447b-a086-a1d2547a28f5","ios":"levelo://app?vid=aa2838aa-07b1-447b-a086-a1d2547a28f5"},"vehicle_type_id":"4","last_reported":1728443695,"current_range_meters":30000,"station_id":"ce4bgj92rcd13ifvqbe0","pricing_plan_id":"cebpf4jnsgd1na2vs0mg"},{"bike_id":"eb9dcbbf-92bc-4d72-8d33-8a9533f7f80c","system_id":"levelo_inurba_marseille","lat":43.30594,"lon":5.37217,"is_reserved":false,"is_disabled":false,"rental_uris":{"android":"levelo://app?vid=eb9dcbbf-92bc-4d72-8d33-8a9533f7f80c","ios":"levelo://app?vid=eb9dcbbf-92bc-4d72-8d33-8a9533f7f80c"},"vehicle_type_id":"4","last_reported":1728443695,"current_range_meters":39200,"station_id":"ce4bgqh2rcd13ifvqc4g","pricing_plan_id":"cebpf4jnsgd1na2vs0mg"},{"bike_id":"3fc49276-9f7e-49cf-a5a2-e406cb7ad36d","system_id":"levelo_inurba_marseille","lat":43.31122,"lon":5.37763,"is_reserved":false,"is_disabled":false,"rental_uris":{"android":"levelo://app?vid=3fc49276-9f7e-49cf-a5a2-e406cb7ad36d","ios":"levelo://app?vid=3fc49276-9f7e-49cf-a5a2-e406cb7ad36d"},"vehicle_type_id":"4","last_reported":1728443695,"current_range_meters":38000,"station_id":"ce4bgt92rcd13ifvqcg0","pricing_plan_id":"cebpf4jnsgd1na2vs0mg"},{"bike_id":"62d9e195-f719-4690-a78c-ff33746a6f51","system_id":"levelo_inurba_marseille","lat":43.27371,"lon":5.3626,"is_reserved":false,"is_disabled":false,"rental_uris":{"android":"levelo://app?vid=62d9e195-f719-4690-a78c-ff33746a6f51","ios":"levelo://app?vid=62d9e195-f719-4690-a78c-ff33746a6f51"},"vehicle_type_id":"4","last_reported":1728443695,"current_range_meters":40000,"station_id":"ce4bhbh2rcd13ifvqeo0","pricing_plan_id":"cebpf4jnsgd1na2vs0mg"},{"bike_id":"6b8918a4-396b-43e5-9a7f-f056357bf660","system_id":"levelo_inurba_marseille","lat":43.23066,"lon":5.35487,"is_reserved":false,"is_disabled":false,"rental_uris":{"android":"levelo://app?vid=6b8918a4-396b-43e5-9a7f-f056357bf660","ios":"levelo://app?vid=6b8918a4-396b-43e5-9a7f-f056357bf660"},"vehicle_type_id":"4","last_reported":1728443695,"current_range_meters":10000,"station_id":"cpo3342slgdg3j2ifvpg","pricing_plan_id":"cebpf4jnsgd1na2vs0mg"},{"bike_id":"1b127835-0b39-4605-9fe2-5d79ba9f76cc","system_id":"levelo_inurba_marseille","lat":43.32488,"lon":5.36555,"is_reserved":false,"is_disabled":false,"rental_uris":{"android":"levelo://app?vid=1b127835-0b39-4605-9fe2-5d79ba9f76cc","ios":"levelo://app?vid=1b127835-0b39-4605-9fe2-5d79ba9f76cc"},"vehicle_type_id":"4","last_reported":1728443695,"current_range_meters":38800,"station_id":"ce4bhs12rcd13ifvqhvg","pricing_plan_id":"cebpf4jnsgd1na2vs0mg"},{"bike_id":"28718dbc-8207-4cdd-a5da-cea9a594d0fc","system_id":"levelo_inurba_marseille","lat":43.32338,"lon":5.40617,"is_reserved":false,"is_disabled":false,"rental_uris":{"android":"levelo://app?vid=28718dbc-8207-4cdd-a5da-cea9a594d0fc","ios":"levelo://app?vid=28718dbc-8207-4cdd-a5da-cea9a594d0fc"},"vehicle_type_id":"4","last_reported":1728443695,"current_range_meters":29600,"station_id":"ce4bhq92rcd13ifvqhjg","pricing_plan_id":"cebpf4jnsgd1na2vs0mg"},{"bike_id":"64524fe4-6e16-4d18-8e90-00b089a26f5f","system_id":"levelo_inurba_marseille","lat":43.27849,"lon":5.38467,"is_reserved":false,"is_disabled":false,"rental_uris":{"android":"levelo://app?vid=64524fe4-6e16-4d18-8e90-00b089a26f5f","ios":"levelo://app?vid=64524fe4-6e16-4d18-8e90-00b089a26f5f"},"vehicle_type_id":"4","last_reported":1728443695,"current_range_meters":36000,"station_id":"ce4bgvp2rcd13ifvqct0","pricing_plan_id":"cebpf4jnsgd1na2vs0mg"},{"bike_id":"61983c93-e1da-4681-a749-7be5ffcd04b4","system_id":"levelo_inurba_marseille","lat":43.25105,"lon":5.40323,"is_reserved":false,"is_disabled":false,"rental_uris":{"android":"levelo://app?vid=61983c93-e1da-4681-a749-7be5ffcd04b4","ios":"levelo://app?vid=61983c93-e1da-4681-a749-7be5ffcd04b4"},"vehicle_type_id":"4","last_reported":1728443695,"current_range_meters":38800,"station_id":"ce4bhlh2rcd13ifvqgig","pricing_plan_id":"cebpf4jnsgd1na2vs0mg"},{"bike_id":"a3042a9b-2d51-4a5a-b65a-00d3471d4809","system_id":"levelo_inurba_marseille","lat":43.28655,"lon":5.36361,"is_reserved":false,"is_disabled":false,"rental_uris":{"android":"levelo://app?vid=a3042a9b-2d51-4a5a-b65a-00d3471d4809","ios":"levelo://app?vid=a3042a9b-2d51-4a5a-b65a-00d3471d4809"},"vehicle_type_id":"4","last_reported":1728443695,"current_range_meters":38000,"station_id":"ce4bhah2rcd13ifvqej0","pricing_plan_id":"cebpf4jnsgd1na2vs0mg"},{"bike_id":"0fff8baa-bdea-415a-80d5-a5bb069859c4","system_id":"levelo_inurba_marseille","lat":43.26806,"lon":5.40262,"is_reserved":false,"is_disabled":false,"rental_uris":{"android":"levelo://app?vid=0fff8baa-bdea-415a-80d5-a5bb069859c4","ios":"levelo://app?vid=0fff8baa-bdea-415a-80d5-a5bb069859c4"},"vehicle_type_id":"4","last_reported":1728443695,"current_range_meters":8400,"station_id":"ce501612rcd8frsf0b60","pricing_plan_id":"cebpf4jnsgd1na2vs0mg"},{"bike_id":"0942f772-31be-4eb1-b669-63d390169f0e","system_id":"levelo_inurba_marseille","lat":43.33599,"lon":5.4102,"is_reserved":false,"is_disabled":false,"rental_uris":{"android":"levelo://app?vid=0942f772-31be-4eb1-b669-63d390169f0e","ios":"levelo://app?vid=0942f772-31be-4eb1-b669-63d390169f0e"},"vehicle_type_id":"4","last_reported":1728443695,"current_range_meters":40000,"station_id":"ce4bhqh2rcd13ifvqhmg","pricing_plan_id":"cebpf4jnsgd1na2vs0mg"},{"bike_id":"96b8b793-be91-48ac-abec-777c4852916e","system_id":"levelo_inurba_marseille","lat":43.31657,"lon":5.40425,"is_reserved":false,"is_disabled":false,"rental_uris":{"android":"levelo://app?vid=96b8b793-be91-48ac-abec-777c4852916e","ios":"levelo://app?vid=96b8b793-be91-48ac-abec-777c4852916e"},"vehicle_type_id":"4","last_reported":1728443695,"current_range_meters":5600,"station_id":"ce4bhq92rcd13ifvqhjg","pricing_plan_id":"cebpf4jnsgd1na2vs0mg"},{"bike_id":"c3234398-c99d-4c2a-9aa9-b5c795980c18","system_id":"levelo_inurba_marseille","lat":43.27058,"lon":5.40269,"is_reserved":false,"is_disabled":false,"rental_uris":{"android":"levelo://app?vid=c3234398-c99d-4c2a-9aa9-b5c795980c18","ios":"levelo://app?vid=c3234398-c99d-4c2a-9aa9-b5c795980c18"},"vehicle_type_id":"4","last_reported":1728443695,"current_range_meters":38800,"station_id":"ce4bhk92rcd13ifvqgc0","pricing_plan_id":"cebpf4jnsgd1na2vs0mg"},{"bike_id":"ace8a186-8cef-4d0f-9025-4c745fd721d3","system_id":"levelo_inurba_marseille","lat":43.31165,"lon":5.38717,"is_reserved":false,"is_disabled":false,"rental_uris":{"android":"levelo://app?vid=ace8a186-8cef-4d0f-9025-4c745fd721d3","ios":"levelo://app?vid=ace8a186-8cef-4d0f-9025-4c745fd721d3"},"vehicle_type_id":"4","last_reported":1728443695,"current_range_meters":40000,"station_id":"ce4bgv12rcd13ifvqcp0","pricing_plan_id":"cebpf4jnsgd1na2vs0mg"},{"bike_id":"bc35e60d-de9c-4d6b-a30b-4c6546d76357","system_id":"levelo_inurba_marseille","lat":43.30885,"lon":5.39648,"is_reserved":false,"is_disabled":false,"rental_uris":{"android":"levelo://app?vid=bc35e60d-de9c-4d6b-a30b-4c6546d76357","ios":"levelo://app?vid=bc35e60d-de9c-4d6b-a30b-4c6546d76357"},"vehicle_type_id":"4","last_reported":1728443695,"current_range_meters":34000,"station_id":"ce4bh012rcd13ifvqcv0","pricing_plan_id":"cebpf4jnsgd1na2vs0mg"},{"bike_id":"0cae22d7-d9ff-4267-9a01-29903f3959fd","system_id":"levelo_inurba_marseille","lat":43.28081,"lon":5.39655,"is_reserved":false,"is_disabled":false,"rental_uris":{"android":"levelo://app?vid=0cae22d7-d9ff-4267-9a01-29903f3959fd","ios":"levelo://app?vid=0cae22d7-d9ff-4267-9a01-29903f3959fd"},"vehicle_type_id":"4","last_reported":1728443695,"current_range_meters":38800,"station_id":"ce4bho12rcd13ifvqh2g","pricing_plan_id":"cebpf4jnsgd1na2vs0mg"},{"bike_id":"9d2c94c4-8d28-4e4c-80b9-4582435a3fdf","system_id":"levelo_inurba_marseille","lat":43.30634,"lon":5.40078,"is_reserved":false,"is_disabled":false,"rental_uris":{"android":"levelo://app?vid=9d2c94c4-8d28-4e4c-80b9-4582435a3fdf","ios":"levelo://app?vid=9d2c94c4-8d28-4e4c-80b9-4582435a3fdf"},"vehicle_type_id":"4","last_reported":1728443695,"current_range_meters":40000,"station_id":"ce4bh112rcd13ifvqda0","pricing_plan_id":"cebpf4jnsgd1na2vs0mg"},{"bike_id":"6a70fa5e-4a96-4cc1-893b-c518e8f08014","system_id":"levelo_inurba_marseille","lat":43.25087,"lon":5.3952,"is_reserved":false,"is_disabled":false,"rental_uris":{"android":"levelo://app?vid=6a70fa5e-4a96-4cc1-893b-c518e8f08014","ios":"levelo://app?vid=6a70fa5e-4a96-4cc1-893b-c518e8f08014"},"vehicle_type_id":"4","last_reported":1728443695,"current_range_meters":8800,"station_id":"ce4bhm12rcd13ifvqgkg","pricing_plan_id":"cebpf4jnsgd1na2vs0mg"},{"bike_id":"723ac90a-388d-4bb8-9232-faba89d3cf24","system_id":"levelo_inurba_marseille","lat":43.28573,"lon":5.39496,"is_reserved":false,"is_disabled":false,"rental_uris":{"android":"levelo://app?vid=723ac90a-388d-4bb8-9232-faba89d3cf24","ios":"levelo://app?vid=723ac90a-388d-4bb8-9232-faba89d3cf24"},"vehicle_type_id":"4","last_reported":1728443695,"current_range_meters":38800,"station_id":"ce4bh292rcd13ifvqdg0","pricing_plan_id":"cebpf4jnsgd1na2vs0mg"},{"bike_id":"3bb06e4f-fd83-4ce0-9ff3-60a817be3580","system_id":"levelo_inurba_marseille","lat":43.30937,"lon":5.40139,"is_reserved":false,"is_disabled":false,"rental_uris":{"android":"levelo://app?vid=3bb06e4f-fd83-4ce0-9ff3-60a817be3580","ios":"levelo://app?vid=3bb06e4f-fd83-4ce0-9ff3-60a817be3580"},"vehicle_type_id":"4","last_reported":1728443695,"current_range_meters":28000,"station_id":"ce4bgvp2rcd13ifvqct0","pricing_plan_id":"cebpf4jnsgd1na2vs0mg"},{"bike_id":"64c9abdc-a744-4b43-9856-a64e8ee5db15","system_id":"levelo_inurba_marseille","lat":43.23062,"lon":5.35488,"is_reserved":false,"is_disabled":false,"rental_uris":{"android":"levelo://app?vid=64c9abdc-a744-4b43-9856-a64e8ee5db15","ios":"levelo://app?vid=64c9abdc-a744-4b43-9856-a64e8ee5db15"},"vehicle_type_id":"4","last_reported":1728443695,"current_range_meters":38800,"station_id":"cpo3342slgdg3j2ifvpg","pricing_plan_id":"cebpf4jnsgd1na2vs0mg"},{"bike_id":"299104d3-0300-4195-8c09-375d40793ddc","system_id":"levelo_inurba_marseille","lat":43.25581,"lon":5.38231,"is_reserved":false,"is_disabled":false,"rental_uris":{"android":"levelo://app?vid=299104d3-0300-4195-8c09-375d40793ddc","ios":"levelo://app?vid=299104d3-0300-4195-8c09-375d40793ddc"},"vehicle_type_id":"4","last_reported":1728443695,"current_range_meters":37600,"station_id":"ce4bhih2rcd13ifvqfs0","pricing_plan_id":"cebpf4jnsgd1na2vs0mg"},{"bike_id":"0e6c3bbb-bf4d-433a-b365-e3780e072d1d","system_id":"levelo_inurba_marseille","lat":43.32334,"lon":5.40624,"is_reserved":false,"is_disabled":false,"rental_uris":{"android":"levelo://app?vid=0e6c3bbb-bf4d-433a-b365-e3780e072d1d","ios":"levelo://app?vid=0e6c3bbb-bf4d-433a-b365-e3780e072d1d"},"vehicle_type_id":"4","last_reported":1728443695,"current_range_meters":38800,"station_id":"ce4bhq92rcd13ifvqhjg","pricing_plan_id":"cebpf4jnsgd1na2vs0mg"},{"bike_id":"e6b04bf2-6081-4cf2-bcc8-708b9ce788c8","system_id":"levelo_inurba_marseille","lat":43.30936,"lon":5.4014,"is_reserved":false,"is_disabled":false,"rental_uris":{"android":"levelo://app?vid=e6b04bf2-6081-4cf2-bcc8-708b9ce788c8","ios":"levelo://app?vid=e6b04bf2-6081-4cf2-bcc8-708b9ce788c8"},"vehicle_type_id":"4","last_reported":1728443695,"current_range_meters":24400,"station_id":"ce4bgvp2rcd13ifvqct0","pricing_plan_id":"cebpf4jnsgd1na2vs0mg"},{"bike_id":"f92a97bc-6198-43fe-8639-fe5d4f5a2707","system_id":"levelo_inurba_marseille","lat":43.29204,"lon":5.39317,"is_reserved":false,"is_disabled":false,"rental_uris":{"android":"levelo://app?vid=f92a97bc-6198-43fe-8639-fe5d4f5a2707","ios":"levelo://app?vid=f92a97bc-6198-43fe-8639-fe5d4f5a2707"},"vehicle_type_id":"4","last_reported":1728443695,"current_range_meters":38800,"station_id":"ce4bh192rcd13ifvqdd0","pricing_plan_id":"cebpf4jnsgd1na2vs0mg"},{"bike_id":"72249399-0f58-4a6d-8a4e-5f70be3f56c1","system_id":"levelo_inurba_marseille","lat":43.31533,"lon":5.38029,"is_reserved":false,"is_disabled":false,"rental_uris":{"android":"levelo://app?vid=72249399-0f58-4a6d-8a4e-5f70be3f56c1","ios":"levelo://app?vid=72249399-0f58-4a6d-8a4e-5f70be3f56c1"},"vehicle_type_id":"4","last_reported":1728443695,"current_range_meters":40000,"station_id":"ce4bhsp2rcd13ifvqi50","pricing_plan_id":"cebpf4jnsgd1na2vs0mg"},{"bike_id":"7469c44d-e141-45b2-a053-a4209ee695e3","system_id":"levelo_inurba_marseille","lat":43.29552,"lon":5.42279,"is_reserved":false,"is_disabled":false,"rental_uris":{"android":"levelo://app?vid=7469c44d-e141-45b2-a053-a4209ee695e3","ios":"levelo://app?vid=7469c44d-e141-45b2-a053-a4209ee695e3"},"vehicle_type_id":"4","last_reported":1728443695,"current_range_meters":38800,"station_id":"ce4bhph2rcd13ifvqhdg","pricing_plan_id":"cebpf4jnsgd1na2vs0mg"},{"bike_id":"605905f8-38c2-47b7-a409-19ff31867d69","system_id":"levelo_inurba_marseille","lat":43.28461,"lon":5.35882,"is_reserved":false,"is_disabled":false,"rental_uris":{"android":"levelo://app?vid=605905f8-38c2-47b7-a409-19ff31867d69","ios":"levelo://app?vid=605905f8-38c2-47b7-a409-19ff31867d69"},"vehicle_type_id":"4","last_reported":1728443695,"current_range_meters":27600,"station_id":"ce4bhah2rcd13ifvqei0","pricing_plan_id":"cebpf4jnsgd1na2vs0mg"},{"bike_id":"838b16dd-9eac-4c3f-b799-083241b130de","system_id":"levelo_inurba_marseille","lat":43.31371,"lon":5.36691,"is_reserved":false,"is_disabled":false,"rental_uris":{"android":"levelo://app?vid=838b16dd-9eac-4c3f-b799-083241b130de","ios":"levelo://app?vid=838b16dd-9eac-4c3f-b799-083241b130de"},"vehicle_type_id":"4","last_reported":1728443695,"current_range_meters":40000,"station_id":"ce4bgr92rcd13ifvqc6g","pricing_plan_id":"cebpf4jnsgd1na2vs0mg"},{"bike_id":"53119476-26a1-436f-872c-f741bf0956f2","system_id":"levelo_inurba_marseille","lat":43.27063,"lon":5.40255,"is_reserved":false,"is_disabled":false,"rental_uris":{"android":"levelo://app?vid=53119476-26a1-436f-872c-f741bf0956f2","ios":"levelo://app?vid=53119476-26a1-436f-872c-f741bf0956f2"},"vehicle_type_id":"4","last_reported":1728443695,"current_range_meters":38800,"station_id":"ce4bhk92rcd13ifvqgc0","pricing_plan_id":"cebpf4jnsgd1na2vs0mg"},{"bike_id":"34a231ba-28e4-4cfa-873c-4c60ece516df","system_id":"levelo_inurba_marseille","lat":43.28459,"lon":5.35881,"is_reserved":false,"is_disabled":false,"rental_uris":{"android":"levelo://app?vid=34a231ba-28e4-4cfa-873c-4c60ece516df","ios":"levelo://app?vid=34a231ba-28e4-4cfa-873c-4c60ece516df"},"vehicle_type_id":"4","last_reported":1728443695,"current_range_meters":36000,"station_id":"ce4bhah2rcd13ifvqei0","pricing_plan_id":"cebpf4jnsgd1na2vs0mg"},{"bike_id":"3abf0fa0-a2e4-402b-9315-be55d1936cd0","system_id":"levelo_inurba_marseille","lat":43.2846,"lon":5.35889,"is_reserved":false,"is_disabled":false,"rental_uris":{"android":"levelo://app?vid=3abf0fa0-a2e4-402b-9315-be55d1936cd0","ios":"levelo://app?vid=3abf0fa0-a2e4-402b-9315-be55d1936cd0"},"vehicle_type_id":"4","last_reported":1728443695,"current_range_meters":38800,"station_id":"ce4bhah2rcd13ifvqei0","pricing_plan_id":"cebpf4jnsgd1na2vs0mg"},{"bike_id":"0647ad1d-88f4-42c7-a7a4-f413ac825d9b","system_id":"levelo_inurba_marseille","lat":43.24646,"lon":5.38885,"is_reserved":false,"is_disabled":false,"rental_uris":{"android":"levelo://app?vid=0647ad1d-88f4-42c7-a7a4-f413ac825d9b","ios":"levelo://app?vid=0647ad1d-88f4-42c7-a7a4-f413ac825d9b"},"vehicle_type_id":"4","last_reported":1728443695,"current_range_meters":14000,"station_id":"ce4bhg12rcd13ifvqf60","pricing_plan_id":"cebpf4jnsgd1na2vs0mg"},{"bike_id":"c7ba16dd-4f9b-417d-bba3-02202a8c8871","system_id":"levelo_inurba_marseille","lat":43.31333,"lon":5.39691,"is_reserved":false,"is_disabled":false,"rental_uris":{"android":"levelo://app?vid=c7ba16dd-4f9b-417d-bba3-02202a8c8871","ios":"levelo://app?vid=c7ba16dd-4f9b-417d-bba3-02202a8c8871"},"vehicle_type_id":"4","last_reported":1728443695,"current_range_meters":24400,"station_id":"ce4bgvp2rcd13ifvqcu0","pricing_plan_id":"cebpf4jnsgd1na2vs0mg"},{"bike_id":"3f5a345b-fe86-41ab-bf3f-5e4630657e31","system_id":"levelo_inurba_marseille","lat":43.2396,"lon":5.36632,"is_reserved":false,"is_disabled":false,"rental_uris":{"android":"levelo://app?vid=3f5a345b-fe86-41ab-bf3f-5e4630657e31","ios":"levelo://app?vid=3f5a345b-fe86-41ab-bf3f-5e4630657e31"},"vehicle_type_id":"4","last_reported":1728443695,"current_range_meters":38000,"station_id":"ce4bhi12rcd13ifvqfp0","pricing_plan_id":"cebpf4jnsgd1na2vs0mg"},{"bike_id":"57b57de9-9d5d-4857-b8fb-25022d6f9b80","system_id":"levelo_inurba_marseille","lat":43.25,"lon":5.38924,"is_reserved":false,"is_disabled":false,"rental_uris":{"android":"levelo://app?vid=57b57de9-9d5d-4857-b8fb-25022d6f9b80","ios":"levelo://app?vid=57b57de9-9d5d-4857-b8fb-25022d6f9b80"},"vehicle_type_id":"4","last_reported":1728443695,"current_range_meters":20800,"station_id":"ce4bhgp2rcd13ifvqfd0","pricing_plan_id":"cebpf4jnsgd1na2vs0mg"},{"bike_id":"6fc78b83-4cdb-4b8b-a3d7-0a89ff699e51","system_id":"levelo_inurba_marseille","lat":43.30937,"lon":5.40143,"is_reserved":false,"is_disabled":false,"rental_uris":{"android":"levelo://app?vid=6fc78b83-4cdb-4b8b-a3d7-0a89ff699e51","ios":"levelo://app?vid=6fc78b83-4cdb-4b8b-a3d7-0a89ff699e51"},"vehicle_type_id":"4","last_reported":1728443695,"current_range_meters":24400,"station_id":"ce4bgvp2rcd13ifvqct0","pricing_plan_id":"cebpf4jnsgd1na2vs0mg"},{"bike_id":"59a20882-e884-470e-b111-32ed424e7cc3","system_id":"levelo_inurba_marseille","lat":43.33733,"lon":5.39197,"is_reserved":false,"is_disabled":false,"rental_uris":{"android":"levelo://app?vid=59a20882-e884-470e-b111-32ed424e7cc3","ios":"levelo://app?vid=59a20882-e884-470e-b111-32ed424e7cc3"},"vehicle_type_id":"4","last_reported":1728443695,"current_range_meters":33600,"station_id":"ce4bhr92rcd13ifvqhsg","pricing_plan_id":"cebpf4jnsgd1na2vs0mg"},{"bike_id":"c8b2a970-8575-4298-b987-a61c3ad971c7","system_id":"levelo_inurba_marseille","lat":43.32,"lon":5.3815,"is_reserved":false,"is_disabled":false,"rental_uris":{"android":"levelo://app?vid=c8b2a970-8575-4298-b987-a61c3ad971c7","ios":"levelo://app?vid=c8b2a970-8575-4298-b987-a61c3ad971c7"},"vehicle_type_id":"4","last_reported":1728443695,"current_range_meters":24400,"station_id":"ce4bhr12rcd13ifvqhpg","pricing_plan_id":"cebpf4jnsgd1na2vs0mg"},{"bike_id":"24fe3a15-9f40-4f6e-a8ed-650a8d63984a","system_id":"levelo_inurba_marseille","lat":43.284599,"lon":5.358926,"is_reserved":false,"is_disabled":false,"rental_uris":{"android":"levelo://app?vid=24fe3a15-9f40-4f6e-a8ed-650a8d63984a","ios":"levelo://app?vid=24fe3a15-9f40-4f6e-a8ed-650a8d63984a"},"vehicle_type_id":"4","last_reported":1728443695,"current_range_meters":38400,"station_id":"ce4bhah2rcd13ifvqei0","pricing_plan_id":"cebpf4jnsgd1na2vs0mg"},{"bike_id":"0fc17932-ea76-4a66-b62d-a2e15db045c6","system_id":"levelo_inurba_marseille","lat":43.3117,"lon":5.38718,"is_reserved":false,"is_disabled":false,"rental_uris":{"android":"levelo://app?vid=0fc17932-ea76-4a66-b62d-a2e15db045c6","ios":"levelo://app?vid=0fc17932-ea76-4a66-b62d-a2e15db045c6"},"vehicle_type_id":"4","last_reported":1728443695,"current_range_meters":38000,"station_id":"ce4bgv12rcd13ifvqcp0","pricing_plan_id":"cebpf4jnsgd1na2vs0mg"},{"bike_id":"3bf877e0-e870-4d31-a988-0c300698d236","system_id":"levelo_inurba_marseille","lat":43.31169,"lon":5.38713,"is_reserved":false,"is_disabled":false,"rental_uris":{"android":"levelo://app?vid=3bf877e0-e870-4d31-a988-0c300698d236","ios":"levelo://app?vid=3bf877e0-e870-4d31-a988-0c300698d236"},"vehicle_type_id":"4","last_reported":1728443695,"current_range_meters":33200,"station_id":"ce4bgv12rcd13ifvqcp0","pricing_plan_id":"cebpf4jnsgd1na2vs0mg"},{"bike_id":"c2c697a5-1f78-4f8d-b2a7-f7db1f56eb5d","system_id":"levelo_inurba_marseille","lat":43.33606,"lon":5.4102,"is_reserved":false,"is_disabled":false,"rental_uris":{"android":"levelo://app?vid=c2c697a5-1f78-4f8d-b2a7-f7db1f56eb5d","ios":"levelo://app?vid=c2c697a5-1f78-4f8d-b2a7-f7db1f56eb5d"},"vehicle_type_id":"4","last_reported":1728443695,"current_range_meters":39200,"station_id":"ce4bhqh2rcd13ifvqhmg","pricing_plan_id":"cebpf4jnsgd1na2vs0mg"},{"bike_id":"7d7ab187-9965-49a4-bf26-b6ade39671fc","system_id":"levelo_inurba_marseille","lat":43.23195,"lon":5.3555,"is_reserved":false,"is_disabled":false,"rental_uris":{"android":"levelo://app?vid=7d7ab187-9965-49a4-bf26-b6ade39671fc","ios":"levelo://app?vid=7d7ab187-9965-49a4-bf26-b6ade39671fc"},"vehicle_type_id":"4","last_reported":1728443695,"current_range_meters":27200,"station_id":"ce4bhu92rcd13ifvqi70","pricing_plan_id":"cebpf4jnsgd1na2vs0mg"},{"bike_id":"625d6197-aeec-4084-abde-62ecb321e25a","system_id":"levelo_inurba_marseille","lat":43.28927,"lon":5.36393,"is_reserved":false,"is_disabled":false,"rental_uris":{"android":"levelo://app?vid=625d6197-aeec-4084-abde-62ecb321e25a","ios":"levelo://app?vid=625d6197-aeec-4084-abde-62ecb321e25a"},"vehicle_type_id":"4","last_reported":1728443695,"current_range_meters":37600,"station_id":"ce4bhc92rcd13ifvqetg","pricing_plan_id":"cebpf4jnsgd1na2vs0mg"},{"bike_id":"ed7772ed-646c-488b-a3f8-bdb60cff3c57","system_id":"levelo_inurba_marseille","lat":43.33728,"lon":5.39191,"is_reserved":false,"is_disabled":false,"rental_uris":{"android":"levelo://app?vid=ed7772ed-646c-488b-a3f8-bdb60cff3c57","ios":"levelo://app?vid=ed7772ed-646c-488b-a3f8-bdb60cff3c57"},"vehicle_type_id":"4","last_reported":1728443695,"current_range_meters":37600,"station_id":"ce4bhr92rcd13ifvqhsg","pricing_plan_id":"cebpf4jnsgd1na2vs0mg"},{"bike_id":"36669cc9-e551-4b2d-ac30-f7576aaaff1b","system_id":"levelo_inurba_marseille","lat":43.23186,"lon":5.39977,"is_reserved":false,"is_disabled":false,"rental_uris":{"android":"levelo://app?vid=36669cc9-e551-4b2d-ac30-f7576aaaff1b","ios":"levelo://app?vid=36669cc9-e551-4b2d-ac30-f7576aaaff1b"},"vehicle_type_id":"4","last_reported":1728443695,"current_range_meters":6000,"station_id":"ce4bhn12rcd13ifvqgqg","pricing_plan_id":"cebpf4jnsgd1na2vs0mg"},{"bike_id":"39e7164f-9b5c-4bd2-ae10-02102074b183","system_id":"levelo_inurba_marseille","lat":43.304113,"lon":5.412928,"is_reserved":false,"is_disabled":false,"rental_uris":{"android":"levelo://app?vid=39e7164f-9b5c-4bd2-ae10-02102074b183","ios":"levelo://app?vid=39e7164f-9b5c-4bd2-ae10-02102074b183"},"vehicle_type_id":"4","last_reported":1728443695,"current_range_meters":39200,"station_id":"ce4bhop2rcd13ifvqh8g","pricing_plan_id":"cebpf4jnsgd1na2vs0mg"},{"bike_id":"48ebd36c-802f-462b-9736-8a1250ac287b","system_id":"levelo_inurba_marseille","lat":43.28066,"lon":5.39645,"is_reserved":false,"is_disabled":false,"rental_uris":{"android":"levelo://app?vid=48ebd36c-802f-462b-9736-8a1250ac287b","ios":"levelo://app?vid=48ebd36c-802f-462b-9736-8a1250ac287b"},"vehicle_type_id":"4","last_reported":1728443695,"current_range_meters":36800,"station_id":"ce4bho12rcd13ifvqh2g","pricing_plan_id":"cebpf4jnsgd1na2vs0mg"},{"bike_id":"c8ea8fe2-6c6f-437d-a039-f61c7713859e","system_id":"levelo_inurba_marseille","lat":43.28029,"lon":5.36934,"is_reserved":false,"is_disabled":false,"rental_uris":{"android":"levelo://app?vid=c8ea8fe2-6c6f-437d-a039-f61c7713859e","ios":"levelo://app?vid=c8ea8fe2-6c6f-437d-a039-f61c7713859e"},"vehicle_type_id":"4","last_reported":1728443695,"current_range_meters":38800,"station_id":"ce4bha12rcd13ifvqef0","pricing_plan_id":"cebpf4jnsgd1na2vs0mg"},{"bike_id":"77652a88-ae51-4499-bb15-fc2e9ea602da","system_id":"levelo_inurba_marseille","lat":43.24667,"lon":5.38158,"is_reserved":false,"is_disabled":false,"rental_uris":{"android":"levelo://app?vid=77652a88-ae51-4499-bb15-fc2e9ea602da","ios":"levelo://app?vid=77652a88-ae51-4499-bb15-fc2e9ea602da"},"vehicle_type_id":"4","last_reported":1728443695,"current_range_meters":38800,"station_id":"ce4bhih2rcd13ifvqfr0","pricing_plan_id":"cebpf4jnsgd1na2vs0mg"},{"bike_id":"3ebb579f-18fb-44f5-b0b3-804bd56371c5","system_id":"levelo_inurba_marseille","lat":43.24078,"lon":5.37744,"is_reserved":false,"is_disabled":false,"rental_uris":{"android":"levelo://app?vid=3ebb579f-18fb-44f5-b0b3-804bd56371c5","ios":"levelo://app?vid=3ebb579f-18fb-44f5-b0b3-804bd56371c5"},"vehicle_type_id":"4","last_reported":1728443695,"current_range_meters":38000,"station_id":"ce4bhnp2rcd13ifvqgvg","pricing_plan_id":"cebpf4jnsgd1na2vs0mg"},{"bike_id":"b6234f78-3795-417a-a0cc-d4f4d3ce8137","system_id":"levelo_inurba_marseille","lat":43.278077,"lon":5.407157,"is_reserved":false,"is_disabled":false,"rental_uris":{"android":"levelo://app?vid=b6234f78-3795-417a-a0cc-d4f4d3ce8137","ios":"levelo://app?vid=b6234f78-3795-417a-a0cc-d4f4d3ce8137"},"vehicle_type_id":"4","last_reported":1728443695,"current_range_meters":29600,"station_id":"ce4bhnh2rcd13ifvqgtg","pricing_plan_id":"cebpf4jnsgd1na2vs0mg"},{"bike_id":"eda4ebd6-3857-413e-9e7a-adfbb7367345","system_id":"levelo_inurba_marseille","lat":43.29284,"lon":5.4012,"is_reserved":false,"is_disabled":false,"rental_uris":{"android":"levelo://app?vid=eda4ebd6-3857-413e-9e7a-adfbb7367345","ios":"levelo://app?vid=eda4ebd6-3857-413e-9e7a-adfbb7367345"},"vehicle_type_id":"4","last_reported":1728443695,"current_range_meters":38000,"station_id":"ce4bh312rcd13ifvqdk0","pricing_plan_id":"cebpf4jnsgd1na2vs0mg"},{"bike_id":"986d75c0-39e0-4e48-ae65-27504d814354","system_id":"levelo_inurba_marseille","lat":43.28709,"lon":5.39977,"is_reserved":false,"is_disabled":false,"rental_uris":{"android":"levelo://app?vid=986d75c0-39e0-4e48-ae65-27504d814354","ios":"levelo://app?vid=986d75c0-39e0-4e48-ae65-27504d814354"},"vehicle_type_id":"4","last_reported":1728443695,"current_range_meters":40000,"station_id":"ce4bho92rcd13ifvqh3g","pricing_plan_id":"cebpf4jnsgd1na2vs0mg"},{"bike_id":"f8827415-6985-4e59-91b2-f5772b0a2e3d","system_id":"levelo_inurba_marseille","lat":43.28604,"lon":5.35108,"is_reserved":false,"is_disabled":false,"rental_uris":{"android":"levelo://app?vid=f8827415-6985-4e59-91b2-f5772b0a2e3d","ios":"levelo://app?vid=f8827415-6985-4e59-91b2-f5772b0a2e3d"},"vehicle_type_id":"4","last_reported":1728443695,"current_range_meters":38800,"station_id":"ce4bhch2rcd13ifvqeug","pricing_plan_id":"cebpf4jnsgd1na2vs0mg"},{"bike_id":"1eec419f-7b51-407b-ac1c-bf7793b746a4","system_id":"levelo_inurba_marseille","lat":43.25726,"lon":5.4111,"is_reserved":false,"is_disabled":false,"rental_uris":{"android":"levelo://app?vid=1eec419f-7b51-407b-ac1c-bf7793b746a4","ios":"levelo://app?vid=1eec419f-7b51-407b-ac1c-bf7793b746a4"},"vehicle_type_id":"4","last_reported":1728443695,"current_range_meters":38800,"station_id":"ce4bhkp2rcd13ifvqgd0","pricing_plan_id":"cebpf4jnsgd1na2vs0mg"},{"bike_id":"74e9ce9d-9e9f-4c6b-92fb-2f9a88c1f0f4","system_id":"levelo_inurba_marseille","lat":43.24167,"lon":5.36399,"is_reserved":false,"is_disabled":false,"rental_uris":{"android":"levelo://app?vid=74e9ce9d-9e9f-4c6b-92fb-2f9a88c1f0f4","ios":"levelo://app?vid=74e9ce9d-9e9f-4c6b-92fb-2f9a88c1f0f4"},"vehicle_type_id":"4","last_reported":1728443695,"current_range_meters":38400,"station_id":"cpo36qri1sfpv3e86is0","pricing_plan_id":"cebpf4jnsgd1na2vs0mg"},{"bike_id":"9b434954-8f80-420c-9ca5-125bea51658f","system_id":"levelo_inurba_marseille","lat":43.28703,"lon":5.39978,"is_reserved":false,"is_disabled":false,"rental_uris":{"android":"levelo://app?vid=9b434954-8f80-420c-9ca5-125bea51658f","ios":"levelo://app?vid=9b434954-8f80-420c-9ca5-125bea51658f"},"vehicle_type_id":"4","last_reported":1728443695,"current_range_meters":38400,"station_id":"ce4bho92rcd13ifvqh3g","pricing_plan_id":"cebpf4jnsgd1na2vs0mg"},{"bike_id":"60a0543e-c1b2-4835-9518-b5a0207f49e7","system_id":"levelo_inurba_marseille","lat":43.308,"lon":5.3816,"is_reserved":false,"is_disabled":false,"rental_uris":{"android":"levelo://app?vid=60a0543e-c1b2-4835-9518-b5a0207f49e7","ios":"levelo://app?vid=60a0543e-c1b2-4835-9518-b5a0207f49e7"},"vehicle_type_id":"4","last_reported":1728443695,"current_range_meters":7200,"station_id":"ce4bgt12rcd13ifvqce0","pricing_plan_id":"cebpf4jnsgd1na2vs0mg"},{"bike_id":"e6d31694-39d4-4970-abb7-3119e967bb42","system_id":"levelo_inurba_marseille","lat":43.29258,"lon":5.40914,"is_reserved":false,"is_disabled":false,"rental_uris":{"android":"levelo://app?vid=e6d31694-39d4-4970-abb7-3119e967bb42","ios":"levelo://app?vid=e6d31694-39d4-4970-abb7-3119e967bb42"},"vehicle_type_id":"4","last_reported":1728443695,"current_range_meters":28800,"station_id":"ce4bh192rcd13ifvqdc0","pricing_plan_id":"cebpf4jnsgd1na2vs0mg"},{"bike_id":"29bb705b-244f-4aef-aa49-4015d5bb9c70","system_id":"levelo_inurba_marseille","lat":43.27897,"lon":5.38007,"is_reserved":false,"is_disabled":false,"rental_uris":{"android":"levelo://app?vid=29bb705b-244f-4aef-aa49-4015d5bb9c70","ios":"levelo://app?vid=29bb705b-244f-4aef-aa49-4015d5bb9c70"},"vehicle_type_id":"4","last_reported":1728443695,"current_range_meters":40000,"station_id":"ce4bhf92rcd13ifvqf50","pricing_plan_id":"cebpf4jnsgd1na2vs0mg"},{"bike_id":"646f1fc8-f621-4238-9590-2507052cb37b","system_id":"levelo_inurba_marseille","lat":43.24667,"lon":5.3815,"is_reserved":false,"is_disabled":false,"rental_uris":{"android":"levelo://app?vid=646f1fc8-f621-4238-9590-2507052cb37b","ios":"levelo://app?vid=646f1fc8-f621-4238-9590-2507052cb37b"},"vehicle_type_id":"4","last_reported":1728443695,"current_range_meters":38400,"station_id":"ce4bhih2rcd13ifvqfr0","pricing_plan_id":"cebpf4jnsgd1na2vs0mg"},{"bike_id":"792577a6-685a-43bd-bdfe-2ef41696d1e8","system_id":"levelo_inurba_marseille","lat":43.23186,"lon":5.39995,"is_reserved":false,"is_disabled":false,"rental_uris":{"android":"levelo://app?vid=792577a6-685a-43bd-bdfe-2ef41696d1e8","ios":"levelo://app?vid=792577a6-685a-43bd-bdfe-2ef41696d1e8"},"vehicle_type_id":"4","last_reported":1728443695,"current_range_meters":35200,"station_id":"ce4bhn12rcd13ifvqgqg","pricing_plan_id":"cebpf4jnsgd1na2vs0mg"},{"bike_id":"5aa06e73-a872-4476-8190-82cdef504f3a","system_id":"levelo_inurba_marseille","lat":43.32289,"lon":5.38269,"is_reserved":false,"is_disabled":false,"rental_uris":{"android":"levelo://app?vid=5aa06e73-a872-4476-8190-82cdef504f3a","ios":"levelo://app?vid=5aa06e73-a872-4476-8190-82cdef504f3a"},"vehicle_type_id":"4","last_reported":1728443695,"current_range_meters":38800,"station_id":"ce4bhr12rcd13ifvqhqg","pricing_plan_id":"cebpf4jnsgd1na2vs0mg"},{"bike_id":"7d134c7e-8a37-4cd8-833e-574eb14c4a4d","system_id":"levelo_inurba_marseille","lat":43.24802,"lon":5.37452,"is_reserved":false,"is_disabled":false,"rental_uris":{"android":"levelo://app?vid=7d134c7e-8a37-4cd8-833e-574eb14c4a4d","ios":"levelo://app?vid=7d134c7e-8a37-4cd8-833e-574eb14c4a4d"},"vehicle_type_id":"4","last_reported":1728443695,"current_range_meters":38800,"station_id":"ce4bhgh2rcd13ifvqfb0","pricing_plan_id":"cebpf4jnsgd1na2vs0mg"},{"bike_id":"4e6700a4-9eaa-4883-b595-cfa877cac3c2","system_id":"levelo_inurba_marseille","lat":43.22934,"lon":5.35371,"is_reserved":false,"is_disabled":false,"rental_uris":{"android":"levelo://app?vid=4e6700a4-9eaa-4883-b595-cfa877cac3c2","ios":"levelo://app?vid=4e6700a4-9eaa-4883-b595-cfa877cac3c2"},"vehicle_type_id":"4","last_reported":1728443695,"current_range_meters":18000,"station_id":"cpo3532slgdg3j2ikp40","pricing_plan_id":"cebpf4jnsgd1na2vs0mg"},{"bike_id":"45d0d9e1-647c-454f-86f2-2585e377fbe6","system_id":"levelo_inurba_marseille","lat":43.30548,"lon":5.36692,"is_reserved":false,"is_disabled":false,"rental_uris":{"android":"levelo://app?vid=45d0d9e1-647c-454f-86f2-2585e377fbe6","ios":"levelo://app?vid=45d0d9e1-647c-454f-86f2-2585e377fbe6"},"vehicle_type_id":"4","last_reported":1728443695,"current_range_meters":40000,"station_id":"ce4bgrp2rcd13ifvqc9g","pricing_plan_id":"cebpf4jnsgd1na2vs0mg"},{"bike_id":"4b1d5d3d-55f8-4c81-a361-d0b57ab7e4cf","system_id":"levelo_inurba_marseille","lat":43.337444,"lon":5.374475,"is_reserved":false,"is_disabled":false,"rental_uris":{"android":"levelo://app?vid=4b1d5d3d-55f8-4c81-a361-d0b57ab7e4cf","ios":"levelo://app?vid=4b1d5d3d-55f8-4c81-a361-d0b57ab7e4cf"},"vehicle_type_id":"4","last_reported":1728443695,"current_range_meters":35200,"station_id":"","pricing_plan_id":"cebpf4jnsgd1na2vs0mg"},{"bike_id":"2cbd5177-168a-4693-94b8-67e503ddfe96","system_id":"levelo_inurba_marseille","lat":43.2873,"lon":5.36073,"is_reserved":false,"is_disabled":false,"rental_uris":{"android":"levelo://app?vid=2cbd5177-168a-4693-94b8-67e503ddfe96","ios":"levelo://app?vid=2cbd5177-168a-4693-94b8-67e503ddfe96"},"vehicle_type_id":"4","last_reported":1728443695,"current_range_meters":38800,"station_id":"cki0cbj6b192h4jlfktg","pricing_plan_id":"cebpf4jnsgd1na2vs0mg"},{"bike_id":"ff627f58-2a73-4969-a6f9-a245f3bf8ca7","system_id":"levelo_inurba_marseille","lat":43.2718,"lon":5.40984,"is_reserved":false,"is_disabled":false,"rental_uris":{"android":"levelo://app?vid=ff627f58-2a73-4969-a6f9-a245f3bf8ca7","ios":"levelo://app?vid=ff627f58-2a73-4969-a6f9-a245f3bf8ca7"},"vehicle_type_id":"4","last_reported":1728443695,"current_range_meters":28000,"station_id":"ce4bhl12rcd13ifvqgf0","pricing_plan_id":"cebpf4jnsgd1na2vs0mg"},{"bike_id":"8e0cf893-53f1-4df7-942d-0e3acc37c7da","system_id":"levelo_inurba_marseille","lat":43.31327,"lon":5.39688,"is_reserved":false,"is_disabled":false,"rental_uris":{"android":"levelo://app?vid=8e0cf893-53f1-4df7-942d-0e3acc37c7da","ios":"levelo://app?vid=8e0cf893-53f1-4df7-942d-0e3acc37c7da"},"vehicle_type_id":"4","last_reported":1728443695,"current_range_meters":38000,"station_id":"ce4bgvp2rcd13ifvqcu0","pricing_plan_id":"cebpf4jnsgd1na2vs0mg"},{"bike_id":"d3d56830-8710-450a-9311-63319fc341ac","system_id":"levelo_inurba_marseille","lat":43.32547,"lon":5.41431,"is_reserved":false,"is_disabled":false,"rental_uris":{"android":"levelo://app?vid=d3d56830-8710-450a-9311-63319fc341ac","ios":"levelo://app?vid=d3d56830-8710-450a-9311-63319fc341ac"},"vehicle_type_id":"4","last_reported":1728443695,"current_range_meters":24000,"station_id":"ce4bhq12rcd13ifvqhhg","pricing_plan_id":"cebpf4jnsgd1na2vs0mg"},{"bike_id":"d9dac78c-2682-4aba-aee4-c4ebaeedf77f","system_id":"levelo_inurba_marseille","lat":43.31693,"lon":5.40466,"is_reserved":false,"is_disabled":false,"rental_uris":{"android":"levelo://app?vid=d9dac78c-2682-4aba-aee4-c4ebaeedf77f","ios":"levelo://app?vid=d9dac78c-2682-4aba-aee4-c4ebaeedf77f"},"vehicle_type_id":"4","last_reported":1728443695,"current_range_meters":40000,"station_id":"ce4bh012rcd13ifvqd00","pricing_plan_id":"cebpf4jnsgd1na2vs0mg"},{"bike_id":"051133e1-617d-4246-9be9-4d946642f690","system_id":"levelo_inurba_marseille","lat":43.33602,"lon":5.41014,"is_reserved":false,"is_disabled":false,"rental_uris":{"android":"levelo://app?vid=051133e1-617d-4246-9be9-4d946642f690","ios":"levelo://app?vid=051133e1-617d-4246-9be9-4d946642f690"},"vehicle_type_id":"4","last_reported":1728443695,"current_range_meters":40000,"station_id":"ce4bhqh2rcd13ifvqhmg","pricing_plan_id":"cebpf4jnsgd1na2vs0mg"},{"bike_id":"1d768e7b-d064-4df7-907e-e7246f1090c0","system_id":"levelo_inurba_marseille","lat":43.28705,"lon":5.39993,"is_reserved":false,"is_disabled":false,"rental_uris":{"android":"levelo://app?vid=1d768e7b-d064-4df7-907e-e7246f1090c0","ios":"levelo://app?vid=1d768e7b-d064-4df7-907e-e7246f1090c0"},"vehicle_type_id":"4","last_reported":1728443695,"current_range_meters":38000,"station_id":"ce4bho92rcd13ifvqh3g","pricing_plan_id":"cebpf4jnsgd1na2vs0mg"},{"bike_id":"6bc58a29-9ae0-4340-8f05-b1cdcf6ed2ee","system_id":"levelo_inurba_marseille","lat":43.25863,"lon":5.39899,"is_reserved":false,"is_disabled":false,"rental_uris":{"android":"levelo://app?vid=6bc58a29-9ae0-4340-8f05-b1cdcf6ed2ee","ios":"levelo://app?vid=6bc58a29-9ae0-4340-8f05-b1cdcf6ed2ee"},"vehicle_type_id":"4","last_reported":1728443695,"current_range_meters":38400,"station_id":"ce4bhl92rcd13ifvqghg","pricing_plan_id":"cebpf4jnsgd1na2vs0mg"},{"bike_id":"6d8e011a-853b-4927-adbd-92e8b1b9de7f","system_id":"levelo_inurba_marseille","lat":43.258633,"lon":5.399065,"is_reserved":false,"is_disabled":false,"rental_uris":{"android":"levelo://app?vid=6d8e011a-853b-4927-adbd-92e8b1b9de7f","ios":"levelo://app?vid=6d8e011a-853b-4927-adbd-92e8b1b9de7f"},"vehicle_type_id":"4","last_reported":1728443695,"current_range_meters":11600,"station_id":"ce4bhl92rcd13ifvqghg","pricing_plan_id":"cebpf4jnsgd1na2vs0mg"},{"bike_id":"8513be67-a978-4cfc-9563-19285ed6fe5a","system_id":"levelo_inurba_marseille","lat":43.232,"lon":5.35545,"is_reserved":false,"is_disabled":false,"rental_uris":{"android":"levelo://app?vid=8513be67-a978-4cfc-9563-19285ed6fe5a","ios":"levelo://app?vid=8513be67-a978-4cfc-9563-19285ed6fe5a"},"vehicle_type_id":"4","last_reported":1728443695,"current_range_meters":14800,"station_id":"ce4bhu92rcd13ifvqi70","pricing_plan_id":"cebpf4jnsgd1na2vs0mg"},{"bike_id":"f6d374e3-c411-4592-b314-ae4b44f16a95","system_id":"levelo_inurba_marseille","lat":43.23186,"lon":5.3998,"is_reserved":false,"is_disabled":false,"rental_uris":{"android":"levelo://app?vid=f6d374e3-c411-4592-b314-ae4b44f16a95","ios":"levelo://app?vid=f6d374e3-c411-4592-b314-ae4b44f16a95"},"vehicle_type_id":"4","last_reported":1728443695,"current_range_meters":14000,"station_id":"ce4bhn12rcd13ifvqgqg","pricing_plan_id":"cebpf4jnsgd1na2vs0mg"},{"bike_id":"64f9fc34-c2d0-48d9-8484-d4d5eb7f685d","system_id":"levelo_inurba_marseille","lat":43.25089,"lon":5.3951,"is_reserved":false,"is_disabled":false,"rental_uris":{"android":"levelo://app?vid=64f9fc34-c2d0-48d9-8484-d4d5eb7f685d","ios":"levelo://app?vid=64f9fc34-c2d0-48d9-8484-d4d5eb7f685d"},"vehicle_type_id":"4","last_reported":1728443695,"current_range_meters":10800,"station_id":"ce4bhm12rcd13ifvqgkg","pricing_plan_id":"cebpf4jnsgd1na2vs0mg"},{"bike_id":"922252e8-02c2-4987-8eed-1d6d69073568","system_id":"levelo_inurba_marseille","lat":43.26688,"lon":5.38285,"is_reserved":false,"is_disabled":false,"rental_uris":{"android":"levelo://app?vid=922252e8-02c2-4987-8eed-1d6d69073568","ios":"levelo://app?vid=922252e8-02c2-4987-8eed-1d6d69073568"},"vehicle_type_id":"4","last_reported":1728443695,"current_range_meters":34000,"station_id":"ce4bhg92rcd13ifvqf90","pricing_plan_id":"cebpf4jnsgd1na2vs0mg"},{"bike_id":"edb53ae2-fce9-4c98-be65-8c2fedcecefa","system_id":"levelo_inurba_marseille","lat":43.28847,"lon":5.37034,"is_reserved":false,"is_disabled":false,"rental_uris":{"android":"levelo://app?vid=edb53ae2-fce9-4c98-be65-8c2fedcecefa","ios":"levelo://app?vid=edb53ae2-fce9-4c98-be65-8c2fedcecefa"},"vehicle_type_id":"4","last_reported":1728443695,"current_range_meters":28000,"station_id":"","pricing_plan_id":"cebpf4jnsgd1na2vs0mg"},{"bike_id":"6bd31e4e-2fd0-4c44-9080-9e340617a86a","system_id":"levelo_inurba_marseille","lat":43.28273,"lon":5.35067,"is_reserved":false,"is_disabled":false,"rental_uris":{"android":"levelo://app?vid=6bd31e4e-2fd0-4c44-9080-9e340617a86a","ios":"levelo://app?vid=6bd31e4e-2fd0-4c44-9080-9e340617a86a"},"vehicle_type_id":"4","last_reported":1728443695,"current_range_meters":37600,"station_id":"ce4bhbp2rcd13ifvqerg","pricing_plan_id":"cebpf4jnsgd1na2vs0mg"},{"bike_id":"eb8ad057-37b8-490b-8cbd-612da9ce71ce","system_id":"levelo_inurba_marseille","lat":43.29634,"lon":5.406,"is_reserved":false,"is_disabled":false,"rental_uris":{"android":"levelo://app?vid=eb8ad057-37b8-490b-8cbd-612da9ce71ce","ios":"levelo://app?vid=eb8ad057-37b8-490b-8cbd-612da9ce71ce"},"vehicle_type_id":"4","last_reported":1728443695,"current_range_meters":24000,"station_id":"ce4bh0h2rcd13ifvqd60","pricing_plan_id":"cebpf4jnsgd1na2vs0mg"},{"bike_id":"2f71813e-a8c2-4eda-8d77-6ef13c4a66a4","system_id":"levelo_inurba_marseille","lat":43.310709,"lon":5.383486,"is_reserved":false,"is_disabled":false,"rental_uris":{"android":"levelo://app?vid=2f71813e-a8c2-4eda-8d77-6ef13c4a66a4","ios":"levelo://app?vid=2f71813e-a8c2-4eda-8d77-6ef13c4a66a4"},"vehicle_type_id":"4","last_reported":1728443695,"current_range_meters":38400,"station_id":"ce4bgv92rcd13ifvqcr0","pricing_plan_id":"cebpf4jnsgd1na2vs0mg"},{"bike_id":"c374b381-660e-4af5-9586-1b5e3207b2cd","system_id":"levelo_inurba_marseille","lat":43.28413,"lon":5.37523,"is_reserved":false,"is_disabled":false,"rental_uris":{"android":"levelo://app?vid=c374b381-660e-4af5-9586-1b5e3207b2cd","ios":"levelo://app?vid=c374b381-660e-4af5-9586-1b5e3207b2cd"},"vehicle_type_id":"4","last_reported":1728443695,"current_range_meters":38800,"station_id":"ce4bh412rcd13ifvqds0","pricing_plan_id":"cebpf4jnsgd1na2vs0mg"},{"bike_id":"2158e928-4941-4e65-b746-86ff21af1033","system_id":"levelo_inurba_marseille","lat":43.29422,"lon":5.38626,"is_reserved":false,"is_disabled":false,"rental_uris":{"android":"levelo://app?vid=2158e928-4941-4e65-b746-86ff21af1033","ios":"levelo://app?vid=2158e928-4941-4e65-b746-86ff21af1033"},"vehicle_type_id":"4","last_reported":1728443695,"current_range_meters":38800,"station_id":"ce4bh2h2rcd13ifvqdh0","pricing_plan_id":"cebpf4jnsgd1na2vs0mg"},{"bike_id":"bcfe9bb5-1dc0-4e40-862b-8d0f0848d312","system_id":"levelo_inurba_marseille","lat":43.2847,"lon":5.35877,"is_reserved":false,"is_disabled":false,"rental_uris":{"android":"levelo://app?vid=bcfe9bb5-1dc0-4e40-862b-8d0f0848d312","ios":"levelo://app?vid=bcfe9bb5-1dc0-4e40-862b-8d0f0848d312"},"vehicle_type_id":"4","last_reported":1728443695,"current_range_meters":38800,"station_id":"ce4bhah2rcd13ifvqei0","pricing_plan_id":"cebpf4jnsgd1na2vs0mg"},{"bike_id":"5084a666-39fb-4c1d-82cc-b84dc8531987","system_id":"levelo_inurba_marseille","lat":43.27811,"lon":5.4071,"is_reserved":false,"is_disabled":false,"rental_uris":{"android":"levelo://app?vid=5084a666-39fb-4c1d-82cc-b84dc8531987","ios":"levelo://app?vid=5084a666-39fb-4c1d-82cc-b84dc8531987"},"vehicle_type_id":"4","last_reported":1728443695,"current_range_meters":34000,"station_id":"ce4bhnh2rcd13ifvqgtg","pricing_plan_id":"cebpf4jnsgd1na2vs0mg"},{"bike_id":"96b06325-9afa-4757-932d-282ee30fea00","system_id":"levelo_inurba_marseille","lat":43.27954,"lon":5.38706,"is_reserved":false,"is_disabled":false,"rental_uris":{"android":"levelo://app?vid=96b06325-9afa-4757-932d-282ee30fea00","ios":"levelo://app?vid=96b06325-9afa-4757-932d-282ee30fea00"},"vehicle_type_id":"4","last_reported":1728443695,"current_range_meters":36000,"station_id":"ce4bhg12rcd13ifvqf80","pricing_plan_id":"cebpf4jnsgd1na2vs0mg"},{"bike_id":"cd369e12-e28a-4cdd-a350-ff5aeb700440","system_id":"levelo_inurba_marseille","lat":43.25866,"lon":5.39893,"is_reserved":false,"is_disabled":false,"rental_uris":{"android":"levelo://app?vid=cd369e12-e28a-4cdd-a350-ff5aeb700440","ios":"levelo://app?vid=cd369e12-e28a-4cdd-a350-ff5aeb700440"},"vehicle_type_id":"4","last_reported":1728443695,"current_range_meters":25200,"station_id":"ce4bhl92rcd13ifvqghg","pricing_plan_id":"cebpf4jnsgd1na2vs0mg"},{"bike_id":"30ad42a8-138d-4c38-89e8-3b033da2c43b","system_id":"levelo_inurba_marseille","lat":43.23957,"lon":5.3663,"is_reserved":false,"is_disabled":false,"rental_uris":{"android":"levelo://app?vid=30ad42a8-138d-4c38-89e8-3b033da2c43b","ios":"levelo://app?vid=30ad42a8-138d-4c38-89e8-3b033da2c43b"},"vehicle_type_id":"4","last_reported":1728443695,"current_range_meters":40000,"station_id":"ce4bhi12rcd13ifvqfp0","pricing_plan_id":"cebpf4jnsgd1na2vs0mg"},{"bike_id":"8f70b22c-7e46-4c07-afdd-cbfc1db3c749","system_id":"levelo_inurba_marseille","lat":43.290245,"lon":5.386479,"is_reserved":false,"is_disabled":false,"rental_uris":{"android":"levelo://app?vid=8f70b22c-7e46-4c07-afdd-cbfc1db3c749","ios":"levelo://app?vid=8f70b22c-7e46-4c07-afdd-cbfc1db3c749"},"vehicle_type_id":"4","last_reported":1728443695,"current_range_meters":38800,"station_id":"ce4bh4p2rcd13ifvqe0g","pricing_plan_id":"cebpf4jnsgd1na2vs0mg"},{"bike_id":"2dec977e-c897-4b79-94f7-c1610957e0dd","system_id":"levelo_inurba_marseille","lat":43.30329,"lon":5.40438,"is_reserved":false,"is_disabled":false,"rental_uris":{"android":"levelo://app?vid=2dec977e-c897-4b79-94f7-c1610957e0dd","ios":"levelo://app?vid=2dec977e-c897-4b79-94f7-c1610957e0dd"},"vehicle_type_id":"4","last_reported":1728443695,"current_range_meters":8400,"station_id":"ce4bh012rcd13ifvqd10","pricing_plan_id":"cebpf4jnsgd1na2vs0mg"},{"bike_id":"e9f5f7a6-b548-414f-bb25-63138b966b4b","system_id":"levelo_inurba_marseille","lat":43.29285,"lon":5.40117,"is_reserved":false,"is_disabled":false,"rental_uris":{"android":"levelo://app?vid=e9f5f7a6-b548-414f-bb25-63138b966b4b","ios":"levelo://app?vid=e9f5f7a6-b548-414f-bb25-63138b966b4b"},"vehicle_type_id":"4","last_reported":1728443695,"current_range_meters":36400,"station_id":"ce4bh312rcd13ifvqdk0","pricing_plan_id":"cebpf4jnsgd1na2vs0mg"},{"bike_id":"9185ad80-89a0-491f-9870-590760f98e85","system_id":"levelo_inurba_marseille","lat":43.28087,"lon":5.39662,"is_reserved":false,"is_disabled":false,"rental_uris":{"android":"levelo://app?vid=9185ad80-89a0-491f-9870-590760f98e85","ios":"levelo://app?vid=9185ad80-89a0-491f-9870-590760f98e85"},"vehicle_type_id":"4","last_reported":1728443695,"current_range_meters":38000,"station_id":"ce4bho12rcd13ifvqh2g","pricing_plan_id":"cebpf4jnsgd1na2vs0mg"},{"bike_id":"0f0a4f6f-71a1-4073-9c1b-433b1c15ec56","system_id":"levelo_inurba_marseille","lat":43.30883,"lon":5.39637,"is_reserved":false,"is_disabled":false,"rental_uris":{"android":"levelo://app?vid=0f0a4f6f-71a1-4073-9c1b-433b1c15ec56","ios":"levelo://app?vid=0f0a4f6f-71a1-4073-9c1b-433b1c15ec56"},"vehicle_type_id":"4","last_reported":1728443695,"current_range_meters":30000,"station_id":"ce4bh012rcd13ifvqcv0","pricing_plan_id":"cebpf4jnsgd1na2vs0mg"},{"bike_id":"96d80047-32d2-45f4-bd41-195cf5cb8e0c","system_id":"levelo_inurba_marseille","lat":43.23053,"lon":5.35493,"is_reserved":false,"is_disabled":false,"rental_uris":{"android":"levelo://app?vid=96d80047-32d2-45f4-bd41-195cf5cb8e0c","ios":"levelo://app?vid=96d80047-32d2-45f4-bd41-195cf5cb8e0c"},"vehicle_type_id":"4","last_reported":1728443695,"current_range_meters":38800,"station_id":"cpo3342slgdg3j2ifvpg","pricing_plan_id":"cebpf4jnsgd1na2vs0mg"},{"bike_id":"3f075d9e-747a-4dc6-8975-c869d6810643","system_id":"levelo_inurba_marseille","lat":43.30237,"lon":5.40059,"is_reserved":false,"is_disabled":false,"rental_uris":{"android":"levelo://app?vid=3f075d9e-747a-4dc6-8975-c869d6810643","ios":"levelo://app?vid=3f075d9e-747a-4dc6-8975-c869d6810643"},"vehicle_type_id":"4","last_reported":1728443695,"current_range_meters":27200,"station_id":"ce4bgvh2rcd13ifvqcs0","pricing_plan_id":"cebpf4jnsgd1na2vs0mg"},{"bike_id":"a8444b8d-40c0-4785-9210-96e02271b3e8","system_id":"levelo_inurba_marseille","lat":43.31331,"lon":5.39694,"is_reserved":false,"is_disabled":false,"rental_uris":{"android":"levelo://app?vid=a8444b8d-40c0-4785-9210-96e02271b3e8","ios":"levelo://app?vid=a8444b8d-40c0-4785-9210-96e02271b3e8"},"vehicle_type_id":"4","last_reported":1728443695,"current_range_meters":38400,"station_id":"ce4bgvp2rcd13ifvqcu0","pricing_plan_id":"cebpf4jnsgd1na2vs0mg"},{"bike_id":"ad9ed443-69c3-40b7-9de4-c5500b7c5680","system_id":"levelo_inurba_marseille","lat":43.31719,"lon":5.37748,"is_reserved":false,"is_disabled":false,"rental_uris":{"android":"levelo://app?vid=ad9ed443-69c3-40b7-9de4-c5500b7c5680","ios":"levelo://app?vid=ad9ed443-69c3-40b7-9de4-c5500b7c5680"},"vehicle_type_id":"4","last_reported":1728443695,"current_range_meters":38000,"station_id":"ce4bgth2rcd13ifvqch0","pricing_plan_id":"cebpf4jnsgd1na2vs0mg"},{"bike_id":"71136ed9-e2ec-4337-b5ae-b3882452ee4f","system_id":"levelo_inurba_marseille","lat":43.30593,"lon":5.37214,"is_reserved":false,"is_disabled":false,"rental_uris":{"android":"levelo://app?vid=71136ed9-e2ec-4337-b5ae-b3882452ee4f","ios":"levelo://app?vid=71136ed9-e2ec-4337-b5ae-b3882452ee4f"},"vehicle_type_id":"4","last_reported":1728443695,"current_range_meters":36400,"station_id":"ce4bgqh2rcd13ifvqc4g","pricing_plan_id":"cebpf4jnsgd1na2vs0mg"},{"bike_id":"4527bfc5-c904-4845-895d-1c7c8e77151f","system_id":"levelo_inurba_marseille","lat":43.319913,"lon":5.381513,"is_reserved":false,"is_disabled":false,"rental_uris":{"android":"levelo://app?vid=4527bfc5-c904-4845-895d-1c7c8e77151f","ios":"levelo://app?vid=4527bfc5-c904-4845-895d-1c7c8e77151f"},"vehicle_type_id":"4","last_reported":1728443695,"current_range_meters":37600,"station_id":"ce4bhr12rcd13ifvqhpg","pricing_plan_id":"cebpf4jnsgd1na2vs0mg"},{"bike_id":"a44748dc-f8f5-4318-8bce-df7a0f090cd4","system_id":"levelo_inurba_marseille","lat":43.29555,"lon":5.42282,"is_reserved":false,"is_disabled":false,"rental_uris":{"android":"levelo://app?vid=a44748dc-f8f5-4318-8bce-df7a0f090cd4","ios":"levelo://app?vid=a44748dc-f8f5-4318-8bce-df7a0f090cd4"},"vehicle_type_id":"4","last_reported":1728443695,"current_range_meters":39200,"station_id":"ce4bhph2rcd13ifvqhdg","pricing_plan_id":"cebpf4jnsgd1na2vs0mg"},{"bike_id":"ae50b9df-0336-4082-8295-839e2bc4a0df","system_id":"levelo_inurba_marseille","lat":43.27069,"lon":5.42281,"is_reserved":false,"is_disabled":false,"rental_uris":{"android":"levelo://app?vid=ae50b9df-0336-4082-8295-839e2bc4a0df","ios":"levelo://app?vid=ae50b9df-0336-4082-8295-839e2bc4a0df"},"vehicle_type_id":"4","last_reported":1728443695,"current_range_meters":38800,"station_id":"ce4bhk92rcd13ifvqgb0","pricing_plan_id":"cebpf4jnsgd1na2vs0mg"},{"bike_id":"c018b5c7-360e-41e6-8f4b-81fbd8ad4bf8","system_id":"levelo_inurba_marseille","lat":43.258246,"lon":5.394366,"is_reserved":false,"is_disabled":false,"rental_uris":{"android":"levelo://app?vid=c018b5c7-360e-41e6-8f4b-81fbd8ad4bf8","ios":"levelo://app?vid=c018b5c7-360e-41e6-8f4b-81fbd8ad4bf8"},"vehicle_type_id":"4","last_reported":1728443695,"current_range_meters":38800,"station_id":"ce4bhip2rcd13ifvqft0","pricing_plan_id":"cebpf4jnsgd1na2vs0mg"},{"bike_id":"b45d4f53-018e-407c-b58b-5667c347cfde","system_id":"levelo_inurba_marseille","lat":43.28349,"lon":5.38102,"is_reserved":false,"is_disabled":false,"rental_uris":{"android":"levelo://app?vid=b45d4f53-018e-407c-b58b-5667c347cfde","ios":"levelo://app?vid=b45d4f53-018e-407c-b58b-5667c347cfde"},"vehicle_type_id":"4","last_reported":1728443695,"current_range_meters":38000,"station_id":"ce4bh412rcd13ifvqdr0","pricing_plan_id":"cebpf4jnsgd1na2vs0mg"},{"bike_id":"55ba4377-601c-4927-9ad3-a34a12963ae2","system_id":"levelo_inurba_marseille","lat":43.23056,"lon":5.3549,"is_reserved":false,"is_disabled":false,"rental_uris":{"android":"levelo://app?vid=55ba4377-601c-4927-9ad3-a34a12963ae2","ios":"levelo://app?vid=55ba4377-601c-4927-9ad3-a34a12963ae2"},"vehicle_type_id":"4","last_reported":1728443695,"current_range_meters":28800,"station_id":"cpo3342slgdg3j2ifvpg","pricing_plan_id":"cebpf4jnsgd1na2vs0mg"},{"bike_id":"9fe78430-11e7-47f8-baac-bd725566a90b","system_id":"levelo_inurba_marseille","lat":43.23193,"lon":5.35547,"is_reserved":false,"is_disabled":false,"rental_uris":{"android":"levelo://app?vid=9fe78430-11e7-47f8-baac-bd725566a90b","ios":"levelo://app?vid=9fe78430-11e7-47f8-baac-bd725566a90b"},"vehicle_type_id":"4","last_reported":1728443695,"current_range_meters":6400,"station_id":"ce4bhu92rcd13ifvqi70","pricing_plan_id":"cebpf4jnsgd1na2vs0mg"},{"bike_id":"cc44185f-1530-4b7e-b2f8-01866ebb27f3","system_id":"levelo_inurba_marseille","lat":43.31361,"lon":5.38493,"is_reserved":false,"is_disabled":false,"rental_uris":{"android":"levelo://app?vid=cc44185f-1530-4b7e-b2f8-01866ebb27f3","ios":"levelo://app?vid=cc44185f-1530-4b7e-b2f8-01866ebb27f3"},"vehicle_type_id":"4","last_reported":1728443695,"current_range_meters":40000,"station_id":"ce4bgt92rcd13ifvqcf0","pricing_plan_id":"cebpf4jnsgd1na2vs0mg"},{"bike_id":"158c735d-765f-459c-89f5-d54d747df691","system_id":"levelo_inurba_marseille","lat":43.25928,"lon":5.4091,"is_reserved":false,"is_disabled":false,"rental_uris":{"android":"levelo://app?vid=158c735d-765f-459c-89f5-d54d747df691","ios":"levelo://app?vid=158c735d-765f-459c-89f5-d54d747df691"},"vehicle_type_id":"4","last_reported":1728443695,"current_range_meters":38800,"station_id":"ce4bhm92rcd13ifvqglg","pricing_plan_id":"cebpf4jnsgd1na2vs0mg"},{"bike_id":"1506dc35-6ab5-4d1c-92b6-aabb849f4fcd","system_id":"levelo_inurba_marseille","lat":43.23961,"lon":5.36631,"is_reserved":false,"is_disabled":false,"rental_uris":{"android":"levelo://app?vid=1506dc35-6ab5-4d1c-92b6-aabb849f4fcd","ios":"levelo://app?vid=1506dc35-6ab5-4d1c-92b6-aabb849f4fcd"},"vehicle_type_id":"4","last_reported":1728443695,"current_range_meters":32000,"station_id":"ce4bhi12rcd13ifvqfp0","pricing_plan_id":"cebpf4jnsgd1na2vs0mg"},{"bike_id":"32a47555-5b90-4e71-acec-5d7469e9cc0c","system_id":"levelo_inurba_marseille","lat":43.32484,"lon":5.36569,"is_reserved":false,"is_disabled":false,"rental_uris":{"android":"levelo://app?vid=32a47555-5b90-4e71-acec-5d7469e9cc0c","ios":"levelo://app?vid=32a47555-5b90-4e71-acec-5d7469e9cc0c"},"vehicle_type_id":"4","last_reported":1728443695,"current_range_meters":38800,"station_id":"ce4bhs12rcd13ifvqhvg","pricing_plan_id":"cebpf4jnsgd1na2vs0mg"},{"bike_id":"3aeeac68-8682-43b6-980d-6e74beaa53fc","system_id":"levelo_inurba_marseille","lat":43.28269,"lon":5.35072,"is_reserved":false,"is_disabled":false,"rental_uris":{"android":"levelo://app?vid=3aeeac68-8682-43b6-980d-6e74beaa53fc","ios":"levelo://app?vid=3aeeac68-8682-43b6-980d-6e74beaa53fc"},"vehicle_type_id":"4","last_reported":1728443695,"current_range_meters":20000,"station_id":"ce4bhbp2rcd13ifvqerg","pricing_plan_id":"cebpf4jnsgd1na2vs0mg"},{"bike_id":"b0041fcf-63a0-4dc7-806a-85ec5879fb69","system_id":"levelo_inurba_marseille","lat":43.304405,"lon":5.388911,"is_reserved":false,"is_disabled":false,"rental_uris":{"android":"levelo://app?vid=b0041fcf-63a0-4dc7-806a-85ec5879fb69","ios":"levelo://app?vid=b0041fcf-63a0-4dc7-806a-85ec5879fb69"},"vehicle_type_id":"4","last_reported":1728443695,"current_range_meters":37600,"station_id":"ce4bgk12rcd13ifvqbi0","pricing_plan_id":"cebpf4jnsgd1na2vs0mg"},{"bike_id":"0c288a66-b131-46d6-9b40-6863e5a6f095","system_id":"levelo_inurba_marseille","lat":43.29887,"lon":5.39735,"is_reserved":false,"is_disabled":false,"rental_uris":{"android":"levelo://app?vid=0c288a66-b131-46d6-9b40-6863e5a6f095","ios":"levelo://app?vid=0c288a66-b131-46d6-9b40-6863e5a6f095"},"vehicle_type_id":"4","last_reported":1728443695,"current_range_meters":2000,"station_id":"ce4bh0h2rcd13ifvqd50","pricing_plan_id":"cebpf4jnsgd1na2vs0mg"},{"bike_id":"51fd209a-88b9-480c-a0a1-89c5a773dbbd","system_id":"levelo_inurba_marseille","lat":43.29932,"lon":5.39761,"is_reserved":false,"is_disabled":false,"rental_uris":{"android":"levelo://app?vid=51fd209a-88b9-480c-a0a1-89c5a773dbbd","ios":"levelo://app?vid=51fd209a-88b9-480c-a0a1-89c5a773dbbd"},"vehicle_type_id":"4","last_reported":1728443695,"current_range_meters":27200,"station_id":"ce4bh0h2rcd13ifvqd50","pricing_plan_id":"cebpf4jnsgd1na2vs0mg"},{"bike_id":"9e79ebcc-a30f-4ca0-95c7-c2d8da29fb05","system_id":"levelo_inurba_marseille","lat":43.30931,"lon":5.40148,"is_reserved":false,"is_disabled":false,"rental_uris":{"android":"levelo://app?vid=9e79ebcc-a30f-4ca0-95c7-c2d8da29fb05","ios":"levelo://app?vid=9e79ebcc-a30f-4ca0-95c7-c2d8da29fb05"},"vehicle_type_id":"4","last_reported":1728443695,"current_range_meters":23200,"station_id":"ce4bgvp2rcd13ifvqct0","pricing_plan_id":"cebpf4jnsgd1na2vs0mg"},{"bike_id":"faff6134-e74d-4a58-9b9f-8e1a952e1500","system_id":"levelo_inurba_marseille","lat":43.25123,"lon":5.40317,"is_reserved":false,"is_disabled":false,"rental_uris":{"android":"levelo://app?vid=faff6134-e74d-4a58-9b9f-8e1a952e1500","ios":"levelo://app?vid=faff6134-e74d-4a58-9b9f-8e1a952e1500"},"vehicle_type_id":"4","last_reported":1728443695,"current_range_meters":36400,"station_id":"ce4bhlh2rcd13ifvqgig","pricing_plan_id":"cebpf4jnsgd1na2vs0mg"},{"bike_id":"1486620c-cab5-4df2-a701-ab45e7291aca","system_id":"levelo_inurba_marseille","lat":43.3064,"lon":5.40078,"is_reserved":false,"is_disabled":false,"rental_uris":{"android":"levelo://app?vid=1486620c-cab5-4df2-a701-ab45e7291aca","ios":"levelo://app?vid=1486620c-cab5-4df2-a701-ab45e7291aca"},"vehicle_type_id":"4","last_reported":1728443695,"current_range_meters":20400,"station_id":"ce4bh112rcd13ifvqda0","pricing_plan_id":"cebpf4jnsgd1na2vs0mg"},{"bike_id":"609d2886-db14-4df3-941c-713329a828d9","system_id":"levelo_inurba_marseille","lat":43.31329,"lon":5.396885,"is_reserved":false,"is_disabled":false,"rental_uris":{"android":"levelo://app?vid=609d2886-db14-4df3-941c-713329a828d9","ios":"levelo://app?vid=609d2886-db14-4df3-941c-713329a828d9"},"vehicle_type_id":"4","last_reported":1728443695,"current_range_meters":39200,"station_id":"ce4bgvp2rcd13ifvqcu0","pricing_plan_id":"cebpf4jnsgd1na2vs0mg"},{"bike_id":"1b6f27e4-f9ed-4845-a2c9-0c343c5e80c7","system_id":"levelo_inurba_marseille","lat":43.27067,"lon":5.42274,"is_reserved":false,"is_disabled":false,"rental_uris":{"android":"levelo://app?vid=1b6f27e4-f9ed-4845-a2c9-0c343c5e80c7","ios":"levelo://app?vid=1b6f27e4-f9ed-4845-a2c9-0c343c5e80c7"},"vehicle_type_id":"4","last_reported":1728443695,"current_range_meters":9600,"station_id":"ce4bhk92rcd13ifvqgb0","pricing_plan_id":"cebpf4jnsgd1na2vs0mg"},{"bike_id":"dd1991e4-bf64-4151-be14-c94f781f6ff7","system_id":"levelo_inurba_marseille","lat":43.28856,"lon":5.39312,"is_reserved":false,"is_disabled":false,"rental_uris":{"android":"levelo://app?vid=dd1991e4-bf64-4151-be14-c94f781f6ff7","ios":"levelo://app?vid=dd1991e4-bf64-4151-be14-c94f781f6ff7"},"vehicle_type_id":"4","last_reported":1728443695,"current_range_meters":38800,"station_id":"ce4bh2p2rcd13ifvqdi0","pricing_plan_id":"cebpf4jnsgd1na2vs0mg"},{"bike_id":"6217f0d4-29aa-4911-a3f9-c02e45328700","system_id":"levelo_inurba_marseille","lat":43.23194,"lon":5.35547,"is_reserved":false,"is_disabled":false,"rental_uris":{"android":"levelo://app?vid=6217f0d4-29aa-4911-a3f9-c02e45328700","ios":"levelo://app?vid=6217f0d4-29aa-4911-a3f9-c02e45328700"},"vehicle_type_id":"4","last_reported":1728443695,"current_range_meters":35200,"station_id":"ce4bhu92rcd13ifvqi70","pricing_plan_id":"cebpf4jnsgd1na2vs0mg"},{"bike_id":"1c0652cf-a5de-4e48-ae69-4a7082e00a57","system_id":"levelo_inurba_marseille","lat":43.30882,"lon":5.39645,"is_reserved":false,"is_disabled":false,"rental_uris":{"android":"levelo://app?vid=1c0652cf-a5de-4e48-ae69-4a7082e00a57","ios":"levelo://app?vid=1c0652cf-a5de-4e48-ae69-4a7082e00a57"},"vehicle_type_id":"4","last_reported":1728443695,"current_range_meters":39200,"station_id":"ce4bh012rcd13ifvqcv0","pricing_plan_id":"cebpf4jnsgd1na2vs0mg"},{"bike_id":"5b96d083-1a8e-4c07-9472-90da520a5d74","system_id":"levelo_inurba_marseille","lat":43.30801,"lon":5.43531,"is_reserved":false,"is_disabled":false,"rental_uris":{"android":"levelo://app?vid=5b96d083-1a8e-4c07-9472-90da520a5d74","ios":"levelo://app?vid=5b96d083-1a8e-4c07-9472-90da520a5d74"},"vehicle_type_id":"4","last_reported":1728443695,"current_range_meters":9200,"station_id":"ce4bhph2rcd13ifvqheg","pricing_plan_id":"cebpf4jnsgd1na2vs0mg"},{"bike_id":"141df06e-113e-44c6-8129-a25fe376a60a","system_id":"levelo_inurba_marseille","lat":43.29551,"lon":5.42285,"is_reserved":false,"is_disabled":false,"rental_uris":{"android":"levelo://app?vid=141df06e-113e-44c6-8129-a25fe376a60a","ios":"levelo://app?vid=141df06e-113e-44c6-8129-a25fe376a60a"},"vehicle_type_id":"4","last_reported":1728443695,"current_range_meters":38800,"station_id":"ce4bhph2rcd13ifvqhdg","pricing_plan_id":"cebpf4jnsgd1na2vs0mg"},{"bike_id":"db1bc551-c9e7-45ea-a089-87368fc7380e","system_id":"levelo_inurba_marseille","lat":43.26803,"lon":5.40265,"is_reserved":false,"is_disabled":false,"rental_uris":{"android":"levelo://app?vid=db1bc551-c9e7-45ea-a089-87368fc7380e","ios":"levelo://app?vid=db1bc551-c9e7-45ea-a089-87368fc7380e"},"vehicle_type_id":"4","last_reported":1728443695,"current_range_meters":38400,"station_id":"ce501612rcd8frsf0b60","pricing_plan_id":"cebpf4jnsgd1na2vs0mg"},{"bike_id":"dda03318-56f8-4cec-8482-a2f0ea0746b9","system_id":"levelo_inurba_marseille","lat":43.30794,"lon":5.4353,"is_reserved":false,"is_disabled":false,"rental_uris":{"android":"levelo://app?vid=dda03318-56f8-4cec-8482-a2f0ea0746b9","ios":"levelo://app?vid=dda03318-56f8-4cec-8482-a2f0ea0746b9"},"vehicle_type_id":"4","last_reported":1728443695,"current_range_meters":38800,"station_id":"ce4bhph2rcd13ifvqheg","pricing_plan_id":"cebpf4jnsgd1na2vs0mg"},{"bike_id":"8015cf68-9f5e-44aa-ac29-1afa94c6b5ef","system_id":"levelo_inurba_marseille","lat":43.29256,"lon":5.40898,"is_reserved":false,"is_disabled":false,"rental_uris":{"android":"levelo://app?vid=8015cf68-9f5e-44aa-ac29-1afa94c6b5ef","ios":"levelo://app?vid=8015cf68-9f5e-44aa-ac29-1afa94c6b5ef"},"vehicle_type_id":"4","last_reported":1728443695,"current_range_meters":40000,"station_id":"ce4bh192rcd13ifvqdc0","pricing_plan_id":"cebpf4jnsgd1na2vs0mg"},{"bike_id":"e6965ac5-ecd8-44d2-8b88-fafefda4acab","system_id":"levelo_inurba_marseille","lat":43.284462,"lon":5.391858,"is_reserved":false,"is_disabled":false,"rental_uris":{"android":"levelo://app?vid=e6965ac5-ecd8-44d2-8b88-fafefda4acab","ios":"levelo://app?vid=e6965ac5-ecd8-44d2-8b88-fafefda4acab"},"vehicle_type_id":"4","last_reported":1728443695,"current_range_meters":38800,"station_id":"ce4bhoh2rcd13ifvqh5g","pricing_plan_id":"cebpf4jnsgd1na2vs0mg"},{"bike_id":"fc03d490-176f-43df-b807-1e599e0e0cd2","system_id":"levelo_inurba_marseille","lat":43.31171,"lon":5.38713,"is_reserved":false,"is_disabled":false,"rental_uris":{"android":"levelo://app?vid=fc03d490-176f-43df-b807-1e599e0e0cd2","ios":"levelo://app?vid=fc03d490-176f-43df-b807-1e599e0e0cd2"},"vehicle_type_id":"4","last_reported":1728443695,"current_range_meters":37600,"station_id":"ce4bgv12rcd13ifvqcp0","pricing_plan_id":"cebpf4jnsgd1na2vs0mg"},{"bike_id":"ddc684f5-b0b9-44fc-aace-86b5d991e52b","system_id":"levelo_inurba_marseille","lat":43.29258,"lon":5.40913,"is_reserved":false,"is_disabled":false,"rental_uris":{"android":"levelo://app?vid=ddc684f5-b0b9-44fc-aace-86b5d991e52b","ios":"levelo://app?vid=ddc684f5-b0b9-44fc-aace-86b5d991e52b"},"vehicle_type_id":"4","last_reported":1728443695,"current_range_meters":38800,"station_id":"ce4bh192rcd13ifvqdc0","pricing_plan_id":"cebpf4jnsgd1na2vs0mg"},{"bike_id":"0ac4c99e-25ae-49bd-9233-643b1e4bb98b","system_id":"levelo_inurba_marseille","lat":43.25582,"lon":5.38235,"is_reserved":false,"is_disabled":false,"rental_uris":{"android":"levelo://app?vid=0ac4c99e-25ae-49bd-9233-643b1e4bb98b","ios":"levelo://app?vid=0ac4c99e-25ae-49bd-9233-643b1e4bb98b"},"vehicle_type_id":"4","last_reported":1728443695,"current_range_meters":38800,"station_id":"ce4bhih2rcd13ifvqfs0","pricing_plan_id":"cebpf4jnsgd1na2vs0mg"},{"bike_id":"241a5525-7371-426a-8bef-47caffb00686","system_id":"levelo_inurba_marseille","lat":43.30798,"lon":5.43526,"is_reserved":false,"is_disabled":false,"rental_uris":{"android":"levelo://app?vid=241a5525-7371-426a-8bef-47caffb00686","ios":"levelo://app?vid=241a5525-7371-426a-8bef-47caffb00686"},"vehicle_type_id":"4","last_reported":1728443695,"current_range_meters":24800,"station_id":"ce4bhph2rcd13ifvqheg","pricing_plan_id":"cebpf4jnsgd1na2vs0mg"},{"bike_id":"f3ed9fd9-921d-480e-8609-1abb9151721d","system_id":"levelo_inurba_marseille","lat":43.28859,"lon":5.35838,"is_reserved":false,"is_disabled":false,"rental_uris":{"android":"levelo://app?vid=f3ed9fd9-921d-480e-8609-1abb9151721d","ios":"levelo://app?vid=f3ed9fd9-921d-480e-8609-1abb9151721d"},"vehicle_type_id":"4","last_reported":1728443695,"current_range_meters":11600,"station_id":"ce4bhb12rcd13ifvqem0","pricing_plan_id":"cebpf4jnsgd1na2vs0mg"},{"bike_id":"16c99d8a-9fec-4054-b8c3-437334a27e05","system_id":"levelo_inurba_marseille","lat":43.29547,"lon":5.42282,"is_reserved":false,"is_disabled":false,"rental_uris":{"android":"levelo://app?vid=16c99d8a-9fec-4054-b8c3-437334a27e05","ios":"levelo://app?vid=16c99d8a-9fec-4054-b8c3-437334a27e05"},"vehicle_type_id":"4","last_reported":1728443695,"current_range_meters":32000,"station_id":"ce4bhph2rcd13ifvqhdg","pricing_plan_id":"cebpf4jnsgd1na2vs0mg"},{"bike_id":"c80daecc-2bd3-43e6-88ad-a7e3cd0076e7","system_id":"levelo_inurba_marseille","lat":43.31365,"lon":5.38494,"is_reserved":false,"is_disabled":false,"rental_uris":{"android":"levelo://app?vid=c80daecc-2bd3-43e6-88ad-a7e3cd0076e7","ios":"levelo://app?vid=c80daecc-2bd3-43e6-88ad-a7e3cd0076e7"},"vehicle_type_id":"4","last_reported":1728443695,"current_range_meters":38400,"station_id":"ce4bgt92rcd13ifvqcf0","pricing_plan_id":"cebpf4jnsgd1na2vs0mg"},{"bike_id":"9a1af639-c722-4ca2-a110-768f4d0f109f","system_id":"levelo_inurba_marseille","lat":43.28853,"lon":5.39304,"is_reserved":false,"is_disabled":false,"rental_uris":{"android":"levelo://app?vid=9a1af639-c722-4ca2-a110-768f4d0f109f","ios":"levelo://app?vid=9a1af639-c722-4ca2-a110-768f4d0f109f"},"vehicle_type_id":"4","last_reported":1728443695,"current_range_meters":38800,"station_id":"ce4bh2p2rcd13ifvqdi0","pricing_plan_id":"cebpf4jnsgd1na2vs0mg"},{"bike_id":"15a3fdd3-4620-48a3-893b-049a4a8b5505","system_id":"levelo_inurba_marseille","lat":43.28429,"lon":5.39203,"is_reserved":false,"is_disabled":false,"rental_uris":{"android":"levelo://app?vid=15a3fdd3-4620-48a3-893b-049a4a8b5505","ios":"levelo://app?vid=15a3fdd3-4620-48a3-893b-049a4a8b5505"},"vehicle_type_id":"4","last_reported":1728443695,"current_range_meters":34000,"station_id":"ce4bhoh2rcd13ifvqh5g","pricing_plan_id":"cebpf4jnsgd1na2vs0mg"},{"bike_id":"6fcf92c0-40c9-4791-bcd9-3340916755cf","system_id":"levelo_inurba_marseille","lat":43.29258,"lon":5.40903,"is_reserved":false,"is_disabled":false,"rental_uris":{"android":"levelo://app?vid=6fcf92c0-40c9-4791-bcd9-3340916755cf","ios":"levelo://app?vid=6fcf92c0-40c9-4791-bcd9-3340916755cf"},"vehicle_type_id":"4","last_reported":1728443695,"current_range_meters":35200,"station_id":"ce4bh192rcd13ifvqdc0","pricing_plan_id":"cebpf4jnsgd1na2vs0mg"},{"bike_id":"8d1794e8-a4a9-4e7a-892c-539d2cb0fd90","system_id":"levelo_inurba_marseille","lat":43.23196,"lon":5.35553,"is_reserved":false,"is_disabled":false,"rental_uris":{"android":"levelo://app?vid=8d1794e8-a4a9-4e7a-892c-539d2cb0fd90","ios":"levelo://app?vid=8d1794e8-a4a9-4e7a-892c-539d2cb0fd90"},"vehicle_type_id":"4","last_reported":1728443695,"current_range_meters":20000,"station_id":"ce4bhu92rcd13ifvqi70","pricing_plan_id":"cebpf4jnsgd1na2vs0mg"},{"bike_id":"93ba134e-b186-4000-870f-13fdc506e837","system_id":"levelo_inurba_marseille","lat":43.33608,"lon":5.41012,"is_reserved":false,"is_disabled":false,"rental_uris":{"android":"levelo://app?vid=93ba134e-b186-4000-870f-13fdc506e837","ios":"levelo://app?vid=93ba134e-b186-4000-870f-13fdc506e837"},"vehicle_type_id":"4","last_reported":1728443695,"current_range_meters":32000,"station_id":"ce4bhqh2rcd13ifvqhmg","pricing_plan_id":"cebpf4jnsgd1na2vs0mg"},{"bike_id":"cc691f8e-33eb-460a-a1f2-70605530f2d0","system_id":"levelo_inurba_marseille","lat":43.28935,"lon":5.36392,"is_reserved":false,"is_disabled":false,"rental_uris":{"android":"levelo://app?vid=cc691f8e-33eb-460a-a1f2-70605530f2d0","ios":"levelo://app?vid=cc691f8e-33eb-460a-a1f2-70605530f2d0"},"vehicle_type_id":"4","last_reported":1728443695,"current_range_meters":38800,"station_id":"ce4bhc92rcd13ifvqetg","pricing_plan_id":"cebpf4jnsgd1na2vs0mg"},{"bike_id":"18f19cd4-f1c2-4456-b930-1cd1a7e9f4fa","system_id":"levelo_inurba_marseille","lat":43.25008,"lon":5.38928,"is_reserved":false,"is_disabled":false,"rental_uris":{"android":"levelo://app?vid=18f19cd4-f1c2-4456-b930-1cd1a7e9f4fa","ios":"levelo://app?vid=18f19cd4-f1c2-4456-b930-1cd1a7e9f4fa"},"vehicle_type_id":"4","last_reported":1728443695,"current_range_meters":8400,"station_id":"ce4bhgp2rcd13ifvqfd0","pricing_plan_id":"cebpf4jnsgd1na2vs0mg"},{"bike_id":"b485c2bb-43d7-492d-abe1-8fab8b09980e","system_id":"levelo_inurba_marseille","lat":43.28858,"lon":5.35843,"is_reserved":false,"is_disabled":false,"rental_uris":{"android":"levelo://app?vid=b485c2bb-43d7-492d-abe1-8fab8b09980e","ios":"levelo://app?vid=b485c2bb-43d7-492d-abe1-8fab8b09980e"},"vehicle_type_id":"4","last_reported":1728443695,"current_range_meters":38800,"station_id":"ce4bhb12rcd13ifvqem0","pricing_plan_id":"cebpf4jnsgd1na2vs0mg"},{"bike_id":"03e0b79e-d360-4cff-9765-d3d5ed5d3586","system_id":"levelo_inurba_marseille","lat":43.3117,"lon":5.38713,"is_reserved":false,"is_disabled":false,"rental_uris":{"android":"levelo://app?vid=03e0b79e-d360-4cff-9765-d3d5ed5d3586","ios":"levelo://app?vid=03e0b79e-d360-4cff-9765-d3d5ed5d3586"},"vehicle_type_id":"4","last_reported":1728443695,"current_range_meters":37600,"station_id":"ce4bgv12rcd13ifvqcp0","pricing_plan_id":"cebpf4jnsgd1na2vs0mg"},{"bike_id":"562ca1c5-5529-4b7f-ba55-7ccfdb717c00","system_id":"levelo_inurba_marseille","lat":43.269446,"lon":5.402545,"is_reserved":false,"is_disabled":false,"rental_uris":{"android":"levelo://app?vid=562ca1c5-5529-4b7f-ba55-7ccfdb717c00","ios":"levelo://app?vid=562ca1c5-5529-4b7f-ba55-7ccfdb717c00"},"vehicle_type_id":"4","last_reported":1728443695,"current_range_meters":38400,"station_id":"cjm6bp8fraef2m0cb0m0","pricing_plan_id":"cebpf4jnsgd1na2vs0mg"},{"bike_id":"1ff79c74-3389-42ba-a572-8bc259978125","system_id":"levelo_inurba_marseille","lat":43.28103,"lon":5.37837,"is_reserved":false,"is_disabled":false,"rental_uris":{"android":"levelo://app?vid=1ff79c74-3389-42ba-a572-8bc259978125","ios":"levelo://app?vid=1ff79c74-3389-42ba-a572-8bc259978125"},"vehicle_type_id":"4","last_reported":1728443695,"current_range_meters":38800,"station_id":"ce4bha12rcd13ifvqee0","pricing_plan_id":"cebpf4jnsgd1na2vs0mg"},{"bike_id":"25afecff-8faf-4ca5-beb4-ce74280dcb13","system_id":"levelo_inurba_marseille","lat":43.23201,"lon":5.35549,"is_reserved":false,"is_disabled":false,"rental_uris":{"android":"levelo://app?vid=25afecff-8faf-4ca5-beb4-ce74280dcb13","ios":"levelo://app?vid=25afecff-8faf-4ca5-beb4-ce74280dcb13"},"vehicle_type_id":"4","last_reported":1728443695,"current_range_meters":6000,"station_id":"ce4bhu92rcd13ifvqi70","pricing_plan_id":"cebpf4jnsgd1na2vs0mg"},{"bike_id":"866d13d7-868c-4aaa-aa15-e89d3a04e892","system_id":"levelo_inurba_marseille","lat":43.308952,"lon":5.37192,"is_reserved":false,"is_disabled":false,"rental_uris":{"android":"levelo://app?vid=866d13d7-868c-4aaa-aa15-e89d3a04e892","ios":"levelo://app?vid=866d13d7-868c-4aaa-aa15-e89d3a04e892"},"vehicle_type_id":"4","last_reported":1728443695,"current_range_meters":38000,"station_id":"ce4bguh2rcd13ifvqckg","pricing_plan_id":"cebpf4jnsgd1na2vs0mg"},{"bike_id":"6032bb9c-988a-4bd1-9bfc-452311cdf43b","system_id":"levelo_inurba_marseille","lat":43.28425,"lon":5.37516,"is_reserved":false,"is_disabled":false,"rental_uris":{"android":"levelo://app?vid=6032bb9c-988a-4bd1-9bfc-452311cdf43b","ios":"levelo://app?vid=6032bb9c-988a-4bd1-9bfc-452311cdf43b"},"vehicle_type_id":"4","last_reported":1728443695,"current_range_meters":36400,"station_id":"ce4bh412rcd13ifvqds0","pricing_plan_id":"cebpf4jnsgd1na2vs0mg"},{"bike_id":"7219fee0-219f-4cfa-8633-b620db7597ae","system_id":"levelo_inurba_marseille","lat":43.298692,"lon":5.371254,"is_reserved":false,"is_disabled":false,"rental_uris":{"android":"levelo://app?vid=7219fee0-219f-4cfa-8633-b620db7597ae","ios":"levelo://app?vid=7219fee0-219f-4cfa-8633-b620db7597ae"},"vehicle_type_id":"4","last_reported":1728443695,"current_range_meters":19200,"station_id":"ce4bgjh2rcd13ifvqbg0","pricing_plan_id":"cebpf4jnsgd1na2vs0mg"},{"bike_id":"b256f7c9-146e-4c45-b70b-1f573981b025","system_id":"levelo_inurba_marseille","lat":43.292546,"lon":5.409161,"is_reserved":false,"is_disabled":false,"rental_uris":{"android":"levelo://app?vid=b256f7c9-146e-4c45-b70b-1f573981b025","ios":"levelo://app?vid=b256f7c9-146e-4c45-b70b-1f573981b025"},"vehicle_type_id":"4","last_reported":1728443695,"current_range_meters":38800,"station_id":"ce4bh192rcd13ifvqdc0","pricing_plan_id":"cebpf4jnsgd1na2vs0mg"},{"bike_id":"b7c1db2d-5ac1-4d9a-96d1-fafaa81b91db","system_id":"levelo_inurba_marseille","lat":43.23963,"lon":5.36636,"is_reserved":false,"is_disabled":false,"rental_uris":{"android":"levelo://app?vid=b7c1db2d-5ac1-4d9a-96d1-fafaa81b91db","ios":"levelo://app?vid=b7c1db2d-5ac1-4d9a-96d1-fafaa81b91db"},"vehicle_type_id":"4","last_reported":1728443695,"current_range_meters":38800,"station_id":"ce4bhi12rcd13ifvqfp0","pricing_plan_id":"cebpf4jnsgd1na2vs0mg"},{"bike_id":"5a666f4b-de62-4499-be2c-50dcf4eb6367","system_id":"levelo_inurba_marseille","lat":43.30941,"lon":5.4014,"is_reserved":false,"is_disabled":false,"rental_uris":{"android":"levelo://app?vid=5a666f4b-de62-4499-be2c-50dcf4eb6367","ios":"levelo://app?vid=5a666f4b-de62-4499-be2c-50dcf4eb6367"},"vehicle_type_id":"4","last_reported":1728443695,"current_range_meters":34800,"station_id":"ce4bgvp2rcd13ifvqct0","pricing_plan_id":"cebpf4jnsgd1na2vs0mg"},{"bike_id":"a92132a4-f46c-40a6-b06c-cea89c5b1a00","system_id":"levelo_inurba_marseille","lat":43.26556,"lon":5.37293,"is_reserved":false,"is_disabled":false,"rental_uris":{"android":"levelo://app?vid=a92132a4-f46c-40a6-b06c-cea89c5b1a00","ios":"levelo://app?vid=a92132a4-f46c-40a6-b06c-cea89c5b1a00"},"vehicle_type_id":"4","last_reported":1728443695,"current_range_meters":38000,"station_id":"ce4bhg12rcd13ifvqf70","pricing_plan_id":"cebpf4jnsgd1na2vs0mg"},{"bike_id":"373be14d-74ae-4c6a-8156-24e29cf91728","system_id":"levelo_inurba_marseille","lat":43.31368,"lon":5.38494,"is_reserved":false,"is_disabled":false,"rental_uris":{"android":"levelo://app?vid=373be14d-74ae-4c6a-8156-24e29cf91728","ios":"levelo://app?vid=373be14d-74ae-4c6a-8156-24e29cf91728"},"vehicle_type_id":"4","last_reported":1728443695,"current_range_meters":24400,"station_id":"ce4bgt92rcd13ifvqcf0","pricing_plan_id":"cebpf4jnsgd1na2vs0mg"},{"bike_id":"13e28c57-3bd4-4692-95c1-aa18f5cad0f7","system_id":"levelo_inurba_marseille","lat":43.29894,"lon":5.43664,"is_reserved":false,"is_disabled":false,"rental_uris":{"android":"levelo://app?vid=13e28c57-3bd4-4692-95c1-aa18f5cad0f7","ios":"levelo://app?vid=13e28c57-3bd4-4692-95c1-aa18f5cad0f7"},"vehicle_type_id":"4","last_reported":1728443695,"current_range_meters":38800,"station_id":"ce4bhpp2rcd13ifvqhfg","pricing_plan_id":"cebpf4jnsgd1na2vs0mg"},{"bike_id":"26db3bd6-b723-4274-bc6b-274d32725dc9","system_id":"levelo_inurba_marseille","lat":43.25116,"lon":5.40321,"is_reserved":false,"is_disabled":false,"rental_uris":{"android":"levelo://app?vid=26db3bd6-b723-4274-bc6b-274d32725dc9","ios":"levelo://app?vid=26db3bd6-b723-4274-bc6b-274d32725dc9"},"vehicle_type_id":"4","last_reported":1728443695,"current_range_meters":37600,"station_id":"ce4bhlh2rcd13ifvqgig","pricing_plan_id":"cebpf4jnsgd1na2vs0mg"},{"bike_id":"bde5f0c3-3f53-45af-ae7b-1d8a6a4de574","system_id":"levelo_inurba_marseille","lat":43.31716,"lon":5.43703,"is_reserved":false,"is_disabled":false,"rental_uris":{"android":"levelo://app?vid=bde5f0c3-3f53-45af-ae7b-1d8a6a4de574","ios":"levelo://app?vid=bde5f0c3-3f53-45af-ae7b-1d8a6a4de574"},"vehicle_type_id":"4","last_reported":1728443695,"current_range_meters":38000,"station_id":"ce4bhp92rcd13ifvqhcg","pricing_plan_id":"cebpf4jnsgd1na2vs0mg"},{"bike_id":"243e7150-96c4-4909-9f33-1d7937e9eea6","system_id":"levelo_inurba_marseille","lat":43.287273,"lon":5.360758,"is_reserved":false,"is_disabled":false,"rental_uris":{"android":"levelo://app?vid=243e7150-96c4-4909-9f33-1d7937e9eea6","ios":"levelo://app?vid=243e7150-96c4-4909-9f33-1d7937e9eea6"},"vehicle_type_id":"4","last_reported":1728443695,"current_range_meters":16400,"station_id":"cki0cbj6b192h4jlfktg","pricing_plan_id":"cebpf4jnsgd1na2vs0mg"},{"bike_id":"e2d3bf15-6bc4-4545-bc67-a271e3dd6038","system_id":"levelo_inurba_marseille","lat":43.29554,"lon":5.42283,"is_reserved":false,"is_disabled":false,"rental_uris":{"android":"levelo://app?vid=e2d3bf15-6bc4-4545-bc67-a271e3dd6038","ios":"levelo://app?vid=e2d3bf15-6bc4-4545-bc67-a271e3dd6038"},"vehicle_type_id":"4","last_reported":1728443695,"current_range_meters":39200,"station_id":"ce4bhph2rcd13ifvqhdg","pricing_plan_id":"cebpf4jnsgd1na2vs0mg"},{"bike_id":"33a04a59-8da8-4c0b-9dec-ba491a52fa8d","system_id":"levelo_inurba_marseille","lat":43.25868,"lon":5.399,"is_reserved":false,"is_disabled":false,"rental_uris":{"android":"levelo://app?vid=33a04a59-8da8-4c0b-9dec-ba491a52fa8d","ios":"levelo://app?vid=33a04a59-8da8-4c0b-9dec-ba491a52fa8d"},"vehicle_type_id":"4","last_reported":1728443695,"current_range_meters":40000,"station_id":"ce4bhl92rcd13ifvqghg","pricing_plan_id":"cebpf4jnsgd1na2vs0mg"},{"bike_id":"6653d01d-6ecc-4b26-97b1-2899933c1167","system_id":"levelo_inurba_marseille","lat":43.251201,"lon":5.403164,"is_reserved":false,"is_disabled":false,"rental_uris":{"android":"levelo://app?vid=6653d01d-6ecc-4b26-97b1-2899933c1167","ios":"levelo://app?vid=6653d01d-6ecc-4b26-97b1-2899933c1167"},"vehicle_type_id":"4","last_reported":1728443695,"current_range_meters":21600,"station_id":"ce4bhlh2rcd13ifvqgig","pricing_plan_id":"cebpf4jnsgd1na2vs0mg"},{"bike_id":"fb3007bf-bc22-4379-874d-038aed71fa4b","system_id":"levelo_inurba_marseille","lat":43.30182,"lon":5.36619,"is_reserved":false,"is_disabled":false,"rental_uris":{"android":"levelo://app?vid=fb3007bf-bc22-4379-874d-038aed71fa4b","ios":"levelo://app?vid=fb3007bf-bc22-4379-874d-038aed71fa4b"},"vehicle_type_id":"4","last_reported":1728443695,"current_range_meters":40000,"station_id":"ce4bgrh2rcd13ifvqc8g","pricing_plan_id":"cebpf4jnsgd1na2vs0mg"},{"bike_id":"19193846-02aa-40b2-88d0-7f889c7b47e9","system_id":"levelo_inurba_marseille","lat":43.28898,"lon":5.37405,"is_reserved":false,"is_disabled":false,"rental_uris":{"android":"levelo://app?vid=19193846-02aa-40b2-88d0-7f889c7b47e9","ios":"levelo://app?vid=19193846-02aa-40b2-88d0-7f889c7b47e9"},"vehicle_type_id":"4","last_reported":1728443695,"current_range_meters":32400,"station_id":"","pricing_plan_id":"cebpf4jnsgd1na2vs0mg"},{"bike_id":"1d7be766-f4ed-469c-9142-af0f0c837aea","system_id":"levelo_inurba_marseille","lat":43.2841,"lon":5.37514,"is_reserved":false,"is_disabled":false,"rental_uris":{"android":"levelo://app?vid=1d7be766-f4ed-469c-9142-af0f0c837aea","ios":"levelo://app?vid=1d7be766-f4ed-469c-9142-af0f0c837aea"},"vehicle_type_id":"4","last_reported":1728443695,"current_range_meters":34000,"station_id":"ce4bh412rcd13ifvqds0","pricing_plan_id":"cebpf4jnsgd1na2vs0mg"},{"bike_id":"e539e442-f1bd-40c1-933c-8fe6524b7003","system_id":"levelo_inurba_marseille","lat":43.30797,"lon":5.38148,"is_reserved":false,"is_disabled":false,"rental_uris":{"android":"levelo://app?vid=e539e442-f1bd-40c1-933c-8fe6524b7003","ios":"levelo://app?vid=e539e442-f1bd-40c1-933c-8fe6524b7003"},"vehicle_type_id":"4","last_reported":1728443695,"current_range_meters":36800,"station_id":"ce4bgt12rcd13ifvqce0","pricing_plan_id":"cebpf4jnsgd1na2vs0mg"},{"bike_id":"eae3d5df-71d6-4151-a989-0edbfce2c2bc","system_id":"levelo_inurba_marseille","lat":43.31712,"lon":5.43703,"is_reserved":false,"is_disabled":false,"rental_uris":{"android":"levelo://app?vid=eae3d5df-71d6-4151-a989-0edbfce2c2bc","ios":"levelo://app?vid=eae3d5df-71d6-4151-a989-0edbfce2c2bc"},"vehicle_type_id":"4","last_reported":1728443695,"current_range_meters":38400,"station_id":"ce4bhp92rcd13ifvqhcg","pricing_plan_id":"cebpf4jnsgd1na2vs0mg"},{"bike_id":"ad85ca41-e348-41fa-bf3a-d7d172d266e3","system_id":"levelo_inurba_marseille","lat":43.30783,"lon":5.37654,"is_reserved":false,"is_disabled":false,"rental_uris":{"android":"levelo://app?vid=ad85ca41-e348-41fa-bf3a-d7d172d266e3","ios":"levelo://app?vid=ad85ca41-e348-41fa-bf3a-d7d172d266e3"},"vehicle_type_id":"4","last_reported":1728443695,"current_range_meters":38800,"station_id":"ce4bgv92rcd13ifvqcq0","pricing_plan_id":"cebpf4jnsgd1na2vs0mg"},{"bike_id":"1bacb3eb-b836-4b51-9780-9ed764316f4b","system_id":"levelo_inurba_marseille","lat":43.26061,"lon":5.39392,"is_reserved":false,"is_disabled":false,"rental_uris":{"android":"levelo://app?vid=1bacb3eb-b836-4b51-9780-9ed764316f4b","ios":"levelo://app?vid=1bacb3eb-b836-4b51-9780-9ed764316f4b"},"vehicle_type_id":"4","last_reported":1728443695,"current_range_meters":37600,"station_id":"ce4bhh92rcd13ifvqfj0","pricing_plan_id":"cebpf4jnsgd1na2vs0mg"},{"bike_id":"b1173d70-84f2-41c5-8b79-519d530c78e4","system_id":"levelo_inurba_marseille","lat":43.25079,"lon":5.39505,"is_reserved":false,"is_disabled":false,"rental_uris":{"android":"levelo://app?vid=b1173d70-84f2-41c5-8b79-519d530c78e4","ios":"levelo://app?vid=b1173d70-84f2-41c5-8b79-519d530c78e4"},"vehicle_type_id":"4","last_reported":1728443695,"current_range_meters":28000,"station_id":"ce4bhm12rcd13ifvqgkg","pricing_plan_id":"cebpf4jnsgd1na2vs0mg"},{"bike_id":"06971ff2-9e3f-427f-9afb-e2db59fd3490","system_id":"levelo_inurba_marseille","lat":43.30161,"lon":5.38082,"is_reserved":false,"is_disabled":false,"rental_uris":{"android":"levelo://app?vid=06971ff2-9e3f-427f-9afb-e2db59fd3490","ios":"levelo://app?vid=06971ff2-9e3f-427f-9afb-e2db59fd3490"},"vehicle_type_id":"4","last_reported":1728443695,"current_range_meters":29600,"station_id":"ce4bgjp2rcd13ifvqbh0","pricing_plan_id":"cebpf4jnsgd1na2vs0mg"},{"bike_id":"e0239950-c06e-4794-99e2-873ae9d591b7","system_id":"levelo_inurba_marseille","lat":43.28353,"lon":5.38106,"is_reserved":false,"is_disabled":false,"rental_uris":{"android":"levelo://app?vid=e0239950-c06e-4794-99e2-873ae9d591b7","ios":"levelo://app?vid=e0239950-c06e-4794-99e2-873ae9d591b7"},"vehicle_type_id":"4","last_reported":1728443695,"current_range_meters":38800,"station_id":"ce4bh412rcd13ifvqdr0","pricing_plan_id":"cebpf4jnsgd1na2vs0mg"},{"bike_id":"3d7e13a2-d994-4e62-a71d-e46d8feef124","system_id":"levelo_inurba_marseille","lat":43.27325,"lon":5.39089,"is_reserved":false,"is_disabled":false,"rental_uris":{"android":"levelo://app?vid=3d7e13a2-d994-4e62-a71d-e46d8feef124","ios":"levelo://app?vid=3d7e13a2-d994-4e62-a71d-e46d8feef124"},"vehicle_type_id":"4","last_reported":1728443695,"current_range_meters":38800,"station_id":"ce4bhgp2rcd13ifvqfe0","pricing_plan_id":"cebpf4jnsgd1na2vs0mg"},{"bike_id":"6a930237-624b-4cde-ad52-27a0343c1393","system_id":"levelo_inurba_marseille","lat":43.23158,"lon":5.43707,"is_reserved":false,"is_disabled":false,"rental_uris":{"android":"levelo://app?vid=6a930237-624b-4cde-ad52-27a0343c1393","ios":"levelo://app?vid=6a930237-624b-4cde-ad52-27a0343c1393"},"vehicle_type_id":"4","last_reported":1728443695,"current_range_meters":38800,"station_id":"ce4bhmp2rcd13ifvqgog","pricing_plan_id":"cebpf4jnsgd1na2vs0mg"},{"bike_id":"e11d56ac-354c-42e1-8cea-3ffee832062c","system_id":"levelo_inurba_marseille","lat":43.30938,"lon":5.40146,"is_reserved":false,"is_disabled":false,"rental_uris":{"android":"levelo://app?vid=e11d56ac-354c-42e1-8cea-3ffee832062c","ios":"levelo://app?vid=e11d56ac-354c-42e1-8cea-3ffee832062c"},"vehicle_type_id":"4","last_reported":1728443695,"current_range_meters":16000,"station_id":"ce4bgvp2rcd13ifvqct0","pricing_plan_id":"cebpf4jnsgd1na2vs0mg"},{"bike_id":"fa00380c-47b6-4f3b-8b67-3b07bae09a8e","system_id":"levelo_inurba_marseille","lat":43.25109,"lon":5.40325,"is_reserved":false,"is_disabled":false,"rental_uris":{"android":"levelo://app?vid=fa00380c-47b6-4f3b-8b67-3b07bae09a8e","ios":"levelo://app?vid=fa00380c-47b6-4f3b-8b67-3b07bae09a8e"},"vehicle_type_id":"4","last_reported":1728443695,"current_range_meters":38800,"station_id":"ce4bhlh2rcd13ifvqgig","pricing_plan_id":"cebpf4jnsgd1na2vs0mg"},{"bike_id":"692f8c9c-3991-4b7a-abfb-87bc6d717c62","system_id":"levelo_inurba_marseille","lat":43.30938,"lon":5.40139,"is_reserved":false,"is_disabled":false,"rental_uris":{"android":"levelo://app?vid=692f8c9c-3991-4b7a-abfb-87bc6d717c62","ios":"levelo://app?vid=692f8c9c-3991-4b7a-abfb-87bc6d717c62"},"vehicle_type_id":"4","last_reported":1728443695,"current_range_meters":22800,"station_id":"ce4bgvp2rcd13ifvqct0","pricing_plan_id":"cebpf4jnsgd1na2vs0mg"},{"bike_id":"74637494-39b2-4d45-8059-bbc9298d0213","system_id":"levelo_inurba_marseille","lat":43.273691,"lon":5.362551,"is_reserved":false,"is_disabled":false,"rental_uris":{"android":"levelo://app?vid=74637494-39b2-4d45-8059-bbc9298d0213","ios":"levelo://app?vid=74637494-39b2-4d45-8059-bbc9298d0213"},"vehicle_type_id":"4","last_reported":1728443695,"current_range_meters":38800,"station_id":"ce4bhbh2rcd13ifvqeo0","pricing_plan_id":"cebpf4jnsgd1na2vs0mg"},{"bike_id":"bd035d7b-f283-48b5-ba7e-7144a494294f","system_id":"levelo_inurba_marseille","lat":43.30041,"lon":5.40196,"is_reserved":false,"is_disabled":false,"rental_uris":{"android":"levelo://app?vid=bd035d7b-f283-48b5-ba7e-7144a494294f","ios":"levelo://app?vid=bd035d7b-f283-48b5-ba7e-7144a494294f"},"vehicle_type_id":"4","last_reported":1728443695,"current_range_meters":29600,"station_id":"","pricing_plan_id":"cebpf4jnsgd1na2vs0mg"},{"bike_id":"7a046e79-2e03-47e9-8e65-7f17102a2b29","system_id":"levelo_inurba_marseille","lat":43.231864,"lon":5.399928,"is_reserved":false,"is_disabled":false,"rental_uris":{"android":"levelo://app?vid=7a046e79-2e03-47e9-8e65-7f17102a2b29","ios":"levelo://app?vid=7a046e79-2e03-47e9-8e65-7f17102a2b29"},"vehicle_type_id":"4","last_reported":1728443695,"current_range_meters":33200,"station_id":"ce4bhn12rcd13ifvqgqg","pricing_plan_id":"cebpf4jnsgd1na2vs0mg"},{"bike_id":"0977f8e7-8182-43f5-bac1-7b6840f619e4","system_id":"levelo_inurba_marseille","lat":43.25116,"lon":5.40317,"is_reserved":false,"is_disabled":false,"rental_uris":{"android":"levelo://app?vid=0977f8e7-8182-43f5-bac1-7b6840f619e4","ios":"levelo://app?vid=0977f8e7-8182-43f5-bac1-7b6840f619e4"},"vehicle_type_id":"4","last_reported":1728443695,"current_range_meters":6800,"station_id":"ce4bhlh2rcd13ifvqgig","pricing_plan_id":"cebpf4jnsgd1na2vs0mg"},{"bike_id":"8beb1776-9294-45fe-b444-4b5bd3d7c1f9","system_id":"levelo_inurba_marseille","lat":43.31171,"lon":5.38717,"is_reserved":false,"is_disabled":false,"rental_uris":{"android":"levelo://app?vid=8beb1776-9294-45fe-b444-4b5bd3d7c1f9","ios":"levelo://app?vid=8beb1776-9294-45fe-b444-4b5bd3d7c1f9"},"vehicle_type_id":"4","last_reported":1728443695,"current_range_meters":38400,"station_id":"ce4bgv12rcd13ifvqcp0","pricing_plan_id":"cebpf4jnsgd1na2vs0mg"},{"bike_id":"ce6d2c12-9a7b-4070-a929-7bced8676129","system_id":"levelo_inurba_marseille","lat":43.30281,"lon":5.37695,"is_reserved":false,"is_disabled":false,"rental_uris":{"android":"levelo://app?vid=ce6d2c12-9a7b-4070-a929-7bced8676129","ios":"levelo://app?vid=ce6d2c12-9a7b-4070-a929-7bced8676129"},"vehicle_type_id":"4","last_reported":1728443695,"current_range_meters":38000,"station_id":"ce4bguh2rcd13ifvqcj0","pricing_plan_id":"cebpf4jnsgd1na2vs0mg"},{"bike_id":"4262d60f-468d-47d5-8e5a-0e2c3e0f0876","system_id":"levelo_inurba_marseille","lat":43.24389,"lon":5.37055,"is_reserved":false,"is_disabled":false,"rental_uris":{"android":"levelo://app?vid=4262d60f-468d-47d5-8e5a-0e2c3e0f0876","ios":"levelo://app?vid=4262d60f-468d-47d5-8e5a-0e2c3e0f0876"},"vehicle_type_id":"4","last_reported":1728443695,"current_range_meters":14000,"station_id":"ce4bhhh2rcd13ifvqfk0","pricing_plan_id":"cebpf4jnsgd1na2vs0mg"},{"bike_id":"370a876b-2572-4424-a427-08f9c2677afd","system_id":"levelo_inurba_marseille","lat":43.2718,"lon":5.4099,"is_reserved":false,"is_disabled":false,"rental_uris":{"android":"levelo://app?vid=370a876b-2572-4424-a427-08f9c2677afd","ios":"levelo://app?vid=370a876b-2572-4424-a427-08f9c2677afd"},"vehicle_type_id":"4","last_reported":1728443695,"current_range_meters":38800,"station_id":"ce4bhl12rcd13ifvqgf0","pricing_plan_id":"cebpf4jnsgd1na2vs0mg"},{"bike_id":"26ad7fe0-b787-489c-a4cb-88b00c6bfacb","system_id":"levelo_inurba_marseille","lat":43.31697,"lon":5.40458,"is_reserved":false,"is_disabled":false,"rental_uris":{"android":"levelo://app?vid=26ad7fe0-b787-489c-a4cb-88b00c6bfacb","ios":"levelo://app?vid=26ad7fe0-b787-489c-a4cb-88b00c6bfacb"},"vehicle_type_id":"4","last_reported":1728443695,"current_range_meters":40000,"station_id":"ce4bh012rcd13ifvqd00","pricing_plan_id":"cebpf4jnsgd1na2vs0mg"},{"bike_id":"b6fa848f-698d-4bab-ad0b-c3a55af5c8c7","system_id":"levelo_inurba_marseille","lat":43.2719,"lon":5.40991,"is_reserved":false,"is_disabled":false,"rental_uris":{"android":"levelo://app?vid=b6fa848f-698d-4bab-ad0b-c3a55af5c8c7","ios":"levelo://app?vid=b6fa848f-698d-4bab-ad0b-c3a55af5c8c7"},"vehicle_type_id":"4","last_reported":1728443695,"current_range_meters":38800,"station_id":"ce4bhl12rcd13ifvqgf0","pricing_plan_id":"cebpf4jnsgd1na2vs0mg"},{"bike_id":"80c49d80-446d-4fb8-99f7-dfb38e802982","system_id":"levelo_inurba_marseille","lat":43.31335,"lon":5.39693,"is_reserved":false,"is_disabled":false,"rental_uris":{"android":"levelo://app?vid=80c49d80-446d-4fb8-99f7-dfb38e802982","ios":"levelo://app?vid=80c49d80-446d-4fb8-99f7-dfb38e802982"},"vehicle_type_id":"4","last_reported":1728443695,"current_range_meters":36400,"station_id":"ce4bgvp2rcd13ifvqcu0","pricing_plan_id":"cebpf4jnsgd1na2vs0mg"},{"bike_id":"8822ea4b-bf48-440c-ae83-35602c268d6a","system_id":"levelo_inurba_marseille","lat":43.25725,"lon":5.41106,"is_reserved":false,"is_disabled":false,"rental_uris":{"android":"levelo://app?vid=8822ea4b-bf48-440c-ae83-35602c268d6a","ios":"levelo://app?vid=8822ea4b-bf48-440c-ae83-35602c268d6a"},"vehicle_type_id":"4","last_reported":1728443695,"current_range_meters":39200,"station_id":"ce4bhkp2rcd13ifvqgd0","pricing_plan_id":"cebpf4jnsgd1na2vs0mg"},{"bike_id":"0d88e139-5803-4d3d-8125-5834d99d3b24","system_id":"levelo_inurba_marseille","lat":43.30884,"lon":5.39641,"is_reserved":false,"is_disabled":false,"rental_uris":{"android":"levelo://app?vid=0d88e139-5803-4d3d-8125-5834d99d3b24","ios":"levelo://app?vid=0d88e139-5803-4d3d-8125-5834d99d3b24"},"vehicle_type_id":"4","last_reported":1728443695,"current_range_meters":7200,"station_id":"ce4bh012rcd13ifvqcv0","pricing_plan_id":"cebpf4jnsgd1na2vs0mg"},{"bike_id":"1fe64f31-b1f7-4d93-b037-765b28dcef03","system_id":"levelo_inurba_marseille","lat":43.25581,"lon":5.38233,"is_reserved":false,"is_disabled":false,"rental_uris":{"android":"levelo://app?vid=1fe64f31-b1f7-4d93-b037-765b28dcef03","ios":"levelo://app?vid=1fe64f31-b1f7-4d93-b037-765b28dcef03"},"vehicle_type_id":"4","last_reported":1728443695,"current_range_meters":38800,"station_id":"ce4bhih2rcd13ifvqfs0","pricing_plan_id":"cebpf4jnsgd1na2vs0mg"},{"bike_id":"5d5ff97c-0c1d-47ca-9ed3-e5e6bedaad51","system_id":"levelo_inurba_marseille","lat":43.31758,"lon":5.38999,"is_reserved":false,"is_disabled":false,"rental_uris":{"android":"levelo://app?vid=5d5ff97c-0c1d-47ca-9ed3-e5e6bedaad51","ios":"levelo://app?vid=5d5ff97c-0c1d-47ca-9ed3-e5e6bedaad51"},"vehicle_type_id":"4","last_reported":1728443695,"current_range_meters":25200,"station_id":"ce4bhqp2rcd13ifvqhng","pricing_plan_id":"cebpf4jnsgd1na2vs0mg"},{"bike_id":"466a221c-3b1a-4708-a4d0-285f2b15468a","system_id":"levelo_inurba_marseille","lat":43.31172,"lon":5.38721,"is_reserved":false,"is_disabled":false,"rental_uris":{"android":"levelo://app?vid=466a221c-3b1a-4708-a4d0-285f2b15468a","ios":"levelo://app?vid=466a221c-3b1a-4708-a4d0-285f2b15468a"},"vehicle_type_id":"4","last_reported":1728443695,"current_range_meters":38400,"station_id":"ce4bgv12rcd13ifvqcp0","pricing_plan_id":"cebpf4jnsgd1na2vs0mg"},{"bike_id":"3804cbbb-a46e-42f1-937b-c5ac6008cc14","system_id":"levelo_inurba_marseille","lat":43.29634,"lon":5.40591,"is_reserved":false,"is_disabled":false,"rental_uris":{"android":"levelo://app?vid=3804cbbb-a46e-42f1-937b-c5ac6008cc14","ios":"levelo://app?vid=3804cbbb-a46e-42f1-937b-c5ac6008cc14"},"vehicle_type_id":"4","last_reported":1728443695,"current_range_meters":38000,"station_id":"ce4bh0h2rcd13ifvqd60","pricing_plan_id":"cebpf4jnsgd1na2vs0mg"},{"bike_id":"5d15992b-97de-48f2-9951-08c2f0df01a3","system_id":"levelo_inurba_marseille","lat":43.28676,"lon":5.3867,"is_reserved":false,"is_disabled":false,"rental_uris":{"android":"levelo://app?vid=5d15992b-97de-48f2-9951-08c2f0df01a3","ios":"levelo://app?vid=5d15992b-97de-48f2-9951-08c2f0df01a3"},"vehicle_type_id":"4","last_reported":1728443695,"current_range_meters":38800,"station_id":"ce4bh492rcd13ifvqdug","pricing_plan_id":"cebpf4jnsgd1na2vs0mg"},{"bike_id":"981417f7-3650-4686-9c01-f3fca65dc77f","system_id":"levelo_inurba_marseille","lat":43.2307,"lon":5.35493,"is_reserved":false,"is_disabled":false,"rental_uris":{"android":"levelo://app?vid=981417f7-3650-4686-9c01-f3fca65dc77f","ios":"levelo://app?vid=981417f7-3650-4686-9c01-f3fca65dc77f"},"vehicle_type_id":"4","last_reported":1728443695,"current_range_meters":20400,"station_id":"cpo3342slgdg3j2ifvpg","pricing_plan_id":"cebpf4jnsgd1na2vs0mg"},{"bike_id":"3d6e354b-3c76-4856-93f8-03a2952e31b4","system_id":"levelo_inurba_marseille","lat":43.3136,"lon":5.38505,"is_reserved":false,"is_disabled":false,"rental_uris":{"android":"levelo://app?vid=3d6e354b-3c76-4856-93f8-03a2952e31b4","ios":"levelo://app?vid=3d6e354b-3c76-4856-93f8-03a2952e31b4"},"vehicle_type_id":"4","last_reported":1728443695,"current_range_meters":24800,"station_id":"ce4bgt92rcd13ifvqcf0","pricing_plan_id":"cebpf4jnsgd1na2vs0mg"},{"bike_id":"d9e78638-d819-4cce-8dbf-1fa89d7a43c2","system_id":"levelo_inurba_marseille","lat":43.25577,"lon":5.38236,"is_reserved":false,"is_disabled":false,"rental_uris":{"android":"levelo://app?vid=d9e78638-d819-4cce-8dbf-1fa89d7a43c2","ios":"levelo://app?vid=d9e78638-d819-4cce-8dbf-1fa89d7a43c2"},"vehicle_type_id":"4","last_reported":1728443695,"current_range_meters":35200,"station_id":"ce4bhih2rcd13ifvqfs0","pricing_plan_id":"cebpf4jnsgd1na2vs0mg"},{"bike_id":"fcde43fd-4aa9-4534-9fc2-84f81e824604","system_id":"levelo_inurba_marseille","lat":43.30594,"lon":5.37213,"is_reserved":false,"is_disabled":false,"rental_uris":{"android":"levelo://app?vid=fcde43fd-4aa9-4534-9fc2-84f81e824604","ios":"levelo://app?vid=fcde43fd-4aa9-4534-9fc2-84f81e824604"},"vehicle_type_id":"4","last_reported":1728443695,"current_range_meters":36400,"station_id":"ce4bgqh2rcd13ifvqc4g","pricing_plan_id":"cebpf4jnsgd1na2vs0mg"},{"bike_id":"2ab519a3-043f-44c1-b800-e0d2acc9cba8","system_id":"levelo_inurba_marseille","lat":43.2872,"lon":5.37938,"is_reserved":false,"is_disabled":false,"rental_uris":{"android":"levelo://app?vid=2ab519a3-043f-44c1-b800-e0d2acc9cba8","ios":"levelo://app?vid=2ab519a3-043f-44c1-b800-e0d2acc9cba8"},"vehicle_type_id":"4","last_reported":1728443695,"current_range_meters":25200,"station_id":"ce4bh9p2rcd13ifvqec0","pricing_plan_id":"cebpf4jnsgd1na2vs0mg"},{"bike_id":"07f3f252-e7e8-40d1-9d84-838b0c29f4ea","system_id":"levelo_inurba_marseille","lat":43.23182,"lon":5.39985,"is_reserved":false,"is_disabled":false,"rental_uris":{"android":"levelo://app?vid=07f3f252-e7e8-40d1-9d84-838b0c29f4ea","ios":"levelo://app?vid=07f3f252-e7e8-40d1-9d84-838b0c29f4ea"},"vehicle_type_id":"4","last_reported":1728443695,"current_range_meters":38800,"station_id":"ce4bhn12rcd13ifvqgqg","pricing_plan_id":"cebpf4jnsgd1na2vs0mg"},{"bike_id":"ed360c54-5b10-49ec-b475-83ff794ffbe1","system_id":"levelo_inurba_marseille","lat":43.30596,"lon":5.37206,"is_reserved":false,"is_disabled":false,"rental_uris":{"android":"levelo://app?vid=ed360c54-5b10-49ec-b475-83ff794ffbe1","ios":"levelo://app?vid=ed360c54-5b10-49ec-b475-83ff794ffbe1"},"vehicle_type_id":"4","last_reported":1728443695,"current_range_meters":8400,"station_id":"ce4bgqh2rcd13ifvqc4g","pricing_plan_id":"cebpf4jnsgd1na2vs0mg"},{"bike_id":"da6579d7-20a1-4d71-b1ec-0f6d742a68c4","system_id":"levelo_inurba_marseille","lat":43.27058,"lon":5.40258,"is_reserved":false,"is_disabled":false,"rental_uris":{"android":"levelo://app?vid=da6579d7-20a1-4d71-b1ec-0f6d742a68c4","ios":"levelo://app?vid=da6579d7-20a1-4d71-b1ec-0f6d742a68c4"},"vehicle_type_id":"4","last_reported":1728443695,"current_range_meters":38800,"station_id":"ce4bhk92rcd13ifvqgc0","pricing_plan_id":"cebpf4jnsgd1na2vs0mg"},{"bike_id":"ffd258f3-b0aa-479e-a74f-f5080c2f95b3","system_id":"levelo_inurba_marseille","lat":43.31535,"lon":5.38025,"is_reserved":false,"is_disabled":false,"rental_uris":{"android":"levelo://app?vid=ffd258f3-b0aa-479e-a74f-f5080c2f95b3","ios":"levelo://app?vid=ffd258f3-b0aa-479e-a74f-f5080c2f95b3"},"vehicle_type_id":"4","last_reported":1728443695,"current_range_meters":37600,"station_id":"ce4bhsp2rcd13ifvqi50","pricing_plan_id":"cebpf4jnsgd1na2vs0mg"},{"bike_id":"c9ea8f7b-909c-4567-9378-265c21bff90c","system_id":"levelo_inurba_marseille","lat":43.27181,"lon":5.40987,"is_reserved":false,"is_disabled":false,"rental_uris":{"android":"levelo://app?vid=c9ea8f7b-909c-4567-9378-265c21bff90c","ios":"levelo://app?vid=c9ea8f7b-909c-4567-9378-265c21bff90c"},"vehicle_type_id":"4","last_reported":1728443695,"current_range_meters":8000,"station_id":"ce4bhl12rcd13ifvqgf0","pricing_plan_id":"cebpf4jnsgd1na2vs0mg"},{"bike_id":"7a0bfbc2-ba56-40d4-81d4-90544e016ee9","system_id":"levelo_inurba_marseille","lat":43.31534,"lon":5.38026,"is_reserved":false,"is_disabled":false,"rental_uris":{"android":"levelo://app?vid=7a0bfbc2-ba56-40d4-81d4-90544e016ee9","ios":"levelo://app?vid=7a0bfbc2-ba56-40d4-81d4-90544e016ee9"},"vehicle_type_id":"4","last_reported":1728443695,"current_range_meters":29600,"station_id":"ce4bhsp2rcd13ifvqi50","pricing_plan_id":"cebpf4jnsgd1na2vs0mg"},{"bike_id":"0baf3c00-0fb8-45f5-bd78-54cb0f9e19d4","system_id":"levelo_inurba_marseille","lat":43.25868,"lon":5.39895,"is_reserved":false,"is_disabled":false,"rental_uris":{"android":"levelo://app?vid=0baf3c00-0fb8-45f5-bd78-54cb0f9e19d4","ios":"levelo://app?vid=0baf3c00-0fb8-45f5-bd78-54cb0f9e19d4"},"vehicle_type_id":"4","last_reported":1728443695,"current_range_meters":32800,"station_id":"ce4bhl92rcd13ifvqghg","pricing_plan_id":"cebpf4jnsgd1na2vs0mg"},{"bike_id":"5b88c963-47f3-429c-af9e-fe86716196ce","system_id":"levelo_inurba_marseille","lat":43.29553,"lon":5.42282,"is_reserved":false,"is_disabled":false,"rental_uris":{"android":"levelo://app?vid=5b88c963-47f3-429c-af9e-fe86716196ce","ios":"levelo://app?vid=5b88c963-47f3-429c-af9e-fe86716196ce"},"vehicle_type_id":"4","last_reported":1728443695,"current_range_meters":38800,"station_id":"ce4bhph2rcd13ifvqhdg","pricing_plan_id":"cebpf4jnsgd1na2vs0mg"},{"bike_id":"c2b28480-2a5a-4bf3-8ca6-663b7971fbd0","system_id":"levelo_inurba_marseille","lat":43.28456,"lon":5.35886,"is_reserved":false,"is_disabled":false,"rental_uris":{"android":"levelo://app?vid=c2b28480-2a5a-4bf3-8ca6-663b7971fbd0","ios":"levelo://app?vid=c2b28480-2a5a-4bf3-8ca6-663b7971fbd0"},"vehicle_type_id":"4","last_reported":1728443695,"current_range_meters":28400,"station_id":"ce4bhah2rcd13ifvqei0","pricing_plan_id":"cebpf4jnsgd1na2vs0mg"},{"bike_id":"4bc8f152-5ceb-47af-90fe-8feb3e2a5a1a","system_id":"levelo_inurba_marseille","lat":43.28035,"lon":5.36933,"is_reserved":false,"is_disabled":false,"rental_uris":{"android":"levelo://app?vid=4bc8f152-5ceb-47af-90fe-8feb3e2a5a1a","ios":"levelo://app?vid=4bc8f152-5ceb-47af-90fe-8feb3e2a5a1a"},"vehicle_type_id":"4","last_reported":1728443695,"current_range_meters":38800,"station_id":"ce4bha12rcd13ifvqef0","pricing_plan_id":"cebpf4jnsgd1na2vs0mg"},{"bike_id":"072ec9e2-28de-4cdb-8137-916bf1d77875","system_id":"levelo_inurba_marseille","lat":43.31223,"lon":5.36838,"is_reserved":false,"is_disabled":false,"rental_uris":{"android":"levelo://app?vid=072ec9e2-28de-4cdb-8137-916bf1d77875","ios":"levelo://app?vid=072ec9e2-28de-4cdb-8137-916bf1d77875"},