{"last_updated":1701266817,"ttl":30,"version":"2.2","data":{"bikes":[{"bike_id":"2c841c49-17d0-4a7d-9443-e70dfffd7059","system_id":"levelo_inurba_marseille","lat":43.313391,"lon":5.36706,"is_reserved":false,"is_disabled":false,"rental_uris":{"android":"levelo://app?vid=2c841c49-17d0-4a7d-9443-e70dfffd7059","ios":"levelo://app?vid=2c841c49-17d0-4a7d-9443-e70dfffd7059"},"vehicle_type_id":"4","last_reported":1701266817,"current_range_meters":19200,"station_id":"ce4bgr92rcd13ifvqc6g","pricing_plan_id":"free"},{"bike_id":"53d2f5a1-cbc4-4ae7-bfe1-ed363bc6e9e3","system_id":"levelo_inurba_marseille","lat":43.313391,"lon":5.36706,"is_reserved":false,"is_disabled":false,"rental_uris":{"android":"levelo://app?vid=53d2f5a1-cbc4-4ae7-bfe1-ed363bc6e9e3","ios":"levelo://app?vid=53d2f5a1-cbc4-4ae7-bfe1-ed363bc6e9e3"},"vehicle_type_id":"4","last_reported":1701266817,"current_range_meters":30000,"station_id":"ce4bgr92rcd13ifvqc6g","pricing_plan_id":"free"},{"bike_id":"e48ea13c-dadc-4dee-9444-184958984748","system_id":"levelo_inurba_marseille","lat":43.31341,"lon":5.367098,"is_reserved":false,"is_disabled":false,"rental_uris":{"android":"levelo://app?vid=e48ea13c-dadc-4dee-9444-184958984748","ios":"levelo://app?vid=e48ea13c-dadc-4dee-9444-184958984748"},"vehicle_type_id":"4","last_reported":1701266817,"current_range_meters":26400,"station_id":"ce4bgr92rcd13ifvqc6g","pricing_plan_id":"free"},{"bike_id":"9da95ed2-ede2-4159-b28b-f075cd64d316","system_id":"levelo_inurba_marseille","lat":43.31341,"lon":5.367098,"is_reserved":false,"is_disabled":false,"rental_uris":{"android":"levelo://app?vid=9da95ed2-ede2-4159-b28b-f075cd64d316","ios":"levelo://app?vid=9da95ed2-ede2-4159-b28b-f075cd64d316"},"vehicle_type_id":"4","last_reported":1701266817,"current_range_meters":22400,"station_id":"ce4bgr92rcd13ifvqc6g","pricing_plan_id":"free"},{"bike_id":"7d332d6f-69cd-4fad-b0af-ea14e99cedcc","system_id":"levelo_inurba_marseille","lat":43.313391,"lon":5.36706,"is_reserved":false,"is_disabled":false,"rental_uris":{"android":"levelo://app?vid=7d332d6f-69cd-4fad-b0af-ea14e99cedcc","ios":"levelo://app?vid=7d332d6f-69cd-4fad-b0af-ea14e99cedcc"},"vehicle_type_id":"4","last_reported":1701266817,"current_range_meters":24800,"station_id":"ce4bgr92rcd13ifvqc6g","pricing_plan_id":"free"},{"bike_id":"4ede3be8-ffbb-4fa7-8749-53300a12d77f","system_id":"levelo_inurba_marseille","lat":43.31341,"lon":5.367098,"is_reserved":false,"is_disabled":false,"rental_uris":{"android":"levelo://app?vid=4ede3be8-ffbb-4fa7-8749-53300a12d77f","ios":"levelo://app?vid=4ede3be8-ffbb-4fa7-8749-53300a12d77f"},"vehicle_type_id":"4","last_reported":1701266817,"current_range_meters":18800,"station_id":"ce4bgr92rcd13ifvqc6g","pricing_plan_id":"free"},{"bike_id":"b9fa5d88-c7ed-41a0-abf1-9802788750f8","system_id":"levelo_inurba_marseille","lat":43.312239,"lon":5.368562,"is_reserved":false,"is_disabled":false,"rental_uris":{"android":"levelo://app?vid=b9fa5d88-c7ed-41a0-abf1-9802788750f8","ios":"levelo://app?vid=b9fa5d88-c7ed-41a0-abf1-9802788750f8"},"vehicle_type_id":"4","last_reported":1701266817,"current_range_meters":13600,"station_id":"ce4bgl92rcd13ifvqbq0","pricing_plan_id":"free"},{"bike_id":"344ed484-9588-4878-a62b-cd3774280f0a","system_id":"levelo_inurba_marseille","lat":43.312239,"lon":5.368562,"is_reserved":false,"is_disabled":false,"rental_uris":{"android":"levelo://app?vid=344ed484-9588-4878-a62b-cd3774280f0a","ios":"levelo://app?vid=344ed484-9588-4878-a62b-cd3774280f0a"},"vehicle_type_id":"4","last_reported":1701266817,"current_range_meters":14800,"station_id":"ce4bgl92rcd13ifvqbq0","pricing_plan_id":"free"},{"bike_id":"dc780252-aba2-4b44-a6ef-47e31b08c67a","system_id":"levelo_inurba_marseille","lat":43.312239,"lon":5.368562,"is_reserved":false,"is_disabled":false,"rental_uris":{"android":"levelo://app?vid=dc780252-aba2-4b44-a6ef-47e31b08c67a","ios":"levelo://app?vid=dc780252-aba2-4b44-a6ef-47e31b08c67a"},"vehicle_type_id":"4","last_reported":1701266817,"current_range_meters":29600,"station_id":"ce4bgl92rcd13ifvqbq0","pricing_plan_id":"free"},{"bike_id":"ff4330bf-66be-4f4e-8b98-3fa8bebd9118","system_id":"levelo_inurba_marseille","lat":43.31226,"lon":5.36867,"is_reserved":false,"is_disabled":false,"rental_uris":{"android":"levelo://app?vid=ff4330bf-66be-4f4e-8b98-3fa8bebd9118","ios":"levelo://app?vid=ff4330bf-66be-4f4e-8b98-3fa8bebd9118"},"vehicle_type_id":"4","last_reported":1701266817,"current_range_meters":21600,"station_id":"ce4bgl92rcd13ifvqbq0","pricing_plan_id":"free"},{"bike_id":"c52d7143-1cdd-4957-b148-2341f54ecece","system_id":"levelo_inurba_marseille","lat":43.31225,"lon":5.36871,"is_reserved":false,"is_disabled":false,"rental_uris":{"android":"levelo://app?vid=c52d7143-1cdd-4957-b148-2341f54ecece","ios":"levelo://app?vid=c52d7143-1cdd-4957-b148-2341f54ecece"},"vehicle_type_id":"4","last_reported":1701266817,"current_range_meters":8800,"station_id":"ce4bgl92rcd13ifvqbq0","pricing_plan_id":"free"},{"bike_id":"9bd58770-3c55-4158-8305-7e429078cd1b","system_id":"levelo_inurba_marseille","lat":43.314811,"lon":5.373103,"is_reserved":false,"is_disabled":false,"rental_uris":{"android":"levelo://app?vid=9bd58770-3c55-4158-8305-7e429078cd1b","ios":"levelo://app?vid=9bd58770-3c55-4158-8305-7e429078cd1b"},"vehicle_type_id":"4","last_reported":1701266817,"current_range_meters":11200,"station_id":"ce4bgt12rcd13ifvqcd0","pricing_plan_id":"free"},{"bike_id":"96bd0d9c-38fe-42d6-8860-95318043972c","system_id":"levelo_inurba_marseille","lat":43.314811,"lon":5.373103,"is_reserved":false,"is_disabled":false,"rental_uris":{"android":"levelo://app?vid=96bd0d9c-38fe-42d6-8860-95318043972c","ios":"levelo://app?vid=96bd0d9c-38fe-42d6-8860-95318043972c"},"vehicle_type_id":"4","last_reported":1701266817,"current_range_meters":17200,"station_id":"ce4bgt12rcd13ifvqcd0","pricing_plan_id":"free"},{"bike_id":"10e85edc-7414-4a74-ba5d-60e3e2badaa2","system_id":"levelo_inurba_marseille","lat":43.314811,"lon":5.373103,"is_reserved":false,"is_disabled":false,"rental_uris":{"android":"levelo://app?vid=10e85edc-7414-4a74-ba5d-60e3e2badaa2","ios":"levelo://app?vid=10e85edc-7414-4a74-ba5d-60e3e2badaa2"},"vehicle_type_id":"4","last_reported":1701266817,"current_range_meters":27200,"station_id":"ce4bgt12rcd13ifvqcd0","pricing_plan_id":"free"},{"bike_id":"54f88e47-14cb-45fc-8940-74041bd01c11","system_id":"levelo_inurba_marseille","lat":43.31491,"lon":5.37314,"is_reserved":false,"is_disabled":false,"rental_uris":{"android":"levelo://app?vid=54f88e47-14cb-45fc-8940-74041bd01c11","ios":"levelo://app?vid=54f88e47-14cb-45fc-8940-74041bd01c11"},"vehicle_type_id":"4","last_reported":1701266817,"current_range_meters":21600,"station_id":"ce4bgt12rcd13ifvqcd0","pricing_plan_id":"free"},{"bike_id":"1306b0e5-ee2a-4be6-9487-60d3ccca1474","system_id":"levelo_inurba_marseille","lat":43.309039,"lon":5.371797,"is_reserved":false,"is_disabled":false,"rental_uris":{"android":"levelo://app?vid=1306b0e5-ee2a-4be6-9487-60d3ccca1474","ios":"levelo://app?vid=1306b0e5-ee2a-4be6-9487-60d3ccca1474"},"vehicle_type_id":"4","last_reported":1701266817,"current_range_meters":24000,"station_id":"ce4bguh2rcd13ifvqckg","pricing_plan_id":"free"},{"bike_id":"b0b1fa4a-506a-4610-82e4-127ef00e1370","system_id":"levelo_inurba_marseille","lat":43.30529,"lon":5.36726,"is_reserved":false,"is_disabled":false,"rental_uris":{"android":"levelo://app?vid=b0b1fa4a-506a-4610-82e4-127ef00e1370","ios":"levelo://app?vid=b0b1fa4a-506a-4610-82e4-127ef00e1370"},"vehicle_type_id":"4","last_reported":1701266817,"current_range_meters":17600,"station_id":"ce4bgrp2rcd13ifvqc9g","pricing_plan_id":"free"},{"bike_id":"663f4afb-fccd-433c-a911-1877ce94de6b","system_id":"levelo_inurba_marseille","lat":43.31115,"lon":5.3777,"is_reserved":false,"is_disabled":false,"rental_uris":{"android":"levelo://app?vid=663f4afb-fccd-433c-a911-1877ce94de6b","ios":"levelo://app?vid=663f4afb-fccd-433c-a911-1877ce94de6b"},"vehicle_type_id":"4","last_reported":1701266817,"current_range_meters":0,"station_id":"ce4bgt92rcd13ifvqcg0","pricing_plan_id":"free"},{"bike_id":"f427a2c3-6e4a-446b-ae2f-9be8aa7f4122","system_id":"levelo_inurba_marseille","lat":43.31719,"lon":5.376813,"is_reserved":false,"is_disabled":false,"rental_uris":{"android":"levelo://app?vid=f427a2c3-6e4a-446b-ae2f-9be8aa7f4122","ios":"levelo://app?vid=f427a2c3-6e4a-446b-ae2f-9be8aa7f4122"},"vehicle_type_id":"4","last_reported":1701266817,"current_range_meters":9200,"station_id":"ce4bgth2rcd13ifvqch0","pricing_plan_id":"free"},{"bike_id":"b5129530-3639-47e5-92b6-d358b01a2cff","system_id":"levelo_inurba_marseille","lat":43.308146,"lon":5.376736,"is_reserved":false,"is_disabled":false,"rental_uris":{"android":"levelo://app?vid=b5129530-3639-47e5-92b6-d358b01a2cff","ios":"levelo://app?vid=b5129530-3639-47e5-92b6-d358b01a2cff"},"vehicle_type_id":"4","last_reported":1701266817,"current_range_meters":25200,"station_id":"ce4bgv92rcd13ifvqcq0","pricing_plan_id":"free"},{"bike_id":"e913f328-1e31-4c22-bd87-f809ea246de4","system_id":"levelo_inurba_marseille","lat":43.317168,"lon":5.376883,"is_reserved":false,"is_disabled":false,"rental_uris":{"android":"levelo://app?vid=e913f328-1e31-4c22-bd87-f809ea246de4","ios":"levelo://app?vid=e913f328-1e31-4c22-bd87-f809ea246de4"},"vehicle_type_id":"4","last_reported":1701266817,"current_range_meters":11600,"station_id":"ce4bgth2rcd13ifvqch0","pricing_plan_id":"free"},{"bike_id":"1d1b784f-0359-4c5a-ada2-725ad82ebc69","system_id":"levelo_inurba_marseille","lat":43.307945,"lon":5.376487,"is_reserved":false,"is_disabled":false,"rental_uris":{"android":"levelo://app?vid=1d1b784f-0359-4c5a-ada2-725ad82ebc69","ios":"levelo://app?vid=1d1b784f-0359-4c5a-ada2-725ad82ebc69"},"vehicle_type_id":"4","last_reported":1701266817,"current_range_meters":30000,"station_id":"ce4bgv92rcd13ifvqcq0","pricing_plan_id":"free"},{"bike_id":"77621d6b-8990-4544-be4b-ead551752d29","system_id":"levelo_inurba_marseille","lat":43.31702,"lon":5.37841,"is_reserved":false,"is_disabled":false,"rental_uris":{"android":"levelo://app?vid=77621d6b-8990-4544-be4b-ead551752d29","ios":"levelo://app?vid=77621d6b-8990-4544-be4b-ead551752d29"},"vehicle_type_id":"4","last_reported":1701266817,"current_range_meters":22000,"station_id":"","pricing_plan_id":"free"},{"bike_id":"f1e3ed16-db63-4f12-8ab1-059dd2dc8cb2","system_id":"levelo_inurba_marseille","lat":43.30304,"lon":5.368987,"is_reserved":false,"is_disabled":false,"rental_uris":{"android":"levelo://app?vid=f1e3ed16-db63-4f12-8ab1-059dd2dc8cb2","ios":"levelo://app?vid=f1e3ed16-db63-4f12-8ab1-059dd2dc8cb2"},"vehicle_type_id":"4","last_reported":1701266817,"current_range_meters":12000,"station_id":"ce4bgqh2rcd13ifvqc5g","pricing_plan_id":"free"},{"bike_id":"9ce4f895-3ba2-4569-b5e7-c9a6a91ce9f9","system_id":"levelo_inurba_marseille","lat":43.302977,"lon":5.36886,"is_reserved":false,"is_disabled":false,"rental_uris":{"android":"levelo://app?vid=9ce4f895-3ba2-4569-b5e7-c9a6a91ce9f9","ios":"levelo://app?vid=9ce4f895-3ba2-4569-b5e7-c9a6a91ce9f9"},"vehicle_type_id":"4","last_reported":1701266817,"current_range_meters":7200,"station_id":"ce4bgqh2rcd13ifvqc5g","pricing_plan_id":"free"},{"bike_id":"3e09080e-9db5-4c48-951f-c5f672a60264","system_id":"levelo_inurba_marseille","lat":43.32144,"lon":5.374727,"is_reserved":false,"is_disabled":false,"rental_uris":{"android":"levelo://app?vid=3e09080e-9db5-4c48-951f-c5f672a60264","ios":"levelo://app?vid=3e09080e-9db5-4c48-951f-c5f672a60264"},"vehicle_type_id":"4","last_reported":1701266817,"current_range_meters":8000,"station_id":"","pricing_plan_id":"free"},{"bike_id":"c7b5c06b-3b05-4a45-9cd0-47ab2b6f1e86","system_id":"levelo_inurba_marseille","lat":43.30897,"lon":5.3806,"is_reserved":false,"is_disabled":false,"rental_uris":{"android":"levelo://app?vid=c7b5c06b-3b05-4a45-9cd0-47ab2b6f1e86","ios":"levelo://app?vid=c7b5c06b-3b05-4a45-9cd0-47ab2b6f1e86"},"vehicle_type_id":"4","last_reported":1701266817,"current_range_meters":26000,"station_id":"","pricing_plan_id":"free"},{"bike_id":"2bebcd92-7805-4c2f-89ba-6a6b1c98a0d8","system_id":"levelo_inurba_marseille","lat":43.301939,"lon":5.366286,"is_reserved":false,"is_disabled":false,"rental_uris":{"android":"levelo://app?vid=2bebcd92-7805-4c2f-89ba-6a6b1c98a0d8","ios":"levelo://app?vid=2bebcd92-7805-4c2f-89ba-6a6b1c98a0d8"},"vehicle_type_id":"4","last_reported":1701266817,"current_range_meters":22800,"station_id":"ce4bgrh2rcd13ifvqc8g","pricing_plan_id":"free"},{"bike_id":"c02489f3-dab2-4944-81d0-5ef8621ac3a4","system_id":"levelo_inurba_marseille","lat":43.301939,"lon":5.366286,"is_reserved":false,"is_disabled":false,"rental_uris":{"android":"levelo://app?vid=c02489f3-dab2-4944-81d0-5ef8621ac3a4","ios":"levelo://app?vid=c02489f3-dab2-4944-81d0-5ef8621ac3a4"},"vehicle_type_id":"4","last_reported":1701266817,"current_range_meters":26400,"station_id":"ce4bgrh2rcd13ifvqc8g","pricing_plan_id":"free"},{"bike_id":"a73ce958-8a13-465c-a986-f48ea343227d","system_id":"levelo_inurba_marseille","lat":43.301939,"lon":5.366286,"is_reserved":false,"is_disabled":false,"rental_uris":{"android":"levelo://app?vid=a73ce958-8a13-465c-a986-f48ea343227d","ios":"levelo://app?vid=a73ce958-8a13-465c-a986-f48ea343227d"},"vehicle_type_id":"4","last_reported":1701266817,"current_range_meters":30800,"station_id":"ce4bgrh2rcd13ifvqc8g","pricing_plan_id":"free"},{"bike_id":"a01435dd-851a-4623-b230-6812d7a79a35","system_id":"levelo_inurba_marseille","lat":43.304606,"lon":5.379026,"is_reserved":false,"is_disabled":false,"rental_uris":{"android":"levelo://app?vid=a01435dd-851a-4623-b230-6812d7a79a35","ios":"levelo://app?vid=a01435dd-851a-4623-b230-6812d7a79a35"},"vehicle_type_id":"4","last_reported":1701266817,"current_range_meters":30800,"station_id":"ce4bgup2rcd13ifvqcn0","pricing_plan_id":"free"},{"bike_id":"46a0e7e4-75c2-4900-99ca-04287ccfc4ba","system_id":"levelo_inurba_marseille","lat":43.304606,"lon":5.379026,"is_reserved":false,"is_disabled":false,"rental_uris":{"android":"levelo://app?vid=46a0e7e4-75c2-4900-99ca-04287ccfc4ba","ios":"levelo://app?vid=46a0e7e4-75c2-4900-99ca-04287ccfc4ba"},"vehicle_type_id":"4","last_reported":1701266817,"current_range_meters":28000,"station_id":"ce4bgup2rcd13ifvqcn0","pricing_plan_id":"free"},{"bike_id":"da697594-845a-47f9-8bed-ae6669fce06d","system_id":"levelo_inurba_marseille","lat":43.304606,"lon":5.379026,"is_reserved":false,"is_disabled":false,"rental_uris":{"android":"levelo://app?vid=da697594-845a-47f9-8bed-ae6669fce06d","ios":"levelo://app?vid=da697594-845a-47f9-8bed-ae6669fce06d"},"vehicle_type_id":"4","last_reported":1701266817,"current_range_meters":26800,"station_id":"ce4bgup2rcd13ifvqcn0","pricing_plan_id":"free"},{"bike_id":"c6a4d6ee-4e58-478a-889c-b7eef920c8c5","system_id":"levelo_inurba_marseille","lat":43.304606,"lon":5.379026,"is_reserved":false,"is_disabled":false,"rental_uris":{"android":"levelo://app?vid=c6a4d6ee-4e58-478a-889c-b7eef920c8c5","ios":"levelo://app?vid=c6a4d6ee-4e58-478a-889c-b7eef920c8c5"},"vehicle_type_id":"4","last_reported":1701266817,"current_range_meters":22400,"station_id":"ce4bgup2rcd13ifvqcn0","pricing_plan_id":"free"},{"bike_id":"eb9aa847-5f06-45ca-a5d5-0f6529e14d77","system_id":"levelo_inurba_marseille","lat":43.304606,"lon":5.379026,"is_reserved":false,"is_disabled":false,"rental_uris":{"android":"levelo://app?vid=eb9aa847-5f06-45ca-a5d5-0f6529e14d77","ios":"levelo://app?vid=eb9aa847-5f06-45ca-a5d5-0f6529e14d77"},"vehicle_type_id":"4","last_reported":1701266817,"current_range_meters":28800,"station_id":"ce4bgup2rcd13ifvqcn0","pricing_plan_id":"free"},{"bike_id":"d61a833e-a8a2-4055-bad7-45449a21d659","system_id":"levelo_inurba_marseille","lat":43.304606,"lon":5.379026,"is_reserved":false,"is_disabled":false,"rental_uris":{"android":"levelo://app?vid=d61a833e-a8a2-4055-bad7-45449a21d659","ios":"levelo://app?vid=d61a833e-a8a2-4055-bad7-45449a21d659"},"vehicle_type_id":"4","last_reported":1701266817,"current_range_meters":26400,"station_id":"ce4bgup2rcd13ifvqcn0","pricing_plan_id":"free"},{"bike_id":"8841820b-c0e4-4f2c-b6ac-781dbaf36e4d","system_id":"levelo_inurba_marseille","lat":43.304606,"lon":5.379026,"is_reserved":false,"is_disabled":false,"rental_uris":{"android":"levelo://app?vid=8841820b-c0e4-4f2c-b6ac-781dbaf36e4d","ios":"levelo://app?vid=8841820b-c0e4-4f2c-b6ac-781dbaf36e4d"},"vehicle_type_id":"4","last_reported":1701266817,"current_range_meters":30400,"station_id":"ce4bgup2rcd13ifvqcn0","pricing_plan_id":"free"},{"bike_id":"0e415146-b095-49e4-a9f3-5c2c77167107","system_id":"levelo_inurba_marseille","lat":43.324771,"lon":5.36557,"is_reserved":false,"is_disabled":false,"rental_uris":{"android":"levelo://app?vid=0e415146-b095-49e4-a9f3-5c2c77167107","ios":"levelo://app?vid=0e415146-b095-49e4-a9f3-5c2c77167107"},"vehicle_type_id":"4","last_reported":1701266817,"current_range_meters":9600,"station_id":"ce4bhs12rcd13ifvqhvg","pricing_plan_id":"free"},{"bike_id":"992b19e0-dcb3-42fb-9a44-3d24c1c263f9","system_id":"levelo_inurba_marseille","lat":43.304606,"lon":5.379026,"is_reserved":false,"is_disabled":false,"rental_uris":{"android":"levelo://app?vid=992b19e0-dcb3-42fb-9a44-3d24c1c263f9","ios":"levelo://app?vid=992b19e0-dcb3-42fb-9a44-3d24c1c263f9"},"vehicle_type_id":"4","last_reported":1701266817,"current_range_meters":12000,"station_id":"ce4bgup2rcd13ifvqcn0","pricing_plan_id":"free"},{"bike_id":"f50ae52e-0b7a-42e5-a738-aa2e2da2faa3","system_id":"levelo_inurba_marseille","lat":43.324802,"lon":5.365953,"is_reserved":false,"is_disabled":false,"rental_uris":{"android":"levelo://app?vid=f50ae52e-0b7a-42e5-a738-aa2e2da2faa3","ios":"levelo://app?vid=f50ae52e-0b7a-42e5-a738-aa2e2da2faa3"},"vehicle_type_id":"4","last_reported":1701266817,"current_range_meters":14400,"station_id":"ce4bhs12rcd13ifvqhvg","pricing_plan_id":"free"},{"bike_id":"6c4ca9b3-27d9-4aa9-9d45-56235f03dac0","system_id":"levelo_inurba_marseille","lat":43.302784,"lon":5.377158,"is_reserved":false,"is_disabled":false,"rental_uris":{"android":"levelo://app?vid=6c4ca9b3-27d9-4aa9-9d45-56235f03dac0","ios":"levelo://app?vid=6c4ca9b3-27d9-4aa9-9d45-56235f03dac0"},"vehicle_type_id":"4","last_reported":1701266817,"current_range_meters":19600,"station_id":"ce4bguh2rcd13ifvqcj0","pricing_plan_id":"free"},{"bike_id":"46c444f6-6985-44f0-98dc-61b8f1aac133","system_id":"levelo_inurba_marseille","lat":43.301429,"lon":5.37413,"is_reserved":false,"is_disabled":false,"rental_uris":{"android":"levelo://app?vid=46c444f6-6985-44f0-98dc-61b8f1aac133","ios":"levelo://app?vid=46c444f6-6985-44f0-98dc-61b8f1aac133"},"vehicle_type_id":"4","last_reported":1701266817,"current_range_meters":3600,"station_id":"ce4bgs92rcd13ifvqcc0","pricing_plan_id":"free"},{"bike_id":"6742c193-b747-4ffd-8a15-6bca78ef9e3d","system_id":"levelo_inurba_marseille","lat":43.30143,"lon":5.37413,"is_reserved":false,"is_disabled":false,"rental_uris":{"android":"levelo://app?vid=6742c193-b747-4ffd-8a15-6bca78ef9e3d","ios":"levelo://app?vid=6742c193-b747-4ffd-8a15-6bca78ef9e3d"},"vehicle_type_id":"4","last_reported":1701266817,"current_range_meters":20400,"station_id":"ce4bgs92rcd13ifvqcc0","pricing_plan_id":"free"},{"bike_id":"7a7573f0-c539-4ade-ac9a-ea73e8d749e0","system_id":"levelo_inurba_marseille","lat":43.30143,"lon":5.37413,"is_reserved":false,"is_disabled":false,"rental_uris":{"android":"levelo://app?vid=7a7573f0-c539-4ade-ac9a-ea73e8d749e0","ios":"levelo://app?vid=7a7573f0-c539-4ade-ac9a-ea73e8d749e0"},"vehicle_type_id":"4","last_reported":1701266817,"current_range_meters":12400,"station_id":"ce4bgs92rcd13ifvqcc0","pricing_plan_id":"free"},{"bike_id":"bc34f192-376b-43d7-9890-45b8cc1d270a","system_id":"levelo_inurba_marseille","lat":43.301429,"lon":5.37413,"is_reserved":false,"is_disabled":false,"rental_uris":{"android":"levelo://app?vid=bc34f192-376b-43d7-9890-45b8cc1d270a","ios":"levelo://app?vid=bc34f192-376b-43d7-9890-45b8cc1d270a"},"vehicle_type_id":"4","last_reported":1701266817,"current_range_meters":26400,"station_id":"ce4bgs92rcd13ifvqcc0","pricing_plan_id":"free"},{"bike_id":"a2b6c035-3b74-48fd-bef4-e38c4d248cf9","system_id":"levelo_inurba_marseille","lat":43.301429,"lon":5.37413,"is_reserved":false,"is_disabled":false,"rental_uris":{"android":"levelo://app?vid=a2b6c035-3b74-48fd-bef4-e38c4d248cf9","ios":"levelo://app?vid=a2b6c035-3b74-48fd-bef4-e38c4d248cf9"},"vehicle_type_id":"4","last_reported":1701266817,"current_range_meters":12000,"station_id":"ce4bgs92rcd13ifvqcc0","pricing_plan_id":"free"},{"bike_id":"2b2863d0-ac19-46cf-8ec8-acd5644cfb7f","system_id":"levelo_inurba_marseille","lat":43.30136,"lon":5.37412,"is_reserved":false,"is_disabled":false,"rental_uris":{"android":"levelo://app?vid=2b2863d0-ac19-46cf-8ec8-acd5644cfb7f","ios":"levelo://app?vid=2b2863d0-ac19-46cf-8ec8-acd5644cfb7f"},"vehicle_type_id":"4","last_reported":1701266817,"current_range_meters":20400,"station_id":"ce4bgs92rcd13ifvqcc0","pricing_plan_id":"free"},{"bike_id":"2275aca5-3158-4c2c-8022-ca5d2714bc86","system_id":"levelo_inurba_marseille","lat":43.319997,"lon":5.381594,"is_reserved":false,"is_disabled":false,"rental_uris":{"android":"levelo://app?vid=2275aca5-3158-4c2c-8022-ca5d2714bc86","ios":"levelo://app?vid=2275aca5-3158-4c2c-8022-ca5d2714bc86"},"vehicle_type_id":"4","last_reported":1701266817,"current_range_meters":26800,"station_id":"ce4bhr12rcd13ifvqhpg","pricing_plan_id":"free"},{"bike_id":"dfdb593b-5623-4cfb-b86f-d3de6eda4d8b","system_id":"levelo_inurba_marseille","lat":43.29932,"lon":5.36541,"is_reserved":false,"is_disabled":false,"rental_uris":{"android":"levelo://app?vid=dfdb593b-5623-4cfb-b86f-d3de6eda4d8b","ios":"levelo://app?vid=dfdb593b-5623-4cfb-b86f-d3de6eda4d8b"},"vehicle_type_id":"4","last_reported":1701266817,"current_range_meters":24800,"station_id":"ce4bgm92rcd13ifvqbr0","pricing_plan_id":"free"},{"bike_id":"53fcba09-8e56-4687-8950-2cda99432378","system_id":"levelo_inurba_marseille","lat":43.299724,"lon":5.371829,"is_reserved":false,"is_disabled":false,"rental_uris":{"android":"levelo://app?vid=53fcba09-8e56-4687-8950-2cda99432378","ios":"levelo://app?vid=53fcba09-8e56-4687-8950-2cda99432378"},"vehicle_type_id":"4","last_reported":1701266817,"current_range_meters":22000,"station_id":"ce4bgr92rcd13ifvqc7g","pricing_plan_id":"free"},{"bike_id":"0b29e40f-f073-4e20-b087-861599903337","system_id":"levelo_inurba_marseille","lat":43.298433,"lon":5.362774,"is_reserved":false,"is_disabled":false,"rental_uris":{"android":"levelo://app?vid=0b29e40f-f073-4e20-b087-861599903337","ios":"levelo://app?vid=0b29e40f-f073-4e20-b087-861599903337"},"vehicle_type_id":"4","last_reported":1701266817,"current_range_meters":8800,"station_id":"ce4bgpp2rcd13ifvqc3g","pricing_plan_id":"free"},{"bike_id":"261f5cab-340d-42b6-96fb-38b883086dff","system_id":"levelo_inurba_marseille","lat":43.298433,"lon":5.362774,"is_reserved":false,"is_disabled":false,"rental_uris":{"android":"levelo://app?vid=261f5cab-340d-42b6-96fb-38b883086dff","ios":"levelo://app?vid=261f5cab-340d-42b6-96fb-38b883086dff"},"vehicle_type_id":"4","last_reported":1701266817,"current_range_meters":29200,"station_id":"ce4bgpp2rcd13ifvqc3g","pricing_plan_id":"free"},{"bike_id":"358558d7-7d60-44b1-858c-03d7c2203b4b","system_id":"levelo_inurba_marseille","lat":43.298433,"lon":5.362774,"is_reserved":false,"is_disabled":false,"rental_uris":{"android":"levelo://app?vid=358558d7-7d60-44b1-858c-03d7c2203b4b","ios":"levelo://app?vid=358558d7-7d60-44b1-858c-03d7c2203b4b"},"vehicle_type_id":"4","last_reported":1701266817,"current_range_meters":30400,"station_id":"ce4bgpp2rcd13ifvqc3g","pricing_plan_id":"free"},{"bike_id":"85ced5dd-aec1-4a4f-86a4-347880661ed1","system_id":"levelo_inurba_marseille","lat":43.298433,"lon":5.362774,"is_reserved":false,"is_disabled":false,"rental_uris":{"android":"levelo://app?vid=85ced5dd-aec1-4a4f-86a4-347880661ed1","ios":"levelo://app?vid=85ced5dd-aec1-4a4f-86a4-347880661ed1"},"vehicle_type_id":"4","last_reported":1701266817,"current_range_meters":12800,"station_id":"ce4bgpp2rcd13ifvqc3g","pricing_plan_id":"free"},{"bike_id":"23509bd6-5224-4f08-99a9-4e53510eec07","system_id":"levelo_inurba_marseille","lat":43.29841,"lon":5.36262,"is_reserved":false,"is_disabled":false,"rental_uris":{"android":"levelo://app?vid=23509bd6-5224-4f08-99a9-4e53510eec07","ios":"levelo://app?vid=23509bd6-5224-4f08-99a9-4e53510eec07"},"vehicle_type_id":"4","last_reported":1701266817,"current_range_meters":16400,"station_id":"ce4bgpp2rcd13ifvqc3g","pricing_plan_id":"free"},{"bike_id":"b16dcf33-ebca-4901-ba6a-12d67f7f42bf","system_id":"levelo_inurba_marseille","lat":43.311722,"lon":5.387247,"is_reserved":false,"is_disabled":false,"rental_uris":{"android":"levelo://app?vid=b16dcf33-ebca-4901-ba6a-12d67f7f42bf","ios":"levelo://app?vid=b16dcf33-ebca-4901-ba6a-12d67f7f42bf"},"vehicle_type_id":"4","last_reported":1701266817,"current_range_meters":26000,"station_id":"ce4bgv12rcd13ifvqcp0","pricing_plan_id":"free"},{"bike_id":"23dc9f09-47d9-4cbc-a7ee-b6507ac276dc","system_id":"levelo_inurba_marseille","lat":43.311722,"lon":5.387247,"is_reserved":false,"is_disabled":false,"rental_uris":{"android":"levelo://app?vid=23dc9f09-47d9-4cbc-a7ee-b6507ac276dc","ios":"levelo://app?vid=23dc9f09-47d9-4cbc-a7ee-b6507ac276dc"},"vehicle_type_id":"4","last_reported":1701266817,"current_range_meters":25200,"station_id":"ce4bgv12rcd13ifvqcp0","pricing_plan_id":"free"},{"bike_id":"93244107-6216-4e31-81e7-b8c76c07e646","system_id":"levelo_inurba_marseille","lat":43.297794,"lon":5.370888,"is_reserved":false,"is_disabled":false,"rental_uris":{"android":"levelo://app?vid=93244107-6216-4e31-81e7-b8c76c07e646","ios":"levelo://app?vid=93244107-6216-4e31-81e7-b8c76c07e646"},"vehicle_type_id":"4","last_reported":1701266817,"current_range_meters":15200,"station_id":"ce4bgop2rcd13ifvqc1g","pricing_plan_id":"free"},{"bike_id":"417ee03b-1ae2-49f3-86e0-5d89ccba7fb2","system_id":"levelo_inurba_marseille","lat":43.297794,"lon":5.370888,"is_reserved":false,"is_disabled":false,"rental_uris":{"android":"levelo://app?vid=417ee03b-1ae2-49f3-86e0-5d89ccba7fb2","ios":"levelo://app?vid=417ee03b-1ae2-49f3-86e0-5d89ccba7fb2"},"vehicle_type_id":"4","last_reported":1701266817,"current_range_meters":29600,"station_id":"ce4bgop2rcd13ifvqc1g","pricing_plan_id":"free"},{"bike_id":"996f9bb7-c9a6-4eba-827f-42fe99a0ecef","system_id":"levelo_inurba_marseille","lat":43.297774,"lon":5.370875,"is_reserved":false,"is_disabled":false,"rental_uris":{"android":"levelo://app?vid=996f9bb7-c9a6-4eba-827f-42fe99a0ecef","ios":"levelo://app?vid=996f9bb7-c9a6-4eba-827f-42fe99a0ecef"},"vehicle_type_id":"4","last_reported":1701266817,"current_range_meters":25200,"station_id":"ce4bgop2rcd13ifvqc1g","pricing_plan_id":"free"},{"bike_id":"842567c9-0aa0-4e49-96d9-e3cd4b2e6a73","system_id":"levelo_inurba_marseille","lat":43.322872,"lon":5.382756,"is_reserved":false,"is_disabled":false,"rental_uris":{"android":"levelo://app?vid=842567c9-0aa0-4e49-96d9-e3cd4b2e6a73","ios":"levelo://app?vid=842567c9-0aa0-4e49-96d9-e3cd4b2e6a73"},"vehicle_type_id":"4","last_reported":1701266817,"current_range_meters":8000,"station_id":"ce4bhr12rcd13ifvqhqg","pricing_plan_id":"free"},{"bike_id":"aebb5f1f-3a1e-4323-a4f0-ae83e0b78d14","system_id":"levelo_inurba_marseille","lat":43.32823,"lon":5.36692,"is_reserved":false,"is_disabled":false,"rental_uris":{"android":"levelo://app?vid=aebb5f1f-3a1e-4323-a4f0-ae83e0b78d14","ios":"levelo://app?vid=aebb5f1f-3a1e-4323-a4f0-ae83e0b78d14"},"vehicle_type_id":"4","last_reported":1701266817,"current_range_meters":25600,"station_id":"ce4bhs92rcd13ifvqi0g","pricing_plan_id":"free"},{"bike_id":"422ecd82-981c-48f7-acfe-44a96d10ea13","system_id":"levelo_inurba_marseille","lat":43.297163,"lon":5.365866,"is_reserved":false,"is_disabled":false,"rental_uris":{"android":"levelo://app?vid=422ecd82-981c-48f7-acfe-44a96d10ea13","ios":"levelo://app?vid=422ecd82-981c-48f7-acfe-44a96d10ea13"},"vehicle_type_id":"4","last_reported":1701266817,"current_range_meters":0,"station_id":"ce4bgn12rcd13ifvqbt0","pricing_plan_id":"free"},{"bike_id":"19dcd7ec-a482-4e73-8eb3-36951d4d6cab","system_id":"levelo_inurba_marseille","lat":43.297163,"lon":5.365866,"is_reserved":false,"is_disabled":false,"rental_uris":{"android":"levelo://app?vid=19dcd7ec-a482-4e73-8eb3-36951d4d6cab","ios":"levelo://app?vid=19dcd7ec-a482-4e73-8eb3-36951d4d6cab"},"vehicle_type_id":"4","last_reported":1701266817,"current_range_meters":20000,"station_id":"ce4bgn12rcd13ifvqbt0","pricing_plan_id":"free"},{"bike_id":"36e95834-4bed-4cfa-9ead-23fa9f68bfde","system_id":"levelo_inurba_marseille","lat":43.2968,"lon":5.37291,"is_reserved":false,"is_disabled":false,"rental_uris":{"android":"levelo://app?vid=36e95834-4bed-4cfa-9ead-23fa9f68bfde","ios":"levelo://app?vid=36e95834-4bed-4cfa-9ead-23fa9f68bfde"},"vehicle_type_id":"4","last_reported":1701266817,"current_range_meters":27200,"station_id":"ce4bgk12rcd13ifvqbj0","pricing_plan_id":"free"},{"bike_id":"31b67432-db9c-4555-92a0-002895bbda52","system_id":"levelo_inurba_marseille","lat":43.29573,"lon":5.367355,"is_reserved":false,"is_disabled":false,"rental_uris":{"android":"levelo://app?vid=31b67432-db9c-4555-92a0-002895bbda52","ios":"levelo://app?vid=31b67432-db9c-4555-92a0-002895bbda52"},"vehicle_type_id":"4","last_reported":1701266817,"current_range_meters":30800,"station_id":"ce4bgph2rcd13ifvqc2g","pricing_plan_id":"free"},{"bike_id":"b6826001-a239-47f9-a2fa-23dbcaf02547","system_id":"levelo_inurba_marseille","lat":43.29573,"lon":5.367355,"is_reserved":false,"is_disabled":false,"rental_uris":{"android":"levelo://app?vid=b6826001-a239-47f9-a2fa-23dbcaf02547","ios":"levelo://app?vid=b6826001-a239-47f9-a2fa-23dbcaf02547"},"vehicle_type_id":"4","last_reported":1701266817,"current_range_meters":12800,"station_id":"ce4bgph2rcd13ifvqc2g","pricing_plan_id":"free"},{"bike_id":"58b7b9f0-1d08-4584-83ba-e7ff655d245d","system_id":"levelo_inurba_marseille","lat":43.29573,"lon":5.367355,"is_reserved":false,"is_disabled":false,"rental_uris":{"android":"levelo://app?vid=58b7b9f0-1d08-4584-83ba-e7ff655d245d","ios":"levelo://app?vid=58b7b9f0-1d08-4584-83ba-e7ff655d245d"},"vehicle_type_id":"4","last_reported":1701266817,"current_range_meters":10000,"station_id":"ce4bgph2rcd13ifvqc2g","pricing_plan_id":"free"},{"bike_id":"6cdde407-36ec-4386-8cf6-c82e35d11fb9","system_id":"levelo_inurba_marseille","lat":43.299028,"lon":5.381509,"is_reserved":false,"is_disabled":false,"rental_uris":{"android":"levelo://app?vid=6cdde407-36ec-4386-8cf6-c82e35d11fb9","ios":"levelo://app?vid=6cdde407-36ec-4386-8cf6-c82e35d11fb9"},"vehicle_type_id":"4","last_reported":1701266817,"current_range_meters":17600,"station_id":"ce4bgj12rcd13ifvqbc0","pricing_plan_id":"free"},{"bike_id":"2d24d899-e1aa-44aa-97b9-6cbcdcf8e431","system_id":"levelo_inurba_marseille","lat":43.309589,"lon":5.390258,"is_reserved":false,"is_disabled":false,"rental_uris":{"android":"levelo://app?vid=2d24d899-e1aa-44aa-97b9-6cbcdcf8e431","ios":"levelo://app?vid=2d24d899-e1aa-44aa-97b9-6cbcdcf8e431"},"vehicle_type_id":"4","last_reported":1701266817,"current_range_meters":9600,"station_id":"ce4bgup2rcd13ifvqco0","pricing_plan_id":"free"},{"bike_id":"e26a4540-9c78-4ae5-be45-6a8e69f5cb60","system_id":"levelo_inurba_marseille","lat":43.296935,"lon":5.376544,"is_reserved":false,"is_disabled":false,"rental_uris":{"android":"levelo://app?vid=e26a4540-9c78-4ae5-be45-6a8e69f5cb60","ios":"levelo://app?vid=e26a4540-9c78-4ae5-be45-6a8e69f5cb60"},"vehicle_type_id":"4","last_reported":1701266817,"current_range_meters":6000,"station_id":"ce4bgkh2rcd13ifvqbl0","pricing_plan_id":"free"},{"bike_id":"1aebe00c-d744-4648-8177-6be4cfd95b5c","system_id":"levelo_inurba_marseille","lat":43.309589,"lon":5.390258,"is_reserved":false,"is_disabled":false,"rental_uris":{"android":"levelo://app?vid=1aebe00c-d744-4648-8177-6be4cfd95b5c","ios":"levelo://app?vid=1aebe00c-d744-4648-8177-6be4cfd95b5c"},"vehicle_type_id":"4","last_reported":1701266817,"current_range_meters":15200,"station_id":"ce4bgup2rcd13ifvqco0","pricing_plan_id":"free"},{"bike_id":"7c5e208a-cf26-492e-be0e-7bff77775a74","system_id":"levelo_inurba_marseille","lat":43.309589,"lon":5.390258,"is_reserved":false,"is_disabled":false,"rental_uris":{"android":"levelo://app?vid=7c5e208a-cf26-492e-be0e-7bff77775a74","ios":"levelo://app?vid=7c5e208a-cf26-492e-be0e-7bff77775a74"},"vehicle_type_id":"4","last_reported":1701266817,"current_range_meters":12800,"station_id":"ce4bgup2rcd13ifvqco0","pricing_plan_id":"free"},{"bike_id":"d6789887-fde8-4b00-b237-cb155ad2765a","system_id":"levelo_inurba_marseille","lat":43.299028,"lon":5.381509,"is_reserved":false,"is_disabled":false,"rental_uris":{"android":"levelo://app?vid=d6789887-fde8-4b00-b237-cb155ad2765a","ios":"levelo://app?vid=d6789887-fde8-4b00-b237-cb155ad2765a"},"vehicle_type_id":"4","last_reported":1701266817,"current_range_meters":10400,"station_id":"ce4bgj12rcd13ifvqbc0","pricing_plan_id":"free"},{"bike_id":"23c0ebe2-3b29-445d-9ba3-51f647a55136","system_id":"levelo_inurba_marseille","lat":43.309589,"lon":5.390258,"is_reserved":false,"is_disabled":false,"rental_uris":{"android":"levelo://app?vid=23c0ebe2-3b29-445d-9ba3-51f647a55136","ios":"levelo://app?vid=23c0ebe2-3b29-445d-9ba3-51f647a55136"},"vehicle_type_id":"4","last_reported":1701266817,"current_range_meters":18800,"station_id":"ce4bgup2rcd13ifvqco0","pricing_plan_id":"free"},{"bike_id":"bd350b3f-9f76-410b-9e96-e41d3422f650","system_id":"levelo_inurba_marseille","lat":43.29802,"lon":5.381,"is_reserved":false,"is_disabled":false,"rental_uris":{"android":"levelo://app?vid=bd350b3f-9f76-410b-9e96-e41d3422f650","ios":"levelo://app?vid=bd350b3f-9f76-410b-9e96-e41d3422f650"},"vehicle_type_id":"4","last_reported":1701266817,"current_range_meters":21200,"station_id":"ce4bgip2rcd13ifvqbb0","pricing_plan_id":"free"},{"bike_id":"607ad6e7-97b0-462e-b73e-b01e71c3aa04","system_id":"levelo_inurba_marseille","lat":43.298037,"lon":5.381066,"is_reserved":false,"is_disabled":false,"rental_uris":{"android":"levelo://app?vid=607ad6e7-97b0-462e-b73e-b01e71c3aa04","ios":"levelo://app?vid=607ad6e7-97b0-462e-b73e-b01e71c3aa04"},"vehicle_type_id":"4","last_reported":1701266817,"current_range_meters":29200,"station_id":"ce4bgip2rcd13ifvqbb0","pricing_plan_id":"free"},{"bike_id":"98b1af0e-eddb-44f0-ac64-a10520ae1d18","system_id":"levelo_inurba_marseille","lat":43.298037,"lon":5.381066,"is_reserved":false,"is_disabled":false,"rental_uris":{"android":"levelo://app?vid=98b1af0e-eddb-44f0-ac64-a10520ae1d18","ios":"levelo://app?vid=98b1af0e-eddb-44f0-ac64-a10520ae1d18"},"vehicle_type_id":"4","last_reported":1701266817,"current_range_meters":30800,"station_id":"ce4bgip2rcd13ifvqbb0","pricing_plan_id":"free"},{"bike_id":"a271a3c3-08b1-4e9b-826f-e312a48fd46f","system_id":"levelo_inurba_marseille","lat":43.298037,"lon":5.381066,"is_reserved":false,"is_disabled":false,"rental_uris":{"android":"levelo://app?vid=a271a3c3-08b1-4e9b-826f-e312a48fd46f","ios":"levelo://app?vid=a271a3c3-08b1-4e9b-826f-e312a48fd46f"},"vehicle_type_id":"4","last_reported":1701266817,"current_range_meters":9200,"station_id":"ce4bgip2rcd13ifvqbb0","pricing_plan_id":"free"},{"bike_id":"2e5859b9-e8c0-4140-9093-8f1054ef0d9c","system_id":"levelo_inurba_marseille","lat":43.304278,"lon":5.388868,"is_reserved":false,"is_disabled":false,"rental_uris":{"android":"levelo://app?vid=2e5859b9-e8c0-4140-9093-8f1054ef0d9c","ios":"levelo://app?vid=2e5859b9-e8c0-4140-9093-8f1054ef0d9c"},"vehicle_type_id":"4","last_reported":1701266817,"current_range_meters":12800,"station_id":"ce4bgk12rcd13ifvqbi0","pricing_plan_id":"free"},{"bike_id":"00058ccd-9aa5-4198-a1a3-2262aafbdd9e","system_id":"levelo_inurba_marseille","lat":43.296263,"lon":5.377094,"is_reserved":false,"is_disabled":false,"rental_uris":{"android":"levelo://app?vid=00058ccd-9aa5-4198-a1a3-2262aafbdd9e","ios":"levelo://app?vid=00058ccd-9aa5-4198-a1a3-2262aafbdd9e"},"vehicle_type_id":"4","last_reported":1701266817,"current_range_meters":8400,"station_id":"ce4bgi92rcd13ifvqb90","pricing_plan_id":"free"},{"bike_id":"c01a6e88-56c2-4cf6-b5bd-2853d9eeeb09","system_id":"levelo_inurba_marseille","lat":43.304274,"lon":5.388873,"is_reserved":false,"is_disabled":false,"rental_uris":{"android":"levelo://app?vid=c01a6e88-56c2-4cf6-b5bd-2853d9eeeb09","ios":"levelo://app?vid=c01a6e88-56c2-4cf6-b5bd-2853d9eeeb09"},"vehicle_type_id":"4","last_reported":1701266817,"current_range_meters":10800,"station_id":"ce4bgk12rcd13ifvqbi0","pricing_plan_id":"free"},{"bike_id":"83277c17-e44f-4200-94a1-ac39e2e74141","system_id":"levelo_inurba_marseille","lat":43.305994,"lon":5.393687,"is_reserved":false,"is_disabled":false,"rental_uris":{"android":"levelo://app?vid=83277c17-e44f-4200-94a1-ac39e2e74141","ios":"levelo://app?vid=83277c17-e44f-4200-94a1-ac39e2e74141"},"vehicle_type_id":"4","last_reported":1701266817,"current_range_meters":22000,"station_id":"ce4bh0p2rcd13ifvqd80","pricing_plan_id":"free"},{"bike_id":"24711750-c790-4ab1-9fbd-a94562f63a3a","system_id":"levelo_inurba_marseille","lat":43.303002,"lon":5.392142,"is_reserved":false,"is_disabled":false,"rental_uris":{"android":"levelo://app?vid=24711750-c790-4ab1-9fbd-a94562f63a3a","ios":"levelo://app?vid=24711750-c790-4ab1-9fbd-a94562f63a3a"},"vehicle_type_id":"4","last_reported":1701266817,"current_range_meters":5600,"station_id":"ce4bgkh2rcd13ifvqbk0","pricing_plan_id":"free"},{"bike_id":"4c451528-a2c6-4bb7-b106-fe3898beaf07","system_id":"levelo_inurba_marseille","lat":43.2936,"lon":5.37835,"is_reserved":false,"is_disabled":false,"rental_uris":{"android":"levelo://app?vid=4c451528-a2c6-4bb7-b106-fe3898beaf07","ios":"levelo://app?vid=4c451528-a2c6-4bb7-b106-fe3898beaf07"},"vehicle_type_id":"4","last_reported":1701266817,"current_range_meters":12000,"station_id":"ce4bgjh2rcd13ifvqbf0","pricing_plan_id":"free"},{"bike_id":"b5171922-73e8-45f6-983d-6e6a3da9def4","system_id":"levelo_inurba_marseille","lat":43.2936,"lon":5.37835,"is_reserved":false,"is_disabled":false,"rental_uris":{"android":"levelo://app?vid=b5171922-73e8-45f6-983d-6e6a3da9def4","ios":"levelo://app?vid=b5171922-73e8-45f6-983d-6e6a3da9def4"},"vehicle_type_id":"4","last_reported":1701266817,"current_range_meters":17600,"station_id":"ce4bgjh2rcd13ifvqbf0","pricing_plan_id":"free"},{"bike_id":"027fb7ed-4e8a-4acc-9ee0-8c3d8a50318d","system_id":"levelo_inurba_marseille","lat":43.292311,"lon":5.360731,"is_reserved":false,"is_disabled":false,"rental_uris":{"android":"levelo://app?vid=027fb7ed-4e8a-4acc-9ee0-8c3d8a50318d","ios":"levelo://app?vid=027fb7ed-4e8a-4acc-9ee0-8c3d8a50318d"},"vehicle_type_id":"4","last_reported":1701266817,"current_range_meters":17200,"station_id":"ce4bhbh2rcd13ifvqeqg","pricing_plan_id":"free"},{"bike_id":"9cf06e5c-ca41-4025-b2e6-daca7f42c483","system_id":"levelo_inurba_marseille","lat":43.309038,"lon":5.396546,"is_reserved":false,"is_disabled":false,"rental_uris":{"android":"levelo://app?vid=9cf06e5c-ca41-4025-b2e6-daca7f42c483","ios":"levelo://app?vid=9cf06e5c-ca41-4025-b2e6-daca7f42c483"},"vehicle_type_id":"4","last_reported":1701266817,"current_range_meters":20400,"station_id":"ce4bh012rcd13ifvqcv0","pricing_plan_id":"free"},{"bike_id":"f45b45db-3da0-4e37-ab19-26cd53a24b17","system_id":"levelo_inurba_marseille","lat":43.29529,"lon":5.385581,"is_reserved":false,"is_disabled":false,"rental_uris":{"android":"levelo://app?vid=f45b45db-3da0-4e37-ab19-26cd53a24b17","ios":"levelo://app?vid=f45b45db-3da0-4e37-ab19-26cd53a24b17"},"vehicle_type_id":"4","last_reported":1701266817,"current_range_meters":3600,"station_id":"ce4bgih2rcd13ifvqba0","pricing_plan_id":"free"},{"bike_id":"99179853-b438-4f36-a7e0-ffcde940d2a5","system_id":"levelo_inurba_marseille","lat":43.29076,"lon":5.37183,"is_reserved":false,"is_disabled":false,"rental_uris":{"android":"levelo://app?vid=99179853-b438-4f36-a7e0-ffcde940d2a5","ios":"levelo://app?vid=99179853-b438-4f36-a7e0-ffcde940d2a5"},"vehicle_type_id":"4","last_reported":1701266817,"current_range_meters":0,"station_id":"ce4bh5p2rcd13ifvqe4g","pricing_plan_id":"free"},{"bike_id":"e790d157-6e07-436d-b5a6-d82e8384c3fe","system_id":"levelo_inurba_marseille","lat":43.289356,"lon":5.363994,"is_reserved":false,"is_disabled":false,"rental_uris":{"android":"levelo://app?vid=e790d157-6e07-436d-b5a6-d82e8384c3fe","ios":"levelo://app?vid=e790d157-6e07-436d-b5a6-d82e8384c3fe"},"vehicle_type_id":"4","last_reported":1701266817,"current_range_meters":0,"station_id":"ce4bhc92rcd13ifvqetg","pricing_plan_id":"free"},{"bike_id":"752eedf6-72c6-42b3-a237-cf64f791f6b7","system_id":"levelo_inurba_marseille","lat":43.28936,"lon":5.36387,"is_reserved":false,"is_disabled":false,"rental_uris":{"android":"levelo://app?vid=752eedf6-72c6-42b3-a237-cf64f791f6b7","ios":"levelo://app?vid=752eedf6-72c6-42b3-a237-cf64f791f6b7"},"vehicle_type_id":"4","last_reported":1701266817,"current_range_meters":25200,"station_id":"ce4bhc92rcd13ifvqetg","pricing_plan_id":"free"},{"bike_id":"f7c0a33e-8dd7-4726-872a-60bf2f6e91b4","system_id":"levelo_inurba_marseille","lat":43.29262,"lon":5.38436,"is_reserved":false,"is_disabled":false,"rental_uris":{"android":"levelo://app?vid=f7c0a33e-8dd7-4726-872a-60bf2f6e91b4","ios":"levelo://app?vid=f7c0a33e-8dd7-4726-872a-60bf2f6e91b4"},"vehicle_type_id":"4","last_reported":1701266817,"current_range_meters":12000,"station_id":"ce4bh692rcd13ifvqea0","pricing_plan_id":"free"},{"bike_id":"5e7b69ef-5222-40c5-ad0d-9da1096a2305","system_id":"levelo_inurba_marseille","lat":43.304296,"lon":5.397513,"is_reserved":false,"is_disabled":false,"rental_uris":{"android":"levelo://app?vid=5e7b69ef-5222-40c5-ad0d-9da1096a2305","ios":"levelo://app?vid=5e7b69ef-5222-40c5-ad0d-9da1096a2305"},"vehicle_type_id":"4","last_reported":1701266817,"current_range_meters":8000,"station_id":"ce4bh092rcd13ifvqd20","pricing_plan_id":"free"},{"bike_id":"5f634501-1b1c-454d-8de1-ea032bef13ca","system_id":"levelo_inurba_marseille","lat":43.304274,"lon":5.397513,"is_reserved":false,"is_disabled":false,"rental_uris":{"android":"levelo://app?vid=5f634501-1b1c-454d-8de1-ea032bef13ca","ios":"levelo://app?vid=5f634501-1b1c-454d-8de1-ea032bef13ca"},"vehicle_type_id":"4","last_reported":1701266817,"current_range_meters":28800,"station_id":"ce4bh092rcd13ifvqd20","pricing_plan_id":"free"},{"bike_id":"3159a76a-60f2-4912-b45d-34de2bcb69a2","system_id":"levelo_inurba_marseille","lat":43.292644,"lon":5.384257,"is_reserved":false,"is_disabled":false,"rental_uris":{"android":"levelo://app?vid=3159a76a-60f2-4912-b45d-34de2bcb69a2","ios":"levelo://app?vid=3159a76a-60f2-4912-b45d-34de2bcb69a2"},"vehicle_type_id":"4","last_reported":1701266817,"current_range_meters":18000,"station_id":"ce4bh692rcd13ifvqea0","pricing_plan_id":"free"},{"bike_id":"85be92eb-f5c5-43ff-b0e0-d38cc16ed93b","system_id":"levelo_inurba_marseille","lat":43.290104,"lon":5.356111,"is_reserved":false,"is_disabled":false,"rental_uris":{"android":"levelo://app?vid=85be92eb-f5c5-43ff-b0e0-d38cc16ed93b","ios":"levelo://app?vid=85be92eb-f5c5-43ff-b0e0-d38cc16ed93b"},"vehicle_type_id":"4","last_reported":1701266817,"current_range_meters":16400,"station_id":"ce4bhb92rcd13ifvqen0","pricing_plan_id":"free"},{"bike_id":"82becf94-ee2d-4cdf-bfdb-84173e65c8e4","system_id":"levelo_inurba_marseille","lat":43.290995,"lon":5.381361,"is_reserved":false,"is_disabled":false,"rental_uris":{"android":"levelo://app?vid=82becf94-ee2d-4cdf-bfdb-84173e65c8e4","ios":"levelo://app?vid=82becf94-ee2d-4cdf-bfdb-84173e65c8e4"},"vehicle_type_id":"4","last_reported":1701266817,"current_range_meters":6400,"station_id":"ce4bh512rcd13ifvqe2g","pricing_plan_id":"free"},{"bike_id":"a2bb0a83-2ddc-4de3-b242-a045b57cf735","system_id":"levelo_inurba_marseille","lat":43.29787,"lon":5.3934,"is_reserved":false,"is_disabled":false,"rental_uris":{"android":"levelo://app?vid=a2bb0a83-2ddc-4de3-b242-a045b57cf735","ios":"levelo://app?vid=a2bb0a83-2ddc-4de3-b242-a045b57cf735"},"vehicle_type_id":"4","last_reported":1701266817,"current_range_meters":28800,"station_id":"chh1huq6cuj3fo74tm60","pricing_plan_id":"free"},{"bike_id":"177ea122-75f0-4de7-bf32-50406745dc28","system_id":"levelo_inurba_marseille","lat":43.29789,"lon":5.39345,"is_reserved":false,"is_disabled":false,"rental_uris":{"android":"levelo://app?vid=177ea122-75f0-4de7-bf32-50406745dc28","ios":"levelo://app?vid=177ea122-75f0-4de7-bf32-50406745dc28"},"vehicle_type_id":"4","last_reported":1701266817,"current_range_meters":24800,"station_id":"chh1huq6cuj3fo74tm60","pricing_plan_id":"free"},{"bike_id":"f6b8efe0-b38c-4785-a254-21aed9a17481","system_id":"levelo_inurba_marseille","lat":43.2901,"lon":5.381269,"is_reserved":false,"is_disabled":false,"rental_uris":{"android":"levelo://app?vid=f6b8efe0-b38c-4785-a254-21aed9a17481","ios":"levelo://app?vid=f6b8efe0-b38c-4785-a254-21aed9a17481"},"vehicle_type_id":"4","last_reported":1701266817,"current_range_meters":11600,"station_id":"ce4bh4p2rcd13ifvqe1g","pricing_plan_id":"free"},{"bike_id":"e381516b-1213-49bf-89f3-aa3e774f8755","system_id":"levelo_inurba_marseille","lat":43.290094,"lon":5.381264,"is_reserved":false,"is_disabled":false,"rental_uris":{"android":"levelo://app?vid=e381516b-1213-49bf-89f3-aa3e774f8755","ios":"levelo://app?vid=e381516b-1213-49bf-89f3-aa3e774f8755"},"vehicle_type_id":"4","last_reported":1701266817,"current_range_meters":30400,"station_id":"ce4bh4p2rcd13ifvqe1g","pricing_plan_id":"free"},{"bike_id":"a702992a-7969-482a-abb2-e920fc5be561","system_id":"levelo_inurba_marseille","lat":43.33743,"lon":5.3736,"is_reserved":false,"is_disabled":false,"rental_uris":{"android":"levelo://app?vid=a702992a-7969-482a-abb2-e920fc5be561","ios":"levelo://app?vid=a702992a-7969-482a-abb2-e920fc5be561"},"vehicle_type_id":"4","last_reported":1701266817,"current_range_meters":22400,"station_id":"","pricing_plan_id":"free"},{"bike_id":"0e5ffb36-1095-4a05-a7f6-28a0f8b0fe72","system_id":"levelo_inurba_marseille","lat":43.312505,"lon":5.401597,"is_reserved":false,"is_disabled":false,"rental_uris":{"android":"levelo://app?vid=0e5ffb36-1095-4a05-a7f6-28a0f8b0fe72","ios":"levelo://app?vid=0e5ffb36-1095-4a05-a7f6-28a0f8b0fe72"},"vehicle_type_id":"4","last_reported":1701266817,"current_range_meters":1200,"station_id":"ce4bh092rcd13ifvqd30","pricing_plan_id":"free"},{"bike_id":"920f836a-d18d-4772-b185-fa3be15edb56","system_id":"levelo_inurba_marseille","lat":43.30922,"lon":5.40151,"is_reserved":false,"is_disabled":false,"rental_uris":{"android":"levelo://app?vid=920f836a-d18d-4772-b185-fa3be15edb56","ios":"levelo://app?vid=920f836a-d18d-4772-b185-fa3be15edb56"},"vehicle_type_id":"4","last_reported":1701266817,"current_range_meters":23200,"station_id":"ce4bgvp2rcd13ifvqct0","pricing_plan_id":"free"},{"bike_id":"7437e38f-f8f3-4d00-ba77-889fed31d175","system_id":"levelo_inurba_marseille","lat":43.306412,"lon":5.401035,"is_reserved":false,"is_disabled":false,"rental_uris":{"android":"levelo://app?vid=7437e38f-f8f3-4d00-ba77-889fed31d175","ios":"levelo://app?vid=7437e38f-f8f3-4d00-ba77-889fed31d175"},"vehicle_type_id":"4","last_reported":1701266817,"current_range_meters":9600,"station_id":"ce4bh112rcd13ifvqda0","pricing_plan_id":"free"},{"bike_id":"d15d19ca-2c7b-4405-8e09-9d7b37dfdcaf","system_id":"levelo_inurba_marseille","lat":43.28727,"lon":5.36078,"is_reserved":false,"is_disabled":false,"rental_uris":{"android":"levelo://app?vid=d15d19ca-2c7b-4405-8e09-9d7b37dfdcaf","ios":"levelo://app?vid=d15d19ca-2c7b-4405-8e09-9d7b37dfdcaf"},"vehicle_type_id":"4","last_reported":1701266817,"current_range_meters":29200,"station_id":"cki0cbj6b192h4jlfktg","pricing_plan_id":"free"},{"bike_id":"8ba652a7-99b0-47d4-9430-639de3443bcf","system_id":"levelo_inurba_marseille","lat":43.28727,"lon":5.36078,"is_reserved":false,"is_disabled":false,"rental_uris":{"android":"levelo://app?vid=8ba652a7-99b0-47d4-9430-639de3443bcf","ios":"levelo://app?vid=8ba652a7-99b0-47d4-9430-639de3443bcf"},"vehicle_type_id":"4","last_reported":1701266817,"current_range_meters":9600,"station_id":"cki0cbj6b192h4jlfktg","pricing_plan_id":"free"},{"bike_id":"b61b699b-ee0e-44a0-b504-0c8dd98bc42d","system_id":"levelo_inurba_marseille","lat":43.286593,"lon":5.363346,"is_reserved":false,"is_disabled":false,"rental_uris":{"android":"levelo://app?vid=b61b699b-ee0e-44a0-b504-0c8dd98bc42d","ios":"levelo://app?vid=b61b699b-ee0e-44a0-b504-0c8dd98bc42d"},"vehicle_type_id":"4","last_reported":1701266817,"current_range_meters":30000,"station_id":"ce4bhah2rcd13ifvqej0","pricing_plan_id":"free"},{"bike_id":"bb03b58a-5e20-4fa0-b850-841ca1824f24","system_id":"levelo_inurba_marseille","lat":43.298681,"lon":5.397225,"is_reserved":false,"is_disabled":false,"rental_uris":{"android":"levelo://app?vid=bb03b58a-5e20-4fa0-b850-841ca1824f24","ios":"levelo://app?vid=bb03b58a-5e20-4fa0-b850-841ca1824f24"},"vehicle_type_id":"4","last_reported":1701266817,"current_range_meters":13200,"station_id":"ce4bh0h2rcd13ifvqd50","pricing_plan_id":"free"},{"bike_id":"d3f94b1f-a50a-4790-819e-80ae8ca4c02b","system_id":"levelo_inurba_marseille","lat":43.295196,"lon":5.39397,"is_reserved":false,"is_disabled":false,"rental_uris":{"android":"levelo://app?vid=d3f94b1f-a50a-4790-819e-80ae8ca4c02b","ios":"levelo://app?vid=d3f94b1f-a50a-4790-819e-80ae8ca4c02b"},"vehicle_type_id":"4","last_reported":1701266817,"current_range_meters":1200,"station_id":"ce4bh292rcd13ifvqdf0","pricing_plan_id":"free"},{"bike_id":"9b4c07bb-e7c7-4555-b636-8f7f7e03eb36","system_id":"levelo_inurba_marseille","lat":43.29024,"lon":5.38655,"is_reserved":false,"is_disabled":false,"rental_uris":{"android":"levelo://app?vid=9b4c07bb-e7c7-4555-b636-8f7f7e03eb36","ios":"levelo://app?vid=9b4c07bb-e7c7-4555-b636-8f7f7e03eb36"},"vehicle_type_id":"4","last_reported":1701266817,"current_range_meters":0,"station_id":"","pricing_plan_id":"free"},{"bike_id":"7e4df323-4a02-4886-8d3e-620e8ab5ef38","system_id":"levelo_inurba_marseille","lat":43.29018,"lon":5.38647,"is_reserved":false,"is_disabled":false,"rental_uris":{"android":"levelo://app?vid=7e4df323-4a02-4886-8d3e-620e8ab5ef38","ios":"levelo://app?vid=7e4df323-4a02-4886-8d3e-620e8ab5ef38"},"vehicle_type_id":"4","last_reported":1701266817,"current_range_meters":0,"station_id":"","pricing_plan_id":"free"},{"bike_id":"df081536-75d3-4605-b138-fc66a8e5ce11","system_id":"levelo_inurba_marseille","lat":43.286039,"lon":5.370679,"is_reserved":false,"is_disabled":false,"rental_uris":{"android":"levelo://app?vid=df081536-75d3-4605-b138-fc66a8e5ce11","ios":"levelo://app?vid=df081536-75d3-4605-b138-fc66a8e5ce11"},"vehicle_type_id":"4","last_reported":1701266817,"current_range_meters":25600,"station_id":"ce4bht12rcd13ifvqi60","pricing_plan_id":"free"},{"bike_id":"f0630a6d-73b6-445f-870c-7ee4a4b064d5","system_id":"levelo_inurba_marseille","lat":43.287185,"lon":5.379373,"is_reserved":false,"is_disabled":false,"rental_uris":{"android":"levelo://app?vid=f0630a6d-73b6-445f-870c-7ee4a4b064d5","ios":"levelo://app?vid=f0630a6d-73b6-445f-870c-7ee4a4b064d5"},"vehicle_type_id":"4","last_reported":1701266817,"current_range_meters":17600,"station_id":"ce4bh9p2rcd13ifvqec0","pricing_plan_id":"free"},{"bike_id":"9162dc56-ddec-440b-bf2d-a93ff3f0b576","system_id":"levelo_inurba_marseille","lat":43.287185,"lon":5.379373,"is_reserved":false,"is_disabled":false,"rental_uris":{"android":"levelo://app?vid=9162dc56-ddec-440b-bf2d-a93ff3f0b576","ios":"levelo://app?vid=9162dc56-ddec-440b-bf2d-a93ff3f0b576"},"vehicle_type_id":"4","last_reported":1701266817,"current_range_meters":25200,"station_id":"ce4bh9p2rcd13ifvqec0","pricing_plan_id":"free"},{"bike_id":"8f41a0f6-8a77-44d0-8c9f-d6ac0c73dc29","system_id":"levelo_inurba_marseille","lat":43.31646,"lon":5.4044,"is_reserved":false,"is_disabled":false,"rental_uris":{"android":"levelo://app?vid=8f41a0f6-8a77-44d0-8c9f-d6ac0c73dc29","ios":"levelo://app?vid=8f41a0f6-8a77-44d0-8c9f-d6ac0c73dc29"},"vehicle_type_id":"4","last_reported":1701266817,"current_range_meters":19200,"station_id":"ce4bh012rcd13ifvqd00","pricing_plan_id":"free"},{"bike_id":"5ae8080c-968f-4612-a257-5065940b45ab","system_id":"levelo_inurba_marseille","lat":43.316517,"lon":5.404375,"is_reserved":false,"is_disabled":false,"rental_uris":{"android":"levelo://app?vid=5ae8080c-968f-4612-a257-5065940b45ab","ios":"levelo://app?vid=5ae8080c-968f-4612-a257-5065940b45ab"},"vehicle_type_id":"4","last_reported":1701266817,"current_range_meters":21200,"station_id":"ce4bh012rcd13ifvqd00","pricing_plan_id":"free"},{"bike_id":"a6362d52-6052-4900-8cf3-c43110ab7b40","system_id":"levelo_inurba_marseille","lat":43.2919,"lon":5.39328,"is_reserved":false,"is_disabled":false,"rental_uris":{"android":"levelo://app?vid=a6362d52-6052-4900-8cf3-c43110ab7b40","ios":"levelo://app?vid=a6362d52-6052-4900-8cf3-c43110ab7b40"},"vehicle_type_id":"4","last_reported":1701266817,"current_range_meters":0,"station_id":"ce4bh192rcd13ifvqdd0","pricing_plan_id":"free"},{"bike_id":"6ef79d0d-936c-4bca-b96a-1c4b99f8872a","system_id":"levelo_inurba_marseille","lat":43.294314,"lon":5.397498,"is_reserved":false,"is_disabled":false,"rental_uris":{"android":"levelo://app?vid=6ef79d0d-936c-4bca-b96a-1c4b99f8872a","ios":"levelo://app?vid=6ef79d0d-936c-4bca-b96a-1c4b99f8872a"},"vehicle_type_id":"4","last_reported":1701266817,"current_range_meters":17200,"station_id":"ce4bh3h2rcd13ifvqdo0","pricing_plan_id":"free"},{"bike_id":"1f77ff41-0e29-45bc-816c-2ca8a34c337b","system_id":"levelo_inurba_marseille","lat":43.284538,"lon":5.358657,"is_reserved":false,"is_disabled":false,"rental_uris":{"android":"levelo://app?vid=1f77ff41-0e29-45bc-816c-2ca8a34c337b","ios":"levelo://app?vid=1f77ff41-0e29-45bc-816c-2ca8a34c337b"},"vehicle_type_id":"4","last_reported":1701266817,"current_range_meters":30000,"station_id":"ce4bhah2rcd13ifvqei0","pricing_plan_id":"free"},{"bike_id":"06dedd47-3b00-47e7-aeee-8251764ea080","system_id":"levelo_inurba_marseille","lat":43.294314,"lon":5.397498,"is_reserved":false,"is_disabled":false,"rental_uris":{"android":"levelo://app?vid=06dedd47-3b00-47e7-aeee-8251764ea080","ios":"levelo://app?vid=06dedd47-3b00-47e7-aeee-8251764ea080"},"vehicle_type_id":"4","last_reported":1701266817,"current_range_meters":17200,"station_id":"ce4bh3h2rcd13ifvqdo0","pricing_plan_id":"free"},{"bike_id":"5a835bf7-8357-426b-a261-d220a066b3e4","system_id":"levelo_inurba_marseille","lat":43.295713,"lon":5.399639,"is_reserved":false,"is_disabled":false,"rental_uris":{"android":"levelo://app?vid=5a835bf7-8357-426b-a261-d220a066b3e4","ios":"levelo://app?vid=5a835bf7-8357-426b-a261-d220a066b3e4"},"vehicle_type_id":"4","last_reported":1701266817,"current_range_meters":28400,"station_id":"ce4bh312rcd13ifvqdj0","pricing_plan_id":"free"},{"bike_id":"6ff5d115-f28a-483a-aec5-b27119424507","system_id":"levelo_inurba_marseille","lat":43.32335,"lon":5.40627,"is_reserved":false,"is_disabled":false,"rental_uris":{"android":"levelo://app?vid=6ff5d115-f28a-483a-aec5-b27119424507","ios":"levelo://app?vid=6ff5d115-f28a-483a-aec5-b27119424507"},"vehicle_type_id":"4","last_reported":1701266817,"current_range_meters":21200,"station_id":"ce4bhq92rcd13ifvqhjg","pricing_plan_id":"free"},{"bike_id":"77635ad4-4abd-44ac-8616-b413675e4488","system_id":"levelo_inurba_marseille","lat":43.284787,"lon":5.384116,"is_reserved":false,"is_disabled":false,"rental_uris":{"android":"levelo://app?vid=77635ad4-4abd-44ac-8616-b413675e4488","ios":"levelo://app?vid=77635ad4-4abd-44ac-8616-b413675e4488"},"vehicle_type_id":"4","last_reported":1701266817,"current_range_meters":18400,"station_id":"ce4bh512rcd13ifvqe3g","pricing_plan_id":"free"},{"bike_id":"d504cad5-5d08-420a-9f8e-d6b5a86fb6ac","system_id":"levelo_inurba_marseille","lat":43.28475,"lon":5.38417,"is_reserved":false,"is_disabled":false,"rental_uris":{"android":"levelo://app?vid=d504cad5-5d08-420a-9f8e-d6b5a86fb6ac","ios":"levelo://app?vid=d504cad5-5d08-420a-9f8e-d6b5a86fb6ac"},"vehicle_type_id":"4","last_reported":1701266817,"current_range_meters":0,"station_id":"ce4bh512rcd13ifvqe3g","pricing_plan_id":"free"},{"bike_id":"8d907103-11c4-440f-88cd-08407451ce7e","system_id":"levelo_inurba_marseille","lat":43.283494,"lon":5.380945,"is_reserved":false,"is_disabled":false,"rental_uris":{"android":"levelo://app?vid=8d907103-11c4-440f-88cd-08407451ce7e","ios":"levelo://app?vid=8d907103-11c4-440f-88cd-08407451ce7e"},"vehicle_type_id":"4","last_reported":1701266817,"current_range_meters":8000,"station_id":"ce4bh412rcd13ifvqdr0","pricing_plan_id":"free"},{"bike_id":"af6f990a-0c92-4b30-bd11-f362bd2ec98a","system_id":"levelo_inurba_marseille","lat":43.289363,"lon":5.396322,"is_reserved":false,"is_disabled":false,"rental_uris":{"android":"levelo://app?vid=af6f990a-0c92-4b30-bd11-f362bd2ec98a","ios":"levelo://app?vid=af6f990a-0c92-4b30-bd11-f362bd2ec98a"},"vehicle_type_id":"4","last_reported":1701266817,"current_range_meters":17600,"station_id":"ce4bh3h2rcd13ifvqdn0","pricing_plan_id":"free"},{"bike_id":"43f9e178-00b1-488d-a5bb-a8caa1db4cfd","system_id":"levelo_inurba_marseille","lat":43.282754,"lon":5.350519,"is_reserved":false,"is_disabled":false,"rental_uris":{"android":"levelo://app?vid=43f9e178-00b1-488d-a5bb-a8caa1db4cfd","ios":"levelo://app?vid=43f9e178-00b1-488d-a5bb-a8caa1db4cfd"},"vehicle_type_id":"4","last_reported":1701266817,"current_range_meters":14400,"station_id":"ce4bhbp2rcd13ifvqerg","pricing_plan_id":"free"},{"bike_id":"aa1848cd-bf55-4924-9882-c73cfcc81009","system_id":"levelo_inurba_marseille","lat":43.29039,"lon":5.39968,"is_reserved":false,"is_disabled":false,"rental_uris":{"android":"levelo://app?vid=aa1848cd-bf55-4924-9882-c73cfcc81009","ios":"levelo://app?vid=aa1848cd-bf55-4924-9882-c73cfcc81009"},"vehicle_type_id":"4","last_reported":1701266817,"current_range_meters":21600,"station_id":"ce4bh392rcd13ifvqdm0","pricing_plan_id":"free"},{"bike_id":"f761f013-2c7b-4024-9e11-2efc11f80575","system_id":"levelo_inurba_marseille","lat":43.284462,"lon":5.392121,"is_reserved":false,"is_disabled":false,"rental_uris":{"android":"levelo://app?vid=f761f013-2c7b-4024-9e11-2efc11f80575","ios":"levelo://app?vid=f761f013-2c7b-4024-9e11-2efc11f80575"},"vehicle_type_id":"4","last_reported":1701266817,"current_range_meters":17200,"station_id":"ce4bhoh2rcd13ifvqh5g","pricing_plan_id":"free"},{"bike_id":"13afb955-de94-4d1f-928a-bb0026a463d0","system_id":"levelo_inurba_marseille","lat":43.284401,"lon":5.391859,"is_reserved":false,"is_disabled":false,"rental_uris":{"android":"levelo://app?vid=13afb955-de94-4d1f-928a-bb0026a463d0","ios":"levelo://app?vid=13afb955-de94-4d1f-928a-bb0026a463d0"},"vehicle_type_id":"4","last_reported":1701266817,"current_range_meters":8400,"station_id":"ce4bhoh2rcd13ifvqh5g","pricing_plan_id":"free"},{"bike_id":"9a087736-a765-45c6-a353-8c5593f58026","system_id":"levelo_inurba_marseille","lat":43.28564,"lon":5.39495,"is_reserved":false,"is_disabled":false,"rental_uris":{"android":"levelo://app?vid=9a087736-a765-45c6-a353-8c5593f58026","ios":"levelo://app?vid=9a087736-a765-45c6-a353-8c5593f58026"},"vehicle_type_id":"4","last_reported":1701266817,"current_range_meters":17200,"station_id":"ce4bh292rcd13ifvqdg0","pricing_plan_id":"free"},{"bike_id":"48130046-b8f6-4548-809b-8861ac391688","system_id":"levelo_inurba_marseille","lat":43.326605,"lon":5.409903,"is_reserved":false,"is_disabled":false,"rental_uris":{"android":"levelo://app?vid=48130046-b8f6-4548-809b-8861ac391688","ios":"levelo://app?vid=48130046-b8f6-4548-809b-8861ac391688"},"vehicle_type_id":"4","last_reported":1701266817,"current_range_meters":16400,"station_id":"ce4bhpp2rcd13ifvqhgg","pricing_plan_id":"free"},{"bike_id":"5b80a59c-2e99-4966-8888-4029d7a8bf02","system_id":"levelo_inurba_marseille","lat":43.30417,"lon":5.41286,"is_reserved":false,"is_disabled":false,"rental_uris":{"android":"levelo://app?vid=5b80a59c-2e99-4966-8888-4029d7a8bf02","ios":"levelo://app?vid=5b80a59c-2e99-4966-8888-4029d7a8bf02"},"vehicle_type_id":"4","last_reported":1701266817,"current_range_meters":27200,"station_id":"ce4bhop2rcd13ifvqh8g","pricing_plan_id":"free"},{"bike_id":"6abda9b2-0fc0-45ec-a95b-ec0e138623f7","system_id":"levelo_inurba_marseille","lat":43.304188,"lon":5.412904,"is_reserved":false,"is_disabled":false,"rental_uris":{"android":"levelo://app?vid=6abda9b2-0fc0-45ec-a95b-ec0e138623f7","ios":"levelo://app?vid=6abda9b2-0fc0-45ec-a95b-ec0e138623f7"},"vehicle_type_id":"4","last_reported":1701266817,"current_range_meters":2400,"station_id":"ce4bhop2rcd13ifvqh8g","pricing_plan_id":"free"},{"bike_id":"6c65be7c-a6a5-49fd-8c2e-f07df462c3d4","system_id":"levelo_inurba_marseille","lat":43.279087,"lon":5.380114,"is_reserved":false,"is_disabled":false,"rental_uris":{"android":"levelo://app?vid=6c65be7c-a6a5-49fd-8c2e-f07df462c3d4","ios":"levelo://app?vid=6c65be7c-a6a5-49fd-8c2e-f07df462c3d4"},"vehicle_type_id":"4","last_reported":1701266817,"current_range_meters":10400,"station_id":"ce4bhf92rcd13ifvqf50","pricing_plan_id":"free"},{"bike_id":"5315c02c-bfe3-485d-8031-cb077f7c6d4d","system_id":"levelo_inurba_marseille","lat":43.28692,"lon":5.39983,"is_reserved":false,"is_disabled":false,"rental_uris":{"android":"levelo://app?vid=5315c02c-bfe3-485d-8031-cb077f7c6d4d","ios":"levelo://app?vid=5315c02c-bfe3-485d-8031-cb077f7c6d4d"},"vehicle_type_id":"4","last_reported":1701266817,"current_range_meters":25200,"station_id":"ce4bho92rcd13ifvqh3g","pricing_plan_id":"free"},{"bike_id":"d28b6def-e8c0-4785-bbed-8c1304aa87ea","system_id":"levelo_inurba_marseille","lat":43.320045,"lon":5.415046,"is_reserved":false,"is_disabled":false,"rental_uris":{"android":"levelo://app?vid=d28b6def-e8c0-4785-bbed-8c1304aa87ea","ios":"levelo://app?vid=d28b6def-e8c0-4785-bbed-8c1304aa87ea"},"vehicle_type_id":"4","last_reported":1701266817,"current_range_meters":25200,"station_id":"ce4bhq92rcd13ifvqhkg","pricing_plan_id":"free"},{"bike_id":"d90b8c0e-55a4-407b-9c16-0aeb10584c6c","system_id":"levelo_inurba_marseille","lat":43.325233,"lon":5.414318,"is_reserved":false,"is_disabled":false,"rental_uris":{"android":"levelo://app?vid=d90b8c0e-55a4-407b-9c16-0aeb10584c6c","ios":"levelo://app?vid=d90b8c0e-55a4-407b-9c16-0aeb10584c6c"},"vehicle_type_id":"4","last_reported":1701266817,"current_range_meters":30400,"station_id":"ce4bhq12rcd13ifvqhhg","pricing_plan_id":"free"},{"bike_id":"55ca21be-e6e3-4325-ae78-f1b9a09f5d35","system_id":"levelo_inurba_marseille","lat":43.27614,"lon":5.36116,"is_reserved":false,"is_disabled":false,"rental_uris":{"android":"levelo://app?vid=55ca21be-e6e3-4325-ae78-f1b9a09f5d35","ios":"levelo://app?vid=55ca21be-e6e3-4325-ae78-f1b9a09f5d35"},"vehicle_type_id":"4","last_reported":1701266817,"current_range_meters":0,"station_id":"ce4bgj92rcd13ifvqbe0","pricing_plan_id":"free"},{"bike_id":"5d0a9664-504f-48c3-b900-6d3765e1bed6","system_id":"levelo_inurba_marseille","lat":43.280784,"lon":5.396622,"is_reserved":false,"is_disabled":false,"rental_uris":{"android":"levelo://app?vid=5d0a9664-504f-48c3-b900-6d3765e1bed6","ios":"levelo://app?vid=5d0a9664-504f-48c3-b900-6d3765e1bed6"},"vehicle_type_id":"4","last_reported":1701266817,"current_range_meters":22800,"station_id":"ce4bho12rcd13ifvqh2g","pricing_plan_id":"free"},{"bike_id":"e919b20f-5d14-4db1-a6be-bcb90622b930","system_id":"levelo_inurba_marseille","lat":43.273609,"lon":5.362708,"is_reserved":false,"is_disabled":false,"rental_uris":{"android":"levelo://app?vid=e919b20f-5d14-4db1-a6be-bcb90622b930","ios":"levelo://app?vid=e919b20f-5d14-4db1-a6be-bcb90622b930"},"vehicle_type_id":"4","last_reported":1701266817,"current_range_meters":8000,"station_id":"ce4bhbh2rcd13ifvqeo0","pricing_plan_id":"free"},{"bike_id":"b612be20-e3d3-4082-a4fe-4bead8246827","system_id":"levelo_inurba_marseille","lat":43.278399,"lon":5.392139,"is_reserved":false,"is_disabled":false,"rental_uris":{"android":"levelo://app?vid=b612be20-e3d3-4082-a4fe-4bead8246827","ios":"levelo://app?vid=b612be20-e3d3-4082-a4fe-4bead8246827"},"vehicle_type_id":"4","last_reported":1701266817,"current_range_meters":0,"station_id":"ce4bhjp2rcd13ifvqga0","pricing_plan_id":"free"},{"bike_id":"6ecd0055-a513-4dea-a0fd-cf4b6716dca9","system_id":"levelo_inurba_marseille","lat":43.273609,"lon":5.362708,"is_reserved":false,"is_disabled":false,"rental_uris":{"android":"levelo://app?vid=6ecd0055-a513-4dea-a0fd-cf4b6716dca9","ios":"levelo://app?vid=6ecd0055-a513-4dea-a0fd-cf4b6716dca9"},"vehicle_type_id":"4","last_reported":1701266817,"current_range_meters":6800,"station_id":"ce4bhbh2rcd13ifvqeo0","pricing_plan_id":"free"},{"bike_id":"3c5f2b90-d3f4-4eda-9d13-9e9ecceb827a","system_id":"levelo_inurba_marseille","lat":43.336134,"lon":5.410341,"is_reserved":false,"is_disabled":false,"rental_uris":{"android":"levelo://app?vid=3c5f2b90-d3f4-4eda-9d13-9e9ecceb827a","ios":"levelo://app?vid=3c5f2b90-d3f4-4eda-9d13-9e9ecceb827a"},"vehicle_type_id":"4","last_reported":1701266817,"current_range_meters":18000,"station_id":"ce4bhqh2rcd13ifvqhmg","pricing_plan_id":"free"},{"bike_id":"eec1ec14-b69c-4e88-9acd-02e1c9478ce9","system_id":"levelo_inurba_marseille","lat":43.276769,"lon":5.388787,"is_reserved":false,"is_disabled":false,"rental_uris":{"android":"levelo://app?vid=eec1ec14-b69c-4e88-9acd-02e1c9478ce9","ios":"levelo://app?vid=eec1ec14-b69c-4e88-9acd-02e1c9478ce9"},"vehicle_type_id":"4","last_reported":1701266817,"current_range_meters":10000,"station_id":"ce4bhi12rcd13ifvqfo0","pricing_plan_id":"free"},{"bike_id":"7ea9424b-f30f-42b6-bdb4-c75b52665aed","system_id":"levelo_inurba_marseille","lat":43.276769,"lon":5.388787,"is_reserved":false,"is_disabled":false,"rental_uris":{"android":"levelo://app?vid=7ea9424b-f30f-42b6-bdb4-c75b52665aed","ios":"levelo://app?vid=7ea9424b-f30f-42b6-bdb4-c75b52665aed"},"vehicle_type_id":"4","last_reported":1701266817,"current_range_meters":14000,"station_id":"ce4bhi12rcd13ifvqfo0","pricing_plan_id":"free"},{"bike_id":"608ad970-d565-49ab-9391-72ebbe7f5cb6","system_id":"levelo_inurba_marseille","lat":43.279952,"lon":5.400085,"is_reserved":false,"is_disabled":false,"rental_uris":{"android":"levelo://app?vid=608ad970-d565-49ab-9391-72ebbe7f5cb6","ios":"levelo://app?vid=608ad970-d565-49ab-9391-72ebbe7f5cb6"},"vehicle_type_id":"4","last_reported":1701266817,"current_range_meters":23200,"station_id":"ce4bho92rcd13ifvqh4g","pricing_plan_id":"free"},{"bike_id":"70658e6e-38af-40b9-aed2-066c2d60e5bb","system_id":"levelo_inurba_marseille","lat":43.274918,"lon":5.389943,"is_reserved":false,"is_disabled":false,"rental_uris":{"android":"levelo://app?vid=70658e6e-38af-40b9-aed2-066c2d60e5bb","ios":"levelo://app?vid=70658e6e-38af-40b9-aed2-066c2d60e5bb"},"vehicle_type_id":"4","last_reported":1701266817,"current_range_meters":0,"station_id":"","pricing_plan_id":"free"},{"bike_id":"4629788e-4f7a-4103-b95e-583d0b30f54b","system_id":"levelo_inurba_marseille","lat":43.27477,"lon":5.390005,"is_reserved":false,"is_disabled":false,"rental_uris":{"android":"levelo://app?vid=4629788e-4f7a-4103-b95e-583d0b30f54b","ios":"levelo://app?vid=4629788e-4f7a-4103-b95e-583d0b30f54b"},"vehicle_type_id":"4","last_reported":1701266817,"current_range_meters":0,"station_id":"ce4bhgp2rcd13ifvqfe0","pricing_plan_id":"free"},{"bike_id":"ef7ba327-e43f-42e0-a02d-cb83e9268f27","system_id":"levelo_inurba_marseille","lat":43.31082,"lon":5.42431,"is_reserved":false,"is_disabled":false,"rental_uris":{"android":"levelo://app?vid=ef7ba327-e43f-42e0-a02d-cb83e9268f27","ios":"levelo://app?vid=ef7ba327-e43f-42e0-a02d-cb83e9268f27"},"vehicle_type_id":"4","last_reported":1701266817,"current_range_meters":20400,"station_id":"ce4bhp92rcd13ifvqhag","pricing_plan_id":"free"},{"bike_id":"e5e93a4a-cd5a-4f7b-afba-2857ecd53b7d","system_id":"levelo_inurba_marseille","lat":43.276771,"lon":5.388799,"is_reserved":false,"is_disabled":false,"rental_uris":{"android":"levelo://app?vid=e5e93a4a-cd5a-4f7b-afba-2857ecd53b7d","ios":"levelo://app?vid=e5e93a4a-cd5a-4f7b-afba-2857ecd53b7d"},"vehicle_type_id":"4","last_reported":1701266817,"current_range_meters":26000,"station_id":"ce4bhi12rcd13ifvqfo0","pricing_plan_id":"free"},{"bike_id":"fc587436-4570-4bb0-a342-67c19310d16c","system_id":"levelo_inurba_marseille","lat":43.304113,"lon":5.42548,"is_reserved":false,"is_disabled":false,"rental_uris":{"android":"levelo://app?vid=fc587436-4570-4bb0-a342-67c19310d16c","ios":"levelo://app?vid=fc587436-4570-4bb0-a342-67c19310d16c"},"vehicle_type_id":"4","last_reported":1701266817,"current_range_meters":23600,"station_id":"ce4bhoh2rcd13ifvqh6g","pricing_plan_id":"free"},{"bike_id":"1d1727f4-230d-4945-b92f-0c95f84949dc","system_id":"levelo_inurba_marseille","lat":43.29526,"lon":5.42277,"is_reserved":false,"is_disabled":false,"rental_uris":{"android":"levelo://app?vid=1d1727f4-230d-4945-b92f-0c95f84949dc","ios":"levelo://app?vid=1d1727f4-230d-4945-b92f-0c95f84949dc"},"vehicle_type_id":"4","last_reported":1701266817,"current_range_meters":29600,"station_id":"ce4bhph2rcd13ifvqhdg","pricing_plan_id":"free"},{"bike_id":"0120dbbf-4353-4df3-96d2-747d00c5e0f6","system_id":"levelo_inurba_marseille","lat":43.2952,"lon":5.42276,"is_reserved":false,"is_disabled":false,"rental_uris":{"android":"levelo://app?vid=0120dbbf-4353-4df3-96d2-747d00c5e0f6","ios":"levelo://app?vid=0120dbbf-4353-4df3-96d2-747d00c5e0f6"},"vehicle_type_id":"4","last_reported":1701266817,"current_range_meters":24800,"station_id":"ce4bhph2rcd13ifvqhdg","pricing_plan_id":"free"},{"bike_id":"a6dbb68b-5a6f-4772-b60c-6976dd6631b6","system_id":"levelo_inurba_marseille","lat":43.295511,"lon":5.422926,"is_reserved":false,"is_disabled":false,"rental_uris":{"android":"levelo://app?vid=a6dbb68b-5a6f-4772-b60c-6976dd6631b6","ios":"levelo://app?vid=a6dbb68b-5a6f-4772-b60c-6976dd6631b6"},"vehicle_type_id":"4","last_reported":1701266817,"current_range_meters":19600,"station_id":"ce4bhph2rcd13ifvqhdg","pricing_plan_id":"free"},{"bike_id":"5f8cf5ea-e9f0-4ca4-89fd-c7fab6d3ab27","system_id":"levelo_inurba_marseille","lat":43.26946,"lon":5.38627,"is_reserved":false,"is_disabled":false,"rental_uris":{"android":"levelo://app?vid=5f8cf5ea-e9f0-4ca4-89fd-c7fab6d3ab27","ios":"levelo://app?vid=5f8cf5ea-e9f0-4ca4-89fd-c7fab6d3ab27"},"vehicle_type_id":"4","last_reported":1701266817,"current_range_meters":26400,"station_id":"ce4bhh92rcd13ifvqfh0","pricing_plan_id":"free"},{"bike_id":"678707f0-f18b-4526-938d-cbb54df77004","system_id":"levelo_inurba_marseille","lat":43.2689,"lon":5.38933,"is_reserved":false,"is_disabled":false,"rental_uris":{"android":"levelo://app?vid=678707f0-f18b-4526-938d-cbb54df77004","ios":"levelo://app?vid=678707f0-f18b-4526-938d-cbb54df77004"},"vehicle_type_id":"4","last_reported":1701266817,"current_range_meters":30800,"station_id":"ce4bhhh2rcd13ifvqfl0","pricing_plan_id":"free"},{"bike_id":"761285f2-7fae-4b1b-a8e5-bc1ea913acc7","system_id":"levelo_inurba_marseille","lat":43.26681,"lon":5.382694,"is_reserved":false,"is_disabled":false,"rental_uris":{"android":"levelo://app?vid=761285f2-7fae-4b1b-a8e5-bc1ea913acc7","ios":"levelo://app?vid=761285f2-7fae-4b1b-a8e5-bc1ea913acc7"},"vehicle_type_id":"4","last_reported":1701266817,"current_range_meters":27200,"station_id":"ce4bhg92rcd13ifvqf90","pricing_plan_id":"free"},{"bike_id":"5264ae7f-1a72-4d75-aa4c-ff078da676bb","system_id":"levelo_inurba_marseille","lat":43.2655,"lon":5.373043,"is_reserved":false,"is_disabled":false,"rental_uris":{"android":"levelo://app?vid=5264ae7f-1a72-4d75-aa4c-ff078da676bb","ios":"levelo://app?vid=5264ae7f-1a72-4d75-aa4c-ff078da676bb"},"vehicle_type_id":"4","last_reported":1701266817,"current_range_meters":26800,"station_id":"ce4bhg12rcd13ifvqf70","pricing_plan_id":"free"},{"bike_id":"47ddf428-a8b9-4534-acbc-65f2ba3345a7","system_id":"levelo_inurba_marseille","lat":43.267966,"lon":5.393976,"is_reserved":false,"is_disabled":false,"rental_uris":{"android":"levelo://app?vid=47ddf428-a8b9-4534-acbc-65f2ba3345a7","ios":"levelo://app?vid=47ddf428-a8b9-4534-acbc-65f2ba3345a7"},"vehicle_type_id":"4","last_reported":1701266817,"current_range_meters":27200,"station_id":"ce4bhh12rcd13ifvqfg0","pricing_plan_id":"free"},{"bike_id":"c6379d7f-c0c5-44e8-ad09-9ea54b728abb","system_id":"levelo_inurba_marseille","lat":43.308051,"lon":5.43527,"is_reserved":false,"is_disabled":false,"rental_uris":{"android":"levelo://app?vid=c6379d7f-c0c5-44e8-ad09-9ea54b728abb","ios":"levelo://app?vid=c6379d7f-c0c5-44e8-ad09-9ea54b728abb"},"vehicle_type_id":"4","last_reported":1701266817,"current_range_meters":25200,"station_id":"ce4bhph2rcd13ifvqheg","pricing_plan_id":"free"},{"bike_id":"d182ba29-ae25-4cd5-831e-833d603d50dd","system_id":"levelo_inurba_marseille","lat":43.26939,"lon":5.40251,"is_reserved":false,"is_disabled":false,"rental_uris":{"android":"levelo://app?vid=d182ba29-ae25-4cd5-831e-833d603d50dd","ios":"levelo://app?vid=d182ba29-ae25-4cd5-831e-833d603d50dd"},"vehicle_type_id":"4","last_reported":1701266817,"current_range_meters":5600,"station_id":"cjm6bp8fraef2m0cb0m0","pricing_plan_id":"free"},{"bike_id":"369c6b01-ed17-4129-93a4-9388491cecb9","system_id":"levelo_inurba_marseille","lat":43.26937,"lon":5.40249,"is_reserved":false,"is_disabled":false,"rental_uris":{"android":"levelo://app?vid=369c6b01-ed17-4129-93a4-9388491cecb9","ios":"levelo://app?vid=369c6b01-ed17-4129-93a4-9388491cecb9"},"vehicle_type_id":"4","last_reported":1701266817,"current_range_meters":23600,"station_id":"cjm6bp8fraef2m0cb0m0","pricing_plan_id":"free"},{"bike_id":"f5cb7022-b02f-4c95-ae17-aa6dcab3dfe2","system_id":"levelo_inurba_marseille","lat":43.26937,"lon":5.40254,"is_reserved":false,"is_disabled":false,"rental_uris":{"android":"levelo://app?vid=f5cb7022-b02f-4c95-ae17-aa6dcab3dfe2","ios":"levelo://app?vid=f5cb7022-b02f-4c95-ae17-aa6dcab3dfe2"},"vehicle_type_id":"4","last_reported":1701266817,"current_range_meters":29200,"station_id":"cjm6bp8fraef2m0cb0m0","pricing_plan_id":"free"},{"bike_id":"786e138e-9d6d-4e6e-811d-eecbce29b9d9","system_id":"levelo_inurba_marseille","lat":43.26935,"lon":5.40253,"is_reserved":false,"is_disabled":false,"rental_uris":{"android":"levelo://app?vid=786e138e-9d6d-4e6e-811d-eecbce29b9d9","ios":"levelo://app?vid=786e138e-9d6d-4e6e-811d-eecbce29b9d9"},"vehicle_type_id":"4","last_reported":1701266817,"current_range_meters":7600,"station_id":"cjm6bp8fraef2m0cb0m0","pricing_plan_id":"free"},{"bike_id":"5b0cd13e-dfbb-4e0c-87cc-c372138ad8ce","system_id":"levelo_inurba_marseille","lat":43.271368,"lon":5.40928,"is_reserved":false,"is_disabled":false,"rental_uris":{"android":"levelo://app?vid=5b0cd13e-dfbb-4e0c-87cc-c372138ad8ce","ios":"levelo://app?vid=5b0cd13e-dfbb-4e0c-87cc-c372138ad8ce"},"vehicle_type_id":"4","last_reported":1701266817,"current_range_meters":30000,"station_id":"ce4bhl12rcd13ifvqgf0","pricing_plan_id":"free"},{"bike_id":"5dd00fc2-584d-4cba-a238-bae6fef3392a","system_id":"levelo_inurba_marseille","lat":43.262012,"lon":5.379307,"is_reserved":false,"is_disabled":false,"rental_uris":{"android":"levelo://app?vid=5dd00fc2-584d-4cba-a238-bae6fef3392a","ios":"levelo://app?vid=5dd00fc2-584d-4cba-a238-bae6fef3392a"},"vehicle_type_id":"4","last_reported":1701266817,"current_range_meters":24400,"station_id":"ce4bhjp2rcd13ifvqg90","pricing_plan_id":"free"},{"bike_id":"c436bcd3-92e8-4708-8ee3-370c05cc2635","system_id":"levelo_inurba_marseille","lat":43.267959,"lon":5.402685,"is_reserved":false,"is_disabled":false,"rental_uris":{"android":"levelo://app?vid=c436bcd3-92e8-4708-8ee3-370c05cc2635","ios":"levelo://app?vid=c436bcd3-92e8-4708-8ee3-370c05cc2635"},"vehicle_type_id":"4","last_reported":1701266817,"current_range_meters":26800,"station_id":"ce501612rcd8frsf0b60","pricing_plan_id":"free"},{"bike_id":"f9535ffe-15a0-4733-a4c9-8bf76128a505","system_id":"levelo_inurba_marseille","lat":43.298768,"lon":5.43643,"is_reserved":false,"is_disabled":false,"rental_uris":{"android":"levelo://app?vid=f9535ffe-15a0-4733-a4c9-8bf76128a505","ios":"levelo://app?vid=f9535ffe-15a0-4733-a4c9-8bf76128a505"},"vehicle_type_id":"4","last_reported":1701266817,"current_range_meters":30000,"station_id":"ce4bhpp2rcd13ifvqhfg","pricing_plan_id":"free"},{"bike_id":"36da126c-1bfc-44f1-8d4c-0774bd254fd1","system_id":"levelo_inurba_marseille","lat":43.260225,"lon":5.375455,"is_reserved":false,"is_disabled":false,"rental_uris":{"android":"levelo://app?vid=36da126c-1bfc-44f1-8d4c-0774bd254fd1","ios":"levelo://app?vid=36da126c-1bfc-44f1-8d4c-0774bd254fd1"},"vehicle_type_id":"4","last_reported":1701266817,"current_range_meters":30000,"station_id":"ce4bhgh2rcd13ifvqfa0","pricing_plan_id":"free"},{"bike_id":"9f48210e-961f-43ac-8d98-9ed12fc0c870","system_id":"levelo_inurba_marseille","lat":43.260225,"lon":5.375455,"is_reserved":false,"is_disabled":false,"rental_uris":{"android":"levelo://app?vid=9f48210e-961f-43ac-8d98-9ed12fc0c870","ios":"levelo://app?vid=9f48210e-961f-43ac-8d98-9ed12fc0c870"},"vehicle_type_id":"4","last_reported":1701266817,"current_range_meters":31200,"station_id":"ce4bhgh2rcd13ifvqfa0","pricing_plan_id":"free"},{"bike_id":"b129c84a-9f10-496f-b574-c3701a062f75","system_id":"levelo_inurba_marseille","lat":43.275028,"lon":5.424534,"is_reserved":false,"is_disabled":false,"rental_uris":{"android":"levelo://app?vid=b129c84a-9f10-496f-b574-c3701a062f75","ios":"levelo://app?vid=b129c84a-9f10-496f-b574-c3701a062f75"},"vehicle_type_id":"4","last_reported":1701266817,"current_range_meters":23600,"station_id":"ce4bhn92rcd13ifvqgrg","pricing_plan_id":"free"},{"bike_id":"a45dc6bd-fe17-40d3-b2af-25b4dfba0fc3","system_id":"levelo_inurba_marseille","lat":43.26085,"lon":5.39775,"is_reserved":false,"is_disabled":false,"rental_uris":{"android":"levelo://app?vid=a45dc6bd-fe17-40d3-b2af-25b4dfba0fc3","ios":"levelo://app?vid=a45dc6bd-fe17-40d3-b2af-25b4dfba0fc3"},"vehicle_type_id":"4","last_reported":1701266817,"current_range_meters":1600,"station_id":"ce4bhi12rcd13ifvqfq0","pricing_plan_id":"free"},{"bike_id":"6bc55e2d-44a1-4800-8c9c-8dd124efcb03","system_id":"levelo_inurba_marseille","lat":43.25833,"lon":5.39437,"is_reserved":false,"is_disabled":false,"rental_uris":{"android":"levelo://app?vid=6bc55e2d-44a1-4800-8c9c-8dd124efcb03","ios":"levelo://app?vid=6bc55e2d-44a1-4800-8c9c-8dd124efcb03"},"vehicle_type_id":"4","last_reported":1701266817,"current_range_meters":9600,"station_id":"ce4bhip2rcd13ifvqft0","pricing_plan_id":"free"},{"bike_id":"73879ad1-e57a-493c-beed-ed1691dccfd2","system_id":"levelo_inurba_marseille","lat":43.2558,"lon":5.38231,"is_reserved":false,"is_disabled":false,"rental_uris":{"android":"levelo://app?vid=73879ad1-e57a-493c-beed-ed1691dccfd2","ios":"levelo://app?vid=73879ad1-e57a-493c-beed-ed1691dccfd2"},"vehicle_type_id":"4","last_reported":1701266817,"current_range_meters":18800,"station_id":"ce4bhih2rcd13ifvqfs0","pricing_plan_id":"free"},{"bike_id":"94b729b0-048d-4872-94ef-d2e771f17ea3","system_id":"levelo_inurba_marseille","lat":43.25573,"lon":5.38228,"is_reserved":false,"is_disabled":false,"rental_uris":{"android":"levelo://app?vid=94b729b0-048d-4872-94ef-d2e771f17ea3","ios":"levelo://app?vid=94b729b0-048d-4872-94ef-d2e771f17ea3"},"vehicle_type_id":"4","last_reported":1701266817,"current_range_meters":800,"station_id":"ce4bhih2rcd13ifvqfs0","pricing_plan_id":"free"},{"bike_id":"013f1b0c-7b7b-4429-81f3-efa4c17908fd","system_id":"levelo_inurba_marseille","lat":43.25495,"lon":5.37648,"is_reserved":false,"is_disabled":false,"rental_uris":{"android":"levelo://app?vid=013f1b0c-7b7b-4429-81f3-efa4c17908fd","ios":"levelo://app?vid=013f1b0c-7b7b-4429-81f3-efa4c17908fd"},"vehicle_type_id":"4","last_reported":1701266817,"current_range_meters":28800,"station_id":"ce4bhh12rcd13ifvqff0","pricing_plan_id":"free"},{"bike_id":"6cc10424-1724-4ed3-9b7c-5071cd523857","system_id":"levelo_inurba_marseille","lat":43.254947,"lon":5.376454,"is_reserved":false,"is_disabled":false,"rental_uris":{"android":"levelo://app?vid=6cc10424-1724-4ed3-9b7c-5071cd523857","ios":"levelo://app?vid=6cc10424-1724-4ed3-9b7c-5071cd523857"},"vehicle_type_id":"4","last_reported":1701266817,"current_range_meters":20000,"station_id":"ce4bhh12rcd13ifvqff0","pricing_plan_id":"free"},{"bike_id":"b681f06b-7dec-4700-bcb1-f37d936e5643","system_id":"levelo_inurba_marseille","lat":43.254947,"lon":5.376454,"is_reserved":false,"is_disabled":false,"rental_uris":{"android":"levelo://app?vid=b681f06b-7dec-4700-bcb1-f37d936e5643","ios":"levelo://app?vid=b681f06b-7dec-4700-bcb1-f37d936e5643"},"vehicle_type_id":"4","last_reported":1701266817,"current_range_meters":26000,"station_id":"ce4bhh12rcd13ifvqff0","pricing_plan_id":"free"},{"bike_id":"19029ed7-bf97-4f4d-a8c2-7d27e70ef7f7","system_id":"levelo_inurba_marseille","lat":43.270721,"lon":5.422764,"is_reserved":false,"is_disabled":false,"rental_uris":{"android":"levelo://app?vid=19029ed7-bf97-4f4d-a8c2-7d27e70ef7f7","ios":"levelo://app?vid=19029ed7-bf97-4f4d-a8c2-7d27e70ef7f7"},"vehicle_type_id":"4","last_reported":1701266817,"current_range_meters":26000,"station_id":"ce4bhk92rcd13ifvqgb0","pricing_plan_id":"free"},{"bike_id":"34fc62c2-0a64-4590-8e26-bc3fdd975329","system_id":"levelo_inurba_marseille","lat":43.258658,"lon":5.398935,"is_reserved":false,"is_disabled":false,"rental_uris":{"android":"levelo://app?vid=34fc62c2-0a64-4590-8e26-bc3fdd975329","ios":"levelo://app?vid=34fc62c2-0a64-4590-8e26-bc3fdd975329"},"vehicle_type_id":"4","last_reported":1701266817,"current_range_meters":15200,"station_id":"ce4bhl92rcd13ifvqghg","pricing_plan_id":"free"},{"bike_id":"f530a261-f63d-426f-9a2e-b4d6cf0b5e59","system_id":"levelo_inurba_marseille","lat":43.258658,"lon":5.398935,"is_reserved":false,"is_disabled":false,"rental_uris":{"android":"levelo://app?vid=f530a261-f63d-426f-9a2e-b4d6cf0b5e59","ios":"levelo://app?vid=f530a261-f63d-426f-9a2e-b4d6cf0b5e59"},"vehicle_type_id":"4","last_reported":1701266817,"current_range_meters":18000,"station_id":"ce4bhl92rcd13ifvqghg","pricing_plan_id":"free"},{"bike_id":"c7d78e9d-629e-4d09-8612-a76051bd8ebb","system_id":"levelo_inurba_marseille","lat":43.258637,"lon":5.399023,"is_reserved":false,"is_disabled":false,"rental_uris":{"android":"levelo://app?vid=c7d78e9d-629e-4d09-8612-a76051bd8ebb","ios":"levelo://app?vid=c7d78e9d-629e-4d09-8612-a76051bd8ebb"},"vehicle_type_id":"4","last_reported":1701266817,"current_range_meters":5600,"station_id":"ce4bhl92rcd13ifvqghg","pricing_plan_id":"free"},{"bike_id":"701dfc6c-2f0b-43a3-88d0-350b92ece9cc","system_id":"levelo_inurba_marseille","lat":43.259013,"lon":5.409301,"is_reserved":false,"is_disabled":false,"rental_uris":{"android":"levelo://app?vid=701dfc6c-2f0b-43a3-88d0-350b92ece9cc","ios":"levelo://app?vid=701dfc6c-2f0b-43a3-88d0-350b92ece9cc"},"vehicle_type_id":"4","last_reported":1701266817,"current_range_meters":24000,"station_id":"ce4bhm92rcd13ifvqglg","pricing_plan_id":"free"},{"bike_id":"e4eaa37b-5b2d-4481-8e72-ec16467bfebd","system_id":"levelo_inurba_marseille","lat":43.259013,"lon":5.409301,"is_reserved":false,"is_disabled":false,"rental_uris":{"android":"levelo://app?vid=e4eaa37b-5b2d-4481-8e72-ec16467bfebd","ios":"levelo://app?vid=e4eaa37b-5b2d-4481-8e72-ec16467bfebd"},"vehicle_type_id":"4","last_reported":1701266817,"current_range_meters":15200,"station_id":"ce4bhm92rcd13ifvqglg","pricing_plan_id":"free"},{"bike_id":"d555e29f-1161-475c-9c68-0a440bd7139a","system_id":"levelo_inurba_marseille","lat":43.259013,"lon":5.409301,"is_reserved":false,"is_disabled":false,"rental_uris":{"android":"levelo://app?vid=d555e29f-1161-475c-9c68-0a440bd7139a","ios":"levelo://app?vid=d555e29f-1161-475c-9c68-0a440bd7139a"},"vehicle_type_id":"4","last_reported":1701266817,"current_range_meters":20400,"station_id":"ce4bhm92rcd13ifvqglg","pricing_plan_id":"free"},{"bike_id":"ec3ae71a-7855-4733-9a16-722c539f39c2","system_id":"levelo_inurba_marseille","lat":43.257079,"lon":5.411051,"is_reserved":false,"is_disabled":false,"rental_uris":{"android":"levelo://app?vid=ec3ae71a-7855-4733-9a16-722c539f39c2","ios":"levelo://app?vid=ec3ae71a-7855-4733-9a16-722c539f39c2"},"vehicle_type_id":"4","last_reported":1701266817,"current_range_meters":31200,"station_id":"ce4bhkp2rcd13ifvqgd0","pricing_plan_id":"free"},{"bike_id":"5c5fe381-aeb4-4ae4-8210-b2710862dd9f","system_id":"levelo_inurba_marseille","lat":43.250068,"lon":5.389155,"is_reserved":false,"is_disabled":false,"rental_uris":{"android":"levelo://app?vid=5c5fe381-aeb4-4ae4-8210-b2710862dd9f","ios":"levelo://app?vid=5c5fe381-aeb4-4ae4-8210-b2710862dd9f"},"vehicle_type_id":"4","last_reported":1701266817,"current_range_meters":29200,"station_id":"ce4bhgp2rcd13ifvqfd0","pricing_plan_id":"free"},{"bike_id":"d0263e54-8146-4705-b1e3-0449330dbff0","system_id":"levelo_inurba_marseille","lat":43.25004,"lon":5.38923,"is_reserved":false,"is_disabled":false,"rental_uris":{"android":"levelo://app?vid=d0263e54-8146-4705-b1e3-0449330dbff0","ios":"levelo://app?vid=d0263e54-8146-4705-b1e3-0449330dbff0"},"vehicle_type_id":"4","last_reported":1701266817,"current_range_meters":19200,"station_id":"ce4bhgp2rcd13ifvqfd0","pricing_plan_id":"free"},{"bike_id":"99bbb538-bd78-41c6-96de-754558017f08","system_id":"levelo_inurba_marseille","lat":43.25001,"lon":5.38925,"is_reserved":false,"is_disabled":false,"rental_uris":{"android":"levelo://app?vid=99bbb538-bd78-41c6-96de-754558017f08","ios":"levelo://app?vid=99bbb538-bd78-41c6-96de-754558017f08"},"vehicle_type_id":"4","last_reported":1701266817,"current_range_meters":29200,"station_id":"ce4bhgp2rcd13ifvqfd0","pricing_plan_id":"free"},{"bike_id":"b9ff1d44-6a07-4417-b57e-36084b5d619c","system_id":"levelo_inurba_marseille","lat":43.24999,"lon":5.38928,"is_reserved":false,"is_disabled":false,"rental_uris":{"android":"levelo://app?vid=b9ff1d44-6a07-4417-b57e-36084b5d619c","ios":"levelo://app?vid=b9ff1d44-6a07-4417-b57e-36084b5d619c"},"vehicle_type_id":"4","last_reported":1701266817,"current_range_meters":27600,"station_id":"ce4bhgp2rcd13ifvqfd0","pricing_plan_id":"free"},{"bike_id":"2c147992-fd5d-4e46-85d4-5c657ac2fb7c","system_id":"levelo_inurba_marseille","lat":43.2479,"lon":5.374457,"is_reserved":false,"is_disabled":false,"rental_uris":{"android":"levelo://app?vid=2c147992-fd5d-4e46-85d4-5c657ac2fb7c","ios":"levelo://app?vid=2c147992-fd5d-4e46-85d4-5c657ac2fb7c"},"vehicle_type_id":"4","last_reported":1701266817,"current_range_meters":2800,"station_id":"ce4bhgh2rcd13ifvqfb0","pricing_plan_id":"free"},{"bike_id":"4c0c3118-7eaa-4ebd-8d87-d449bea3e021","system_id":"levelo_inurba_marseille","lat":43.250897,"lon":5.395161,"is_reserved":false,"is_disabled":false,"rental_uris":{"android":"levelo://app?vid=4c0c3118-7eaa-4ebd-8d87-d449bea3e021","ios":"levelo://app?vid=4c0c3118-7eaa-4ebd-8d87-d449bea3e021"},"vehicle_type_id":"4","last_reported":1701266817,"current_range_meters":12400,"station_id":"ce4bhm12rcd13ifvqgkg","pricing_plan_id":"free"},{"bike_id":"0dbcb973-e4e8-4514-b8ba-f60ba73637c9","system_id":"levelo_inurba_marseille","lat":43.250966,"lon":5.395186,"is_reserved":false,"is_disabled":false,"rental_uris":{"android":"levelo://app?vid=0dbcb973-e4e8-4514-b8ba-f60ba73637c9","ios":"levelo://app?vid=0dbcb973-e4e8-4514-b8ba-f60ba73637c9"},"vehicle_type_id":"4","last_reported":1701266817,"current_range_meters":23200,"station_id":"ce4bhm12rcd13ifvqgkg","pricing_plan_id":"free"},{"bike_id":"6cb2f102-88a3-4377-93b6-266d3d11d7d0","system_id":"levelo_inurba_marseille","lat":43.250966,"lon":5.395186,"is_reserved":false,"is_disabled":false,"rental_uris":{"android":"levelo://app?vid=6cb2f102-88a3-4377-93b6-266d3d11d7d0","ios":"levelo://app?vid=6cb2f102-88a3-4377-93b6-266d3d11d7d0"},"vehicle_type_id":"4","last_reported":1701266817,"current_range_meters":12000,"station_id":"ce4bhm12rcd13ifvqgkg","pricing_plan_id":"free"},{"bike_id":"10503e20-0a05-45e7-b288-65c21806d805","system_id":"levelo_inurba_marseille","lat":43.25102,"lon":5.403214,"is_reserved":false,"is_disabled":false,"rental_uris":{"android":"levelo://app?vid=10503e20-0a05-45e7-b288-65c21806d805","ios":"levelo://app?vid=10503e20-0a05-45e7-b288-65c21806d805"},"vehicle_type_id":"4","last_reported":1701266817,"current_range_meters":8800,"station_id":"ce4bhlh2rcd13ifvqgig","pricing_plan_id":"free"},{"bike_id":"1491d5b7-a583-4818-954d-03198cc6d4df","system_id":"levelo_inurba_marseille","lat":43.246461,"lon":5.389014,"is_reserved":false,"is_disabled":false,"rental_uris":{"android":"levelo://app?vid=1491d5b7-a583-4818-954d-03198cc6d4df","ios":"levelo://app?vid=1491d5b7-a583-4818-954d-03198cc6d4df"},"vehicle_type_id":"4","last_reported":1701266817,"current_range_meters":27200,"station_id":"ce4bhg12rcd13ifvqf60","pricing_plan_id":"free"},{"bike_id":"3b8af71b-6042-4128-b1bb-287d36c0565e","system_id":"levelo_inurba_marseille","lat":43.246447,"lon":5.389037,"is_reserved":false,"is_disabled":false,"rental_uris":{"android":"levelo://app?vid=3b8af71b-6042-4128-b1bb-287d36c0565e","ios":"levelo://app?vid=3b8af71b-6042-4128-b1bb-287d36c0565e"},"vehicle_type_id":"4","last_reported":1701266817,"current_range_meters":27200,"station_id":"ce4bhg12rcd13ifvqf60","pricing_plan_id":"free"},{"bike_id":"327a8c79-406a-4e25-acf8-62cf39ea6337","system_id":"levelo_inurba_marseille","lat":43.24076,"lon":5.37753,"is_reserved":false,"is_disabled":false,"rental_uris":{"android":"levelo://app?vid=327a8c79-406a-4e25-acf8-62cf39ea6337","ios":"levelo://app?vid=327a8c79-406a-4e25-acf8-62cf39ea6337"},"vehicle_type_id":"4","last_reported":1701266817,"current_range_meters":30400,"station_id":"ce4bhnp2rcd13ifvqgvg","pricing_plan_id":"free"},{"bike_id":"b60d7049-e9a3-4db4-8e11-3afc78eb0b4e","system_id":"levelo_inurba_marseille","lat":43.239588,"lon":5.366238,"is_reserved":false,"is_disabled":false,"rental_uris":{"android":"levelo://app?vid=b60d7049-e9a3-4db4-8e11-3afc78eb0b4e","ios":"levelo://app?vid=b60d7049-e9a3-4db4-8e11-3afc78eb0b4e"},"vehicle_type_id":"4","last_reported":1701266817,"current_range_meters":22800,"station_id":"ce4bhi12rcd13ifvqfp0","pricing_plan_id":"free"},{"bike_id":"976e36fa-42a1-49de-99da-394bf2bed3b7","system_id":"levelo_inurba_marseille","lat":43.241782,"lon":5.397261,"is_reserved":false,"is_disabled":false,"rental_uris":{"android":"levelo://app?vid=976e36fa-42a1-49de-99da-394bf2bed3b7","ios":"levelo://app?vid=976e36fa-42a1-49de-99da-394bf2bed3b7"},"vehicle_type_id":"4","last_reported":1701266817,"current_range_meters":30000,"station_id":"ce4bhn12rcd13ifvqgpg","pricing_plan_id":"free"},{"bike_id":"e7d38123-e943-43a2-9d8a-24c16e8ab5e2","system_id":"levelo_inurba_marseille","lat":43.241782,"lon":5.397261,"is_reserved":false,"is_disabled":false,"rental_uris":{"android":"levelo://app?vid=e7d38123-e943-43a2-9d8a-24c16e8ab5e2","ios":"levelo://app?vid=e7d38123-e943-43a2-9d8a-24c16e8ab5e2"},"vehicle_type_id":"4","last_reported":1701266817,"current_range_meters":0,"station_id":"ce4bhn12rcd13ifvqgpg","pricing_plan_id":"free"},{"bike_id":"b3c730c4-5614-4d9f-bc56-f10f610e1597","system_id":"levelo_inurba_marseille","lat":43.241801,"lon":5.397297,"is_reserved":false,"is_disabled":false,"rental_uris":{"android":"levelo://app?vid=b3c730c4-5614-4d9f-bc56-f10f610e1597","ios":"levelo://app?vid=b3c730c4-5614-4d9f-bc56-f10f610e1597"},"vehicle_type_id":"4","last_reported":1701266817,"current_range_meters":30400,"station_id":"ce4bhn12rcd13ifvqgpg","pricing_plan_id":"free"},{"bike_id":"df8c7d93-8f90-42bc-a235-3d6e14549c99","system_id":"levelo_inurba_marseille","lat":43.241782,"lon":5.397261,"is_reserved":false,"is_disabled":false,"rental_uris":{"android":"levelo://app?vid=df8c7d93-8f90-42bc-a235-3d6e14549c99","ios":"levelo://app?vid=df8c7d93-8f90-42bc-a235-3d6e14549c99"},"vehicle_type_id":"4","last_reported":1701266817,"current_range_meters":8400,"station_id":"ce4bhn12rcd13ifvqgpg","pricing_plan_id":"free"},{"bike_id":"216a76bd-682f-4e41-a24d-b876dbdaba67","system_id":"levelo_inurba_marseille","lat":43.231562,"lon":5.436933,"is_reserved":false,"is_disabled":false,"rental_uris":{"android":"levelo://app?vid=216a76bd-682f-4e41-a24d-b876dbdaba67","ios":"levelo://app?vid=216a76bd-682f-4e41-a24d-b876dbdaba67"},"vehicle_type_id":"4","last_reported":1701266817,"current_range_meters":4800,"station_id":"ce4bhmp2rcd13ifvqgog","pricing_plan_id":"free"},{"bike_id":"3bbe1fd5-b7d2-484c-969b-f57a381950c3","system_id":"levelo_inurba_marseille","lat":43.231923,"lon":5.355545,"is_reserved":false,"is_disabled":false,"rental_uris":{"android":"levelo://app?vid=3bbe1fd5-b7d2-484c-969b-f57a381950c3","ios":"levelo://app?vid=3bbe1fd5-b7d2-484c-969b-f57a381950c3"},"vehicle_type_id":"4","last_reported":1701266817,"current_range_meters":15200,"station_id":"ce4bhu92rcd13ifvqi70","pricing_plan_id":"free"},{"bike_id":"97acb7ff-7df1-427e-b8c1-e1ab73eefbab","system_id":"levelo_inurba_marseille","lat":43.23197,"lon":5.35552,"is_reserved":false,"is_disabled":false,"rental_uris":{"android":"levelo://app?vid=97acb7ff-7df1-427e-b8c1-e1ab73eefbab","ios":"levelo://app?vid=97acb7ff-7df1-427e-b8c1-e1ab73eefbab"},"vehicle_type_id":"4","last_reported":1701266817,"current_range_meters":30400,"station_id":"ce4bhu92rcd13ifvqi70","pricing_plan_id":"free"},{"bike_id":"b37cf8bc-ef87-4960-b38c-3279b894369f","system_id":"levelo_inurba_marseille","lat":43.231923,"lon":5.355545,"is_reserved":false,"is_disabled":false,"rental_uris":{"android":"levelo://app?vid=b37cf8bc-ef87-4960-b38c-3279b894369f","ios":"levelo://app?vid=b37cf8bc-ef87-4960-b38c-3279b894369f"},"vehicle_type_id":"4","last_reported":1701266817,"current_range_meters":31600,"station_id":"ce4bhu92rcd13ifvqi70","pricing_plan_id":"free"},{"bike_id":"6a15bd61-65f5-44c0-9706-42eeb78c349c","system_id":"levelo_inurba_marseille","lat":43.231919,"lon":5.355532,"is_reserved":false,"is_disabled":false,"rental_uris":{"android":"levelo://app?vid=6a15bd61-65f5-44c0-9706-42eeb78c349c","ios":"levelo://app?vid=6a15bd61-65f5-44c0-9706-42eeb78c349c"},"vehicle_type_id":"4","last_reported":1701266817,"current_range_meters":30800,"station_id":"ce4bhu92rcd13ifvqi70","pricing_plan_id":"free"},{"bike_id":"256c9e11-077f-457f-ad62-e61fc6cd7edc","system_id":"levelo_inurba_marseille","lat":43.23194,"lon":5.35554,"is_reserved":false,"is_disabled":false,"rental_uris":{"android":"levelo://app?vid=256c9e11-077f-457f-ad62-e61fc6cd7edc","ios":"levelo://app?vid=256c9e11-077f-457f-ad62-e61fc6cd7edc"},"vehicle_type_id":"4","last_reported":1701266817,"current_range_meters":31200,"station_id":"ce4bhu92rcd13ifvqi70","pricing_plan_id":"free"},{"bike_id":"d1703505-b125-4a98-a807-11024241bc04","system_id":"levelo_inurba_marseille","lat":43.231923,"lon":5.355545,"is_reserved":false,"is_disabled":false,"rental_uris":{"android":"levelo://app?vid=d1703505-b125-4a98-a807-11024241bc04","ios":"levelo://app?vid=d1703505-b125-4a98-a807-11024241bc04"},"vehicle_type_id":"4","last_reported":1701266817,"current_range_meters":31600,"station_id":"ce4bhu92rcd13ifvqi70","pricing_plan_id":"free"},{"bike_id":"c0c7fee1-5737-446f-a765-fa607e9e3e85","system_id":"levelo_inurba_marseille","lat":43.231793,"lon":5.400044,"is_reserved":false,"is_disabled":false,"rental_uris":{"android":"levelo://app?vid=c0c7fee1-5737-446f-a765-fa607e9e3e85","ios":"levelo://app?vid=c0c7fee1-5737-446f-a765-fa607e9e3e85"},"vehicle_type_id":"4","last_reported":1701266817,"current_range_meters":21200,"station_id":"ce4bhn12rcd13ifvqgqg","pricing_plan_id":"free"},{"bike_id":"13b9fc9b-b75d-4572-bdcb-ccbfbdf86053","system_id":"levelo_inurba_marseille","lat":43.23188,"lon":5.39982,"is_reserved":false,"is_disabled":false,"rental_uris":{"android":"levelo://app?vid=13b9fc9b-b75d-4572-bdcb-ccbfbdf86053","ios":"levelo://app?vid=13b9fc9b-b75d-4572-bdcb-ccbfbdf86053"},"vehicle_type_id":"4","last_reported":1701266817,"current_range_meters":16400,"station_id":"ce4bhn12rcd13ifvqgqg","pricing_plan_id":"free"},{"bike_id":"017c7298-0a0b-4b52-accd-1cfa244cac68","system_id":"levelo_inurba_marseille","lat":43.231793,"lon":5.400044,"is_reserved":false,"is_disabled":false,"rental_uris":{"android":"levelo://app?vid=017c7298-0a0b-4b52-accd-1cfa244cac68","ios":"levelo://app?vid=017c7298-0a0b-4b52-accd-1cfa244cac68"},"vehicle_type_id":"4","last_reported":1701266817,"current_range_meters":31200,"station_id":"ce4bhn12rcd13ifvqgqg","pricing_plan_id":"free"},{"bike_id":"5c24af45-4ee2-4093-93e4-b4426fd403c2","system_id":"levelo_inurba_marseille","lat":43.231794,"lon":5.400052,"is_reserved":false,"is_disabled":false,"rental_uris":{"android":"levelo://app?vid=5c24af45-4ee2-4093-93e4-b4426fd403c2","ios":"levelo://app?vid=5c24af45-4ee2-4093-93e4-b4426fd403c2"},"vehicle_type_id":"4","last_reported":1701266817,"current_range_meters":28800,"station_id":"ce4bhn12rcd13ifvqgqg","pricing_plan_id":"free"},{"bike_id":"aa92b96d-64d8-4c3b-a126-5fd9d905cd28","system_id":"levelo_inurba_marseille","lat":43.231793,"lon":5.400044,"is_reserved":false,"is_disabled":false,"rental_uris":{"android":"levelo://app?vid=aa92b96d-64d8-4c3b-a126-5fd9d905cd28","ios":"levelo://app?vid=aa92b96d-64d8-4c3b-a126-5fd9d905cd28"},"vehicle_type_id":"4","last_reported":1701266817,"current_range_meters":31600,"station_id":"ce4bhn12rcd13ifvqgqg","pricing_plan_id":"free"},{"bike_id":"bf302e61-4f67-454e-a18b-ae01c9d54d0c","system_id":"levelo_inurba_marseille","lat":43.231793,"lon":5.400044,"is_reserved":false,"is_disabled":false,"rental_uris":{"android":"levelo://app?vid=bf302e61-4f67-454e-a18b-ae01c9d54d0c","ios":"levelo://app?vid=bf302e61-4f67-454e-a18b-ae01c9d54d0c"},"vehicle_type_id":"4","last_reported":1701266817,"current_range_meters":20800,"station_id":"ce4bhn12rcd13ifvqgqg","pricing_plan_id":"free"},{"bike_id":"06853db6-aa55-4d29-9d8f-a856bd2de594","system_id":"levelo_inurba_marseille","lat":43.231793,"lon":5.400044,"is_reserved":false,"is_disabled":false,"rental_uris":{"android":"levelo://app?vid=06853db6-aa55-4d29-9d8f-a856bd2de594","ios":"levelo://app?vid=06853db6-aa55-4d29-9d8f-a856bd2de594"},"vehicle_type_id":"4","last_reported":1701266817,"current_range_meters":26000,"station_id":"ce4bhn12rcd13ifvqgqg","pricing_plan_id":"free"},{"bike_id":"5ff68776-d431-4895-866c-f190f6faec3c","system_id":"levelo_inurba_marseille","lat":43.231793,"lon":5.400044,"is_reserved":false,"is_disabled":false,"rental_uris":{"android":"levelo://app?vid=5ff68776-d431-4895-866c-f190f6faec3c","ios":"levelo://app?vid=5ff68776-d431-4895-866c-f190f6faec3c"},"vehicle_type_id":"4","last_reported":1701266817,"current_range_meters":31600,"station_id":"ce4bhn12rcd13ifvqgqg","pricing_plan_id":"free"},{"bike_id":"4c237336-21e8-4e0a-9616-9e2641a26769","system_id":"levelo_inurba_marseille","lat":43.231793,"lon":5.400044,"is_reserved":false,"is_disabled":false,"rental_uris":{"android":"levelo://app?vid=4c237336-21e8-4e0a-9616-9e2641a26769","ios":"levelo://app?vid=4c237336-21e8-4e0a-9616-9e2641a26769"},"vehicle_type_id":"4","last_reported":1701266817,"current_range_meters":30800,"station_id":"ce4bhn12rcd13ifvqgqg","pricing_plan_id":"free"},{"bike_id":"5aaac2be-844c-4cf3-8da3-46c7e8da8247","system_id":"levelo_inurba_marseille","lat":43.231793,"lon":5.400044,"is_reserved":false,"is_disabled":false,"rental_uris":{"android":"levelo://app?vid=5aaac2be-844c-4cf3-8da3-46c7e8da8247","ios":"levelo://app?vid=5aaac2be-844c-4cf3-8da3-46c7e8da8247"},"vehicle_type_id":"4","last_reported":1701266817,"current_range_meters":10800,"station_id":"ce4bhn12rcd13ifvqgqg","pricing_plan_id":"free"},{"bike_id":"5fbcbdf1-22d7-4329-847c-3b17d84d1ba1","system_id":"levelo_inurba_marseille","lat":43.231808,"lon":5.39983,"is_reserved":false,"is_disabled":false,"rental_uris":{"android":"levelo://app?vid=5fbcbdf1-22d7-4329-847c-3b17d84d1ba1","ios":"levelo://app?vid=5fbcbdf1-22d7-4329-847c-3b17d84d1ba1"},"vehicle_type_id":"4","last_reported":1701266817,"current_range_meters":31200,"station_id":"ce4bhn12rcd13ifvqgqg","pricing_plan_id":"free"},{"bike_id":"a123f917-d4fa-4f0d-b55f-93bf63847c0d","system_id":"levelo_inurba_marseille","lat":43.231793,"lon":5.400044,"is_reserved":false,"is_disabled":false,"rental_uris":{"android":"levelo://app?vid=a123f917-d4fa-4f0d-b55f-93bf63847c0d","ios":"levelo://app?vid=a123f917-d4fa-4f0d-b55f-93bf63847c0d"},"vehicle_type_id":"4","last_reported":1701266817,"current_range_meters":21600,"station_id":"ce4bhn12rcd13ifvqgqg","pricing_plan_id":"free"},{"bike_id":"74d1d08c-6d03-46b8-8ecb-cd593a103249","system_id":"levelo_inurba_marseille","lat":43.231562,"lon":5.436933,"is_reserved":false,"is_disabled":false,"rental_uris":{"android":"levelo://app?vid=74d1d08c-6d03-46b8-8ecb-cd593a103249","ios":"levelo://app?vid=74d1d08c-6d03-46b8-8ecb-cd593a103249"},"vehicle_type_id":"4","last_reported":1701266817,"current_range_meters":31200,"station_id":"ce4bhmp2rcd13ifvqgog","pricing_plan_id":"free"},