{"last_updated":1753856400,"ttl":60,"version":"2.2","data":{"bikes":[{"bike_id":"5a67886b-2f40-46df-b0be-1179491cb0a7","system_id":"levelo_inurba_marseille","lat":43.299683,"lon":5.386239,"is_reserved":false,"is_disabled":false,"rental_uris":{"android":"levelo://app?vid=5a67886b-2f40-46df-b0be-1179491cb0a7","ios":"levelo://app?vid=5a67886b-2f40-46df-b0be-1179491cb0a7"},"vehicle_type_id":"4","last_reported":1753856401,"current_range_meters":2800,"station_id":"","pricing_plan_id":"cebpf4jnsgd1na2vs0mg"},{"bike_id":"070e408c-49e2-47b2-9584-a62676fbc778","system_id":"levelo_inurba_marseille","lat":43.30955,"lon":5.39061,"is_reserved":false,"is_disabled":false,"rental_uris":{"android":"levelo://app?vid=070e408c-49e2-47b2-9584-a62676fbc778","ios":"levelo://app?vid=070e408c-49e2-47b2-9584-a62676fbc778"},"vehicle_type_id":"4","last_reported":1753856401,"current_range_meters":2800,"station_id":"ce4bgup2rcd13ifvqco0","pricing_plan_id":"cebpf4jnsgd1na2vs0mg"},{"bike_id":"dfeef013-405d-4d83-bff9-fe3d4f9e6756","system_id":"levelo_inurba_marseille","lat":43.31693,"lon":5.40468,"is_reserved":false,"is_disabled":true,"rental_uris":{"android":"levelo://app?vid=dfeef013-405d-4d83-bff9-fe3d4f9e6756","ios":"levelo://app?vid=dfeef013-405d-4d83-bff9-fe3d4f9e6756"},"vehicle_type_id":"4","last_reported":1753856401,"current_range_meters":2800,"station_id":"ce4bh012rcd13ifvqd00","pricing_plan_id":"cebpf4jnsgd1na2vs0mg"},{"bike_id":"9e636b11-f09d-4708-8edd-606ef74f1066","system_id":"levelo_inurba_marseille","lat":43.259822,"lon":5.372464,"is_reserved":false,"is_disabled":false,"rental_uris":{"android":"levelo://app?vid=9e636b11-f09d-4708-8edd-606ef74f1066","ios":"levelo://app?vid=9e636b11-f09d-4708-8edd-606ef74f1066"},"vehicle_type_id":"4","last_reported":1753856401,"current_range_meters":3200,"station_id":"","pricing_plan_id":"cebpf4jnsgd1na2vs0mg"},{"bike_id":"83fdb9f2-ef9d-4a70-8333-65f103ec90ae","system_id":"levelo_inurba_marseille","lat":43.2737,"lon":5.36242,"is_reserved":false,"is_disabled":true,"rental_uris":{"android":"levelo://app?vid=83fdb9f2-ef9d-4a70-8333-65f103ec90ae","ios":"levelo://app?vid=83fdb9f2-ef9d-4a70-8333-65f103ec90ae"},"vehicle_type_id":"4","last_reported":1753856401,"current_range_meters":3200,"station_id":"ce4bhbh2rcd13ifvqeo0","pricing_plan_id":"cebpf4jnsgd1na2vs0mg"},{"bike_id":"363cd716-fe3b-4131-b0d7-bfb529d3966c","system_id":"levelo_inurba_marseille","lat":43.29782,"lon":5.37094,"is_reserved":false,"is_disabled":false,"rental_uris":{"android":"levelo://app?vid=363cd716-fe3b-4131-b0d7-bfb529d3966c","ios":"levelo://app?vid=363cd716-fe3b-4131-b0d7-bfb529d3966c"},"vehicle_type_id":"4","last_reported":1753856401,"current_range_meters":3200,"station_id":"ce4bgop2rcd13ifvqc1g","pricing_plan_id":"cebpf4jnsgd1na2vs0mg"},{"bike_id":"dfce3856-466c-4b68-a0d5-1243834daf02","system_id":"levelo_inurba_marseille","lat":43.24999,"lon":5.38929,"is_reserved":false,"is_disabled":false,"rental_uris":{"android":"levelo://app?vid=dfce3856-466c-4b68-a0d5-1243834daf02","ios":"levelo://app?vid=dfce3856-466c-4b68-a0d5-1243834daf02"},"vehicle_type_id":"4","last_reported":1753856401,"current_range_meters":3200,"station_id":"ce4bhgp2rcd13ifvqfd0","pricing_plan_id":"cebpf4jnsgd1na2vs0mg"},{"bike_id":"3152576e-d602-4c3f-980e-717f41aed773","system_id":"levelo_inurba_marseille","lat":43.33737,"lon":5.37465,"is_reserved":false,"is_disabled":false,"rental_uris":{"android":"levelo://app?vid=3152576e-d602-4c3f-980e-717f41aed773","ios":"levelo://app?vid=3152576e-d602-4c3f-980e-717f41aed773"},"vehicle_type_id":"4","last_reported":1753856401,"current_range_meters":3200,"station_id":"","pricing_plan_id":"cebpf4jnsgd1na2vs0mg"},{"bike_id":"64f258c6-1e92-4dd0-a4f6-11b336a5b138","system_id":"levelo_inurba_marseille","lat":43.22511,"lon":5.3477,"is_reserved":false,"is_disabled":false,"rental_uris":{"android":"levelo://app?vid=64f258c6-1e92-4dd0-a4f6-11b336a5b138","ios":"levelo://app?vid=64f258c6-1e92-4dd0-a4f6-11b336a5b138"},"vehicle_type_id":"4","last_reported":1753856401,"current_range_meters":3600,"station_id":"st_cvj5dfep6f1abm77gieg","pricing_plan_id":"cebpf4jnsgd1na2vs0mg"},{"bike_id":"f115f434-df4a-4c11-8f46-c37a59d96c01","system_id":"levelo_inurba_marseille","lat":43.24172,"lon":5.39709,"is_reserved":false,"is_disabled":false,"rental_uris":{"android":"levelo://app?vid=f115f434-df4a-4c11-8f46-c37a59d96c01","ios":"levelo://app?vid=f115f434-df4a-4c11-8f46-c37a59d96c01"},"vehicle_type_id":"4","last_reported":1753856401,"current_range_meters":4000,"station_id":"ce4bhn12rcd13ifvqgpg","pricing_plan_id":"cebpf4jnsgd1na2vs0mg"},{"bike_id":"5915c484-bd7c-435f-bca1-185e1e80dfcf","system_id":"levelo_inurba_marseille","lat":43.23148,"lon":5.43699,"is_reserved":false,"is_disabled":false,"rental_uris":{"android":"levelo://app?vid=5915c484-bd7c-435f-bca1-185e1e80dfcf","ios":"levelo://app?vid=5915c484-bd7c-435f-bca1-185e1e80dfcf"},"vehicle_type_id":"4","last_reported":1753856401,"current_range_meters":4400,"station_id":"ce4bhmp2rcd13ifvqgog","pricing_plan_id":"cebpf4jnsgd1na2vs0mg"},{"bike_id":"d99716cc-03d7-4ec6-9afb-f243b2d67578","system_id":"levelo_inurba_marseille","lat":43.30929,"lon":5.36684,"is_reserved":false,"is_disabled":false,"rental_uris":{"android":"levelo://app?vid=d99716cc-03d7-4ec6-9afb-f243b2d67578","ios":"levelo://app?vid=d99716cc-03d7-4ec6-9afb-f243b2d67578"},"vehicle_type_id":"4","last_reported":1753856401,"current_range_meters":4400,"station_id":"","pricing_plan_id":"cebpf4jnsgd1na2vs0mg"},{"bike_id":"b4e8af3c-c937-4b7c-8c2d-b395715d0ea3","system_id":"levelo_inurba_marseille","lat":43.31357,"lon":5.38499,"is_reserved":false,"is_disabled":false,"rental_uris":{"android":"levelo://app?vid=b4e8af3c-c937-4b7c-8c2d-b395715d0ea3","ios":"levelo://app?vid=b4e8af3c-c937-4b7c-8c2d-b395715d0ea3"},"vehicle_type_id":"4","last_reported":1753856401,"current_range_meters":4400,"station_id":"ce4bgt92rcd13ifvqcf0","pricing_plan_id":"cebpf4jnsgd1na2vs0mg"},{"bike_id":"8a569b31-55c0-441f-9435-5ac594ac9c22","system_id":"levelo_inurba_marseille","lat":43.297302,"lon":5.374166,"is_reserved":false,"is_disabled":false,"rental_uris":{"android":"levelo://app?vid=8a569b31-55c0-441f-9435-5ac594ac9c22","ios":"levelo://app?vid=8a569b31-55c0-441f-9435-5ac594ac9c22"},"vehicle_type_id":"4","last_reported":1753856401,"current_range_meters":4800,"station_id":"","pricing_plan_id":"cebpf4jnsgd1na2vs0mg"},{"bike_id":"370ae9b0-a2a5-4171-8a99-35a3daa5d2ab","system_id":"levelo_inurba_marseille","lat":43.2843,"lon":5.34988,"is_reserved":false,"is_disabled":true,"rental_uris":{"android":"levelo://app?vid=370ae9b0-a2a5-4171-8a99-35a3daa5d2ab","ios":"levelo://app?vid=370ae9b0-a2a5-4171-8a99-35a3daa5d2ab"},"vehicle_type_id":"4","last_reported":1753856401,"current_range_meters":4800,"station_id":"ce4bhbh2rcd13ifvqepg","pricing_plan_id":"cebpf4jnsgd1na2vs0mg"},{"bike_id":"9ad25a0d-4115-4743-93ac-4c7d5e23f881","system_id":"levelo_inurba_marseille","lat":43.3088,"lon":5.39618,"is_reserved":false,"is_disabled":false,"rental_uris":{"android":"levelo://app?vid=9ad25a0d-4115-4743-93ac-4c7d5e23f881","ios":"levelo://app?vid=9ad25a0d-4115-4743-93ac-4c7d5e23f881"},"vehicle_type_id":"4","last_reported":1753856401,"current_range_meters":4800,"station_id":"ce4bh012rcd13ifvqcv0","pricing_plan_id":"cebpf4jnsgd1na2vs0mg"},{"bike_id":"bd1e50aa-d668-4324-90fa-420f471d8c96","system_id":"levelo_inurba_marseille","lat":43.30475,"lon":5.37911,"is_reserved":false,"is_disabled":false,"rental_uris":{"android":"levelo://app?vid=bd1e50aa-d668-4324-90fa-420f471d8c96","ios":"levelo://app?vid=bd1e50aa-d668-4324-90fa-420f471d8c96"},"vehicle_type_id":"4","last_reported":1753856401,"current_range_meters":5600,"station_id":"ce4bgup2rcd13ifvqcn0","pricing_plan_id":"cebpf4jnsgd1na2vs0mg"},{"bike_id":"80915a30-ef88-4d81-b5d1-969d1c17a42d","system_id":"levelo_inurba_marseille","lat":43.30415,"lon":5.40836,"is_reserved":false,"is_disabled":false,"rental_uris":{"android":"levelo://app?vid=80915a30-ef88-4d81-b5d1-969d1c17a42d","ios":"levelo://app?vid=80915a30-ef88-4d81-b5d1-969d1c17a42d"},"vehicle_type_id":"4","last_reported":1753856401,"current_range_meters":5600,"station_id":"","pricing_plan_id":"cebpf4jnsgd1na2vs0mg"},{"bike_id":"95dd70e4-879c-49e7-b318-a6c71b22a43e","system_id":"levelo_inurba_marseille","lat":43.2703,"lon":5.39295,"is_reserved":false,"is_disabled":false,"rental_uris":{"android":"levelo://app?vid=95dd70e4-879c-49e7-b318-a6c71b22a43e","ios":"levelo://app?vid=95dd70e4-879c-49e7-b318-a6c71b22a43e"},"vehicle_type_id":"4","last_reported":1753856401,"current_range_meters":5600,"station_id":"","pricing_plan_id":"cebpf4jnsgd1na2vs0mg"},{"bike_id":"9ef0bad5-595e-4d28-90ae-6550089f4a98","system_id":"levelo_inurba_marseille","lat":43.30559,"lon":5.36706,"is_reserved":false,"is_disabled":false,"rental_uris":{"android":"levelo://app?vid=9ef0bad5-595e-4d28-90ae-6550089f4a98","ios":"levelo://app?vid=9ef0bad5-595e-4d28-90ae-6550089f4a98"},"vehicle_type_id":"4","last_reported":1753856401,"current_range_meters":5600,"station_id":"ce4bgrp2rcd13ifvqc9g","pricing_plan_id":"cebpf4jnsgd1na2vs0mg"},{"bike_id":"209c73e6-1f69-4d13-9fed-77cb46eecd05","system_id":"levelo_inurba_marseille","lat":43.34681,"lon":5.38065,"is_reserved":false,"is_disabled":false,"rental_uris":{"android":"levelo://app?vid=209c73e6-1f69-4d13-9fed-77cb46eecd05","ios":"levelo://app?vid=209c73e6-1f69-4d13-9fed-77cb46eecd05"},"vehicle_type_id":"4","last_reported":1753856401,"current_range_meters":5600,"station_id":"","pricing_plan_id":"cebpf4jnsgd1na2vs0mg"},{"bike_id":"181c8049-4fb7-4c27-a6b2-7bb8fea4f09f","system_id":"levelo_inurba_marseille","lat":43.29532,"lon":5.39268,"is_reserved":false,"is_disabled":false,"rental_uris":{"android":"levelo://app?vid=181c8049-4fb7-4c27-a6b2-7bb8fea4f09f","ios":"levelo://app?vid=181c8049-4fb7-4c27-a6b2-7bb8fea4f09f"},"vehicle_type_id":"4","last_reported":1753856401,"current_range_meters":6000,"station_id":"","pricing_plan_id":"cebpf4jnsgd1na2vs0mg"},{"bike_id":"1dc3f058-b499-4a71-890c-0492cdb7c3da","system_id":"levelo_inurba_marseille","lat":43.30899,"lon":5.36844,"is_reserved":false,"is_disabled":false,"rental_uris":{"android":"levelo://app?vid=1dc3f058-b499-4a71-890c-0492cdb7c3da","ios":"levelo://app?vid=1dc3f058-b499-4a71-890c-0492cdb7c3da"},"vehicle_type_id":"4","last_reported":1753856401,"current_range_meters":6400,"station_id":"ce4bgn92rcd13ifvqbvg","pricing_plan_id":"cebpf4jnsgd1na2vs0mg"},{"bike_id":"37fcf059-83b8-4b6e-bc28-0c83f77e3c05","system_id":"levelo_inurba_marseille","lat":43.22501,"lon":5.3479,"is_reserved":false,"is_disabled":false,"rental_uris":{"android":"levelo://app?vid=37fcf059-83b8-4b6e-bc28-0c83f77e3c05","ios":"levelo://app?vid=37fcf059-83b8-4b6e-bc28-0c83f77e3c05"},"vehicle_type_id":"4","last_reported":1753856401,"current_range_meters":6400,"station_id":"st_cvj5dfep6f1abm77gieg","pricing_plan_id":"cebpf4jnsgd1na2vs0mg"},{"bike_id":"d44beb54-46f4-46c3-9c60-007fb21f5383","system_id":"levelo_inurba_marseille","lat":43.29281,"lon":5.40129,"is_reserved":false,"is_disabled":false,"rental_uris":{"android":"levelo://app?vid=d44beb54-46f4-46c3-9c60-007fb21f5383","ios":"levelo://app?vid=d44beb54-46f4-46c3-9c60-007fb21f5383"},"vehicle_type_id":"4","last_reported":1753856401,"current_range_meters":6400,"station_id":"ce4bh312rcd13ifvqdk0","pricing_plan_id":"cebpf4jnsgd1na2vs0mg"},{"bike_id":"65e3db07-f188-422b-b687-3d06cfe2bcf8","system_id":"levelo_inurba_marseille","lat":43.280407,"lon":5.350101,"is_reserved":false,"is_disabled":false,"rental_uris":{"android":"levelo://app?vid=65e3db07-f188-422b-b687-3d06cfe2bcf8","ios":"levelo://app?vid=65e3db07-f188-422b-b687-3d06cfe2bcf8"},"vehicle_type_id":"4","last_reported":1753856401,"current_range_meters":6400,"station_id":"","pricing_plan_id":"cebpf4jnsgd1na2vs0mg"},{"bike_id":"b74c3768-eb8a-4205-8dbb-b16d09d8a7a5","system_id":"levelo_inurba_marseille","lat":43.30887,"lon":5.39633,"is_reserved":false,"is_disabled":false,"rental_uris":{"android":"levelo://app?vid=b74c3768-eb8a-4205-8dbb-b16d09d8a7a5","ios":"levelo://app?vid=b74c3768-eb8a-4205-8dbb-b16d09d8a7a5"},"vehicle_type_id":"4","last_reported":1753856401,"current_range_meters":6400,"station_id":"ce4bh012rcd13ifvqcv0","pricing_plan_id":"cebpf4jnsgd1na2vs0mg"},{"bike_id":"a738d821-aeb2-4de2-ba56-0507bc6dc2ec","system_id":"levelo_inurba_marseille","lat":43.31857,"lon":5.40789,"is_reserved":false,"is_disabled":false,"rental_uris":{"android":"levelo://app?vid=a738d821-aeb2-4de2-ba56-0507bc6dc2ec","ios":"levelo://app?vid=a738d821-aeb2-4de2-ba56-0507bc6dc2ec"},"vehicle_type_id":"4","last_reported":1753856401,"current_range_meters":6800,"station_id":"ce4bhq12rcd13ifvqhig","pricing_plan_id":"cebpf4jnsgd1na2vs0mg"},{"bike_id":"7ead535a-e7f2-4489-9051-59e4f5eeec8a","system_id":"levelo_inurba_marseille","lat":43.30662,"lon":5.37356,"is_reserved":false,"is_disabled":false,"rental_uris":{"android":"levelo://app?vid=7ead535a-e7f2-4489-9051-59e4f5eeec8a","ios":"levelo://app?vid=7ead535a-e7f2-4489-9051-59e4f5eeec8a"},"vehicle_type_id":"4","last_reported":1753856401,"current_range_meters":6800,"station_id":"","pricing_plan_id":"cebpf4jnsgd1na2vs0mg"},{"bike_id":"e1a9c583-b8e8-4b0c-a04a-444e8d380c43","system_id":"levelo_inurba_marseille","lat":43.31061,"lon":5.3868,"is_reserved":false,"is_disabled":false,"rental_uris":{"android":"levelo://app?vid=e1a9c583-b8e8-4b0c-a04a-444e8d380c43","ios":"levelo://app?vid=e1a9c583-b8e8-4b0c-a04a-444e8d380c43"},"vehicle_type_id":"4","last_reported":1753856401,"current_range_meters":6800,"station_id":"","pricing_plan_id":"cebpf4jnsgd1na2vs0mg"},{"bike_id":"175941c2-2011-491a-8f10-41b1358418aa","system_id":"levelo_inurba_marseille","lat":43.30807,"lon":5.38145,"is_reserved":false,"is_disabled":false,"rental_uris":{"android":"levelo://app?vid=175941c2-2011-491a-8f10-41b1358418aa","ios":"levelo://app?vid=175941c2-2011-491a-8f10-41b1358418aa"},"vehicle_type_id":"4","last_reported":1753856401,"current_range_meters":6800,"station_id":"ce4bgt12rcd13ifvqce0","pricing_plan_id":"cebpf4jnsgd1na2vs0mg"},{"bike_id":"149fbe11-3bce-47a0-b584-c7c7bd6bb12f","system_id":"levelo_inurba_marseille","lat":43.216261,"lon":5.344342,"is_reserved":false,"is_disabled":false,"rental_uris":{"android":"levelo://app?vid=149fbe11-3bce-47a0-b584-c7c7bd6bb12f","ios":"levelo://app?vid=149fbe11-3bce-47a0-b584-c7c7bd6bb12f"},"vehicle_type_id":"4","last_reported":1753856401,"current_range_meters":6800,"station_id":"","pricing_plan_id":"cebpf4jnsgd1na2vs0mg"},{"bike_id":"a86a92c2-2ea3-476a-9f26-92cf94ef48ec","system_id":"levelo_inurba_marseille","lat":43.31058,"lon":5.38335,"is_reserved":false,"is_disabled":false,"rental_uris":{"android":"levelo://app?vid=a86a92c2-2ea3-476a-9f26-92cf94ef48ec","ios":"levelo://app?vid=a86a92c2-2ea3-476a-9f26-92cf94ef48ec"},"vehicle_type_id":"4","last_reported":1753856401,"current_range_meters":6800,"station_id":"ce4bgv92rcd13ifvqcr0","pricing_plan_id":"cebpf4jnsgd1na2vs0mg"},{"bike_id":"882bdff1-651a-41c1-9ab0-596f43205cf1","system_id":"levelo_inurba_marseille","lat":43.337444,"lon":5.374475,"is_reserved":false,"is_disabled":false,"rental_uris":{"android":"levelo://app?vid=882bdff1-651a-41c1-9ab0-596f43205cf1","ios":"levelo://app?vid=882bdff1-651a-41c1-9ab0-596f43205cf1"},"vehicle_type_id":"4","last_reported":1753856401,"current_range_meters":7200,"station_id":"ce4bgkp2rcd13ifvqbmg","pricing_plan_id":"cebpf4jnsgd1na2vs0mg"},{"bike_id":"632d7b60-ee4b-4add-ac5a-9a94e1aa7ee0","system_id":"levelo_inurba_marseille","lat":43.24179,"lon":5.39733,"is_reserved":false,"is_disabled":false,"rental_uris":{"android":"levelo://app?vid=632d7b60-ee4b-4add-ac5a-9a94e1aa7ee0","ios":"levelo://app?vid=632d7b60-ee4b-4add-ac5a-9a94e1aa7ee0"},"vehicle_type_id":"4","last_reported":1753856401,"current_range_meters":7200,"station_id":"ce4bhn12rcd13ifvqgpg","pricing_plan_id":"cebpf4jnsgd1na2vs0mg"},{"bike_id":"64d16de7-cb0f-4526-b27b-218cfae2b026","system_id":"levelo_inurba_marseille","lat":43.32353,"lon":5.36732,"is_reserved":false,"is_disabled":false,"rental_uris":{"android":"levelo://app?vid=64d16de7-cb0f-4526-b27b-218cfae2b026","ios":"levelo://app?vid=64d16de7-cb0f-4526-b27b-218cfae2b026"},"vehicle_type_id":"4","last_reported":1753856401,"current_range_meters":7200,"station_id":"ce4bhsh2rcd13ifvqi2g","pricing_plan_id":"cebpf4jnsgd1na2vs0mg"},{"bike_id":"ee294293-b484-40ec-a941-e6b5b62a025b","system_id":"levelo_inurba_marseille","lat":43.21183,"lon":5.35071,"is_reserved":false,"is_disabled":false,"rental_uris":{"android":"levelo://app?vid=ee294293-b484-40ec-a941-e6b5b62a025b","ios":"levelo://app?vid=ee294293-b484-40ec-a941-e6b5b62a025b"},"vehicle_type_id":"4","last_reported":1753856401,"current_range_meters":8000,"station_id":"st_cvj6sg6p6f1abm77japg","pricing_plan_id":"cebpf4jnsgd1na2vs0mg"},{"bike_id":"5969a80c-0f85-4ae2-b1de-6dfe236afa65","system_id":"levelo_inurba_marseille","lat":43.287257,"lon":5.360791,"is_reserved":false,"is_disabled":false,"rental_uris":{"android":"levelo://app?vid=5969a80c-0f85-4ae2-b1de-6dfe236afa65","ios":"levelo://app?vid=5969a80c-0f85-4ae2-b1de-6dfe236afa65"},"vehicle_type_id":"4","last_reported":1753856401,"current_range_meters":8000,"station_id":"cki0cbj6b192h4jlfktg","pricing_plan_id":"cebpf4jnsgd1na2vs0mg"},{"bike_id":"d4b0442d-37e3-4887-8827-87b59f4e9086","system_id":"levelo_inurba_marseille","lat":43.2977,"lon":5.38108,"is_reserved":false,"is_disabled":false,"rental_uris":{"android":"levelo://app?vid=d4b0442d-37e3-4887-8827-87b59f4e9086","ios":"levelo://app?vid=d4b0442d-37e3-4887-8827-87b59f4e9086"},"vehicle_type_id":"4","last_reported":1753856401,"current_range_meters":8000,"station_id":"","pricing_plan_id":"cebpf4jnsgd1na2vs0mg"},{"bike_id":"c297cd42-f0e2-4362-a315-541c52087136","system_id":"levelo_inurba_marseille","lat":43.250019,"lon":5.389283,"is_reserved":false,"is_disabled":false,"rental_uris":{"android":"levelo://app?vid=c297cd42-f0e2-4362-a315-541c52087136","ios":"levelo://app?vid=c297cd42-f0e2-4362-a315-541c52087136"},"vehicle_type_id":"4","last_reported":1753856401,"current_range_meters":8000,"station_id":"ce4bhgp2rcd13ifvqfd0","pricing_plan_id":"cebpf4jnsgd1na2vs0mg"},{"bike_id":"2a3a9f20-00d1-4c95-a093-ba8e28724bc0","system_id":"levelo_inurba_marseille","lat":43.306865,"lon":5.375588,"is_reserved":false,"is_disabled":false,"rental_uris":{"android":"levelo://app?vid=2a3a9f20-00d1-4c95-a093-ba8e28724bc0","ios":"levelo://app?vid=2a3a9f20-00d1-4c95-a093-ba8e28724bc0"},"vehicle_type_id":"4","last_reported":1753856401,"current_range_meters":8000,"station_id":"","pricing_plan_id":"cebpf4jnsgd1na2vs0mg"},{"bike_id":"da913aa8-3d8c-4ab2-b48f-187998fd2a99","system_id":"levelo_inurba_marseille","lat":43.30879,"lon":5.36671,"is_reserved":false,"is_disabled":false,"rental_uris":{"android":"levelo://app?vid=da913aa8-3d8c-4ab2-b48f-187998fd2a99","ios":"levelo://app?vid=da913aa8-3d8c-4ab2-b48f-187998fd2a99"},"vehicle_type_id":"4","last_reported":1753856401,"current_range_meters":8400,"station_id":"","pricing_plan_id":"cebpf4jnsgd1na2vs0mg"},{"bike_id":"3b08c7fe-da62-4fb4-8da1-3e8b0064e2d8","system_id":"levelo_inurba_marseille","lat":43.30891,"lon":5.3963,"is_reserved":false,"is_disabled":false,"rental_uris":{"android":"levelo://app?vid=3b08c7fe-da62-4fb4-8da1-3e8b0064e2d8","ios":"levelo://app?vid=3b08c7fe-da62-4fb4-8da1-3e8b0064e2d8"},"vehicle_type_id":"4","last_reported":1753856401,"current_range_meters":8400,"station_id":"ce4bh012rcd13ifvqcv0","pricing_plan_id":"cebpf4jnsgd1na2vs0mg"},{"bike_id":"7e9aeb8e-f66f-43c2-a59d-c0e42783ddbc","system_id":"levelo_inurba_marseille","lat":43.25399,"lon":5.41879,"is_reserved":false,"is_disabled":false,"rental_uris":{"android":"levelo://app?vid=7e9aeb8e-f66f-43c2-a59d-c0e42783ddbc","ios":"levelo://app?vid=7e9aeb8e-f66f-43c2-a59d-c0e42783ddbc"},"vehicle_type_id":"4","last_reported":1753856401,"current_range_meters":8400,"station_id":"","pricing_plan_id":"cebpf4jnsgd1na2vs0mg"},{"bike_id":"6ece6d3c-2e2e-4625-81f6-1bd7ab7fe783","system_id":"levelo_inurba_marseille","lat":43.30168,"lon":5.38083,"is_reserved":false,"is_disabled":false,"rental_uris":{"android":"levelo://app?vid=6ece6d3c-2e2e-4625-81f6-1bd7ab7fe783","ios":"levelo://app?vid=6ece6d3c-2e2e-4625-81f6-1bd7ab7fe783"},"vehicle_type_id":"4","last_reported":1753856401,"current_range_meters":8400,"station_id":"ce4bgjp2rcd13ifvqbh0","pricing_plan_id":"cebpf4jnsgd1na2vs0mg"},{"bike_id":"7c55e3c5-0df6-4d9d-946f-7bb222a5563b","system_id":"levelo_inurba_marseille","lat":43.308014,"lon":5.376676,"is_reserved":false,"is_disabled":false,"rental_uris":{"android":"levelo://app?vid=7c55e3c5-0df6-4d9d-946f-7bb222a5563b","ios":"levelo://app?vid=7c55e3c5-0df6-4d9d-946f-7bb222a5563b"},"vehicle_type_id":"4","last_reported":1753856401,"current_range_meters":8400,"station_id":"ce4bgv92rcd13ifvqcq0","pricing_plan_id":"cebpf4jnsgd1na2vs0mg"},{"bike_id":"bb650ed0-d989-4f7c-9fda-1512931e29aa","system_id":"levelo_inurba_marseille","lat":43.29995,"lon":5.37165,"is_reserved":false,"is_disabled":false,"rental_uris":{"android":"levelo://app?vid=bb650ed0-d989-4f7c-9fda-1512931e29aa","ios":"levelo://app?vid=bb650ed0-d989-4f7c-9fda-1512931e29aa"},"vehicle_type_id":"4","last_reported":1753856401,"current_range_meters":8400,"station_id":"ce4bgr92rcd13ifvqc7g","pricing_plan_id":"cebpf4jnsgd1na2vs0mg"},{"bike_id":"d7918252-9ded-43fa-9c14-191d8e290ecf","system_id":"levelo_inurba_marseille","lat":43.31685,"lon":5.40465,"is_reserved":false,"is_disabled":false,"rental_uris":{"android":"levelo://app?vid=d7918252-9ded-43fa-9c14-191d8e290ecf","ios":"levelo://app?vid=d7918252-9ded-43fa-9c14-191d8e290ecf"},"vehicle_type_id":"4","last_reported":1753856401,"current_range_meters":8800,"station_id":"ce4bh012rcd13ifvqd00","pricing_plan_id":"cebpf4jnsgd1na2vs0mg"},{"bike_id":"8a0ff05e-151b-4e50-84e5-cbd3dc78cbb7","system_id":"levelo_inurba_marseille","lat":43.28184,"lon":5.42602,"is_reserved":false,"is_disabled":false,"rental_uris":{"android":"levelo://app?vid=8a0ff05e-151b-4e50-84e5-cbd3dc78cbb7","ios":"levelo://app?vid=8a0ff05e-151b-4e50-84e5-cbd3dc78cbb7"},"vehicle_type_id":"4","last_reported":1753856401,"current_range_meters":8800,"station_id":"ce4bhnh2rcd13ifvqgug","pricing_plan_id":"cebpf4jnsgd1na2vs0mg"},{"bike_id":"24256dfb-30b8-44fe-a71a-46c10cfa4edc","system_id":"levelo_inurba_marseille","lat":43.3135,"lon":5.36699,"is_reserved":false,"is_disabled":false,"rental_uris":{"android":"levelo://app?vid=24256dfb-30b8-44fe-a71a-46c10cfa4edc","ios":"levelo://app?vid=24256dfb-30b8-44fe-a71a-46c10cfa4edc"},"vehicle_type_id":"4","last_reported":1753856401,"current_range_meters":8800,"station_id":"ce4bgr92rcd13ifvqc6g","pricing_plan_id":"cebpf4jnsgd1na2vs0mg"},{"bike_id":"3f02a10e-7fe5-494b-8234-94c1b7ce9b30","system_id":"levelo_inurba_marseille","lat":43.24808,"lon":5.37452,"is_reserved":false,"is_disabled":false,"rental_uris":{"android":"levelo://app?vid=3f02a10e-7fe5-494b-8234-94c1b7ce9b30","ios":"levelo://app?vid=3f02a10e-7fe5-494b-8234-94c1b7ce9b30"},"vehicle_type_id":"4","last_reported":1753856401,"current_range_meters":8800,"station_id":"ce4bhgh2rcd13ifvqfb0","pricing_plan_id":"cebpf4jnsgd1na2vs0mg"},{"bike_id":"3da0d6e9-9147-4076-8e9c-e7d3d2fd1372","system_id":"levelo_inurba_marseille","lat":43.30141,"lon":5.38077,"is_reserved":false,"is_disabled":false,"rental_uris":{"android":"levelo://app?vid=3da0d6e9-9147-4076-8e9c-e7d3d2fd1372","ios":"levelo://app?vid=3da0d6e9-9147-4076-8e9c-e7d3d2fd1372"},"vehicle_type_id":"4","last_reported":1753856401,"current_range_meters":8800,"station_id":"ce4bgjp2rcd13ifvqbh0","pricing_plan_id":"cebpf4jnsgd1na2vs0mg"},{"bike_id":"b91eea8e-5bfd-4015-80e3-c6a73f1ee420","system_id":"levelo_inurba_marseille","lat":43.321073,"lon":5.367713,"is_reserved":false,"is_disabled":false,"rental_uris":{"android":"levelo://app?vid=b91eea8e-5bfd-4015-80e3-c6a73f1ee420","ios":"levelo://app?vid=b91eea8e-5bfd-4015-80e3-c6a73f1ee420"},"vehicle_type_id":"4","last_reported":1753856401,"current_range_meters":8800,"station_id":"ce4bhrh2rcd13ifvqhug","pricing_plan_id":"cebpf4jnsgd1na2vs0mg"},{"bike_id":"697f51c5-e3ec-44a6-8c51-d1834f349688","system_id":"levelo_inurba_marseille","lat":43.29711,"lon":5.37695,"is_reserved":false,"is_disabled":false,"rental_uris":{"android":"levelo://app?vid=697f51c5-e3ec-44a6-8c51-d1834f349688","ios":"levelo://app?vid=697f51c5-e3ec-44a6-8c51-d1834f349688"},"vehicle_type_id":"4","last_reported":1753856401,"current_range_meters":8800,"station_id":"ce4bgkh2rcd13ifvqbl0","pricing_plan_id":"cebpf4jnsgd1na2vs0mg"},{"bike_id":"84aafa29-819a-4c13-b11f-1f4e655bdc98","system_id":"levelo_inurba_marseille","lat":43.29602,"lon":5.38084,"is_reserved":false,"is_disabled":false,"rental_uris":{"android":"levelo://app?vid=84aafa29-819a-4c13-b11f-1f4e655bdc98","ios":"levelo://app?vid=84aafa29-819a-4c13-b11f-1f4e655bdc98"},"vehicle_type_id":"4","last_reported":1753856401,"current_range_meters":9200,"station_id":"ce4bgl12rcd13ifvqbo0","pricing_plan_id":"cebpf4jnsgd1na2vs0mg"},{"bike_id":"9a9f7ee4-cd30-4503-882e-9e36249bea47","system_id":"levelo_inurba_marseille","lat":43.29527,"lon":5.39023,"is_reserved":false,"is_disabled":true,"rental_uris":{"android":"levelo://app?vid=9a9f7ee4-cd30-4503-882e-9e36249bea47","ios":"levelo://app?vid=9a9f7ee4-cd30-4503-882e-9e36249bea47"},"vehicle_type_id":"4","last_reported":1753856401,"current_range_meters":9200,"station_id":"ce4bh3p2rcd13ifvqdp0","pricing_plan_id":"cebpf4jnsgd1na2vs0mg"},{"bike_id":"b5e469a6-8e8f-4b1a-91cc-e9f6f04151ad","system_id":"levelo_inurba_marseille","lat":43.29572,"lon":5.43682,"is_reserved":false,"is_disabled":false,"rental_uris":{"android":"levelo://app?vid=b5e469a6-8e8f-4b1a-91cc-e9f6f04151ad","ios":"levelo://app?vid=b5e469a6-8e8f-4b1a-91cc-e9f6f04151ad"},"vehicle_type_id":"4","last_reported":1753856401,"current_range_meters":9200,"station_id":"","pricing_plan_id":"cebpf4jnsgd1na2vs0mg"},{"bike_id":"99d6f198-ecad-4196-8453-119f90eeecf8","system_id":"levelo_inurba_marseille","lat":43.306443,"lon":5.400753,"is_reserved":false,"is_disabled":false,"rental_uris":{"android":"levelo://app?vid=99d6f198-ecad-4196-8453-119f90eeecf8","ios":"levelo://app?vid=99d6f198-ecad-4196-8453-119f90eeecf8"},"vehicle_type_id":"4","last_reported":1753856401,"current_range_meters":9200,"station_id":"ce4bh112rcd13ifvqda0","pricing_plan_id":"cebpf4jnsgd1na2vs0mg"},{"bike_id":"55201a9e-328f-452a-8b58-b76f0e5a4511","system_id":"levelo_inurba_marseille","lat":43.23181,"lon":5.400041,"is_reserved":false,"is_disabled":true,"rental_uris":{"android":"levelo://app?vid=55201a9e-328f-452a-8b58-b76f0e5a4511","ios":"levelo://app?vid=55201a9e-328f-452a-8b58-b76f0e5a4511"},"vehicle_type_id":"4","last_reported":1753856401,"current_range_meters":9200,"station_id":"ce4bhn12rcd13ifvqgqg","pricing_plan_id":"cebpf4jnsgd1na2vs0mg"},{"bike_id":"b6c1096b-d915-4a56-9f0a-4188874faa14","system_id":"levelo_inurba_marseille","lat":43.29924,"lon":5.37434,"is_reserved":false,"is_disabled":false,"rental_uris":{"android":"levelo://app?vid=b6c1096b-d915-4a56-9f0a-4188874faa14","ios":"levelo://app?vid=b6c1096b-d915-4a56-9f0a-4188874faa14"},"vehicle_type_id":"4","last_reported":1753856401,"current_range_meters":9600,"station_id":"ce4bgjh2rcd13ifvqbg0","pricing_plan_id":"cebpf4jnsgd1na2vs0mg"},{"bike_id":"5139116d-9424-4cef-93b3-b66d7928b57c","system_id":"levelo_inurba_marseille","lat":43.292532,"lon":5.401189,"is_reserved":false,"is_disabled":true,"rental_uris":{"android":"levelo://app?vid=5139116d-9424-4cef-93b3-b66d7928b57c","ios":"levelo://app?vid=5139116d-9424-4cef-93b3-b66d7928b57c"},"vehicle_type_id":"4","last_reported":1753856401,"current_range_meters":9600,"station_id":"ce4bh312rcd13ifvqdk0","pricing_plan_id":"cebpf4jnsgd1na2vs0mg"},{"bike_id":"50427cb4-f7c5-45fa-9402-39ede650aa5c","system_id":"levelo_inurba_marseille","lat":43.31275,"lon":5.40148,"is_reserved":false,"is_disabled":false,"rental_uris":{"android":"levelo://app?vid=50427cb4-f7c5-45fa-9402-39ede650aa5c","ios":"levelo://app?vid=50427cb4-f7c5-45fa-9402-39ede650aa5c"},"vehicle_type_id":"4","last_reported":1753856401,"current_range_meters":9600,"station_id":"ce4bh092rcd13ifvqd30","pricing_plan_id":"cebpf4jnsgd1na2vs0mg"},{"bike_id":"43348ea9-7f7d-45e7-9344-a5a742188c65","system_id":"levelo_inurba_marseille","lat":43.286993,"lon":5.373865,"is_reserved":false,"is_disabled":true,"rental_uris":{"android":"levelo://app?vid=43348ea9-7f7d-45e7-9344-a5a742188c65","ios":"levelo://app?vid=43348ea9-7f7d-45e7-9344-a5a742188c65"},"vehicle_type_id":"4","last_reported":1753856401,"current_range_meters":9600,"station_id":"ce4bh3p2rcd13ifvqdq0","pricing_plan_id":"cebpf4jnsgd1na2vs0mg"},{"bike_id":"91dedfa9-6c8d-437a-a4ea-107111842acd","system_id":"levelo_inurba_marseille","lat":43.280244,"lon":5.369392,"is_reserved":false,"is_disabled":false,"rental_uris":{"android":"levelo://app?vid=91dedfa9-6c8d-437a-a4ea-107111842acd","ios":"levelo://app?vid=91dedfa9-6c8d-437a-a4ea-107111842acd"},"vehicle_type_id":"4","last_reported":1753856401,"current_range_meters":9600,"station_id":"ce4bha12rcd13ifvqef0","pricing_plan_id":"cebpf4jnsgd1na2vs0mg"},{"bike_id":"b0f2b2c1-b378-4164-a22b-6eceaa434acc","system_id":"levelo_inurba_marseille","lat":43.29228,"lon":5.42673,"is_reserved":false,"is_disabled":false,"rental_uris":{"android":"levelo://app?vid=b0f2b2c1-b378-4164-a22b-6eceaa434acc","ios":"levelo://app?vid=b0f2b2c1-b378-4164-a22b-6eceaa434acc"},"vehicle_type_id":"4","last_reported":1753856401,"current_range_meters":9600,"station_id":"","pricing_plan_id":"cebpf4jnsgd1na2vs0mg"},{"bike_id":"a5d21f19-a2f8-4c79-9341-84f97b97beb0","system_id":"levelo_inurba_marseille","lat":43.33397,"lon":5.40064,"is_reserved":false,"is_disabled":false,"rental_uris":{"android":"levelo://app?vid=a5d21f19-a2f8-4c79-9341-84f97b97beb0","ios":"levelo://app?vid=a5d21f19-a2f8-4c79-9341-84f97b97beb0"},"vehicle_type_id":"4","last_reported":1753856401,"current_range_meters":9600,"station_id":"","pricing_plan_id":"cebpf4jnsgd1na2vs0mg"},{"bike_id":"036b9385-ac6e-4636-91bb-e02909e77d53","system_id":"levelo_inurba_marseille","lat":43.32112,"lon":5.36769,"is_reserved":false,"is_disabled":false,"rental_uris":{"android":"levelo://app?vid=036b9385-ac6e-4636-91bb-e02909e77d53","ios":"levelo://app?vid=036b9385-ac6e-4636-91bb-e02909e77d53"},"vehicle_type_id":"4","last_reported":1753856401,"current_range_meters":9600,"station_id":"ce4bhrh2rcd13ifvqhug","pricing_plan_id":"cebpf4jnsgd1na2vs0mg"},{"bike_id":"1c2cee29-6d27-4bdf-b97c-eecf71616341","system_id":"levelo_inurba_marseille","lat":43.23188,"lon":5.3555,"is_reserved":false,"is_disabled":false,"rental_uris":{"android":"levelo://app?vid=1c2cee29-6d27-4bdf-b97c-eecf71616341","ios":"levelo://app?vid=1c2cee29-6d27-4bdf-b97c-eecf71616341"},"vehicle_type_id":"4","last_reported":1753856401,"current_range_meters":10000,"station_id":"ce4bhu92rcd13ifvqi70","pricing_plan_id":"cebpf4jnsgd1na2vs0mg"},{"bike_id":"73c28b44-fb9a-4083-b9eb-e60de241e4cb","system_id":"levelo_inurba_marseille","lat":43.323609,"lon":5.388874,"is_reserved":false,"is_disabled":false,"rental_uris":{"android":"levelo://app?vid=73c28b44-fb9a-4083-b9eb-e60de241e4cb","ios":"levelo://app?vid=73c28b44-fb9a-4083-b9eb-e60de241e4cb"},"vehicle_type_id":"4","last_reported":1753856401,"current_range_meters":10000,"station_id":"ce4bhqp2rcd13ifvqhog","pricing_plan_id":"cebpf4jnsgd1na2vs0mg"},{"bike_id":"2f5a766e-3ece-4a36-9442-eef7b36a8a22","system_id":"levelo_inurba_marseille","lat":43.248175,"lon":5.374511,"is_reserved":false,"is_disabled":false,"rental_uris":{"android":"levelo://app?vid=2f5a766e-3ece-4a36-9442-eef7b36a8a22","ios":"levelo://app?vid=2f5a766e-3ece-4a36-9442-eef7b36a8a22"},"vehicle_type_id":"4","last_reported":1753856401,"current_range_meters":10000,"station_id":"ce4bhgh2rcd13ifvqfb0","pricing_plan_id":"cebpf4jnsgd1na2vs0mg"},{"bike_id":"d3ccb0ed-778c-4fc8-a9fb-ca77740dd70a","system_id":"levelo_inurba_marseille","lat":43.30462,"lon":5.37898,"is_reserved":false,"is_disabled":false,"rental_uris":{"android":"levelo://app?vid=d3ccb0ed-778c-4fc8-a9fb-ca77740dd70a","ios":"levelo://app?vid=d3ccb0ed-778c-4fc8-a9fb-ca77740dd70a"},"vehicle_type_id":"4","last_reported":1753856401,"current_range_meters":10000,"station_id":"ce4bgup2rcd13ifvqcn0","pricing_plan_id":"cebpf4jnsgd1na2vs0mg"},{"bike_id":"960686aa-c1ee-4bd3-b41f-488bc79641f1","system_id":"levelo_inurba_marseille","lat":43.305361,"lon":5.367004,"is_reserved":false,"is_disabled":false,"rental_uris":{"android":"levelo://app?vid=960686aa-c1ee-4bd3-b41f-488bc79641f1","ios":"levelo://app?vid=960686aa-c1ee-4bd3-b41f-488bc79641f1"},"vehicle_type_id":"4","last_reported":1753856401,"current_range_meters":10000,"station_id":"ce4bgrp2rcd13ifvqc9g","pricing_plan_id":"cebpf4jnsgd1na2vs0mg"},{"bike_id":"f73f8966-8b7e-457a-8b9d-c5b89ce65a5c","system_id":"levelo_inurba_marseille","lat":43.28428,"lon":5.34979,"is_reserved":false,"is_disabled":true,"rental_uris":{"android":"levelo://app?vid=f73f8966-8b7e-457a-8b9d-c5b89ce65a5c","ios":"levelo://app?vid=f73f8966-8b7e-457a-8b9d-c5b89ce65a5c"},"vehicle_type_id":"4","last_reported":1753856401,"current_range_meters":10000,"station_id":"ce4bhbh2rcd13ifvqepg","pricing_plan_id":"cebpf4jnsgd1na2vs0mg"},{"bike_id":"a86d74e1-e2fc-4f2b-8143-bf128b10a185","system_id":"levelo_inurba_marseille","lat":43.27173,"lon":5.40998,"is_reserved":false,"is_disabled":false,"rental_uris":{"android":"levelo://app?vid=a86d74e1-e2fc-4f2b-8143-bf128b10a185","ios":"levelo://app?vid=a86d74e1-e2fc-4f2b-8143-bf128b10a185"},"vehicle_type_id":"4","last_reported":1753856401,"current_range_meters":10000,"station_id":"ce4bhl12rcd13ifvqgf0","pricing_plan_id":"cebpf4jnsgd1na2vs0mg"},{"bike_id":"cda6e837-df72-433c-8eab-6b3a7b65d25d","system_id":"levelo_inurba_marseille","lat":43.24179,"lon":5.39728,"is_reserved":false,"is_disabled":false,"rental_uris":{"android":"levelo://app?vid=cda6e837-df72-433c-8eab-6b3a7b65d25d","ios":"levelo://app?vid=cda6e837-df72-433c-8eab-6b3a7b65d25d"},"vehicle_type_id":"4","last_reported":1753856401,"current_range_meters":10000,"station_id":"ce4bhn12rcd13ifvqgpg","pricing_plan_id":"cebpf4jnsgd1na2vs0mg"},{"bike_id":"7cc1da72-5a84-4656-af48-1b30d4971806","system_id":"levelo_inurba_marseille","lat":43.26243,"lon":5.39778,"is_reserved":false,"is_disabled":false,"rental_uris":{"android":"levelo://app?vid=7cc1da72-5a84-4656-af48-1b30d4971806","ios":"levelo://app?vid=7cc1da72-5a84-4656-af48-1b30d4971806"},"vehicle_type_id":"4","last_reported":1753856401,"current_range_meters":10000,"station_id":"","pricing_plan_id":"cebpf4jnsgd1na2vs0mg"},{"bike_id":"0dc99cab-1546-4588-8ef9-e9c6ae8e0a6f","system_id":"levelo_inurba_marseille","lat":43.23062,"lon":5.35498,"is_reserved":false,"is_disabled":false,"rental_uris":{"android":"levelo://app?vid=0dc99cab-1546-4588-8ef9-e9c6ae8e0a6f","ios":"levelo://app?vid=0dc99cab-1546-4588-8ef9-e9c6ae8e0a6f"},"vehicle_type_id":"4","last_reported":1753856401,"current_range_meters":10000,"station_id":"cpo3342slgdg3j2ifvpg","pricing_plan_id":"cebpf4jnsgd1na2vs0mg"},{"bike_id":"e9624a09-b572-4bcb-944b-ef4683557984","system_id":"levelo_inurba_marseille","lat":43.23066,"lon":5.35476,"is_reserved":false,"is_disabled":false,"rental_uris":{"android":"levelo://app?vid=e9624a09-b572-4bcb-944b-ef4683557984","ios":"levelo://app?vid=e9624a09-b572-4bcb-944b-ef4683557984"},"vehicle_type_id":"4","last_reported":1753856401,"current_range_meters":10000,"station_id":"cpo3342slgdg3j2ifvpg","pricing_plan_id":"cebpf4jnsgd1na2vs0mg"},{"bike_id":"3f2e4588-2f11-45a0-9570-5e81f866b02f","system_id":"levelo_inurba_marseille","lat":43.31696,"lon":5.37761,"is_reserved":false,"is_disabled":false,"rental_uris":{"android":"levelo://app?vid=3f2e4588-2f11-45a0-9570-5e81f866b02f","ios":"levelo://app?vid=3f2e4588-2f11-45a0-9570-5e81f866b02f"},"vehicle_type_id":"4","last_reported":1753856401,"current_range_meters":10800,"station_id":"ce4bgth2rcd13ifvqch0","pricing_plan_id":"cebpf4jnsgd1na2vs0mg"},{"bike_id":"b7234136-bf62-4ef1-9964-a9c43529d354","system_id":"levelo_inurba_marseille","lat":43.31842,"lon":5.39412,"is_reserved":false,"is_disabled":false,"rental_uris":{"android":"levelo://app?vid=b7234136-bf62-4ef1-9964-a9c43529d354","ios":"levelo://app?vid=b7234136-bf62-4ef1-9964-a9c43529d354"},"vehicle_type_id":"4","last_reported":1753856401,"current_range_meters":10800,"station_id":"","pricing_plan_id":"cebpf4jnsgd1na2vs0mg"},{"bike_id":"d53021e2-2be8-42a4-9d2b-388ec28737fe","system_id":"levelo_inurba_marseille","lat":43.25924,"lon":5.40901,"is_reserved":false,"is_disabled":false,"rental_uris":{"android":"levelo://app?vid=d53021e2-2be8-42a4-9d2b-388ec28737fe","ios":"levelo://app?vid=d53021e2-2be8-42a4-9d2b-388ec28737fe"},"vehicle_type_id":"4","last_reported":1753856401,"current_range_meters":10800,"station_id":"ce4bhm92rcd13ifvqglg","pricing_plan_id":"cebpf4jnsgd1na2vs0mg"},{"bike_id":"0672cf8b-aa82-4a36-9d10-18116bf93b3d","system_id":"levelo_inurba_marseille","lat":43.29287,"lon":5.40118,"is_reserved":false,"is_disabled":false,"rental_uris":{"android":"levelo://app?vid=0672cf8b-aa82-4a36-9d10-18116bf93b3d","ios":"levelo://app?vid=0672cf8b-aa82-4a36-9d10-18116bf93b3d"},"vehicle_type_id":"4","last_reported":1753856401,"current_range_meters":10800,"station_id":"ce4bh312rcd13ifvqdk0","pricing_plan_id":"cebpf4jnsgd1na2vs0mg"},{"bike_id":"b93ce78a-91c6-4fce-9307-3a583d277b06","system_id":"levelo_inurba_marseille","lat":43.28707,"lon":5.37933,"is_reserved":false,"is_disabled":true,"rental_uris":{"android":"levelo://app?vid=b93ce78a-91c6-4fce-9307-3a583d277b06","ios":"levelo://app?vid=b93ce78a-91c6-4fce-9307-3a583d277b06"},"vehicle_type_id":"4","last_reported":1753856401,"current_range_meters":10800,"station_id":"ce4bh9p2rcd13ifvqec0","pricing_plan_id":"cebpf4jnsgd1na2vs0mg"},{"bike_id":"0c78749a-5428-4fb8-802b-98f57c51ba3d","system_id":"levelo_inurba_marseille","lat":43.30367,"lon":5.425,"is_reserved":false,"is_disabled":false,"rental_uris":{"android":"levelo://app?vid=0c78749a-5428-4fb8-802b-98f57c51ba3d","ios":"levelo://app?vid=0c78749a-5428-4fb8-802b-98f57c51ba3d"},"vehicle_type_id":"4","last_reported":1753856401,"current_range_meters":10800,"station_id":"ce4bhoh2rcd13ifvqh6g","pricing_plan_id":"cebpf4jnsgd1na2vs0mg"},{"bike_id":"e137dc03-26cf-440c-b3ea-1ea522645199","system_id":"levelo_inurba_marseille","lat":43.280815,"lon":5.396626,"is_reserved":false,"is_disabled":false,"rental_uris":{"android":"levelo://app?vid=e137dc03-26cf-440c-b3ea-1ea522645199","ios":"levelo://app?vid=e137dc03-26cf-440c-b3ea-1ea522645199"},"vehicle_type_id":"4","last_reported":1753856401,"current_range_meters":10800,"station_id":"","pricing_plan_id":"cebpf4jnsgd1na2vs0mg"},{"bike_id":"379c7f09-561d-4db9-a25a-8bd9b697a9df","system_id":"levelo_inurba_marseille","lat":43.28578,"lon":5.39514,"is_reserved":false,"is_disabled":false,"rental_uris":{"android":"levelo://app?vid=379c7f09-561d-4db9-a25a-8bd9b697a9df","ios":"levelo://app?vid=379c7f09-561d-4db9-a25a-8bd9b697a9df"},"vehicle_type_id":"4","last_reported":1753856401,"current_range_meters":10800,"station_id":"ce4bh292rcd13ifvqdg0","pricing_plan_id":"cebpf4jnsgd1na2vs0mg"},{"bike_id":"1ae5d7eb-1e99-401d-bdff-f20d11a3625e","system_id":"levelo_inurba_marseille","lat":43.30319,"lon":5.40441,"is_reserved":false,"is_disabled":false,"rental_uris":{"android":"levelo://app?vid=1ae5d7eb-1e99-401d-bdff-f20d11a3625e","ios":"levelo://app?vid=1ae5d7eb-1e99-401d-bdff-f20d11a3625e"},"vehicle_type_id":"4","last_reported":1753856401,"current_range_meters":10800,"station_id":"ce4bh012rcd13ifvqd10","pricing_plan_id":"cebpf4jnsgd1na2vs0mg"},{"bike_id":"d29b62cf-4142-4fac-87d5-e64841551607","system_id":"levelo_inurba_marseille","lat":43.250885,"lon":5.39507,"is_reserved":false,"is_disabled":false,"rental_uris":{"android":"levelo://app?vid=d29b62cf-4142-4fac-87d5-e64841551607","ios":"levelo://app?vid=d29b62cf-4142-4fac-87d5-e64841551607"},"vehicle_type_id":"4","last_reported":1753856401,"current_range_meters":11200,"station_id":"ce4bhm12rcd13ifvqgkg","pricing_plan_id":"cebpf4jnsgd1na2vs0mg"},{"bike_id":"ab666d87-3e70-4814-9ff2-9c4c5eb8d522","system_id":"levelo_inurba_marseille","lat":43.32132,"lon":5.36762,"is_reserved":false,"is_disabled":false,"rental_uris":{"android":"levelo://app?vid=ab666d87-3e70-4814-9ff2-9c4c5eb8d522","ios":"levelo://app?vid=ab666d87-3e70-4814-9ff2-9c4c5eb8d522"},"vehicle_type_id":"4","last_reported":1753856401,"current_range_meters":11200,"station_id":"ce4bhrh2rcd13ifvqhug","pricing_plan_id":"cebpf4jnsgd1na2vs0mg"},{"bike_id":"6f9e6bbb-593d-4070-9a34-8bc5260eae69","system_id":"levelo_inurba_marseille","lat":43.30322,"lon":5.40448,"is_reserved":false,"is_disabled":false,"rental_uris":{"android":"levelo://app?vid=6f9e6bbb-593d-4070-9a34-8bc5260eae69","ios":"levelo://app?vid=6f9e6bbb-593d-4070-9a34-8bc5260eae69"},"vehicle_type_id":"4","last_reported":1753856401,"current_range_meters":11200,"station_id":"ce4bh012rcd13ifvqd10","pricing_plan_id":"cebpf4jnsgd1na2vs0mg"},{"bike_id":"2ed28334-e2e8-4399-8505-80cc232e6b4b","system_id":"levelo_inurba_marseille","lat":43.28416,"lon":5.37481,"is_reserved":false,"is_disabled":false,"rental_uris":{"android":"levelo://app?vid=2ed28334-e2e8-4399-8505-80cc232e6b4b","ios":"levelo://app?vid=2ed28334-e2e8-4399-8505-80cc232e6b4b"},"vehicle_type_id":"4","last_reported":1753856401,"current_range_meters":11200,"station_id":"ce4bh412rcd13ifvqds0","pricing_plan_id":"cebpf4jnsgd1na2vs0mg"},{"bike_id":"65d35f57-f19e-4542-be24-6bcd4d29001d","system_id":"levelo_inurba_marseille","lat":43.26943,"lon":5.402621,"is_reserved":false,"is_disabled":false,"rental_uris":{"android":"levelo://app?vid=65d35f57-f19e-4542-be24-6bcd4d29001d","ios":"levelo://app?vid=65d35f57-f19e-4542-be24-6bcd4d29001d"},"vehicle_type_id":"4","last_reported":1753856401,"current_range_meters":11200,"station_id":"cjm6bp8fraef2m0cb0m0","pricing_plan_id":"cebpf4jnsgd1na2vs0mg"},{"bike_id":"a027973f-c8c9-4811-a512-806c935b4c27","system_id":"levelo_inurba_marseille","lat":43.211853,"lon":5.350793,"is_reserved":false,"is_disabled":false,"rental_uris":{"android":"levelo://app?vid=a027973f-c8c9-4811-a512-806c935b4c27","ios":"levelo://app?vid=a027973f-c8c9-4811-a512-806c935b4c27"},"vehicle_type_id":"4","last_reported":1753856401,"current_range_meters":11600,"station_id":"st_cvj6sg6p6f1abm77japg","pricing_plan_id":"cebpf4jnsgd1na2vs0mg"},{"bike_id":"bf34a1cf-df68-4dd3-8cfe-1feeb16f4ee5","system_id":"levelo_inurba_marseille","lat":43.30172,"lon":5.38088,"is_reserved":false,"is_disabled":false,"rental_uris":{"android":"levelo://app?vid=bf34a1cf-df68-4dd3-8cfe-1feeb16f4ee5","ios":"levelo://app?vid=bf34a1cf-df68-4dd3-8cfe-1feeb16f4ee5"},"vehicle_type_id":"4","last_reported":1753856401,"current_range_meters":11600,"station_id":"ce4bgjp2rcd13ifvqbh0","pricing_plan_id":"cebpf4jnsgd1na2vs0mg"},{"bike_id":"e8a0c05d-7272-4138-a1f4-e9de17058e9b","system_id":"levelo_inurba_marseille","lat":43.28276,"lon":5.35059,"is_reserved":false,"is_disabled":true,"rental_uris":{"android":"levelo://app?vid=e8a0c05d-7272-4138-a1f4-e9de17058e9b","ios":"levelo://app?vid=e8a0c05d-7272-4138-a1f4-e9de17058e9b"},"vehicle_type_id":"4","last_reported":1753856401,"current_range_meters":11600,"station_id":"ce4bhbp2rcd13ifvqerg","pricing_plan_id":"cebpf4jnsgd1na2vs0mg"},{"bike_id":"ef65f066-de96-432a-a3bf-b1b3ad0e62a1","system_id":"levelo_inurba_marseille","lat":43.32118,"lon":5.36767,"is_reserved":false,"is_disabled":false,"rental_uris":{"android":"levelo://app?vid=ef65f066-de96-432a-a3bf-b1b3ad0e62a1","ios":"levelo://app?vid=ef65f066-de96-432a-a3bf-b1b3ad0e62a1"},"vehicle_type_id":"4","last_reported":1753856401,"current_range_meters":11600,"station_id":"ce4bhrh2rcd13ifvqhug","pricing_plan_id":"cebpf4jnsgd1na2vs0mg"},{"bike_id":"68062815-c1e5-413d-b7d3-904d55012df7","system_id":"levelo_inurba_marseille","lat":43.29041,"lon":5.39958,"is_reserved":false,"is_disabled":false,"rental_uris":{"android":"levelo://app?vid=68062815-c1e5-413d-b7d3-904d55012df7","ios":"levelo://app?vid=68062815-c1e5-413d-b7d3-904d55012df7"},"vehicle_type_id":"4","last_reported":1753856401,"current_range_meters":11600,"station_id":"ce4bh392rcd13ifvqdm0","pricing_plan_id":"cebpf4jnsgd1na2vs0mg"},{"bike_id":"ed2653a8-cef8-419b-b19a-e1a7f6058aa9","system_id":"levelo_inurba_marseille","lat":43.23185,"lon":5.3556,"is_reserved":false,"is_disabled":false,"rental_uris":{"android":"levelo://app?vid=ed2653a8-cef8-419b-b19a-e1a7f6058aa9","ios":"levelo://app?vid=ed2653a8-cef8-419b-b19a-e1a7f6058aa9"},"vehicle_type_id":"4","last_reported":1753856401,"current_range_meters":12000,"station_id":"ce4bhu92rcd13ifvqi70","pricing_plan_id":"cebpf4jnsgd1na2vs0mg"},{"bike_id":"5af96fbf-8e7d-48b2-940d-ad1702f3b7c6","system_id":"levelo_inurba_marseille","lat":43.28617,"lon":5.37048,"is_reserved":false,"is_disabled":false,"rental_uris":{"android":"levelo://app?vid=5af96fbf-8e7d-48b2-940d-ad1702f3b7c6","ios":"levelo://app?vid=5af96fbf-8e7d-48b2-940d-ad1702f3b7c6"},"vehicle_type_id":"4","last_reported":1753856401,"current_range_meters":12000,"station_id":"ce4bht12rcd13ifvqi60","pricing_plan_id":"cebpf4jnsgd1na2vs0mg"},{"bike_id":"b48f5dd0-6dba-4454-bab2-8fe0e77c0439","system_id":"levelo_inurba_marseille","lat":43.2416,"lon":5.36396,"is_reserved":false,"is_disabled":false,"rental_uris":{"android":"levelo://app?vid=b48f5dd0-6dba-4454-bab2-8fe0e77c0439","ios":"levelo://app?vid=b48f5dd0-6dba-4454-bab2-8fe0e77c0439"},"vehicle_type_id":"4","last_reported":1753856401,"current_range_meters":12000,"station_id":"cpo36qri1sfpv3e86is0","pricing_plan_id":"cebpf4jnsgd1na2vs0mg"},{"bike_id":"a3dee983-3a57-4c3f-81b3-946d59684355","system_id":"levelo_inurba_marseille","lat":43.30953,"lon":5.39051,"is_reserved":false,"is_disabled":false,"rental_uris":{"android":"levelo://app?vid=a3dee983-3a57-4c3f-81b3-946d59684355","ios":"levelo://app?vid=a3dee983-3a57-4c3f-81b3-946d59684355"},"vehicle_type_id":"4","last_reported":1753856401,"current_range_meters":12000,"station_id":"ce4bgup2rcd13ifvqco0","pricing_plan_id":"cebpf4jnsgd1na2vs0mg"},{"bike_id":"938becca-5de5-4c97-bb97-3e45de7eff02","system_id":"levelo_inurba_marseille","lat":43.23186,"lon":5.3999,"is_reserved":false,"is_disabled":false,"rental_uris":{"android":"levelo://app?vid=938becca-5de5-4c97-bb97-3e45de7eff02","ios":"levelo://app?vid=938becca-5de5-4c97-bb97-3e45de7eff02"},"vehicle_type_id":"4","last_reported":1753856401,"current_range_meters":12000,"station_id":"ce4bhn12rcd13ifvqgqg","pricing_plan_id":"cebpf4jnsgd1na2vs0mg"},{"bike_id":"91e673d4-c8d9-4e81-a0e8-9221155bd169","system_id":"levelo_inurba_marseille","lat":43.292862,"lon":5.401281,"is_reserved":false,"is_disabled":false,"rental_uris":{"android":"levelo://app?vid=91e673d4-c8d9-4e81-a0e8-9221155bd169","ios":"levelo://app?vid=91e673d4-c8d9-4e81-a0e8-9221155bd169"},"vehicle_type_id":"4","last_reported":1753856401,"current_range_meters":12000,"station_id":"ce4bh312rcd13ifvqdk0","pricing_plan_id":"cebpf4jnsgd1na2vs0mg"},{"bike_id":"3e632e67-e785-475b-93e1-b0a668624c02","system_id":"levelo_inurba_marseille","lat":43.28169,"lon":5.42614,"is_reserved":false,"is_disabled":false,"rental_uris":{"android":"levelo://app?vid=3e632e67-e785-475b-93e1-b0a668624c02","ios":"levelo://app?vid=3e632e67-e785-475b-93e1-b0a668624c02"},"vehicle_type_id":"4","last_reported":1753856401,"current_range_meters":12000,"station_id":"ce4bhnh2rcd13ifvqgug","pricing_plan_id":"cebpf4jnsgd1na2vs0mg"},{"bike_id":"2fa9ec3b-c911-44ed-8e1f-21285fba16c5","system_id":"levelo_inurba_marseille","lat":43.31491,"lon":5.37296,"is_reserved":false,"is_disabled":false,"rental_uris":{"android":"levelo://app?vid=2fa9ec3b-c911-44ed-8e1f-21285fba16c5","ios":"levelo://app?vid=2fa9ec3b-c911-44ed-8e1f-21285fba16c5"},"vehicle_type_id":"4","last_reported":1753856401,"current_range_meters":12000,"station_id":"ce4bgt12rcd13ifvqcd0","pricing_plan_id":"cebpf4jnsgd1na2vs0mg"},{"bike_id":"00de3457-bb26-4f86-be97-d29604933a4d","system_id":"levelo_inurba_marseille","lat":43.28641,"lon":5.37162,"is_reserved":false,"is_disabled":false,"rental_uris":{"android":"levelo://app?vid=00de3457-bb26-4f86-be97-d29604933a4d","ios":"levelo://app?vid=00de3457-bb26-4f86-be97-d29604933a4d"},"vehicle_type_id":"4","last_reported":1753856401,"current_range_meters":12000,"station_id":"","pricing_plan_id":"cebpf4jnsgd1na2vs0mg"},{"bike_id":"6dad9e6b-fbfe-4acb-a033-bcb9d769e203","system_id":"levelo_inurba_marseille","lat":43.28265,"lon":5.3507,"is_reserved":false,"is_disabled":false,"rental_uris":{"android":"levelo://app?vid=6dad9e6b-fbfe-4acb-a033-bcb9d769e203","ios":"levelo://app?vid=6dad9e6b-fbfe-4acb-a033-bcb9d769e203"},"vehicle_type_id":"4","last_reported":1753856401,"current_range_meters":12000,"station_id":"ce4bhbp2rcd13ifvqerg","pricing_plan_id":"cebpf4jnsgd1na2vs0mg"},{"bike_id":"7affa337-61a5-473f-b69b-b897050ac690","system_id":"levelo_inurba_marseille","lat":43.28734,"lon":5.3608,"is_reserved":false,"is_disabled":false,"rental_uris":{"android":"levelo://app?vid=7affa337-61a5-473f-b69b-b897050ac690","ios":"levelo://app?vid=7affa337-61a5-473f-b69b-b897050ac690"},"vehicle_type_id":"4","last_reported":1753856401,"current_range_meters":12400,"station_id":"cki0cbj6b192h4jlfktg","pricing_plan_id":"cebpf4jnsgd1na2vs0mg"},{"bike_id":"74a75414-a993-47e8-9f4a-1404e33b13ef","system_id":"levelo_inurba_marseille","lat":43.24064,"lon":5.37754,"is_reserved":false,"is_disabled":false,"rental_uris":{"android":"levelo://app?vid=74a75414-a993-47e8-9f4a-1404e33b13ef","ios":"levelo://app?vid=74a75414-a993-47e8-9f4a-1404e33b13ef"},"vehicle_type_id":"4","last_reported":1753856401,"current_range_meters":12400,"station_id":"ce4bhnp2rcd13ifvqgvg","pricing_plan_id":"cebpf4jnsgd1na2vs0mg"},{"bike_id":"cb30d5a1-6776-4ffa-b252-5340200d88d2","system_id":"levelo_inurba_marseille","lat":43.25096,"lon":5.40343,"is_reserved":false,"is_disabled":false,"rental_uris":{"android":"levelo://app?vid=cb30d5a1-6776-4ffa-b252-5340200d88d2","ios":"levelo://app?vid=cb30d5a1-6776-4ffa-b252-5340200d88d2"},"vehicle_type_id":"4","last_reported":1753856401,"current_range_meters":12400,"station_id":"ce4bhlh2rcd13ifvqgig","pricing_plan_id":"cebpf4jnsgd1na2vs0mg"},{"bike_id":"8e636ccc-6fcd-4bdc-8a89-ed20c26deba9","system_id":"levelo_inurba_marseille","lat":43.23195,"lon":5.35554,"is_reserved":false,"is_disabled":false,"rental_uris":{"android":"levelo://app?vid=8e636ccc-6fcd-4bdc-8a89-ed20c26deba9","ios":"levelo://app?vid=8e636ccc-6fcd-4bdc-8a89-ed20c26deba9"},"vehicle_type_id":"4","last_reported":1753856401,"current_range_meters":12400,"station_id":"ce4bhu92rcd13ifvqi70","pricing_plan_id":"cebpf4jnsgd1na2vs0mg"},{"bike_id":"ab9c577b-9cc3-4d9b-9e71-2ee231744295","system_id":"levelo_inurba_marseille","lat":43.281041,"lon":5.383241,"is_reserved":false,"is_disabled":false,"rental_uris":{"android":"levelo://app?vid=ab9c577b-9cc3-4d9b-9e71-2ee231744295","ios":"levelo://app?vid=ab9c577b-9cc3-4d9b-9e71-2ee231744295"},"vehicle_type_id":"4","last_reported":1753856401,"current_range_meters":12800,"station_id":"","pricing_plan_id":"cebpf4jnsgd1na2vs0mg"},{"bike_id":"9817fdac-b8c6-4e36-9c70-7920a7727802","system_id":"levelo_inurba_marseille","lat":43.27992,"lon":5.40006,"is_reserved":false,"is_disabled":false,"rental_uris":{"android":"levelo://app?vid=9817fdac-b8c6-4e36-9c70-7920a7727802","ios":"levelo://app?vid=9817fdac-b8c6-4e36-9c70-7920a7727802"},"vehicle_type_id":"4","last_reported":1753856401,"current_range_meters":12800,"station_id":"ce4bho92rcd13ifvqh4g","pricing_plan_id":"cebpf4jnsgd1na2vs0mg"},{"bike_id":"58d60ef7-501e-48a0-a97f-c0e09ff3aab0","system_id":"levelo_inurba_marseille","lat":43.222792,"lon":5.345958,"is_reserved":false,"is_disabled":false,"rental_uris":{"android":"levelo://app?vid=58d60ef7-501e-48a0-a97f-c0e09ff3aab0","ios":"levelo://app?vid=58d60ef7-501e-48a0-a97f-c0e09ff3aab0"},"vehicle_type_id":"4","last_reported":1753856401,"current_range_meters":12800,"station_id":"ce4bhp92rcd13ifvqhag","pricing_plan_id":"cebpf4jnsgd1na2vs0mg"},{"bike_id":"b03d31fd-815d-447a-b4f5-a8506f362998","system_id":"levelo_inurba_marseille","lat":43.266807,"lon":5.382266,"is_reserved":false,"is_disabled":false,"rental_uris":{"android":"levelo://app?vid=b03d31fd-815d-447a-b4f5-a8506f362998","ios":"levelo://app?vid=b03d31fd-815d-447a-b4f5-a8506f362998"},"vehicle_type_id":"4","last_reported":1753856401,"current_range_meters":12800,"station_id":"ce4bhg92rcd13ifvqf90","pricing_plan_id":"cebpf4jnsgd1na2vs0mg"},{"bike_id":"07011de4-93e6-44b9-910b-3084325b7fe4","system_id":"levelo_inurba_marseille","lat":43.3268,"lon":5.39553,"is_reserved":false,"is_disabled":false,"rental_uris":{"android":"levelo://app?vid=07011de4-93e6-44b9-910b-3084325b7fe4","ios":"levelo://app?vid=07011de4-93e6-44b9-910b-3084325b7fe4"},"vehicle_type_id":"4","last_reported":1753856401,"current_range_meters":12800,"station_id":"","pricing_plan_id":"cebpf4jnsgd1na2vs0mg"},{"bike_id":"9f17697a-e6f8-4f6f-9637-a406344e4b79","system_id":"levelo_inurba_marseille","lat":43.31357,"lon":5.36722,"is_reserved":false,"is_disabled":false,"rental_uris":{"android":"levelo://app?vid=9f17697a-e6f8-4f6f-9637-a406344e4b79","ios":"levelo://app?vid=9f17697a-e6f8-4f6f-9637-a406344e4b79"},"vehicle_type_id":"4","last_reported":1753856401,"current_range_meters":12800,"station_id":"ce4bgr92rcd13ifvqc6g","pricing_plan_id":"cebpf4jnsgd1na2vs0mg"},{"bike_id":"de0d17df-be84-4879-a59f-baa4ec3324c5","system_id":"levelo_inurba_marseille","lat":43.30877,"lon":5.3963,"is_reserved":false,"is_disabled":false,"rental_uris":{"android":"levelo://app?vid=de0d17df-be84-4879-a59f-baa4ec3324c5","ios":"levelo://app?vid=de0d17df-be84-4879-a59f-baa4ec3324c5"},"vehicle_type_id":"4","last_reported":1753856401,"current_range_meters":12800,"station_id":"ce4bh012rcd13ifvqcv0","pricing_plan_id":"cebpf4jnsgd1na2vs0mg"},{"bike_id":"135ab1ea-fc9a-4785-9240-6bfa3adf7c7c","system_id":"levelo_inurba_marseille","lat":43.32333,"lon":5.3675,"is_reserved":false,"is_disabled":false,"rental_uris":{"android":"levelo://app?vid=135ab1ea-fc9a-4785-9240-6bfa3adf7c7c","ios":"levelo://app?vid=135ab1ea-fc9a-4785-9240-6bfa3adf7c7c"},"vehicle_type_id":"4","last_reported":1753856401,"current_range_meters":13600,"station_id":"ce4bhsh2rcd13ifvqi2g","pricing_plan_id":"cebpf4jnsgd1na2vs0mg"},{"bike_id":"8347bd29-03c6-4a32-a906-fc1337104bd5","system_id":"levelo_inurba_marseille","lat":43.308921,"lon":5.396331,"is_reserved":false,"is_disabled":false,"rental_uris":{"android":"levelo://app?vid=8347bd29-03c6-4a32-a906-fc1337104bd5","ios":"levelo://app?vid=8347bd29-03c6-4a32-a906-fc1337104bd5"},"vehicle_type_id":"4","last_reported":1753856401,"current_range_meters":13600,"station_id":"ce4bh012rcd13ifvqcv0","pricing_plan_id":"cebpf4jnsgd1na2vs0mg"},{"bike_id":"6f47bd7d-3516-4b85-8609-2fce8d195afb","system_id":"levelo_inurba_marseille","lat":43.30537,"lon":5.36549,"is_reserved":false,"is_disabled":false,"rental_uris":{"android":"levelo://app?vid=6f47bd7d-3516-4b85-8609-2fce8d195afb","ios":"levelo://app?vid=6f47bd7d-3516-4b85-8609-2fce8d195afb"},"vehicle_type_id":"4","last_reported":1753856401,"current_range_meters":13600,"station_id":"ce4bgs12rcd13ifvqcag","pricing_plan_id":"cebpf4jnsgd1na2vs0mg"},{"bike_id":"e835e740-02a8-4b55-b83d-8f7e332e158e","system_id":"levelo_inurba_marseille","lat":43.23063,"lon":5.35492,"is_reserved":false,"is_disabled":false,"rental_uris":{"android":"levelo://app?vid=e835e740-02a8-4b55-b83d-8f7e332e158e","ios":"levelo://app?vid=e835e740-02a8-4b55-b83d-8f7e332e158e"},"vehicle_type_id":"4","last_reported":1753856401,"current_range_meters":13600,"station_id":"cpo3342slgdg3j2ifvpg","pricing_plan_id":"cebpf4jnsgd1na2vs0mg"},{"bike_id":"3c65e3a4-d98b-4db2-8d36-951b9612ba65","system_id":"levelo_inurba_marseille","lat":43.23188,"lon":5.3555,"is_reserved":false,"is_disabled":false,"rental_uris":{"android":"levelo://app?vid=3c65e3a4-d98b-4db2-8d36-951b9612ba65","ios":"levelo://app?vid=3c65e3a4-d98b-4db2-8d36-951b9612ba65"},"vehicle_type_id":"4","last_reported":1753856401,"current_range_meters":13600,"station_id":"ce4bhu92rcd13ifvqi70","pricing_plan_id":"cebpf4jnsgd1na2vs0mg"},{"bike_id":"f129605f-c561-462b-9dd8-38b1fae764e6","system_id":"levelo_inurba_marseille","lat":43.32341,"lon":5.36724,"is_reserved":false,"is_disabled":false,"rental_uris":{"android":"levelo://app?vid=f129605f-c561-462b-9dd8-38b1fae764e6","ios":"levelo://app?vid=f129605f-c561-462b-9dd8-38b1fae764e6"},"vehicle_type_id":"4","last_reported":1753856401,"current_range_meters":13600,"station_id":"ce4bhsh2rcd13ifvqi2g","pricing_plan_id":"cebpf4jnsgd1na2vs0mg"},{"bike_id":"b371485f-eac0-4db2-a416-e81860cc7564","system_id":"levelo_inurba_marseille","lat":43.3043,"lon":5.38897,"is_reserved":false,"is_disabled":false,"rental_uris":{"android":"levelo://app?vid=b371485f-eac0-4db2-a416-e81860cc7564","ios":"levelo://app?vid=b371485f-eac0-4db2-a416-e81860cc7564"},"vehicle_type_id":"4","last_reported":1753856401,"current_range_meters":13600,"station_id":"ce4bgk12rcd13ifvqbi0","pricing_plan_id":"cebpf4jnsgd1na2vs0mg"},{"bike_id":"0e380c6c-60f6-4552-bf73-26745aaeb8e4","system_id":"levelo_inurba_marseille","lat":43.27208,"lon":5.39182,"is_reserved":false,"is_disabled":false,"rental_uris":{"android":"levelo://app?vid=0e380c6c-60f6-4552-bf73-26745aaeb8e4","ios":"levelo://app?vid=0e380c6c-60f6-4552-bf73-26745aaeb8e4"},"vehicle_type_id":"4","last_reported":1753856401,"current_range_meters":13600,"station_id":"ce4bhhp2rcd13ifvqfm0","pricing_plan_id":"cebpf4jnsgd1na2vs0mg"},{"bike_id":"006989d0-e964-4aa4-ad1e-5b81a65c337e","system_id":"levelo_inurba_marseille","lat":43.30803,"lon":5.38158,"is_reserved":false,"is_disabled":true,"rental_uris":{"android":"levelo://app?vid=006989d0-e964-4aa4-ad1e-5b81a65c337e","ios":"levelo://app?vid=006989d0-e964-4aa4-ad1e-5b81a65c337e"},"vehicle_type_id":"4","last_reported":1753856401,"current_range_meters":13600,"station_id":"ce4bgt12rcd13ifvqce0","pricing_plan_id":"cebpf4jnsgd1na2vs0mg"},{"bike_id":"b6779396-67bd-4011-85e1-0c4683200eb0","system_id":"levelo_inurba_marseille","lat":43.27067,"lon":5.40253,"is_reserved":false,"is_disabled":false,"rental_uris":{"android":"levelo://app?vid=b6779396-67bd-4011-85e1-0c4683200eb0","ios":"levelo://app?vid=b6779396-67bd-4011-85e1-0c4683200eb0"},"vehicle_type_id":"4","last_reported":1753856401,"current_range_meters":14000,"station_id":"ce4bhk92rcd13ifvqgc0","pricing_plan_id":"cebpf4jnsgd1na2vs0mg"},{"bike_id":"671701a9-7243-46ba-9df9-fa49b6935265","system_id":"levelo_inurba_marseille","lat":43.25975,"lon":5.3724,"is_reserved":false,"is_disabled":false,"rental_uris":{"android":"levelo://app?vid=671701a9-7243-46ba-9df9-fa49b6935265","ios":"levelo://app?vid=671701a9-7243-46ba-9df9-fa49b6935265"},"vehicle_type_id":"4","last_reported":1753856401,"current_range_meters":14000,"station_id":"","pricing_plan_id":"cebpf4jnsgd1na2vs0mg"},{"bike_id":"aafc3bc1-c1be-40f5-91e7-c27bec18fc48","system_id":"levelo_inurba_marseille","lat":43.27173,"lon":5.40997,"is_reserved":false,"is_disabled":false,"rental_uris":{"android":"levelo://app?vid=aafc3bc1-c1be-40f5-91e7-c27bec18fc48","ios":"levelo://app?vid=aafc3bc1-c1be-40f5-91e7-c27bec18fc48"},"vehicle_type_id":"4","last_reported":1753856401,"current_range_meters":14000,"station_id":"ce4bhl12rcd13ifvqgf0","pricing_plan_id":"cebpf4jnsgd1na2vs0mg"},{"bike_id":"b88aa36c-4795-4c3e-b696-59169e52bcb0","system_id":"levelo_inurba_marseille","lat":43.30154,"lon":5.38075,"is_reserved":false,"is_disabled":false,"rental_uris":{"android":"levelo://app?vid=b88aa36c-4795-4c3e-b696-59169e52bcb0","ios":"levelo://app?vid=b88aa36c-4795-4c3e-b696-59169e52bcb0"},"vehicle_type_id":"4","last_reported":1753856401,"current_range_meters":14000,"station_id":"ce4bgjp2rcd13ifvqbh0","pricing_plan_id":"cebpf4jnsgd1na2vs0mg"},{"bike_id":"f9e81ffc-ff71-41b8-97ea-dc8884c02c73","system_id":"levelo_inurba_marseille","lat":43.31685,"lon":5.40478,"is_reserved":false,"is_disabled":false,"rental_uris":{"android":"levelo://app?vid=f9e81ffc-ff71-41b8-97ea-dc8884c02c73","ios":"levelo://app?vid=f9e81ffc-ff71-41b8-97ea-dc8884c02c73"},"vehicle_type_id":"4","last_reported":1753856401,"current_range_meters":14000,"station_id":"ce4bh012rcd13ifvqd00","pricing_plan_id":"cebpf4jnsgd1na2vs0mg"},{"bike_id":"056e4f3d-4ab7-42da-9834-2ca05b8a0f52","system_id":"levelo_inurba_marseille","lat":43.31465,"lon":5.36848,"is_reserved":false,"is_disabled":false,"rental_uris":{"android":"levelo://app?vid=056e4f3d-4ab7-42da-9834-2ca05b8a0f52","ios":"levelo://app?vid=056e4f3d-4ab7-42da-9834-2ca05b8a0f52"},"vehicle_type_id":"4","last_reported":1753856401,"current_range_meters":14000,"station_id":"","pricing_plan_id":"cebpf4jnsgd1na2vs0mg"},{"bike_id":"3d54e97c-ec3a-42f4-bf86-812f072159e8","system_id":"levelo_inurba_marseille","lat":43.28152,"lon":5.426388,"is_reserved":false,"is_disabled":false,"rental_uris":{"android":"levelo://app?vid=3d54e97c-ec3a-42f4-bf86-812f072159e8","ios":"levelo://app?vid=3d54e97c-ec3a-42f4-bf86-812f072159e8"},"vehicle_type_id":"4","last_reported":1753856401,"current_range_meters":14000,"station_id":"ce4bhnh2rcd13ifvqgug","pricing_plan_id":"cebpf4jnsgd1na2vs0mg"},{"bike_id":"fbd07e49-4b63-4750-b7c0-1bfb7953664f","system_id":"levelo_inurba_marseille","lat":43.27211,"lon":5.39182,"is_reserved":false,"is_disabled":false,"rental_uris":{"android":"levelo://app?vid=fbd07e49-4b63-4750-b7c0-1bfb7953664f","ios":"levelo://app?vid=fbd07e49-4b63-4750-b7c0-1bfb7953664f"},"vehicle_type_id":"4","last_reported":1753856401,"current_range_meters":14000,"station_id":"ce4bhhp2rcd13ifvqfm0","pricing_plan_id":"cebpf4jnsgd1na2vs0mg"},{"bike_id":"51c9e8b5-716b-4aa5-bdbe-ae32f107bfbc","system_id":"levelo_inurba_marseille","lat":43.23206,"lon":5.35547,"is_reserved":false,"is_disabled":false,"rental_uris":{"android":"levelo://app?vid=51c9e8b5-716b-4aa5-bdbe-ae32f107bfbc","ios":"levelo://app?vid=51c9e8b5-716b-4aa5-bdbe-ae32f107bfbc"},"vehicle_type_id":"4","last_reported":1753856401,"current_range_meters":14400,"station_id":"ce4bhu92rcd13ifvqi70","pricing_plan_id":"cebpf4jnsgd1na2vs0mg"},{"bike_id":"27121016-03d3-4670-9ce6-a156435b86ae","system_id":"levelo_inurba_marseille","lat":43.32337,"lon":5.40607,"is_reserved":false,"is_disabled":false,"rental_uris":{"android":"levelo://app?vid=27121016-03d3-4670-9ce6-a156435b86ae","ios":"levelo://app?vid=27121016-03d3-4670-9ce6-a156435b86ae"},"vehicle_type_id":"4","last_reported":1753856401,"current_range_meters":14400,"station_id":"ce4bhq92rcd13ifvqhjg","pricing_plan_id":"cebpf4jnsgd1na2vs0mg"},{"bike_id":"23cb5642-15b1-4dff-8751-77349dab4204","system_id":"levelo_inurba_marseille","lat":43.22939,"lon":5.3537,"is_reserved":false,"is_disabled":false,"rental_uris":{"android":"levelo://app?vid=23cb5642-15b1-4dff-8751-77349dab4204","ios":"levelo://app?vid=23cb5642-15b1-4dff-8751-77349dab4204"},"vehicle_type_id":"4","last_reported":1753856401,"current_range_meters":14400,"station_id":"cpo3532slgdg3j2ikp40","pricing_plan_id":"cebpf4jnsgd1na2vs0mg"},{"bike_id":"85d95a9a-bae1-4127-a50f-dff98ce29fd5","system_id":"levelo_inurba_marseille","lat":43.32517,"lon":5.37368,"is_reserved":false,"is_disabled":false,"rental_uris":{"android":"levelo://app?vid=85d95a9a-bae1-4127-a50f-dff98ce29fd5","ios":"levelo://app?vid=85d95a9a-bae1-4127-a50f-dff98ce29fd5"},"vehicle_type_id":"4","last_reported":1753856401,"current_range_meters":14400,"station_id":"","pricing_plan_id":"cebpf4jnsgd1na2vs0mg"},{"bike_id":"7ae9a301-af81-4c61-b264-f97fbac78c92","system_id":"levelo_inurba_marseille","lat":43.24798,"lon":5.37467,"is_reserved":false,"is_disabled":false,"rental_uris":{"android":"levelo://app?vid=7ae9a301-af81-4c61-b264-f97fbac78c92","ios":"levelo://app?vid=7ae9a301-af81-4c61-b264-f97fbac78c92"},"vehicle_type_id":"4","last_reported":1753856401,"current_range_meters":14400,"station_id":"ce4bhgh2rcd13ifvqfb0","pricing_plan_id":"cebpf4jnsgd1na2vs0mg"},{"bike_id":"2002cc2c-a47c-4777-8dac-3a5e369cf994","system_id":"levelo_inurba_marseille","lat":43.24672,"lon":5.38181,"is_reserved":false,"is_disabled":false,"rental_uris":{"android":"levelo://app?vid=2002cc2c-a47c-4777-8dac-3a5e369cf994","ios":"levelo://app?vid=2002cc2c-a47c-4777-8dac-3a5e369cf994"},"vehicle_type_id":"4","last_reported":1753856401,"current_range_meters":14400,"station_id":"ce4bhih2rcd13ifvqfr0","pricing_plan_id":"cebpf4jnsgd1na2vs0mg"},{"bike_id":"24ddc855-9db1-447b-8cc7-fb33f85a47fb","system_id":"levelo_inurba_marseille","lat":43.30595,"lon":5.37213,"is_reserved":false,"is_disabled":false,"rental_uris":{"android":"levelo://app?vid=24ddc855-9db1-447b-8cc7-fb33f85a47fb","ios":"levelo://app?vid=24ddc855-9db1-447b-8cc7-fb33f85a47fb"},"vehicle_type_id":"4","last_reported":1753856401,"current_range_meters":14400,"station_id":"ce4bgqh2rcd13ifvqc4g","pricing_plan_id":"cebpf4jnsgd1na2vs0mg"},{"bike_id":"7a2e82e0-8302-4549-adc9-89b5e6842920","system_id":"levelo_inurba_marseille","lat":43.323745,"lon":5.388679,"is_reserved":false,"is_disabled":false,"rental_uris":{"android":"levelo://app?vid=7a2e82e0-8302-4549-adc9-89b5e6842920","ios":"levelo://app?vid=7a2e82e0-8302-4549-adc9-89b5e6842920"},"vehicle_type_id":"4","last_reported":1753856401,"current_range_meters":14400,"station_id":"ce4bhqp2rcd13ifvqhog","pricing_plan_id":"cebpf4jnsgd1na2vs0mg"},{"bike_id":"a6a46ae2-d764-44ee-baf2-a76e49bd9084","system_id":"levelo_inurba_marseille","lat":43.269732,"lon":5.402941,"is_reserved":false,"is_disabled":false,"rental_uris":{"android":"levelo://app?vid=a6a46ae2-d764-44ee-baf2-a76e49bd9084","ios":"levelo://app?vid=a6a46ae2-d764-44ee-baf2-a76e49bd9084"},"vehicle_type_id":"4","last_reported":1753856401,"current_range_meters":14400,"station_id":"cjm6bp8fraef2m0cb0m0","pricing_plan_id":"cebpf4jnsgd1na2vs0mg"},{"bike_id":"c686771c-e4d6-4ee5-934b-f3ca190b833e","system_id":"levelo_inurba_marseille","lat":43.32765,"lon":5.39204,"is_reserved":false,"is_disabled":false,"rental_uris":{"android":"levelo://app?vid=c686771c-e4d6-4ee5-934b-f3ca190b833e","ios":"levelo://app?vid=c686771c-e4d6-4ee5-934b-f3ca190b833e"},"vehicle_type_id":"4","last_reported":1753856401,"current_range_meters":14400,"station_id":"","pricing_plan_id":"cebpf4jnsgd1na2vs0mg"},{"bike_id":"8ccd8114-1f0e-4b9c-85de-37a1f9beaba2","system_id":"levelo_inurba_marseille","lat":43.32349,"lon":5.40599,"is_reserved":false,"is_disabled":false,"rental_uris":{"android":"levelo://app?vid=8ccd8114-1f0e-4b9c-85de-37a1f9beaba2","ios":"levelo://app?vid=8ccd8114-1f0e-4b9c-85de-37a1f9beaba2"},"vehicle_type_id":"4","last_reported":1753856401,"current_range_meters":14400,"station_id":"ce4bhq92rcd13ifvqhjg","pricing_plan_id":"cebpf4jnsgd1na2vs0mg"},{"bike_id":"dad691be-fd3e-4d02-8c0f-f9e1b77bb50e","system_id":"levelo_inurba_marseille","lat":43.28423,"lon":5.37513,"is_reserved":false,"is_disabled":false,"rental_uris":{"android":"levelo://app?vid=dad691be-fd3e-4d02-8c0f-f9e1b77bb50e","ios":"levelo://app?vid=dad691be-fd3e-4d02-8c0f-f9e1b77bb50e"},"vehicle_type_id":"4","last_reported":1753856401,"current_range_meters":14800,"station_id":"ce4bh412rcd13ifvqds0","pricing_plan_id":"cebpf4jnsgd1na2vs0mg"},{"bike_id":"df12338b-d013-4f63-ab4c-a73a6173c766","system_id":"levelo_inurba_marseille","lat":43.28978,"lon":5.37817,"is_reserved":false,"is_disabled":false,"rental_uris":{"android":"levelo://app?vid=df12338b-d013-4f63-ab4c-a73a6173c766","ios":"levelo://app?vid=df12338b-d013-4f63-ab4c-a73a6173c766"},"vehicle_type_id":"4","last_reported":1753856401,"current_range_meters":14800,"station_id":"ce4bh9p2rcd13ifvqed0","pricing_plan_id":"cebpf4jnsgd1na2vs0mg"},{"bike_id":"a36bd7ba-074a-442d-8f4e-bb3cc65a52a2","system_id":"levelo_inurba_marseille","lat":43.29208,"lon":5.39492,"is_reserved":false,"is_disabled":false,"rental_uris":{"android":"levelo://app?vid=a36bd7ba-074a-442d-8f4e-bb3cc65a52a2","ios":"levelo://app?vid=a36bd7ba-074a-442d-8f4e-bb3cc65a52a2"},"vehicle_type_id":"4","last_reported":1753856401,"current_range_meters":14800,"station_id":"","pricing_plan_id":"cebpf4jnsgd1na2vs0mg"},{"bike_id":"915513aa-2ef0-4e1b-9aa3-73608a47efab","system_id":"levelo_inurba_marseille","lat":43.225097,"lon":5.347638,"is_reserved":false,"is_disabled":false,"rental_uris":{"android":"levelo://app?vid=915513aa-2ef0-4e1b-9aa3-73608a47efab","ios":"levelo://app?vid=915513aa-2ef0-4e1b-9aa3-73608a47efab"},"vehicle_type_id":"4","last_reported":1753856401,"current_range_meters":14800,"station_id":"st_cvj5dfep6f1abm77gieg","pricing_plan_id":"cebpf4jnsgd1na2vs0mg"},{"bike_id":"3d60e95a-8706-4e13-b31f-ac7a913f607a","system_id":"levelo_inurba_marseille","lat":43.22941,"lon":5.35398,"is_reserved":false,"is_disabled":false,"rental_uris":{"android":"levelo://app?vid=3d60e95a-8706-4e13-b31f-ac7a913f607a","ios":"levelo://app?vid=3d60e95a-8706-4e13-b31f-ac7a913f607a"},"vehicle_type_id":"4","last_reported":1753856401,"current_range_meters":15200,"station_id":"cpo3532slgdg3j2ikp40","pricing_plan_id":"cebpf4jnsgd1na2vs0mg"},{"bike_id":"b3981504-66de-4d4d-88a4-7f2a1ee4eb0b","system_id":"levelo_inurba_marseille","lat":43.27907,"lon":5.38773,"is_reserved":false,"is_disabled":false,"rental_uris":{"android":"levelo://app?vid=b3981504-66de-4d4d-88a4-7f2a1ee4eb0b","ios":"levelo://app?vid=b3981504-66de-4d4d-88a4-7f2a1ee4eb0b"},"vehicle_type_id":"4","last_reported":1753856401,"current_range_meters":15200,"station_id":"","pricing_plan_id":"cebpf4jnsgd1na2vs0mg"},{"bike_id":"b325ba55-414b-49a8-a525-c0395a83fa88","system_id":"levelo_inurba_marseille","lat":43.28938,"lon":5.3962,"is_reserved":false,"is_disabled":false,"rental_uris":{"android":"levelo://app?vid=b325ba55-414b-49a8-a525-c0395a83fa88","ios":"levelo://app?vid=b325ba55-414b-49a8-a525-c0395a83fa88"},"vehicle_type_id":"4","last_reported":1753856401,"current_range_meters":15200,"station_id":"ce4bh3h2rcd13ifvqdn0","pricing_plan_id":"cebpf4jnsgd1na2vs0mg"},{"bike_id":"2fad1b6f-d0b7-4211-9b9d-661d7c090096","system_id":"levelo_inurba_marseille","lat":43.29809,"lon":5.43328,"is_reserved":false,"is_disabled":false,"rental_uris":{"android":"levelo://app?vid=2fad1b6f-d0b7-4211-9b9d-661d7c090096","ios":"levelo://app?vid=2fad1b6f-d0b7-4211-9b9d-661d7c090096"},"vehicle_type_id":"4","last_reported":1753856401,"current_range_meters":15200,"station_id":"","pricing_plan_id":"cebpf4jnsgd1na2vs0mg"},{"bike_id":"ae6c8428-e39e-40be-9df7-f418521aa777","system_id":"levelo_inurba_marseille","lat":43.22927,"lon":5.35371,"is_reserved":false,"is_disabled":false,"rental_uris":{"android":"levelo://app?vid=ae6c8428-e39e-40be-9df7-f418521aa777","ios":"levelo://app?vid=ae6c8428-e39e-40be-9df7-f418521aa777"},"vehicle_type_id":"4","last_reported":1753856401,"current_range_meters":15200,"station_id":"cpo3532slgdg3j2ikp40","pricing_plan_id":"cebpf4jnsgd1na2vs0mg"},{"bike_id":"5ff7b424-be72-460e-9279-c80ac3b388ac","system_id":"levelo_inurba_marseille","lat":43.231881,"lon":5.399969,"is_reserved":false,"is_disabled":false,"rental_uris":{"android":"levelo://app?vid=5ff7b424-be72-460e-9279-c80ac3b388ac","ios":"levelo://app?vid=5ff7b424-be72-460e-9279-c80ac3b388ac"},"vehicle_type_id":"4","last_reported":1753856401,"current_range_meters":15200,"station_id":"ce4bhn12rcd13ifvqgqg","pricing_plan_id":"cebpf4jnsgd1na2vs0mg"},{"bike_id":"a5c4949a-9ef4-4776-a3f1-318fb7180b06","system_id":"levelo_inurba_marseille","lat":43.29786,"lon":5.3934,"is_reserved":false,"is_disabled":false,"rental_uris":{"android":"levelo://app?vid=a5c4949a-9ef4-4776-a3f1-318fb7180b06","ios":"levelo://app?vid=a5c4949a-9ef4-4776-a3f1-318fb7180b06"},"vehicle_type_id":"4","last_reported":1753856401,"current_range_meters":15200,"station_id":"chh1huq6cuj3fo74tm60","pricing_plan_id":"cebpf4jnsgd1na2vs0mg"},{"bike_id":"3b0fc468-0f53-43b2-bdc9-2accbf6297e5","system_id":"levelo_inurba_marseille","lat":43.29651,"lon":5.3793,"is_reserved":false,"is_disabled":false,"rental_uris":{"android":"levelo://app?vid=3b0fc468-0f53-43b2-bdc9-2accbf6297e5","ios":"levelo://app?vid=3b0fc468-0f53-43b2-bdc9-2accbf6297e5"},"vehicle_type_id":"4","last_reported":1753856401,"current_range_meters":16000,"station_id":"","pricing_plan_id":"cebpf4jnsgd1na2vs0mg"},{"bike_id":"b44d763b-4f92-4731-b76a-85ebcd91acd5","system_id":"levelo_inurba_marseille","lat":43.30199,"lon":5.37127,"is_reserved":false,"is_disabled":false,"rental_uris":{"android":"levelo://app?vid=b44d763b-4f92-4731-b76a-85ebcd91acd5","ios":"levelo://app?vid=b44d763b-4f92-4731-b76a-85ebcd91acd5"},"vehicle_type_id":"4","last_reported":1753856401,"current_range_meters":16000,"station_id":"","pricing_plan_id":"cebpf4jnsgd1na2vs0mg"},{"bike_id":"09ad9f00-e4b8-4564-9016-34f7c6eb4a18","system_id":"levelo_inurba_marseille","lat":43.30539,"lon":5.3669,"is_reserved":false,"is_disabled":false,"rental_uris":{"android":"levelo://app?vid=09ad9f00-e4b8-4564-9016-34f7c6eb4a18","ios":"levelo://app?vid=09ad9f00-e4b8-4564-9016-34f7c6eb4a18"},"vehicle_type_id":"4","last_reported":1753856401,"current_range_meters":16000,"station_id":"ce4bgrp2rcd13ifvqc9g","pricing_plan_id":"cebpf4jnsgd1na2vs0mg"},{"bike_id":"886bb3e8-befe-4194-bad0-5ad77f5653c8","system_id":"levelo_inurba_marseille","lat":43.24417,"lon":5.37056,"is_reserved":false,"is_disabled":true,"rental_uris":{"android":"levelo://app?vid=886bb3e8-befe-4194-bad0-5ad77f5653c8","ios":"levelo://app?vid=886bb3e8-befe-4194-bad0-5ad77f5653c8"},"vehicle_type_id":"4","last_reported":1753856401,"current_range_meters":16000,"station_id":"ce4bhhh2rcd13ifvqfk0","pricing_plan_id":"cebpf4jnsgd1na2vs0mg"},{"bike_id":"0aa3d069-0b2c-4ad8-afcb-33ace28f6be3","system_id":"levelo_inurba_marseille","lat":43.319994,"lon":5.38166,"is_reserved":false,"is_disabled":false,"rental_uris":{"android":"levelo://app?vid=0aa3d069-0b2c-4ad8-afcb-33ace28f6be3","ios":"levelo://app?vid=0aa3d069-0b2c-4ad8-afcb-33ace28f6be3"},"vehicle_type_id":"4","last_reported":1753856401,"current_range_meters":16000,"station_id":"ce4bhr12rcd13ifvqhpg","pricing_plan_id":"cebpf4jnsgd1na2vs0mg"},{"bike_id":"6a664d4b-940c-4c07-9452-a9104589cf3a","system_id":"levelo_inurba_marseille","lat":43.29563,"lon":5.42287,"is_reserved":false,"is_disabled":true,"rental_uris":{"android":"levelo://app?vid=6a664d4b-940c-4c07-9452-a9104589cf3a","ios":"levelo://app?vid=6a664d4b-940c-4c07-9452-a9104589cf3a"},"vehicle_type_id":"4","last_reported":1753856401,"current_range_meters":16000,"station_id":"ce4bhph2rcd13ifvqhdg","pricing_plan_id":"cebpf4jnsgd1na2vs0mg"},{"bike_id":"0bdbae00-c3b8-4601-960f-1c9eb444ba0a","system_id":"levelo_inurba_marseille","lat":43.29287,"lon":5.40125,"is_reserved":false,"is_disabled":false,"rental_uris":{"android":"levelo://app?vid=0bdbae00-c3b8-4601-960f-1c9eb444ba0a","ios":"levelo://app?vid=0bdbae00-c3b8-4601-960f-1c9eb444ba0a"},"vehicle_type_id":"4","last_reported":1753856401,"current_range_meters":16000,"station_id":"ce4bh312rcd13ifvqdk0","pricing_plan_id":"cebpf4jnsgd1na2vs0mg"},{"bike_id":"18c14cdc-7ae5-4455-8de2-607bf3638067","system_id":"levelo_inurba_marseille","lat":43.30304,"lon":5.369032,"is_reserved":false,"is_disabled":false,"rental_uris":{"android":"levelo://app?vid=18c14cdc-7ae5-4455-8de2-607bf3638067","ios":"levelo://app?vid=18c14cdc-7ae5-4455-8de2-607bf3638067"},"vehicle_type_id":"4","last_reported":1753856401,"current_range_meters":15200,"station_id":"ce4bgqh2rcd13ifvqc5g","pricing_plan_id":"cebpf4jnsgd1na2vs0mg"},{"bike_id":"b28ad17b-d26a-458a-b690-9100105ac419","system_id":"levelo_inurba_marseille","lat":43.305433,"lon":5.384187,"is_reserved":false,"is_disabled":false,"rental_uris":{"android":"levelo://app?vid=b28ad17b-d26a-458a-b690-9100105ac419","ios":"levelo://app?vid=b28ad17b-d26a-458a-b690-9100105ac419"},"vehicle_type_id":"4","last_reported":1753856401,"current_range_meters":16000,"station_id":"ce4bgg92rcd13ifvqb30","pricing_plan_id":"cebpf4jnsgd1na2vs0mg"},{"bike_id":"96e3ef03-ebd1-4704-94c5-7f685f92d4dc","system_id":"levelo_inurba_marseille","lat":43.28451,"lon":5.37511,"is_reserved":false,"is_disabled":false,"rental_uris":{"android":"levelo://app?vid=96e3ef03-ebd1-4704-94c5-7f685f92d4dc","ios":"levelo://app?vid=96e3ef03-ebd1-4704-94c5-7f685f92d4dc"},"vehicle_type_id":"4","last_reported":1753856401,"current_range_meters":16000,"station_id":"","pricing_plan_id":"cebpf4jnsgd1na2vs0mg"},{"bike_id":"bba660a4-64e7-41bf-a51f-980ab0eacd81","system_id":"levelo_inurba_marseille","lat":43.28698,"lon":5.37382,"is_reserved":false,"is_disabled":true,"rental_uris":{"android":"levelo://app?vid=bba660a4-64e7-41bf-a51f-980ab0eacd81","ios":"levelo://app?vid=bba660a4-64e7-41bf-a51f-980ab0eacd81"},"vehicle_type_id":"4","last_reported":1753856401,"current_range_meters":16000,"station_id":"ce4bh3p2rcd13ifvqdq0","pricing_plan_id":"cebpf4jnsgd1na2vs0mg"},{"bike_id":"189ffb50-6abf-43b3-bc9c-489863d3d195","system_id":"levelo_inurba_marseille","lat":43.29873,"lon":5.38903,"is_reserved":false,"is_disabled":false,"rental_uris":{"android":"levelo://app?vid=189ffb50-6abf-43b3-bc9c-489863d3d195","ios":"levelo://app?vid=189ffb50-6abf-43b3-bc9c-489863d3d195"},"vehicle_type_id":"4","last_reported":1753856401,"current_range_meters":16400,"station_id":"ce4bh392rcd13ifvqdl0","pricing_plan_id":"cebpf4jnsgd1na2vs0mg"},{"bike_id":"19295018-235d-4f62-9c12-0203c908e699","system_id":"levelo_inurba_marseille","lat":43.22933,"lon":5.35379,"is_reserved":false,"is_disabled":false,"rental_uris":{"android":"levelo://app?vid=19295018-235d-4f62-9c12-0203c908e699","ios":"levelo://app?vid=19295018-235d-4f62-9c12-0203c908e699"},"vehicle_type_id":"4","last_reported":1753856401,"current_range_meters":16400,"station_id":"cpo3532slgdg3j2ikp40","pricing_plan_id":"cebpf4jnsgd1na2vs0mg"},{"bike_id":"05b79db3-f0fb-414e-9f53-32e4bb665b59","system_id":"levelo_inurba_marseille","lat":43.26561,"lon":5.39003,"is_reserved":false,"is_disabled":false,"rental_uris":{"android":"levelo://app?vid=05b79db3-f0fb-414e-9f53-32e4bb665b59","ios":"levelo://app?vid=05b79db3-f0fb-414e-9f53-32e4bb665b59"},"vehicle_type_id":"4","last_reported":1753856401,"current_range_meters":16400,"station_id":"ce4bhe12rcd13ifvqf30","pricing_plan_id":"cebpf4jnsgd1na2vs0mg"},{"bike_id":"441278bf-caa7-49ad-9c25-18de6801ac47","system_id":"levelo_inurba_marseille","lat":43.2929,"lon":5.40116,"is_reserved":false,"is_disabled":false,"rental_uris":{"android":"levelo://app?vid=441278bf-caa7-49ad-9c25-18de6801ac47","ios":"levelo://app?vid=441278bf-caa7-49ad-9c25-18de6801ac47"},"vehicle_type_id":"4","last_reported":1753856401,"current_range_meters":16400,"station_id":"ce4bh312rcd13ifvqdk0","pricing_plan_id":"cebpf4jnsgd1na2vs0mg"},{"bike_id":"cc13585f-f7f0-47dc-8db0-d401fc430042","system_id":"levelo_inurba_marseille","lat":43.310687,"lon":5.38358,"is_reserved":false,"is_disabled":false,"rental_uris":{"android":"levelo://app?vid=cc13585f-f7f0-47dc-8db0-d401fc430042","ios":"levelo://app?vid=cc13585f-f7f0-47dc-8db0-d401fc430042"},"vehicle_type_id":"4","last_reported":1753856401,"current_range_meters":16400,"station_id":"ce4bgv92rcd13ifvqcr0","pricing_plan_id":"cebpf4jnsgd1na2vs0mg"},{"bike_id":"5f72df66-2d68-4c6e-a917-44e1dcfede98","system_id":"levelo_inurba_marseille","lat":43.22928,"lon":5.35392,"is_reserved":false,"is_disabled":false,"rental_uris":{"android":"levelo://app?vid=5f72df66-2d68-4c6e-a917-44e1dcfede98","ios":"levelo://app?vid=5f72df66-2d68-4c6e-a917-44e1dcfede98"},"vehicle_type_id":"4","last_reported":1753856401,"current_range_meters":16400,"station_id":"cpo3532slgdg3j2ikp40","pricing_plan_id":"cebpf4jnsgd1na2vs0mg"},{"bike_id":"b1e61992-1436-4e72-82d0-0529c813fc3f","system_id":"levelo_inurba_marseille","lat":43.29892,"lon":5.38902,"is_reserved":false,"is_disabled":false,"rental_uris":{"android":"levelo://app?vid=b1e61992-1436-4e72-82d0-0529c813fc3f","ios":"levelo://app?vid=b1e61992-1436-4e72-82d0-0529c813fc3f"},"vehicle_type_id":"4","last_reported":1753856401,"current_range_meters":16400,"station_id":"ce4bh392rcd13ifvqdl0","pricing_plan_id":"cebpf4jnsgd1na2vs0mg"},{"bike_id":"ef34193b-f41f-45c2-b2ed-32783468dc1c","system_id":"levelo_inurba_marseille","lat":43.3015,"lon":5.38123,"is_reserved":false,"is_disabled":false,"rental_uris":{"android":"levelo://app?vid=ef34193b-f41f-45c2-b2ed-32783468dc1c","ios":"levelo://app?vid=ef34193b-f41f-45c2-b2ed-32783468dc1c"},"vehicle_type_id":"4","last_reported":1753856401,"current_range_meters":16400,"station_id":"ce4bgjp2rcd13ifvqbh0","pricing_plan_id":"cebpf4jnsgd1na2vs0mg"},{"bike_id":"9d4b7b75-d54c-4d03-a0f1-66cb859c01ba","system_id":"levelo_inurba_marseille","lat":43.28468,"lon":5.38421,"is_reserved":false,"is_disabled":false,"rental_uris":{"android":"levelo://app?vid=9d4b7b75-d54c-4d03-a0f1-66cb859c01ba","ios":"levelo://app?vid=9d4b7b75-d54c-4d03-a0f1-66cb859c01ba"},"vehicle_type_id":"4","last_reported":1753856401,"current_range_meters":16400,"station_id":"ce4bh512rcd13ifvqe3g","pricing_plan_id":"cebpf4jnsgd1na2vs0mg"},{"bike_id":"daabd21d-fe72-4bef-9caa-c5886e1b6fe4","system_id":"levelo_inurba_marseille","lat":43.31988,"lon":5.37413,"is_reserved":false,"is_disabled":false,"rental_uris":{"android":"levelo://app?vid=daabd21d-fe72-4bef-9caa-c5886e1b6fe4","ios":"levelo://app?vid=daabd21d-fe72-4bef-9caa-c5886e1b6fe4"},"vehicle_type_id":"4","last_reported":1753856401,"current_range_meters":16400,"station_id":"","pricing_plan_id":"cebpf4jnsgd1na2vs0mg"},{"bike_id":"2e1bdbd1-042c-4bf4-b623-908b6301c20d","system_id":"levelo_inurba_marseille","lat":43.28136,"lon":5.441952,"is_reserved":false,"is_disabled":false,"rental_uris":{"android":"levelo://app?vid=2e1bdbd1-042c-4bf4-b623-908b6301c20d","ios":"levelo://app?vid=2e1bdbd1-042c-4bf4-b623-908b6301c20d"},"vehicle_type_id":"4","last_reported":1753856401,"current_range_meters":16400,"station_id":"","pricing_plan_id":"cebpf4jnsgd1na2vs0mg"},{"bike_id":"6b5a8423-59e6-41e0-9800-c3f91ce1824a","system_id":"levelo_inurba_marseille","lat":43.24702,"lon":5.38121,"is_reserved":false,"is_disabled":true,"rental_uris":{"android":"levelo://app?vid=6b5a8423-59e6-41e0-9800-c3f91ce1824a","ios":"levelo://app?vid=6b5a8423-59e6-41e0-9800-c3f91ce1824a"},"vehicle_type_id":"4","last_reported":1753856401,"current_range_meters":16400,"station_id":"","pricing_plan_id":"cebpf4jnsgd1na2vs0mg"},{"bike_id":"746c3209-aa97-4d6e-bb69-2a85cdd5ec72","system_id":"levelo_inurba_marseille","lat":43.22504,"lon":5.34781,"is_reserved":false,"is_disabled":false,"rental_uris":{"android":"levelo://app?vid=746c3209-aa97-4d6e-bb69-2a85cdd5ec72","ios":"levelo://app?vid=746c3209-aa97-4d6e-bb69-2a85cdd5ec72"},"vehicle_type_id":"4","last_reported":1753856401,"current_range_meters":16400,"station_id":"st_cvj5dfep6f1abm77gieg","pricing_plan_id":"cebpf4jnsgd1na2vs0mg"},{"bike_id":"4a85ab03-afe8-4509-b5da-4ba0f7e36fe9","system_id":"levelo_inurba_marseille","lat":43.26666,"lon":5.38283,"is_reserved":false,"is_disabled":true,"rental_uris":{"android":"levelo://app?vid=4a85ab03-afe8-4509-b5da-4ba0f7e36fe9","ios":"levelo://app?vid=4a85ab03-afe8-4509-b5da-4ba0f7e36fe9"},"vehicle_type_id":"4","last_reported":1753856401,"current_range_meters":16800,"station_id":"ce4bhg92rcd13ifvqf90","pricing_plan_id":"cebpf4jnsgd1na2vs0mg"},{"bike_id":"b7e63ea0-539d-443d-ab1d-49b82a6a1b6b","system_id":"levelo_inurba_marseille","lat":43.23151,"lon":5.43716,"is_reserved":false,"is_disabled":false,"rental_uris":{"android":"levelo://app?vid=b7e63ea0-539d-443d-ab1d-49b82a6a1b6b","ios":"levelo://app?vid=b7e63ea0-539d-443d-ab1d-49b82a6a1b6b"},"vehicle_type_id":"4","last_reported":1753856401,"current_range_meters":16800,"station_id":"ce4bhmp2rcd13ifvqgog","pricing_plan_id":"cebpf4jnsgd1na2vs0mg"},{"bike_id":"8f2c2194-56a7-4a04-8742-1123e870981c","system_id":"levelo_inurba_marseille","lat":43.28419,"lon":5.37522,"is_reserved":false,"is_disabled":false,"rental_uris":{"android":"levelo://app?vid=8f2c2194-56a7-4a04-8742-1123e870981c","ios":"levelo://app?vid=8f2c2194-56a7-4a04-8742-1123e870981c"},"vehicle_type_id":"4","last_reported":1753856401,"current_range_meters":16800,"station_id":"ce4bh412rcd13ifvqds0","pricing_plan_id":"cebpf4jnsgd1na2vs0mg"},{"bike_id":"45758c97-459f-44bf-b540-43210b346d88","system_id":"levelo_inurba_marseille","lat":43.29895,"lon":5.4366,"is_reserved":false,"is_disabled":false,"rental_uris":{"android":"levelo://app?vid=45758c97-459f-44bf-b540-43210b346d88","ios":"levelo://app?vid=45758c97-459f-44bf-b540-43210b346d88"},"vehicle_type_id":"4","last_reported":1753856401,"current_range_meters":16800,"station_id":"ce4bhpp2rcd13ifvqhfg","pricing_plan_id":"cebpf4jnsgd1na2vs0mg"},{"bike_id":"6590494b-43e7-43e0-b312-c754fd5ea433","system_id":"levelo_inurba_marseille","lat":43.29054,"lon":5.42979,"is_reserved":false,"is_disabled":false,"rental_uris":{"android":"levelo://app?vid=6590494b-43e7-43e0-b312-c754fd5ea433","ios":"levelo://app?vid=6590494b-43e7-43e0-b312-c754fd5ea433"},"vehicle_type_id":"4","last_reported":1753856401,"current_range_meters":16800,"station_id":"","pricing_plan_id":"cebpf4jnsgd1na2vs0mg"},{"bike_id":"7db6160a-39e9-46b7-a3ea-f432669ebc4e","system_id":"levelo_inurba_marseille","lat":43.27936,"lon":5.4104,"is_reserved":false,"is_disabled":false,"rental_uris":{"android":"levelo://app?vid=7db6160a-39e9-46b7-a3ea-f432669ebc4e","ios":"levelo://app?vid=7db6160a-39e9-46b7-a3ea-f432669ebc4e"},"vehicle_type_id":"4","last_reported":1753856401,"current_range_meters":16800,"station_id":"ce4bhnp2rcd13ifvqh0g","pricing_plan_id":"cebpf4jnsgd1na2vs0mg"},{"bike_id":"039afcc9-554e-46c7-986f-df0551137072","system_id":"levelo_inurba_marseille","lat":43.29259,"lon":5.38424,"is_reserved":false,"is_disabled":true,"rental_uris":{"android":"levelo://app?vid=039afcc9-554e-46c7-986f-df0551137072","ios":"levelo://app?vid=039afcc9-554e-46c7-986f-df0551137072"},"vehicle_type_id":"4","last_reported":1753856401,"current_range_meters":16800,"station_id":"ce4bh692rcd13ifvqea0","pricing_plan_id":"cebpf4jnsgd1na2vs0mg"},{"bike_id":"68cfc082-9322-4155-9ac4-0c3a010f6d6f","system_id":"levelo_inurba_marseille","lat":43.29522,"lon":5.37507,"is_reserved":false,"is_disabled":false,"rental_uris":{"android":"levelo://app?vid=68cfc082-9322-4155-9ac4-0c3a010f6d6f","ios":"levelo://app?vid=68cfc082-9322-4155-9ac4-0c3a010f6d6f"},"vehicle_type_id":"4","last_reported":1753856401,"current_range_meters":16800,"station_id":"ce4bgkp2rcd13ifvqbmg","pricing_plan_id":"cebpf4jnsgd1na2vs0mg"},{"bike_id":"0642bec0-d5df-45d1-8f24-13fa0bd6adc2","system_id":"levelo_inurba_marseille","lat":43.27813,"lon":5.40703,"is_reserved":false,"is_disabled":false,"rental_uris":{"android":"levelo://app?vid=0642bec0-d5df-45d1-8f24-13fa0bd6adc2","ios":"levelo://app?vid=0642bec0-d5df-45d1-8f24-13fa0bd6adc2"},"vehicle_type_id":"4","last_reported":1753856401,"current_range_meters":16800,"station_id":"ce4bhnh2rcd13ifvqgtg","pricing_plan_id":"cebpf4jnsgd1na2vs0mg"},{"bike_id":"fc72750c-8629-412d-8606-ffe7b2eda556","system_id":"levelo_inurba_marseille","lat":43.275,"lon":5.42441,"is_reserved":false,"is_disabled":false,"rental_uris":{"android":"levelo://app?vid=fc72750c-8629-412d-8606-ffe7b2eda556","ios":"levelo://app?vid=fc72750c-8629-412d-8606-ffe7b2eda556"},"vehicle_type_id":"4","last_reported":1753856401,"current_range_meters":17200,"station_id":"ce4bhn92rcd13ifvqgrg","pricing_plan_id":"cebpf4jnsgd1na2vs0mg"},{"bike_id":"f0e49fed-f5f3-4122-92f2-15270f110caa","system_id":"levelo_inurba_marseille","lat":43.26229,"lon":5.40452,"is_reserved":false,"is_disabled":false,"rental_uris":{"android":"levelo://app?vid=f0e49fed-f5f3-4122-92f2-15270f110caa","ios":"levelo://app?vid=f0e49fed-f5f3-4122-92f2-15270f110caa"},"vehicle_type_id":"4","last_reported":1753856401,"current_range_meters":17200,"station_id":"ce4bhmh2rcd13ifvqgmg","pricing_plan_id":"cebpf4jnsgd1na2vs0mg"},{"bike_id":"2c4400c7-2bd6-4d8f-805d-b1037b3fe518","system_id":"levelo_inurba_marseille","lat":43.22512,"lon":5.3478,"is_reserved":false,"is_disabled":false,"rental_uris":{"android":"levelo://app?vid=2c4400c7-2bd6-4d8f-805d-b1037b3fe518","ios":"levelo://app?vid=2c4400c7-2bd6-4d8f-805d-b1037b3fe518"},"vehicle_type_id":"4","last_reported":1753856401,"current_range_meters":17200,"station_id":"st_cvj5dfep6f1abm77gieg","pricing_plan_id":"cebpf4jnsgd1na2vs0mg"},{"bike_id":"1a0ca16f-4b93-4052-acd5-440501907ad3","system_id":"levelo_inurba_marseille","lat":43.23192,"lon":5.35551,"is_reserved":false,"is_disabled":false,"rental_uris":{"android":"levelo://app?vid=1a0ca16f-4b93-4052-acd5-440501907ad3","ios":"levelo://app?vid=1a0ca16f-4b93-4052-acd5-440501907ad3"},"vehicle_type_id":"4","last_reported":1753856401,"current_range_meters":17200,"station_id":"ce4bhu92rcd13ifvqi70","pricing_plan_id":"cebpf4jnsgd1na2vs0mg"},{"bike_id":"b89ad748-f7c1-4685-8c85-3009b186b7d0","system_id":"levelo_inurba_marseille","lat":43.248169,"lon":5.374633,"is_reserved":false,"is_disabled":false,"rental_uris":{"android":"levelo://app?vid=b89ad748-f7c1-4685-8c85-3009b186b7d0","ios":"levelo://app?vid=b89ad748-f7c1-4685-8c85-3009b186b7d0"},"vehicle_type_id":"4","last_reported":1753856401,"current_range_meters":17200,"station_id":"ce4bhgh2rcd13ifvqfb0","pricing_plan_id":"cebpf4jnsgd1na2vs0mg"},{"bike_id":"9230ad69-c610-491e-946e-73a28385337c","system_id":"levelo_inurba_marseille","lat":43.29536,"lon":5.38529,"is_reserved":false,"is_disabled":true,"rental_uris":{"android":"levelo://app?vid=9230ad69-c610-491e-946e-73a28385337c","ios":"levelo://app?vid=9230ad69-c610-491e-946e-73a28385337c"},"vehicle_type_id":"4","last_reported":1753856401,"current_range_meters":17600,"station_id":"ce4bgih2rcd13ifvqba0","pricing_plan_id":"cebpf4jnsgd1na2vs0mg"},{"bike_id":"9a8ff177-5e4b-4807-9411-27bb21d50985","system_id":"levelo_inurba_marseille","lat":43.28853,"lon":5.358465,"is_reserved":false,"is_disabled":false,"rental_uris":{"android":"levelo://app?vid=9a8ff177-5e4b-4807-9411-27bb21d50985","ios":"levelo://app?vid=9a8ff177-5e4b-4807-9411-27bb21d50985"},"vehicle_type_id":"4","last_reported":1753856401,"current_range_meters":17600,"station_id":"","pricing_plan_id":"cebpf4jnsgd1na2vs0mg"},{"bike_id":"0b0ca385-bce1-4a3a-8391-2af449e4c95b","system_id":"levelo_inurba_marseille","lat":43.296221,"lon":5.377053,"is_reserved":false,"is_disabled":false,"rental_uris":{"android":"levelo://app?vid=0b0ca385-bce1-4a3a-8391-2af449e4c95b","ios":"levelo://app?vid=0b0ca385-bce1-4a3a-8391-2af449e4c95b"},"vehicle_type_id":"4","last_reported":1753856401,"current_range_meters":17600,"station_id":"ce4bgi92rcd13ifvqb90","pricing_plan_id":"cebpf4jnsgd1na2vs0mg"},{"bike_id":"0392f33b-f5c1-4bd1-8449-5233276d49ad","system_id":"levelo_inurba_marseille","lat":43.241214,"lon":5.396082,"is_reserved":false,"is_disabled":false,"rental_uris":{"android":"levelo://app?vid=0392f33b-f5c1-4bd1-8449-5233276d49ad","ios":"levelo://app?vid=0392f33b-f5c1-4bd1-8449-5233276d49ad"},"vehicle_type_id":"4","last_reported":1753856401,"current_range_meters":17600,"station_id":"ce4bhn12rcd13ifvqgpg","pricing_plan_id":"cebpf4jnsgd1na2vs0mg"},{"bike_id":"aff1c2a6-2116-45b8-9d9e-2b8797d6e9ec","system_id":"levelo_inurba_marseille","lat":43.28704,"lon":5.37397,"is_reserved":false,"is_disabled":false,"rental_uris":{"android":"levelo://app?vid=aff1c2a6-2116-45b8-9d9e-2b8797d6e9ec","ios":"levelo://app?vid=aff1c2a6-2116-45b8-9d9e-2b8797d6e9ec"},"vehicle_type_id":"4","last_reported":1753856401,"current_range_meters":18000,"station_id":"ce4bh3p2rcd13ifvqdq0","pricing_plan_id":"cebpf4jnsgd1na2vs0mg"},{"bike_id":"17b835b0-8d87-4807-964d-7df4ce9a697a","system_id":"levelo_inurba_marseille","lat":43.30172,"lon":5.38084,"is_reserved":false,"is_disabled":false,"rental_uris":{"android":"levelo://app?vid=17b835b0-8d87-4807-964d-7df4ce9a697a","ios":"levelo://app?vid=17b835b0-8d87-4807-964d-7df4ce9a697a"},"vehicle_type_id":"4","last_reported":1753856401,"current_range_meters":18000,"station_id":"ce4bgjp2rcd13ifvqbh0","pricing_plan_id":"cebpf4jnsgd1na2vs0mg"},{"bike_id":"d1ef298e-87b7-47a5-aaec-79fd9c0baa71","system_id":"levelo_inurba_marseille","lat":43.24812,"lon":5.37452,"is_reserved":false,"is_disabled":false,"rental_uris":{"android":"levelo://app?vid=d1ef298e-87b7-47a5-aaec-79fd9c0baa71","ios":"levelo://app?vid=d1ef298e-87b7-47a5-aaec-79fd9c0baa71"},"vehicle_type_id":"4","last_reported":1753856401,"current_range_meters":18000,"station_id":"ce4bhgh2rcd13ifvqfb0","pricing_plan_id":"cebpf4jnsgd1na2vs0mg"},{"bike_id":"cd135ec5-1f0e-488f-a7bf-0e94c2e06e6f","system_id":"levelo_inurba_marseille","lat":43.212056,"lon":5.350533,"is_reserved":false,"is_disabled":false,"rental_uris":{"android":"levelo://app?vid=cd135ec5-1f0e-488f-a7bf-0e94c2e06e6f","ios":"levelo://app?vid=cd135ec5-1f0e-488f-a7bf-0e94c2e06e6f"},"vehicle_type_id":"4","last_reported":1753856401,"current_range_meters":18000,"station_id":"st_cvj6sg6p6f1abm77japg","pricing_plan_id":"cebpf4jnsgd1na2vs0mg"},{"bike_id":"3dc94204-2f3e-4b8d-a98a-2eebdfcaff10","system_id":"levelo_inurba_marseille","lat":43.22473,"lon":5.34808,"is_reserved":false,"is_disabled":false,"rental_uris":{"android":"levelo://app?vid=3dc94204-2f3e-4b8d-a98a-2eebdfcaff10","ios":"levelo://app?vid=3dc94204-2f3e-4b8d-a98a-2eebdfcaff10"},"vehicle_type_id":"4","last_reported":1753856401,"current_range_meters":18000,"station_id":"st_cvj5dfep6f1abm77gieg","pricing_plan_id":"cebpf4jnsgd1na2vs0mg"},{"bike_id":"52aa1d0d-4466-44b5-a116-ec1102c8f422","system_id":"levelo_inurba_marseille","lat":43.3289,"lon":5.36023,"is_reserved":false,"is_disabled":false,"rental_uris":{"android":"levelo://app?vid=52aa1d0d-4466-44b5-a116-ec1102c8f422","ios":"levelo://app?vid=52aa1d0d-4466-44b5-a116-ec1102c8f422"},"vehicle_type_id":"4","last_reported":1753856401,"current_range_meters":18000,"station_id":"","pricing_plan_id":"cebpf4jnsgd1na2vs0mg"},{"bike_id":"0233d43e-49c3-401f-99b5-e5c9694505fc","system_id":"levelo_inurba_marseille","lat":43.30482,"lon":5.37895,"is_reserved":false,"is_disabled":false,"rental_uris":{"android":"levelo://app?vid=0233d43e-49c3-401f-99b5-e5c9694505fc","ios":"levelo://app?vid=0233d43e-49c3-401f-99b5-e5c9694505fc"},"vehicle_type_id":"4","last_reported":1753856401,"current_range_meters":18800,"station_id":"ce4bgup2rcd13ifvqcn0","pricing_plan_id":"cebpf4jnsgd1na2vs0mg"},{"bike_id":"da068f85-c478-4312-aa31-1f0d2ac3b4e2","system_id":"levelo_inurba_marseille","lat":43.30154,"lon":5.38081,"is_reserved":false,"is_disabled":false,"rental_uris":{"android":"levelo://app?vid=da068f85-c478-4312-aa31-1f0d2ac3b4e2","ios":"levelo://app?vid=da068f85-c478-4312-aa31-1f0d2ac3b4e2"},"vehicle_type_id":"4","last_reported":1753856401,"current_range_meters":18800,"station_id":"ce4bgjp2rcd13ifvqbh0","pricing_plan_id":"cebpf4jnsgd1na2vs0mg"},{"bike_id":"e40c3280-49b0-490b-abb0-b04091477816","system_id":"levelo_inurba_marseille","lat":43.28035,"lon":5.36934,"is_reserved":false,"is_disabled":false,"rental_uris":{"android":"levelo://app?vid=e40c3280-49b0-490b-abb0-b04091477816","ios":"levelo://app?vid=e40c3280-49b0-490b-abb0-b04091477816"},"vehicle_type_id":"4","last_reported":1753856401,"current_range_meters":18800,"station_id":"ce4bha12rcd13ifvqef0","pricing_plan_id":"cebpf4jnsgd1na2vs0mg"},{"bike_id":"63d9760d-e0fb-45e6-b450-e7f29dac23b5","system_id":"levelo_inurba_marseille","lat":43.30379,"lon":5.40092,"is_reserved":false,"is_disabled":false,"rental_uris":{"android":"levelo://app?vid=63d9760d-e0fb-45e6-b450-e7f29dac23b5","ios":"levelo://app?vid=63d9760d-e0fb-45e6-b450-e7f29dac23b5"},"vehicle_type_id":"4","last_reported":1753856401,"current_range_meters":18800,"station_id":"","pricing_plan_id":"cebpf4jnsgd1na2vs0mg"},{"bike_id":"08ca8ae8-b77c-49d8-b9a3-9de07830275f","system_id":"levelo_inurba_marseille","lat":43.27499,"lon":5.42449,"is_reserved":false,"is_disabled":false,"rental_uris":{"android":"levelo://app?vid=08ca8ae8-b77c-49d8-b9a3-9de07830275f","ios":"levelo://app?vid=08ca8ae8-b77c-49d8-b9a3-9de07830275f"},"vehicle_type_id":"4","last_reported":1753856401,"current_range_meters":18800,"station_id":"ce4bhn92rcd13ifvqgrg","pricing_plan_id":"cebpf4jnsgd1na2vs0mg"},{"bike_id":"065b6bf8-a1ae-4bbc-bf0f-5807d28885fd","system_id":"levelo_inurba_marseille","lat":43.29034,"lon":5.39977,"is_reserved":false,"is_disabled":false,"rental_uris":{"android":"levelo://app?vid=065b6bf8-a1ae-4bbc-bf0f-5807d28885fd","ios":"levelo://app?vid=065b6bf8-a1ae-4bbc-bf0f-5807d28885fd"},"vehicle_type_id":"4","last_reported":1753856401,"current_range_meters":18800,"station_id":"ce4bh392rcd13ifvqdm0","pricing_plan_id":"cebpf4jnsgd1na2vs0mg"},{"bike_id":"34be742c-6e59-4c4c-a509-950f8293f589","system_id":"levelo_inurba_marseille","lat":43.22933,"lon":5.35362,"is_reserved":false,"is_disabled":false,"rental_uris":{"android":"levelo://app?vid=34be742c-6e59-4c4c-a509-950f8293f589","ios":"levelo://app?vid=34be742c-6e59-4c4c-a509-950f8293f589"},"vehicle_type_id":"4","last_reported":1753856401,"current_range_meters":18800,"station_id":"cpo3532slgdg3j2ikp40","pricing_plan_id":"cebpf4jnsgd1na2vs0mg"},{"bike_id":"82421548-9820-4ad4-b3c2-dfb64180eb25","system_id":"levelo_inurba_marseille","lat":43.2122,"lon":5.35052,"is_reserved":false,"is_disabled":false,"rental_uris":{"android":"levelo://app?vid=82421548-9820-4ad4-b3c2-dfb64180eb25","ios":"levelo://app?vid=82421548-9820-4ad4-b3c2-dfb64180eb25"},"vehicle_type_id":"4","last_reported":1753856401,"current_range_meters":18800,"station_id":"","pricing_plan_id":"cebpf4jnsgd1na2vs0mg"},{"bike_id":"bf009dd9-4e5d-4892-97ae-330c6a42c536","system_id":"levelo_inurba_marseille","lat":43.231932,"lon":5.355446,"is_reserved":false,"is_disabled":false,"rental_uris":{"android":"levelo://app?vid=bf009dd9-4e5d-4892-97ae-330c6a42c536","ios":"levelo://app?vid=bf009dd9-4e5d-4892-97ae-330c6a42c536"},"vehicle_type_id":"4","last_reported":1753856401,"current_range_meters":19200,"station_id":"ce4bhu92rcd13ifvqi70","pricing_plan_id":"cebpf4jnsgd1na2vs0mg"},{"bike_id":"d126d3e6-8f43-4d1e-929c-1f29f5f64def","system_id":"levelo_inurba_marseille","lat":43.32364,"lon":5.38888,"is_reserved":false,"is_disabled":false,"rental_uris":{"android":"levelo://app?vid=d126d3e6-8f43-4d1e-929c-1f29f5f64def","ios":"levelo://app?vid=d126d3e6-8f43-4d1e-929c-1f29f5f64def"},"vehicle_type_id":"4","last_reported":1753856401,"current_range_meters":19200,"station_id":"ce4bhqp2rcd13ifvqhog","pricing_plan_id":"cebpf4jnsgd1na2vs0mg"},{"bike_id":"f605ff71-c624-4936-a518-95ee9acc86fd","system_id":"levelo_inurba_marseille","lat":43.22524,"lon":5.34792,"is_reserved":false,"is_disabled":false,"rental_uris":{"android":"levelo://app?vid=f605ff71-c624-4936-a518-95ee9acc86fd","ios":"levelo://app?vid=f605ff71-c624-4936-a518-95ee9acc86fd"},"vehicle_type_id":"4","last_reported":1753856401,"current_range_meters":19200,"station_id":"st_cvj5dfep6f1abm77gieg","pricing_plan_id":"cebpf4jnsgd1na2vs0mg"},{"bike_id":"a35b2685-ed75-4906-9123-b3dadd434193","system_id":"levelo_inurba_marseille","lat":43.29067,"lon":5.35903,"is_reserved":false,"is_disabled":false,"rental_uris":{"android":"levelo://app?vid=a35b2685-ed75-4906-9123-b3dadd434193","ios":"levelo://app?vid=a35b2685-ed75-4906-9123-b3dadd434193"},"vehicle_type_id":"4","last_reported":1753856401,"current_range_meters":19200,"station_id":"ce4bha92rcd13ifvqeg0","pricing_plan_id":"cebpf4jnsgd1na2vs0mg"},{"bike_id":"48607878-ffc8-4ede-8469-86db38134243","system_id":"levelo_inurba_marseille","lat":43.303139,"lon":5.368907,"is_reserved":false,"is_disabled":false,"rental_uris":{"android":"levelo://app?vid=48607878-ffc8-4ede-8469-86db38134243","ios":"levelo://app?vid=48607878-ffc8-4ede-8469-86db38134243"},"vehicle_type_id":"4","last_reported":1753856401,"current_range_meters":19200,"station_id":"ce4bgqh2rcd13ifvqc5g","pricing_plan_id":"cebpf4jnsgd1na2vs0mg"},{"bike_id":"faf3f5b8-082c-4f7a-b588-86cdf114a8e7","system_id":"levelo_inurba_marseille","lat":43.26581,"lon":5.39025,"is_reserved":false,"is_disabled":false,"rental_uris":{"android":"levelo://app?vid=faf3f5b8-082c-4f7a-b588-86cdf114a8e7","ios":"levelo://app?vid=faf3f5b8-082c-4f7a-b588-86cdf114a8e7"},"vehicle_type_id":"4","last_reported":1753856401,"current_range_meters":19200,"station_id":"ce4bhe12rcd13ifvqf30","pricing_plan_id":"cebpf4jnsgd1na2vs0mg"},{"bike_id":"a155ce09-ce54-4cc5-b5c1-7770cc988149","system_id":"levelo_inurba_marseille","lat":43.29541,"lon":5.39392,"is_reserved":false,"is_disabled":false,"rental_uris":{"android":"levelo://app?vid=a155ce09-ce54-4cc5-b5c1-7770cc988149","ios":"levelo://app?vid=a155ce09-ce54-4cc5-b5c1-7770cc988149"},"vehicle_type_id":"4","last_reported":1753856401,"current_range_meters":19200,"station_id":"ce4bh292rcd13ifvqdf0","pricing_plan_id":"cebpf4jnsgd1na2vs0mg"},