{"last_updated":1730920026,"ttl":60,"version":"2.2","data":{"bikes":[{"bike_id":"ad7bd7b0-39aa-4255-b369-36ca8455a7df","system_id":"levelo_inurba_marseille","lat":43.31996,"lon":5.38146,"is_reserved":false,"is_disabled":false,"rental_uris":{"android":"levelo://app?vid=ad7bd7b0-39aa-4255-b369-36ca8455a7df","ios":"levelo://app?vid=ad7bd7b0-39aa-4255-b369-36ca8455a7df"},"vehicle_type_id":"4","last_reported":1730920026,"current_range_meters":17200,"station_id":"ce4bhr12rcd13ifvqhpg","pricing_plan_id":"cebpf4jnsgd1na2vs0mg"},{"bike_id":"1d6369ea-d7b1-4de0-8bcb-b88a6757b0f8","system_id":"levelo_inurba_marseille","lat":43.32113,"lon":5.36772,"is_reserved":false,"is_disabled":false,"rental_uris":{"android":"levelo://app?vid=1d6369ea-d7b1-4de0-8bcb-b88a6757b0f8","ios":"levelo://app?vid=1d6369ea-d7b1-4de0-8bcb-b88a6757b0f8"},"vehicle_type_id":"4","last_reported":1730920026,"current_range_meters":37600,"station_id":"ce4bhrh2rcd13ifvqhug","pricing_plan_id":"cebpf4jnsgd1na2vs0mg"},{"bike_id":"b79739f5-aaa0-49a4-a53d-2b13f632e303","system_id":"levelo_inurba_marseille","lat":43.31704,"lon":5.40458,"is_reserved":false,"is_disabled":false,"rental_uris":{"android":"levelo://app?vid=b79739f5-aaa0-49a4-a53d-2b13f632e303","ios":"levelo://app?vid=b79739f5-aaa0-49a4-a53d-2b13f632e303"},"vehicle_type_id":"4","last_reported":1730920026,"current_range_meters":13600,"station_id":"ce4bh012rcd13ifvqd00","pricing_plan_id":"cebpf4jnsgd1na2vs0mg"},{"bike_id":"fca4011f-ad92-459b-ab27-94a6ccd7851b","system_id":"levelo_inurba_marseille","lat":43.27177,"lon":5.40995,"is_reserved":false,"is_disabled":false,"rental_uris":{"android":"levelo://app?vid=fca4011f-ad92-459b-ab27-94a6ccd7851b","ios":"levelo://app?vid=fca4011f-ad92-459b-ab27-94a6ccd7851b"},"vehicle_type_id":"4","last_reported":1730920026,"current_range_meters":35200,"station_id":"ce4bhl12rcd13ifvqgf0","pricing_plan_id":"cebpf4jnsgd1na2vs0mg"},{"bike_id":"2358f1b7-8303-46b0-8fd0-ffc2b5a34c06","system_id":"levelo_inurba_marseille","lat":43.24663,"lon":5.3817,"is_reserved":false,"is_disabled":false,"rental_uris":{"android":"levelo://app?vid=2358f1b7-8303-46b0-8fd0-ffc2b5a34c06","ios":"levelo://app?vid=2358f1b7-8303-46b0-8fd0-ffc2b5a34c06"},"vehicle_type_id":"4","last_reported":1730920026,"current_range_meters":38400,"station_id":"ce4bhih2rcd13ifvqfr0","pricing_plan_id":"cebpf4jnsgd1na2vs0mg"},{"bike_id":"efc23b83-4508-468e-97a5-ce19b0a4d2ca","system_id":"levelo_inurba_marseille","lat":43.29531,"lon":5.38552,"is_reserved":false,"is_disabled":false,"rental_uris":{"android":"levelo://app?vid=efc23b83-4508-468e-97a5-ce19b0a4d2ca","ios":"levelo://app?vid=efc23b83-4508-468e-97a5-ce19b0a4d2ca"},"vehicle_type_id":"4","last_reported":1730920026,"current_range_meters":27200,"station_id":"ce4bgih2rcd13ifvqba0","pricing_plan_id":"cebpf4jnsgd1na2vs0mg"},{"bike_id":"d386fd97-6c3d-467c-b1bf-bd1effebdeb3","system_id":"levelo_inurba_marseille","lat":43.30136,"lon":5.3987,"is_reserved":false,"is_disabled":false,"rental_uris":{"android":"levelo://app?vid=d386fd97-6c3d-467c-b1bf-bd1effebdeb3","ios":"levelo://app?vid=d386fd97-6c3d-467c-b1bf-bd1effebdeb3"},"vehicle_type_id":"4","last_reported":1730920026,"current_range_meters":38800,"station_id":"ce4bh0h2rcd13ifvqd40","pricing_plan_id":"cebpf4jnsgd1na2vs0mg"},{"bike_id":"ddb129d2-4109-4f3d-8589-9db10629dcbe","system_id":"levelo_inurba_marseille","lat":43.28856,"lon":5.35842,"is_reserved":false,"is_disabled":false,"rental_uris":{"android":"levelo://app?vid=ddb129d2-4109-4f3d-8589-9db10629dcbe","ios":"levelo://app?vid=ddb129d2-4109-4f3d-8589-9db10629dcbe"},"vehicle_type_id":"4","last_reported":1730920026,"current_range_meters":38800,"station_id":"ce4bhb12rcd13ifvqem0","pricing_plan_id":"cebpf4jnsgd1na2vs0mg"},{"bike_id":"aaf896be-23fc-4cde-b212-d643c208e7c1","system_id":"levelo_inurba_marseille","lat":43.304221,"lon":5.4129,"is_reserved":false,"is_disabled":false,"rental_uris":{"android":"levelo://app?vid=aaf896be-23fc-4cde-b212-d643c208e7c1","ios":"levelo://app?vid=aaf896be-23fc-4cde-b212-d643c208e7c1"},"vehicle_type_id":"4","last_reported":1730920026,"current_range_meters":36800,"station_id":"ce4bhop2rcd13ifvqh8g","pricing_plan_id":"cebpf4jnsgd1na2vs0mg"},{"bike_id":"2b1e29a8-028d-4b80-b389-6ca9637dad17","system_id":"levelo_inurba_marseille","lat":43.308821,"lon":5.371934,"is_reserved":false,"is_disabled":false,"rental_uris":{"android":"levelo://app?vid=2b1e29a8-028d-4b80-b389-6ca9637dad17","ios":"levelo://app?vid=2b1e29a8-028d-4b80-b389-6ca9637dad17"},"vehicle_type_id":"4","last_reported":1730920026,"current_range_meters":3200,"station_id":"ce4bgth2rcd13ifvqch0","pricing_plan_id":"cebpf4jnsgd1na2vs0mg"},{"bike_id":"72efadbb-bf11-43ff-96cf-c421a3f198ee","system_id":"levelo_inurba_marseille","lat":43.27621,"lon":5.3611,"is_reserved":false,"is_disabled":false,"rental_uris":{"android":"levelo://app?vid=72efadbb-bf11-43ff-96cf-c421a3f198ee","ios":"levelo://app?vid=72efadbb-bf11-43ff-96cf-c421a3f198ee"},"vehicle_type_id":"4","last_reported":1730920026,"current_range_meters":14800,"station_id":"ce4bgj92rcd13ifvqbe0","pricing_plan_id":"cebpf4jnsgd1na2vs0mg"},{"bike_id":"c37b4050-2d31-4eb7-8c5f-390f74b79285","system_id":"levelo_inurba_marseille","lat":43.30331,"lon":5.40431,"is_reserved":false,"is_disabled":false,"rental_uris":{"android":"levelo://app?vid=c37b4050-2d31-4eb7-8c5f-390f74b79285","ios":"levelo://app?vid=c37b4050-2d31-4eb7-8c5f-390f74b79285"},"vehicle_type_id":"4","last_reported":1730920026,"current_range_meters":21600,"station_id":"ce4bh012rcd13ifvqd10","pricing_plan_id":"cebpf4jnsgd1na2vs0mg"},{"bike_id":"e8c5a94c-115d-4efc-aeae-96d817313e30","system_id":"levelo_inurba_marseille","lat":43.30316,"lon":5.36901,"is_reserved":false,"is_disabled":false,"rental_uris":{"android":"levelo://app?vid=e8c5a94c-115d-4efc-aeae-96d817313e30","ios":"levelo://app?vid=e8c5a94c-115d-4efc-aeae-96d817313e30"},"vehicle_type_id":"4","last_reported":1730920026,"current_range_meters":38800,"station_id":"ce4bgqh2rcd13ifvqc5g","pricing_plan_id":"cebpf4jnsgd1na2vs0mg"},{"bike_id":"8af378d1-5bc4-457f-9470-74e88c52bda7","system_id":"levelo_inurba_marseille","lat":43.31996,"lon":5.38155,"is_reserved":false,"is_disabled":false,"rental_uris":{"android":"levelo://app?vid=8af378d1-5bc4-457f-9470-74e88c52bda7","ios":"levelo://app?vid=8af378d1-5bc4-457f-9470-74e88c52bda7"},"vehicle_type_id":"4","last_reported":1730920026,"current_range_meters":38800,"station_id":"ce4bhr12rcd13ifvqhpg","pricing_plan_id":"cebpf4jnsgd1na2vs0mg"},{"bike_id":"55fc641b-46b1-4285-8546-805cff3fb723","system_id":"levelo_inurba_marseille","lat":43.28076,"lon":5.39654,"is_reserved":false,"is_disabled":false,"rental_uris":{"android":"levelo://app?vid=55fc641b-46b1-4285-8546-805cff3fb723","ios":"levelo://app?vid=55fc641b-46b1-4285-8546-805cff3fb723"},"vehicle_type_id":"4","last_reported":1730920026,"current_range_meters":6800,"station_id":"ce4bho12rcd13ifvqh2g","pricing_plan_id":"cebpf4jnsgd1na2vs0mg"},{"bike_id":"92437862-9629-46f7-8ed5-946bc7784f02","system_id":"levelo_inurba_marseille","lat":43.31993,"lon":5.38156,"is_reserved":false,"is_disabled":false,"rental_uris":{"android":"levelo://app?vid=92437862-9629-46f7-8ed5-946bc7784f02","ios":"levelo://app?vid=92437862-9629-46f7-8ed5-946bc7784f02"},"vehicle_type_id":"4","last_reported":1730920026,"current_range_meters":30000,"station_id":"ce4bhr12rcd13ifvqhpg","pricing_plan_id":"cebpf4jnsgd1na2vs0mg"},{"bike_id":"44135612-fabe-4db6-b769-98ffa02d00e4","system_id":"levelo_inurba_marseille","lat":43.32287,"lon":5.38273,"is_reserved":false,"is_disabled":false,"rental_uris":{"android":"levelo://app?vid=44135612-fabe-4db6-b769-98ffa02d00e4","ios":"levelo://app?vid=44135612-fabe-4db6-b769-98ffa02d00e4"},"vehicle_type_id":"4","last_reported":1730920026,"current_range_meters":37600,"station_id":"ce4bhr12rcd13ifvqhqg","pricing_plan_id":"cebpf4jnsgd1na2vs0mg"},{"bike_id":"bc4d14c6-a409-4118-aa7c-2348e0bfb4b6","system_id":"levelo_inurba_marseille","lat":43.29637,"lon":5.40604,"is_reserved":false,"is_disabled":false,"rental_uris":{"android":"levelo://app?vid=bc4d14c6-a409-4118-aa7c-2348e0bfb4b6","ios":"levelo://app?vid=bc4d14c6-a409-4118-aa7c-2348e0bfb4b6"},"vehicle_type_id":"4","last_reported":1730920026,"current_range_meters":38800,"station_id":"ce4bh0h2rcd13ifvqd60","pricing_plan_id":"cebpf4jnsgd1na2vs0mg"},{"bike_id":"701523d9-1b3c-4253-b84d-c5e48c0380fd","system_id":"levelo_inurba_marseille","lat":43.29876,"lon":5.39742,"is_reserved":false,"is_disabled":false,"rental_uris":{"android":"levelo://app?vid=701523d9-1b3c-4253-b84d-c5e48c0380fd","ios":"levelo://app?vid=701523d9-1b3c-4253-b84d-c5e48c0380fd"},"vehicle_type_id":"4","last_reported":1730920026,"current_range_meters":27200,"station_id":"ce4bh0h2rcd13ifvqd50","pricing_plan_id":"cebpf4jnsgd1na2vs0mg"},{"bike_id":"4b8f51c7-3386-420b-a363-4efce99317bc","system_id":"levelo_inurba_marseille","lat":43.31528,"lon":5.3803,"is_reserved":false,"is_disabled":false,"rental_uris":{"android":"levelo://app?vid=4b8f51c7-3386-420b-a363-4efce99317bc","ios":"levelo://app?vid=4b8f51c7-3386-420b-a363-4efce99317bc"},"vehicle_type_id":"4","last_reported":1730920026,"current_range_meters":27600,"station_id":"ce4bhsp2rcd13ifvqi50","pricing_plan_id":"cebpf4jnsgd1na2vs0mg"},{"bike_id":"1e042949-838c-4779-9ed3-e835e41e7461","system_id":"levelo_inurba_marseille","lat":43.28002,"lon":5.40027,"is_reserved":false,"is_disabled":false,"rental_uris":{"android":"levelo://app?vid=1e042949-838c-4779-9ed3-e835e41e7461","ios":"levelo://app?vid=1e042949-838c-4779-9ed3-e835e41e7461"},"vehicle_type_id":"4","last_reported":1730920026,"current_range_meters":6800,"station_id":"ce4bho92rcd13ifvqh4g","pricing_plan_id":"cebpf4jnsgd1na2vs0mg"},{"bike_id":"8ab8f648-ce30-4cf5-afe6-0e778780037b","system_id":"levelo_inurba_marseille","lat":43.29421,"lon":5.38623,"is_reserved":false,"is_disabled":false,"rental_uris":{"android":"levelo://app?vid=8ab8f648-ce30-4cf5-afe6-0e778780037b","ios":"levelo://app?vid=8ab8f648-ce30-4cf5-afe6-0e778780037b"},"vehicle_type_id":"4","last_reported":1730920026,"current_range_meters":38800,"station_id":"ce4bh2h2rcd13ifvqdh0","pricing_plan_id":"cebpf4jnsgd1na2vs0mg"},{"bike_id":"94e4a7da-09f9-41d9-af50-47461b850798","system_id":"levelo_inurba_marseille","lat":43.26494,"lon":5.39544,"is_reserved":false,"is_disabled":false,"rental_uris":{"android":"levelo://app?vid=94e4a7da-09f9-41d9-af50-47461b850798","ios":"levelo://app?vid=94e4a7da-09f9-41d9-af50-47461b850798"},"vehicle_type_id":"4","last_reported":1730920026,"current_range_meters":39200,"station_id":"ce4bhi12rcd13ifvqfq0","pricing_plan_id":"cebpf4jnsgd1na2vs0mg"},{"bike_id":"d193bc45-6174-4162-a465-8c2f3b2de3aa","system_id":"levelo_inurba_marseille","lat":43.32338,"lon":5.40625,"is_reserved":false,"is_disabled":false,"rental_uris":{"android":"levelo://app?vid=d193bc45-6174-4162-a465-8c2f3b2de3aa","ios":"levelo://app?vid=d193bc45-6174-4162-a465-8c2f3b2de3aa"},"vehicle_type_id":"4","last_reported":1730920026,"current_range_meters":36800,"station_id":"ce4bhq92rcd13ifvqhjg","pricing_plan_id":"cebpf4jnsgd1na2vs0mg"},{"bike_id":"f62fbe6c-4670-4e23-a960-4449acc43908","system_id":"levelo_inurba_marseille","lat":43.27325,"lon":5.39076,"is_reserved":false,"is_disabled":false,"rental_uris":{"android":"levelo://app?vid=f62fbe6c-4670-4e23-a960-4449acc43908","ios":"levelo://app?vid=f62fbe6c-4670-4e23-a960-4449acc43908"},"vehicle_type_id":"4","last_reported":1730920026,"current_range_meters":36800,"station_id":"ce4bhgp2rcd13ifvqfe0","pricing_plan_id":"cebpf4jnsgd1na2vs0mg"},{"bike_id":"40512a4d-68bc-40a3-81d1-67cc73d350d9","system_id":"levelo_inurba_marseille","lat":43.27173,"lon":5.40996,"is_reserved":false,"is_disabled":false,"rental_uris":{"android":"levelo://app?vid=40512a4d-68bc-40a3-81d1-67cc73d350d9","ios":"levelo://app?vid=40512a4d-68bc-40a3-81d1-67cc73d350d9"},"vehicle_type_id":"4","last_reported":1730920026,"current_range_meters":28000,"station_id":"ce4bhl12rcd13ifvqgf0","pricing_plan_id":"cebpf4jnsgd1na2vs0mg"},{"bike_id":"8a401a8a-30f9-4643-ad63-74116d1b600f","system_id":"levelo_inurba_marseille","lat":43.32497,"lon":5.36565,"is_reserved":false,"is_disabled":false,"rental_uris":{"android":"levelo://app?vid=8a401a8a-30f9-4643-ad63-74116d1b600f","ios":"levelo://app?vid=8a401a8a-30f9-4643-ad63-74116d1b600f"},"vehicle_type_id":"4","last_reported":1730920026,"current_range_meters":38800,"station_id":"ce4bhs12rcd13ifvqhvg","pricing_plan_id":"cebpf4jnsgd1na2vs0mg"},{"bike_id":"171db454-9231-4690-bd0b-fa5dcfdd830b","system_id":"levelo_inurba_marseille","lat":43.31756,"lon":5.3902,"is_reserved":false,"is_disabled":false,"rental_uris":{"android":"levelo://app?vid=171db454-9231-4690-bd0b-fa5dcfdd830b","ios":"levelo://app?vid=171db454-9231-4690-bd0b-fa5dcfdd830b"},"vehicle_type_id":"4","last_reported":1730920026,"current_range_meters":38400,"station_id":"ce4bhqp2rcd13ifvqhng","pricing_plan_id":"cebpf4jnsgd1na2vs0mg"},{"bike_id":"4f52b563-a7be-4136-b14b-feeb142387e9","system_id":"levelo_inurba_marseille","lat":43.30783,"lon":5.37658,"is_reserved":false,"is_disabled":false,"rental_uris":{"android":"levelo://app?vid=4f52b563-a7be-4136-b14b-feeb142387e9","ios":"levelo://app?vid=4f52b563-a7be-4136-b14b-feeb142387e9"},"vehicle_type_id":"4","last_reported":1730920026,"current_range_meters":7200,"station_id":"ce4bgv92rcd13ifvqcq0","pricing_plan_id":"cebpf4jnsgd1na2vs0mg"},{"bike_id":"d0fcbdd4-64f5-49c0-9944-ad1d66720c7e","system_id":"levelo_inurba_marseille","lat":43.28415,"lon":5.37527,"is_reserved":false,"is_disabled":false,"rental_uris":{"android":"levelo://app?vid=d0fcbdd4-64f5-49c0-9944-ad1d66720c7e","ios":"levelo://app?vid=d0fcbdd4-64f5-49c0-9944-ad1d66720c7e"},"vehicle_type_id":"4","last_reported":1730920026,"current_range_meters":18800,"station_id":"ce4bh412rcd13ifvqds0","pricing_plan_id":"cebpf4jnsgd1na2vs0mg"},{"bike_id":"403a66e7-7a7f-434a-adad-2f7b2738f804","system_id":"levelo_inurba_marseille","lat":43.27433,"lon":5.39414,"is_reserved":false,"is_disabled":false,"rental_uris":{"android":"levelo://app?vid=403a66e7-7a7f-434a-adad-2f7b2738f804","ios":"levelo://app?vid=403a66e7-7a7f-434a-adad-2f7b2738f804"},"vehicle_type_id":"4","last_reported":1730920026,"current_range_meters":17600,"station_id":"ce4bhdp2rcd13ifvqf20","pricing_plan_id":"cebpf4jnsgd1na2vs0mg"},{"bike_id":"75aa7121-dc8c-4737-8160-6ccb6a178119","system_id":"levelo_inurba_marseille","lat":43.25587,"lon":5.38259,"is_reserved":false,"is_disabled":false,"rental_uris":{"android":"levelo://app?vid=75aa7121-dc8c-4737-8160-6ccb6a178119","ios":"levelo://app?vid=75aa7121-dc8c-4737-8160-6ccb6a178119"},"vehicle_type_id":"4","last_reported":1730920026,"current_range_meters":18000,"station_id":"ce4bhih2rcd13ifvqfs0","pricing_plan_id":"cebpf4jnsgd1na2vs0mg"},{"bike_id":"72ab18df-21fe-430a-8dc7-5381272d51d9","system_id":"levelo_inurba_marseille","lat":43.27944,"lon":5.4104,"is_reserved":false,"is_disabled":false,"rental_uris":{"android":"levelo://app?vid=72ab18df-21fe-430a-8dc7-5381272d51d9","ios":"levelo://app?vid=72ab18df-21fe-430a-8dc7-5381272d51d9"},"vehicle_type_id":"4","last_reported":1730920026,"current_range_meters":23200,"station_id":"ce4bhnp2rcd13ifvqh0g","pricing_plan_id":"cebpf4jnsgd1na2vs0mg"},{"bike_id":"82606c5c-1784-4898-805d-d3cc4ba397ec","system_id":"levelo_inurba_marseille","lat":43.26751,"lon":5.37199,"is_reserved":false,"is_disabled":false,"rental_uris":{"android":"levelo://app?vid=82606c5c-1784-4898-805d-d3cc4ba397ec","ios":"levelo://app?vid=82606c5c-1784-4898-805d-d3cc4ba397ec"},"vehicle_type_id":"4","last_reported":1730920026,"current_range_meters":6800,"station_id":"","pricing_plan_id":"cebpf4jnsgd1na2vs0mg"},{"bike_id":"328512fc-3e80-4303-8fb9-8bdfa1c9bb84","system_id":"levelo_inurba_marseille","lat":43.2895,"lon":5.39669,"is_reserved":false,"is_disabled":false,"rental_uris":{"android":"levelo://app?vid=328512fc-3e80-4303-8fb9-8bdfa1c9bb84","ios":"levelo://app?vid=328512fc-3e80-4303-8fb9-8bdfa1c9bb84"},"vehicle_type_id":"4","last_reported":1730920026,"current_range_meters":36800,"station_id":"ce4bh3h2rcd13ifvqdn0","pricing_plan_id":"cebpf4jnsgd1na2vs0mg"},{"bike_id":"d5e91622-e3dd-4f31-acce-52cf3f312cf4","system_id":"levelo_inurba_marseille","lat":43.24395,"lon":5.37058,"is_reserved":false,"is_disabled":false,"rental_uris":{"android":"levelo://app?vid=d5e91622-e3dd-4f31-acce-52cf3f312cf4","ios":"levelo://app?vid=d5e91622-e3dd-4f31-acce-52cf3f312cf4"},"vehicle_type_id":"4","last_reported":1730920026,"current_range_meters":8800,"station_id":"ce4bhhh2rcd13ifvqfk0","pricing_plan_id":"cebpf4jnsgd1na2vs0mg"},{"bike_id":"692f31da-ed64-4e18-b7cc-350f01a2fb79","system_id":"levelo_inurba_marseille","lat":43.298974,"lon":5.436765,"is_reserved":false,"is_disabled":false,"rental_uris":{"android":"levelo://app?vid=692f31da-ed64-4e18-b7cc-350f01a2fb79","ios":"levelo://app?vid=692f31da-ed64-4e18-b7cc-350f01a2fb79"},"vehicle_type_id":"4","last_reported":1730920026,"current_range_meters":17600,"station_id":"ce4bhpp2rcd13ifvqhfg","pricing_plan_id":"cebpf4jnsgd1na2vs0mg"},{"bike_id":"8b1d7819-65f0-4cb2-bedd-ed63609540e6","system_id":"levelo_inurba_marseille","lat":43.30327,"lon":5.40444,"is_reserved":false,"is_disabled":false,"rental_uris":{"android":"levelo://app?vid=8b1d7819-65f0-4cb2-bedd-ed63609540e6","ios":"levelo://app?vid=8b1d7819-65f0-4cb2-bedd-ed63609540e6"},"vehicle_type_id":"4","last_reported":1730920026,"current_range_meters":36000,"station_id":"ce4bh012rcd13ifvqd10","pricing_plan_id":"cebpf4jnsgd1na2vs0mg"},{"bike_id":"fa48fb53-32d1-42d0-89b9-7150a38368ad","system_id":"levelo_inurba_marseille","lat":43.28666,"lon":5.38653,"is_reserved":false,"is_disabled":false,"rental_uris":{"android":"levelo://app?vid=fa48fb53-32d1-42d0-89b9-7150a38368ad","ios":"levelo://app?vid=fa48fb53-32d1-42d0-89b9-7150a38368ad"},"vehicle_type_id":"4","last_reported":1730920026,"current_range_meters":37600,"station_id":"ce4bh492rcd13ifvqdug","pricing_plan_id":"cebpf4jnsgd1na2vs0mg"},{"bike_id":"3dfca8a2-45fa-46ba-bdb9-c62b9301e8fd","system_id":"levelo_inurba_marseille","lat":43.26762,"lon":5.37191,"is_reserved":false,"is_disabled":false,"rental_uris":{"android":"levelo://app?vid=3dfca8a2-45fa-46ba-bdb9-c62b9301e8fd","ios":"levelo://app?vid=3dfca8a2-45fa-46ba-bdb9-c62b9301e8fd"},"vehicle_type_id":"4","last_reported":1730920026,"current_range_meters":14400,"station_id":"","pricing_plan_id":"cebpf4jnsgd1na2vs0mg"},{"bike_id":"b3ab13db-8990-417f-b526-d674774d17db","system_id":"levelo_inurba_marseille","lat":43.29531,"lon":5.39405,"is_reserved":false,"is_disabled":false,"rental_uris":{"android":"levelo://app?vid=b3ab13db-8990-417f-b526-d674774d17db","ios":"levelo://app?vid=b3ab13db-8990-417f-b526-d674774d17db"},"vehicle_type_id":"4","last_reported":1730920026,"current_range_meters":9200,"station_id":"ce4bh292rcd13ifvqdf0","pricing_plan_id":"cebpf4jnsgd1na2vs0mg"},{"bike_id":"af114740-a9c4-4afa-9ec9-1d0f168702da","system_id":"levelo_inurba_marseille","lat":43.29431,"lon":5.38575,"is_reserved":false,"is_disabled":false,"rental_uris":{"android":"levelo://app?vid=af114740-a9c4-4afa-9ec9-1d0f168702da","ios":"levelo://app?vid=af114740-a9c4-4afa-9ec9-1d0f168702da"},"vehicle_type_id":"4","last_reported":1730920026,"current_range_meters":38000,"station_id":"ce4bh2h2rcd13ifvqdh0","pricing_plan_id":"cebpf4jnsgd1na2vs0mg"},{"bike_id":"b4acb205-fefb-4ff0-a0f5-e0b7a0a1fe0d","system_id":"levelo_inurba_marseille","lat":43.27992,"lon":5.41657,"is_reserved":false,"is_disabled":false,"rental_uris":{"android":"levelo://app?vid=b4acb205-fefb-4ff0-a0f5-e0b7a0a1fe0d","ios":"levelo://app?vid=b4acb205-fefb-4ff0-a0f5-e0b7a0a1fe0d"},"vehicle_type_id":"4","last_reported":1730920026,"current_range_meters":8800,"station_id":"ce4bho12rcd13ifvqh1g","pricing_plan_id":"cebpf4jnsgd1na2vs0mg"},{"bike_id":"3a265529-f2df-4840-bbc7-a2d699d588fb","system_id":"levelo_inurba_marseille","lat":43.24396,"lon":5.37058,"is_reserved":false,"is_disabled":false,"rental_uris":{"android":"levelo://app?vid=3a265529-f2df-4840-bbc7-a2d699d588fb","ios":"levelo://app?vid=3a265529-f2df-4840-bbc7-a2d699d588fb"},"vehicle_type_id":"4","last_reported":1730920026,"current_range_meters":21600,"station_id":"ce4bhhh2rcd13ifvqfk0","pricing_plan_id":"cebpf4jnsgd1na2vs0mg"},{"bike_id":"dc17e306-8ad0-4f72-be8a-86e1adf7c59d","system_id":"levelo_inurba_marseille","lat":43.28662,"lon":5.36352,"is_reserved":false,"is_disabled":false,"rental_uris":{"android":"levelo://app?vid=dc17e306-8ad0-4f72-be8a-86e1adf7c59d","ios":"levelo://app?vid=dc17e306-8ad0-4f72-be8a-86e1adf7c59d"},"vehicle_type_id":"4","last_reported":1730920026,"current_range_meters":20000,"station_id":"ce4bhah2rcd13ifvqej0","pricing_plan_id":"cebpf4jnsgd1na2vs0mg"},{"bike_id":"5dd7668a-4a2c-4ecb-8db7-007134c70f06","system_id":"levelo_inurba_marseille","lat":43.31085,"lon":5.42434,"is_reserved":false,"is_disabled":false,"rental_uris":{"android":"levelo://app?vid=5dd7668a-4a2c-4ecb-8db7-007134c70f06","ios":"levelo://app?vid=5dd7668a-4a2c-4ecb-8db7-007134c70f06"},"vehicle_type_id":"4","last_reported":1730920026,"current_range_meters":17200,"station_id":"ce4bhp92rcd13ifvqhag","pricing_plan_id":"cebpf4jnsgd1na2vs0mg"},{"bike_id":"78ea8e6b-fcbc-4ca9-b233-6e6fd40ab14f","system_id":"levelo_inurba_marseille","lat":43.28023,"lon":5.36952,"is_reserved":false,"is_disabled":false,"rental_uris":{"android":"levelo://app?vid=78ea8e6b-fcbc-4ca9-b233-6e6fd40ab14f","ios":"levelo://app?vid=78ea8e6b-fcbc-4ca9-b233-6e6fd40ab14f"},"vehicle_type_id":"4","last_reported":1730920026,"current_range_meters":19200,"station_id":"ce4bha12rcd13ifvqef0","pricing_plan_id":"cebpf4jnsgd1na2vs0mg"},{"bike_id":"66cadc2f-87dc-4b78-bb91-c6d6eee1cfce","system_id":"levelo_inurba_marseille","lat":43.30144,"lon":5.39875,"is_reserved":false,"is_disabled":false,"rental_uris":{"android":"levelo://app?vid=66cadc2f-87dc-4b78-bb91-c6d6eee1cfce","ios":"levelo://app?vid=66cadc2f-87dc-4b78-bb91-c6d6eee1cfce"},"vehicle_type_id":"4","last_reported":1730920026,"current_range_meters":17600,"station_id":"ce4bh0h2rcd13ifvqd40","pricing_plan_id":"cebpf4jnsgd1na2vs0mg"},{"bike_id":"a711d526-17f9-4333-96b8-d1dff3f07d6d","system_id":"levelo_inurba_marseille","lat":43.268083,"lon":5.402686,"is_reserved":false,"is_disabled":false,"rental_uris":{"android":"levelo://app?vid=a711d526-17f9-4333-96b8-d1dff3f07d6d","ios":"levelo://app?vid=a711d526-17f9-4333-96b8-d1dff3f07d6d"},"vehicle_type_id":"4","last_reported":1730920026,"current_range_meters":19200,"station_id":"ce501612rcd8frsf0b60","pricing_plan_id":"cebpf4jnsgd1na2vs0mg"},{"bike_id":"081053e3-ccb9-46ca-9453-43abcf34915a","system_id":"levelo_inurba_marseille","lat":43.24667,"lon":5.38165,"is_reserved":false,"is_disabled":false,"rental_uris":{"android":"levelo://app?vid=081053e3-ccb9-46ca-9453-43abcf34915a","ios":"levelo://app?vid=081053e3-ccb9-46ca-9453-43abcf34915a"},"vehicle_type_id":"4","last_reported":1730920026,"current_range_meters":29600,"station_id":"ce4bhih2rcd13ifvqfr0","pricing_plan_id":"cebpf4jnsgd1na2vs0mg"},{"bike_id":"fda585f3-425c-4d9f-b8ce-f5692b144a9b","system_id":"levelo_inurba_marseille","lat":43.29521,"lon":5.38535,"is_reserved":false,"is_disabled":false,"rental_uris":{"android":"levelo://app?vid=fda585f3-425c-4d9f-b8ce-f5692b144a9b","ios":"levelo://app?vid=fda585f3-425c-4d9f-b8ce-f5692b144a9b"},"vehicle_type_id":"4","last_reported":1730920026,"current_range_meters":38000,"station_id":"ce4bgih2rcd13ifvqba0","pricing_plan_id":"cebpf4jnsgd1na2vs0mg"},{"bike_id":"f395edc5-6eed-4d5f-b300-95ff2f12f18c","system_id":"levelo_inurba_marseille","lat":43.24802,"lon":5.37456,"is_reserved":false,"is_disabled":false,"rental_uris":{"android":"levelo://app?vid=f395edc5-6eed-4d5f-b300-95ff2f12f18c","ios":"levelo://app?vid=f395edc5-6eed-4d5f-b300-95ff2f12f18c"},"vehicle_type_id":"4","last_reported":1730920026,"current_range_meters":28000,"station_id":"ce4bhgh2rcd13ifvqfb0","pricing_plan_id":"cebpf4jnsgd1na2vs0mg"},{"bike_id":"a38f2a8c-cf19-4e30-9c4b-2af64ae8949c","system_id":"levelo_inurba_marseille","lat":43.22935,"lon":5.35379,"is_reserved":false,"is_disabled":false,"rental_uris":{"android":"levelo://app?vid=a38f2a8c-cf19-4e30-9c4b-2af64ae8949c","ios":"levelo://app?vid=a38f2a8c-cf19-4e30-9c4b-2af64ae8949c"},"vehicle_type_id":"4","last_reported":1730920026,"current_range_meters":20000,"station_id":"cpo3532slgdg3j2ikp40","pricing_plan_id":"cebpf4jnsgd1na2vs0mg"},{"bike_id":"109d10f4-02e4-4395-8a3b-ada3d1f69163","system_id":"levelo_inurba_marseille","lat":43.30144,"lon":5.39856,"is_reserved":false,"is_disabled":false,"rental_uris":{"android":"levelo://app?vid=109d10f4-02e4-4395-8a3b-ada3d1f69163","ios":"levelo://app?vid=109d10f4-02e4-4395-8a3b-ada3d1f69163"},"vehicle_type_id":"4","last_reported":1730920026,"current_range_meters":16400,"station_id":"ce4bh0h2rcd13ifvqd40","pricing_plan_id":"cebpf4jnsgd1na2vs0mg"},{"bike_id":"72f20131-a69d-4a4f-bc88-a85a00bf4b58","system_id":"levelo_inurba_marseille","lat":43.2964,"lon":5.40592,"is_reserved":false,"is_disabled":false,"rental_uris":{"android":"levelo://app?vid=72f20131-a69d-4a4f-bc88-a85a00bf4b58","ios":"levelo://app?vid=72f20131-a69d-4a4f-bc88-a85a00bf4b58"},"vehicle_type_id":"4","last_reported":1730920026,"current_range_meters":38800,"station_id":"ce4bh0h2rcd13ifvqd60","pricing_plan_id":"cebpf4jnsgd1na2vs0mg"},{"bike_id":"006bd7d7-4674-4f85-b438-aeed9b7a28d9","system_id":"levelo_inurba_marseille","lat":43.30327,"lon":5.40436,"is_reserved":false,"is_disabled":false,"rental_uris":{"android":"levelo://app?vid=006bd7d7-4674-4f85-b438-aeed9b7a28d9","ios":"levelo://app?vid=006bd7d7-4674-4f85-b438-aeed9b7a28d9"},"vehicle_type_id":"4","last_reported":1730920026,"current_range_meters":28400,"station_id":"ce4bh012rcd13ifvqd10","pricing_plan_id":"cebpf4jnsgd1na2vs0mg"},{"bike_id":"79b66b6b-4771-4777-9ec3-5f9ad57fb8c8","system_id":"levelo_inurba_marseille","lat":43.28731,"lon":5.36086,"is_reserved":false,"is_disabled":false,"rental_uris":{"android":"levelo://app?vid=79b66b6b-4771-4777-9ec3-5f9ad57fb8c8","ios":"levelo://app?vid=79b66b6b-4771-4777-9ec3-5f9ad57fb8c8"},"vehicle_type_id":"4","last_reported":1730920026,"current_range_meters":37600,"station_id":"cki0cbj6b192h4jlfktg","pricing_plan_id":"cebpf4jnsgd1na2vs0mg"},{"bike_id":"42163e3e-5009-401f-a1ce-f09eb7e2a510","system_id":"levelo_inurba_marseille","lat":43.31331,"lon":5.39695,"is_reserved":false,"is_disabled":false,"rental_uris":{"android":"levelo://app?vid=42163e3e-5009-401f-a1ce-f09eb7e2a510","ios":"levelo://app?vid=42163e3e-5009-401f-a1ce-f09eb7e2a510"},"vehicle_type_id":"4","last_reported":1730920026,"current_range_meters":39200,"station_id":"ce4bgvp2rcd13ifvqcu0","pricing_plan_id":"cebpf4jnsgd1na2vs0mg"},{"bike_id":"a0db1695-32d8-4d9c-9829-ab1da773a69e","system_id":"levelo_inurba_marseille","lat":43.30151,"lon":5.3986,"is_reserved":false,"is_disabled":false,"rental_uris":{"android":"levelo://app?vid=a0db1695-32d8-4d9c-9829-ab1da773a69e","ios":"levelo://app?vid=a0db1695-32d8-4d9c-9829-ab1da773a69e"},"vehicle_type_id":"4","last_reported":1730920026,"current_range_meters":36400,"station_id":"ce4bh0h2rcd13ifvqd40","pricing_plan_id":"cebpf4jnsgd1na2vs0mg"},{"bike_id":"0f30486d-0086-40f8-aa8f-1b809a6f0974","system_id":"levelo_inurba_marseille","lat":43.28926,"lon":5.38386,"is_reserved":false,"is_disabled":false,"rental_uris":{"android":"levelo://app?vid=0f30486d-0086-40f8-aa8f-1b809a6f0974","ios":"levelo://app?vid=0f30486d-0086-40f8-aa8f-1b809a6f0974"},"vehicle_type_id":"4","last_reported":1730920026,"current_range_meters":4000,"station_id":"ce4bh612rcd13ifvqe6g","pricing_plan_id":"cebpf4jnsgd1na2vs0mg"},{"bike_id":"74b13831-1bf6-4c28-9f7b-14c5e0db510a","system_id":"levelo_inurba_marseille","lat":43.29779,"lon":5.39342,"is_reserved":false,"is_disabled":false,"rental_uris":{"android":"levelo://app?vid=74b13831-1bf6-4c28-9f7b-14c5e0db510a","ios":"levelo://app?vid=74b13831-1bf6-4c28-9f7b-14c5e0db510a"},"vehicle_type_id":"4","last_reported":1730920026,"current_range_meters":37600,"station_id":"chh1huq6cuj3fo74tm60","pricing_plan_id":"cebpf4jnsgd1na2vs0mg"},{"bike_id":"ea0ed2c7-c0d9-42e6-ab00-f8371f78e701","system_id":"levelo_inurba_marseille","lat":43.29526,"lon":5.39406,"is_reserved":false,"is_disabled":false,"rental_uris":{"android":"levelo://app?vid=ea0ed2c7-c0d9-42e6-ab00-f8371f78e701","ios":"levelo://app?vid=ea0ed2c7-c0d9-42e6-ab00-f8371f78e701"},"vehicle_type_id":"4","last_reported":1730920026,"current_range_meters":38000,"station_id":"ce4bh292rcd13ifvqdf0","pricing_plan_id":"cebpf4jnsgd1na2vs0mg"},{"bike_id":"2be58595-1ee4-4e97-90d2-c6d933b5e1c7","system_id":"levelo_inurba_marseille","lat":43.29897,"lon":5.43667,"is_reserved":false,"is_disabled":false,"rental_uris":{"android":"levelo://app?vid=2be58595-1ee4-4e97-90d2-c6d933b5e1c7","ios":"levelo://app?vid=2be58595-1ee4-4e97-90d2-c6d933b5e1c7"},"vehicle_type_id":"4","last_reported":1730920026,"current_range_meters":18000,"station_id":"ce4bhpp2rcd13ifvqhfg","pricing_plan_id":"cebpf4jnsgd1na2vs0mg"},{"bike_id":"eb98e074-6554-4da2-ab77-9ec7e21ad2cb","system_id":"levelo_inurba_marseille","lat":43.27622,"lon":5.36104,"is_reserved":false,"is_disabled":false,"rental_uris":{"android":"levelo://app?vid=eb98e074-6554-4da2-ab77-9ec7e21ad2cb","ios":"levelo://app?vid=eb98e074-6554-4da2-ab77-9ec7e21ad2cb"},"vehicle_type_id":"4","last_reported":1730920026,"current_range_meters":10800,"station_id":"ce4bgj92rcd13ifvqbe0","pricing_plan_id":"cebpf4jnsgd1na2vs0mg"},{"bike_id":"0f0af20f-9ff0-4dc8-b10f-076bad68c626","system_id":"levelo_inurba_marseille","lat":43.28084,"lon":5.39661,"is_reserved":false,"is_disabled":false,"rental_uris":{"android":"levelo://app?vid=0f0af20f-9ff0-4dc8-b10f-076bad68c626","ios":"levelo://app?vid=0f0af20f-9ff0-4dc8-b10f-076bad68c626"},"vehicle_type_id":"4","last_reported":1730920026,"current_range_meters":8800,"station_id":"ce4bho12rcd13ifvqh2g","pricing_plan_id":"cebpf4jnsgd1na2vs0mg"},{"bike_id":"9813e719-0ae7-427a-b9ac-dc34019c1a9e","system_id":"levelo_inurba_marseille","lat":43.28703,"lon":5.37374,"is_reserved":false,"is_disabled":false,"rental_uris":{"android":"levelo://app?vid=9813e719-0ae7-427a-b9ac-dc34019c1a9e","ios":"levelo://app?vid=9813e719-0ae7-427a-b9ac-dc34019c1a9e"},"vehicle_type_id":"4","last_reported":1730920026,"current_range_meters":25200,"station_id":"ce4bh3p2rcd13ifvqdq0","pricing_plan_id":"cebpf4jnsgd1na2vs0mg"},{"bike_id":"183de452-01ed-409d-8dea-fe6c95b31ab4","system_id":"levelo_inurba_marseille","lat":43.279345,"lon":5.410438,"is_reserved":false,"is_disabled":false,"rental_uris":{"android":"levelo://app?vid=183de452-01ed-409d-8dea-fe6c95b31ab4","ios":"levelo://app?vid=183de452-01ed-409d-8dea-fe6c95b31ab4"},"vehicle_type_id":"4","last_reported":1730920026,"current_range_meters":30800,"station_id":"ce4bhnp2rcd13ifvqh0g","pricing_plan_id":"cebpf4jnsgd1na2vs0mg"},{"bike_id":"2451d850-5f8c-49a9-b6b3-f07811c189e1","system_id":"levelo_inurba_marseille","lat":43.28376,"lon":5.38616,"is_reserved":false,"is_disabled":false,"rental_uris":{"android":"levelo://app?vid=2451d850-5f8c-49a9-b6b3-f07811c189e1","ios":"levelo://app?vid=2451d850-5f8c-49a9-b6b3-f07811c189e1"},"vehicle_type_id":"4","last_reported":1730920026,"current_range_meters":20400,"station_id":"ce4bh492rcd13ifvqdvg","pricing_plan_id":"cebpf4jnsgd1na2vs0mg"},{"bike_id":"deaf0c78-2653-47a3-a84b-1a36720bb08e","system_id":"levelo_inurba_marseille","lat":43.28615,"lon":5.37059,"is_reserved":false,"is_disabled":false,"rental_uris":{"android":"levelo://app?vid=deaf0c78-2653-47a3-a84b-1a36720bb08e","ios":"levelo://app?vid=deaf0c78-2653-47a3-a84b-1a36720bb08e"},"vehicle_type_id":"4","last_reported":1730920026,"current_range_meters":25200,"station_id":"ce4bht12rcd13ifvqi60","pricing_plan_id":"cebpf4jnsgd1na2vs0mg"},{"bike_id":"f348c9f4-9a66-4443-89e4-59eadd84ea52","system_id":"levelo_inurba_marseille","lat":43.31519,"lon":5.37255,"is_reserved":false,"is_disabled":false,"rental_uris":{"android":"levelo://app?vid=f348c9f4-9a66-4443-89e4-59eadd84ea52","ios":"levelo://app?vid=f348c9f4-9a66-4443-89e4-59eadd84ea52"},"vehicle_type_id":"4","last_reported":1730920026,"current_range_meters":6800,"station_id":"","pricing_plan_id":"cebpf4jnsgd1na2vs0mg"},{"bike_id":"4f2bdee6-4456-42ff-8942-9afb667ca1cb","system_id":"levelo_inurba_marseille","lat":43.26497,"lon":5.39536,"is_reserved":false,"is_disabled":false,"rental_uris":{"android":"levelo://app?vid=4f2bdee6-4456-42ff-8942-9afb667ca1cb","ios":"levelo://app?vid=4f2bdee6-4456-42ff-8942-9afb667ca1cb"},"vehicle_type_id":"4","last_reported":1730920026,"current_range_meters":36800,"station_id":"ce4bhi12rcd13ifvqfq0","pricing_plan_id":"cebpf4jnsgd1na2vs0mg"},{"bike_id":"c5b7820d-78fe-4750-89b8-a0efef8e5b8b","system_id":"levelo_inurba_marseille","lat":43.24662,"lon":5.38164,"is_reserved":false,"is_disabled":false,"rental_uris":{"android":"levelo://app?vid=c5b7820d-78fe-4750-89b8-a0efef8e5b8b","ios":"levelo://app?vid=c5b7820d-78fe-4750-89b8-a0efef8e5b8b"},"vehicle_type_id":"4","last_reported":1730920026,"current_range_meters":25600,"station_id":"ce4bhih2rcd13ifvqfr0","pricing_plan_id":"cebpf4jnsgd1na2vs0mg"},{"bike_id":"9a57b94b-08e2-46b1-a431-346b37d938e3","system_id":"levelo_inurba_marseille","lat":43.27183,"lon":5.40994,"is_reserved":false,"is_disabled":false,"rental_uris":{"android":"levelo://app?vid=9a57b94b-08e2-46b1-a431-346b37d938e3","ios":"levelo://app?vid=9a57b94b-08e2-46b1-a431-346b37d938e3"},"vehicle_type_id":"4","last_reported":1730920026,"current_range_meters":3200,"station_id":"ce4bhl12rcd13ifvqgf0","pricing_plan_id":"cebpf4jnsgd1na2vs0mg"},{"bike_id":"37ebd3c5-6b18-4388-abf4-d033b2be7440","system_id":"levelo_inurba_marseille","lat":43.26805,"lon":5.4027,"is_reserved":false,"is_disabled":false,"rental_uris":{"android":"levelo://app?vid=37ebd3c5-6b18-4388-abf4-d033b2be7440","ios":"levelo://app?vid=37ebd3c5-6b18-4388-abf4-d033b2be7440"},"vehicle_type_id":"4","last_reported":1730920026,"current_range_meters":15200,"station_id":"ce501612rcd8frsf0b60","pricing_plan_id":"cebpf4jnsgd1na2vs0mg"},{"bike_id":"73bfab2f-2160-41b5-95ab-d2e0665d7584","system_id":"levelo_inurba_marseille","lat":43.31538,"lon":5.38028,"is_reserved":false,"is_disabled":false,"rental_uris":{"android":"levelo://app?vid=73bfab2f-2160-41b5-95ab-d2e0665d7584","ios":"levelo://app?vid=73bfab2f-2160-41b5-95ab-d2e0665d7584"},"vehicle_type_id":"4","last_reported":1730920026,"current_range_meters":20800,"station_id":"ce4bhsp2rcd13ifvqi50","pricing_plan_id":"cebpf4jnsgd1na2vs0mg"},{"bike_id":"e53e5f72-9550-4bdf-a04d-643a9d23eeb5","system_id":"levelo_inurba_marseille","lat":43.308821,"lon":5.396383,"is_reserved":false,"is_disabled":false,"rental_uris":{"android":"levelo://app?vid=e53e5f72-9550-4bdf-a04d-643a9d23eeb5","ios":"levelo://app?vid=e53e5f72-9550-4bdf-a04d-643a9d23eeb5"},"vehicle_type_id":"4","last_reported":1730920026,"current_range_meters":5600,"station_id":"ce4bh012rcd13ifvqcv0","pricing_plan_id":"cebpf4jnsgd1na2vs0mg"},{"bike_id":"f89c2969-9240-4860-ae84-94d3657974fb","system_id":"levelo_inurba_marseille","lat":43.29308,"lon":5.37176,"is_reserved":false,"is_disabled":false,"rental_uris":{"android":"levelo://app?vid=f89c2969-9240-4860-ae84-94d3657974fb","ios":"levelo://app?vid=f89c2969-9240-4860-ae84-94d3657974fb"},"vehicle_type_id":"4","last_reported":1730920026,"current_range_meters":39200,"station_id":"ce4bgh92rcd13ifvqb40","pricing_plan_id":"cebpf4jnsgd1na2vs0mg"},{"bike_id":"1f605dcf-489a-46c5-8ec0-74217c529382","system_id":"levelo_inurba_marseille","lat":43.2439,"lon":5.37063,"is_reserved":false,"is_disabled":false,"rental_uris":{"android":"levelo://app?vid=1f605dcf-489a-46c5-8ec0-74217c529382","ios":"levelo://app?vid=1f605dcf-489a-46c5-8ec0-74217c529382"},"vehicle_type_id":"4","last_reported":1730920026,"current_range_meters":10800,"station_id":"ce4bhhh2rcd13ifvqfk0","pricing_plan_id":"cebpf4jnsgd1na2vs0mg"},{"bike_id":"efeda2c0-4eb4-471c-a122-fb7128df072e","system_id":"levelo_inurba_marseille","lat":43.27565,"lon":5.38418,"is_reserved":false,"is_disabled":false,"rental_uris":{"android":"levelo://app?vid=efeda2c0-4eb4-471c-a122-fb7128df072e","ios":"levelo://app?vid=efeda2c0-4eb4-471c-a122-fb7128df072e"},"vehicle_type_id":"4","last_reported":1730920026,"current_range_meters":20000,"station_id":"ce4bhh92rcd13ifvqfi0","pricing_plan_id":"cebpf4jnsgd1na2vs0mg"},{"bike_id":"58ea9bc3-ef34-4b74-890e-de07af0c4156","system_id":"levelo_inurba_marseille","lat":43.27205,"lon":5.39185,"is_reserved":false,"is_disabled":false,"rental_uris":{"android":"levelo://app?vid=58ea9bc3-ef34-4b74-890e-de07af0c4156","ios":"levelo://app?vid=58ea9bc3-ef34-4b74-890e-de07af0c4156"},"vehicle_type_id":"4","last_reported":1730920026,"current_range_meters":25200,"station_id":"ce4bhhp2rcd13ifvqfm0","pricing_plan_id":"cebpf4jnsgd1na2vs0mg"},{"bike_id":"138edf40-8b55-4b5b-8ebd-2a9cd72069a9","system_id":"levelo_inurba_marseille","lat":43.24665,"lon":5.38165,"is_reserved":false,"is_disabled":false,"rental_uris":{"android":"levelo://app?vid=138edf40-8b55-4b5b-8ebd-2a9cd72069a9","ios":"levelo://app?vid=138edf40-8b55-4b5b-8ebd-2a9cd72069a9"},"vehicle_type_id":"4","last_reported":1730920026,"current_range_meters":18800,"station_id":"ce4bhih2rcd13ifvqfr0","pricing_plan_id":"cebpf4jnsgd1na2vs0mg"},{"bike_id":"c1f11680-2672-40b6-8614-d00a9bc5e3c1","system_id":"levelo_inurba_marseille","lat":43.25863,"lon":5.39908,"is_reserved":false,"is_disabled":false,"rental_uris":{"android":"levelo://app?vid=c1f11680-2672-40b6-8614-d00a9bc5e3c1","ios":"levelo://app?vid=c1f11680-2672-40b6-8614-d00a9bc5e3c1"},"vehicle_type_id":"4","last_reported":1730920026,"current_range_meters":37600,"station_id":"ce4bhl92rcd13ifvqghg","pricing_plan_id":"cebpf4jnsgd1na2vs0mg"},{"bike_id":"cde33d01-4fdf-4588-9993-50576e545d63","system_id":"levelo_inurba_marseille","lat":43.29904,"lon":5.43665,"is_reserved":false,"is_disabled":false,"rental_uris":{"android":"levelo://app?vid=cde33d01-4fdf-4588-9993-50576e545d63","ios":"levelo://app?vid=cde33d01-4fdf-4588-9993-50576e545d63"},"vehicle_type_id":"4","last_reported":1730920026,"current_range_meters":36800,"station_id":"ce4bhpp2rcd13ifvqhfg","pricing_plan_id":"cebpf4jnsgd1na2vs0mg"},{"bike_id":"7b0fa45b-73b1-43d0-b318-c7b89f93ae59","system_id":"levelo_inurba_marseille","lat":43.31329,"lon":5.39694,"is_reserved":false,"is_disabled":false,"rental_uris":{"android":"levelo://app?vid=7b0fa45b-73b1-43d0-b318-c7b89f93ae59","ios":"levelo://app?vid=7b0fa45b-73b1-43d0-b318-c7b89f93ae59"},"vehicle_type_id":"4","last_reported":1730920026,"current_range_meters":8000,"station_id":"ce4bgvp2rcd13ifvqcu0","pricing_plan_id":"cebpf4jnsgd1na2vs0mg"},{"bike_id":"b479ed1a-0154-4ad8-bb5e-8792ecef09e1","system_id":"levelo_inurba_marseille","lat":43.29794,"lon":5.38085,"is_reserved":false,"is_disabled":false,"rental_uris":{"android":"levelo://app?vid=b479ed1a-0154-4ad8-bb5e-8792ecef09e1","ios":"levelo://app?vid=b479ed1a-0154-4ad8-bb5e-8792ecef09e1"},"vehicle_type_id":"4","last_reported":1730920026,"current_range_meters":39200,"station_id":"ce4bgip2rcd13ifvqbb0","pricing_plan_id":"cebpf4jnsgd1na2vs0mg"},{"bike_id":"76180087-7581-4fd5-b38a-35c240d40301","system_id":"levelo_inurba_marseille","lat":43.25861,"lon":5.39904,"is_reserved":false,"is_disabled":false,"rental_uris":{"android":"levelo://app?vid=76180087-7581-4fd5-b38a-35c240d40301","ios":"levelo://app?vid=76180087-7581-4fd5-b38a-35c240d40301"},"vehicle_type_id":"4","last_reported":1730920026,"current_range_meters":38800,"station_id":"ce4bhl92rcd13ifvqghg","pricing_plan_id":"cebpf4jnsgd1na2vs0mg"},{"bike_id":"b583a1fe-7c5f-4ead-8000-c5024410e1ec","system_id":"levelo_inurba_marseille","lat":43.30892,"lon":5.39645,"is_reserved":false,"is_disabled":false,"rental_uris":{"android":"levelo://app?vid=b583a1fe-7c5f-4ead-8000-c5024410e1ec","ios":"levelo://app?vid=b583a1fe-7c5f-4ead-8000-c5024410e1ec"},"vehicle_type_id":"4","last_reported":1730920026,"current_range_meters":3600,"station_id":"ce4bh012rcd13ifvqcv0","pricing_plan_id":"cebpf4jnsgd1na2vs0mg"},{"bike_id":"7a31ffc8-eae5-4ff8-bdac-732d75e07e54","system_id":"levelo_inurba_marseille","lat":43.30144,"lon":5.39861,"is_reserved":false,"is_disabled":false,"rental_uris":{"android":"levelo://app?vid=7a31ffc8-eae5-4ff8-bdac-732d75e07e54","ios":"levelo://app?vid=7a31ffc8-eae5-4ff8-bdac-732d75e07e54"},"vehicle_type_id":"4","last_reported":1730920026,"current_range_meters":38800,"station_id":"ce4bh0h2rcd13ifvqd40","pricing_plan_id":"cebpf4jnsgd1na2vs0mg"},{"bike_id":"cd01ed3b-00df-4dc2-b1c1-0da20e266904","system_id":"levelo_inurba_marseille","lat":43.25115,"lon":5.40327,"is_reserved":false,"is_disabled":false,"rental_uris":{"android":"levelo://app?vid=cd01ed3b-00df-4dc2-b1c1-0da20e266904","ios":"levelo://app?vid=cd01ed3b-00df-4dc2-b1c1-0da20e266904"},"vehicle_type_id":"4","last_reported":1730920026,"current_range_meters":38800,"station_id":"ce4bhlh2rcd13ifvqgig","pricing_plan_id":"cebpf4jnsgd1na2vs0mg"},{"bike_id":"c0f3c1b1-a61c-4b84-9ca9-e9a3ebf3e75d","system_id":"levelo_inurba_marseille","lat":43.27175,"lon":5.40997,"is_reserved":false,"is_disabled":false,"rental_uris":{"android":"levelo://app?vid=c0f3c1b1-a61c-4b84-9ca9-e9a3ebf3e75d","ios":"levelo://app?vid=c0f3c1b1-a61c-4b84-9ca9-e9a3ebf3e75d"},"vehicle_type_id":"4","last_reported":1730920026,"current_range_meters":32800,"station_id":"ce4bhl12rcd13ifvqgf0","pricing_plan_id":"cebpf4jnsgd1na2vs0mg"},{"bike_id":"ce35c458-efa4-44e7-9708-b9d3d9ad5966","system_id":"levelo_inurba_marseille","lat":43.29208,"lon":5.39326,"is_reserved":false,"is_disabled":false,"rental_uris":{"android":"levelo://app?vid=ce35c458-efa4-44e7-9708-b9d3d9ad5966","ios":"levelo://app?vid=ce35c458-efa4-44e7-9708-b9d3d9ad5966"},"vehicle_type_id":"4","last_reported":1730920026,"current_range_meters":34800,"station_id":"ce4bh192rcd13ifvqdd0","pricing_plan_id":"cebpf4jnsgd1na2vs0mg"},{"bike_id":"5174ae6b-73b7-4eb9-b82e-9c61c1f78ce8","system_id":"levelo_inurba_marseille","lat":43.31228,"lon":5.40609,"is_reserved":false,"is_disabled":false,"rental_uris":{"android":"levelo://app?vid=5174ae6b-73b7-4eb9-b82e-9c61c1f78ce8","ios":"levelo://app?vid=5174ae6b-73b7-4eb9-b82e-9c61c1f78ce8"},"vehicle_type_id":"4","last_reported":1730920026,"current_range_meters":21600,"station_id":"","pricing_plan_id":"cebpf4jnsgd1na2vs0mg"},{"bike_id":"fdb4f097-e66a-4d08-addf-ede8af5b55fa","system_id":"levelo_inurba_marseille","lat":43.28831,"lon":5.35862,"is_reserved":false,"is_disabled":false,"rental_uris":{"android":"levelo://app?vid=fdb4f097-e66a-4d08-addf-ede8af5b55fa","ios":"levelo://app?vid=fdb4f097-e66a-4d08-addf-ede8af5b55fa"},"vehicle_type_id":"4","last_reported":1730920026,"current_range_meters":3200,"station_id":"ce4bhb12rcd13ifvqem0","pricing_plan_id":"cebpf4jnsgd1na2vs0mg"},{"bike_id":"1654c01b-40fb-4916-8324-751e73bbb05c","system_id":"levelo_inurba_marseille","lat":43.28833,"lon":5.39321,"is_reserved":false,"is_disabled":false,"rental_uris":{"android":"levelo://app?vid=1654c01b-40fb-4916-8324-751e73bbb05c","ios":"levelo://app?vid=1654c01b-40fb-4916-8324-751e73bbb05c"},"vehicle_type_id":"4","last_reported":1730920026,"current_range_meters":38800,"station_id":"ce4bh2p2rcd13ifvqdi0","pricing_plan_id":"cebpf4jnsgd1na2vs0mg"},{"bike_id":"6c6067c7-81ca-4cfd-98d1-3c4aa468815b","system_id":"levelo_inurba_marseille","lat":43.31753,"lon":5.39026,"is_reserved":false,"is_disabled":false,"rental_uris":{"android":"levelo://app?vid=6c6067c7-81ca-4cfd-98d1-3c4aa468815b","ios":"levelo://app?vid=6c6067c7-81ca-4cfd-98d1-3c4aa468815b"},"vehicle_type_id":"4","last_reported":1730920026,"current_range_meters":38800,"station_id":"ce4bhqp2rcd13ifvqhng","pricing_plan_id":"cebpf4jnsgd1na2vs0mg"},{"bike_id":"25e37f00-bba8-4fbf-b83a-c8b3a7cc9d83","system_id":"levelo_inurba_marseille","lat":43.2982,"lon":5.38284,"is_reserved":false,"is_disabled":false,"rental_uris":{"android":"levelo://app?vid=25e37f00-bba8-4fbf-b83a-c8b3a7cc9d83","ios":"levelo://app?vid=25e37f00-bba8-4fbf-b83a-c8b3a7cc9d83"},"vehicle_type_id":"4","last_reported":1730920026,"current_range_meters":23200,"station_id":"ce4bgi12rcd13ifvqb70","pricing_plan_id":"cebpf4jnsgd1na2vs0mg"},{"bike_id":"698f04a8-8b31-4b26-bec7-b8ff5d19442b","system_id":"levelo_inurba_marseille","lat":43.31266,"lon":5.40168,"is_reserved":false,"is_disabled":false,"rental_uris":{"android":"levelo://app?vid=698f04a8-8b31-4b26-bec7-b8ff5d19442b","ios":"levelo://app?vid=698f04a8-8b31-4b26-bec7-b8ff5d19442b"},"vehicle_type_id":"4","last_reported":1730920026,"current_range_meters":36400,"station_id":"ce4bh092rcd13ifvqd30","pricing_plan_id":"cebpf4jnsgd1na2vs0mg"},{"bike_id":"73c53c13-4b99-443a-bf46-889ae8071c20","system_id":"levelo_inurba_marseille","lat":43.25079,"lon":5.39521,"is_reserved":false,"is_disabled":false,"rental_uris":{"android":"levelo://app?vid=73c53c13-4b99-443a-bf46-889ae8071c20","ios":"levelo://app?vid=73c53c13-4b99-443a-bf46-889ae8071c20"},"vehicle_type_id":"4","last_reported":1730920026,"current_range_meters":16400,"station_id":"ce4bhm12rcd13ifvqgkg","pricing_plan_id":"cebpf4jnsgd1na2vs0mg"},{"bike_id":"bff19b85-fa9d-4d2e-a404-1b3282f15d63","system_id":"levelo_inurba_marseille","lat":43.28005,"lon":5.4003,"is_reserved":false,"is_disabled":false,"rental_uris":{"android":"levelo://app?vid=bff19b85-fa9d-4d2e-a404-1b3282f15d63","ios":"levelo://app?vid=bff19b85-fa9d-4d2e-a404-1b3282f15d63"},"vehicle_type_id":"4","last_reported":1730920026,"current_range_meters":37600,"station_id":"ce4bho92rcd13ifvqh4g","pricing_plan_id":"cebpf4jnsgd1na2vs0mg"},{"bike_id":"58587930-286c-480d-bca0-6a99e79591d5","system_id":"levelo_inurba_marseille","lat":43.31536,"lon":5.38043,"is_reserved":false,"is_disabled":false,"rental_uris":{"android":"levelo://app?vid=58587930-286c-480d-bca0-6a99e79591d5","ios":"levelo://app?vid=58587930-286c-480d-bca0-6a99e79591d5"},"vehicle_type_id":"4","last_reported":1730920026,"current_range_meters":32400,"station_id":"ce4bhsp2rcd13ifvqi50","pricing_plan_id":"cebpf4jnsgd1na2vs0mg"},{"bike_id":"7ad7cc58-7602-4acb-9375-489625e5c4aa","system_id":"levelo_inurba_marseille","lat":43.3021,"lon":5.39472,"is_reserved":false,"is_disabled":false,"rental_uris":{"android":"levelo://app?vid=7ad7cc58-7602-4acb-9375-489625e5c4aa","ios":"levelo://app?vid=7ad7cc58-7602-4acb-9375-489625e5c4aa"},"vehicle_type_id":"4","last_reported":1730920026,"current_range_meters":22000,"station_id":"ce4bh0p2rcd13ifvqd70","pricing_plan_id":"cebpf4jnsgd1na2vs0mg"},{"bike_id":"ee8a3550-0001-4fcc-bd31-4beeb6d76621","system_id":"levelo_inurba_marseille","lat":43.3105,"lon":5.38352,"is_reserved":false,"is_disabled":false,"rental_uris":{"android":"levelo://app?vid=ee8a3550-0001-4fcc-bd31-4beeb6d76621","ios":"levelo://app?vid=ee8a3550-0001-4fcc-bd31-4beeb6d76621"},"vehicle_type_id":"4","last_reported":1730920026,"current_range_meters":12000,"station_id":"ce4bgv92rcd13ifvqcr0","pricing_plan_id":"cebpf4jnsgd1na2vs0mg"},{"bike_id":"d25cc44c-d51b-4657-b44d-4c31a96a9ac3","system_id":"levelo_inurba_marseille","lat":43.32343,"lon":5.40615,"is_reserved":false,"is_disabled":false,"rental_uris":{"android":"levelo://app?vid=d25cc44c-d51b-4657-b44d-4c31a96a9ac3","ios":"levelo://app?vid=d25cc44c-d51b-4657-b44d-4c31a96a9ac3"},"vehicle_type_id":"4","last_reported":1730920026,"current_range_meters":16800,"station_id":"ce4bhq92rcd13ifvqhjg","pricing_plan_id":"cebpf4jnsgd1na2vs0mg"},{"bike_id":"8eebcba0-c919-48bd-88f8-e35cda05e886","system_id":"levelo_inurba_marseille","lat":43.28668,"lon":5.38668,"is_reserved":false,"is_disabled":false,"rental_uris":{"android":"levelo://app?vid=8eebcba0-c919-48bd-88f8-e35cda05e886","ios":"levelo://app?vid=8eebcba0-c919-48bd-88f8-e35cda05e886"},"vehicle_type_id":"4","last_reported":1730920026,"current_range_meters":25200,"station_id":"ce4bh492rcd13ifvqdug","pricing_plan_id":"cebpf4jnsgd1na2vs0mg"},{"bike_id":"1a200d94-7fcc-43a0-baf7-0653f1297e9d","system_id":"levelo_inurba_marseille","lat":43.24665,"lon":5.38169,"is_reserved":false,"is_disabled":false,"rental_uris":{"android":"levelo://app?vid=1a200d94-7fcc-43a0-baf7-0653f1297e9d","ios":"levelo://app?vid=1a200d94-7fcc-43a0-baf7-0653f1297e9d"},"vehicle_type_id":"4","last_reported":1730920026,"current_range_meters":19200,"station_id":"ce4bhih2rcd13ifvqfr0","pricing_plan_id":"cebpf4jnsgd1na2vs0mg"},{"bike_id":"dd172bf8-d14d-45c6-9752-e4c7a309bb9f","system_id":"levelo_inurba_marseille","lat":43.25838,"lon":5.39418,"is_reserved":false,"is_disabled":false,"rental_uris":{"android":"levelo://app?vid=dd172bf8-d14d-45c6-9752-e4c7a309bb9f","ios":"levelo://app?vid=dd172bf8-d14d-45c6-9752-e4c7a309bb9f"},"vehicle_type_id":"4","last_reported":1730920026,"current_range_meters":38000,"station_id":"ce4bhip2rcd13ifvqft0","pricing_plan_id":"cebpf4jnsgd1na2vs0mg"},{"bike_id":"9fd2eafb-b3a2-4330-b6d6-848617578953","system_id":"levelo_inurba_marseille","lat":43.32003,"lon":5.38131,"is_reserved":false,"is_disabled":false,"rental_uris":{"android":"levelo://app?vid=9fd2eafb-b3a2-4330-b6d6-848617578953","ios":"levelo://app?vid=9fd2eafb-b3a2-4330-b6d6-848617578953"},"vehicle_type_id":"4","last_reported":1730920026,"current_range_meters":8400,"station_id":"ce4bhr12rcd13ifvqhpg","pricing_plan_id":"cebpf4jnsgd1na2vs0mg"},{"bike_id":"ed9d7a87-b2a5-4493-8ad8-420f1b483592","system_id":"levelo_inurba_marseille","lat":43.3088,"lon":5.39638,"is_reserved":false,"is_disabled":false,"rental_uris":{"android":"levelo://app?vid=ed9d7a87-b2a5-4493-8ad8-420f1b483592","ios":"levelo://app?vid=ed9d7a87-b2a5-4493-8ad8-420f1b483592"},"vehicle_type_id":"4","last_reported":1730920026,"current_range_meters":38800,"station_id":"ce4bh012rcd13ifvqcv0","pricing_plan_id":"cebpf4jnsgd1na2vs0mg"},{"bike_id":"cfdf668a-e40a-4cb4-9d3c-0b34832b6a89","system_id":"levelo_inurba_marseille","lat":43.27002,"lon":5.39958,"is_reserved":false,"is_disabled":false,"rental_uris":{"android":"levelo://app?vid=cfdf668a-e40a-4cb4-9d3c-0b34832b6a89","ios":"levelo://app?vid=cfdf668a-e40a-4cb4-9d3c-0b34832b6a89"},"vehicle_type_id":"4","last_reported":1730920026,"current_range_meters":25600,"station_id":"","pricing_plan_id":"cebpf4jnsgd1na2vs0mg"},{"bike_id":"49b91869-73c1-469e-8156-9ede284d7096","system_id":"levelo_inurba_marseille","lat":43.31714,"lon":5.43709,"is_reserved":false,"is_disabled":false,"rental_uris":{"android":"levelo://app?vid=49b91869-73c1-469e-8156-9ede284d7096","ios":"levelo://app?vid=49b91869-73c1-469e-8156-9ede284d7096"},"vehicle_type_id":"4","last_reported":1730920026,"current_range_meters":24800,"station_id":"ce4bhp92rcd13ifvqhcg","pricing_plan_id":"cebpf4jnsgd1na2vs0mg"},{"bike_id":"1d998547-c4d2-41bc-80a1-aabc215b728e","system_id":"levelo_inurba_marseille","lat":43.29674,"lon":5.37284,"is_reserved":false,"is_disabled":false,"rental_uris":{"android":"levelo://app?vid=1d998547-c4d2-41bc-80a1-aabc215b728e","ios":"levelo://app?vid=1d998547-c4d2-41bc-80a1-aabc215b728e"},"vehicle_type_id":"4","last_reported":1730920026,"current_range_meters":25600,"station_id":"ce4bgk12rcd13ifvqbj0","pricing_plan_id":"cebpf4jnsgd1na2vs0mg"},{"bike_id":"9b6f25cd-f741-40dc-863c-11d87970fd03","system_id":"levelo_inurba_marseille","lat":43.29413,"lon":5.38612,"is_reserved":false,"is_disabled":false,"rental_uris":{"android":"levelo://app?vid=9b6f25cd-f741-40dc-863c-11d87970fd03","ios":"levelo://app?vid=9b6f25cd-f741-40dc-863c-11d87970fd03"},"vehicle_type_id":"4","last_reported":1730920026,"current_range_meters":17600,"station_id":"ce4bh2h2rcd13ifvqdh0","pricing_plan_id":"cebpf4jnsgd1na2vs0mg"},{"bike_id":"2fe515d7-c2ba-40bc-af58-2812fb065090","system_id":"levelo_inurba_marseille","lat":43.29877,"lon":5.39741,"is_reserved":false,"is_disabled":false,"rental_uris":{"android":"levelo://app?vid=2fe515d7-c2ba-40bc-af58-2812fb065090","ios":"levelo://app?vid=2fe515d7-c2ba-40bc-af58-2812fb065090"},"vehicle_type_id":"4","last_reported":1730920026,"current_range_meters":40000,"station_id":"ce4bh0h2rcd13ifvqd50","pricing_plan_id":"cebpf4jnsgd1na2vs0mg"},{"bike_id":"fcd85b21-255f-4378-ab16-52d3bd1ce680","system_id":"levelo_inurba_marseille","lat":43.30278,"lon":5.40066,"is_reserved":false,"is_disabled":false,"rental_uris":{"android":"levelo://app?vid=fcd85b21-255f-4378-ab16-52d3bd1ce680","ios":"levelo://app?vid=fcd85b21-255f-4378-ab16-52d3bd1ce680"},"vehicle_type_id":"4","last_reported":1730920026,"current_range_meters":36000,"station_id":"ce4bgvh2rcd13ifvqcs0","pricing_plan_id":"cebpf4jnsgd1na2vs0mg"},{"bike_id":"a5bc2fce-204d-4ecc-bd2f-0a758ce61f0d","system_id":"levelo_inurba_marseille","lat":43.27996,"lon":5.40003,"is_reserved":false,"is_disabled":false,"rental_uris":{"android":"levelo://app?vid=a5bc2fce-204d-4ecc-bd2f-0a758ce61f0d","ios":"levelo://app?vid=a5bc2fce-204d-4ecc-bd2f-0a758ce61f0d"},"vehicle_type_id":"4","last_reported":1730920026,"current_range_meters":8000,"station_id":"ce4bho92rcd13ifvqh4g","pricing_plan_id":"cebpf4jnsgd1na2vs0mg"},{"bike_id":"217cb4ee-27ff-4d31-b65e-970053c50be1","system_id":"levelo_inurba_marseille","lat":43.29908,"lon":5.37473,"is_reserved":false,"is_disabled":false,"rental_uris":{"android":"levelo://app?vid=217cb4ee-27ff-4d31-b65e-970053c50be1","ios":"levelo://app?vid=217cb4ee-27ff-4d31-b65e-970053c50be1"},"vehicle_type_id":"4","last_reported":1730920026,"current_range_meters":17600,"station_id":"ce4bgjh2rcd13ifvqbg0","pricing_plan_id":"cebpf4jnsgd1na2vs0mg"},{"bike_id":"3b60aab4-0177-406f-8933-dea54a89230f","system_id":"levelo_inurba_marseille","lat":43.30912,"lon":5.36851,"is_reserved":false,"is_disabled":false,"rental_uris":{"android":"levelo://app?vid=3b60aab4-0177-406f-8933-dea54a89230f","ios":"levelo://app?vid=3b60aab4-0177-406f-8933-dea54a89230f"},"vehicle_type_id":"4","last_reported":1730920026,"current_range_meters":19200,"station_id":"ce4bgn92rcd13ifvqbvg","pricing_plan_id":"cebpf4jnsgd1na2vs0mg"},{"bike_id":"4d3c374a-1f45-46b9-8607-f64397074506","system_id":"levelo_inurba_marseille","lat":43.25091,"lon":5.39516,"is_reserved":false,"is_disabled":false,"rental_uris":{"android":"levelo://app?vid=4d3c374a-1f45-46b9-8607-f64397074506","ios":"levelo://app?vid=4d3c374a-1f45-46b9-8607-f64397074506"},"vehicle_type_id":"4","last_reported":1730920026,"current_range_meters":30000,"station_id":"ce4bhm12rcd13ifvqgkg","pricing_plan_id":"cebpf4jnsgd1na2vs0mg"},{"bike_id":"51f74c20-bcaa-4e5d-8f3c-e32ef0f7f0a2","system_id":"levelo_inurba_marseille","lat":43.26945,"lon":5.40255,"is_reserved":false,"is_disabled":false,"rental_uris":{"android":"levelo://app?vid=51f74c20-bcaa-4e5d-8f3c-e32ef0f7f0a2","ios":"levelo://app?vid=51f74c20-bcaa-4e5d-8f3c-e32ef0f7f0a2"},"vehicle_type_id":"4","last_reported":1730920026,"current_range_meters":8000,"station_id":"cjm6bp8fraef2m0cb0m0","pricing_plan_id":"cebpf4jnsgd1na2vs0mg"},{"bike_id":"b7dd8bea-767b-4a90-a1d4-bc825086e891","system_id":"levelo_inurba_marseille","lat":43.30139,"lon":5.39869,"is_reserved":false,"is_disabled":false,"rental_uris":{"android":"levelo://app?vid=b7dd8bea-767b-4a90-a1d4-bc825086e891","ios":"levelo://app?vid=b7dd8bea-767b-4a90-a1d4-bc825086e891"},"vehicle_type_id":"4","last_reported":1730920026,"current_range_meters":27600,"station_id":"ce4bh0h2rcd13ifvqd40","pricing_plan_id":"cebpf4jnsgd1na2vs0mg"},{"bike_id":"9a0ae2e4-d1fa-4de6-b4c7-29ff5e540266","system_id":"levelo_inurba_marseille","lat":43.34135,"lon":5.40909,"is_reserved":false,"is_disabled":false,"rental_uris":{"android":"levelo://app?vid=9a0ae2e4-d1fa-4de6-b4c7-29ff5e540266","ios":"levelo://app?vid=9a0ae2e4-d1fa-4de6-b4c7-29ff5e540266"},"vehicle_type_id":"4","last_reported":1730920026,"current_range_meters":30000,"station_id":"ce4bhqh2rcd13ifvqhlg","pricing_plan_id":"cebpf4jnsgd1na2vs0mg"},{"bike_id":"fa75792c-e5d5-4826-a65d-b964422195e2","system_id":"levelo_inurba_marseille","lat":43.31755,"lon":5.390217,"is_reserved":false,"is_disabled":false,"rental_uris":{"android":"levelo://app?vid=fa75792c-e5d5-4826-a65d-b964422195e2","ios":"levelo://app?vid=fa75792c-e5d5-4826-a65d-b964422195e2"},"vehicle_type_id":"4","last_reported":1730920026,"current_range_meters":38800,"station_id":"ce4bhqp2rcd13ifvqhng","pricing_plan_id":"cebpf4jnsgd1na2vs0mg"},{"bike_id":"688369d1-5be0-444d-b25e-23eb08c2c55f","system_id":"levelo_inurba_marseille","lat":43.32,"lon":5.3816,"is_reserved":false,"is_disabled":false,"rental_uris":{"android":"levelo://app?vid=688369d1-5be0-444d-b25e-23eb08c2c55f","ios":"levelo://app?vid=688369d1-5be0-444d-b25e-23eb08c2c55f"},"vehicle_type_id":"4","last_reported":1730920026,"current_range_meters":12400,"station_id":"ce4bhr12rcd13ifvqhpg","pricing_plan_id":"cebpf4jnsgd1na2vs0mg"},{"bike_id":"dee376ac-3809-4888-b3c6-3f4b373d74ca","system_id":"levelo_inurba_marseille","lat":43.29414,"lon":5.38626,"is_reserved":false,"is_disabled":false,"rental_uris":{"android":"levelo://app?vid=dee376ac-3809-4888-b3c6-3f4b373d74ca","ios":"levelo://app?vid=dee376ac-3809-4888-b3c6-3f4b373d74ca"},"vehicle_type_id":"4","last_reported":1730920026,"current_range_meters":30400,"station_id":"ce4bh2h2rcd13ifvqdh0","pricing_plan_id":"cebpf4jnsgd1na2vs0mg"},{"bike_id":"a0a8ef67-8b77-44bb-a527-3d9860273466","system_id":"levelo_inurba_marseille","lat":43.27573,"lon":5.38419,"is_reserved":false,"is_disabled":false,"rental_uris":{"android":"levelo://app?vid=a0a8ef67-8b77-44bb-a527-3d9860273466","ios":"levelo://app?vid=a0a8ef67-8b77-44bb-a527-3d9860273466"},"vehicle_type_id":"4","last_reported":1730920026,"current_range_meters":28000,"station_id":"ce4bhh92rcd13ifvqfi0","pricing_plan_id":"cebpf4jnsgd1na2vs0mg"},{"bike_id":"55a677bd-87c6-4021-ae5c-c9a5693b7d71","system_id":"levelo_inurba_marseille","lat":43.31333,"lon":5.39705,"is_reserved":false,"is_disabled":false,"rental_uris":{"android":"levelo://app?vid=55a677bd-87c6-4021-ae5c-c9a5693b7d71","ios":"levelo://app?vid=55a677bd-87c6-4021-ae5c-c9a5693b7d71"},"vehicle_type_id":"4","last_reported":1730920026,"current_range_meters":38800,"station_id":"ce4bgvp2rcd13ifvqcu0","pricing_plan_id":"cebpf4jnsgd1na2vs0mg"},{"bike_id":"4e5d727a-7c34-44b8-af94-45a54b88c1cc","system_id":"levelo_inurba_marseille","lat":43.33729,"lon":5.391837,"is_reserved":false,"is_disabled":false,"rental_uris":{"android":"levelo://app?vid=4e5d727a-7c34-44b8-af94-45a54b88c1cc","ios":"levelo://app?vid=4e5d727a-7c34-44b8-af94-45a54b88c1cc"},"vehicle_type_id":"4","last_reported":1730920026,"current_range_meters":39200,"station_id":"ce4bhr92rcd13ifvqhsg","pricing_plan_id":"cebpf4jnsgd1na2vs0mg"},{"bike_id":"831a29dd-5449-4d91-8f14-83d54ecf0699","system_id":"levelo_inurba_marseille","lat":43.29792,"lon":5.40409,"is_reserved":false,"is_disabled":false,"rental_uris":{"android":"levelo://app?vid=831a29dd-5449-4d91-8f14-83d54ecf0699","ios":"levelo://app?vid=831a29dd-5449-4d91-8f14-83d54ecf0699"},"vehicle_type_id":"4","last_reported":1730920026,"current_range_meters":32800,"station_id":"ce4bh112rcd13ifvqd90","pricing_plan_id":"cebpf4jnsgd1na2vs0mg"},{"bike_id":"2ac59b30-95ad-4d41-84cd-66b709f67fc4","system_id":"levelo_inurba_marseille","lat":43.337444,"lon":5.374475,"is_reserved":false,"is_disabled":false,"rental_uris":{"android":"levelo://app?vid=2ac59b30-95ad-4d41-84cd-66b709f67fc4","ios":"levelo://app?vid=2ac59b30-95ad-4d41-84cd-66b709f67fc4"},"vehicle_type_id":"4","last_reported":1730920026,"current_range_meters":36000,"station_id":"","pricing_plan_id":"cebpf4jnsgd1na2vs0mg"},{"bike_id":"93967ad4-6766-4bb9-9c97-449d7502e370","system_id":"levelo_inurba_marseille","lat":43.310625,"lon":5.38357,"is_reserved":false,"is_disabled":false,"rental_uris":{"android":"levelo://app?vid=93967ad4-6766-4bb9-9c97-449d7502e370","ios":"levelo://app?vid=93967ad4-6766-4bb9-9c97-449d7502e370"},"vehicle_type_id":"4","last_reported":1730920026,"current_range_meters":8400,"station_id":"ce4bgv92rcd13ifvqcr0","pricing_plan_id":"cebpf4jnsgd1na2vs0mg"},{"bike_id":"3fdb2ec2-cc10-476d-90fb-795bc608bec0","system_id":"levelo_inurba_marseille","lat":43.28575,"lon":5.39499,"is_reserved":false,"is_disabled":false,"rental_uris":{"android":"levelo://app?vid=3fdb2ec2-cc10-476d-90fb-795bc608bec0","ios":"levelo://app?vid=3fdb2ec2-cc10-476d-90fb-795bc608bec0"},"vehicle_type_id":"4","last_reported":1730920026,"current_range_meters":2800,"station_id":"ce4bh292rcd13ifvqdg0","pricing_plan_id":"cebpf4jnsgd1na2vs0mg"},{"bike_id":"ad3b6817-acee-4c7a-8350-703876d4714f","system_id":"levelo_inurba_marseille","lat":43.28946,"lon":5.36641,"is_reserved":false,"is_disabled":false,"rental_uris":{"android":"levelo://app?vid=ad3b6817-acee-4c7a-8350-703876d4714f","ios":"levelo://app?vid=ad3b6817-acee-4c7a-8350-703876d4714f"},"vehicle_type_id":"4","last_reported":1730920026,"current_range_meters":36400,"station_id":"ce4bhap2rcd13ifvqek0","pricing_plan_id":"cebpf4jnsgd1na2vs0mg"},{"bike_id":"3d161c35-9f40-4b08-a68a-f579008f18ef","system_id":"levelo_inurba_marseille","lat":43.25729,"lon":5.41108,"is_reserved":false,"is_disabled":false,"rental_uris":{"android":"levelo://app?vid=3d161c35-9f40-4b08-a68a-f579008f18ef","ios":"levelo://app?vid=3d161c35-9f40-4b08-a68a-f579008f18ef"},"vehicle_type_id":"4","last_reported":1730920026,"current_range_meters":30000,"station_id":"ce4bhkp2rcd13ifvqgd0","pricing_plan_id":"cebpf4jnsgd1na2vs0mg"},{"bike_id":"3efb3103-ea1f-426f-a199-b5e2cc263a89","system_id":"levelo_inurba_marseille","lat":43.31266,"lon":5.40169,"is_reserved":false,"is_disabled":false,"rental_uris":{"android":"levelo://app?vid=3efb3103-ea1f-426f-a199-b5e2cc263a89","ios":"levelo://app?vid=3efb3103-ea1f-426f-a199-b5e2cc263a89"},"vehicle_type_id":"4","last_reported":1730920026,"current_range_meters":29600,"station_id":"ce4bh092rcd13ifvqd30","pricing_plan_id":"cebpf4jnsgd1na2vs0mg"},{"bike_id":"91dbb18e-7c31-498e-8c65-eddd96e1049a","system_id":"levelo_inurba_marseille","lat":43.28708,"lon":5.37386,"is_reserved":false,"is_disabled":false,"rental_uris":{"android":"levelo://app?vid=91dbb18e-7c31-498e-8c65-eddd96e1049a","ios":"levelo://app?vid=91dbb18e-7c31-498e-8c65-eddd96e1049a"},"vehicle_type_id":"4","last_reported":1730920026,"current_range_meters":34000,"station_id":"ce4bh3p2rcd13ifvqdq0","pricing_plan_id":"cebpf4jnsgd1na2vs0mg"},{"bike_id":"44144d57-9c23-4136-92b5-7992ae432d41","system_id":"levelo_inurba_marseille","lat":43.29964,"lon":5.41326,"is_reserved":false,"is_disabled":false,"rental_uris":{"android":"levelo://app?vid=44144d57-9c23-4136-92b5-7992ae432d41","ios":"levelo://app?vid=44144d57-9c23-4136-92b5-7992ae432d41"},"vehicle_type_id":"4","last_reported":1730920026,"current_range_meters":38400,"station_id":"ce4bhp12rcd13ifvqh9g","pricing_plan_id":"cebpf4jnsgd1na2vs0mg"},{"bike_id":"85de2998-380a-4d61-b23b-be8766460c85","system_id":"levelo_inurba_marseille","lat":43.27922,"lon":5.39579,"is_reserved":false,"is_disabled":false,"rental_uris":{"android":"levelo://app?vid=85de2998-380a-4d61-b23b-be8766460c85","ios":"levelo://app?vid=85de2998-380a-4d61-b23b-be8766460c85"},"vehicle_type_id":"4","last_reported":1730920026,"current_range_meters":13600,"station_id":"ce4bhf92rcd13ifvqf40","pricing_plan_id":"cebpf4jnsgd1na2vs0mg"},{"bike_id":"24aba072-c534-4c86-b994-950e5196ce73","system_id":"levelo_inurba_marseille","lat":43.28613,"lon":5.35104,"is_reserved":false,"is_disabled":false,"rental_uris":{"android":"levelo://app?vid=24aba072-c534-4c86-b994-950e5196ce73","ios":"levelo://app?vid=24aba072-c534-4c86-b994-950e5196ce73"},"vehicle_type_id":"4","last_reported":1730920026,"current_range_meters":6000,"station_id":"ce4bhch2rcd13ifvqeug","pricing_plan_id":"cebpf4jnsgd1na2vs0mg"},{"bike_id":"0072c09f-84dc-4387-89a5-d8c408b867ad","system_id":"levelo_inurba_marseille","lat":43.30149,"lon":5.39851,"is_reserved":false,"is_disabled":false,"rental_uris":{"android":"levelo://app?vid=0072c09f-84dc-4387-89a5-d8c408b867ad","ios":"levelo://app?vid=0072c09f-84dc-4387-89a5-d8c408b867ad"},"vehicle_type_id":"4","last_reported":1730920026,"current_range_meters":38800,"station_id":"ce4bh0h2rcd13ifvqd40","pricing_plan_id":"cebpf4jnsgd1na2vs0mg"},{"bike_id":"ecc2597c-73b2-4662-b036-f015722a8a69","system_id":"levelo_inurba_marseille","lat":43.22941,"lon":5.35377,"is_reserved":false,"is_disabled":false,"rental_uris":{"android":"levelo://app?vid=ecc2597c-73b2-4662-b036-f015722a8a69","ios":"levelo://app?vid=ecc2597c-73b2-4662-b036-f015722a8a69"},"vehicle_type_id":"4","last_reported":1730920026,"current_range_meters":32000,"station_id":"cpo3532slgdg3j2ikp40","pricing_plan_id":"cebpf4jnsgd1na2vs0mg"},{"bike_id":"3da5bf7a-ecd5-4673-bda7-429c47eb724d","system_id":"levelo_inurba_marseille","lat":43.23965,"lon":5.3664,"is_reserved":false,"is_disabled":false,"rental_uris":{"android":"levelo://app?vid=3da5bf7a-ecd5-4673-bda7-429c47eb724d","ios":"levelo://app?vid=3da5bf7a-ecd5-4673-bda7-429c47eb724d"},"vehicle_type_id":"4","last_reported":1730920026,"current_range_meters":9200,"station_id":"ce4bhi12rcd13ifvqfp0","pricing_plan_id":"cebpf4jnsgd1na2vs0mg"},{"bike_id":"52af7a3b-ddda-465a-a3b9-5cc6f08e1552","system_id":"levelo_inurba_marseille","lat":43.24167,"lon":5.36397,"is_reserved":false,"is_disabled":false,"rental_uris":{"android":"levelo://app?vid=52af7a3b-ddda-465a-a3b9-5cc6f08e1552","ios":"levelo://app?vid=52af7a3b-ddda-465a-a3b9-5cc6f08e1552"},"vehicle_type_id":"4","last_reported":1730920026,"current_range_meters":19600,"station_id":"cpo36qri1sfpv3e86is0","pricing_plan_id":"cebpf4jnsgd1na2vs0mg"},{"bike_id":"c8908898-597c-4769-9a3c-a8548f4da9f2","system_id":"levelo_inurba_marseille","lat":43.30135,"lon":5.38801,"is_reserved":false,"is_disabled":false,"rental_uris":{"android":"levelo://app?vid=c8908898-597c-4769-9a3c-a8548f4da9f2","ios":"levelo://app?vid=c8908898-597c-4769-9a3c-a8548f4da9f2"},"vehicle_type_id":"4","last_reported":1730920026,"current_range_meters":19200,"station_id":"ce4bh092rcd13ifvqd30","pricing_plan_id":"cebpf4jnsgd1na2vs0mg"},{"bike_id":"a9ab6975-5db2-422d-b93e-792aa035710e","system_id":"levelo_inurba_marseille","lat":43.280273,"lon":5.419964,"is_reserved":false,"is_disabled":false,"rental_uris":{"android":"levelo://app?vid=a9ab6975-5db2-422d-b93e-792aa035710e","ios":"levelo://app?vid=a9ab6975-5db2-422d-b93e-792aa035710e"},"vehicle_type_id":"4","last_reported":1730920026,"current_range_meters":27200,"station_id":"ce4bhph2rcd13ifvqhdg","pricing_plan_id":"cebpf4jnsgd1na2vs0mg"},{"bike_id":"cb886b27-0a1a-4738-870e-8b61baafe4ab","system_id":"levelo_inurba_marseille","lat":43.31353,"lon":5.38491,"is_reserved":false,"is_disabled":false,"rental_uris":{"android":"levelo://app?vid=cb886b27-0a1a-4738-870e-8b61baafe4ab","ios":"levelo://app?vid=cb886b27-0a1a-4738-870e-8b61baafe4ab"},"vehicle_type_id":"4","last_reported":1730920026,"current_range_meters":20800,"station_id":"ce4bgt92rcd13ifvqcf0","pricing_plan_id":"cebpf4jnsgd1na2vs0mg"},{"bike_id":"5158a539-a480-4dfa-88e8-abc9ab1de0a6","system_id":"levelo_inurba_marseille","lat":43.29929,"lon":5.3654,"is_reserved":false,"is_disabled":false,"rental_uris":{"android":"levelo://app?vid=5158a539-a480-4dfa-88e8-abc9ab1de0a6","ios":"levelo://app?vid=5158a539-a480-4dfa-88e8-abc9ab1de0a6"},"vehicle_type_id":"4","last_reported":1730920026,"current_range_meters":38800,"station_id":"ce4bgm92rcd13ifvqbr0","pricing_plan_id":"cebpf4jnsgd1na2vs0mg"},{"bike_id":"923d8709-2f23-428d-889a-a4c82a103832","system_id":"levelo_inurba_marseille","lat":43.3041,"lon":5.41286,"is_reserved":false,"is_disabled":false,"rental_uris":{"android":"levelo://app?vid=923d8709-2f23-428d-889a-a4c82a103832","ios":"levelo://app?vid=923d8709-2f23-428d-889a-a4c82a103832"},"vehicle_type_id":"4","last_reported":1730920026,"current_range_meters":38400,"station_id":"ce4bhop2rcd13ifvqh8g","pricing_plan_id":"cebpf4jnsgd1na2vs0mg"},{"bike_id":"792af9eb-5e87-4e49-9e31-c852adb2f915","system_id":"levelo_inurba_marseille","lat":43.261505,"lon":5.375235,"is_reserved":false,"is_disabled":false,"rental_uris":{"android":"levelo://app?vid=792af9eb-5e87-4e49-9e31-c852adb2f915","ios":"levelo://app?vid=792af9eb-5e87-4e49-9e31-c852adb2f915"},"vehicle_type_id":"4","last_reported":1730920026,"current_range_meters":30800,"station_id":"ce4bhgh2rcd13ifvqfa0","pricing_plan_id":"cebpf4jnsgd1na2vs0mg"},{"bike_id":"dd591836-f417-403f-84a9-67ff85978f8f","system_id":"levelo_inurba_marseille","lat":43.2318,"lon":5.3999,"is_reserved":false,"is_disabled":false,"rental_uris":{"android":"levelo://app?vid=dd591836-f417-403f-84a9-67ff85978f8f","ios":"levelo://app?vid=dd591836-f417-403f-84a9-67ff85978f8f"},"vehicle_type_id":"4","last_reported":1730920026,"current_range_meters":6400,"station_id":"ce4bhn12rcd13ifvqgqg","pricing_plan_id":"cebpf4jnsgd1na2vs0mg"},{"bike_id":"5ad43b01-bc16-4b74-baf9-d9dfad938a4b","system_id":"levelo_inurba_marseille","lat":43.30807,"lon":5.38155,"is_reserved":false,"is_disabled":false,"rental_uris":{"android":"levelo://app?vid=5ad43b01-bc16-4b74-baf9-d9dfad938a4b","ios":"levelo://app?vid=5ad43b01-bc16-4b74-baf9-d9dfad938a4b"},"vehicle_type_id":"4","last_reported":1730920026,"current_range_meters":39200,"station_id":"ce4bgt12rcd13ifvqce0","pricing_plan_id":"cebpf4jnsgd1na2vs0mg"},{"bike_id":"85359c8d-cc51-4aa1-991a-1be21e554660","system_id":"levelo_inurba_marseille","lat":43.23179,"lon":5.39986,"is_reserved":false,"is_disabled":false,"rental_uris":{"android":"levelo://app?vid=85359c8d-cc51-4aa1-991a-1be21e554660","ios":"levelo://app?vid=85359c8d-cc51-4aa1-991a-1be21e554660"},"vehicle_type_id":"4","last_reported":1730920026,"current_range_meters":9600,"station_id":"ce4bhn12rcd13ifvqgqg","pricing_plan_id":"cebpf4jnsgd1na2vs0mg"},{"bike_id":"52ce77d3-238f-4c8e-a687-2f136bea75b1","system_id":"levelo_inurba_marseille","lat":43.29776,"lon":5.37099,"is_reserved":false,"is_disabled":false,"rental_uris":{"android":"levelo://app?vid=52ce77d3-238f-4c8e-a687-2f136bea75b1","ios":"levelo://app?vid=52ce77d3-238f-4c8e-a687-2f136bea75b1"},"vehicle_type_id":"4","last_reported":1730920026,"current_range_meters":31200,"station_id":"ce4bgop2rcd13ifvqc1g","pricing_plan_id":"cebpf4jnsgd1na2vs0mg"},{"bike_id":"4d3b7b64-db1f-4ce1-abd0-80f5d86b1828","system_id":"levelo_inurba_marseille","lat":43.29563,"lon":5.39962,"is_reserved":false,"is_disabled":false,"rental_uris":{"android":"levelo://app?vid=4d3b7b64-db1f-4ce1-abd0-80f5d86b1828","ios":"levelo://app?vid=4d3b7b64-db1f-4ce1-abd0-80f5d86b1828"},"vehicle_type_id":"4","last_reported":1730920026,"current_range_meters":16800,"station_id":"ce4bh312rcd13ifvqdj0","pricing_plan_id":"cebpf4jnsgd1na2vs0mg"},{"bike_id":"91474003-42a0-4007-9da0-400341c2242b","system_id":"levelo_inurba_marseille","lat":43.283463,"lon":5.381034,"is_reserved":false,"is_disabled":false,"rental_uris":{"android":"levelo://app?vid=91474003-42a0-4007-9da0-400341c2242b","ios":"levelo://app?vid=91474003-42a0-4007-9da0-400341c2242b"},"vehicle_type_id":"4","last_reported":1730920026,"current_range_meters":20800,"station_id":"ce4bh412rcd13ifvqdr0","pricing_plan_id":"cebpf4jnsgd1na2vs0mg"},{"bike_id":"27b827b3-9e6a-40e5-85ac-202e46f3f38b","system_id":"levelo_inurba_marseille","lat":43.29527,"lon":5.39042,"is_reserved":false,"is_disabled":false,"rental_uris":{"android":"levelo://app?vid=27b827b3-9e6a-40e5-85ac-202e46f3f38b","ios":"levelo://app?vid=27b827b3-9e6a-40e5-85ac-202e46f3f38b"},"vehicle_type_id":"4","last_reported":1730920026,"current_range_meters":38800,"station_id":"ce4bh3p2rcd13ifvqdp0","pricing_plan_id":"cebpf4jnsgd1na2vs0mg"},{"bike_id":"b90b2c99-8d53-4ffd-bebc-8805e3eaa459","system_id":"levelo_inurba_marseille","lat":43.31269,"lon":5.40171,"is_reserved":false,"is_disabled":false,"rental_uris":{"android":"levelo://app?vid=b90b2c99-8d53-4ffd-bebc-8805e3eaa459","ios":"levelo://app?vid=b90b2c99-8d53-4ffd-bebc-8805e3eaa459"},"vehicle_type_id":"4","last_reported":1730920026,"current_range_meters":28800,"station_id":"ce4bh092rcd13ifvqd30","pricing_plan_id":"cebpf4jnsgd1na2vs0mg"},{"bike_id":"44612531-4ed6-4b1d-9da2-292431bf9539","system_id":"levelo_inurba_marseille","lat":43.304568,"lon":5.378965,"is_reserved":false,"is_disabled":false,"rental_uris":{"android":"levelo://app?vid=44612531-4ed6-4b1d-9da2-292431bf9539","ios":"levelo://app?vid=44612531-4ed6-4b1d-9da2-292431bf9539"},"vehicle_type_id":"4","last_reported":1730920026,"current_range_meters":4400,"station_id":"ce4bgrp2rcd13ifvqc9g","pricing_plan_id":"cebpf4jnsgd1na2vs0mg"},{"bike_id":"07766af5-d982-4977-b2a1-98a3259b6a82","system_id":"levelo_inurba_marseille","lat":43.28446,"lon":5.39204,"is_reserved":false,"is_disabled":false,"rental_uris":{"android":"levelo://app?vid=07766af5-d982-4977-b2a1-98a3259b6a82","ios":"levelo://app?vid=07766af5-d982-4977-b2a1-98a3259b6a82"},"vehicle_type_id":"4","last_reported":1730920026,"current_range_meters":9200,"station_id":"ce4bhoh2rcd13ifvqh5g","pricing_plan_id":"cebpf4jnsgd1na2vs0mg"},{"bike_id":"7b03e489-e38f-490f-b482-ed7db3c26bb0","system_id":"levelo_inurba_marseille","lat":43.29867,"lon":5.39744,"is_reserved":false,"is_disabled":false,"rental_uris":{"android":"levelo://app?vid=7b03e489-e38f-490f-b482-ed7db3c26bb0","ios":"levelo://app?vid=7b03e489-e38f-490f-b482-ed7db3c26bb0"},"vehicle_type_id":"4","last_reported":1730920026,"current_range_meters":30400,"station_id":"ce4bh0h2rcd13ifvqd50","pricing_plan_id":"cebpf4jnsgd1na2vs0mg"},{"bike_id":"57d9edc2-c203-4be1-b580-1b845dee8c21","system_id":"levelo_inurba_marseille","lat":43.29513,"lon":5.3904,"is_reserved":false,"is_disabled":false,"rental_uris":{"android":"levelo://app?vid=57d9edc2-c203-4be1-b580-1b845dee8c21","ios":"levelo://app?vid=57d9edc2-c203-4be1-b580-1b845dee8c21"},"vehicle_type_id":"4","last_reported":1730920026,"current_range_meters":25600,"station_id":"ce4bh3p2rcd13ifvqdp0","pricing_plan_id":"cebpf4jnsgd1na2vs0mg"},{"bike_id":"81207453-786d-4deb-bb49-eccfee99e328","system_id":"levelo_inurba_marseille","lat":43.3011,"lon":5.39078,"is_reserved":false,"is_disabled":false,"rental_uris":{"android":"levelo://app?vid=81207453-786d-4deb-bb49-eccfee99e328","ios":"levelo://app?vid=81207453-786d-4deb-bb49-eccfee99e328"},"vehicle_type_id":"4","last_reported":1730920026,"current_range_meters":22000,"station_id":"ce4bh192rcd13ifvqdb0","pricing_plan_id":"cebpf4jnsgd1na2vs0mg"},{"bike_id":"65db49b4-b930-41a8-b3de-94ae5277e660","system_id":"levelo_inurba_marseille","lat":43.25585,"lon":5.38245,"is_reserved":false,"is_disabled":false,"rental_uris":{"android":"levelo://app?vid=65db49b4-b930-41a8-b3de-94ae5277e660","ios":"levelo://app?vid=65db49b4-b930-41a8-b3de-94ae5277e660"},"vehicle_type_id":"4","last_reported":1730920026,"current_range_meters":16000,"station_id":"ce4bhih2rcd13ifvqfs0","pricing_plan_id":"cebpf4jnsgd1na2vs0mg"},{"bike_id":"f7580a0d-9afe-4cc1-8e42-f3683f9d2ed1","system_id":"levelo_inurba_marseille","lat":43.27914,"lon":5.37985,"is_reserved":false,"is_disabled":false,"rental_uris":{"android":"levelo://app?vid=f7580a0d-9afe-4cc1-8e42-f3683f9d2ed1","ios":"levelo://app?vid=f7580a0d-9afe-4cc1-8e42-f3683f9d2ed1"},"vehicle_type_id":"4","last_reported":1730920026,"current_range_meters":12000,"station_id":"ce4bhf92rcd13ifvqf50","pricing_plan_id":"cebpf4jnsgd1na2vs0mg"},{"bike_id":"3e2633be-1a08-4f3e-a9d4-7c4e229befe9","system_id":"levelo_inurba_marseille","lat":43.27816,"lon":5.40719,"is_reserved":false,"is_disabled":false,"rental_uris":{"android":"levelo://app?vid=3e2633be-1a08-4f3e-a9d4-7c4e229befe9","ios":"levelo://app?vid=3e2633be-1a08-4f3e-a9d4-7c4e229befe9"},"vehicle_type_id":"4","last_reported":1730920026,"current_range_meters":33600,"station_id":"ce4bhnh2rcd13ifvqgtg","pricing_plan_id":"cebpf4jnsgd1na2vs0mg"},{"bike_id":"65e96889-7f95-4330-b82f-020ce958b87b","system_id":"levelo_inurba_marseille","lat":43.29424,"lon":5.38625,"is_reserved":false,"is_disabled":false,"rental_uris":{"android":"levelo://app?vid=65e96889-7f95-4330-b82f-020ce958b87b","ios":"levelo://app?vid=65e96889-7f95-4330-b82f-020ce958b87b"},"vehicle_type_id":"4","last_reported":1730920026,"current_range_meters":5600,"station_id":"ce4bh2h2rcd13ifvqdh0","pricing_plan_id":"cebpf4jnsgd1na2vs0mg"},{"bike_id":"0007c120-2b8f-49c1-b3a2-b69854c6b2ad","system_id":"levelo_inurba_marseille","lat":43.27996,"lon":5.40017,"is_reserved":false,"is_disabled":false,"rental_uris":{"android":"levelo://app?vid=0007c120-2b8f-49c1-b3a2-b69854c6b2ad","ios":"levelo://app?vid=0007c120-2b8f-49c1-b3a2-b69854c6b2ad"},"vehicle_type_id":"4","last_reported":1730920026,"current_range_meters":34000,"station_id":"ce4bho92rcd13ifvqh4g","pricing_plan_id":"cebpf4jnsgd1na2vs0mg"},{"bike_id":"514323f4-df69-4f34-a6a7-eb6fb1585d1a","system_id":"levelo_inurba_marseille","lat":43.30907,"lon":5.37194,"is_reserved":false,"is_disabled":false,"rental_uris":{"android":"levelo://app?vid=514323f4-df69-4f34-a6a7-eb6fb1585d1a","ios":"levelo://app?vid=514323f4-df69-4f34-a6a7-eb6fb1585d1a"},"vehicle_type_id":"4","last_reported":1730920026,"current_range_meters":30000,"station_id":"ce4bguh2rcd13ifvqckg","pricing_plan_id":"cebpf4jnsgd1na2vs0mg"},{"bike_id":"0676d849-58b6-4143-8d93-e6ea116edbf5","system_id":"levelo_inurba_marseille","lat":43.25726,"lon":5.41105,"is_reserved":false,"is_disabled":false,"rental_uris":{"android":"levelo://app?vid=0676d849-58b6-4143-8d93-e6ea116edbf5","ios":"levelo://app?vid=0676d849-58b6-4143-8d93-e6ea116edbf5"},"vehicle_type_id":"4","last_reported":1730920026,"current_range_meters":3200,"station_id":"ce4bhkp2rcd13ifvqgd0","pricing_plan_id":"cebpf4jnsgd1na2vs0mg"},{"bike_id":"76a6e6d2-4686-4b04-b754-fb622b90a2bd","system_id":"levelo_inurba_marseille","lat":43.30134,"lon":5.3987,"is_reserved":false,"is_disabled":false,"rental_uris":{"android":"levelo://app?vid=76a6e6d2-4686-4b04-b754-fb622b90a2bd","ios":"levelo://app?vid=76a6e6d2-4686-4b04-b754-fb622b90a2bd"},"vehicle_type_id":"4","last_reported":1730920026,"current_range_meters":38800,"station_id":"ce4bh0h2rcd13ifvqd40","pricing_plan_id":"cebpf4jnsgd1na2vs0mg"},{"bike_id":"00fe3816-0493-45e7-9996-c04de4179916","system_id":"levelo_inurba_marseille","lat":43.28609,"lon":5.37064,"is_reserved":false,"is_disabled":false,"rental_uris":{"android":"levelo://app?vid=00fe3816-0493-45e7-9996-c04de4179916","ios":"levelo://app?vid=00fe3816-0493-45e7-9996-c04de4179916"},"vehicle_type_id":"4","last_reported":1730920026,"current_range_meters":4400,"station_id":"ce4bht12rcd13ifvqi60","pricing_plan_id":"cebpf4jnsgd1na2vs0mg"},{"bike_id":"9cd0732f-5f18-41e1-b15b-6cd9d4be0540","system_id":"levelo_inurba_marseille","lat":43.29195,"lon":5.39322,"is_reserved":false,"is_disabled":false,"rental_uris":{"android":"levelo://app?vid=9cd0732f-5f18-41e1-b15b-6cd9d4be0540","ios":"levelo://app?vid=9cd0732f-5f18-41e1-b15b-6cd9d4be0540"},"vehicle_type_id":"4","last_reported":1730920026,"current_range_meters":10000,"station_id":"ce4bh192rcd13ifvqdd0","pricing_plan_id":"cebpf4jnsgd1na2vs0mg"},{"bike_id":"5e093f2b-ac01-44ce-99d3-0660bd116ea5","system_id":"levelo_inurba_marseille","lat":43.33024,"lon":5.39038,"is_reserved":false,"is_disabled":false,"rental_uris":{"android":"levelo://app?vid=5e093f2b-ac01-44ce-99d3-0660bd116ea5","ios":"levelo://app?vid=5e093f2b-ac01-44ce-99d3-0660bd116ea5"},"vehicle_type_id":"4","last_reported":1730920026,"current_range_meters":8000,"station_id":"ce4bhr92rcd13ifvqhrg","pricing_plan_id":"cebpf4jnsgd1na2vs0mg"},{"bike_id":"8436ecb3-47e0-4cca-9ae8-d7421c2f92f4","system_id":"levelo_inurba_marseille","lat":43.23178,"lon":5.39981,"is_reserved":false,"is_disabled":false,"rental_uris":{"android":"levelo://app?vid=8436ecb3-47e0-4cca-9ae8-d7421c2f92f4","ios":"levelo://app?vid=8436ecb3-47e0-4cca-9ae8-d7421c2f92f4"},"vehicle_type_id":"4","last_reported":1730920026,"current_range_meters":9200,"station_id":"ce4bhn12rcd13ifvqgqg","pricing_plan_id":"cebpf4jnsgd1na2vs0mg"},{"bike_id":"d6f53456-d548-4ff1-9042-bb63f07f33a9","system_id":"levelo_inurba_marseille","lat":43.31256,"lon":5.40159,"is_reserved":false,"is_disabled":false,"rental_uris":{"android":"levelo://app?vid=d6f53456-d548-4ff1-9042-bb63f07f33a9","ios":"levelo://app?vid=d6f53456-d548-4ff1-9042-bb63f07f33a9"},"vehicle_type_id":"4","last_reported":1730920026,"current_range_meters":14800,"station_id":"ce4bh092rcd13ifvqd30","pricing_plan_id":"cebpf4jnsgd1na2vs0mg"},{"bike_id":"0235ad22-6d87-4f43-b0e9-92ff12bebbf1","system_id":"levelo_inurba_marseille","lat":43.2465,"lon":5.38895,"is_reserved":false,"is_disabled":false,"rental_uris":{"android":"levelo://app?vid=0235ad22-6d87-4f43-b0e9-92ff12bebbf1","ios":"levelo://app?vid=0235ad22-6d87-4f43-b0e9-92ff12bebbf1"},"vehicle_type_id":"4","last_reported":1730920026,"current_range_meters":39200,"station_id":"ce4bhg12rcd13ifvqf60","pricing_plan_id":"cebpf4jnsgd1na2vs0mg"},{"bike_id":"497c8b30-2890-49aa-b00a-0c5cabf8bea4","system_id":"levelo_inurba_marseille","lat":43.27998,"lon":5.40026,"is_reserved":false,"is_disabled":false,"rental_uris":{"android":"levelo://app?vid=497c8b30-2890-49aa-b00a-0c5cabf8bea4","ios":"levelo://app?vid=497c8b30-2890-49aa-b00a-0c5cabf8bea4"},"vehicle_type_id":"4","last_reported":1730920026,"current_range_meters":37600,"station_id":"ce4bho92rcd13ifvqh4g","pricing_plan_id":"cebpf4jnsgd1na2vs0mg"},{"bike_id":"436ef769-34a6-47fe-a884-d5fab131c5b4","system_id":"levelo_inurba_marseille","lat":43.258664,"lon":5.398947,"is_reserved":false,"is_disabled":false,"rental_uris":{"android":"levelo://app?vid=436ef769-34a6-47fe-a884-d5fab131c5b4","ios":"levelo://app?vid=436ef769-34a6-47fe-a884-d5fab131c5b4"},"vehicle_type_id":"4","last_reported":1730920026,"current_range_meters":38800,"station_id":"ce4bhl92rcd13ifvqghg","pricing_plan_id":"cebpf4jnsgd1na2vs0mg"},{"bike_id":"eddbfe76-8b03-461a-80ed-f58e73c78f72","system_id":"levelo_inurba_marseille","lat":43.30332,"lon":5.40435,"is_reserved":false,"is_disabled":false,"rental_uris":{"android":"levelo://app?vid=eddbfe76-8b03-461a-80ed-f58e73c78f72","ios":"levelo://app?vid=eddbfe76-8b03-461a-80ed-f58e73c78f72"},"vehicle_type_id":"4","last_reported":1730920026,"current_range_meters":38800,"station_id":"ce4bh012rcd13ifvqd10","pricing_plan_id":"cebpf4jnsgd1na2vs0mg"},{"bike_id":"c7216b74-ccc4-469f-9018-179e9cd6017e","system_id":"levelo_inurba_marseille","lat":43.2842,"lon":5.3752,"is_reserved":false,"is_disabled":false,"rental_uris":{"android":"levelo://app?vid=c7216b74-ccc4-469f-9018-179e9cd6017e","ios":"levelo://app?vid=c7216b74-ccc4-469f-9018-179e9cd6017e"},"vehicle_type_id":"4","last_reported":1730920026,"current_range_meters":14800,"station_id":"ce4bh412rcd13ifvqds0","pricing_plan_id":"cebpf4jnsgd1na2vs0mg"},{"bike_id":"a731dd33-10c2-4158-b07e-2a8192e06221","system_id":"levelo_inurba_marseille","lat":43.27172,"lon":5.40992,"is_reserved":false,"is_disabled":false,"rental_uris":{"android":"levelo://app?vid=a731dd33-10c2-4158-b07e-2a8192e06221","ios":"levelo://app?vid=a731dd33-10c2-4158-b07e-2a8192e06221"},"vehicle_type_id":"4","last_reported":1730920026,"current_range_meters":33600,"station_id":"ce4bhl12rcd13ifvqgf0","pricing_plan_id":"cebpf4jnsgd1na2vs0mg"},{"bike_id":"e13a3043-eb73-4632-8f62-988107f0e07a","system_id":"levelo_inurba_marseille","lat":43.27576,"lon":5.38412,"is_reserved":false,"is_disabled":false,"rental_uris":{"android":"levelo://app?vid=e13a3043-eb73-4632-8f62-988107f0e07a","ios":"levelo://app?vid=e13a3043-eb73-4632-8f62-988107f0e07a"},"vehicle_type_id":"4","last_reported":1730920026,"current_range_meters":19200,"station_id":"ce4bhh92rcd13ifvqfi0","pricing_plan_id":"cebpf4jnsgd1na2vs0mg"},{"bike_id":"d4c18f27-9621-4995-970c-0ef0e8e838f7","system_id":"levelo_inurba_marseille","lat":43.30887,"lon":5.39657,"is_reserved":false,"is_disabled":false,"rental_uris":{"android":"levelo://app?vid=d4c18f27-9621-4995-970c-0ef0e8e838f7","ios":"levelo://app?vid=d4c18f27-9621-4995-970c-0ef0e8e838f7"},"vehicle_type_id":"4","last_reported":1730920026,"current_range_meters":24400,"station_id":"ce4bh012rcd13ifvqcv0","pricing_plan_id":"cebpf4jnsgd1na2vs0mg"},{"bike_id":"8a5ab0b8-50e6-4a14-a130-e6e58f46cb70","system_id":"levelo_inurba_marseille","lat":43.29526,"lon":5.39401,"is_reserved":false,"is_disabled":false,"rental_uris":{"android":"levelo://app?vid=8a5ab0b8-50e6-4a14-a130-e6e58f46cb70","ios":"levelo://app?vid=8a5ab0b8-50e6-4a14-a130-e6e58f46cb70"},"vehicle_type_id":"4","last_reported":1730920026,"current_range_meters":9200,"station_id":"ce4bh292rcd13ifvqdf0","pricing_plan_id":"cebpf4jnsgd1na2vs0mg"},{"bike_id":"52dec1be-2a2d-445a-bd02-026947839260","system_id":"levelo_inurba_marseille","lat":43.3013,"lon":5.39854,"is_reserved":false,"is_disabled":false,"rental_uris":{"android":"levelo://app?vid=52dec1be-2a2d-445a-bd02-026947839260","ios":"levelo://app?vid=52dec1be-2a2d-445a-bd02-026947839260"},"vehicle_type_id":"4","last_reported":1730920026,"current_range_meters":37600,"station_id":"ce4bh0h2rcd13ifvqd40","pricing_plan_id":"cebpf4jnsgd1na2vs0mg"},{"bike_id":"4cd41ba4-29eb-4b4c-8c91-22e98602c0a7","system_id":"levelo_inurba_marseille","lat":43.29867,"lon":5.38907,"is_reserved":false,"is_disabled":false,"rental_uris":{"android":"levelo://app?vid=4cd41ba4-29eb-4b4c-8c91-22e98602c0a7","ios":"levelo://app?vid=4cd41ba4-29eb-4b4c-8c91-22e98602c0a7"},"vehicle_type_id":"4","last_reported":1730920026,"current_range_meters":33600,"station_id":"ce4bh392rcd13ifvqdl0","pricing_plan_id":"cebpf4jnsgd1na2vs0mg"},{"bike_id":"a9db5bdd-ffe8-47b1-ae7d-61ce3c7c65e1","system_id":"levelo_inurba_marseille","lat":43.32549,"lon":5.4143,"is_reserved":false,"is_disabled":false,"rental_uris":{"android":"levelo://app?vid=a9db5bdd-ffe8-47b1-ae7d-61ce3c7c65e1","ios":"levelo://app?vid=a9db5bdd-ffe8-47b1-ae7d-61ce3c7c65e1"},"vehicle_type_id":"4","last_reported":1730920026,"current_range_meters":27200,"station_id":"ce4bhq12rcd13ifvqhhg","pricing_plan_id":"cebpf4jnsgd1na2vs0mg"},{"bike_id":"fbed8a20-ba8f-493d-a500-85e828f3ec4e","system_id":"levelo_inurba_marseille","lat":43.28725,"lon":5.36093,"is_reserved":false,"is_disabled":false,"rental_uris":{"android":"levelo://app?vid=fbed8a20-ba8f-493d-a500-85e828f3ec4e","ios":"levelo://app?vid=fbed8a20-ba8f-493d-a500-85e828f3ec4e"},"vehicle_type_id":"4","last_reported":1730920026,"current_range_meters":38800,"station_id":"cki0cbj6b192h4jlfktg","pricing_plan_id":"cebpf4jnsgd1na2vs0mg"},{"bike_id":"9a242017-b2b8-4871-b084-3d4890f99b1c","system_id":"levelo_inurba_marseille","lat":43.31261,"lon":5.40177,"is_reserved":false,"is_disabled":false,"rental_uris":{"android":"levelo://app?vid=9a242017-b2b8-4871-b084-3d4890f99b1c","ios":"levelo://app?vid=9a242017-b2b8-4871-b084-3d4890f99b1c"},"vehicle_type_id":"4","last_reported":1730920026,"current_range_meters":24400,"station_id":"ce4bh092rcd13ifvqd30","pricing_plan_id":"cebpf4jnsgd1na2vs0mg"},{"bike_id":"b89de553-ece7-4f05-be05-40bcfbb19999","system_id":"levelo_inurba_marseille","lat":43.29255,"lon":5.38438,"is_reserved":false,"is_disabled":false,"rental_uris":{"android":"levelo://app?vid=b89de553-ece7-4f05-be05-40bcfbb19999","ios":"levelo://app?vid=b89de553-ece7-4f05-be05-40bcfbb19999"},"vehicle_type_id":"4","last_reported":1730920026,"current_range_meters":24800,"station_id":"ce4bh692rcd13ifvqea0","pricing_plan_id":"cebpf4jnsgd1na2vs0mg"},{"bike_id":"e2ebc34f-8877-44b7-b7e6-cf338a86e03b","system_id":"levelo_inurba_marseille","lat":43.29886,"lon":5.38915,"is_reserved":false,"is_disabled":false,"rental_uris":{"android":"levelo://app?vid=e2ebc34f-8877-44b7-b7e6-cf338a86e03b","ios":"levelo://app?vid=e2ebc34f-8877-44b7-b7e6-cf338a86e03b"},"vehicle_type_id":"4","last_reported":1730920026,"current_range_meters":38800,"station_id":"ce4bh392rcd13ifvqdl0","pricing_plan_id":"cebpf4jnsgd1na2vs0mg"},{"bike_id":"f3137a24-2762-4c7e-b6f3-badf66e7b06c","system_id":"levelo_inurba_marseille","lat":43.29097,"lon":5.38147,"is_reserved":false,"is_disabled":false,"rental_uris":{"android":"levelo://app?vid=f3137a24-2762-4c7e-b6f3-badf66e7b06c","ios":"levelo://app?vid=f3137a24-2762-4c7e-b6f3-badf66e7b06c"},"vehicle_type_id":"4","last_reported":1730920026,"current_range_meters":38800,"station_id":"ce4bh512rcd13ifvqe2g","pricing_plan_id":"cebpf4jnsgd1na2vs0mg"},{"bike_id":"3d59477b-e46c-4282-9c17-cc3b50a4f9ed","system_id":"levelo_inurba_marseille","lat":43.25822,"lon":5.39429,"is_reserved":false,"is_disabled":false,"rental_uris":{"android":"levelo://app?vid=3d59477b-e46c-4282-9c17-cc3b50a4f9ed","ios":"levelo://app?vid=3d59477b-e46c-4282-9c17-cc3b50a4f9ed"},"vehicle_type_id":"4","last_reported":1730920026,"current_range_meters":6400,"station_id":"ce4bhip2rcd13ifvqft0","pricing_plan_id":"cebpf4jnsgd1na2vs0mg"},{"bike_id":"c2521140-cd50-4676-a3b8-40de4141b394","system_id":"levelo_inurba_marseille","lat":43.29023,"lon":5.37571,"is_reserved":false,"is_disabled":false,"rental_uris":{"android":"levelo://app?vid=c2521140-cd50-4676-a3b8-40de4141b394","ios":"levelo://app?vid=c2521140-cd50-4676-a3b8-40de4141b394"},"vehicle_type_id":"4","last_reported":1730920026,"current_range_meters":22400,"station_id":"ce4bh692rcd13ifvqe90","pricing_plan_id":"cebpf4jnsgd1na2vs0mg"},{"bike_id":"d3e54780-ddfb-432e-bfd3-55d19e8c43c8","system_id":"levelo_inurba_marseille","lat":43.31752,"lon":5.39026,"is_reserved":false,"is_disabled":false,"rental_uris":{"android":"levelo://app?vid=d3e54780-ddfb-432e-bfd3-55d19e8c43c8","ios":"levelo://app?vid=d3e54780-ddfb-432e-bfd3-55d19e8c43c8"},"vehicle_type_id":"4","last_reported":1730920026,"current_range_meters":36800,"station_id":"ce4bhqp2rcd13ifvqhng","pricing_plan_id":"cebpf4jnsgd1na2vs0mg"},{"bike_id":"575ba5d2-89b1-4fa2-90a8-bfc83bb813e2","system_id":"levelo_inurba_marseille","lat":43.29862,"lon":5.39733,"is_reserved":false,"is_disabled":false,"rental_uris":{"android":"levelo://app?vid=575ba5d2-89b1-4fa2-90a8-bfc83bb813e2","ios":"levelo://app?vid=575ba5d2-89b1-4fa2-90a8-bfc83bb813e2"},"vehicle_type_id":"4","last_reported":1730920026,"current_range_meters":39200,"station_id":"ce4bh0h2rcd13ifvqd50","pricing_plan_id":"cebpf4jnsgd1na2vs0mg"},{"bike_id":"a482a3a2-2edd-4960-90b1-3f8fafdad5f6","system_id":"levelo_inurba_marseille","lat":43.31263,"lon":5.4018,"is_reserved":false,"is_disabled":false,"rental_uris":{"android":"levelo://app?vid=a482a3a2-2edd-4960-90b1-3f8fafdad5f6","ios":"levelo://app?vid=a482a3a2-2edd-4960-90b1-3f8fafdad5f6"},"vehicle_type_id":"4","last_reported":1730920026,"current_range_meters":19600,"station_id":"ce4bh092rcd13ifvqd30","pricing_plan_id":"cebpf4jnsgd1na2vs0mg"},{"bike_id":"86be4b55-aa9f-4a49-9caf-b4438599fb25","system_id":"levelo_inurba_marseille","lat":43.29518,"lon":5.394,"is_reserved":false,"is_disabled":false,"rental_uris":{"android":"levelo://app?vid=86be4b55-aa9f-4a49-9caf-b4438599fb25","ios":"levelo://app?vid=86be4b55-aa9f-4a49-9caf-b4438599fb25"},"vehicle_type_id":"4","last_reported":1730920026,"current_range_meters":38000,"station_id":"ce4bh292rcd13ifvqdf0","pricing_plan_id":"cebpf4jnsgd1na2vs0mg"},{"bike_id":"a2573e7b-0f5e-446f-958f-d725aca3e2d4","system_id":"levelo_inurba_marseille","lat":43.29258,"lon":5.38441,"is_reserved":false,"is_disabled":false,"rental_uris":{"android":"levelo://app?vid=a2573e7b-0f5e-446f-958f-d725aca3e2d4","ios":"levelo://app?vid=a2573e7b-0f5e-446f-958f-d725aca3e2d4"},"vehicle_type_id":"4","last_reported":1730920026,"current_range_meters":17600,"station_id":"ce4bh692rcd13ifvqea0","pricing_plan_id":"cebpf4jnsgd1na2vs0mg"},{"bike_id":"2b5ac0fa-6ef7-42f9-b41d-4756aff17319","system_id":"levelo_inurba_marseille","lat":43.30141,"lon":5.39865,"is_reserved":false,"is_disabled":false,"rental_uris":{"android":"levelo://app?vid=2b5ac0fa-6ef7-42f9-b41d-4756aff17319","ios":"levelo://app?vid=2b5ac0fa-6ef7-42f9-b41d-4756aff17319"},"vehicle_type_id":"4","last_reported":1730920026,"current_range_meters":39200,"station_id":"ce4bh0h2rcd13ifvqd40","pricing_plan_id":"cebpf4jnsgd1na2vs0mg"},{"bike_id":"429ef9ba-2db2-4301-915d-0fe85f7a0ea3","system_id":"levelo_inurba_marseille","lat":43.28727,"lon":5.37926,"is_reserved":false,"is_disabled":false,"rental_uris":{"android":"levelo://app?vid=429ef9ba-2db2-4301-915d-0fe85f7a0ea3","ios":"levelo://app?vid=429ef9ba-2db2-4301-915d-0fe85f7a0ea3"},"vehicle_type_id":"4","last_reported":1730920026,"current_range_meters":10000,"station_id":"ce4bh9p2rcd13ifvqec0","pricing_plan_id":"cebpf4jnsgd1na2vs0mg"},{"bike_id":"a9f0fcfb-e8c8-4fec-ae58-f9e58ccfac5b","system_id":"levelo_inurba_marseille","lat":43.27623,"lon":5.36115,"is_reserved":false,"is_disabled":false,"rental_uris":{"android":"levelo://app?vid=a9f0fcfb-e8c8-4fec-ae58-f9e58ccfac5b","ios":"levelo://app?vid=a9f0fcfb-e8c8-4fec-ae58-f9e58ccfac5b"},"vehicle_type_id":"4","last_reported":1730920026,"current_range_meters":24000,"station_id":"ce4bgj92rcd13ifvqbe0","pricing_plan_id":"cebpf4jnsgd1na2vs0mg"},{"bike_id":"8387a344-9b71-41ea-8197-c95ee593a2c6","system_id":"levelo_inurba_marseille","lat":43.29893,"lon":5.43668,"is_reserved":false,"is_disabled":false,"rental_uris":{"android":"levelo://app?vid=8387a344-9b71-41ea-8197-c95ee593a2c6","ios":"levelo://app?vid=8387a344-9b71-41ea-8197-c95ee593a2c6"},"vehicle_type_id":"4","last_reported":1730920026,"current_range_meters":28800,"station_id":"ce4bhpp2rcd13ifvqhfg","pricing_plan_id":"cebpf4jnsgd1na2vs0mg"},{"bike_id":"145f490f-dc1d-4450-ad87-849fb0fa0261","system_id":"levelo_inurba_marseille","lat":43.27557,"lon":5.38408,"is_reserved":false,"is_disabled":false,"rental_uris":{"android":"levelo://app?vid=145f490f-dc1d-4450-ad87-849fb0fa0261","ios":"levelo://app?vid=145f490f-dc1d-4450-ad87-849fb0fa0261"},"vehicle_type_id":"4","last_reported":1730920026,"current_range_meters":30000,"station_id":"ce4bhh92rcd13ifvqfi0","pricing_plan_id":"cebpf4jnsgd1na2vs0mg"},{"bike_id":"075b048b-8589-435e-a40a-b3890b9d40d5","system_id":"levelo_inurba_marseille","lat":43.2439,"lon":5.37063,"is_reserved":false,"is_disabled":false,"rental_uris":{"android":"levelo://app?vid=075b048b-8589-435e-a40a-b3890b9d40d5","ios":"levelo://app?vid=075b048b-8589-435e-a40a-b3890b9d40d5"},"vehicle_type_id":"4","last_reported":1730920026,"current_range_meters":39200,"station_id":"ce4bhhh2rcd13ifvqfk0","pricing_plan_id":"cebpf4jnsgd1na2vs0mg"},{"bike_id":"c37350f0-2a88-475a-93c4-97986b1bd0d2","system_id":"levelo_inurba_marseille","lat":43.29259,"lon":5.40906,"is_reserved":false,"is_disabled":false,"rental_uris":{"android":"levelo://app?vid=c37350f0-2a88-475a-93c4-97986b1bd0d2","ios":"levelo://app?vid=c37350f0-2a88-475a-93c4-97986b1bd0d2"},"vehicle_type_id":"4","last_reported":1730920026,"current_range_meters":5600,"station_id":"ce4bh192rcd13ifvqdc0","pricing_plan_id":"cebpf4jnsgd1na2vs0mg"},{"bike_id":"6f0d63ad-6e37-4c10-bcb8-99731dd77b1f","system_id":"levelo_inurba_marseille","lat":43.29637,"lon":5.40608,"is_reserved":false,"is_disabled":false,"rental_uris":{"android":"levelo://app?vid=6f0d63ad-6e37-4c10-bcb8-99731dd77b1f","ios":"levelo://app?vid=6f0d63ad-6e37-4c10-bcb8-99731dd77b1f"},"vehicle_type_id":"4","last_reported":1730920026,"current_range_meters":39200,"station_id":"ce4bh0h2rcd13ifvqd60","pricing_plan_id":"cebpf4jnsgd1na2vs0mg"},{"bike_id":"35bde476-b8b3-4536-8a9a-5fb02e790887","system_id":"levelo_inurba_marseille","lat":43.298788,"lon":5.389111,"is_reserved":false,"is_disabled":false,"rental_uris":{"android":"levelo://app?vid=35bde476-b8b3-4536-8a9a-5fb02e790887","ios":"levelo://app?vid=35bde476-b8b3-4536-8a9a-5fb02e790887"},"vehicle_type_id":"4","last_reported":1730920026,"current_range_meters":22000,"station_id":"ce4bh392rcd13ifvqdl0","pricing_plan_id":"cebpf4jnsgd1na2vs0mg"},{"bike_id":"c908a577-5a76-45fc-b35f-295e56c21d93","system_id":"levelo_inurba_marseille","lat":43.29251,"lon":5.38442,"is_reserved":false,"is_disabled":false,"rental_uris":{"android":"levelo://app?vid=c908a577-5a76-45fc-b35f-295e56c21d93","ios":"levelo://app?vid=c908a577-5a76-45fc-b35f-295e56c21d93"},"vehicle_type_id":"4","last_reported":1730920026,"current_range_meters":32400,"station_id":"ce4bh692rcd13ifvqea0","pricing_plan_id":"cebpf4jnsgd1na2vs0mg"},{"bike_id":"6d27232f-4ea8-4613-acc0-c4108b735739","system_id":"levelo_inurba_marseille","lat":43.27975,"lon":5.41665,"is_reserved":false,"is_disabled":false,"rental_uris":{"android":"levelo://app?vid=6d27232f-4ea8-4613-acc0-c4108b735739","ios":"levelo://app?vid=6d27232f-4ea8-4613-acc0-c4108b735739"},"vehicle_type_id":"4","last_reported":1730920026,"current_range_meters":30800,"station_id":"ce4bho12rcd13ifvqh1g","pricing_plan_id":"cebpf4jnsgd1na2vs0mg"},{"bike_id":"615280ca-f059-40fe-82f2-b888639b02a5","system_id":"levelo_inurba_marseille","lat":43.326584,"lon":5.409937,"is_reserved":false,"is_disabled":false,"rental_uris":{"android":"levelo://app?vid=615280ca-f059-40fe-82f2-b888639b02a5","ios":"levelo://app?vid=615280ca-f059-40fe-82f2-b888639b02a5"},"vehicle_type_id":"4","last_reported":1730920026,"current_range_meters":31200,"station_id":"ce4bhpp2rcd13ifvqhgg","pricing_plan_id":"cebpf4jnsgd1na2vs0mg"},{"bike_id":"51af0a6b-ab65-4a32-a61e-bba1707c844d","system_id":"levelo_inurba_marseille","lat":43.29265,"lon":5.38441,"is_reserved":false,"is_disabled":false,"rental_uris":{"android":"levelo://app?vid=51af0a6b-ab65-4a32-a61e-bba1707c844d","ios":"levelo://app?vid=51af0a6b-ab65-4a32-a61e-bba1707c844d"},"vehicle_type_id":"4","last_reported":1730920026,"current_range_meters":39200,"station_id":"ce4bh692rcd13ifvqea0","pricing_plan_id":"cebpf4jnsgd1na2vs0mg"},{"bike_id":"2ad91625-6637-429b-941d-c474ffd375d8","system_id":"levelo_inurba_marseille","lat":43.28669,"lon":5.36347,"is_reserved":false,"is_disabled":false,"rental_uris":{"android":"levelo://app?vid=2ad91625-6637-429b-941d-c474ffd375d8","ios":"levelo://app?vid=2ad91625-6637-429b-941d-c474ffd375d8"},"vehicle_type_id":"4","last_reported":1730920026,"current_range_meters":34800,"station_id":"ce4bhah2rcd13ifvqej0","pricing_plan_id":"cebpf4jnsgd1na2vs0mg"},{"bike_id":"23d94fea-d1fe-489e-8e76-34c73d47b261","system_id":"levelo_inurba_marseille","lat":43.28846,"lon":5.35856,"is_reserved":false,"is_disabled":false,"rental_uris":{"android":"levelo://app?vid=23d94fea-d1fe-489e-8e76-34c73d47b261","ios":"levelo://app?vid=23d94fea-d1fe-489e-8e76-34c73d47b261"},"vehicle_type_id":"4","last_reported":1730920026,"current_range_meters":38800,"station_id":"ce4bhb12rcd13ifvqem0","pricing_plan_id":"cebpf4jnsgd1na2vs0mg"},{"bike_id":"1b8665b8-3fba-48e1-9f38-47bc7afbeb61","system_id":"levelo_inurba_marseille","lat":43.30148,"lon":5.39846,"is_reserved":false,"is_disabled":false,"rental_uris":{"android":"levelo://app?vid=1b8665b8-3fba-48e1-9f38-47bc7afbeb61","ios":"levelo://app?vid=1b8665b8-3fba-48e1-9f38-47bc7afbeb61"},"vehicle_type_id":"4","last_reported":1730920026,"current_range_meters":38800,"station_id":"ce4bh0h2rcd13ifvqd40","pricing_plan_id":"cebpf4jnsgd1na2vs0mg"},{"bike_id":"20c80413-bdb6-4737-bcdb-0a5d048834b3","system_id":"levelo_inurba_marseille","lat":43.23178,"lon":5.39986,"is_reserved":false,"is_disabled":false,"rental_uris":{"android":"levelo://app?vid=20c80413-bdb6-4737-bcdb-0a5d048834b3","ios":"levelo://app?vid=20c80413-bdb6-4737-bcdb-0a5d048834b3"},"vehicle_type_id":"4","last_reported":1730920026,"current_range_meters":38800,"station_id":"ce4bhn12rcd13ifvqgqg","pricing_plan_id":"cebpf4jnsgd1na2vs0mg"},{"bike_id":"bdf52a34-8790-49fd-815a-8a08721cb924","system_id":"levelo_inurba_marseille","lat":43.29869,"lon":5.39734,"is_reserved":false,"is_disabled":false,"rental_uris":{"android":"levelo://app?vid=bdf52a34-8790-49fd-815a-8a08721cb924","ios":"levelo://app?vid=bdf52a34-8790-49fd-815a-8a08721cb924"},"vehicle_type_id":"4","last_reported":1730920026,"current_range_meters":39200,"station_id":"ce4bh0h2rcd13ifvqd50","pricing_plan_id":"cebpf4jnsgd1na2vs0mg"},{"bike_id":"af38d3fb-555b-48ff-96a2-e633fd50be3d","system_id":"levelo_inurba_marseille","lat":43.28275,"lon":5.35063,"is_reserved":false,"is_disabled":false,"rental_uris":{"android":"levelo://app?vid=af38d3fb-555b-48ff-96a2-e633fd50be3d","ios":"levelo://app?vid=af38d3fb-555b-48ff-96a2-e633fd50be3d"},"vehicle_type_id":"4","last_reported":1730920026,"current_range_meters":9600,"station_id":"ce4bhbp2rcd13ifvqerg","pricing_plan_id":"cebpf4jnsgd1na2vs0mg"},{"bike_id":"319d4761-c65a-4af6-b42c-312f7abb5990","system_id":"levelo_inurba_marseille","lat":43.337551,"lon":5.374532,"is_reserved":false,"is_disabled":false,"rental_uris":{"android":"levelo://app?vid=319d4761-c65a-4af6-b42c-312f7abb5990","ios":"levelo://app?vid=319d4761-c65a-4af6-b42c-312f7abb5990"},"vehicle_type_id":"4","last_reported":1730920026,"current_range_meters":30800,"station_id":"","pricing_plan_id":"cebpf4jnsgd1na2vs0mg"},{"bike_id":"ee687d4d-2786-4c98-92c4-21815f8590dd","system_id":"levelo_inurba_marseille","lat":43.26597,"lon":5.39036,"is_reserved":false,"is_disabled":false,"rental_uris":{"android":"levelo://app?vid=ee687d4d-2786-4c98-92c4-21815f8590dd","ios":"levelo://app?vid=ee687d4d-2786-4c98-92c4-21815f8590dd"},"vehicle_type_id":"4","last_reported":1730920026,"current_range_meters":10000,"station_id":"ce4bhe12rcd13ifvqf30","pricing_plan_id":"cebpf4jnsgd1na2vs0mg"},