{"last_updated":1717776553,"ttl":30,"version":"2.2","data":{"bikes":[{"bike_id":"66321f5a-fc4c-474c-8350-2bc1c51c7121","system_id":"levelo_inurba_marseille","lat":43.309076,"lon":5.368465,"is_reserved":false,"is_disabled":false,"rental_uris":{"android":"levelo://app?vid=66321f5a-fc4c-474c-8350-2bc1c51c7121","ios":"levelo://app?vid=66321f5a-fc4c-474c-8350-2bc1c51c7121"},"vehicle_type_id":"4","last_reported":1717776553,"current_range_meters":18000,"station_id":"ce4bgn92rcd13ifvqbvg","pricing_plan_id":"cebpf4jnsgd1na2vs0mg"},{"bike_id":"ee7383d4-fdd8-46f9-ad27-c5193471fa6d","system_id":"levelo_inurba_marseille","lat":43.3158,"lon":5.37483,"is_reserved":false,"is_disabled":false,"rental_uris":{"android":"levelo://app?vid=ee7383d4-fdd8-46f9-ad27-c5193471fa6d","ios":"levelo://app?vid=ee7383d4-fdd8-46f9-ad27-c5193471fa6d"},"vehicle_type_id":"4","last_reported":1717776553,"current_range_meters":0,"station_id":"","pricing_plan_id":"cebpf4jnsgd1na2vs0mg"},{"bike_id":"97665032-16b6-4555-8e40-cd27772a6f91","system_id":"levelo_inurba_marseille","lat":43.30537,"lon":5.367345,"is_reserved":false,"is_disabled":false,"rental_uris":{"android":"levelo://app?vid=97665032-16b6-4555-8e40-cd27772a6f91","ios":"levelo://app?vid=97665032-16b6-4555-8e40-cd27772a6f91"},"vehicle_type_id":"4","last_reported":1717776553,"current_range_meters":800,"station_id":"ce4bgrp2rcd13ifvqc9g","pricing_plan_id":"cebpf4jnsgd1na2vs0mg"},{"bike_id":"f0d8e68c-e4f5-43b5-a50f-ed3b4ef0e007","system_id":"levelo_inurba_marseille","lat":43.305706,"lon":5.365654,"is_reserved":false,"is_disabled":false,"rental_uris":{"android":"levelo://app?vid=f0d8e68c-e4f5-43b5-a50f-ed3b4ef0e007","ios":"levelo://app?vid=f0d8e68c-e4f5-43b5-a50f-ed3b4ef0e007"},"vehicle_type_id":"4","last_reported":1717776553,"current_range_meters":12800,"station_id":"ce4bgs12rcd13ifvqcag","pricing_plan_id":"cebpf4jnsgd1na2vs0mg"},{"bike_id":"8ebbd744-556d-4576-97c2-3b9b5a19890c","system_id":"levelo_inurba_marseille","lat":43.305706,"lon":5.365654,"is_reserved":false,"is_disabled":false,"rental_uris":{"android":"levelo://app?vid=8ebbd744-556d-4576-97c2-3b9b5a19890c","ios":"levelo://app?vid=8ebbd744-556d-4576-97c2-3b9b5a19890c"},"vehicle_type_id":"4","last_reported":1717776553,"current_range_meters":15200,"station_id":"ce4bgs12rcd13ifvqcag","pricing_plan_id":"cebpf4jnsgd1na2vs0mg"},{"bike_id":"d27eace6-07a9-478b-b374-f7a384bef1da","system_id":"levelo_inurba_marseille","lat":43.309034,"lon":5.371783,"is_reserved":false,"is_disabled":false,"rental_uris":{"android":"levelo://app?vid=d27eace6-07a9-478b-b374-f7a384bef1da","ios":"levelo://app?vid=d27eace6-07a9-478b-b374-f7a384bef1da"},"vehicle_type_id":"4","last_reported":1717776553,"current_range_meters":14800,"station_id":"ce4bguh2rcd13ifvqckg","pricing_plan_id":"cebpf4jnsgd1na2vs0mg"},{"bike_id":"a1b3d814-c1b1-404f-90d2-2b2400fbd43a","system_id":"levelo_inurba_marseille","lat":43.317075,"lon":5.377367,"is_reserved":false,"is_disabled":false,"rental_uris":{"android":"levelo://app?vid=a1b3d814-c1b1-404f-90d2-2b2400fbd43a","ios":"levelo://app?vid=a1b3d814-c1b1-404f-90d2-2b2400fbd43a"},"vehicle_type_id":"4","last_reported":1717776553,"current_range_meters":3200,"station_id":"ce4bgth2rcd13ifvqch0","pricing_plan_id":"cebpf4jnsgd1na2vs0mg"},{"bike_id":"4bf201c8-1a65-4ccf-b1de-f52e548e7784","system_id":"levelo_inurba_marseille","lat":43.32178,"lon":5.36855,"is_reserved":false,"is_disabled":false,"rental_uris":{"android":"levelo://app?vid=4bf201c8-1a65-4ccf-b1de-f52e548e7784","ios":"levelo://app?vid=4bf201c8-1a65-4ccf-b1de-f52e548e7784"},"vehicle_type_id":"4","last_reported":1717776553,"current_range_meters":0,"station_id":"","pricing_plan_id":"cebpf4jnsgd1na2vs0mg"},{"bike_id":"a1792823-d637-46bd-9893-ff9dbd26ab5c","system_id":"levelo_inurba_marseille","lat":43.303046,"lon":5.368981,"is_reserved":false,"is_disabled":false,"rental_uris":{"android":"levelo://app?vid=a1792823-d637-46bd-9893-ff9dbd26ab5c","ios":"levelo://app?vid=a1792823-d637-46bd-9893-ff9dbd26ab5c"},"vehicle_type_id":"4","last_reported":1717776553,"current_range_meters":8800,"station_id":"ce4bgqh2rcd13ifvqc5g","pricing_plan_id":"cebpf4jnsgd1na2vs0mg"},{"bike_id":"80c08c21-bc0f-4641-bf16-dab89971b755","system_id":"levelo_inurba_marseille","lat":43.303046,"lon":5.368981,"is_reserved":false,"is_disabled":false,"rental_uris":{"android":"levelo://app?vid=80c08c21-bc0f-4641-bf16-dab89971b755","ios":"levelo://app?vid=80c08c21-bc0f-4641-bf16-dab89971b755"},"vehicle_type_id":"4","last_reported":1717776553,"current_range_meters":29600,"station_id":"ce4bgqh2rcd13ifvqc5g","pricing_plan_id":"cebpf4jnsgd1na2vs0mg"},{"bike_id":"c4876cdc-15ed-4c4f-9b9d-6d8c8ff9a189","system_id":"levelo_inurba_marseille","lat":43.303046,"lon":5.368981,"is_reserved":false,"is_disabled":false,"rental_uris":{"android":"levelo://app?vid=c4876cdc-15ed-4c4f-9b9d-6d8c8ff9a189","ios":"levelo://app?vid=c4876cdc-15ed-4c4f-9b9d-6d8c8ff9a189"},"vehicle_type_id":"4","last_reported":1717776553,"current_range_meters":30800,"station_id":"ce4bgqh2rcd13ifvqc5g","pricing_plan_id":"cebpf4jnsgd1na2vs0mg"},{"bike_id":"145ce229-b5ac-4e2c-bb33-7bce516f00e7","system_id":"levelo_inurba_marseille","lat":43.303046,"lon":5.368981,"is_reserved":false,"is_disabled":false,"rental_uris":{"android":"levelo://app?vid=145ce229-b5ac-4e2c-bb33-7bce516f00e7","ios":"levelo://app?vid=145ce229-b5ac-4e2c-bb33-7bce516f00e7"},"vehicle_type_id":"4","last_reported":1717776553,"current_range_meters":0,"station_id":"ce4bgqh2rcd13ifvqc5g","pricing_plan_id":"cebpf4jnsgd1na2vs0mg"},{"bike_id":"06cc4070-ea8f-45d5-9d11-9e73f79266e7","system_id":"levelo_inurba_marseille","lat":43.315289,"lon":5.380349,"is_reserved":false,"is_disabled":false,"rental_uris":{"android":"levelo://app?vid=06cc4070-ea8f-45d5-9d11-9e73f79266e7","ios":"levelo://app?vid=06cc4070-ea8f-45d5-9d11-9e73f79266e7"},"vehicle_type_id":"4","last_reported":1717776553,"current_range_meters":21600,"station_id":"ce4bhsp2rcd13ifvqi50","pricing_plan_id":"cebpf4jnsgd1na2vs0mg"},{"bike_id":"4a029ac6-59ac-4f02-8910-2fa630cb5a42","system_id":"levelo_inurba_marseille","lat":43.308012,"lon":5.381511,"is_reserved":false,"is_disabled":false,"rental_uris":{"android":"levelo://app?vid=4a029ac6-59ac-4f02-8910-2fa630cb5a42","ios":"levelo://app?vid=4a029ac6-59ac-4f02-8910-2fa630cb5a42"},"vehicle_type_id":"4","last_reported":1717776553,"current_range_meters":15200,"station_id":"ce4bgt12rcd13ifvqce0","pricing_plan_id":"cebpf4jnsgd1na2vs0mg"},{"bike_id":"216b003a-669e-41ea-a542-ba3384a6185f","system_id":"levelo_inurba_marseille","lat":43.310616,"lon":5.383481,"is_reserved":false,"is_disabled":false,"rental_uris":{"android":"levelo://app?vid=216b003a-669e-41ea-a542-ba3384a6185f","ios":"levelo://app?vid=216b003a-669e-41ea-a542-ba3384a6185f"},"vehicle_type_id":"4","last_reported":1717776553,"current_range_meters":0,"station_id":"ce4bgv92rcd13ifvqcr0","pricing_plan_id":"cebpf4jnsgd1na2vs0mg"},{"bike_id":"9e9f766d-1737-4810-961a-a3b41af13efc","system_id":"levelo_inurba_marseille","lat":43.31071,"lon":5.38355,"is_reserved":false,"is_disabled":false,"rental_uris":{"android":"levelo://app?vid=9e9f766d-1737-4810-961a-a3b41af13efc","ios":"levelo://app?vid=9e9f766d-1737-4810-961a-a3b41af13efc"},"vehicle_type_id":"4","last_reported":1717776553,"current_range_meters":0,"station_id":"ce4bgv92rcd13ifvqcr0","pricing_plan_id":"cebpf4jnsgd1na2vs0mg"},{"bike_id":"5f9140e3-2810-4bf8-ad56-439a330b50bd","system_id":"levelo_inurba_marseille","lat":43.310804,"lon":5.38359,"is_reserved":false,"is_disabled":false,"rental_uris":{"android":"levelo://app?vid=5f9140e3-2810-4bf8-ad56-439a330b50bd","ios":"levelo://app?vid=5f9140e3-2810-4bf8-ad56-439a330b50bd"},"vehicle_type_id":"4","last_reported":1717776553,"current_range_meters":0,"station_id":"ce4bgv92rcd13ifvqcr0","pricing_plan_id":"cebpf4jnsgd1na2vs0mg"},{"bike_id":"d059be35-2404-4440-aa5d-05d75da4f00d","system_id":"levelo_inurba_marseille","lat":43.310804,"lon":5.38359,"is_reserved":false,"is_disabled":false,"rental_uris":{"android":"levelo://app?vid=d059be35-2404-4440-aa5d-05d75da4f00d","ios":"levelo://app?vid=d059be35-2404-4440-aa5d-05d75da4f00d"},"vehicle_type_id":"4","last_reported":1717776553,"current_range_meters":27600,"station_id":"ce4bgv92rcd13ifvqcr0","pricing_plan_id":"cebpf4jnsgd1na2vs0mg"},{"bike_id":"62dd1628-3929-429c-a744-9f0995942fd5","system_id":"levelo_inurba_marseille","lat":43.310804,"lon":5.38359,"is_reserved":false,"is_disabled":false,"rental_uris":{"android":"levelo://app?vid=62dd1628-3929-429c-a744-9f0995942fd5","ios":"levelo://app?vid=62dd1628-3929-429c-a744-9f0995942fd5"},"vehicle_type_id":"4","last_reported":1717776553,"current_range_meters":5600,"station_id":"ce4bgv92rcd13ifvqcr0","pricing_plan_id":"cebpf4jnsgd1na2vs0mg"},{"bike_id":"f499c9dd-8852-408c-9372-d58e3c9b46ac","system_id":"levelo_inurba_marseille","lat":43.310804,"lon":5.38359,"is_reserved":false,"is_disabled":false,"rental_uris":{"android":"levelo://app?vid=f499c9dd-8852-408c-9372-d58e3c9b46ac","ios":"levelo://app?vid=f499c9dd-8852-408c-9372-d58e3c9b46ac"},"vehicle_type_id":"4","last_reported":1717776553,"current_range_meters":0,"station_id":"ce4bgv92rcd13ifvqcr0","pricing_plan_id":"cebpf4jnsgd1na2vs0mg"},{"bike_id":"414d0e6e-1aa9-4b6f-8e9b-8990470ef40f","system_id":"levelo_inurba_marseille","lat":43.30143,"lon":5.37413,"is_reserved":false,"is_disabled":false,"rental_uris":{"android":"levelo://app?vid=414d0e6e-1aa9-4b6f-8e9b-8990470ef40f","ios":"levelo://app?vid=414d0e6e-1aa9-4b6f-8e9b-8990470ef40f"},"vehicle_type_id":"4","last_reported":1717776553,"current_range_meters":28400,"station_id":"ce4bgs92rcd13ifvqcc0","pricing_plan_id":"cebpf4jnsgd1na2vs0mg"},{"bike_id":"3c9fe599-11ef-4904-ac9f-222bc966a693","system_id":"levelo_inurba_marseille","lat":43.306212,"lon":5.381791,"is_reserved":false,"is_disabled":false,"rental_uris":{"android":"levelo://app?vid=3c9fe599-11ef-4904-ac9f-222bc966a693","ios":"levelo://app?vid=3c9fe599-11ef-4904-ac9f-222bc966a693"},"vehicle_type_id":"4","last_reported":1717776553,"current_range_meters":6000,"station_id":"","pricing_plan_id":"cebpf4jnsgd1na2vs0mg"},{"bike_id":"cdbf5455-fa94-42c0-b22f-f8306f01d739","system_id":"levelo_inurba_marseille","lat":43.31991,"lon":5.38144,"is_reserved":false,"is_disabled":false,"rental_uris":{"android":"levelo://app?vid=cdbf5455-fa94-42c0-b22f-f8306f01d739","ios":"levelo://app?vid=cdbf5455-fa94-42c0-b22f-f8306f01d739"},"vehicle_type_id":"4","last_reported":1717776553,"current_range_meters":10400,"station_id":"ce4bhr12rcd13ifvqhpg","pricing_plan_id":"cebpf4jnsgd1na2vs0mg"},{"bike_id":"4cb50e0a-e71b-430e-a1d0-e655e88be306","system_id":"levelo_inurba_marseille","lat":43.319937,"lon":5.381646,"is_reserved":false,"is_disabled":false,"rental_uris":{"android":"levelo://app?vid=4cb50e0a-e71b-430e-a1d0-e655e88be306","ios":"levelo://app?vid=4cb50e0a-e71b-430e-a1d0-e655e88be306"},"vehicle_type_id":"4","last_reported":1717776553,"current_range_meters":18800,"station_id":"ce4bhr12rcd13ifvqhpg","pricing_plan_id":"cebpf4jnsgd1na2vs0mg"},{"bike_id":"32558239-e2b2-4b93-8f91-da8597a9854c","system_id":"levelo_inurba_marseille","lat":43.313571,"lon":5.384829,"is_reserved":false,"is_disabled":false,"rental_uris":{"android":"levelo://app?vid=32558239-e2b2-4b93-8f91-da8597a9854c","ios":"levelo://app?vid=32558239-e2b2-4b93-8f91-da8597a9854c"},"vehicle_type_id":"4","last_reported":1717776553,"current_range_meters":29600,"station_id":"ce4bgt92rcd13ifvqcf0","pricing_plan_id":"cebpf4jnsgd1na2vs0mg"},{"bike_id":"4f5c5750-ebab-4d69-9792-1b11ac27e5d3","system_id":"levelo_inurba_marseille","lat":43.299326,"lon":5.365438,"is_reserved":false,"is_disabled":false,"rental_uris":{"android":"levelo://app?vid=4f5c5750-ebab-4d69-9792-1b11ac27e5d3","ios":"levelo://app?vid=4f5c5750-ebab-4d69-9792-1b11ac27e5d3"},"vehicle_type_id":"4","last_reported":1717776553,"current_range_meters":8400,"station_id":"ce4bgn12rcd13ifvqbt0","pricing_plan_id":"cebpf4jnsgd1na2vs0mg"},{"bike_id":"14ba294e-39f7-4266-972d-3aebe5c17942","system_id":"levelo_inurba_marseille","lat":43.299125,"lon":5.374669,"is_reserved":false,"is_disabled":false,"rental_uris":{"android":"levelo://app?vid=14ba294e-39f7-4266-972d-3aebe5c17942","ios":"levelo://app?vid=14ba294e-39f7-4266-972d-3aebe5c17942"},"vehicle_type_id":"4","last_reported":1717776553,"current_range_meters":1200,"station_id":"ce4bgjh2rcd13ifvqbg0","pricing_plan_id":"cebpf4jnsgd1na2vs0mg"},{"bike_id":"391e9bc1-bfa7-4a0d-b4a2-69a7ccdaad08","system_id":"levelo_inurba_marseille","lat":43.29915,"lon":5.37483,"is_reserved":false,"is_disabled":false,"rental_uris":{"android":"levelo://app?vid=391e9bc1-bfa7-4a0d-b4a2-69a7ccdaad08","ios":"levelo://app?vid=391e9bc1-bfa7-4a0d-b4a2-69a7ccdaad08"},"vehicle_type_id":"4","last_reported":1717776553,"current_range_meters":0,"station_id":"ce4bgjh2rcd13ifvqbg0","pricing_plan_id":"cebpf4jnsgd1na2vs0mg"},{"bike_id":"687d762a-009a-4aff-b34c-e1b1a83376d0","system_id":"levelo_inurba_marseille","lat":43.297794,"lon":5.370888,"is_reserved":false,"is_disabled":false,"rental_uris":{"android":"levelo://app?vid=687d762a-009a-4aff-b34c-e1b1a83376d0","ios":"levelo://app?vid=687d762a-009a-4aff-b34c-e1b1a83376d0"},"vehicle_type_id":"4","last_reported":1717776553,"current_range_meters":8800,"station_id":"ce4bgop2rcd13ifvqc1g","pricing_plan_id":"cebpf4jnsgd1na2vs0mg"},{"bike_id":"23f7d586-dbc2-48e8-b500-0e7921230d53","system_id":"levelo_inurba_marseille","lat":43.299961,"lon":5.378238,"is_reserved":false,"is_disabled":false,"rental_uris":{"android":"levelo://app?vid=23f7d586-dbc2-48e8-b500-0e7921230d53","ios":"levelo://app?vid=23f7d586-dbc2-48e8-b500-0e7921230d53"},"vehicle_type_id":"4","last_reported":1717776553,"current_range_meters":2800,"station_id":"","pricing_plan_id":"cebpf4jnsgd1na2vs0mg"},{"bike_id":"78e24f65-8640-48bf-b76c-9e82e0350dde","system_id":"levelo_inurba_marseille","lat":43.322933,"lon":5.382542,"is_reserved":false,"is_disabled":false,"rental_uris":{"android":"levelo://app?vid=78e24f65-8640-48bf-b76c-9e82e0350dde","ios":"levelo://app?vid=78e24f65-8640-48bf-b76c-9e82e0350dde"},"vehicle_type_id":"4","last_reported":1717776553,"current_range_meters":9200,"station_id":"ce4bhr12rcd13ifvqhqg","pricing_plan_id":"cebpf4jnsgd1na2vs0mg"},{"bike_id":"eecff279-029d-4aeb-b256-5405f226927c","system_id":"levelo_inurba_marseille","lat":43.322872,"lon":5.382756,"is_reserved":false,"is_disabled":false,"rental_uris":{"android":"levelo://app?vid=eecff279-029d-4aeb-b256-5405f226927c","ios":"levelo://app?vid=eecff279-029d-4aeb-b256-5405f226927c"},"vehicle_type_id":"4","last_reported":1717776553,"current_range_meters":16400,"station_id":"ce4bhr12rcd13ifvqhqg","pricing_plan_id":"cebpf4jnsgd1na2vs0mg"},{"bike_id":"9834a927-9501-4a29-b56f-dd7e32d0a4ae","system_id":"levelo_inurba_marseille","lat":43.297037,"lon":5.366204,"is_reserved":false,"is_disabled":false,"rental_uris":{"android":"levelo://app?vid=9834a927-9501-4a29-b56f-dd7e32d0a4ae","ios":"levelo://app?vid=9834a927-9501-4a29-b56f-dd7e32d0a4ae"},"vehicle_type_id":"4","last_reported":1717776553,"current_range_meters":0,"station_id":"ce4bgn12rcd13ifvqbt0","pricing_plan_id":"cebpf4jnsgd1na2vs0mg"},{"bike_id":"e318a96f-a48a-4974-9e92-ba2b3ad4aafe","system_id":"levelo_inurba_marseille","lat":43.29701,"lon":5.366114,"is_reserved":false,"is_disabled":false,"rental_uris":{"android":"levelo://app?vid=e318a96f-a48a-4974-9e92-ba2b3ad4aafe","ios":"levelo://app?vid=e318a96f-a48a-4974-9e92-ba2b3ad4aafe"},"vehicle_type_id":"4","last_reported":1717776553,"current_range_meters":7200,"station_id":"ce4bgn12rcd13ifvqbt0","pricing_plan_id":"cebpf4jnsgd1na2vs0mg"},{"bike_id":"6da1d77f-6732-4208-837a-5af1273ce2b3","system_id":"levelo_inurba_marseille","lat":43.296999,"lon":5.366099,"is_reserved":false,"is_disabled":false,"rental_uris":{"android":"levelo://app?vid=6da1d77f-6732-4208-837a-5af1273ce2b3","ios":"levelo://app?vid=6da1d77f-6732-4208-837a-5af1273ce2b3"},"vehicle_type_id":"4","last_reported":1717776553,"current_range_meters":6800,"station_id":"ce4bgn12rcd13ifvqbt0","pricing_plan_id":"cebpf4jnsgd1na2vs0mg"},{"bike_id":"bfe33d00-22be-4fcb-b412-bf8809def526","system_id":"levelo_inurba_marseille","lat":43.326141,"lon":5.378847,"is_reserved":false,"is_disabled":false,"rental_uris":{"android":"levelo://app?vid=bfe33d00-22be-4fcb-b412-bf8809def526","ios":"levelo://app?vid=bfe33d00-22be-4fcb-b412-bf8809def526"},"vehicle_type_id":"4","last_reported":1717776553,"current_range_meters":17600,"station_id":"","pricing_plan_id":"cebpf4jnsgd1na2vs0mg"},{"bike_id":"383c5909-8059-40a0-9f82-7e27299837ea","system_id":"levelo_inurba_marseille","lat":43.2968,"lon":5.37291,"is_reserved":false,"is_disabled":false,"rental_uris":{"android":"levelo://app?vid=383c5909-8059-40a0-9f82-7e27299837ea","ios":"levelo://app?vid=383c5909-8059-40a0-9f82-7e27299837ea"},"vehicle_type_id":"4","last_reported":1717776553,"current_range_meters":5600,"station_id":"ce4bgk12rcd13ifvqbj0","pricing_plan_id":"cebpf4jnsgd1na2vs0mg"},{"bike_id":"70dda31b-1d72-480f-8a2f-fc3e74d6877b","system_id":"levelo_inurba_marseille","lat":43.2968,"lon":5.37291,"is_reserved":false,"is_disabled":false,"rental_uris":{"android":"levelo://app?vid=70dda31b-1d72-480f-8a2f-fc3e74d6877b","ios":"levelo://app?vid=70dda31b-1d72-480f-8a2f-fc3e74d6877b"},"vehicle_type_id":"4","last_reported":1717776553,"current_range_meters":1200,"station_id":"ce4bgk12rcd13ifvqbj0","pricing_plan_id":"cebpf4jnsgd1na2vs0mg"},{"bike_id":"9b85d55a-e93b-4662-bf4c-c48cd17d4650","system_id":"levelo_inurba_marseille","lat":43.309589,"lon":5.390258,"is_reserved":false,"is_disabled":false,"rental_uris":{"android":"levelo://app?vid=9b85d55a-e93b-4662-bf4c-c48cd17d4650","ios":"levelo://app?vid=9b85d55a-e93b-4662-bf4c-c48cd17d4650"},"vehicle_type_id":"4","last_reported":1717776553,"current_range_meters":0,"station_id":"ce4bgup2rcd13ifvqco0","pricing_plan_id":"cebpf4jnsgd1na2vs0mg"},{"bike_id":"a5d5a5e5-f524-4c49-abee-c1bfc41665ad","system_id":"levelo_inurba_marseille","lat":43.296131,"lon":5.370791,"is_reserved":false,"is_disabled":false,"rental_uris":{"android":"levelo://app?vid=a5d5a5e5-f524-4c49-abee-c1bfc41665ad","ios":"levelo://app?vid=a5d5a5e5-f524-4c49-abee-c1bfc41665ad"},"vehicle_type_id":"4","last_reported":1717776553,"current_range_meters":3600,"station_id":"ce4bgnh2rcd13ifvqc0g","pricing_plan_id":"cebpf4jnsgd1na2vs0mg"},{"bike_id":"f65254f4-0c57-484e-a442-fd3f4e55c3c9","system_id":"levelo_inurba_marseille","lat":43.322872,"lon":5.382756,"is_reserved":false,"is_disabled":false,"rental_uris":{"android":"levelo://app?vid=f65254f4-0c57-484e-a442-fd3f4e55c3c9","ios":"levelo://app?vid=f65254f4-0c57-484e-a442-fd3f4e55c3c9"},"vehicle_type_id":"4","last_reported":1717776553,"current_range_meters":25200,"station_id":"ce4bhr12rcd13ifvqhqg","pricing_plan_id":"cebpf4jnsgd1na2vs0mg"},{"bike_id":"123247ce-ef3e-472f-88f9-d86001b3f8cd","system_id":"levelo_inurba_marseille","lat":43.29573,"lon":5.367355,"is_reserved":false,"is_disabled":false,"rental_uris":{"android":"levelo://app?vid=123247ce-ef3e-472f-88f9-d86001b3f8cd","ios":"levelo://app?vid=123247ce-ef3e-472f-88f9-d86001b3f8cd"},"vehicle_type_id":"4","last_reported":1717776553,"current_range_meters":5200,"station_id":"ce4bgph2rcd13ifvqc2g","pricing_plan_id":"cebpf4jnsgd1na2vs0mg"},{"bike_id":"b1aec3b3-5d3d-4546-90fc-0e2c4a6c5319","system_id":"levelo_inurba_marseille","lat":43.296129,"lon":5.370777,"is_reserved":false,"is_disabled":false,"rental_uris":{"android":"levelo://app?vid=b1aec3b3-5d3d-4546-90fc-0e2c4a6c5319","ios":"levelo://app?vid=b1aec3b3-5d3d-4546-90fc-0e2c4a6c5319"},"vehicle_type_id":"4","last_reported":1717776553,"current_range_meters":0,"station_id":"ce4bgnh2rcd13ifvqc0g","pricing_plan_id":"cebpf4jnsgd1na2vs0mg"},{"bike_id":"0630808b-b6d9-4138-8f3d-e0a6375eb3c1","system_id":"levelo_inurba_marseille","lat":43.32147,"lon":5.38685,"is_reserved":false,"is_disabled":false,"rental_uris":{"android":"levelo://app?vid=0630808b-b6d9-4138-8f3d-e0a6375eb3c1","ios":"levelo://app?vid=0630808b-b6d9-4138-8f3d-e0a6375eb3c1"},"vehicle_type_id":"4","last_reported":1717776553,"current_range_meters":5600,"station_id":"","pricing_plan_id":"cebpf4jnsgd1na2vs0mg"},{"bike_id":"910b5d79-9cbf-4614-828b-44532cf5f62a","system_id":"levelo_inurba_marseille","lat":43.29573,"lon":5.367355,"is_reserved":false,"is_disabled":false,"rental_uris":{"android":"levelo://app?vid=910b5d79-9cbf-4614-828b-44532cf5f62a","ios":"levelo://app?vid=910b5d79-9cbf-4614-828b-44532cf5f62a"},"vehicle_type_id":"4","last_reported":1717776553,"current_range_meters":4400,"station_id":"ce4bgph2rcd13ifvqc2g","pricing_plan_id":"cebpf4jnsgd1na2vs0mg"},{"bike_id":"51b7f402-9c4a-4b58-9fd9-250d800c1a9b","system_id":"levelo_inurba_marseille","lat":43.296131,"lon":5.370791,"is_reserved":false,"is_disabled":false,"rental_uris":{"android":"levelo://app?vid=51b7f402-9c4a-4b58-9fd9-250d800c1a9b","ios":"levelo://app?vid=51b7f402-9c4a-4b58-9fd9-250d800c1a9b"},"vehicle_type_id":"4","last_reported":1717776553,"current_range_meters":0,"station_id":"ce4bgnh2rcd13ifvqc0g","pricing_plan_id":"cebpf4jnsgd1na2vs0mg"},{"bike_id":"2c6ac9e9-b6f9-4b50-b85e-081f6d0249be","system_id":"levelo_inurba_marseille","lat":43.309589,"lon":5.390258,"is_reserved":false,"is_disabled":false,"rental_uris":{"android":"levelo://app?vid=2c6ac9e9-b6f9-4b50-b85e-081f6d0249be","ios":"levelo://app?vid=2c6ac9e9-b6f9-4b50-b85e-081f6d0249be"},"vehicle_type_id":"4","last_reported":1717776553,"current_range_meters":0,"station_id":"ce4bgup2rcd13ifvqco0","pricing_plan_id":"cebpf4jnsgd1na2vs0mg"},{"bike_id":"d7d3fe61-dc0d-4df5-8717-7c4544b7887f","system_id":"levelo_inurba_marseille","lat":43.299028,"lon":5.381509,"is_reserved":false,"is_disabled":false,"rental_uris":{"android":"levelo://app?vid=d7d3fe61-dc0d-4df5-8717-7c4544b7887f","ios":"levelo://app?vid=d7d3fe61-dc0d-4df5-8717-7c4544b7887f"},"vehicle_type_id":"4","last_reported":1717776553,"current_range_meters":29200,"station_id":"ce4bgj12rcd13ifvqbc0","pricing_plan_id":"cebpf4jnsgd1na2vs0mg"},{"bike_id":"fe747af2-812d-4b2e-b460-cfd24cc0cb4a","system_id":"levelo_inurba_marseille","lat":43.309589,"lon":5.390258,"is_reserved":false,"is_disabled":false,"rental_uris":{"android":"levelo://app?vid=fe747af2-812d-4b2e-b460-cfd24cc0cb4a","ios":"levelo://app?vid=fe747af2-812d-4b2e-b460-cfd24cc0cb4a"},"vehicle_type_id":"4","last_reported":1717776553,"current_range_meters":0,"station_id":"ce4bgup2rcd13ifvqco0","pricing_plan_id":"cebpf4jnsgd1na2vs0mg"},{"bike_id":"c1c592cc-9a1b-4b1c-b277-88f6186e14e3","system_id":"levelo_inurba_marseille","lat":43.317557,"lon":5.390173,"is_reserved":false,"is_disabled":false,"rental_uris":{"android":"levelo://app?vid=c1c592cc-9a1b-4b1c-b277-88f6186e14e3","ios":"levelo://app?vid=c1c592cc-9a1b-4b1c-b277-88f6186e14e3"},"vehicle_type_id":"4","last_reported":1717776553,"current_range_meters":0,"station_id":"ce4bhqp2rcd13ifvqhng","pricing_plan_id":"cebpf4jnsgd1na2vs0mg"},{"bike_id":"4875bc8f-88f6-4fe5-80a3-4f440e6b3be2","system_id":"levelo_inurba_marseille","lat":43.31754,"lon":5.39019,"is_reserved":false,"is_disabled":false,"rental_uris":{"android":"levelo://app?vid=4875bc8f-88f6-4fe5-80a3-4f440e6b3be2","ios":"levelo://app?vid=4875bc8f-88f6-4fe5-80a3-4f440e6b3be2"},"vehicle_type_id":"4","last_reported":1717776553,"current_range_meters":25600,"station_id":"ce4bhqp2rcd13ifvqhng","pricing_plan_id":"cebpf4jnsgd1na2vs0mg"},{"bike_id":"0a9eb299-cb4b-45e5-823d-5a252de54fb8","system_id":"levelo_inurba_marseille","lat":43.317557,"lon":5.390173,"is_reserved":false,"is_disabled":false,"rental_uris":{"android":"levelo://app?vid=0a9eb299-cb4b-45e5-823d-5a252de54fb8","ios":"levelo://app?vid=0a9eb299-cb4b-45e5-823d-5a252de54fb8"},"vehicle_type_id":"4","last_reported":1717776553,"current_range_meters":0,"station_id":"ce4bhqp2rcd13ifvqhng","pricing_plan_id":"cebpf4jnsgd1na2vs0mg"},{"bike_id":"899418d3-4acc-4f22-b0e4-52a8889c8b84","system_id":"levelo_inurba_marseille","lat":43.29712,"lon":5.37864,"is_reserved":false,"is_disabled":false,"rental_uris":{"android":"levelo://app?vid=899418d3-4acc-4f22-b0e4-52a8889c8b84","ios":"levelo://app?vid=899418d3-4acc-4f22-b0e4-52a8889c8b84"},"vehicle_type_id":"4","last_reported":1717776553,"current_range_meters":31200,"station_id":"","pricing_plan_id":"cebpf4jnsgd1na2vs0mg"},{"bike_id":"36b475bb-547e-4d26-abdf-e794a56dc33f","system_id":"levelo_inurba_marseille","lat":43.295748,"lon":5.37522,"is_reserved":false,"is_disabled":false,"rental_uris":{"android":"levelo://app?vid=36b475bb-547e-4d26-abdf-e794a56dc33f","ios":"levelo://app?vid=36b475bb-547e-4d26-abdf-e794a56dc33f"},"vehicle_type_id":"4","last_reported":1717776553,"current_range_meters":0,"station_id":"ce4bgh92rcd13ifvqb50","pricing_plan_id":"cebpf4jnsgd1na2vs0mg"},{"bike_id":"d7588efc-b0d0-4e42-9604-8040f4b232e5","system_id":"levelo_inurba_marseille","lat":43.29792,"lon":5.38105,"is_reserved":false,"is_disabled":false,"rental_uris":{"android":"levelo://app?vid=d7588efc-b0d0-4e42-9604-8040f4b232e5","ios":"levelo://app?vid=d7588efc-b0d0-4e42-9604-8040f4b232e5"},"vehicle_type_id":"4","last_reported":1717776553,"current_range_meters":14000,"station_id":"ce4bgip2rcd13ifvqbb0","pricing_plan_id":"cebpf4jnsgd1na2vs0mg"},{"bike_id":"350c7fb5-652b-4d21-b872-3bc6bdd20413","system_id":"levelo_inurba_marseille","lat":43.304274,"lon":5.388873,"is_reserved":false,"is_disabled":false,"rental_uris":{"android":"levelo://app?vid=350c7fb5-652b-4d21-b872-3bc6bdd20413","ios":"levelo://app?vid=350c7fb5-652b-4d21-b872-3bc6bdd20413"},"vehicle_type_id":"4","last_reported":1717776553,"current_range_meters":24400,"station_id":"ce4bgk12rcd13ifvqbi0","pricing_plan_id":"cebpf4jnsgd1na2vs0mg"},{"bike_id":"725d0e26-2b04-4cb5-b359-f61780345bad","system_id":"levelo_inurba_marseille","lat":43.296277,"lon":5.377108,"is_reserved":false,"is_disabled":false,"rental_uris":{"android":"levelo://app?vid=725d0e26-2b04-4cb5-b359-f61780345bad","ios":"levelo://app?vid=725d0e26-2b04-4cb5-b359-f61780345bad"},"vehicle_type_id":"4","last_reported":1717776553,"current_range_meters":400,"station_id":"ce4bgi92rcd13ifvqb90","pricing_plan_id":"cebpf4jnsgd1na2vs0mg"},{"bike_id":"7777869d-a28c-4816-96a7-1abde4c35b19","system_id":"levelo_inurba_marseille","lat":43.296263,"lon":5.377094,"is_reserved":false,"is_disabled":false,"rental_uris":{"android":"levelo://app?vid=7777869d-a28c-4816-96a7-1abde4c35b19","ios":"levelo://app?vid=7777869d-a28c-4816-96a7-1abde4c35b19"},"vehicle_type_id":"4","last_reported":1717776553,"current_range_meters":0,"station_id":"ce4bgi92rcd13ifvqb90","pricing_plan_id":"cebpf4jnsgd1na2vs0mg"},{"bike_id":"15d63b04-947b-4880-9ae9-7bc8e0a113a4","system_id":"levelo_inurba_marseille","lat":43.287185,"lon":5.379373,"is_reserved":false,"is_disabled":false,"rental_uris":{"android":"levelo://app?vid=15d63b04-947b-4880-9ae9-7bc8e0a113a4","ios":"levelo://app?vid=15d63b04-947b-4880-9ae9-7bc8e0a113a4"},"vehicle_type_id":"4","last_reported":1717776553,"current_range_meters":21600,"station_id":"ce4bh9p2rcd13ifvqec0","pricing_plan_id":"cebpf4jnsgd1na2vs0mg"},{"bike_id":"a44da0ca-e01b-485d-aba2-814b2ecce66a","system_id":"levelo_inurba_marseille","lat":43.299724,"lon":5.384848,"is_reserved":false,"is_disabled":false,"rental_uris":{"android":"levelo://app?vid=a44da0ca-e01b-485d-aba2-814b2ecce66a","ios":"levelo://app?vid=a44da0ca-e01b-485d-aba2-814b2ecce66a"},"vehicle_type_id":"4","last_reported":1717776553,"current_range_meters":0,"station_id":"ce4bgj92rcd13ifvqbd0","pricing_plan_id":"cebpf4jnsgd1na2vs0mg"},{"bike_id":"425bbbfc-ccf3-4541-aa6e-e5fb606a3ce2","system_id":"levelo_inurba_marseille","lat":43.287184,"lon":5.37937,"is_reserved":false,"is_disabled":false,"rental_uris":{"android":"levelo://app?vid=425bbbfc-ccf3-4541-aa6e-e5fb606a3ce2","ios":"levelo://app?vid=425bbbfc-ccf3-4541-aa6e-e5fb606a3ce2"},"vehicle_type_id":"4","last_reported":1717776553,"current_range_meters":0,"station_id":"ce4bh9p2rcd13ifvqec0","pricing_plan_id":"cebpf4jnsgd1na2vs0mg"},{"bike_id":"e194b9a4-6039-4352-88a2-203dcb47ec00","system_id":"levelo_inurba_marseille","lat":43.32367,"lon":5.388836,"is_reserved":false,"is_disabled":false,"rental_uris":{"android":"levelo://app?vid=e194b9a4-6039-4352-88a2-203dcb47ec00","ios":"levelo://app?vid=e194b9a4-6039-4352-88a2-203dcb47ec00"},"vehicle_type_id":"4","last_reported":1717776553,"current_range_meters":12000,"station_id":"ce4bhqp2rcd13ifvqhog","pricing_plan_id":"cebpf4jnsgd1na2vs0mg"},{"bike_id":"8cbb7e47-84a6-4c27-be72-fe4babf30ab4","system_id":"levelo_inurba_marseille","lat":43.292749,"lon":5.368402,"is_reserved":false,"is_disabled":false,"rental_uris":{"android":"levelo://app?vid=8cbb7e47-84a6-4c27-be72-fe4babf30ab4","ios":"levelo://app?vid=8cbb7e47-84a6-4c27-be72-fe4babf30ab4"},"vehicle_type_id":"4","last_reported":1717776553,"current_range_meters":0,"station_id":"ce4bhbp2rcd13ifvqesg","pricing_plan_id":"cebpf4jnsgd1na2vs0mg"},{"bike_id":"a2df1246-29c0-485c-9666-2246032c4919","system_id":"levelo_inurba_marseille","lat":43.293259,"lon":5.371586,"is_reserved":false,"is_disabled":false,"rental_uris":{"android":"levelo://app?vid=a2df1246-29c0-485c-9666-2246032c4919","ios":"levelo://app?vid=a2df1246-29c0-485c-9666-2246032c4919"},"vehicle_type_id":"4","last_reported":1717776553,"current_range_meters":13200,"station_id":"ce4bgh92rcd13ifvqb40","pricing_plan_id":"cebpf4jnsgd1na2vs0mg"},{"bike_id":"e4dea169-4d71-42f6-8cbd-d366ff7353d1","system_id":"levelo_inurba_marseille","lat":43.292749,"lon":5.368402,"is_reserved":false,"is_disabled":false,"rental_uris":{"android":"levelo://app?vid=e4dea169-4d71-42f6-8cbd-d366ff7353d1","ios":"levelo://app?vid=e4dea169-4d71-42f6-8cbd-d366ff7353d1"},"vehicle_type_id":"4","last_reported":1717776553,"current_range_meters":15200,"station_id":"ce4bhbp2rcd13ifvqesg","pricing_plan_id":"cebpf4jnsgd1na2vs0mg"},{"bike_id":"1d972961-88a8-41c9-80ed-b068dce4fef6","system_id":"levelo_inurba_marseille","lat":43.28039,"lon":5.369297,"is_reserved":false,"is_disabled":false,"rental_uris":{"android":"levelo://app?vid=1d972961-88a8-41c9-80ed-b068dce4fef6","ios":"levelo://app?vid=1d972961-88a8-41c9-80ed-b068dce4fef6"},"vehicle_type_id":"4","last_reported":1717776553,"current_range_meters":14400,"station_id":"ce4bha12rcd13ifvqef0","pricing_plan_id":"cebpf4jnsgd1na2vs0mg"},{"bike_id":"ae3bec75-fc25-4e6a-8ec9-9d6e645f67d7","system_id":"levelo_inurba_marseille","lat":43.303019,"lon":5.392024,"is_reserved":false,"is_disabled":false,"rental_uris":{"android":"levelo://app?vid=ae3bec75-fc25-4e6a-8ec9-9d6e645f67d7","ios":"levelo://app?vid=ae3bec75-fc25-4e6a-8ec9-9d6e645f67d7"},"vehicle_type_id":"4","last_reported":1717776553,"current_range_meters":12000,"station_id":"ce4bgkh2rcd13ifvqbk0","pricing_plan_id":"cebpf4jnsgd1na2vs0mg"},{"bike_id":"04be2d15-c00b-4a82-8a72-077bfeb5de1e","system_id":"levelo_inurba_marseille","lat":43.30477,"lon":5.39329,"is_reserved":false,"is_disabled":false,"rental_uris":{"android":"levelo://app?vid=04be2d15-c00b-4a82-8a72-077bfeb5de1e","ios":"levelo://app?vid=04be2d15-c00b-4a82-8a72-077bfeb5de1e"},"vehicle_type_id":"4","last_reported":1717776553,"current_range_meters":15600,"station_id":"","pricing_plan_id":"cebpf4jnsgd1na2vs0mg"},{"bike_id":"d1b7787c-c05e-4066-91d9-fc5ee6021ba2","system_id":"levelo_inurba_marseille","lat":43.305994,"lon":5.393687,"is_reserved":false,"is_disabled":false,"rental_uris":{"android":"levelo://app?vid=d1b7787c-c05e-4066-91d9-fc5ee6021ba2","ios":"levelo://app?vid=d1b7787c-c05e-4066-91d9-fc5ee6021ba2"},"vehicle_type_id":"4","last_reported":1717776553,"current_range_meters":2800,"station_id":"ce4bh0p2rcd13ifvqd80","pricing_plan_id":"cebpf4jnsgd1na2vs0mg"},{"bike_id":"75443e79-2b93-4f73-a0a8-da51cd887c86","system_id":"levelo_inurba_marseille","lat":43.302992,"lon":5.392136,"is_reserved":false,"is_disabled":false,"rental_uris":{"android":"levelo://app?vid=75443e79-2b93-4f73-a0a8-da51cd887c86","ios":"levelo://app?vid=75443e79-2b93-4f73-a0a8-da51cd887c86"},"vehicle_type_id":"4","last_reported":1717776553,"current_range_meters":31200,"station_id":"ce4bgkh2rcd13ifvqbk0","pricing_plan_id":"cebpf4jnsgd1na2vs0mg"},{"bike_id":"5c785cab-923a-4e08-9a23-4071136bc06f","system_id":"levelo_inurba_marseille","lat":43.2936,"lon":5.37835,"is_reserved":false,"is_disabled":false,"rental_uris":{"android":"levelo://app?vid=5c785cab-923a-4e08-9a23-4071136bc06f","ios":"levelo://app?vid=5c785cab-923a-4e08-9a23-4071136bc06f"},"vehicle_type_id":"4","last_reported":1717776553,"current_range_meters":5600,"station_id":"ce4bgjh2rcd13ifvqbf0","pricing_plan_id":"cebpf4jnsgd1na2vs0mg"},{"bike_id":"349ac79a-ef69-4d5e-877f-8963615f69e1","system_id":"levelo_inurba_marseille","lat":43.292311,"lon":5.360731,"is_reserved":false,"is_disabled":false,"rental_uris":{"android":"levelo://app?vid=349ac79a-ef69-4d5e-877f-8963615f69e1","ios":"levelo://app?vid=349ac79a-ef69-4d5e-877f-8963615f69e1"},"vehicle_type_id":"4","last_reported":1717776553,"current_range_meters":8000,"station_id":"ce4bhbh2rcd13ifvqeqg","pricing_plan_id":"cebpf4jnsgd1na2vs0mg"},{"bike_id":"0fa6b934-8825-4195-bb35-ddfcb19d7a8a","system_id":"levelo_inurba_marseille","lat":43.292311,"lon":5.360731,"is_reserved":false,"is_disabled":false,"rental_uris":{"android":"levelo://app?vid=0fa6b934-8825-4195-bb35-ddfcb19d7a8a","ios":"levelo://app?vid=0fa6b934-8825-4195-bb35-ddfcb19d7a8a"},"vehicle_type_id":"4","last_reported":1717776553,"current_range_meters":23200,"station_id":"ce4bhbh2rcd13ifvqeqg","pricing_plan_id":"cebpf4jnsgd1na2vs0mg"},{"bike_id":"e3ff0e65-f188-4879-99cd-da12aa21e654","system_id":"levelo_inurba_marseille","lat":43.292311,"lon":5.360731,"is_reserved":false,"is_disabled":false,"rental_uris":{"android":"levelo://app?vid=e3ff0e65-f188-4879-99cd-da12aa21e654","ios":"levelo://app?vid=e3ff0e65-f188-4879-99cd-da12aa21e654"},"vehicle_type_id":"4","last_reported":1717776553,"current_range_meters":31200,"station_id":"ce4bhbh2rcd13ifvqeqg","pricing_plan_id":"cebpf4jnsgd1na2vs0mg"},{"bike_id":"7974bc36-8af9-4b64-9a1c-eae776d0d0fe","system_id":"levelo_inurba_marseille","lat":43.292311,"lon":5.360731,"is_reserved":false,"is_disabled":false,"rental_uris":{"android":"levelo://app?vid=7974bc36-8af9-4b64-9a1c-eae776d0d0fe","ios":"levelo://app?vid=7974bc36-8af9-4b64-9a1c-eae776d0d0fe"},"vehicle_type_id":"4","last_reported":1717776553,"current_range_meters":18400,"station_id":"ce4bhbh2rcd13ifvqeqg","pricing_plan_id":"cebpf4jnsgd1na2vs0mg"},{"bike_id":"64c95b1d-8046-4e56-adb3-40985821b6dd","system_id":"levelo_inurba_marseille","lat":43.292311,"lon":5.360731,"is_reserved":false,"is_disabled":false,"rental_uris":{"android":"levelo://app?vid=64c95b1d-8046-4e56-adb3-40985821b6dd","ios":"levelo://app?vid=64c95b1d-8046-4e56-adb3-40985821b6dd"},"vehicle_type_id":"4","last_reported":1717776553,"current_range_meters":9600,"station_id":"ce4bhbh2rcd13ifvqeqg","pricing_plan_id":"cebpf4jnsgd1na2vs0mg"},{"bike_id":"21a612f6-2a07-49db-89c0-cdccd3470a3a","system_id":"levelo_inurba_marseille","lat":43.292214,"lon":5.360657,"is_reserved":false,"is_disabled":false,"rental_uris":{"android":"levelo://app?vid=21a612f6-2a07-49db-89c0-cdccd3470a3a","ios":"levelo://app?vid=21a612f6-2a07-49db-89c0-cdccd3470a3a"},"vehicle_type_id":"4","last_reported":1717776553,"current_range_meters":5200,"station_id":"ce4bhbh2rcd13ifvqeqg","pricing_plan_id":"cebpf4jnsgd1na2vs0mg"},{"bike_id":"f704cf9c-a1c4-4d6a-bdbd-319632a4a117","system_id":"levelo_inurba_marseille","lat":43.298764,"lon":5.388973,"is_reserved":false,"is_disabled":false,"rental_uris":{"android":"levelo://app?vid=f704cf9c-a1c4-4d6a-bdbd-319632a4a117","ios":"levelo://app?vid=f704cf9c-a1c4-4d6a-bdbd-319632a4a117"},"vehicle_type_id":"4","last_reported":1717776553,"current_range_meters":9600,"station_id":"ce4bh392rcd13ifvqdl0","pricing_plan_id":"cebpf4jnsgd1na2vs0mg"},{"bike_id":"f8379507-b5d5-4db4-a58d-d8e8fb5d77bc","system_id":"levelo_inurba_marseille","lat":43.291671,"lon":5.371575,"is_reserved":false,"is_disabled":false,"rental_uris":{"android":"levelo://app?vid=f8379507-b5d5-4db4-a58d-d8e8fb5d77bc","ios":"levelo://app?vid=f8379507-b5d5-4db4-a58d-d8e8fb5d77bc"},"vehicle_type_id":"4","last_reported":1717776553,"current_range_meters":4800,"station_id":"ce4bha92rcd13ifvqeh0","pricing_plan_id":"cebpf4jnsgd1na2vs0mg"},{"bike_id":"3977988b-a869-49bd-ba6f-2240f1c61669","system_id":"levelo_inurba_marseille","lat":43.298764,"lon":5.388973,"is_reserved":false,"is_disabled":false,"rental_uris":{"android":"levelo://app?vid=3977988b-a869-49bd-ba6f-2240f1c61669","ios":"levelo://app?vid=3977988b-a869-49bd-ba6f-2240f1c61669"},"vehicle_type_id":"4","last_reported":1717776553,"current_range_meters":2400,"station_id":"ce4bh392rcd13ifvqdl0","pricing_plan_id":"cebpf4jnsgd1na2vs0mg"},{"bike_id":"b5dcc647-b6ac-4e66-b088-ed3dbbf36b6c","system_id":"levelo_inurba_marseille","lat":43.309038,"lon":5.396546,"is_reserved":false,"is_disabled":false,"rental_uris":{"android":"levelo://app?vid=b5dcc647-b6ac-4e66-b088-ed3dbbf36b6c","ios":"levelo://app?vid=b5dcc647-b6ac-4e66-b088-ed3dbbf36b6c"},"vehicle_type_id":"4","last_reported":1717776553,"current_range_meters":800,"station_id":"ce4bh012rcd13ifvqcv0","pricing_plan_id":"cebpf4jnsgd1na2vs0mg"},{"bike_id":"09d3a0d3-bcf5-4ec0-9520-49c3947d8d03","system_id":"levelo_inurba_marseille","lat":43.29195,"lon":5.35807,"is_reserved":false,"is_disabled":false,"rental_uris":{"android":"levelo://app?vid=09d3a0d3-bcf5-4ec0-9520-49c3947d8d03","ios":"levelo://app?vid=09d3a0d3-bcf5-4ec0-9520-49c3947d8d03"},"vehicle_type_id":"4","last_reported":1717776553,"current_range_meters":0,"station_id":"ce4bhb12rcd13ifvqel0","pricing_plan_id":"cebpf4jnsgd1na2vs0mg"},{"bike_id":"80f614db-d915-431a-9c01-0194cc2c4c1c","system_id":"levelo_inurba_marseille","lat":43.313291,"lon":5.396838,"is_reserved":false,"is_disabled":false,"rental_uris":{"android":"levelo://app?vid=80f614db-d915-431a-9c01-0194cc2c4c1c","ios":"levelo://app?vid=80f614db-d915-431a-9c01-0194cc2c4c1c"},"vehicle_type_id":"4","last_reported":1717776553,"current_range_meters":16800,"station_id":"ce4bgvp2rcd13ifvqcu0","pricing_plan_id":"cebpf4jnsgd1na2vs0mg"},{"bike_id":"585c861c-5039-4008-956f-89b69778ad9f","system_id":"levelo_inurba_marseille","lat":43.30888,"lon":5.39646,"is_reserved":false,"is_disabled":false,"rental_uris":{"android":"levelo://app?vid=585c861c-5039-4008-956f-89b69778ad9f","ios":"levelo://app?vid=585c861c-5039-4008-956f-89b69778ad9f"},"vehicle_type_id":"4","last_reported":1717776553,"current_range_meters":2800,"station_id":"ce4bh012rcd13ifvqcv0","pricing_plan_id":"cebpf4jnsgd1na2vs0mg"},{"bike_id":"053d778b-9694-43df-8c3a-24b5a63eccdb","system_id":"levelo_inurba_marseille","lat":43.309038,"lon":5.396546,"is_reserved":false,"is_disabled":false,"rental_uris":{"android":"levelo://app?vid=053d778b-9694-43df-8c3a-24b5a63eccdb","ios":"levelo://app?vid=053d778b-9694-43df-8c3a-24b5a63eccdb"},"vehicle_type_id":"4","last_reported":1717776553,"current_range_meters":23600,"station_id":"ce4bh012rcd13ifvqcv0","pricing_plan_id":"cebpf4jnsgd1na2vs0mg"},{"bike_id":"08db52af-a14e-4303-9acb-dc0bdf5d4ea2","system_id":"levelo_inurba_marseille","lat":43.313291,"lon":5.396838,"is_reserved":false,"is_disabled":false,"rental_uris":{"android":"levelo://app?vid=08db52af-a14e-4303-9acb-dc0bdf5d4ea2","ios":"levelo://app?vid=08db52af-a14e-4303-9acb-dc0bdf5d4ea2"},"vehicle_type_id":"4","last_reported":1717776553,"current_range_meters":400,"station_id":"ce4bgvp2rcd13ifvqcu0","pricing_plan_id":"cebpf4jnsgd1na2vs0mg"},{"bike_id":"efe800ea-24c9-43cd-93b8-edbcae8009fe","system_id":"levelo_inurba_marseille","lat":43.292005,"lon":5.357875,"is_reserved":false,"is_disabled":false,"rental_uris":{"android":"levelo://app?vid=efe800ea-24c9-43cd-93b8-edbcae8009fe","ios":"levelo://app?vid=efe800ea-24c9-43cd-93b8-edbcae8009fe"},"vehicle_type_id":"4","last_reported":1717776553,"current_range_meters":27600,"station_id":"ce4bhb12rcd13ifvqel0","pricing_plan_id":"cebpf4jnsgd1na2vs0mg"},{"bike_id":"5c41b648-e479-4c4f-9a6d-037c2847ad88","system_id":"levelo_inurba_marseille","lat":43.29187,"lon":5.35801,"is_reserved":false,"is_disabled":false,"rental_uris":{"android":"levelo://app?vid=5c41b648-e479-4c4f-9a6d-037c2847ad88","ios":"levelo://app?vid=5c41b648-e479-4c4f-9a6d-037c2847ad88"},"vehicle_type_id":"4","last_reported":1717776553,"current_range_meters":28800,"station_id":"ce4bhb12rcd13ifvqel0","pricing_plan_id":"cebpf4jnsgd1na2vs0mg"},{"bike_id":"424d991b-dafc-4cda-befe-4b626d7052c4","system_id":"levelo_inurba_marseille","lat":43.309038,"lon":5.396546,"is_reserved":false,"is_disabled":false,"rental_uris":{"android":"levelo://app?vid=424d991b-dafc-4cda-befe-4b626d7052c4","ios":"levelo://app?vid=424d991b-dafc-4cda-befe-4b626d7052c4"},"vehicle_type_id":"4","last_reported":1717776553,"current_range_meters":17200,"station_id":"ce4bh012rcd13ifvqcv0","pricing_plan_id":"cebpf4jnsgd1na2vs0mg"},{"bike_id":"15537ed0-e914-4222-91a8-b8cd00fedae7","system_id":"levelo_inurba_marseille","lat":43.29529,"lon":5.385581,"is_reserved":false,"is_disabled":false,"rental_uris":{"android":"levelo://app?vid=15537ed0-e914-4222-91a8-b8cd00fedae7","ios":"levelo://app?vid=15537ed0-e914-4222-91a8-b8cd00fedae7"},"vehicle_type_id":"4","last_reported":1717776553,"current_range_meters":9600,"station_id":"ce4bgih2rcd13ifvqba0","pricing_plan_id":"cebpf4jnsgd1na2vs0mg"},{"bike_id":"f0141791-4ffc-4373-84b2-c960b406c78c","system_id":"levelo_inurba_marseille","lat":43.309047,"lon":5.396551,"is_reserved":false,"is_disabled":false,"rental_uris":{"android":"levelo://app?vid=f0141791-4ffc-4373-84b2-c960b406c78c","ios":"levelo://app?vid=f0141791-4ffc-4373-84b2-c960b406c78c"},"vehicle_type_id":"4","last_reported":1717776553,"current_range_meters":1600,"station_id":"ce4bh012rcd13ifvqcv0","pricing_plan_id":"cebpf4jnsgd1na2vs0mg"},{"bike_id":"b126c739-2e4f-46f0-90d1-06caecde6da8","system_id":"levelo_inurba_marseille","lat":43.290779,"lon":5.371482,"is_reserved":false,"is_disabled":false,"rental_uris":{"android":"levelo://app?vid=b126c739-2e4f-46f0-90d1-06caecde6da8","ios":"levelo://app?vid=b126c739-2e4f-46f0-90d1-06caecde6da8"},"vehicle_type_id":"4","last_reported":1717776553,"current_range_meters":31200,"station_id":"ce4bh5p2rcd13ifvqe4g","pricing_plan_id":"cebpf4jnsgd1na2vs0mg"},{"bike_id":"5613781a-fc39-40a2-afdd-c28c1799048a","system_id":"levelo_inurba_marseille","lat":43.290779,"lon":5.371482,"is_reserved":false,"is_disabled":false,"rental_uris":{"android":"levelo://app?vid=5613781a-fc39-40a2-afdd-c28c1799048a","ios":"levelo://app?vid=5613781a-fc39-40a2-afdd-c28c1799048a"},"vehicle_type_id":"4","last_reported":1717776553,"current_range_meters":5600,"station_id":"ce4bh5p2rcd13ifvqe4g","pricing_plan_id":"cebpf4jnsgd1na2vs0mg"},{"bike_id":"c917e88c-b353-478f-82d3-571605f56daf","system_id":"levelo_inurba_marseille","lat":43.290779,"lon":5.371482,"is_reserved":false,"is_disabled":false,"rental_uris":{"android":"levelo://app?vid=c917e88c-b353-478f-82d3-571605f56daf","ios":"levelo://app?vid=c917e88c-b353-478f-82d3-571605f56daf"},"vehicle_type_id":"4","last_reported":1717776553,"current_range_meters":0,"station_id":"ce4bh5p2rcd13ifvqe4g","pricing_plan_id":"cebpf4jnsgd1na2vs0mg"},{"bike_id":"54613739-cc65-4ab9-a3da-6bce3cc68771","system_id":"levelo_inurba_marseille","lat":43.30204,"lon":5.39457,"is_reserved":false,"is_disabled":false,"rental_uris":{"android":"levelo://app?vid=54613739-cc65-4ab9-a3da-6bce3cc68771","ios":"levelo://app?vid=54613739-cc65-4ab9-a3da-6bce3cc68771"},"vehicle_type_id":"4","last_reported":1717776553,"current_range_meters":0,"station_id":"","pricing_plan_id":"cebpf4jnsgd1na2vs0mg"},{"bike_id":"c8a448e2-8771-4500-8836-c9141bacf321","system_id":"levelo_inurba_marseille","lat":43.290624,"lon":5.359245,"is_reserved":false,"is_disabled":false,"rental_uris":{"android":"levelo://app?vid=c8a448e2-8771-4500-8836-c9141bacf321","ios":"levelo://app?vid=c8a448e2-8771-4500-8836-c9141bacf321"},"vehicle_type_id":"4","last_reported":1717776553,"current_range_meters":0,"station_id":"ce4bha92rcd13ifvqeg0","pricing_plan_id":"cebpf4jnsgd1na2vs0mg"},{"bike_id":"0c248ae5-969d-4a58-9f92-beb5b1543127","system_id":"levelo_inurba_marseille","lat":43.290369,"lon":5.359338,"is_reserved":false,"is_disabled":false,"rental_uris":{"android":"levelo://app?vid=0c248ae5-969d-4a58-9f92-beb5b1543127","ios":"levelo://app?vid=0c248ae5-969d-4a58-9f92-beb5b1543127"},"vehicle_type_id":"4","last_reported":1717776553,"current_range_meters":0,"station_id":"ce4bha92rcd13ifvqeg0","pricing_plan_id":"cebpf4jnsgd1na2vs0mg"},{"bike_id":"79b98f01-00a4-445c-8d89-43514acbc7d0","system_id":"levelo_inurba_marseille","lat":43.294162,"lon":5.386292,"is_reserved":false,"is_disabled":false,"rental_uris":{"android":"levelo://app?vid=79b98f01-00a4-445c-8d89-43514acbc7d0","ios":"levelo://app?vid=79b98f01-00a4-445c-8d89-43514acbc7d0"},"vehicle_type_id":"4","last_reported":1717776553,"current_range_meters":0,"station_id":"ce4bh2h2rcd13ifvqdh0","pricing_plan_id":"cebpf4jnsgd1na2vs0mg"},{"bike_id":"2ca025c3-7e13-4301-8285-874de64a5caa","system_id":"levelo_inurba_marseille","lat":43.30245,"lon":5.39561,"is_reserved":false,"is_disabled":false,"rental_uris":{"android":"levelo://app?vid=2ca025c3-7e13-4301-8285-874de64a5caa","ios":"levelo://app?vid=2ca025c3-7e13-4301-8285-874de64a5caa"},"vehicle_type_id":"4","last_reported":1717776553,"current_range_meters":0,"station_id":"ce4bhbp2rcd13ifvqerg","pricing_plan_id":"cebpf4jnsgd1na2vs0mg"},{"bike_id":"61ae1fce-54c6-4ee8-8c25-cfe020e6d2ac","system_id":"levelo_inurba_marseille","lat":43.290319,"lon":5.375732,"is_reserved":false,"is_disabled":false,"rental_uris":{"android":"levelo://app?vid=61ae1fce-54c6-4ee8-8c25-cfe020e6d2ac","ios":"levelo://app?vid=61ae1fce-54c6-4ee8-8c25-cfe020e6d2ac"},"vehicle_type_id":"4","last_reported":1717776553,"current_range_meters":2000,"station_id":"ce4bh692rcd13ifvqe90","pricing_plan_id":"cebpf4jnsgd1na2vs0mg"},{"bike_id":"6bf03d97-46ae-4bd1-b1fa-a4f48b06b4e5","system_id":"levelo_inurba_marseille","lat":43.289184,"lon":5.366408,"is_reserved":false,"is_disabled":false,"rental_uris":{"android":"levelo://app?vid=6bf03d97-46ae-4bd1-b1fa-a4f48b06b4e5","ios":"levelo://app?vid=6bf03d97-46ae-4bd1-b1fa-a4f48b06b4e5"},"vehicle_type_id":"4","last_reported":1717776553,"current_range_meters":5200,"station_id":"ce4bhap2rcd13ifvqek0","pricing_plan_id":"cebpf4jnsgd1na2vs0mg"},{"bike_id":"d00b892c-b554-4041-8c92-765554da8114","system_id":"levelo_inurba_marseille","lat":43.28936,"lon":5.36627,"is_reserved":false,"is_disabled":false,"rental_uris":{"android":"levelo://app?vid=d00b892c-b554-4041-8c92-765554da8114","ios":"levelo://app?vid=d00b892c-b554-4041-8c92-765554da8114"},"vehicle_type_id":"4","last_reported":1717776553,"current_range_meters":0,"station_id":"ce4bhap2rcd13ifvqek0","pricing_plan_id":"cebpf4jnsgd1na2vs0mg"},{"bike_id":"98b0c87e-6727-4d36-9346-938a26dfb32c","system_id":"levelo_inurba_marseille","lat":43.289423,"lon":5.364121,"is_reserved":false,"is_disabled":false,"rental_uris":{"android":"levelo://app?vid=98b0c87e-6727-4d36-9346-938a26dfb32c","ios":"levelo://app?vid=98b0c87e-6727-4d36-9346-938a26dfb32c"},"vehicle_type_id":"4","last_reported":1717776553,"current_range_meters":0,"station_id":"ce4bhc92rcd13ifvqetg","pricing_plan_id":"cebpf4jnsgd1na2vs0mg"},{"bike_id":"4253c9d9-d6db-4622-acee-5199fa55557d","system_id":"levelo_inurba_marseille","lat":43.290319,"lon":5.375732,"is_reserved":false,"is_disabled":false,"rental_uris":{"android":"levelo://app?vid=4253c9d9-d6db-4622-acee-5199fa55557d","ios":"levelo://app?vid=4253c9d9-d6db-4622-acee-5199fa55557d"},"vehicle_type_id":"4","last_reported":1717776553,"current_range_meters":17200,"station_id":"ce4bh692rcd13ifvqe90","pricing_plan_id":"cebpf4jnsgd1na2vs0mg"},{"bike_id":"4df3a926-48b6-449c-8d7b-be380b168a48","system_id":"levelo_inurba_marseille","lat":43.289184,"lon":5.366408,"is_reserved":false,"is_disabled":false,"rental_uris":{"android":"levelo://app?vid=4df3a926-48b6-449c-8d7b-be380b168a48","ios":"levelo://app?vid=4df3a926-48b6-449c-8d7b-be380b168a48"},"vehicle_type_id":"4","last_reported":1717776553,"current_range_meters":13200,"station_id":"ce4bhap2rcd13ifvqek0","pricing_plan_id":"cebpf4jnsgd1na2vs0mg"},{"bike_id":"bf129803-0fc3-40b7-8040-56bf66f2c7cf","system_id":"levelo_inurba_marseille","lat":43.28934,"lon":5.36388,"is_reserved":false,"is_disabled":false,"rental_uris":{"android":"levelo://app?vid=bf129803-0fc3-40b7-8040-56bf66f2c7cf","ios":"levelo://app?vid=bf129803-0fc3-40b7-8040-56bf66f2c7cf"},"vehicle_type_id":"4","last_reported":1717776553,"current_range_meters":0,"station_id":"ce4bhc92rcd13ifvqetg","pricing_plan_id":"cebpf4jnsgd1na2vs0mg"},{"bike_id":"a25af286-68c1-4cff-9108-35f8dbf0b3e5","system_id":"levelo_inurba_marseille","lat":43.289312,"lon":5.363971,"is_reserved":false,"is_disabled":false,"rental_uris":{"android":"levelo://app?vid=a25af286-68c1-4cff-9108-35f8dbf0b3e5","ios":"levelo://app?vid=a25af286-68c1-4cff-9108-35f8dbf0b3e5"},"vehicle_type_id":"4","last_reported":1717776553,"current_range_meters":2000,"station_id":"ce4bhc92rcd13ifvqetg","pricing_plan_id":"cebpf4jnsgd1na2vs0mg"},{"bike_id":"5ad356fd-11ac-4d1b-9c1d-eb0d6e2408ef","system_id":"levelo_inurba_marseille","lat":43.289293,"lon":5.364018,"is_reserved":false,"is_disabled":false,"rental_uris":{"android":"levelo://app?vid=5ad356fd-11ac-4d1b-9c1d-eb0d6e2408ef","ios":"levelo://app?vid=5ad356fd-11ac-4d1b-9c1d-eb0d6e2408ef"},"vehicle_type_id":"4","last_reported":1717776553,"current_range_meters":0,"station_id":"ce4bhc92rcd13ifvqetg","pricing_plan_id":"cebpf4jnsgd1na2vs0mg"},{"bike_id":"24209965-f6fa-4bd9-9ccc-1300dbbcb284","system_id":"levelo_inurba_marseille","lat":43.292642,"lon":5.384254,"is_reserved":false,"is_disabled":false,"rental_uris":{"android":"levelo://app?vid=24209965-f6fa-4bd9-9ccc-1300dbbcb284","ios":"levelo://app?vid=24209965-f6fa-4bd9-9ccc-1300dbbcb284"},"vehicle_type_id":"4","last_reported":1717776553,"current_range_meters":0,"station_id":"ce4bh692rcd13ifvqea0","pricing_plan_id":"cebpf4jnsgd1na2vs0mg"},{"bike_id":"217baa9d-422b-47f5-9fc8-8a9cf104cd54","system_id":"levelo_inurba_marseille","lat":43.304274,"lon":5.397513,"is_reserved":false,"is_disabled":false,"rental_uris":{"android":"levelo://app?vid=217baa9d-422b-47f5-9fc8-8a9cf104cd54","ios":"levelo://app?vid=217baa9d-422b-47f5-9fc8-8a9cf104cd54"},"vehicle_type_id":"4","last_reported":1717776553,"current_range_meters":31600,"station_id":"ce4bh092rcd13ifvqd20","pricing_plan_id":"cebpf4jnsgd1na2vs0mg"},{"bike_id":"d1568283-eeea-4256-9853-013e43ef58c3","system_id":"levelo_inurba_marseille","lat":43.304296,"lon":5.397513,"is_reserved":false,"is_disabled":false,"rental_uris":{"android":"levelo://app?vid=d1568283-eeea-4256-9853-013e43ef58c3","ios":"levelo://app?vid=d1568283-eeea-4256-9853-013e43ef58c3"},"vehicle_type_id":"4","last_reported":1717776553,"current_range_meters":20400,"station_id":"ce4bh092rcd13ifvqd20","pricing_plan_id":"cebpf4jnsgd1na2vs0mg"},{"bike_id":"6edb5226-7c95-4242-9054-5a53d1229a47","system_id":"levelo_inurba_marseille","lat":43.304274,"lon":5.397513,"is_reserved":false,"is_disabled":false,"rental_uris":{"android":"levelo://app?vid=6edb5226-7c95-4242-9054-5a53d1229a47","ios":"levelo://app?vid=6edb5226-7c95-4242-9054-5a53d1229a47"},"vehicle_type_id":"4","last_reported":1717776553,"current_range_meters":31200,"station_id":"ce4bh092rcd13ifvqd20","pricing_plan_id":"cebpf4jnsgd1na2vs0mg"},{"bike_id":"2ee2441a-a0c3-4efb-968e-a2b6ec8a343d","system_id":"levelo_inurba_marseille","lat":43.292642,"lon":5.384254,"is_reserved":false,"is_disabled":false,"rental_uris":{"android":"levelo://app?vid=2ee2441a-a0c3-4efb-968e-a2b6ec8a343d","ios":"levelo://app?vid=2ee2441a-a0c3-4efb-968e-a2b6ec8a343d"},"vehicle_type_id":"4","last_reported":1717776553,"current_range_meters":24800,"station_id":"ce4bh692rcd13ifvqea0","pricing_plan_id":"cebpf4jnsgd1na2vs0mg"},{"bike_id":"e2147445-80d7-482e-bbe6-22001511e30f","system_id":"levelo_inurba_marseille","lat":43.29573,"lon":5.367355,"is_reserved":false,"is_disabled":false,"rental_uris":{"android":"levelo://app?vid=e2147445-80d7-482e-bbe6-22001511e30f","ios":"levelo://app?vid=e2147445-80d7-482e-bbe6-22001511e30f"},"vehicle_type_id":"4","last_reported":1717776553,"current_range_meters":3200,"station_id":"ce4bgph2rcd13ifvqc2g","pricing_plan_id":"cebpf4jnsgd1na2vs0mg"},{"bike_id":"123b8184-1b93-414f-9bca-57122c5182ef","system_id":"levelo_inurba_marseille","lat":43.29009,"lon":5.35624,"is_reserved":false,"is_disabled":false,"rental_uris":{"android":"levelo://app?vid=123b8184-1b93-414f-9bca-57122c5182ef","ios":"levelo://app?vid=123b8184-1b93-414f-9bca-57122c5182ef"},"vehicle_type_id":"4","last_reported":1717776553,"current_range_meters":1600,"station_id":"ce4bhb92rcd13ifvqen0","pricing_plan_id":"cebpf4jnsgd1na2vs0mg"},{"bike_id":"9f223a3c-a26e-4180-b043-b7c3caf1caf0","system_id":"levelo_inurba_marseille","lat":43.290062,"lon":5.35618,"is_reserved":false,"is_disabled":false,"rental_uris":{"android":"levelo://app?vid=9f223a3c-a26e-4180-b043-b7c3caf1caf0","ios":"levelo://app?vid=9f223a3c-a26e-4180-b043-b7c3caf1caf0"},"vehicle_type_id":"4","last_reported":1717776553,"current_range_meters":8800,"station_id":"ce4bhb92rcd13ifvqen0","pricing_plan_id":"cebpf4jnsgd1na2vs0mg"},{"bike_id":"0a62c011-0d16-485d-b076-1fefbd2ff3c9","system_id":"levelo_inurba_marseille","lat":43.290079,"lon":5.356081,"is_reserved":false,"is_disabled":false,"rental_uris":{"android":"levelo://app?vid=0a62c011-0d16-485d-b076-1fefbd2ff3c9","ios":"levelo://app?vid=0a62c011-0d16-485d-b076-1fefbd2ff3c9"},"vehicle_type_id":"4","last_reported":1717776553,"current_range_meters":0,"station_id":"ce4bhb92rcd13ifvqen0","pricing_plan_id":"cebpf4jnsgd1na2vs0mg"},{"bike_id":"1e14db62-bb0b-47fb-8aa2-c7d132f4d502","system_id":"levelo_inurba_marseille","lat":43.29005,"lon":5.35618,"is_reserved":false,"is_disabled":false,"rental_uris":{"android":"levelo://app?vid=1e14db62-bb0b-47fb-8aa2-c7d132f4d502","ios":"levelo://app?vid=1e14db62-bb0b-47fb-8aa2-c7d132f4d502"},"vehicle_type_id":"4","last_reported":1717776553,"current_range_meters":21600,"station_id":"ce4bhb92rcd13ifvqen0","pricing_plan_id":"cebpf4jnsgd1na2vs0mg"},{"bike_id":"8f140537-57c7-45bc-98a0-904298d70894","system_id":"levelo_inurba_marseille","lat":43.29007,"lon":5.35598,"is_reserved":false,"is_disabled":false,"rental_uris":{"android":"levelo://app?vid=8f140537-57c7-45bc-98a0-904298d70894","ios":"levelo://app?vid=8f140537-57c7-45bc-98a0-904298d70894"},"vehicle_type_id":"4","last_reported":1717776553,"current_range_meters":0,"station_id":"ce4bhb92rcd13ifvqen0","pricing_plan_id":"cebpf4jnsgd1na2vs0mg"},{"bike_id":"14151d4e-023b-4edb-a5cc-2a2ada90169c","system_id":"levelo_inurba_marseille","lat":43.289765,"lon":5.356729,"is_reserved":false,"is_disabled":false,"rental_uris":{"android":"levelo://app?vid=14151d4e-023b-4edb-a5cc-2a2ada90169c","ios":"levelo://app?vid=14151d4e-023b-4edb-a5cc-2a2ada90169c"},"vehicle_type_id":"4","last_reported":1717776553,"current_range_meters":0,"station_id":"ce4bhb92rcd13ifvqen0","pricing_plan_id":"cebpf4jnsgd1na2vs0mg"},{"bike_id":"f0131ed7-40cf-4167-bd66-84404dc0c7c5","system_id":"levelo_inurba_marseille","lat":43.289754,"lon":5.378331,"is_reserved":false,"is_disabled":false,"rental_uris":{"android":"levelo://app?vid=f0131ed7-40cf-4167-bd66-84404dc0c7c5","ios":"levelo://app?vid=f0131ed7-40cf-4167-bd66-84404dc0c7c5"},"vehicle_type_id":"4","last_reported":1717776553,"current_range_meters":0,"station_id":"ce4bh9p2rcd13ifvqed0","pricing_plan_id":"cebpf4jnsgd1na2vs0mg"},{"bike_id":"9eb1f5ab-3b44-4bbf-ac21-0279e7f9c8e4","system_id":"levelo_inurba_marseille","lat":43.330442,"lon":5.389148,"is_reserved":false,"is_disabled":false,"rental_uris":{"android":"levelo://app?vid=9eb1f5ab-3b44-4bbf-ac21-0279e7f9c8e4","ios":"levelo://app?vid=9eb1f5ab-3b44-4bbf-ac21-0279e7f9c8e4"},"vehicle_type_id":"4","last_reported":1717776553,"current_range_meters":5200,"station_id":"ce4bhr92rcd13ifvqhrg","pricing_plan_id":"cebpf4jnsgd1na2vs0mg"},{"bike_id":"fbe50a0c-c1cc-4e03-8a2b-394ccd6dcc62","system_id":"levelo_inurba_marseille","lat":43.330442,"lon":5.389148,"is_reserved":false,"is_disabled":false,"rental_uris":{"android":"levelo://app?vid=fbe50a0c-c1cc-4e03-8a2b-394ccd6dcc62","ios":"levelo://app?vid=fbe50a0c-c1cc-4e03-8a2b-394ccd6dcc62"},"vehicle_type_id":"4","last_reported":1717776553,"current_range_meters":21200,"station_id":"ce4bhr92rcd13ifvqhrg","pricing_plan_id":"cebpf4jnsgd1na2vs0mg"},{"bike_id":"9108f245-90b7-4e0c-ab28-4828180908da","system_id":"levelo_inurba_marseille","lat":43.330442,"lon":5.389148,"is_reserved":false,"is_disabled":false,"rental_uris":{"android":"levelo://app?vid=9108f245-90b7-4e0c-ab28-4828180908da","ios":"levelo://app?vid=9108f245-90b7-4e0c-ab28-4828180908da"},"vehicle_type_id":"4","last_reported":1717776553,"current_range_meters":14000,"station_id":"ce4bhr92rcd13ifvqhrg","pricing_plan_id":"cebpf4jnsgd1na2vs0mg"},{"bike_id":"d79f0d50-e70d-4937-a455-174cd3f6ea01","system_id":"levelo_inurba_marseille","lat":43.33024,"lon":5.39042,"is_reserved":false,"is_disabled":false,"rental_uris":{"android":"levelo://app?vid=d79f0d50-e70d-4937-a455-174cd3f6ea01","ios":"levelo://app?vid=d79f0d50-e70d-4937-a455-174cd3f6ea01"},"vehicle_type_id":"4","last_reported":1717776553,"current_range_meters":24000,"station_id":"ce4bhr92rcd13ifvqhrg","pricing_plan_id":"cebpf4jnsgd1na2vs0mg"},{"bike_id":"1bf73021-acc0-4b36-8a72-77ece2c2c05f","system_id":"levelo_inurba_marseille","lat":43.28973,"lon":5.37835,"is_reserved":false,"is_disabled":false,"rental_uris":{"android":"levelo://app?vid=1bf73021-acc0-4b36-8a72-77ece2c2c05f","ios":"levelo://app?vid=1bf73021-acc0-4b36-8a72-77ece2c2c05f"},"vehicle_type_id":"4","last_reported":1717776553,"current_range_meters":0,"station_id":"ce4bh9p2rcd13ifvqed0","pricing_plan_id":"cebpf4jnsgd1na2vs0mg"},{"bike_id":"8b5e36d8-e989-4e83-8007-d1cc3471b0a6","system_id":"levelo_inurba_marseille","lat":43.330442,"lon":5.389148,"is_reserved":false,"is_disabled":false,"rental_uris":{"android":"levelo://app?vid=8b5e36d8-e989-4e83-8007-d1cc3471b0a6","ios":"levelo://app?vid=8b5e36d8-e989-4e83-8007-d1cc3471b0a6"},"vehicle_type_id":"4","last_reported":1717776553,"current_range_meters":6800,"station_id":"ce4bhr92rcd13ifvqhrg","pricing_plan_id":"cebpf4jnsgd1na2vs0mg"},{"bike_id":"89579bc4-6aa7-4478-a644-24ac7665eb0a","system_id":"levelo_inurba_marseille","lat":43.297814,"lon":5.393513,"is_reserved":false,"is_disabled":false,"rental_uris":{"android":"levelo://app?vid=89579bc4-6aa7-4478-a644-24ac7665eb0a","ios":"levelo://app?vid=89579bc4-6aa7-4478-a644-24ac7665eb0a"},"vehicle_type_id":"4","last_reported":1717776553,"current_range_meters":0,"station_id":"chh1huq6cuj3fo74tm60","pricing_plan_id":"cebpf4jnsgd1na2vs0mg"},{"bike_id":"1031883e-33dd-4f44-ba60-f8fd92fe2a0f","system_id":"levelo_inurba_marseille","lat":43.304274,"lon":5.397513,"is_reserved":false,"is_disabled":false,"rental_uris":{"android":"levelo://app?vid=1031883e-33dd-4f44-ba60-f8fd92fe2a0f","ios":"levelo://app?vid=1031883e-33dd-4f44-ba60-f8fd92fe2a0f"},"vehicle_type_id":"4","last_reported":1717776553,"current_range_meters":31200,"station_id":"ce4bh092rcd13ifvqd20","pricing_plan_id":"cebpf4jnsgd1na2vs0mg"},{"bike_id":"10f052da-41c3-43e5-b96c-96043e84b34e","system_id":"levelo_inurba_marseille","lat":43.310566,"lon":5.400834,"is_reserved":false,"is_disabled":false,"rental_uris":{"android":"levelo://app?vid=10f052da-41c3-43e5-b96c-96043e84b34e","ios":"levelo://app?vid=10f052da-41c3-43e5-b96c-96043e84b34e"},"vehicle_type_id":"4","last_reported":1717776553,"current_range_meters":31200,"station_id":"","pricing_plan_id":"cebpf4jnsgd1na2vs0mg"},{"bike_id":"b1e33696-8d87-4b78-97d4-12df1787aca2","system_id":"levelo_inurba_marseille","lat":43.308204,"lon":5.400851,"is_reserved":false,"is_disabled":false,"rental_uris":{"android":"levelo://app?vid=b1e33696-8d87-4b78-97d4-12df1787aca2","ios":"levelo://app?vid=b1e33696-8d87-4b78-97d4-12df1787aca2"},"vehicle_type_id":"4","last_reported":1717776553,"current_range_meters":24000,"station_id":"","pricing_plan_id":"cebpf4jnsgd1na2vs0mg"},{"bike_id":"20a67b96-f3a7-455b-a5c3-e5e6f98ab983","system_id":"levelo_inurba_marseille","lat":43.312609,"lon":5.401662,"is_reserved":false,"is_disabled":false,"rental_uris":{"android":"levelo://app?vid=20a67b96-f3a7-455b-a5c3-e5e6f98ab983","ios":"levelo://app?vid=20a67b96-f3a7-455b-a5c3-e5e6f98ab983"},"vehicle_type_id":"4","last_reported":1717776553,"current_range_meters":15600,"station_id":"ce4bh092rcd13ifvqd30","pricing_plan_id":"cebpf4jnsgd1na2vs0mg"},{"bike_id":"589f9786-63c4-4323-9ee0-757efdca1c0a","system_id":"levelo_inurba_marseille","lat":43.312609,"lon":5.401662,"is_reserved":false,"is_disabled":false,"rental_uris":{"android":"levelo://app?vid=589f9786-63c4-4323-9ee0-757efdca1c0a","ios":"levelo://app?vid=589f9786-63c4-4323-9ee0-757efdca1c0a"},"vehicle_type_id":"4","last_reported":1717776553,"current_range_meters":16800,"station_id":"ce4bh092rcd13ifvqd30","pricing_plan_id":"cebpf4jnsgd1na2vs0mg"},{"bike_id":"f7e74793-89e7-425a-aa46-759716defcf1","system_id":"levelo_inurba_marseille","lat":43.312609,"lon":5.401662,"is_reserved":false,"is_disabled":false,"rental_uris":{"android":"levelo://app?vid=f7e74793-89e7-425a-aa46-759716defcf1","ios":"levelo://app?vid=f7e74793-89e7-425a-aa46-759716defcf1"},"vehicle_type_id":"4","last_reported":1717776553,"current_range_meters":2000,"station_id":"ce4bh092rcd13ifvqd30","pricing_plan_id":"cebpf4jnsgd1na2vs0mg"},{"bike_id":"f6856b9c-9d96-496b-b0f1-c3f94b1c41f7","system_id":"levelo_inurba_marseille","lat":43.312609,"lon":5.401662,"is_reserved":false,"is_disabled":false,"rental_uris":{"android":"levelo://app?vid=f6856b9c-9d96-496b-b0f1-c3f94b1c41f7","ios":"levelo://app?vid=f6856b9c-9d96-496b-b0f1-c3f94b1c41f7"},"vehicle_type_id":"4","last_reported":1717776553,"current_range_meters":800,"station_id":"ce4bh092rcd13ifvqd30","pricing_plan_id":"cebpf4jnsgd1na2vs0mg"},{"bike_id":"f5d81ff7-7e0d-44d8-86e3-2548419d17b8","system_id":"levelo_inurba_marseille","lat":43.33737,"lon":5.37483,"is_reserved":false,"is_disabled":false,"rental_uris":{"android":"levelo://app?vid=f5d81ff7-7e0d-44d8-86e3-2548419d17b8","ios":"levelo://app?vid=f5d81ff7-7e0d-44d8-86e3-2548419d17b8"},"vehicle_type_id":"4","last_reported":1717776553,"current_range_meters":6400,"station_id":"","pricing_plan_id":"cebpf4jnsgd1na2vs0mg"},{"bike_id":"6533aea2-0ab9-46ad-bce8-9010509d51b2","system_id":"levelo_inurba_marseille","lat":43.312609,"lon":5.401662,"is_reserved":false,"is_disabled":false,"rental_uris":{"android":"levelo://app?vid=6533aea2-0ab9-46ad-bce8-9010509d51b2","ios":"levelo://app?vid=6533aea2-0ab9-46ad-bce8-9010509d51b2"},"vehicle_type_id":"4","last_reported":1717776553,"current_range_meters":12800,"station_id":"ce4bh092rcd13ifvqd30","pricing_plan_id":"cebpf4jnsgd1na2vs0mg"},{"bike_id":"bef26146-82c1-43c2-923b-0ea24b75f31d","system_id":"levelo_inurba_marseille","lat":43.312609,"lon":5.401662,"is_reserved":false,"is_disabled":false,"rental_uris":{"android":"levelo://app?vid=bef26146-82c1-43c2-923b-0ea24b75f31d","ios":"levelo://app?vid=bef26146-82c1-43c2-923b-0ea24b75f31d"},"vehicle_type_id":"4","last_reported":1717776553,"current_range_meters":8800,"station_id":"ce4bh092rcd13ifvqd30","pricing_plan_id":"cebpf4jnsgd1na2vs0mg"},{"bike_id":"687c0801-f2ac-4679-8409-c4662b81b882","system_id":"levelo_inurba_marseille","lat":43.309371,"lon":5.401449,"is_reserved":false,"is_disabled":false,"rental_uris":{"android":"levelo://app?vid=687c0801-f2ac-4679-8409-c4662b81b882","ios":"levelo://app?vid=687c0801-f2ac-4679-8409-c4662b81b882"},"vehicle_type_id":"4","last_reported":1717776553,"current_range_meters":0,"station_id":"ce4bgvp2rcd13ifvqct0","pricing_plan_id":"cebpf4jnsgd1na2vs0mg"},{"bike_id":"cb968fa6-1425-4db5-b111-741fc3873653","system_id":"levelo_inurba_marseille","lat":43.33745,"lon":5.374543,"is_reserved":false,"is_disabled":false,"rental_uris":{"android":"levelo://app?vid=cb968fa6-1425-4db5-b111-741fc3873653","ios":"levelo://app?vid=cb968fa6-1425-4db5-b111-741fc3873653"},"vehicle_type_id":"4","last_reported":1717776553,"current_range_meters":29600,"station_id":"","pricing_plan_id":"cebpf4jnsgd1na2vs0mg"},{"bike_id":"ceff1af8-1a5a-442a-94e2-a660a6b91490","system_id":"levelo_inurba_marseille","lat":43.312609,"lon":5.401662,"is_reserved":false,"is_disabled":false,"rental_uris":{"android":"levelo://app?vid=ceff1af8-1a5a-442a-94e2-a660a6b91490","ios":"levelo://app?vid=ceff1af8-1a5a-442a-94e2-a660a6b91490"},"vehicle_type_id":"4","last_reported":1717776553,"current_range_meters":4800,"station_id":"ce4bh092rcd13ifvqd30","pricing_plan_id":"cebpf4jnsgd1na2vs0mg"},{"bike_id":"cf917a39-75f1-4cbb-a246-b0be70ffc30f","system_id":"levelo_inurba_marseille","lat":43.309371,"lon":5.401449,"is_reserved":false,"is_disabled":false,"rental_uris":{"android":"levelo://app?vid=cf917a39-75f1-4cbb-a246-b0be70ffc30f","ios":"levelo://app?vid=cf917a39-75f1-4cbb-a246-b0be70ffc30f"},"vehicle_type_id":"4","last_reported":1717776553,"current_range_meters":20800,"station_id":"ce4bgvp2rcd13ifvqct0","pricing_plan_id":"cebpf4jnsgd1na2vs0mg"},{"bike_id":"5e662ddf-d523-4773-afc8-52e65d8b5b01","system_id":"levelo_inurba_marseille","lat":43.309314,"lon":5.401462,"is_reserved":false,"is_disabled":false,"rental_uris":{"android":"levelo://app?vid=5e662ddf-d523-4773-afc8-52e65d8b5b01","ios":"levelo://app?vid=5e662ddf-d523-4773-afc8-52e65d8b5b01"},"vehicle_type_id":"4","last_reported":1717776553,"current_range_meters":0,"station_id":"ce4bgvp2rcd13ifvqct0","pricing_plan_id":"cebpf4jnsgd1na2vs0mg"},{"bike_id":"c4f698ec-64e9-4887-b0e3-1335dc62c252","system_id":"levelo_inurba_marseille","lat":43.337564,"lon":5.374545,"is_reserved":false,"is_disabled":false,"rental_uris":{"android":"levelo://app?vid=c4f698ec-64e9-4887-b0e3-1335dc62c252","ios":"levelo://app?vid=c4f698ec-64e9-4887-b0e3-1335dc62c252"},"vehicle_type_id":"4","last_reported":1717776553,"current_range_meters":18800,"station_id":"","pricing_plan_id":"cebpf4jnsgd1na2vs0mg"},{"bike_id":"6c4c048f-d6ba-4474-9cd3-ec2cb538cd40","system_id":"levelo_inurba_marseille","lat":43.312609,"lon":5.401662,"is_reserved":false,"is_disabled":false,"rental_uris":{"android":"levelo://app?vid=6c4c048f-d6ba-4474-9cd3-ec2cb538cd40","ios":"levelo://app?vid=6c4c048f-d6ba-4474-9cd3-ec2cb538cd40"},"vehicle_type_id":"4","last_reported":1717776553,"current_range_meters":18800,"station_id":"ce4bh092rcd13ifvqd30","pricing_plan_id":"cebpf4jnsgd1na2vs0mg"},{"bike_id":"f8531260-70b2-4268-ac2c-60ce2ee2e0da","system_id":"levelo_inurba_marseille","lat":43.338,"lon":5.37425,"is_reserved":false,"is_disabled":false,"rental_uris":{"android":"levelo://app?vid=f8531260-70b2-4268-ac2c-60ce2ee2e0da","ios":"levelo://app?vid=f8531260-70b2-4268-ac2c-60ce2ee2e0da"},"vehicle_type_id":"4","last_reported":1717776553,"current_range_meters":15600,"station_id":"","pricing_plan_id":"cebpf4jnsgd1na2vs0mg"},{"bike_id":"6d679425-45dc-4b0e-b21f-2ce1b5cb7ae7","system_id":"levelo_inurba_marseille","lat":43.286866,"lon":5.367221,"is_reserved":false,"is_disabled":false,"rental_uris":{"android":"levelo://app?vid=6d679425-45dc-4b0e-b21f-2ce1b5cb7ae7","ios":"levelo://app?vid=6d679425-45dc-4b0e-b21f-2ce1b5cb7ae7"},"vehicle_type_id":"4","last_reported":1717776553,"current_range_meters":6000,"station_id":"","pricing_plan_id":"cebpf4jnsgd1na2vs0mg"},{"bike_id":"e0fa5666-676f-41d3-96d6-61b372faa802","system_id":"levelo_inurba_marseille","lat":43.301117,"lon":5.398795,"is_reserved":false,"is_disabled":false,"rental_uris":{"android":"levelo://app?vid=e0fa5666-676f-41d3-96d6-61b372faa802","ios":"levelo://app?vid=e0fa5666-676f-41d3-96d6-61b372faa802"},"vehicle_type_id":"4","last_reported":1717776553,"current_range_meters":12400,"station_id":"ce4bh0h2rcd13ifvqd40","pricing_plan_id":"cebpf4jnsgd1na2vs0mg"},{"bike_id":"777c3768-fb24-4789-98a8-ec176568fb4a","system_id":"levelo_inurba_marseille","lat":43.288949,"lon":5.381944,"is_reserved":false,"is_disabled":false,"rental_uris":{"android":"levelo://app?vid=777c3768-fb24-4789-98a8-ec176568fb4a","ios":"levelo://app?vid=777c3768-fb24-4789-98a8-ec176568fb4a"},"vehicle_type_id":"4","last_reported":1717776553,"current_range_meters":0,"station_id":"ce4bh4p2rcd13ifvqe1g","pricing_plan_id":"cebpf4jnsgd1na2vs0mg"},{"bike_id":"a317126f-36ee-45ff-90d6-1c653034cf19","system_id":"levelo_inurba_marseille","lat":43.287044,"lon":5.373852,"is_reserved":false,"is_disabled":false,"rental_uris":{"android":"levelo://app?vid=a317126f-36ee-45ff-90d6-1c653034cf19","ios":"levelo://app?vid=a317126f-36ee-45ff-90d6-1c653034cf19"},"vehicle_type_id":"4","last_reported":1717776553,"current_range_meters":26400,"station_id":"ce4bh3p2rcd13ifvqdq0","pricing_plan_id":"cebpf4jnsgd1na2vs0mg"},{"bike_id":"afa681b1-3029-4e4e-81f6-724c5de09d2a","system_id":"levelo_inurba_marseille","lat":43.29875,"lon":5.39738,"is_reserved":false,"is_disabled":false,"rental_uris":{"android":"levelo://app?vid=afa681b1-3029-4e4e-81f6-724c5de09d2a","ios":"levelo://app?vid=afa681b1-3029-4e4e-81f6-724c5de09d2a"},"vehicle_type_id":"4","last_reported":1717776553,"current_range_meters":21200,"station_id":"ce4bh0h2rcd13ifvqd50","pricing_plan_id":"cebpf4jnsgd1na2vs0mg"},{"bike_id":"fae3c156-7e1e-4ca9-9515-751371101037","system_id":"levelo_inurba_marseille","lat":43.298681,"lon":5.397225,"is_reserved":false,"is_disabled":false,"rental_uris":{"android":"levelo://app?vid=fae3c156-7e1e-4ca9-9515-751371101037","ios":"levelo://app?vid=fae3c156-7e1e-4ca9-9515-751371101037"},"vehicle_type_id":"4","last_reported":1717776553,"current_range_meters":16400,"station_id":"ce4bh0h2rcd13ifvqd50","pricing_plan_id":"cebpf4jnsgd1na2vs0mg"},{"bike_id":"db1c20b0-c94f-405e-98d3-6deedd7b3b2c","system_id":"levelo_inurba_marseille","lat":43.298681,"lon":5.397225,"is_reserved":false,"is_disabled":false,"rental_uris":{"android":"levelo://app?vid=db1c20b0-c94f-405e-98d3-6deedd7b3b2c","ios":"levelo://app?vid=db1c20b0-c94f-405e-98d3-6deedd7b3b2c"},"vehicle_type_id":"4","last_reported":1717776553,"current_range_meters":29200,"station_id":"ce4bh0h2rcd13ifvqd50","pricing_plan_id":"cebpf4jnsgd1na2vs0mg"},{"bike_id":"f577fc5f-024c-461e-87dc-3359c4eb7cd1","system_id":"levelo_inurba_marseille","lat":43.286593,"lon":5.363346,"is_reserved":false,"is_disabled":false,"rental_uris":{"android":"levelo://app?vid=f577fc5f-024c-461e-87dc-3359c4eb7cd1","ios":"levelo://app?vid=f577fc5f-024c-461e-87dc-3359c4eb7cd1"},"vehicle_type_id":"4","last_reported":1717776553,"current_range_meters":2400,"station_id":"ce4bhah2rcd13ifvqej0","pricing_plan_id":"cebpf4jnsgd1na2vs0mg"},{"bike_id":"6a06a766-d857-4eae-b3b7-b7501fac4f58","system_id":"levelo_inurba_marseille","lat":43.286593,"lon":5.363346,"is_reserved":false,"is_disabled":false,"rental_uris":{"android":"levelo://app?vid=6a06a766-d857-4eae-b3b7-b7501fac4f58","ios":"levelo://app?vid=6a06a766-d857-4eae-b3b7-b7501fac4f58"},"vehicle_type_id":"4","last_reported":1717776553,"current_range_meters":22800,"station_id":"ce4bhah2rcd13ifvqej0","pricing_plan_id":"cebpf4jnsgd1na2vs0mg"},{"bike_id":"641bcfbc-b94e-4225-ab47-e6ea57c56be0","system_id":"levelo_inurba_marseille","lat":43.2866,"lon":5.36354,"is_reserved":false,"is_disabled":false,"rental_uris":{"android":"levelo://app?vid=641bcfbc-b94e-4225-ab47-e6ea57c56be0","ios":"levelo://app?vid=641bcfbc-b94e-4225-ab47-e6ea57c56be0"},"vehicle_type_id":"4","last_reported":1717776553,"current_range_meters":0,"station_id":"ce4bhah2rcd13ifvqej0","pricing_plan_id":"cebpf4jnsgd1na2vs0mg"},{"bike_id":"46abf613-5963-4595-ac57-83fea49affeb","system_id":"levelo_inurba_marseille","lat":43.28697,"lon":5.373918,"is_reserved":false,"is_disabled":false,"rental_uris":{"android":"levelo://app?vid=46abf613-5963-4595-ac57-83fea49affeb","ios":"levelo://app?vid=46abf613-5963-4595-ac57-83fea49affeb"},"vehicle_type_id":"4","last_reported":1717776553,"current_range_meters":20000,"station_id":"ce4bh3p2rcd13ifvqdq0","pricing_plan_id":"cebpf4jnsgd1na2vs0mg"},{"bike_id":"68b4d836-6a58-4ab3-afbe-5f60e50adb0a","system_id":"levelo_inurba_marseille","lat":43.28696,"lon":5.37392,"is_reserved":false,"is_disabled":false,"rental_uris":{"android":"levelo://app?vid=68b4d836-6a58-4ab3-afbe-5f60e50adb0a","ios":"levelo://app?vid=68b4d836-6a58-4ab3-afbe-5f60e50adb0a"},"vehicle_type_id":"4","last_reported":1717776553,"current_range_meters":4000,"station_id":"ce4bh3p2rcd13ifvqdq0","pricing_plan_id":"cebpf4jnsgd1na2vs0mg"},{"bike_id":"1b57bbc1-944e-48cd-bda1-faace70989a1","system_id":"levelo_inurba_marseille","lat":43.286591,"lon":5.363346,"is_reserved":false,"is_disabled":false,"rental_uris":{"android":"levelo://app?vid=1b57bbc1-944e-48cd-bda1-faace70989a1","ios":"levelo://app?vid=1b57bbc1-944e-48cd-bda1-faace70989a1"},"vehicle_type_id":"4","last_reported":1717776553,"current_range_meters":0,"station_id":"ce4bhah2rcd13ifvqej0","pricing_plan_id":"cebpf4jnsgd1na2vs0mg"},{"bike_id":"0960c1ee-b8e2-4acc-87f2-b7650da92a43","system_id":"levelo_inurba_marseille","lat":43.28695,"lon":5.373986,"is_reserved":false,"is_disabled":false,"rental_uris":{"android":"levelo://app?vid=0960c1ee-b8e2-4acc-87f2-b7650da92a43","ios":"levelo://app?vid=0960c1ee-b8e2-4acc-87f2-b7650da92a43"},"vehicle_type_id":"4","last_reported":1717776553,"current_range_meters":0,"station_id":"ce4bh3p2rcd13ifvqdq0","pricing_plan_id":"cebpf4jnsgd1na2vs0mg"},{"bike_id":"baf9c6f5-0805-462a-8140-8ddc2ba84d3a","system_id":"levelo_inurba_marseille","lat":43.283998,"lon":5.375062,"is_reserved":false,"is_disabled":false,"rental_uris":{"android":"levelo://app?vid=baf9c6f5-0805-462a-8140-8ddc2ba84d3a","ios":"levelo://app?vid=baf9c6f5-0805-462a-8140-8ddc2ba84d3a"},"vehicle_type_id":"4","last_reported":1717776553,"current_range_meters":2000,"station_id":"ce4bh412rcd13ifvqds0","pricing_plan_id":"cebpf4jnsgd1na2vs0mg"},{"bike_id":"7eed72f7-1472-43c2-b4e3-bb1333d71e42","system_id":"levelo_inurba_marseille","lat":43.302759,"lon":5.400793,"is_reserved":false,"is_disabled":false,"rental_uris":{"android":"levelo://app?vid=7eed72f7-1472-43c2-b4e3-bb1333d71e42","ios":"levelo://app?vid=7eed72f7-1472-43c2-b4e3-bb1333d71e42"},"vehicle_type_id":"4","last_reported":1717776553,"current_range_meters":19600,"station_id":"ce4bgvh2rcd13ifvqcs0","pricing_plan_id":"cebpf4jnsgd1na2vs0mg"},{"bike_id":"4613ce33-1899-4ae9-a426-af276ca254b2","system_id":"levelo_inurba_marseille","lat":43.302324,"lon":5.40044,"is_reserved":false,"is_disabled":false,"rental_uris":{"android":"levelo://app?vid=4613ce33-1899-4ae9-a426-af276ca254b2","ios":"levelo://app?vid=4613ce33-1899-4ae9-a426-af276ca254b2"},"vehicle_type_id":"4","last_reported":1717776553,"current_range_meters":0,"station_id":"ce4bgvh2rcd13ifvqcs0","pricing_plan_id":"cebpf4jnsgd1na2vs0mg"},{"bike_id":"4ac3f758-83bd-4cd7-9d59-90c8c3ef81f3","system_id":"levelo_inurba_marseille","lat":43.289307,"lon":5.38406,"is_reserved":false,"is_disabled":false,"rental_uris":{"android":"levelo://app?vid=4ac3f758-83bd-4cd7-9d59-90c8c3ef81f3","ios":"levelo://app?vid=4ac3f758-83bd-4cd7-9d59-90c8c3ef81f3"},"vehicle_type_id":"4","last_reported":1717776553,"current_range_meters":2000,"station_id":"ce4bh612rcd13ifvqe6g","pricing_plan_id":"cebpf4jnsgd1na2vs0mg"},{"bike_id":"fed8e8f5-36fa-415d-b5e2-ac10fcb41cd5","system_id":"levelo_inurba_marseille","lat":43.290336,"lon":5.386425,"is_reserved":false,"is_disabled":false,"rental_uris":{"android":"levelo://app?vid=fed8e8f5-36fa-415d-b5e2-ac10fcb41cd5","ios":"levelo://app?vid=fed8e8f5-36fa-415d-b5e2-ac10fcb41cd5"},"vehicle_type_id":"4","last_reported":1717776553,"current_range_meters":0,"station_id":"ce4bh4p2rcd13ifvqe0g","pricing_plan_id":"cebpf4jnsgd1na2vs0mg"},{"bike_id":"04e37ea5-f75c-48d8-b761-2e7caaf2484d","system_id":"levelo_inurba_marseille","lat":43.290025,"lon":5.385942,"is_reserved":false,"is_disabled":false,"rental_uris":{"android":"levelo://app?vid=04e37ea5-f75c-48d8-b761-2e7caaf2484d","ios":"levelo://app?vid=04e37ea5-f75c-48d8-b761-2e7caaf2484d"},"vehicle_type_id":"4","last_reported":1717776553,"current_range_meters":0,"station_id":"ce4bh4p2rcd13ifvqe0g","pricing_plan_id":"cebpf4jnsgd1na2vs0mg"},{"bike_id":"ab39f189-cab1-4891-aa33-7a6f8cec093e","system_id":"levelo_inurba_marseille","lat":43.289307,"lon":5.38406,"is_reserved":false,"is_disabled":false,"rental_uris":{"android":"levelo://app?vid=ab39f189-cab1-4891-aa33-7a6f8cec093e","ios":"levelo://app?vid=ab39f189-cab1-4891-aa33-7a6f8cec093e"},"vehicle_type_id":"4","last_reported":1717776553,"current_range_meters":4400,"station_id":"ce4bh612rcd13ifvqe6g","pricing_plan_id":"cebpf4jnsgd1na2vs0mg"},{"bike_id":"f188e78b-cd13-4579-99ab-2baa9eae74a7","system_id":"levelo_inurba_marseille","lat":43.302759,"lon":5.400793,"is_reserved":false,"is_disabled":false,"rental_uris":{"android":"levelo://app?vid=f188e78b-cd13-4579-99ab-2baa9eae74a7","ios":"levelo://app?vid=f188e78b-cd13-4579-99ab-2baa9eae74a7"},"vehicle_type_id":"4","last_reported":1717776553,"current_range_meters":26800,"station_id":"ce4bgvh2rcd13ifvqcs0","pricing_plan_id":"cebpf4jnsgd1na2vs0mg"},{"bike_id":"7d579089-33a6-4d33-8d1a-631bba9a9f53","system_id":"levelo_inurba_marseille","lat":43.302759,"lon":5.400793,"is_reserved":false,"is_disabled":false,"rental_uris":{"android":"levelo://app?vid=7d579089-33a6-4d33-8d1a-631bba9a9f53","ios":"levelo://app?vid=7d579089-33a6-4d33-8d1a-631bba9a9f53"},"vehicle_type_id":"4","last_reported":1717776553,"current_range_meters":26800,"station_id":"ce4bgvh2rcd13ifvqcs0","pricing_plan_id":"cebpf4jnsgd1na2vs0mg"},{"bike_id":"f68af0ff-78f9-4818-ba76-585dba911070","system_id":"levelo_inurba_marseille","lat":43.298681,"lon":5.397225,"is_reserved":false,"is_disabled":false,"rental_uris":{"android":"levelo://app?vid=f68af0ff-78f9-4818-ba76-585dba911070","ios":"levelo://app?vid=f68af0ff-78f9-4818-ba76-585dba911070"},"vehicle_type_id":"4","last_reported":1717776553,"current_range_meters":20800,"station_id":"ce4bh0h2rcd13ifvqd50","pricing_plan_id":"cebpf4jnsgd1na2vs0mg"},{"bike_id":"f719a7c2-d521-432e-8d50-c2a5f6a1528a","system_id":"levelo_inurba_marseille","lat":43.302759,"lon":5.400793,"is_reserved":false,"is_disabled":false,"rental_uris":{"android":"levelo://app?vid=f719a7c2-d521-432e-8d50-c2a5f6a1528a","ios":"levelo://app?vid=f719a7c2-d521-432e-8d50-c2a5f6a1528a"},"vehicle_type_id":"4","last_reported":1717776553,"current_range_meters":8400,"station_id":"ce4bgvh2rcd13ifvqcs0","pricing_plan_id":"cebpf4jnsgd1na2vs0mg"},{"bike_id":"d29bcaea-a7d4-4284-a00c-48f18e642dc1","system_id":"levelo_inurba_marseille","lat":43.302759,"lon":5.400793,"is_reserved":false,"is_disabled":false,"rental_uris":{"android":"levelo://app?vid=d29bcaea-a7d4-4284-a00c-48f18e642dc1","ios":"levelo://app?vid=d29bcaea-a7d4-4284-a00c-48f18e642dc1"},"vehicle_type_id":"4","last_reported":1717776553,"current_range_meters":16800,"station_id":"ce4bgvh2rcd13ifvqcs0","pricing_plan_id":"cebpf4jnsgd1na2vs0mg"},{"bike_id":"a0fda5cd-094a-46ca-ac54-bcfd43057dea","system_id":"levelo_inurba_marseille","lat":43.286039,"lon":5.370681,"is_reserved":false,"is_disabled":false,"rental_uris":{"android":"levelo://app?vid=a0fda5cd-094a-46ca-ac54-bcfd43057dea","ios":"levelo://app?vid=a0fda5cd-094a-46ca-ac54-bcfd43057dea"},"vehicle_type_id":"4","last_reported":1717776553,"current_range_meters":25200,"station_id":"ce4bht12rcd13ifvqi60","pricing_plan_id":"cebpf4jnsgd1na2vs0mg"},{"bike_id":"f9397181-2862-49ab-a440-9e77222a5379","system_id":"levelo_inurba_marseille","lat":43.286039,"lon":5.370681,"is_reserved":false,"is_disabled":false,"rental_uris":{"android":"levelo://app?vid=f9397181-2862-49ab-a440-9e77222a5379","ios":"levelo://app?vid=f9397181-2862-49ab-a440-9e77222a5379"},"vehicle_type_id":"4","last_reported":1717776553,"current_range_meters":21200,"station_id":"ce4bht12rcd13ifvqi60","pricing_plan_id":"cebpf4jnsgd1na2vs0mg"},{"bike_id":"5b43c40f-2488-4a05-84af-cc0148af6824","system_id":"levelo_inurba_marseille","lat":43.28606,"lon":5.37064,"is_reserved":false,"is_disabled":false,"rental_uris":{"android":"levelo://app?vid=5b43c40f-2488-4a05-84af-cc0148af6824","ios":"levelo://app?vid=5b43c40f-2488-4a05-84af-cc0148af6824"},"vehicle_type_id":"4","last_reported":1717776553,"current_range_meters":0,"station_id":"ce4bht12rcd13ifvqi60","pricing_plan_id":"cebpf4jnsgd1na2vs0mg"},{"bike_id":"456d530c-3a8b-411b-a583-6a448c731d49","system_id":"levelo_inurba_marseille","lat":43.287185,"lon":5.379373,"is_reserved":false,"is_disabled":false,"rental_uris":{"android":"levelo://app?vid=456d530c-3a8b-411b-a583-6a448c731d49","ios":"levelo://app?vid=456d530c-3a8b-411b-a583-6a448c731d49"},"vehicle_type_id":"4","last_reported":1717776553,"current_range_meters":12800,"station_id":"ce4bh9p2rcd13ifvqec0","pricing_plan_id":"cebpf4jnsgd1na2vs0mg"},{"bike_id":"f899dc48-d14c-49bc-8fac-e77561968f8e","system_id":"levelo_inurba_marseille","lat":43.287184,"lon":5.37937,"is_reserved":false,"is_disabled":false,"rental_uris":{"android":"levelo://app?vid=f899dc48-d14c-49bc-8fac-e77561968f8e","ios":"levelo://app?vid=f899dc48-d14c-49bc-8fac-e77561968f8e"},"vehicle_type_id":"4","last_reported":1717776553,"current_range_meters":6400,"station_id":"ce4bh9p2rcd13ifvqec0","pricing_plan_id":"cebpf4jnsgd1na2vs0mg"},{"bike_id":"7097b3b5-f414-401b-ac44-7bdc4259d60f","system_id":"levelo_inurba_marseille","lat":43.28708,"lon":5.37932,"is_reserved":false,"is_disabled":false,"rental_uris":{"android":"levelo://app?vid=7097b3b5-f414-401b-ac44-7bdc4259d60f","ios":"levelo://app?vid=7097b3b5-f414-401b-ac44-7bdc4259d60f"},"vehicle_type_id":"4","last_reported":1717776553,"current_range_meters":0,"station_id":"ce4bh9p2rcd13ifvqec0","pricing_plan_id":"cebpf4jnsgd1na2vs0mg"},{"bike_id":"3c63c494-7a9d-4c07-9b50-1c084ac6f93c","system_id":"levelo_inurba_marseille","lat":43.28677,"lon":5.35479,"is_reserved":false,"is_disabled":false,"rental_uris":{"android":"levelo://app?vid=3c63c494-7a9d-4c07-9b50-1c084ac6f93c","ios":"levelo://app?vid=3c63c494-7a9d-4c07-9b50-1c084ac6f93c"},"vehicle_type_id":"4","last_reported":1717776553,"current_range_meters":9600,"station_id":"","pricing_plan_id":"cebpf4jnsgd1na2vs0mg"},{"bike_id":"4aa933df-201c-4cfe-9fc0-62fbdb301dea","system_id":"levelo_inurba_marseille","lat":43.287417,"lon":5.352228,"is_reserved":false,"is_disabled":false,"rental_uris":{"android":"levelo://app?vid=4aa933df-201c-4cfe-9fc0-62fbdb301dea","ios":"levelo://app?vid=4aa933df-201c-4cfe-9fc0-62fbdb301dea"},"vehicle_type_id":"4","last_reported":1717776553,"current_range_meters":26000,"station_id":"","pricing_plan_id":"cebpf4jnsgd1na2vs0mg"},{"bike_id":"20549dc2-83e8-419f-adc7-d5a9e86a5cac","system_id":"levelo_inurba_marseille","lat":43.292,"lon":5.39315,"is_reserved":false,"is_disabled":false,"rental_uris":{"android":"levelo://app?vid=20549dc2-83e8-419f-adc7-d5a9e86a5cac","ios":"levelo://app?vid=20549dc2-83e8-419f-adc7-d5a9e86a5cac"},"vehicle_type_id":"4","last_reported":1717776553,"current_range_meters":0,"station_id":"ce4bh192rcd13ifvqdd0","pricing_plan_id":"cebpf4jnsgd1na2vs0mg"},{"bike_id":"8cbf6d42-9bf7-416f-ad97-4cf80e4fbb62","system_id":"levelo_inurba_marseille","lat":43.29181,"lon":5.39306,"is_reserved":false,"is_disabled":false,"rental_uris":{"android":"levelo://app?vid=8cbf6d42-9bf7-416f-ad97-4cf80e4fbb62","ios":"levelo://app?vid=8cbf6d42-9bf7-416f-ad97-4cf80e4fbb62"},"vehicle_type_id":"4","last_reported":1717776553,"current_range_meters":0,"station_id":"ce4bh192rcd13ifvqdd0","pricing_plan_id":"cebpf4jnsgd1na2vs0mg"},{"bike_id":"4e822f19-ead8-4310-9973-f4f6b34d5b3d","system_id":"levelo_inurba_marseille","lat":43.283998,"lon":5.375062,"is_reserved":false,"is_disabled":false,"rental_uris":{"android":"levelo://app?vid=4e822f19-ead8-4310-9973-f4f6b34d5b3d","ios":"levelo://app?vid=4e822f19-ead8-4310-9973-f4f6b34d5b3d"},"vehicle_type_id":"4","last_reported":1717776553,"current_range_meters":16400,"station_id":"ce4bh412rcd13ifvqds0","pricing_plan_id":"cebpf4jnsgd1na2vs0mg"},{"bike_id":"59d66657-12e4-4cbe-bdc4-70dcbf8f16c1","system_id":"levelo_inurba_marseille","lat":43.283998,"lon":5.375062,"is_reserved":false,"is_disabled":false,"rental_uris":{"android":"levelo://app?vid=59d66657-12e4-4cbe-bdc4-70dcbf8f16c1","ios":"levelo://app?vid=59d66657-12e4-4cbe-bdc4-70dcbf8f16c1"},"vehicle_type_id":"4","last_reported":1717776553,"current_range_meters":0,"station_id":"ce4bh412rcd13ifvqds0","pricing_plan_id":"cebpf4jnsgd1na2vs0mg"},{"bike_id":"a18acb8d-7445-45eb-a405-173efb44d65e","system_id":"levelo_inurba_marseille","lat":43.284538,"lon":5.358657,"is_reserved":false,"is_disabled":false,"rental_uris":{"android":"levelo://app?vid=a18acb8d-7445-45eb-a405-173efb44d65e","ios":"levelo://app?vid=a18acb8d-7445-45eb-a405-173efb44d65e"},"vehicle_type_id":"4","last_reported":1717776553,"current_range_meters":11600,"station_id":"ce4bhah2rcd13ifvqei0","pricing_plan_id":"cebpf4jnsgd1na2vs0mg"},{"bike_id":"2c8314e6-d5e9-4836-af60-e4c6c041443d","system_id":"levelo_inurba_marseille","lat":43.28461,"lon":5.35894,"is_reserved":false,"is_disabled":false,"rental_uris":{"android":"levelo://app?vid=2c8314e6-d5e9-4836-af60-e4c6c041443d","ios":"levelo://app?vid=2c8314e6-d5e9-4836-af60-e4c6c041443d"},"vehicle_type_id":"4","last_reported":1717776553,"current_range_meters":0,"station_id":"ce4bhah2rcd13ifvqei0","pricing_plan_id":"cebpf4jnsgd1na2vs0mg"},{"bike_id":"388b43d9-819a-4964-b691-9ea3cee03912","system_id":"levelo_inurba_marseille","lat":43.284538,"lon":5.358657,"is_reserved":false,"is_disabled":false,"rental_uris":{"android":"levelo://app?vid=388b43d9-819a-4964-b691-9ea3cee03912","ios":"levelo://app?vid=388b43d9-819a-4964-b691-9ea3cee03912"},"vehicle_type_id":"4","last_reported":1717776553,"current_range_meters":12400,"station_id":"ce4bhah2rcd13ifvqei0","pricing_plan_id":"cebpf4jnsgd1na2vs0mg"},{"bike_id":"faa386cb-bc6b-41e8-beda-960e5a361ec9","system_id":"levelo_inurba_marseille","lat":43.284538,"lon":5.358657,"is_reserved":false,"is_disabled":false,"rental_uris":{"android":"levelo://app?vid=faa386cb-bc6b-41e8-beda-960e5a361ec9","ios":"levelo://app?vid=faa386cb-bc6b-41e8-beda-960e5a361ec9"},"vehicle_type_id":"4","last_reported":1717776553,"current_range_meters":7200,"station_id":"ce4bhah2rcd13ifvqei0","pricing_plan_id":"cebpf4jnsgd1na2vs0mg"},{"bike_id":"9cafe71b-b623-417b-8df1-c00d80396bff","system_id":"levelo_inurba_marseille","lat":43.284538,"lon":5.358657,"is_reserved":false,"is_disabled":false,"rental_uris":{"android":"levelo://app?vid=9cafe71b-b623-417b-8df1-c00d80396bff","ios":"levelo://app?vid=9cafe71b-b623-417b-8df1-c00d80396bff"},"vehicle_type_id":"4","last_reported":1717776553,"current_range_meters":22400,"station_id":"ce4bhah2rcd13ifvqei0","pricing_plan_id":"cebpf4jnsgd1na2vs0mg"},{"bike_id":"282f24ba-c031-4002-840d-ad1fbdf8d9bb","system_id":"levelo_inurba_marseille","lat":43.2862,"lon":5.35104,"is_reserved":false,"is_disabled":false,"rental_uris":{"android":"levelo://app?vid=282f24ba-c031-4002-840d-ad1fbdf8d9bb","ios":"levelo://app?vid=282f24ba-c031-4002-840d-ad1fbdf8d9bb"},"vehicle_type_id":"4","last_reported":1717776553,"current_range_meters":0,"station_id":"ce4bhch2rcd13ifvqeug","pricing_plan_id":"cebpf4jnsgd1na2vs0mg"},{"bike_id":"34f63a60-4eba-4c16-9fb0-f20b6c9bda10","system_id":"levelo_inurba_marseille","lat":43.260219,"lon":5.37546,"is_reserved":false,"is_disabled":false,"rental_uris":{"android":"levelo://app?vid=34f63a60-4eba-4c16-9fb0-f20b6c9bda10","ios":"levelo://app?vid=34f63a60-4eba-4c16-9fb0-f20b6c9bda10"},"vehicle_type_id":"4","last_reported":1717776553,"current_range_meters":4400,"station_id":"ce4bhgh2rcd13ifvqfa0","pricing_plan_id":"cebpf4jnsgd1na2vs0mg"},{"bike_id":"766bb971-4b30-415a-8ac2-d111153d4d6c","system_id":"levelo_inurba_marseille","lat":43.285856,"lon":5.350771,"is_reserved":false,"is_disabled":false,"rental_uris":{"android":"levelo://app?vid=766bb971-4b30-415a-8ac2-d111153d4d6c","ios":"levelo://app?vid=766bb971-4b30-415a-8ac2-d111153d4d6c"},"vehicle_type_id":"4","last_reported":1717776553,"current_range_meters":0,"station_id":"ce4bhch2rcd13ifvqeug","pricing_plan_id":"cebpf4jnsgd1na2vs0mg"},{"bike_id":"c9cc97c2-223f-4d5b-976a-6868b2f0a778","system_id":"levelo_inurba_marseille","lat":43.283998,"lon":5.375062,"is_reserved":false,"is_disabled":false,"rental_uris":{"android":"levelo://app?vid=c9cc97c2-223f-4d5b-976a-6868b2f0a778","ios":"levelo://app?vid=c9cc97c2-223f-4d5b-976a-6868b2f0a778"},"vehicle_type_id":"4","last_reported":1717776553,"current_range_meters":0,"station_id":"ce4bh412rcd13ifvqds0","pricing_plan_id":"cebpf4jnsgd1na2vs0mg"},{"bike_id":"ae1168b4-aabb-40ad-952b-7473f5f880fb","system_id":"levelo_inurba_marseille","lat":43.283998,"lon":5.375062,"is_reserved":false,"is_disabled":false,"rental_uris":{"android":"levelo://app?vid=ae1168b4-aabb-40ad-952b-7473f5f880fb","ios":"levelo://app?vid=ae1168b4-aabb-40ad-952b-7473f5f880fb"},"vehicle_type_id":"4","last_reported":1717776553,"current_range_meters":0,"station_id":"ce4bh412rcd13ifvqds0","pricing_plan_id":"cebpf4jnsgd1na2vs0mg"},{"bike_id":"99ba1e7a-4793-44e1-9f02-767cab414756","system_id":"levelo_inurba_marseille","lat":43.28412,"lon":5.37517,"is_reserved":false,"is_disabled":false,"rental_uris":{"android":"levelo://app?vid=99ba1e7a-4793-44e1-9f02-767cab414756","ios":"levelo://app?vid=99ba1e7a-4793-44e1-9f02-767cab414756"},"vehicle_type_id":"4","last_reported":1717776553,"current_range_meters":1600,"station_id":"ce4bh412rcd13ifvqds0","pricing_plan_id":"cebpf4jnsgd1na2vs0mg"},{"bike_id":"0bdcff4b-ca5c-468b-8b6a-c9e1cbc63f99","system_id":"levelo_inurba_marseille","lat":43.295713,"lon":5.399639,"is_reserved":false,"is_disabled":false,"rental_uris":{"android":"levelo://app?vid=0bdcff4b-ca5c-468b-8b6a-c9e1cbc63f99","ios":"levelo://app?vid=0bdcff4b-ca5c-468b-8b6a-c9e1cbc63f99"},"vehicle_type_id":"4","last_reported":1717776553,"current_range_meters":4400,"station_id":"ce4bh312rcd13ifvqdj0","pricing_plan_id":"cebpf4jnsgd1na2vs0mg"},{"bike_id":"348c0140-090f-47d7-aa42-b5ce927a2b54","system_id":"levelo_inurba_marseille","lat":43.295713,"lon":5.399639,"is_reserved":false,"is_disabled":false,"rental_uris":{"android":"levelo://app?vid=348c0140-090f-47d7-aa42-b5ce927a2b54","ios":"levelo://app?vid=348c0140-090f-47d7-aa42-b5ce927a2b54"},"vehicle_type_id":"4","last_reported":1717776553,"current_range_meters":3600,"station_id":"ce4bh312rcd13ifvqdj0","pricing_plan_id":"cebpf4jnsgd1na2vs0mg"},{"bike_id":"6bb1e1d9-ccab-48a9-af29-18cc5dda2027","system_id":"levelo_inurba_marseille","lat":43.28677,"lon":5.38658,"is_reserved":false,"is_disabled":false,"rental_uris":{"android":"levelo://app?vid=6bb1e1d9-ccab-48a9-af29-18cc5dda2027","ios":"levelo://app?vid=6bb1e1d9-ccab-48a9-af29-18cc5dda2027"},"vehicle_type_id":"4","last_reported":1717776553,"current_range_meters":0,"station_id":"ce4bh492rcd13ifvqdug","pricing_plan_id":"cebpf4jnsgd1na2vs0mg"},{"bike_id":"19597e74-3fc3-4155-988b-2e177b5cd5ad","system_id":"levelo_inurba_marseille","lat":43.286595,"lon":5.386795,"is_reserved":false,"is_disabled":false,"rental_uris":{"android":"levelo://app?vid=19597e74-3fc3-4155-988b-2e177b5cd5ad","ios":"levelo://app?vid=19597e74-3fc3-4155-988b-2e177b5cd5ad"},"vehicle_type_id":"4","last_reported":1717776553,"current_range_meters":7600,"station_id":"ce4bh492rcd13ifvqdug","pricing_plan_id":"cebpf4jnsgd1na2vs0mg"},{"bike_id":"f510c854-3d30-49dc-97d9-5da2c80c5800","system_id":"levelo_inurba_marseille","lat":43.28661,"lon":5.38645,"is_reserved":false,"is_disabled":false,"rental_uris":{"android":"levelo://app?vid=f510c854-3d30-49dc-97d9-5da2c80c5800","ios":"levelo://app?vid=f510c854-3d30-49dc-97d9-5da2c80c5800"},"vehicle_type_id":"4","last_reported":1717776553,"current_range_meters":23200,"station_id":"","pricing_plan_id":"cebpf4jnsgd1na2vs0mg"},{"bike_id":"a31737b2-f915-4834-8e9d-4d94a958612b","system_id":"levelo_inurba_marseille","lat":43.286595,"lon":5.386795,"is_reserved":false,"is_disabled":false,"rental_uris":{"android":"levelo://app?vid=a31737b2-f915-4834-8e9d-4d94a958612b","ios":"levelo://app?vid=a31737b2-f915-4834-8e9d-4d94a958612b"},"vehicle_type_id":"4","last_reported":1717776553,"current_range_meters":0,"station_id":"ce4bh492rcd13ifvqdug","pricing_plan_id":"cebpf4jnsgd1na2vs0mg"},{"bike_id":"9b61b470-ca8b-4fd1-9503-30c9f9a62ecd","system_id":"levelo_inurba_marseille","lat":43.286595,"lon":5.386795,"is_reserved":false,"is_disabled":false,"rental_uris":{"android":"levelo://app?vid=9b61b470-ca8b-4fd1-9503-30c9f9a62ecd","ios":"levelo://app?vid=9b61b470-ca8b-4fd1-9503-30c9f9a62ecd"},"vehicle_type_id":"4","last_reported":1717776553,"current_range_meters":1200,"station_id":"ce4bh492rcd13ifvqdug","pricing_plan_id":"cebpf4jnsgd1na2vs0mg"},{"bike_id":"4ae61f9c-479b-4b2f-aab0-8abd7ea7e7f1","system_id":"levelo_inurba_marseille","lat":43.286595,"lon":5.386795,"is_reserved":false,"is_disabled":false,"rental_uris":{"android":"levelo://app?vid=4ae61f9c-479b-4b2f-aab0-8abd7ea7e7f1","ios":"levelo://app?vid=4ae61f9c-479b-4b2f-aab0-8abd7ea7e7f1"},"vehicle_type_id":"4","last_reported":1717776553,"current_range_meters":31600,"station_id":"ce4bh492rcd13ifvqdug","pricing_plan_id":"cebpf4jnsgd1na2vs0mg"},{"bike_id":"6fddb923-a9c1-491e-96cc-5d4614862dd0","system_id":"levelo_inurba_marseille","lat":43.284793,"lon":5.384119,"is_reserved":false,"is_disabled":false,"rental_uris":{"android":"levelo://app?vid=6fddb923-a9c1-491e-96cc-5d4614862dd0","ios":"levelo://app?vid=6fddb923-a9c1-491e-96cc-5d4614862dd0"},"vehicle_type_id":"4","last_reported":1717776553,"current_range_meters":23200,"station_id":"ce4bh512rcd13ifvqe3g","pricing_plan_id":"cebpf4jnsgd1na2vs0mg"},{"bike_id":"00e6931a-8c6d-4453-8ebb-19ee579313ac","system_id":"levelo_inurba_marseille","lat":43.323464,"lon":5.406297,"is_reserved":false,"is_disabled":false,"rental_uris":{"android":"levelo://app?vid=00e6931a-8c6d-4453-8ebb-19ee579313ac","ios":"levelo://app?vid=00e6931a-8c6d-4453-8ebb-19ee579313ac"},"vehicle_type_id":"4","last_reported":1717776553,"current_range_meters":18400,"station_id":"ce4bhq92rcd13ifvqhjg","pricing_plan_id":"cebpf4jnsgd1na2vs0mg"},{"bike_id":"f8838fa3-c22d-42c4-9066-ee78bf6f6c39","system_id":"levelo_inurba_marseille","lat":43.28418,"lon":5.38217,"is_reserved":false,"is_disabled":false,"rental_uris":{"android":"levelo://app?vid=f8838fa3-c22d-42c4-9066-ee78bf6f6c39","ios":"levelo://app?vid=f8838fa3-c22d-42c4-9066-ee78bf6f6c39"},"vehicle_type_id":"4","last_reported":1717776553,"current_range_meters":0,"station_id":"","pricing_plan_id":"cebpf4jnsgd1na2vs0mg"},{"bike_id":"f17dd87b-38b5-423f-8677-f504ce857919","system_id":"levelo_inurba_marseille","lat":43.28475,"lon":5.38414,"is_reserved":false,"is_disabled":false,"rental_uris":{"android":"levelo://app?vid=f17dd87b-38b5-423f-8677-f504ce857919","ios":"levelo://app?vid=f17dd87b-38b5-423f-8677-f504ce857919"},"vehicle_type_id":"4","last_reported":1717776553,"current_range_meters":0,"station_id":"ce4bh512rcd13ifvqe3g","pricing_plan_id":"cebpf4jnsgd1na2vs0mg"},{"bike_id":"beb5c045-9d65-4750-819d-29bae609b31f","system_id":"levelo_inurba_marseille","lat":43.284787,"lon":5.384116,"is_reserved":false,"is_disabled":false,"rental_uris":{"android":"levelo://app?vid=beb5c045-9d65-4750-819d-29bae609b31f","ios":"levelo://app?vid=beb5c045-9d65-4750-819d-29bae609b31f"},"vehicle_type_id":"4","last_reported":1717776553,"current_range_meters":18000,"station_id":"ce4bh512rcd13ifvqe3g","pricing_plan_id":"cebpf4jnsgd1na2vs0mg"},{"bike_id":"d9921152-5bae-46b3-bae3-96a6d1a8a5ba","system_id":"levelo_inurba_marseille","lat":43.28478,"lon":5.384303,"is_reserved":false,"is_disabled":false,"rental_uris":{"android":"levelo://app?vid=d9921152-5bae-46b3-bae3-96a6d1a8a5ba","ios":"levelo://app?vid=d9921152-5bae-46b3-bae3-96a6d1a8a5ba"},"vehicle_type_id":"4","last_reported":1717776553,"current_range_meters":0,"station_id":"ce4bh512rcd13ifvqe3g","pricing_plan_id":"cebpf4jnsgd1na2vs0mg"},{"bike_id":"4729c7b9-a63b-4ed8-a836-cd355875ad1e","system_id":"levelo_inurba_marseille","lat":43.284546,"lon":5.349969,"is_reserved":false,"is_disabled":false,"rental_uris":{"android":"levelo://app?vid=4729c7b9-a63b-4ed8-a836-cd355875ad1e","ios":"levelo://app?vid=4729c7b9-a63b-4ed8-a836-cd355875ad1e"},"vehicle_type_id":"4","last_reported":1717776553,"current_range_meters":0,"station_id":"ce4bhbh2rcd13ifvqepg","pricing_plan_id":"cebpf4jnsgd1na2vs0mg"},{"bike_id":"7d2332a7-4445-4be3-9e91-f8451ebe0ea4","system_id":"levelo_inurba_marseille","lat":43.288501,"lon":5.393087,"is_reserved":false,"is_disabled":false,"rental_uris":{"android":"levelo://app?vid=7d2332a7-4445-4be3-9e91-f8451ebe0ea4","ios":"levelo://app?vid=7d2332a7-4445-4be3-9e91-f8451ebe0ea4"},"vehicle_type_id":"4","last_reported":1717776553,"current_range_meters":0,"station_id":"ce4bh2p2rcd13ifvqdi0","pricing_plan_id":"cebpf4jnsgd1na2vs0mg"},{"bike_id":"efa4112d-bd5a-450e-90af-5b35975f61c0","system_id":"levelo_inurba_marseille","lat":43.284219,"lon":5.3497,"is_reserved":false,"is_disabled":false,"rental_uris":{"android":"levelo://app?vid=efa4112d-bd5a-450e-90af-5b35975f61c0","ios":"levelo://app?vid=efa4112d-bd5a-450e-90af-5b35975f61c0"},"vehicle_type_id":"4","last_reported":1717776553,"current_range_meters":7200,"station_id":"ce4bhbh2rcd13ifvqepg","pricing_plan_id":"cebpf4jnsgd1na2vs0mg"},{"bike_id":"edc78635-a193-499d-9b3c-dd8978245843","system_id":"levelo_inurba_marseille","lat":43.284776,"lon":5.385603,"is_reserved":false,"is_disabled":false,"rental_uris":{"android":"levelo://app?vid=edc78635-a193-499d-9b3c-dd8978245843","ios":"levelo://app?vid=edc78635-a193-499d-9b3c-dd8978245843"},"vehicle_type_id":"4","last_reported":1717776553,"current_range_meters":19200,"station_id":"ce4bh8p2rcd13ifvqeb0","pricing_plan_id":"cebpf4jnsgd1na2vs0mg"},{"bike_id":"228654fb-266f-4bc2-a1bb-daac16a84fd9","system_id":"levelo_inurba_marseille","lat":43.284776,"lon":5.385603,"is_reserved":false,"is_disabled":false,"rental_uris":{"android":"levelo://app?vid=228654fb-266f-4bc2-a1bb-daac16a84fd9","ios":"levelo://app?vid=228654fb-266f-4bc2-a1bb-daac16a84fd9"},"vehicle_type_id":"4","last_reported":1717776553,"current_range_meters":23200,"station_id":"ce4bh8p2rcd13ifvqeb0","pricing_plan_id":"cebpf4jnsgd1na2vs0mg"},{"bike_id":"111e383f-60fe-40c8-828a-fc27b6116165","system_id":"levelo_inurba_marseille","lat":43.284776,"lon":5.385603,"is_reserved":false,"is_disabled":false,"rental_uris":{"android":"levelo://app?vid=111e383f-60fe-40c8-828a-fc27b6116165","ios":"levelo://app?vid=111e383f-60fe-40c8-828a-fc27b6116165"},"vehicle_type_id":"4","last_reported":1717776553,"current_range_meters":24400,"station_id":"ce4bh8p2rcd13ifvqeb0","pricing_plan_id":"cebpf4jnsgd1na2vs0mg"},{"bike_id":"344cf2cd-b391-4aef-9107-ce482bccad79","system_id":"levelo_inurba_marseille","lat":43.284313,"lon":5.349796,"is_reserved":false,"is_disabled":false,"rental_uris":{"android":"levelo://app?vid=344cf2cd-b391-4aef-9107-ce482bccad79","ios":"levelo://app?vid=344cf2cd-b391-4aef-9107-ce482bccad79"},"vehicle_type_id":"4","last_reported":1717776553,"current_range_meters":0,"station_id":"ce4bhbh2rcd13ifvqepg","pricing_plan_id":"cebpf4jnsgd1na2vs0mg"},{"bike_id":"35ad8cb6-558c-48e9-8cc5-ba1ea9a8a43e","system_id":"levelo_inurba_marseille","lat":43.28429,"lon":5.34983,"is_reserved":false,"is_disabled":false,"rental_uris":{"android":"levelo://app?vid=35ad8cb6-558c-48e9-8cc5-ba1ea9a8a43e","ios":"levelo://app?vid=35ad8cb6-558c-48e9-8cc5-ba1ea9a8a43e"},"vehicle_type_id":"4","last_reported":1717776553,"current_range_meters":30400,"station_id":"ce4bhbh2rcd13ifvqepg","pricing_plan_id":"cebpf4jnsgd1na2vs0mg"},{"bike_id":"e666a152-4be8-4ca3-b665-ba90af833b45","system_id":"levelo_inurba_marseille","lat":43.284219,"lon":5.3497,"is_reserved":false,"is_disabled":false,"rental_uris":{"android":"levelo://app?vid=e666a152-4be8-4ca3-b665-ba90af833b45","ios":"levelo://app?vid=e666a152-4be8-4ca3-b665-ba90af833b45"},"vehicle_type_id":"4","last_reported":1717776553,"current_range_meters":31600,"station_id":"ce4bhbh2rcd13ifvqepg","pricing_plan_id":"cebpf4jnsgd1na2vs0mg"},{"bike_id":"d0ad7b67-c0d8-436f-97e3-f56e478a4d6f","system_id":"levelo_inurba_marseille","lat":43.284219,"lon":5.3497,"is_reserved":false,"is_disabled":false,"rental_uris":{"android":"levelo://app?vid=d0ad7b67-c0d8-436f-97e3-f56e478a4d6f","ios":"levelo://app?vid=d0ad7b67-c0d8-436f-97e3-f56e478a4d6f"},"vehicle_type_id":"4","last_reported":1717776553,"current_range_meters":9600,"station_id":"ce4bhbh2rcd13ifvqepg","pricing_plan_id":"cebpf4jnsgd1na2vs0mg"},