{"last_updated":1700730456,"ttl":30,"version":"2.2","data":{"bikes":[{"bike_id":"c63eb744-082f-4c2e-9683-90cdb399b7de","system_id":"levelo_inurba_marseille","lat":43.313391,"lon":5.36706,"is_reserved":false,"is_disabled":false,"rental_uris":{"android":"levelo://app?vid=c63eb744-082f-4c2e-9683-90cdb399b7de","ios":"levelo://app?vid=c63eb744-082f-4c2e-9683-90cdb399b7de"},"vehicle_type_id":"4","last_reported":1700730456,"current_range_meters":16800,"station_id":"ce4bgr92rcd13ifvqc6g","pricing_plan_id":"free"},{"bike_id":"9a3980be-d337-42db-b09d-4e36bfb8cdac","system_id":"levelo_inurba_marseille","lat":43.313391,"lon":5.36706,"is_reserved":false,"is_disabled":false,"rental_uris":{"android":"levelo://app?vid=9a3980be-d337-42db-b09d-4e36bfb8cdac","ios":"levelo://app?vid=9a3980be-d337-42db-b09d-4e36bfb8cdac"},"vehicle_type_id":"4","last_reported":1700730456,"current_range_meters":31600,"station_id":"ce4bgr92rcd13ifvqc6g","pricing_plan_id":"free"},{"bike_id":"74bd4cbe-c558-46c0-bd30-c944aadabae6","system_id":"levelo_inurba_marseille","lat":43.31341,"lon":5.367098,"is_reserved":false,"is_disabled":false,"rental_uris":{"android":"levelo://app?vid=74bd4cbe-c558-46c0-bd30-c944aadabae6","ios":"levelo://app?vid=74bd4cbe-c558-46c0-bd30-c944aadabae6"},"vehicle_type_id":"4","last_reported":1700730456,"current_range_meters":22000,"station_id":"ce4bgr92rcd13ifvqc6g","pricing_plan_id":"free"},{"bike_id":"8ed74204-3ba6-46f7-b2e2-df18e64b6292","system_id":"levelo_inurba_marseille","lat":43.313391,"lon":5.36706,"is_reserved":false,"is_disabled":false,"rental_uris":{"android":"levelo://app?vid=8ed74204-3ba6-46f7-b2e2-df18e64b6292","ios":"levelo://app?vid=8ed74204-3ba6-46f7-b2e2-df18e64b6292"},"vehicle_type_id":"4","last_reported":1700730456,"current_range_meters":22000,"station_id":"ce4bgr92rcd13ifvqc6g","pricing_plan_id":"free"},{"bike_id":"6dfe8d99-f77d-474a-a7a4-c9c01d217644","system_id":"levelo_inurba_marseille","lat":43.31341,"lon":5.367098,"is_reserved":false,"is_disabled":false,"rental_uris":{"android":"levelo://app?vid=6dfe8d99-f77d-474a-a7a4-c9c01d217644","ios":"levelo://app?vid=6dfe8d99-f77d-474a-a7a4-c9c01d217644"},"vehicle_type_id":"4","last_reported":1700730456,"current_range_meters":23600,"station_id":"ce4bgr92rcd13ifvqc6g","pricing_plan_id":"free"},{"bike_id":"bbd7fa7a-696d-4228-b5f0-d08d1b92d001","system_id":"levelo_inurba_marseille","lat":43.313391,"lon":5.36706,"is_reserved":false,"is_disabled":false,"rental_uris":{"android":"levelo://app?vid=bbd7fa7a-696d-4228-b5f0-d08d1b92d001","ios":"levelo://app?vid=bbd7fa7a-696d-4228-b5f0-d08d1b92d001"},"vehicle_type_id":"4","last_reported":1700730456,"current_range_meters":16800,"station_id":"ce4bgr92rcd13ifvqc6g","pricing_plan_id":"free"},{"bike_id":"7d1d94d7-3202-42e5-a490-97bedc4238b2","system_id":"levelo_inurba_marseille","lat":43.313391,"lon":5.36706,"is_reserved":false,"is_disabled":false,"rental_uris":{"android":"levelo://app?vid=7d1d94d7-3202-42e5-a490-97bedc4238b2","ios":"levelo://app?vid=7d1d94d7-3202-42e5-a490-97bedc4238b2"},"vehicle_type_id":"4","last_reported":1700730456,"current_range_meters":17200,"station_id":"ce4bgr92rcd13ifvqc6g","pricing_plan_id":"free"},{"bike_id":"aa3ae5eb-9179-4636-a2fb-b54647cc9fc7","system_id":"levelo_inurba_marseille","lat":43.31341,"lon":5.367098,"is_reserved":false,"is_disabled":false,"rental_uris":{"android":"levelo://app?vid=aa3ae5eb-9179-4636-a2fb-b54647cc9fc7","ios":"levelo://app?vid=aa3ae5eb-9179-4636-a2fb-b54647cc9fc7"},"vehicle_type_id":"4","last_reported":1700730456,"current_range_meters":14000,"station_id":"ce4bgr92rcd13ifvqc6g","pricing_plan_id":"free"},{"bike_id":"ae9507c3-66a7-442c-bde5-723ffc6996f5","system_id":"levelo_inurba_marseille","lat":43.31341,"lon":5.367098,"is_reserved":false,"is_disabled":false,"rental_uris":{"android":"levelo://app?vid=ae9507c3-66a7-442c-bde5-723ffc6996f5","ios":"levelo://app?vid=ae9507c3-66a7-442c-bde5-723ffc6996f5"},"vehicle_type_id":"4","last_reported":1700730456,"current_range_meters":1200,"station_id":"ce4bgr92rcd13ifvqc6g","pricing_plan_id":"free"},{"bike_id":"b778cdf8-2ec0-403e-a159-8656a9e63d54","system_id":"levelo_inurba_marseille","lat":43.31341,"lon":5.367098,"is_reserved":false,"is_disabled":false,"rental_uris":{"android":"levelo://app?vid=b778cdf8-2ec0-403e-a159-8656a9e63d54","ios":"levelo://app?vid=b778cdf8-2ec0-403e-a159-8656a9e63d54"},"vehicle_type_id":"4","last_reported":1700730456,"current_range_meters":19200,"station_id":"ce4bgr92rcd13ifvqc6g","pricing_plan_id":"free"},{"bike_id":"1a0199c5-52a4-47c9-92ed-5704e34c51cd","system_id":"levelo_inurba_marseille","lat":43.31341,"lon":5.367098,"is_reserved":false,"is_disabled":false,"rental_uris":{"android":"levelo://app?vid=1a0199c5-52a4-47c9-92ed-5704e34c51cd","ios":"levelo://app?vid=1a0199c5-52a4-47c9-92ed-5704e34c51cd"},"vehicle_type_id":"4","last_reported":1700730456,"current_range_meters":24800,"station_id":"ce4bgr92rcd13ifvqc6g","pricing_plan_id":"free"},{"bike_id":"47de29ff-386d-4cef-8374-5733c872ffb2","system_id":"levelo_inurba_marseille","lat":43.31341,"lon":5.367098,"is_reserved":false,"is_disabled":false,"rental_uris":{"android":"levelo://app?vid=47de29ff-386d-4cef-8374-5733c872ffb2","ios":"levelo://app?vid=47de29ff-386d-4cef-8374-5733c872ffb2"},"vehicle_type_id":"4","last_reported":1700730456,"current_range_meters":16400,"station_id":"ce4bgr92rcd13ifvqc6g","pricing_plan_id":"free"},{"bike_id":"a272bb25-d8ef-4771-bed1-43feefbee660","system_id":"levelo_inurba_marseille","lat":43.31341,"lon":5.367098,"is_reserved":false,"is_disabled":false,"rental_uris":{"android":"levelo://app?vid=a272bb25-d8ef-4771-bed1-43feefbee660","ios":"levelo://app?vid=a272bb25-d8ef-4771-bed1-43feefbee660"},"vehicle_type_id":"4","last_reported":1700730456,"current_range_meters":22400,"station_id":"ce4bgr92rcd13ifvqc6g","pricing_plan_id":"free"},{"bike_id":"6ca02a09-3472-4ea9-97c5-64c4dd1892a4","system_id":"levelo_inurba_marseille","lat":43.313391,"lon":5.36706,"is_reserved":false,"is_disabled":false,"rental_uris":{"android":"levelo://app?vid=6ca02a09-3472-4ea9-97c5-64c4dd1892a4","ios":"levelo://app?vid=6ca02a09-3472-4ea9-97c5-64c4dd1892a4"},"vehicle_type_id":"4","last_reported":1700730456,"current_range_meters":16400,"station_id":"ce4bgr92rcd13ifvqc6g","pricing_plan_id":"free"},{"bike_id":"1768f595-fab9-431e-a005-e0909aaa484b","system_id":"levelo_inurba_marseille","lat":43.31341,"lon":5.367098,"is_reserved":false,"is_disabled":false,"rental_uris":{"android":"levelo://app?vid=1768f595-fab9-431e-a005-e0909aaa484b","ios":"levelo://app?vid=1768f595-fab9-431e-a005-e0909aaa484b"},"vehicle_type_id":"4","last_reported":1700730456,"current_range_meters":31200,"station_id":"ce4bgr92rcd13ifvqc6g","pricing_plan_id":"free"},{"bike_id":"1b4f0ad4-3c00-4fb8-869a-855be304d4e3","system_id":"levelo_inurba_marseille","lat":43.313391,"lon":5.36706,"is_reserved":false,"is_disabled":false,"rental_uris":{"android":"levelo://app?vid=1b4f0ad4-3c00-4fb8-869a-855be304d4e3","ios":"levelo://app?vid=1b4f0ad4-3c00-4fb8-869a-855be304d4e3"},"vehicle_type_id":"4","last_reported":1700730456,"current_range_meters":19200,"station_id":"ce4bgr92rcd13ifvqc6g","pricing_plan_id":"free"},{"bike_id":"c8a49c93-342c-4f8f-aadc-c1f6b650fa60","system_id":"levelo_inurba_marseille","lat":43.313391,"lon":5.36706,"is_reserved":false,"is_disabled":false,"rental_uris":{"android":"levelo://app?vid=c8a49c93-342c-4f8f-aadc-c1f6b650fa60","ios":"levelo://app?vid=c8a49c93-342c-4f8f-aadc-c1f6b650fa60"},"vehicle_type_id":"4","last_reported":1700730456,"current_range_meters":25200,"station_id":"ce4bgr92rcd13ifvqc6g","pricing_plan_id":"free"},{"bike_id":"0eec4992-cde7-4672-8e7d-91177ad861f7","system_id":"levelo_inurba_marseille","lat":43.313391,"lon":5.36706,"is_reserved":false,"is_disabled":false,"rental_uris":{"android":"levelo://app?vid=0eec4992-cde7-4672-8e7d-91177ad861f7","ios":"levelo://app?vid=0eec4992-cde7-4672-8e7d-91177ad861f7"},"vehicle_type_id":"4","last_reported":1700730456,"current_range_meters":22400,"station_id":"ce4bgr92rcd13ifvqc6g","pricing_plan_id":"free"},{"bike_id":"a48cb2d0-bdc8-4d15-9624-9dee459acc40","system_id":"levelo_inurba_marseille","lat":43.31341,"lon":5.367098,"is_reserved":false,"is_disabled":false,"rental_uris":{"android":"levelo://app?vid=a48cb2d0-bdc8-4d15-9624-9dee459acc40","ios":"levelo://app?vid=a48cb2d0-bdc8-4d15-9624-9dee459acc40"},"vehicle_type_id":"4","last_reported":1700730456,"current_range_meters":22800,"station_id":"ce4bgr92rcd13ifvqc6g","pricing_plan_id":"free"},{"bike_id":"8f3e7336-7acd-4591-a9dc-1700a9cdfab4","system_id":"levelo_inurba_marseille","lat":43.312231,"lon":5.368549,"is_reserved":false,"is_disabled":false,"rental_uris":{"android":"levelo://app?vid=8f3e7336-7acd-4591-a9dc-1700a9cdfab4","ios":"levelo://app?vid=8f3e7336-7acd-4591-a9dc-1700a9cdfab4"},"vehicle_type_id":"4","last_reported":1700730456,"current_range_meters":18800,"station_id":"ce4bgl92rcd13ifvqbq0","pricing_plan_id":"free"},{"bike_id":"11e4c34e-2094-4cc9-b500-97e6e514daa3","system_id":"levelo_inurba_marseille","lat":43.31159,"lon":5.36883,"is_reserved":false,"is_disabled":false,"rental_uris":{"android":"levelo://app?vid=11e4c34e-2094-4cc9-b500-97e6e514daa3","ios":"levelo://app?vid=11e4c34e-2094-4cc9-b500-97e6e514daa3"},"vehicle_type_id":"4","last_reported":1700730456,"current_range_meters":0,"station_id":"","pricing_plan_id":"free"},{"bike_id":"6c5f5226-9a76-4a6b-a1cb-ffaf9c4ef38d","system_id":"levelo_inurba_marseille","lat":43.309076,"lon":5.368465,"is_reserved":false,"is_disabled":false,"rental_uris":{"android":"levelo://app?vid=6c5f5226-9a76-4a6b-a1cb-ffaf9c4ef38d","ios":"levelo://app?vid=6c5f5226-9a76-4a6b-a1cb-ffaf9c4ef38d"},"vehicle_type_id":"4","last_reported":1700730456,"current_range_meters":30400,"station_id":"ce4bgn92rcd13ifvqbvg","pricing_plan_id":"free"},{"bike_id":"932c5e31-9940-41fb-aeaa-2f5cca9a238e","system_id":"levelo_inurba_marseille","lat":43.309076,"lon":5.368465,"is_reserved":false,"is_disabled":false,"rental_uris":{"android":"levelo://app?vid=932c5e31-9940-41fb-aeaa-2f5cca9a238e","ios":"levelo://app?vid=932c5e31-9940-41fb-aeaa-2f5cca9a238e"},"vehicle_type_id":"4","last_reported":1700730456,"current_range_meters":30400,"station_id":"ce4bgn92rcd13ifvqbvg","pricing_plan_id":"free"},{"bike_id":"681bca94-8996-4388-8d89-f620fd5cd16a","system_id":"levelo_inurba_marseille","lat":43.309076,"lon":5.368465,"is_reserved":false,"is_disabled":false,"rental_uris":{"android":"levelo://app?vid=681bca94-8996-4388-8d89-f620fd5cd16a","ios":"levelo://app?vid=681bca94-8996-4388-8d89-f620fd5cd16a"},"vehicle_type_id":"4","last_reported":1700730456,"current_range_meters":18800,"station_id":"ce4bgn92rcd13ifvqbvg","pricing_plan_id":"free"},{"bike_id":"2959f78f-854d-4bc8-846f-a7f4a0d79c59","system_id":"levelo_inurba_marseille","lat":43.31505,"lon":5.373,"is_reserved":false,"is_disabled":false,"rental_uris":{"android":"levelo://app?vid=2959f78f-854d-4bc8-846f-a7f4a0d79c59","ios":"levelo://app?vid=2959f78f-854d-4bc8-846f-a7f4a0d79c59"},"vehicle_type_id":"4","last_reported":1700730456,"current_range_meters":30000,"station_id":"ce4bgt12rcd13ifvqcd0","pricing_plan_id":"free"},{"bike_id":"a2ee28dc-ce7e-4463-bf48-025161c4f045","system_id":"levelo_inurba_marseille","lat":43.305712,"lon":5.365641,"is_reserved":false,"is_disabled":false,"rental_uris":{"android":"levelo://app?vid=a2ee28dc-ce7e-4463-bf48-025161c4f045","ios":"levelo://app?vid=a2ee28dc-ce7e-4463-bf48-025161c4f045"},"vehicle_type_id":"4","last_reported":1700730456,"current_range_meters":26800,"station_id":"ce4bgs12rcd13ifvqcag","pricing_plan_id":"free"},{"bike_id":"e4fe96d4-5cf6-4407-8f4f-2527a1085d54","system_id":"levelo_inurba_marseille","lat":43.305475,"lon":5.367033,"is_reserved":false,"is_disabled":false,"rental_uris":{"android":"levelo://app?vid=e4fe96d4-5cf6-4407-8f4f-2527a1085d54","ios":"levelo://app?vid=e4fe96d4-5cf6-4407-8f4f-2527a1085d54"},"vehicle_type_id":"4","last_reported":1700730456,"current_range_meters":28400,"station_id":"ce4bgrp2rcd13ifvqc9g","pricing_plan_id":"free"},{"bike_id":"8ab0e179-d567-49ce-bf1c-7f2cc5cac3a0","system_id":"levelo_inurba_marseille","lat":43.305712,"lon":5.365641,"is_reserved":false,"is_disabled":false,"rental_uris":{"android":"levelo://app?vid=8ab0e179-d567-49ce-bf1c-7f2cc5cac3a0","ios":"levelo://app?vid=8ab0e179-d567-49ce-bf1c-7f2cc5cac3a0"},"vehicle_type_id":"4","last_reported":1700730456,"current_range_meters":1600,"station_id":"ce4bgs12rcd13ifvqcag","pricing_plan_id":"free"},{"bike_id":"ceca2d77-406e-464d-9a34-af446e822842","system_id":"levelo_inurba_marseille","lat":43.305368,"lon":5.367343,"is_reserved":false,"is_disabled":false,"rental_uris":{"android":"levelo://app?vid=ceca2d77-406e-464d-9a34-af446e822842","ios":"levelo://app?vid=ceca2d77-406e-464d-9a34-af446e822842"},"vehicle_type_id":"4","last_reported":1700730456,"current_range_meters":2400,"station_id":"ce4bgrp2rcd13ifvqc9g","pricing_plan_id":"free"},{"bike_id":"9c4c2c80-89b9-439d-9583-b0fd7dd33ef6","system_id":"levelo_inurba_marseille","lat":43.305714,"lon":5.365633,"is_reserved":false,"is_disabled":false,"rental_uris":{"android":"levelo://app?vid=9c4c2c80-89b9-439d-9583-b0fd7dd33ef6","ios":"levelo://app?vid=9c4c2c80-89b9-439d-9583-b0fd7dd33ef6"},"vehicle_type_id":"4","last_reported":1700730456,"current_range_meters":19200,"station_id":"ce4bgs12rcd13ifvqcag","pricing_plan_id":"free"},{"bike_id":"e57cc5c0-76a4-450c-9dcd-2abc9995e561","system_id":"levelo_inurba_marseille","lat":43.30536,"lon":5.3672,"is_reserved":false,"is_disabled":false,"rental_uris":{"android":"levelo://app?vid=e57cc5c0-76a4-450c-9dcd-2abc9995e561","ios":"levelo://app?vid=e57cc5c0-76a4-450c-9dcd-2abc9995e561"},"vehicle_type_id":"4","last_reported":1700730456,"current_range_meters":22000,"station_id":"ce4bgrp2rcd13ifvqc9g","pricing_plan_id":"free"},{"bike_id":"7f25f14a-071c-467a-a7c8-b67c80c95a01","system_id":"levelo_inurba_marseille","lat":43.305712,"lon":5.365641,"is_reserved":false,"is_disabled":false,"rental_uris":{"android":"levelo://app?vid=7f25f14a-071c-467a-a7c8-b67c80c95a01","ios":"levelo://app?vid=7f25f14a-071c-467a-a7c8-b67c80c95a01"},"vehicle_type_id":"4","last_reported":1700730456,"current_range_meters":27200,"station_id":"ce4bgs12rcd13ifvqcag","pricing_plan_id":"free"},{"bike_id":"c780ec70-d519-4d78-ad78-8cca7b7090f5","system_id":"levelo_inurba_marseille","lat":43.305706,"lon":5.365654,"is_reserved":false,"is_disabled":false,"rental_uris":{"android":"levelo://app?vid=c780ec70-d519-4d78-ad78-8cca7b7090f5","ios":"levelo://app?vid=c780ec70-d519-4d78-ad78-8cca7b7090f5"},"vehicle_type_id":"4","last_reported":1700730456,"current_range_meters":13200,"station_id":"ce4bgs12rcd13ifvqcag","pricing_plan_id":"free"},{"bike_id":"06872774-88e1-478c-99b4-e869a8c6efbf","system_id":"levelo_inurba_marseille","lat":43.3054,"lon":5.36542,"is_reserved":false,"is_disabled":false,"rental_uris":{"android":"levelo://app?vid=06872774-88e1-478c-99b4-e869a8c6efbf","ios":"levelo://app?vid=06872774-88e1-478c-99b4-e869a8c6efbf"},"vehicle_type_id":"4","last_reported":1700730456,"current_range_meters":22000,"station_id":"ce4bgs12rcd13ifvqcag","pricing_plan_id":"free"},{"bike_id":"054dd655-3b02-4b62-a5c9-99c4e6d36b8c","system_id":"levelo_inurba_marseille","lat":43.305706,"lon":5.365654,"is_reserved":false,"is_disabled":false,"rental_uris":{"android":"levelo://app?vid=054dd655-3b02-4b62-a5c9-99c4e6d36b8c","ios":"levelo://app?vid=054dd655-3b02-4b62-a5c9-99c4e6d36b8c"},"vehicle_type_id":"4","last_reported":1700730456,"current_range_meters":21600,"station_id":"ce4bgs12rcd13ifvqcag","pricing_plan_id":"free"},{"bike_id":"aa25cb8a-f8b0-415c-b685-cdb802492706","system_id":"levelo_inurba_marseille","lat":43.305714,"lon":5.365633,"is_reserved":false,"is_disabled":false,"rental_uris":{"android":"levelo://app?vid=aa25cb8a-f8b0-415c-b685-cdb802492706","ios":"levelo://app?vid=aa25cb8a-f8b0-415c-b685-cdb802492706"},"vehicle_type_id":"4","last_reported":1700730456,"current_range_meters":8000,"station_id":"ce4bgs12rcd13ifvqcag","pricing_plan_id":"free"},{"bike_id":"1a8fa7f0-f496-4843-9340-ef17ff6ccfd9","system_id":"levelo_inurba_marseille","lat":43.305706,"lon":5.365654,"is_reserved":false,"is_disabled":false,"rental_uris":{"android":"levelo://app?vid=1a8fa7f0-f496-4843-9340-ef17ff6ccfd9","ios":"levelo://app?vid=1a8fa7f0-f496-4843-9340-ef17ff6ccfd9"},"vehicle_type_id":"4","last_reported":1700730456,"current_range_meters":25600,"station_id":"ce4bgs12rcd13ifvqcag","pricing_plan_id":"free"},{"bike_id":"ccf87354-e17d-4e9d-9d65-627b26828219","system_id":"levelo_inurba_marseille","lat":43.305706,"lon":5.365654,"is_reserved":false,"is_disabled":false,"rental_uris":{"android":"levelo://app?vid=ccf87354-e17d-4e9d-9d65-627b26828219","ios":"levelo://app?vid=ccf87354-e17d-4e9d-9d65-627b26828219"},"vehicle_type_id":"4","last_reported":1700730456,"current_range_meters":21200,"station_id":"ce4bgs12rcd13ifvqcag","pricing_plan_id":"free"},{"bike_id":"54b2b2b1-0d2a-4a33-8c7b-28d131713dd0","system_id":"levelo_inurba_marseille","lat":43.305706,"lon":5.365654,"is_reserved":false,"is_disabled":false,"rental_uris":{"android":"levelo://app?vid=54b2b2b1-0d2a-4a33-8c7b-28d131713dd0","ios":"levelo://app?vid=54b2b2b1-0d2a-4a33-8c7b-28d131713dd0"},"vehicle_type_id":"4","last_reported":1700730456,"current_range_meters":16800,"station_id":"ce4bgs12rcd13ifvqcag","pricing_plan_id":"free"},{"bike_id":"9ad8ace3-ce0a-4bb1-8dfe-7967ca850548","system_id":"levelo_inurba_marseille","lat":43.305706,"lon":5.365654,"is_reserved":false,"is_disabled":false,"rental_uris":{"android":"levelo://app?vid=9ad8ace3-ce0a-4bb1-8dfe-7967ca850548","ios":"levelo://app?vid=9ad8ace3-ce0a-4bb1-8dfe-7967ca850548"},"vehicle_type_id":"4","last_reported":1700730456,"current_range_meters":4400,"station_id":"ce4bgs12rcd13ifvqcag","pricing_plan_id":"free"},{"bike_id":"dc09ca6b-5726-4d67-90e0-550ef514ffac","system_id":"levelo_inurba_marseille","lat":43.305706,"lon":5.365654,"is_reserved":false,"is_disabled":false,"rental_uris":{"android":"levelo://app?vid=dc09ca6b-5726-4d67-90e0-550ef514ffac","ios":"levelo://app?vid=dc09ca6b-5726-4d67-90e0-550ef514ffac"},"vehicle_type_id":"4","last_reported":1700730456,"current_range_meters":26000,"station_id":"ce4bgs12rcd13ifvqcag","pricing_plan_id":"free"},{"bike_id":"be1b1d29-4976-4ec7-b6c0-5951f64b5b46","system_id":"levelo_inurba_marseille","lat":43.30601,"lon":5.37226,"is_reserved":false,"is_disabled":false,"rental_uris":{"android":"levelo://app?vid=be1b1d29-4976-4ec7-b6c0-5951f64b5b46","ios":"levelo://app?vid=be1b1d29-4976-4ec7-b6c0-5951f64b5b46"},"vehicle_type_id":"4","last_reported":1700730456,"current_range_meters":19200,"station_id":"ce4bgqh2rcd13ifvqc4g","pricing_plan_id":"free"},{"bike_id":"78293569-fc2d-4600-bc25-a9fd6bf6ca9f","system_id":"levelo_inurba_marseille","lat":43.303217,"lon":5.366239,"is_reserved":false,"is_disabled":false,"rental_uris":{"android":"levelo://app?vid=78293569-fc2d-4600-bc25-a9fd6bf6ca9f","ios":"levelo://app?vid=78293569-fc2d-4600-bc25-a9fd6bf6ca9f"},"vehicle_type_id":"4","last_reported":1700730456,"current_range_meters":0,"station_id":"","pricing_plan_id":"free"},{"bike_id":"64465eaf-c046-4c58-9bf6-ef423f6e6a0a","system_id":"levelo_inurba_marseille","lat":43.30304,"lon":5.368987,"is_reserved":false,"is_disabled":false,"rental_uris":{"android":"levelo://app?vid=64465eaf-c046-4c58-9bf6-ef423f6e6a0a","ios":"levelo://app?vid=64465eaf-c046-4c58-9bf6-ef423f6e6a0a"},"vehicle_type_id":"4","last_reported":1700730456,"current_range_meters":25600,"station_id":"ce4bgqh2rcd13ifvqc5g","pricing_plan_id":"free"},{"bike_id":"8d9bfebe-ce3b-4408-a8fe-87f601cfec47","system_id":"levelo_inurba_marseille","lat":43.31519,"lon":5.38033,"is_reserved":false,"is_disabled":false,"rental_uris":{"android":"levelo://app?vid=8d9bfebe-ce3b-4408-a8fe-87f601cfec47","ios":"levelo://app?vid=8d9bfebe-ce3b-4408-a8fe-87f601cfec47"},"vehicle_type_id":"4","last_reported":1700730456,"current_range_meters":1200,"station_id":"ce4bhsp2rcd13ifvqi50","pricing_plan_id":"free"},{"bike_id":"0e754b0b-7b3f-4654-a6fe-1c886763baad","system_id":"levelo_inurba_marseille","lat":43.301939,"lon":5.366286,"is_reserved":false,"is_disabled":false,"rental_uris":{"android":"levelo://app?vid=0e754b0b-7b3f-4654-a6fe-1c886763baad","ios":"levelo://app?vid=0e754b0b-7b3f-4654-a6fe-1c886763baad"},"vehicle_type_id":"4","last_reported":1700730456,"current_range_meters":23200,"station_id":"ce4bgrh2rcd13ifvqc8g","pricing_plan_id":"free"},{"bike_id":"f280b91d-24b0-4930-94d9-e7a9dd8cfa9b","system_id":"levelo_inurba_marseille","lat":43.301939,"lon":5.366286,"is_reserved":false,"is_disabled":false,"rental_uris":{"android":"levelo://app?vid=f280b91d-24b0-4930-94d9-e7a9dd8cfa9b","ios":"levelo://app?vid=f280b91d-24b0-4930-94d9-e7a9dd8cfa9b"},"vehicle_type_id":"4","last_reported":1700730456,"current_range_meters":27600,"station_id":"ce4bgrh2rcd13ifvqc8g","pricing_plan_id":"free"},{"bike_id":"793cb9c8-fd8f-4489-9f78-cfcb054d6fdb","system_id":"levelo_inurba_marseille","lat":43.301939,"lon":5.366286,"is_reserved":false,"is_disabled":false,"rental_uris":{"android":"levelo://app?vid=793cb9c8-fd8f-4489-9f78-cfcb054d6fdb","ios":"levelo://app?vid=793cb9c8-fd8f-4489-9f78-cfcb054d6fdb"},"vehicle_type_id":"4","last_reported":1700730456,"current_range_meters":15200,"station_id":"ce4bgrh2rcd13ifvqc8g","pricing_plan_id":"free"},{"bike_id":"666e6cd9-ec98-4353-94ba-2592cc07242c","system_id":"levelo_inurba_marseille","lat":43.301939,"lon":5.366286,"is_reserved":false,"is_disabled":false,"rental_uris":{"android":"levelo://app?vid=666e6cd9-ec98-4353-94ba-2592cc07242c","ios":"levelo://app?vid=666e6cd9-ec98-4353-94ba-2592cc07242c"},"vehicle_type_id":"4","last_reported":1700730456,"current_range_meters":2400,"station_id":"ce4bgrh2rcd13ifvqc8g","pricing_plan_id":"free"},{"bike_id":"0327687b-f51e-4077-bf49-2ec73a6de092","system_id":"levelo_inurba_marseille","lat":43.322348,"lon":5.375599,"is_reserved":false,"is_disabled":false,"rental_uris":{"android":"levelo://app?vid=0327687b-f51e-4077-bf49-2ec73a6de092","ios":"levelo://app?vid=0327687b-f51e-4077-bf49-2ec73a6de092"},"vehicle_type_id":"4","last_reported":1700730456,"current_range_meters":12400,"station_id":"","pricing_plan_id":"free"},{"bike_id":"4711f18c-a433-4639-8901-538ef79d89eb","system_id":"levelo_inurba_marseille","lat":43.30471,"lon":5.37913,"is_reserved":false,"is_disabled":false,"rental_uris":{"android":"levelo://app?vid=4711f18c-a433-4639-8901-538ef79d89eb","ios":"levelo://app?vid=4711f18c-a433-4639-8901-538ef79d89eb"},"vehicle_type_id":"4","last_reported":1700730456,"current_range_meters":0,"station_id":"ce4bgup2rcd13ifvqcn0","pricing_plan_id":"free"},{"bike_id":"ab3d9c2f-2e16-4eec-8620-8e7448113fb8","system_id":"levelo_inurba_marseille","lat":43.304621,"lon":5.379057,"is_reserved":false,"is_disabled":false,"rental_uris":{"android":"levelo://app?vid=ab3d9c2f-2e16-4eec-8620-8e7448113fb8","ios":"levelo://app?vid=ab3d9c2f-2e16-4eec-8620-8e7448113fb8"},"vehicle_type_id":"4","last_reported":1700730456,"current_range_meters":21200,"station_id":"","pricing_plan_id":"free"},{"bike_id":"f3284485-3bc0-43ff-bbe6-8daf493ac314","system_id":"levelo_inurba_marseille","lat":43.302864,"lon":5.376926,"is_reserved":false,"is_disabled":false,"rental_uris":{"android":"levelo://app?vid=f3284485-3bc0-43ff-bbe6-8daf493ac314","ios":"levelo://app?vid=f3284485-3bc0-43ff-bbe6-8daf493ac314"},"vehicle_type_id":"4","last_reported":1700730456,"current_range_meters":18400,"station_id":"ce4bguh2rcd13ifvqcj0","pricing_plan_id":"free"},{"bike_id":"fec77ecc-0f7d-467e-b758-80c1866134c5","system_id":"levelo_inurba_marseille","lat":43.302784,"lon":5.377158,"is_reserved":false,"is_disabled":false,"rental_uris":{"android":"levelo://app?vid=fec77ecc-0f7d-467e-b758-80c1866134c5","ios":"levelo://app?vid=fec77ecc-0f7d-467e-b758-80c1866134c5"},"vehicle_type_id":"4","last_reported":1700730456,"current_range_meters":18000,"station_id":"ce4bguh2rcd13ifvqcj0","pricing_plan_id":"free"},{"bike_id":"5573863e-bb05-4d2f-9a0d-369af66096f3","system_id":"levelo_inurba_marseille","lat":43.302784,"lon":5.377158,"is_reserved":false,"is_disabled":false,"rental_uris":{"android":"levelo://app?vid=5573863e-bb05-4d2f-9a0d-369af66096f3","ios":"levelo://app?vid=5573863e-bb05-4d2f-9a0d-369af66096f3"},"vehicle_type_id":"4","last_reported":1700730456,"current_range_meters":0,"station_id":"ce4bguh2rcd13ifvqcj0","pricing_plan_id":"free"},{"bike_id":"03292337-33ed-4e9b-b8e0-d0373eb1e73a","system_id":"levelo_inurba_marseille","lat":43.302784,"lon":5.377158,"is_reserved":false,"is_disabled":false,"rental_uris":{"android":"levelo://app?vid=03292337-33ed-4e9b-b8e0-d0373eb1e73a","ios":"levelo://app?vid=03292337-33ed-4e9b-b8e0-d0373eb1e73a"},"vehicle_type_id":"4","last_reported":1700730456,"current_range_meters":22000,"station_id":"ce4bguh2rcd13ifvqcj0","pricing_plan_id":"free"},{"bike_id":"f74df45d-4c56-4840-bcb8-335baa22e177","system_id":"levelo_inurba_marseille","lat":43.299425,"lon":5.36554,"is_reserved":false,"is_disabled":false,"rental_uris":{"android":"levelo://app?vid=f74df45d-4c56-4840-bcb8-335baa22e177","ios":"levelo://app?vid=f74df45d-4c56-4840-bcb8-335baa22e177"},"vehicle_type_id":"4","last_reported":1700730456,"current_range_meters":16800,"station_id":"ce4bgm92rcd13ifvqbr0","pricing_plan_id":"free"},{"bike_id":"adf057e9-413b-4aae-8d3b-2a25d3a65d35","system_id":"levelo_inurba_marseille","lat":43.298433,"lon":5.362774,"is_reserved":false,"is_disabled":false,"rental_uris":{"android":"levelo://app?vid=adf057e9-413b-4aae-8d3b-2a25d3a65d35","ios":"levelo://app?vid=adf057e9-413b-4aae-8d3b-2a25d3a65d35"},"vehicle_type_id":"4","last_reported":1700730456,"current_range_meters":12800,"station_id":"ce4bgpp2rcd13ifvqc3g","pricing_plan_id":"free"},{"bike_id":"47426855-20a4-4f91-b86e-154b78259341","system_id":"levelo_inurba_marseille","lat":43.298433,"lon":5.362774,"is_reserved":false,"is_disabled":false,"rental_uris":{"android":"levelo://app?vid=47426855-20a4-4f91-b86e-154b78259341","ios":"levelo://app?vid=47426855-20a4-4f91-b86e-154b78259341"},"vehicle_type_id":"4","last_reported":1700730456,"current_range_meters":20400,"station_id":"ce4bgpp2rcd13ifvqc3g","pricing_plan_id":"free"},{"bike_id":"6e3d08c4-19d0-45bc-a8ba-eaeba349b4f0","system_id":"levelo_inurba_marseille","lat":43.298433,"lon":5.362774,"is_reserved":false,"is_disabled":false,"rental_uris":{"android":"levelo://app?vid=6e3d08c4-19d0-45bc-a8ba-eaeba349b4f0","ios":"levelo://app?vid=6e3d08c4-19d0-45bc-a8ba-eaeba349b4f0"},"vehicle_type_id":"4","last_reported":1700730456,"current_range_meters":4400,"station_id":"ce4bgpp2rcd13ifvqc3g","pricing_plan_id":"free"},{"bike_id":"99051a99-dffd-4890-9de1-8bcdc4d80092","system_id":"levelo_inurba_marseille","lat":43.298433,"lon":5.362774,"is_reserved":false,"is_disabled":false,"rental_uris":{"android":"levelo://app?vid=99051a99-dffd-4890-9de1-8bcdc4d80092","ios":"levelo://app?vid=99051a99-dffd-4890-9de1-8bcdc4d80092"},"vehicle_type_id":"4","last_reported":1700730456,"current_range_meters":22400,"station_id":"ce4bgpp2rcd13ifvqc3g","pricing_plan_id":"free"},{"bike_id":"b58dc7cc-4846-4c86-be0f-6a128d5714f9","system_id":"levelo_inurba_marseille","lat":43.298433,"lon":5.362774,"is_reserved":false,"is_disabled":false,"rental_uris":{"android":"levelo://app?vid=b58dc7cc-4846-4c86-be0f-6a128d5714f9","ios":"levelo://app?vid=b58dc7cc-4846-4c86-be0f-6a128d5714f9"},"vehicle_type_id":"4","last_reported":1700730456,"current_range_meters":23200,"station_id":"ce4bgpp2rcd13ifvqc3g","pricing_plan_id":"free"},{"bike_id":"ecdd082c-8b3b-4507-8e29-667bdf0c263a","system_id":"levelo_inurba_marseille","lat":43.298433,"lon":5.362774,"is_reserved":false,"is_disabled":false,"rental_uris":{"android":"levelo://app?vid=ecdd082c-8b3b-4507-8e29-667bdf0c263a","ios":"levelo://app?vid=ecdd082c-8b3b-4507-8e29-667bdf0c263a"},"vehicle_type_id":"4","last_reported":1700730456,"current_range_meters":32000,"station_id":"ce4bgpp2rcd13ifvqc3g","pricing_plan_id":"free"},{"bike_id":"160ba220-70d0-4261-b755-31773ce7000d","system_id":"levelo_inurba_marseille","lat":43.305364,"lon":5.384119,"is_reserved":false,"is_disabled":false,"rental_uris":{"android":"levelo://app?vid=160ba220-70d0-4261-b755-31773ce7000d","ios":"levelo://app?vid=160ba220-70d0-4261-b755-31773ce7000d"},"vehicle_type_id":"4","last_reported":1700730456,"current_range_meters":20800,"station_id":"ce4bgg92rcd13ifvqb30","pricing_plan_id":"free"},{"bike_id":"48316fa9-d9c1-42dd-81fd-12c0fab3e803","system_id":"levelo_inurba_marseille","lat":43.299243,"lon":5.37481,"is_reserved":false,"is_disabled":false,"rental_uris":{"android":"levelo://app?vid=48316fa9-d9c1-42dd-81fd-12c0fab3e803","ios":"levelo://app?vid=48316fa9-d9c1-42dd-81fd-12c0fab3e803"},"vehicle_type_id":"4","last_reported":1700730456,"current_range_meters":26800,"station_id":"ce4bgjh2rcd13ifvqbg0","pricing_plan_id":"free"},{"bike_id":"06fc4811-24cd-43fb-870f-fa534f6ef125","system_id":"levelo_inurba_marseille","lat":43.299243,"lon":5.374807,"is_reserved":false,"is_disabled":false,"rental_uris":{"android":"levelo://app?vid=06fc4811-24cd-43fb-870f-fa534f6ef125","ios":"levelo://app?vid=06fc4811-24cd-43fb-870f-fa534f6ef125"},"vehicle_type_id":"4","last_reported":1700730456,"current_range_meters":26800,"station_id":"ce4bgjh2rcd13ifvqbg0","pricing_plan_id":"free"},{"bike_id":"270579ce-8238-4e97-b473-bfadad2df718","system_id":"levelo_inurba_marseille","lat":43.297794,"lon":5.370888,"is_reserved":false,"is_disabled":false,"rental_uris":{"android":"levelo://app?vid=270579ce-8238-4e97-b473-bfadad2df718","ios":"levelo://app?vid=270579ce-8238-4e97-b473-bfadad2df718"},"vehicle_type_id":"4","last_reported":1700730456,"current_range_meters":17600,"station_id":"ce4bgop2rcd13ifvqc1g","pricing_plan_id":"free"},{"bike_id":"4b0ea304-94db-4722-863f-214ff0a51e0d","system_id":"levelo_inurba_marseille","lat":43.297163,"lon":5.365866,"is_reserved":false,"is_disabled":false,"rental_uris":{"android":"levelo://app?vid=4b0ea304-94db-4722-863f-214ff0a51e0d","ios":"levelo://app?vid=4b0ea304-94db-4722-863f-214ff0a51e0d"},"vehicle_type_id":"4","last_reported":1700730456,"current_range_meters":23600,"station_id":"ce4bgn12rcd13ifvqbt0","pricing_plan_id":"free"},{"bike_id":"4d7509f5-9559-42ca-a60d-bef9e80f0981","system_id":"levelo_inurba_marseille","lat":43.299616,"lon":5.379226,"is_reserved":false,"is_disabled":false,"rental_uris":{"android":"levelo://app?vid=4d7509f5-9559-42ca-a60d-bef9e80f0981","ios":"levelo://app?vid=4d7509f5-9559-42ca-a60d-bef9e80f0981"},"vehicle_type_id":"4","last_reported":1700730456,"current_range_meters":0,"station_id":"","pricing_plan_id":"free"},{"bike_id":"f2e29894-d678-42aa-87e5-1b70dec5c0b1","system_id":"levelo_inurba_marseille","lat":43.29639,"lon":5.36238,"is_reserved":false,"is_disabled":false,"rental_uris":{"android":"levelo://app?vid=f2e29894-d678-42aa-87e5-1b70dec5c0b1","ios":"levelo://app?vid=f2e29894-d678-42aa-87e5-1b70dec5c0b1"},"vehicle_type_id":"4","last_reported":1700730456,"current_range_meters":0,"station_id":"","pricing_plan_id":"free"},{"bike_id":"9547cca7-4769-4583-a68c-a847d8191432","system_id":"levelo_inurba_marseille","lat":43.296131,"lon":5.370791,"is_reserved":false,"is_disabled":false,"rental_uris":{"android":"levelo://app?vid=9547cca7-4769-4583-a68c-a847d8191432","ios":"levelo://app?vid=9547cca7-4769-4583-a68c-a847d8191432"},"vehicle_type_id":"4","last_reported":1700730456,"current_range_meters":28000,"station_id":"ce4bgnh2rcd13ifvqc0g","pricing_plan_id":"free"},{"bike_id":"ea7fd4cc-044d-458e-b753-b7045b2d9219","system_id":"levelo_inurba_marseille","lat":43.296921,"lon":5.376579,"is_reserved":false,"is_disabled":false,"rental_uris":{"android":"levelo://app?vid=ea7fd4cc-044d-458e-b753-b7045b2d9219","ios":"levelo://app?vid=ea7fd4cc-044d-458e-b753-b7045b2d9219"},"vehicle_type_id":"4","last_reported":1700730456,"current_range_meters":26800,"station_id":"ce4bgkh2rcd13ifvqbl0","pricing_plan_id":"free"},{"bike_id":"5b5d880f-fe25-4ccd-a68a-a4770292b933","system_id":"levelo_inurba_marseille","lat":43.296921,"lon":5.376579,"is_reserved":false,"is_disabled":false,"rental_uris":{"android":"levelo://app?vid=5b5d880f-fe25-4ccd-a68a-a4770292b933","ios":"levelo://app?vid=5b5d880f-fe25-4ccd-a68a-a4770292b933"},"vehicle_type_id":"4","last_reported":1700730456,"current_range_meters":21200,"station_id":"ce4bgkh2rcd13ifvqbl0","pricing_plan_id":"free"},{"bike_id":"9ca33437-b819-4e75-9b25-6135a09a46f2","system_id":"levelo_inurba_marseille","lat":43.297165,"lon":5.377008,"is_reserved":false,"is_disabled":false,"rental_uris":{"android":"levelo://app?vid=9ca33437-b819-4e75-9b25-6135a09a46f2","ios":"levelo://app?vid=9ca33437-b819-4e75-9b25-6135a09a46f2"},"vehicle_type_id":"4","last_reported":1700730456,"current_range_meters":19600,"station_id":"","pricing_plan_id":"free"},{"bike_id":"45681973-7c8e-4de9-aa9a-c9ee1768c817","system_id":"levelo_inurba_marseille","lat":43.309589,"lon":5.390258,"is_reserved":false,"is_disabled":false,"rental_uris":{"android":"levelo://app?vid=45681973-7c8e-4de9-aa9a-c9ee1768c817","ios":"levelo://app?vid=45681973-7c8e-4de9-aa9a-c9ee1768c817"},"vehicle_type_id":"4","last_reported":1700730456,"current_range_meters":30000,"station_id":"ce4bgup2rcd13ifvqco0","pricing_plan_id":"free"},{"bike_id":"a957c501-0087-4dfe-9c84-a0f12733fb05","system_id":"levelo_inurba_marseille","lat":43.309589,"lon":5.390258,"is_reserved":false,"is_disabled":false,"rental_uris":{"android":"levelo://app?vid=a957c501-0087-4dfe-9c84-a0f12733fb05","ios":"levelo://app?vid=a957c501-0087-4dfe-9c84-a0f12733fb05"},"vehicle_type_id":"4","last_reported":1700730456,"current_range_meters":21600,"station_id":"ce4bgup2rcd13ifvqco0","pricing_plan_id":"free"},{"bike_id":"e888e9a2-5e7d-499f-a6a9-7ba9c73739c8","system_id":"levelo_inurba_marseille","lat":43.296935,"lon":5.376544,"is_reserved":false,"is_disabled":false,"rental_uris":{"android":"levelo://app?vid=e888e9a2-5e7d-499f-a6a9-7ba9c73739c8","ios":"levelo://app?vid=e888e9a2-5e7d-499f-a6a9-7ba9c73739c8"},"vehicle_type_id":"4","last_reported":1700730456,"current_range_meters":23600,"station_id":"ce4bgkh2rcd13ifvqbl0","pricing_plan_id":"free"},{"bike_id":"9fb402a7-7a41-4473-81d2-1fec663a6035","system_id":"levelo_inurba_marseille","lat":43.305565,"lon":5.388716,"is_reserved":false,"is_disabled":false,"rental_uris":{"android":"levelo://app?vid=9fb402a7-7a41-4473-81d2-1fec663a6035","ios":"levelo://app?vid=9fb402a7-7a41-4473-81d2-1fec663a6035"},"vehicle_type_id":"4","last_reported":1700730456,"current_range_meters":21200,"station_id":"","pricing_plan_id":"free"},{"bike_id":"0f76c2bb-ccd0-4051-b88f-35ffb566cf6e","system_id":"levelo_inurba_marseille","lat":43.309589,"lon":5.390258,"is_reserved":false,"is_disabled":false,"rental_uris":{"android":"levelo://app?vid=0f76c2bb-ccd0-4051-b88f-35ffb566cf6e","ios":"levelo://app?vid=0f76c2bb-ccd0-4051-b88f-35ffb566cf6e"},"vehicle_type_id":"4","last_reported":1700730456,"current_range_meters":29200,"station_id":"ce4bgup2rcd13ifvqco0","pricing_plan_id":"free"},{"bike_id":"6fc66f5b-c250-423e-9b0a-4504aa7def2a","system_id":"levelo_inurba_marseille","lat":43.309589,"lon":5.390258,"is_reserved":false,"is_disabled":false,"rental_uris":{"android":"levelo://app?vid=6fc66f5b-c250-423e-9b0a-4504aa7def2a","ios":"levelo://app?vid=6fc66f5b-c250-423e-9b0a-4504aa7def2a"},"vehicle_type_id":"4","last_reported":1700730456,"current_range_meters":28400,"station_id":"ce4bgup2rcd13ifvqco0","pricing_plan_id":"free"},{"bike_id":"555f5bd3-7c01-49b2-bdea-123abec072d5","system_id":"levelo_inurba_marseille","lat":43.297915,"lon":5.380979,"is_reserved":false,"is_disabled":false,"rental_uris":{"android":"levelo://app?vid=555f5bd3-7c01-49b2-bdea-123abec072d5","ios":"levelo://app?vid=555f5bd3-7c01-49b2-bdea-123abec072d5"},"vehicle_type_id":"4","last_reported":1700730456,"current_range_meters":0,"station_id":"ce4bgip2rcd13ifvqbb0","pricing_plan_id":"free"},{"bike_id":"85fb930a-f0e2-4ed4-93fa-a3e2bac3f80b","system_id":"levelo_inurba_marseille","lat":43.296263,"lon":5.377094,"is_reserved":false,"is_disabled":false,"rental_uris":{"android":"levelo://app?vid=85fb930a-f0e2-4ed4-93fa-a3e2bac3f80b","ios":"levelo://app?vid=85fb930a-f0e2-4ed4-93fa-a3e2bac3f80b"},"vehicle_type_id":"4","last_reported":1700730456,"current_range_meters":8000,"station_id":"ce4bgi92rcd13ifvqb90","pricing_plan_id":"free"},{"bike_id":"92ec6c13-bffc-4631-ba90-561338f5943d","system_id":"levelo_inurba_marseille","lat":43.299724,"lon":5.384848,"is_reserved":false,"is_disabled":false,"rental_uris":{"android":"levelo://app?vid=92ec6c13-bffc-4631-ba90-561338f5943d","ios":"levelo://app?vid=92ec6c13-bffc-4631-ba90-561338f5943d"},"vehicle_type_id":"4","last_reported":1700730456,"current_range_meters":0,"station_id":"ce4bgj92rcd13ifvqbd0","pricing_plan_id":"free"},{"bike_id":"6b621983-5e9e-42f7-990d-ad5a093820d2","system_id":"levelo_inurba_marseille","lat":43.293801,"lon":5.363066,"is_reserved":false,"is_disabled":false,"rental_uris":{"android":"levelo://app?vid=6b621983-5e9e-42f7-990d-ad5a093820d2","ios":"levelo://app?vid=6b621983-5e9e-42f7-990d-ad5a093820d2"},"vehicle_type_id":"4","last_reported":1700730456,"current_range_meters":8800,"station_id":"","pricing_plan_id":"free"},{"bike_id":"a4126061-09a2-4a27-88df-f690ba5f395a","system_id":"levelo_inurba_marseille","lat":43.32367,"lon":5.388836,"is_reserved":false,"is_disabled":false,"rental_uris":{"android":"levelo://app?vid=a4126061-09a2-4a27-88df-f690ba5f395a","ios":"levelo://app?vid=a4126061-09a2-4a27-88df-f690ba5f395a"},"vehicle_type_id":"4","last_reported":1700730456,"current_range_meters":16800,"station_id":"ce4bhqp2rcd13ifvqhog","pricing_plan_id":"free"},{"bike_id":"4c2b5a1d-c0e5-47d1-8f8d-41bf7bab7ca7","system_id":"levelo_inurba_marseille","lat":43.32367,"lon":5.388836,"is_reserved":false,"is_disabled":false,"rental_uris":{"android":"levelo://app?vid=4c2b5a1d-c0e5-47d1-8f8d-41bf7bab7ca7","ios":"levelo://app?vid=4c2b5a1d-c0e5-47d1-8f8d-41bf7bab7ca7"},"vehicle_type_id":"4","last_reported":1700730456,"current_range_meters":24400,"station_id":"ce4bhqp2rcd13ifvqhog","pricing_plan_id":"free"},{"bike_id":"8dc5cade-25e6-43aa-98b5-83b2481d8330","system_id":"levelo_inurba_marseille","lat":43.29613,"lon":5.38114,"is_reserved":false,"is_disabled":false,"rental_uris":{"android":"levelo://app?vid=8dc5cade-25e6-43aa-98b5-83b2481d8330","ios":"levelo://app?vid=8dc5cade-25e6-43aa-98b5-83b2481d8330"},"vehicle_type_id":"4","last_reported":1700730456,"current_range_meters":0,"station_id":"ce4bgl12rcd13ifvqbo0","pricing_plan_id":"free"},{"bike_id":"4b08bef2-6dd7-4a12-8781-5aa282cb3f18","system_id":"levelo_inurba_marseille","lat":43.29601,"lon":5.381084,"is_reserved":false,"is_disabled":false,"rental_uris":{"android":"levelo://app?vid=4b08bef2-6dd7-4a12-8781-5aa282cb3f18","ios":"levelo://app?vid=4b08bef2-6dd7-4a12-8781-5aa282cb3f18"},"vehicle_type_id":"4","last_reported":1700730456,"current_range_meters":18000,"station_id":"ce4bgl12rcd13ifvqbo0","pricing_plan_id":"free"},{"bike_id":"9ad3b357-7966-4fdf-af67-ad45cc0661e3","system_id":"levelo_inurba_marseille","lat":43.293259,"lon":5.371586,"is_reserved":false,"is_disabled":false,"rental_uris":{"android":"levelo://app?vid=9ad3b357-7966-4fdf-af67-ad45cc0661e3","ios":"levelo://app?vid=9ad3b357-7966-4fdf-af67-ad45cc0661e3"},"vehicle_type_id":"4","last_reported":1700730456,"current_range_meters":23600,"station_id":"ce4bgh92rcd13ifvqb40","pricing_plan_id":"free"},{"bike_id":"cd4b9b95-cbbc-44e5-bda4-dc060b215270","system_id":"levelo_inurba_marseille","lat":43.293259,"lon":5.371586,"is_reserved":false,"is_disabled":false,"rental_uris":{"android":"levelo://app?vid=cd4b9b95-cbbc-44e5-bda4-dc060b215270","ios":"levelo://app?vid=cd4b9b95-cbbc-44e5-bda4-dc060b215270"},"vehicle_type_id":"4","last_reported":1700730456,"current_range_meters":25600,"station_id":"ce4bgh92rcd13ifvqb40","pricing_plan_id":"free"},{"bike_id":"eed09e8a-bafc-435b-b1e9-699d07141005","system_id":"levelo_inurba_marseille","lat":43.293249,"lon":5.371578,"is_reserved":false,"is_disabled":false,"rental_uris":{"android":"levelo://app?vid=eed09e8a-bafc-435b-b1e9-699d07141005","ios":"levelo://app?vid=eed09e8a-bafc-435b-b1e9-699d07141005"},"vehicle_type_id":"4","last_reported":1700730456,"current_range_meters":18400,"station_id":"ce4bgh92rcd13ifvqb40","pricing_plan_id":"free"},{"bike_id":"9c0ae0a3-3d43-4856-8f51-9a93b1484adf","system_id":"levelo_inurba_marseille","lat":43.293009,"lon":5.374584,"is_reserved":false,"is_disabled":false,"rental_uris":{"android":"levelo://app?vid=9c0ae0a3-3d43-4856-8f51-9a93b1484adf","ios":"levelo://app?vid=9c0ae0a3-3d43-4856-8f51-9a93b1484adf"},"vehicle_type_id":"4","last_reported":1700730456,"current_range_meters":24800,"station_id":"ce4bgi12rcd13ifvqb70","pricing_plan_id":"free"},{"bike_id":"812c3518-e5ad-4d74-b4f6-53ebb58dee4f","system_id":"levelo_inurba_marseille","lat":43.293009,"lon":5.374584,"is_reserved":false,"is_disabled":false,"rental_uris":{"android":"levelo://app?vid=812c3518-e5ad-4d74-b4f6-53ebb58dee4f","ios":"levelo://app?vid=812c3518-e5ad-4d74-b4f6-53ebb58dee4f"},"vehicle_type_id":"4","last_reported":1700730456,"current_range_meters":23200,"station_id":"ce4bgi12rcd13ifvqb70","pricing_plan_id":"free"},{"bike_id":"3d62b24f-1c8c-454d-94ed-23cd9c382771","system_id":"levelo_inurba_marseille","lat":43.2936,"lon":5.37835,"is_reserved":false,"is_disabled":false,"rental_uris":{"android":"levelo://app?vid=3d62b24f-1c8c-454d-94ed-23cd9c382771","ios":"levelo://app?vid=3d62b24f-1c8c-454d-94ed-23cd9c382771"},"vehicle_type_id":"4","last_reported":1700730456,"current_range_meters":1200,"station_id":"ce4bgjh2rcd13ifvqbf0","pricing_plan_id":"free"},{"bike_id":"1f1bbb0c-e3da-47c0-9d75-9f44d0c49b32","system_id":"levelo_inurba_marseille","lat":43.290327,"lon":5.375711,"is_reserved":false,"is_disabled":false,"rental_uris":{"android":"levelo://app?vid=1f1bbb0c-e3da-47c0-9d75-9f44d0c49b32","ios":"levelo://app?vid=1f1bbb0c-e3da-47c0-9d75-9f44d0c49b32"},"vehicle_type_id":"4","last_reported":1700730456,"current_range_meters":11600,"station_id":"ce4bh692rcd13ifvqe90","pricing_plan_id":"free"},{"bike_id":"28759cf5-21f3-4317-85b5-392f393d8136","system_id":"levelo_inurba_marseille","lat":43.292663,"lon":5.376389,"is_reserved":false,"is_disabled":false,"rental_uris":{"android":"levelo://app?vid=28759cf5-21f3-4317-85b5-392f393d8136","ios":"levelo://app?vid=28759cf5-21f3-4317-85b5-392f393d8136"},"vehicle_type_id":"4","last_reported":1700730456,"current_range_meters":15200,"station_id":"ce4bgi12rcd13ifvqb80","pricing_plan_id":"free"},{"bike_id":"fc0d6e9a-64aa-4807-a6c5-76674bea5c2c","system_id":"levelo_inurba_marseille","lat":43.291675,"lon":5.371583,"is_reserved":false,"is_disabled":false,"rental_uris":{"android":"levelo://app?vid=fc0d6e9a-64aa-4807-a6c5-76674bea5c2c","ios":"levelo://app?vid=fc0d6e9a-64aa-4807-a6c5-76674bea5c2c"},"vehicle_type_id":"4","last_reported":1700730456,"current_range_meters":11200,"station_id":"ce4bha92rcd13ifvqeh0","pricing_plan_id":"free"},{"bike_id":"9722ca55-cfe3-4d6a-8e2a-f12981312ec6","system_id":"levelo_inurba_marseille","lat":43.291675,"lon":5.371583,"is_reserved":false,"is_disabled":false,"rental_uris":{"android":"levelo://app?vid=9722ca55-cfe3-4d6a-8e2a-f12981312ec6","ios":"levelo://app?vid=9722ca55-cfe3-4d6a-8e2a-f12981312ec6"},"vehicle_type_id":"4","last_reported":1700730456,"current_range_meters":24400,"station_id":"ce4bha92rcd13ifvqeh0","pricing_plan_id":"free"},{"bike_id":"1d10a1b1-d55f-4279-928a-9c6858f32ca9","system_id":"levelo_inurba_marseille","lat":43.33211,"lon":5.38112,"is_reserved":false,"is_disabled":false,"rental_uris":{"android":"levelo://app?vid=1d10a1b1-d55f-4279-928a-9c6858f32ca9","ios":"levelo://app?vid=1d10a1b1-d55f-4279-928a-9c6858f32ca9"},"vehicle_type_id":"4","last_reported":1700730456,"current_range_meters":400,"station_id":"","pricing_plan_id":"free"},{"bike_id":"51bdcc5a-cf1d-4a48-a777-ad59450e243b","system_id":"levelo_inurba_marseille","lat":43.28942,"lon":5.36393,"is_reserved":false,"is_disabled":false,"rental_uris":{"android":"levelo://app?vid=51bdcc5a-cf1d-4a48-a777-ad59450e243b","ios":"levelo://app?vid=51bdcc5a-cf1d-4a48-a777-ad59450e243b"},"vehicle_type_id":"4","last_reported":1700730456,"current_range_meters":10800,"station_id":"ce4bhc92rcd13ifvqetg","pricing_plan_id":"free"},{"bike_id":"91f43715-e29c-420b-86ac-1e6c1a18d185","system_id":"levelo_inurba_marseille","lat":43.310018,"lon":5.39932,"is_reserved":false,"is_disabled":false,"rental_uris":{"android":"levelo://app?vid=91f43715-e29c-420b-86ac-1e6c1a18d185","ios":"levelo://app?vid=91f43715-e29c-420b-86ac-1e6c1a18d185"},"vehicle_type_id":"4","last_reported":1700730456,"current_range_meters":0,"station_id":"","pricing_plan_id":"free"},{"bike_id":"a986a98e-db7c-4101-bab1-96a228331c73","system_id":"levelo_inurba_marseille","lat":43.290104,"lon":5.356111,"is_reserved":false,"is_disabled":false,"rental_uris":{"android":"levelo://app?vid=a986a98e-db7c-4101-bab1-96a228331c73","ios":"levelo://app?vid=a986a98e-db7c-4101-bab1-96a228331c73"},"vehicle_type_id":"4","last_reported":1700730456,"current_range_meters":26800,"station_id":"ce4bhb92rcd13ifvqen0","pricing_plan_id":"free"},{"bike_id":"3955e61f-9ea1-4f1a-b6bb-a5a7a70a7686","system_id":"levelo_inurba_marseille","lat":43.33041,"lon":5.38919,"is_reserved":false,"is_disabled":false,"rental_uris":{"android":"levelo://app?vid=3955e61f-9ea1-4f1a-b6bb-a5a7a70a7686","ios":"levelo://app?vid=3955e61f-9ea1-4f1a-b6bb-a5a7a70a7686"},"vehicle_type_id":"4","last_reported":1700730456,"current_range_meters":17200,"station_id":"ce4bhr92rcd13ifvqhrg","pricing_plan_id":"free"},{"bike_id":"d0a06877-bfb4-493d-a447-739d551cca0f","system_id":"levelo_inurba_marseille","lat":43.290104,"lon":5.356111,"is_reserved":false,"is_disabled":false,"rental_uris":{"android":"levelo://app?vid=d0a06877-bfb4-493d-a447-739d551cca0f","ios":"levelo://app?vid=d0a06877-bfb4-493d-a447-739d551cca0f"},"vehicle_type_id":"4","last_reported":1700730456,"current_range_meters":29200,"station_id":"ce4bhb92rcd13ifvqen0","pricing_plan_id":"free"},{"bike_id":"ed9fceac-9e8f-482a-92ee-6508986d7ea3","system_id":"levelo_inurba_marseille","lat":43.304664,"lon":5.39805,"is_reserved":false,"is_disabled":false,"rental_uris":{"android":"levelo://app?vid=ed9fceac-9e8f-482a-92ee-6508986d7ea3","ios":"levelo://app?vid=ed9fceac-9e8f-482a-92ee-6508986d7ea3"},"vehicle_type_id":"4","last_reported":1700730456,"current_range_meters":15600,"station_id":"","pricing_plan_id":"free"},{"bike_id":"ae128ed7-5181-49fc-a2a8-cb47453c42c6","system_id":"levelo_inurba_marseille","lat":43.289743,"lon":5.378304,"is_reserved":false,"is_disabled":false,"rental_uris":{"android":"levelo://app?vid=ae128ed7-5181-49fc-a2a8-cb47453c42c6","ios":"levelo://app?vid=ae128ed7-5181-49fc-a2a8-cb47453c42c6"},"vehicle_type_id":"4","last_reported":1700730456,"current_range_meters":25600,"station_id":"ce4bh9p2rcd13ifvqed0","pricing_plan_id":"free"},{"bike_id":"2df3aa87-66c8-4bc6-a0ec-86078fe4fb67","system_id":"levelo_inurba_marseille","lat":43.290094,"lon":5.381264,"is_reserved":false,"is_disabled":false,"rental_uris":{"android":"levelo://app?vid=2df3aa87-66c8-4bc6-a0ec-86078fe4fb67","ios":"levelo://app?vid=2df3aa87-66c8-4bc6-a0ec-86078fe4fb67"},"vehicle_type_id":"4","last_reported":1700730456,"current_range_meters":15200,"station_id":"ce4bh4p2rcd13ifvqe1g","pricing_plan_id":"free"},{"bike_id":"f612e9c4-0ca5-4fff-a25e-9e4b2a47ec47","system_id":"levelo_inurba_marseille","lat":43.290094,"lon":5.381264,"is_reserved":false,"is_disabled":false,"rental_uris":{"android":"levelo://app?vid=f612e9c4-0ca5-4fff-a25e-9e4b2a47ec47","ios":"levelo://app?vid=f612e9c4-0ca5-4fff-a25e-9e4b2a47ec47"},"vehicle_type_id":"4","last_reported":1700730456,"current_range_meters":18000,"station_id":"ce4bh4p2rcd13ifvqe1g","pricing_plan_id":"free"},{"bike_id":"6a4ae519-46e6-47c7-b37b-ecff05d85b4d","system_id":"levelo_inurba_marseille","lat":43.290094,"lon":5.381264,"is_reserved":false,"is_disabled":false,"rental_uris":{"android":"levelo://app?vid=6a4ae519-46e6-47c7-b37b-ecff05d85b4d","ios":"levelo://app?vid=6a4ae519-46e6-47c7-b37b-ecff05d85b4d"},"vehicle_type_id":"4","last_reported":1700730456,"current_range_meters":15600,"station_id":"ce4bh4p2rcd13ifvqe1g","pricing_plan_id":"free"},{"bike_id":"b3341d00-73ff-4122-a276-ba9355cae8f2","system_id":"levelo_inurba_marseille","lat":43.28856,"lon":5.358371,"is_reserved":false,"is_disabled":false,"rental_uris":{"android":"levelo://app?vid=b3341d00-73ff-4122-a276-ba9355cae8f2","ios":"levelo://app?vid=b3341d00-73ff-4122-a276-ba9355cae8f2"},"vehicle_type_id":"4","last_reported":1700730456,"current_range_meters":31200,"station_id":"ce4bhb12rcd13ifvqem0","pricing_plan_id":"free"},{"bike_id":"7106f339-3413-48f1-8c29-d34f77c4bef9","system_id":"levelo_inurba_marseille","lat":43.28856,"lon":5.358371,"is_reserved":false,"is_disabled":false,"rental_uris":{"android":"levelo://app?vid=7106f339-3413-48f1-8c29-d34f77c4bef9","ios":"levelo://app?vid=7106f339-3413-48f1-8c29-d34f77c4bef9"},"vehicle_type_id":"4","last_reported":1700730456,"current_range_meters":17200,"station_id":"ce4bhb12rcd13ifvqem0","pricing_plan_id":"free"},{"bike_id":"0c321d06-b2b7-457f-bbfa-e3eeaf45d21a","system_id":"levelo_inurba_marseille","lat":43.28856,"lon":5.358371,"is_reserved":false,"is_disabled":false,"rental_uris":{"android":"levelo://app?vid=0c321d06-b2b7-457f-bbfa-e3eeaf45d21a","ios":"levelo://app?vid=0c321d06-b2b7-457f-bbfa-e3eeaf45d21a"},"vehicle_type_id":"4","last_reported":1700730456,"current_range_meters":27200,"station_id":"ce4bhb12rcd13ifvqem0","pricing_plan_id":"free"},{"bike_id":"da2e2a62-febc-4feb-9de4-a35ebe91ad28","system_id":"levelo_inurba_marseille","lat":43.28856,"lon":5.358371,"is_reserved":false,"is_disabled":false,"rental_uris":{"android":"levelo://app?vid=da2e2a62-febc-4feb-9de4-a35ebe91ad28","ios":"levelo://app?vid=da2e2a62-febc-4feb-9de4-a35ebe91ad28"},"vehicle_type_id":"4","last_reported":1700730456,"current_range_meters":21600,"station_id":"ce4bhb12rcd13ifvqem0","pricing_plan_id":"free"},{"bike_id":"314937c9-da6f-499d-9374-6687f9ac89fe","system_id":"levelo_inurba_marseille","lat":43.31253,"lon":5.401538,"is_reserved":false,"is_disabled":false,"rental_uris":{"android":"levelo://app?vid=314937c9-da6f-499d-9374-6687f9ac89fe","ios":"levelo://app?vid=314937c9-da6f-499d-9374-6687f9ac89fe"},"vehicle_type_id":"4","last_reported":1700730456,"current_range_meters":15200,"station_id":"ce4bh092rcd13ifvqd30","pricing_plan_id":"free"},{"bike_id":"08d49d48-3896-4f4d-9e7e-3b61182b41e6","system_id":"levelo_inurba_marseille","lat":43.28722,"lon":5.36682,"is_reserved":false,"is_disabled":false,"rental_uris":{"android":"levelo://app?vid=08d49d48-3896-4f4d-9e7e-3b61182b41e6","ios":"levelo://app?vid=08d49d48-3896-4f4d-9e7e-3b61182b41e6"},"vehicle_type_id":"4","last_reported":1700730456,"current_range_meters":23600,"station_id":"","pricing_plan_id":"free"},{"bike_id":"30dbbd83-23f6-48ca-b8dc-ebc8a9904505","system_id":"levelo_inurba_marseille","lat":43.286961,"lon":5.373785,"is_reserved":false,"is_disabled":false,"rental_uris":{"android":"levelo://app?vid=30dbbd83-23f6-48ca-b8dc-ebc8a9904505","ios":"levelo://app?vid=30dbbd83-23f6-48ca-b8dc-ebc8a9904505"},"vehicle_type_id":"4","last_reported":1700730456,"current_range_meters":12400,"station_id":"ce4bh3p2rcd13ifvqdq0","pricing_plan_id":"free"},{"bike_id":"935e32df-7cd0-44b1-9139-c045a5f52a9e","system_id":"levelo_inurba_marseille","lat":43.287185,"lon":5.379373,"is_reserved":false,"is_disabled":false,"rental_uris":{"android":"levelo://app?vid=935e32df-7cd0-44b1-9139-c045a5f52a9e","ios":"levelo://app?vid=935e32df-7cd0-44b1-9139-c045a5f52a9e"},"vehicle_type_id":"4","last_reported":1700730456,"current_range_meters":23200,"station_id":"ce4bh9p2rcd13ifvqec0","pricing_plan_id":"free"},{"bike_id":"adbd441f-44c4-4168-877a-9278b4bd7ceb","system_id":"levelo_inurba_marseille","lat":43.33111,"lon":5.39742,"is_reserved":false,"is_disabled":false,"rental_uris":{"android":"levelo://app?vid=adbd441f-44c4-4168-877a-9278b4bd7ceb","ios":"levelo://app?vid=adbd441f-44c4-4168-877a-9278b4bd7ceb"},"vehicle_type_id":"4","last_reported":1700730456,"current_range_meters":18400,"station_id":"","pricing_plan_id":"free"},{"bike_id":"c918912e-2609-416f-a6a1-5a2bce4cc420","system_id":"levelo_inurba_marseille","lat":43.319179,"lon":5.407725,"is_reserved":false,"is_disabled":false,"rental_uris":{"android":"levelo://app?vid=c918912e-2609-416f-a6a1-5a2bce4cc420","ios":"levelo://app?vid=c918912e-2609-416f-a6a1-5a2bce4cc420"},"vehicle_type_id":"4","last_reported":1700730456,"current_range_meters":23600,"station_id":"ce4bhq12rcd13ifvqhig","pricing_plan_id":"free"},{"bike_id":"d4d331ae-b2e3-4d30-b570-985de11db7f0","system_id":"levelo_inurba_marseille","lat":43.2885,"lon":5.39327,"is_reserved":false,"is_disabled":false,"rental_uris":{"android":"levelo://app?vid=d4d331ae-b2e3-4d30-b570-985de11db7f0","ios":"levelo://app?vid=d4d331ae-b2e3-4d30-b570-985de11db7f0"},"vehicle_type_id":"4","last_reported":1700730456,"current_range_meters":6800,"station_id":"ce4bh2p2rcd13ifvqdi0","pricing_plan_id":"free"},{"bike_id":"c14447bc-59dd-42d0-a82e-8f90e72456ef","system_id":"levelo_inurba_marseille","lat":43.284219,"lon":5.3497,"is_reserved":false,"is_disabled":false,"rental_uris":{"android":"levelo://app?vid=c14447bc-59dd-42d0-a82e-8f90e72456ef","ios":"levelo://app?vid=c14447bc-59dd-42d0-a82e-8f90e72456ef"},"vehicle_type_id":"4","last_reported":1700730456,"current_range_meters":22800,"station_id":"ce4bhbh2rcd13ifvqepg","pricing_plan_id":"free"},{"bike_id":"e2284003-4e46-4e0a-93e7-73d05c3666d9","system_id":"levelo_inurba_marseille","lat":43.334934,"lon":5.398005,"is_reserved":false,"is_disabled":false,"rental_uris":{"android":"levelo://app?vid=e2284003-4e46-4e0a-93e7-73d05c3666d9","ios":"levelo://app?vid=e2284003-4e46-4e0a-93e7-73d05c3666d9"},"vehicle_type_id":"4","last_reported":1700730456,"current_range_meters":26400,"station_id":"","pricing_plan_id":"free"},{"bike_id":"9f406700-c6fa-44c2-b209-2e781c68762e","system_id":"levelo_inurba_marseille","lat":43.28627,"lon":5.39143,"is_reserved":false,"is_disabled":false,"rental_uris":{"android":"levelo://app?vid=9f406700-c6fa-44c2-b209-2e781c68762e","ios":"levelo://app?vid=9f406700-c6fa-44c2-b209-2e781c68762e"},"vehicle_type_id":"4","last_reported":1700730456,"current_range_meters":8800,"station_id":"","pricing_plan_id":"free"},{"bike_id":"94fd903f-4ff8-40f2-b55c-e371c6a9058b","system_id":"levelo_inurba_marseille","lat":43.292724,"lon":5.401131,"is_reserved":false,"is_disabled":false,"rental_uris":{"android":"levelo://app?vid=94fd903f-4ff8-40f2-b55c-e371c6a9058b","ios":"levelo://app?vid=94fd903f-4ff8-40f2-b55c-e371c6a9058b"},"vehicle_type_id":"4","last_reported":1700730456,"current_range_meters":17200,"station_id":"ce4bh312rcd13ifvqdk0","pricing_plan_id":"free"},{"bike_id":"00ba27f4-869a-418e-96e1-a1164b561822","system_id":"levelo_inurba_marseille","lat":43.292724,"lon":5.401131,"is_reserved":false,"is_disabled":false,"rental_uris":{"android":"levelo://app?vid=00ba27f4-869a-418e-96e1-a1164b561822","ios":"levelo://app?vid=00ba27f4-869a-418e-96e1-a1164b561822"},"vehicle_type_id":"4","last_reported":1700730456,"current_range_meters":11200,"station_id":"ce4bh312rcd13ifvqdk0","pricing_plan_id":"free"},{"bike_id":"f681bd14-aaa9-4422-82b9-a99502217460","system_id":"levelo_inurba_marseille","lat":43.29065,"lon":5.39931,"is_reserved":false,"is_disabled":false,"rental_uris":{"android":"levelo://app?vid=f681bd14-aaa9-4422-82b9-a99502217460","ios":"levelo://app?vid=f681bd14-aaa9-4422-82b9-a99502217460"},"vehicle_type_id":"4","last_reported":1700730456,"current_range_meters":10800,"station_id":"ce4bh392rcd13ifvqdm0","pricing_plan_id":"free"},{"bike_id":"f428d424-8a89-4bc6-9997-3ec8c3509c62","system_id":"levelo_inurba_marseille","lat":43.281044,"lon":5.378308,"is_reserved":false,"is_disabled":false,"rental_uris":{"android":"levelo://app?vid=f428d424-8a89-4bc6-9997-3ec8c3509c62","ios":"levelo://app?vid=f428d424-8a89-4bc6-9997-3ec8c3509c62"},"vehicle_type_id":"4","last_reported":1700730456,"current_range_meters":11600,"station_id":"ce4bha12rcd13ifvqee0","pricing_plan_id":"free"},{"bike_id":"921c0761-ad50-4f7a-bcc0-531d3dd1e044","system_id":"levelo_inurba_marseille","lat":43.290412,"lon":5.399633,"is_reserved":false,"is_disabled":false,"rental_uris":{"android":"levelo://app?vid=921c0761-ad50-4f7a-bcc0-531d3dd1e044","ios":"levelo://app?vid=921c0761-ad50-4f7a-bcc0-531d3dd1e044"},"vehicle_type_id":"4","last_reported":1700730456,"current_range_meters":18400,"station_id":"ce4bh392rcd13ifvqdm0","pricing_plan_id":"free"},{"bike_id":"c06893a5-9094-4976-98ac-0256bfbf4327","system_id":"levelo_inurba_marseille","lat":43.29041,"lon":5.399634,"is_reserved":false,"is_disabled":false,"rental_uris":{"android":"levelo://app?vid=c06893a5-9094-4976-98ac-0256bfbf4327","ios":"levelo://app?vid=c06893a5-9094-4976-98ac-0256bfbf4327"},"vehicle_type_id":"4","last_reported":1700730456,"current_range_meters":8800,"station_id":"ce4bh392rcd13ifvqdm0","pricing_plan_id":"free"},{"bike_id":"6e2c2465-4e40-4aae-912b-ca1fbcdf1978","system_id":"levelo_inurba_marseille","lat":43.32732,"lon":5.40925,"is_reserved":false,"is_disabled":false,"rental_uris":{"android":"levelo://app?vid=6e2c2465-4e40-4aae-912b-ca1fbcdf1978","ios":"levelo://app?vid=6e2c2465-4e40-4aae-912b-ca1fbcdf1978"},"vehicle_type_id":"4","last_reported":1700730456,"current_range_meters":0,"station_id":"","pricing_plan_id":"free"},{"bike_id":"8fcef76d-9052-4314-90fb-0622a0144a5f","system_id":"levelo_inurba_marseille","lat":43.32652,"lon":5.40997,"is_reserved":false,"is_disabled":false,"rental_uris":{"android":"levelo://app?vid=8fcef76d-9052-4314-90fb-0622a0144a5f","ios":"levelo://app?vid=8fcef76d-9052-4314-90fb-0622a0144a5f"},"vehicle_type_id":"4","last_reported":1700730456,"current_range_meters":4400,"station_id":"ce4bhpp2rcd13ifvqhgg","pricing_plan_id":"free"},{"bike_id":"3366fe4e-572e-4d14-ab3d-e1330212dcd9","system_id":"levelo_inurba_marseille","lat":43.30416,"lon":5.41277,"is_reserved":false,"is_disabled":false,"rental_uris":{"android":"levelo://app?vid=3366fe4e-572e-4d14-ab3d-e1330212dcd9","ios":"levelo://app?vid=3366fe4e-572e-4d14-ab3d-e1330212dcd9"},"vehicle_type_id":"4","last_reported":1700730456,"current_range_meters":22000,"station_id":"ce4bhop2rcd13ifvqh8g","pricing_plan_id":"free"},{"bike_id":"b1300429-6a20-4968-b3fa-8733204674c4","system_id":"levelo_inurba_marseille","lat":43.287154,"lon":5.399979,"is_reserved":false,"is_disabled":false,"rental_uris":{"android":"levelo://app?vid=b1300429-6a20-4968-b3fa-8733204674c4","ios":"levelo://app?vid=b1300429-6a20-4968-b3fa-8733204674c4"},"vehicle_type_id":"4","last_reported":1700730456,"current_range_meters":2800,"station_id":"ce4bho92rcd13ifvqh3g","pricing_plan_id":"free"},{"bike_id":"fab00a4d-6022-47e0-96e1-29e9fd808385","system_id":"levelo_inurba_marseille","lat":43.287154,"lon":5.399979,"is_reserved":false,"is_disabled":false,"rental_uris":{"android":"levelo://app?vid=fab00a4d-6022-47e0-96e1-29e9fd808385","ios":"levelo://app?vid=fab00a4d-6022-47e0-96e1-29e9fd808385"},"vehicle_type_id":"4","last_reported":1700730456,"current_range_meters":10000,"station_id":"ce4bho92rcd13ifvqh3g","pricing_plan_id":"free"},{"bike_id":"9633279c-588e-46aa-9fe5-f482df5f880a","system_id":"levelo_inurba_marseille","lat":43.287154,"lon":5.399979,"is_reserved":false,"is_disabled":false,"rental_uris":{"android":"levelo://app?vid=9633279c-588e-46aa-9fe5-f482df5f880a","ios":"levelo://app?vid=9633279c-588e-46aa-9fe5-f482df5f880a"},"vehicle_type_id":"4","last_reported":1700730456,"current_range_meters":5200,"station_id":"ce4bho92rcd13ifvqh3g","pricing_plan_id":"free"},{"bike_id":"a8e2b52b-9ba9-4b70-bcb4-1e1ad46ab6fe","system_id":"levelo_inurba_marseille","lat":43.299579,"lon":5.413255,"is_reserved":false,"is_disabled":false,"rental_uris":{"android":"levelo://app?vid=a8e2b52b-9ba9-4b70-bcb4-1e1ad46ab6fe","ios":"levelo://app?vid=a8e2b52b-9ba9-4b70-bcb4-1e1ad46ab6fe"},"vehicle_type_id":"4","last_reported":1700730456,"current_range_meters":28800,"station_id":"ce4bhp12rcd13ifvqh9g","pricing_plan_id":"free"},{"bike_id":"cf7c6503-d761-4e4a-b826-f55f74848caf","system_id":"levelo_inurba_marseille","lat":43.34881,"lon":5.37504,"is_reserved":false,"is_disabled":false,"rental_uris":{"android":"levelo://app?vid=cf7c6503-d761-4e4a-b826-f55f74848caf","ios":"levelo://app?vid=cf7c6503-d761-4e4a-b826-f55f74848caf"},"vehicle_type_id":"4","last_reported":1700730456,"current_range_meters":2400,"station_id":"","pricing_plan_id":"free"},{"bike_id":"04f843cd-71af-4fe8-9edb-4ef523337c4d","system_id":"levelo_inurba_marseille","lat":43.325233,"lon":5.414318,"is_reserved":false,"is_disabled":false,"rental_uris":{"android":"levelo://app?vid=04f843cd-71af-4fe8-9edb-4ef523337c4d","ios":"levelo://app?vid=04f843cd-71af-4fe8-9edb-4ef523337c4d"},"vehicle_type_id":"4","last_reported":1700730456,"current_range_meters":31600,"station_id":"ce4bhq12rcd13ifvqhhg","pricing_plan_id":"free"},{"bike_id":"289c6197-1401-41ea-8f4d-d8cecf043038","system_id":"levelo_inurba_marseille","lat":43.325233,"lon":5.414318,"is_reserved":false,"is_disabled":false,"rental_uris":{"android":"levelo://app?vid=289c6197-1401-41ea-8f4d-d8cecf043038","ios":"levelo://app?vid=289c6197-1401-41ea-8f4d-d8cecf043038"},"vehicle_type_id":"4","last_reported":1700730456,"current_range_meters":13200,"station_id":"ce4bhq12rcd13ifvqhhg","pricing_plan_id":"free"},{"bike_id":"2b58ba04-70de-4c10-8688-6782d259c560","system_id":"levelo_inurba_marseille","lat":43.325243,"lon":5.414326,"is_reserved":false,"is_disabled":false,"rental_uris":{"android":"levelo://app?vid=2b58ba04-70de-4c10-8688-6782d259c560","ios":"levelo://app?vid=2b58ba04-70de-4c10-8688-6782d259c560"},"vehicle_type_id":"4","last_reported":1700730456,"current_range_meters":22800,"station_id":"ce4bhq12rcd13ifvqhhg","pricing_plan_id":"free"},{"bike_id":"5c9ed6e6-68cc-4eba-b07e-73a5d0c6f48e","system_id":"levelo_inurba_marseille","lat":43.325233,"lon":5.414318,"is_reserved":false,"is_disabled":false,"rental_uris":{"android":"levelo://app?vid=5c9ed6e6-68cc-4eba-b07e-73a5d0c6f48e","ios":"levelo://app?vid=5c9ed6e6-68cc-4eba-b07e-73a5d0c6f48e"},"vehicle_type_id":"4","last_reported":1700730456,"current_range_meters":30000,"station_id":"ce4bhq12rcd13ifvqhhg","pricing_plan_id":"free"},{"bike_id":"966d9d38-b8bd-4917-bc45-fc3ef11d0753","system_id":"levelo_inurba_marseille","lat":43.325233,"lon":5.414318,"is_reserved":false,"is_disabled":false,"rental_uris":{"android":"levelo://app?vid=966d9d38-b8bd-4917-bc45-fc3ef11d0753","ios":"levelo://app?vid=966d9d38-b8bd-4917-bc45-fc3ef11d0753"},"vehicle_type_id":"4","last_reported":1700730456,"current_range_meters":29200,"station_id":"ce4bhq12rcd13ifvqhhg","pricing_plan_id":"free"},{"bike_id":"c7eaa0f5-fd2d-4444-b91b-0eae32b686a1","system_id":"levelo_inurba_marseille","lat":43.325233,"lon":5.414318,"is_reserved":false,"is_disabled":false,"rental_uris":{"android":"levelo://app?vid=c7eaa0f5-fd2d-4444-b91b-0eae32b686a1","ios":"levelo://app?vid=c7eaa0f5-fd2d-4444-b91b-0eae32b686a1"},"vehicle_type_id":"4","last_reported":1700730456,"current_range_meters":24400,"station_id":"ce4bhq12rcd13ifvqhhg","pricing_plan_id":"free"},{"bike_id":"7346f08b-f154-454c-bf68-309edcc3cb5f","system_id":"levelo_inurba_marseille","lat":43.325243,"lon":5.414326,"is_reserved":false,"is_disabled":false,"rental_uris":{"android":"levelo://app?vid=7346f08b-f154-454c-bf68-309edcc3cb5f","ios":"levelo://app?vid=7346f08b-f154-454c-bf68-309edcc3cb5f"},"vehicle_type_id":"4","last_reported":1700730456,"current_range_meters":29200,"station_id":"ce4bhq12rcd13ifvqhhg","pricing_plan_id":"free"},{"bike_id":"ebf10906-3358-4ea1-9acd-7d3a235e122b","system_id":"levelo_inurba_marseille","lat":43.325243,"lon":5.414326,"is_reserved":false,"is_disabled":false,"rental_uris":{"android":"levelo://app?vid=ebf10906-3358-4ea1-9acd-7d3a235e122b","ios":"levelo://app?vid=ebf10906-3358-4ea1-9acd-7d3a235e122b"},"vehicle_type_id":"4","last_reported":1700730456,"current_range_meters":30800,"station_id":"ce4bhq12rcd13ifvqhhg","pricing_plan_id":"free"},{"bike_id":"d940a1fe-31a6-4cff-ad20-f01260b3a867","system_id":"levelo_inurba_marseille","lat":43.27615,"lon":5.3611,"is_reserved":false,"is_disabled":false,"rental_uris":{"android":"levelo://app?vid=d940a1fe-31a6-4cff-ad20-f01260b3a867","ios":"levelo://app?vid=d940a1fe-31a6-4cff-ad20-f01260b3a867"},"vehicle_type_id":"4","last_reported":1700730456,"current_range_meters":16000,"station_id":"ce4bgj92rcd13ifvqbe0","pricing_plan_id":"free"},{"bike_id":"b7ac39b6-0363-4b0d-8bbc-9456cc5cf31a","system_id":"levelo_inurba_marseille","lat":43.303837,"lon":5.418724,"is_reserved":false,"is_disabled":false,"rental_uris":{"android":"levelo://app?vid=b7ac39b6-0363-4b0d-8bbc-9456cc5cf31a","ios":"levelo://app?vid=b7ac39b6-0363-4b0d-8bbc-9456cc5cf31a"},"vehicle_type_id":"4","last_reported":1700730456,"current_range_meters":24400,"station_id":"ce4bhop2rcd13ifvqh7g","pricing_plan_id":"free"},{"bike_id":"6d6edf36-024b-4db7-a160-875bef41ad2d","system_id":"levelo_inurba_marseille","lat":43.33612,"lon":5.410321,"is_reserved":false,"is_disabled":false,"rental_uris":{"android":"levelo://app?vid=6d6edf36-024b-4db7-a160-875bef41ad2d","ios":"levelo://app?vid=6d6edf36-024b-4db7-a160-875bef41ad2d"},"vehicle_type_id":"4","last_reported":1700730456,"current_range_meters":13600,"station_id":"ce4bhqh2rcd13ifvqhmg","pricing_plan_id":"free"},{"bike_id":"e300bf08-19af-4c2e-84c4-b7c75c51a078","system_id":"levelo_inurba_marseille","lat":43.336134,"lon":5.410341,"is_reserved":false,"is_disabled":false,"rental_uris":{"android":"levelo://app?vid=e300bf08-19af-4c2e-84c4-b7c75c51a078","ios":"levelo://app?vid=e300bf08-19af-4c2e-84c4-b7c75c51a078"},"vehicle_type_id":"4","last_reported":1700730456,"current_range_meters":12800,"station_id":"ce4bhqh2rcd13ifvqhmg","pricing_plan_id":"free"},{"bike_id":"0f878572-95f8-4aec-b99c-7e74d1790201","system_id":"levelo_inurba_marseille","lat":43.278399,"lon":5.392139,"is_reserved":false,"is_disabled":false,"rental_uris":{"android":"levelo://app?vid=0f878572-95f8-4aec-b99c-7e74d1790201","ios":"levelo://app?vid=0f878572-95f8-4aec-b99c-7e74d1790201"},"vehicle_type_id":"4","last_reported":1700730456,"current_range_meters":24400,"station_id":"ce4bhjp2rcd13ifvqga0","pricing_plan_id":"free"},{"bike_id":"7d57aa56-50d4-4350-9910-302dea93bce6","system_id":"levelo_inurba_marseille","lat":43.273613,"lon":5.362705,"is_reserved":false,"is_disabled":false,"rental_uris":{"android":"levelo://app?vid=7d57aa56-50d4-4350-9910-302dea93bce6","ios":"levelo://app?vid=7d57aa56-50d4-4350-9910-302dea93bce6"},"vehicle_type_id":"4","last_reported":1700730456,"current_range_meters":14400,"station_id":"ce4bhbh2rcd13ifvqeo0","pricing_plan_id":"free"},{"bike_id":"efde4b18-b55f-49f4-8653-0eea2a382185","system_id":"levelo_inurba_marseille","lat":43.275625,"lon":5.384392,"is_reserved":false,"is_disabled":false,"rental_uris":{"android":"levelo://app?vid=efde4b18-b55f-49f4-8653-0eea2a382185","ios":"levelo://app?vid=efde4b18-b55f-49f4-8653-0eea2a382185"},"vehicle_type_id":"4","last_reported":1700730456,"current_range_meters":4400,"station_id":"ce4bhh92rcd13ifvqfi0","pricing_plan_id":"free"},{"bike_id":"f3c5723d-0972-4fbf-b72e-7c6590dbccdd","system_id":"levelo_inurba_marseille","lat":43.33612,"lon":5.410321,"is_reserved":false,"is_disabled":false,"rental_uris":{"android":"levelo://app?vid=f3c5723d-0972-4fbf-b72e-7c6590dbccdd","ios":"levelo://app?vid=f3c5723d-0972-4fbf-b72e-7c6590dbccdd"},"vehicle_type_id":"4","last_reported":1700730456,"current_range_meters":31600,"station_id":"ce4bhqh2rcd13ifvqhmg","pricing_plan_id":"free"},{"bike_id":"b96ce40d-4b55-434c-b45f-be321f659a41","system_id":"levelo_inurba_marseille","lat":43.33612,"lon":5.410321,"is_reserved":false,"is_disabled":false,"rental_uris":{"android":"levelo://app?vid=b96ce40d-4b55-434c-b45f-be321f659a41","ios":"levelo://app?vid=b96ce40d-4b55-434c-b45f-be321f659a41"},"vehicle_type_id":"4","last_reported":1700730456,"current_range_meters":1200,"station_id":"ce4bhqh2rcd13ifvqhmg","pricing_plan_id":"free"},{"bike_id":"ee3ef0a6-3184-4091-9d85-4e62871a385d","system_id":"levelo_inurba_marseille","lat":43.336134,"lon":5.410341,"is_reserved":false,"is_disabled":false,"rental_uris":{"android":"levelo://app?vid=ee3ef0a6-3184-4091-9d85-4e62871a385d","ios":"levelo://app?vid=ee3ef0a6-3184-4091-9d85-4e62871a385d"},"vehicle_type_id":"4","last_reported":1700730456,"current_range_meters":22800,"station_id":"ce4bhqh2rcd13ifvqhmg","pricing_plan_id":"free"},{"bike_id":"062b71ad-7856-47f5-9834-706bb6bb8fe8","system_id":"levelo_inurba_marseille","lat":43.33612,"lon":5.410321,"is_reserved":false,"is_disabled":false,"rental_uris":{"android":"levelo://app?vid=062b71ad-7856-47f5-9834-706bb6bb8fe8","ios":"levelo://app?vid=062b71ad-7856-47f5-9834-706bb6bb8fe8"},"vehicle_type_id":"4","last_reported":1700730456,"current_range_meters":31600,"station_id":"ce4bhqh2rcd13ifvqhmg","pricing_plan_id":"free"},{"bike_id":"1940fe7b-7fc0-4d54-a068-eb7f40fc7cf8","system_id":"levelo_inurba_marseille","lat":43.336134,"lon":5.410341,"is_reserved":false,"is_disabled":false,"rental_uris":{"android":"levelo://app?vid=1940fe7b-7fc0-4d54-a068-eb7f40fc7cf8","ios":"levelo://app?vid=1940fe7b-7fc0-4d54-a068-eb7f40fc7cf8"},"vehicle_type_id":"4","last_reported":1700730456,"current_range_meters":24400,"station_id":"ce4bhqh2rcd13ifvqhmg","pricing_plan_id":"free"},{"bike_id":"9e77b47b-6a29-4645-bc07-ba9d9de5680e","system_id":"levelo_inurba_marseille","lat":43.276771,"lon":5.388799,"is_reserved":false,"is_disabled":false,"rental_uris":{"android":"levelo://app?vid=9e77b47b-6a29-4645-bc07-ba9d9de5680e","ios":"levelo://app?vid=9e77b47b-6a29-4645-bc07-ba9d9de5680e"},"vehicle_type_id":"4","last_reported":1700730456,"current_range_meters":19600,"station_id":"ce4bhi12rcd13ifvqfo0","pricing_plan_id":"free"},{"bike_id":"354b9ddc-e602-489c-a4d8-aad3ec754a7a","system_id":"levelo_inurba_marseille","lat":43.31079,"lon":5.42434,"is_reserved":false,"is_disabled":false,"rental_uris":{"android":"levelo://app?vid=354b9ddc-e602-489c-a4d8-aad3ec754a7a","ios":"levelo://app?vid=354b9ddc-e602-489c-a4d8-aad3ec754a7a"},"vehicle_type_id":"4","last_reported":1700730456,"current_range_meters":0,"station_id":"ce4bhp92rcd13ifvqhag","pricing_plan_id":"free"},{"bike_id":"53f83617-2581-46fb-84d9-ddbbc155dbf0","system_id":"levelo_inurba_marseille","lat":43.340804,"lon":5.410219,"is_reserved":false,"is_disabled":false,"rental_uris":{"android":"levelo://app?vid=53f83617-2581-46fb-84d9-ddbbc155dbf0","ios":"levelo://app?vid=53f83617-2581-46fb-84d9-ddbbc155dbf0"},"vehicle_type_id":"4","last_reported":1700730456,"current_range_meters":18800,"station_id":"ce4bhqh2rcd13ifvqhlg","pricing_plan_id":"free"},{"bike_id":"76fa5abf-79a2-4464-8bb6-5e54d877e56d","system_id":"levelo_inurba_marseille","lat":43.340804,"lon":5.410219,"is_reserved":false,"is_disabled":false,"rental_uris":{"android":"levelo://app?vid=76fa5abf-79a2-4464-8bb6-5e54d877e56d","ios":"levelo://app?vid=76fa5abf-79a2-4464-8bb6-5e54d877e56d"},"vehicle_type_id":"4","last_reported":1700730456,"current_range_meters":21200,"station_id":"ce4bhqh2rcd13ifvqhlg","pricing_plan_id":"free"},{"bike_id":"03ebf63d-8006-4f9c-8659-41fb9f27cef7","system_id":"levelo_inurba_marseille","lat":43.340804,"lon":5.410219,"is_reserved":false,"is_disabled":false,"rental_uris":{"android":"levelo://app?vid=03ebf63d-8006-4f9c-8659-41fb9f27cef7","ios":"levelo://app?vid=03ebf63d-8006-4f9c-8659-41fb9f27cef7"},"vehicle_type_id":"4","last_reported":1700730456,"current_range_meters":13600,"station_id":"ce4bhqh2rcd13ifvqhlg","pricing_plan_id":"free"},{"bike_id":"4764a987-9566-4d87-9428-2c8a7a0f362a","system_id":"levelo_inurba_marseille","lat":43.340804,"lon":5.410219,"is_reserved":false,"is_disabled":false,"rental_uris":{"android":"levelo://app?vid=4764a987-9566-4d87-9428-2c8a7a0f362a","ios":"levelo://app?vid=4764a987-9566-4d87-9428-2c8a7a0f362a"},"vehicle_type_id":"4","last_reported":1700730456,"current_range_meters":8000,"station_id":"ce4bhqh2rcd13ifvqhlg","pricing_plan_id":"free"},{"bike_id":"44c5f1dc-fe28-4f96-b446-f53c575eb94d","system_id":"levelo_inurba_marseille","lat":43.340804,"lon":5.410219,"is_reserved":false,"is_disabled":false,"rental_uris":{"android":"levelo://app?vid=44c5f1dc-fe28-4f96-b446-f53c575eb94d","ios":"levelo://app?vid=44c5f1dc-fe28-4f96-b446-f53c575eb94d"},"vehicle_type_id":"4","last_reported":1700730456,"current_range_meters":14400,"station_id":"ce4bhqh2rcd13ifvqhlg","pricing_plan_id":"free"},{"bike_id":"2d000dd4-4316-4444-ac5d-97705b475726","system_id":"levelo_inurba_marseille","lat":43.274099,"lon":5.394019,"is_reserved":false,"is_disabled":false,"rental_uris":{"android":"levelo://app?vid=2d000dd4-4316-4444-ac5d-97705b475726","ios":"levelo://app?vid=2d000dd4-4316-4444-ac5d-97705b475726"},"vehicle_type_id":"4","last_reported":1700730456,"current_range_meters":31200,"station_id":"ce4bhdp2rcd13ifvqf20","pricing_plan_id":"free"},{"bike_id":"67fdf8a7-2cb5-4340-a016-75f1d722f64b","system_id":"levelo_inurba_marseille","lat":43.304088,"lon":5.425388,"is_reserved":false,"is_disabled":false,"rental_uris":{"android":"levelo://app?vid=67fdf8a7-2cb5-4340-a016-75f1d722f64b","ios":"levelo://app?vid=67fdf8a7-2cb5-4340-a016-75f1d722f64b"},"vehicle_type_id":"4","last_reported":1700730456,"current_range_meters":16400,"station_id":"ce4bhoh2rcd13ifvqh6g","pricing_plan_id":"free"},{"bike_id":"d1820a73-c82c-4548-962d-9a3cf1995750","system_id":"levelo_inurba_marseille","lat":43.295511,"lon":5.422926,"is_reserved":false,"is_disabled":false,"rental_uris":{"android":"levelo://app?vid=d1820a73-c82c-4548-962d-9a3cf1995750","ios":"levelo://app?vid=d1820a73-c82c-4548-962d-9a3cf1995750"},"vehicle_type_id":"4","last_reported":1700730456,"current_range_meters":21600,"station_id":"ce4bhph2rcd13ifvqhdg","pricing_plan_id":"free"},{"bike_id":"db0391d8-7990-45f1-937e-df14d65304fc","system_id":"levelo_inurba_marseille","lat":43.295511,"lon":5.422926,"is_reserved":false,"is_disabled":false,"rental_uris":{"android":"levelo://app?vid=db0391d8-7990-45f1-937e-df14d65304fc","ios":"levelo://app?vid=db0391d8-7990-45f1-937e-df14d65304fc"},"vehicle_type_id":"4","last_reported":1700730456,"current_range_meters":19200,"station_id":"ce4bhph2rcd13ifvqhdg","pricing_plan_id":"free"},{"bike_id":"d0bb53f7-f1b8-4609-a668-27efdac67f66","system_id":"levelo_inurba_marseille","lat":43.27189,"lon":5.39257,"is_reserved":false,"is_disabled":false,"rental_uris":{"android":"levelo://app?vid=d0bb53f7-f1b8-4609-a668-27efdac67f66","ios":"levelo://app?vid=d0bb53f7-f1b8-4609-a668-27efdac67f66"},"vehicle_type_id":"4","last_reported":1700730456,"current_range_meters":0,"station_id":"","pricing_plan_id":"free"},{"bike_id":"2cb1361c-c2fb-4220-aea3-8ac642213548","system_id":"levelo_inurba_marseille","lat":43.278083,"lon":5.407089,"is_reserved":false,"is_disabled":false,"rental_uris":{"android":"levelo://app?vid=2cb1361c-c2fb-4220-aea3-8ac642213548","ios":"levelo://app?vid=2cb1361c-c2fb-4220-aea3-8ac642213548"},"vehicle_type_id":"4","last_reported":1700730456,"current_range_meters":19600,"station_id":"ce4bhnh2rcd13ifvqgtg","pricing_plan_id":"free"},{"bike_id":"0eb62063-80c5-43ac-b393-0b5c91d8a3d1","system_id":"levelo_inurba_marseille","lat":43.269562,"lon":5.386283,"is_reserved":false,"is_disabled":false,"rental_uris":{"android":"levelo://app?vid=0eb62063-80c5-43ac-b393-0b5c91d8a3d1","ios":"levelo://app?vid=0eb62063-80c5-43ac-b393-0b5c91d8a3d1"},"vehicle_type_id":"4","last_reported":1700730456,"current_range_meters":22000,"station_id":"ce4bhh92rcd13ifvqfh0","pricing_plan_id":"free"},{"bike_id":"e785c681-8279-4c83-b064-83c2e3a32ca5","system_id":"levelo_inurba_marseille","lat":43.26952,"lon":5.38627,"is_reserved":false,"is_disabled":false,"rental_uris":{"android":"levelo://app?vid=e785c681-8279-4c83-b064-83c2e3a32ca5","ios":"levelo://app?vid=e785c681-8279-4c83-b064-83c2e3a32ca5"},"vehicle_type_id":"4","last_reported":1700730456,"current_range_meters":28400,"station_id":"ce4bhh92rcd13ifvqfh0","pricing_plan_id":"free"},{"bike_id":"f0336b8e-a305-4012-997b-1b0b7500cb9a","system_id":"levelo_inurba_marseille","lat":43.269467,"lon":5.386439,"is_reserved":false,"is_disabled":false,"rental_uris":{"android":"levelo://app?vid=f0336b8e-a305-4012-997b-1b0b7500cb9a","ios":"levelo://app?vid=f0336b8e-a305-4012-997b-1b0b7500cb9a"},"vehicle_type_id":"4","last_reported":1700730456,"current_range_meters":23600,"station_id":"ce4bhh92rcd13ifvqfh0","pricing_plan_id":"free"},{"bike_id":"e9a11266-c42d-47e3-a60e-0167a3614f20","system_id":"levelo_inurba_marseille","lat":43.269467,"lon":5.386439,"is_reserved":false,"is_disabled":false,"rental_uris":{"android":"levelo://app?vid=e9a11266-c42d-47e3-a60e-0167a3614f20","ios":"levelo://app?vid=e9a11266-c42d-47e3-a60e-0167a3614f20"},"vehicle_type_id":"4","last_reported":1700730456,"current_range_meters":21600,"station_id":"ce4bhh92rcd13ifvqfh0","pricing_plan_id":"free"},{"bike_id":"726331a5-381b-412f-81a3-73fe2711066a","system_id":"levelo_inurba_marseille","lat":43.26948,"lon":5.38634,"is_reserved":false,"is_disabled":false,"rental_uris":{"android":"levelo://app?vid=726331a5-381b-412f-81a3-73fe2711066a","ios":"levelo://app?vid=726331a5-381b-412f-81a3-73fe2711066a"},"vehicle_type_id":"4","last_reported":1700730456,"current_range_meters":30000,"station_id":"ce4bhh92rcd13ifvqfh0","pricing_plan_id":"free"},{"bike_id":"bbcc153a-9992-465e-959f-f3cca6a8d274","system_id":"levelo_inurba_marseille","lat":43.269467,"lon":5.386439,"is_reserved":false,"is_disabled":false,"rental_uris":{"android":"levelo://app?vid=bbcc153a-9992-465e-959f-f3cca6a8d274","ios":"levelo://app?vid=bbcc153a-9992-465e-959f-f3cca6a8d274"},"vehicle_type_id":"4","last_reported":1700730456,"current_range_meters":24800,"station_id":"ce4bhh92rcd13ifvqfh0","pricing_plan_id":"free"},{"bike_id":"ff42b85f-c2f3-4d5a-b914-918067780913","system_id":"levelo_inurba_marseille","lat":43.279465,"lon":5.410561,"is_reserved":false,"is_disabled":false,"rental_uris":{"android":"levelo://app?vid=ff42b85f-c2f3-4d5a-b914-918067780913","ios":"levelo://app?vid=ff42b85f-c2f3-4d5a-b914-918067780913"},"vehicle_type_id":"4","last_reported":1700730456,"current_range_meters":5200,"station_id":"ce4bhnp2rcd13ifvqh0g","pricing_plan_id":"free"},{"bike_id":"5139907c-bdb7-4256-9e11-9f8c0ce042a3","system_id":"levelo_inurba_marseille","lat":43.269319,"lon":5.389397,"is_reserved":false,"is_disabled":false,"rental_uris":{"android":"levelo://app?vid=5139907c-bdb7-4256-9e11-9f8c0ce042a3","ios":"levelo://app?vid=5139907c-bdb7-4256-9e11-9f8c0ce042a3"},"vehicle_type_id":"4","last_reported":1700730456,"current_range_meters":7200,"station_id":"ce4bhhh2rcd13ifvqfl0","pricing_plan_id":"free"},{"bike_id":"964667e6-f8e8-42b8-b3c4-a46a34dc2a14","system_id":"levelo_inurba_marseille","lat":43.26971,"lon":5.39242,"is_reserved":false,"is_disabled":false,"rental_uris":{"android":"levelo://app?vid=964667e6-f8e8-42b8-b3c4-a46a34dc2a14","ios":"levelo://app?vid=964667e6-f8e8-42b8-b3c4-a46a34dc2a14"},"vehicle_type_id":"4","last_reported":1700730456,"current_range_meters":12400,"station_id":"","pricing_plan_id":"free"},{"bike_id":"5bef9d0c-1e7e-4847-a32b-8337639c3ca5","system_id":"levelo_inurba_marseille","lat":43.26681,"lon":5.382694,"is_reserved":false,"is_disabled":false,"rental_uris":{"android":"levelo://app?vid=5bef9d0c-1e7e-4847-a32b-8337639c3ca5","ios":"levelo://app?vid=5bef9d0c-1e7e-4847-a32b-8337639c3ca5"},"vehicle_type_id":"4","last_reported":1700730456,"current_range_meters":12000,"station_id":"ce4bhg92rcd13ifvqf90","pricing_plan_id":"free"},{"bike_id":"7194db7f-719f-4593-a769-0fac5d902c83","system_id":"levelo_inurba_marseille","lat":43.26681,"lon":5.382694,"is_reserved":false,"is_disabled":false,"rental_uris":{"android":"levelo://app?vid=7194db7f-719f-4593-a769-0fac5d902c83","ios":"levelo://app?vid=7194db7f-719f-4593-a769-0fac5d902c83"},"vehicle_type_id":"4","last_reported":1700730456,"current_range_meters":26400,"station_id":"ce4bhg92rcd13ifvqf90","pricing_plan_id":"free"},{"bike_id":"7e30e4e7-3220-436a-9c85-43c6731c0ca3","system_id":"levelo_inurba_marseille","lat":43.26681,"lon":5.382694,"is_reserved":false,"is_disabled":false,"rental_uris":{"android":"levelo://app?vid=7e30e4e7-3220-436a-9c85-43c6731c0ca3","ios":"levelo://app?vid=7e30e4e7-3220-436a-9c85-43c6731c0ca3"},"vehicle_type_id":"4","last_reported":1700730456,"current_range_meters":20000,"station_id":"ce4bhg92rcd13ifvqf90","pricing_plan_id":"free"},{"bike_id":"6c18f74c-e868-4917-8901-ea7e8581741d","system_id":"levelo_inurba_marseille","lat":43.26681,"lon":5.382694,"is_reserved":false,"is_disabled":false,"rental_uris":{"android":"levelo://app?vid=6c18f74c-e868-4917-8901-ea7e8581741d","ios":"levelo://app?vid=6c18f74c-e868-4917-8901-ea7e8581741d"},"vehicle_type_id":"4","last_reported":1700730456,"current_range_meters":18000,"station_id":"ce4bhg92rcd13ifvqf90","pricing_plan_id":"free"},{"bike_id":"27ce5d61-ee73-4565-bdf0-5f8f3201a5e6","system_id":"levelo_inurba_marseille","lat":43.26681,"lon":5.382694,"is_reserved":false,"is_disabled":false,"rental_uris":{"android":"levelo://app?vid=27ce5d61-ee73-4565-bdf0-5f8f3201a5e6","ios":"levelo://app?vid=27ce5d61-ee73-4565-bdf0-5f8f3201a5e6"},"vehicle_type_id":"4","last_reported":1700730456,"current_range_meters":3200,"station_id":"ce4bhg92rcd13ifvqf90","pricing_plan_id":"free"},{"bike_id":"8db7c29e-7357-42df-9373-8c7381809241","system_id":"levelo_inurba_marseille","lat":43.26681,"lon":5.382694,"is_reserved":false,"is_disabled":false,"rental_uris":{"android":"levelo://app?vid=8db7c29e-7357-42df-9373-8c7381809241","ios":"levelo://app?vid=8db7c29e-7357-42df-9373-8c7381809241"},"vehicle_type_id":"4","last_reported":1700730456,"current_range_meters":0,"station_id":"ce4bhg92rcd13ifvqf90","pricing_plan_id":"free"},{"bike_id":"5f6fe231-8687-402c-960d-790de758e194","system_id":"levelo_inurba_marseille","lat":43.26681,"lon":5.382694,"is_reserved":false,"is_disabled":false,"rental_uris":{"android":"levelo://app?vid=5f6fe231-8687-402c-960d-790de758e194","ios":"levelo://app?vid=5f6fe231-8687-402c-960d-790de758e194"},"vehicle_type_id":"4","last_reported":1700730456,"current_range_meters":26400,"station_id":"ce4bhg92rcd13ifvqf90","pricing_plan_id":"free"},{"bike_id":"526cd2a2-37f8-45eb-9c91-6a71b182c84f","system_id":"levelo_inurba_marseille","lat":43.2668,"lon":5.38268,"is_reserved":false,"is_disabled":false,"rental_uris":{"android":"levelo://app?vid=526cd2a2-37f8-45eb-9c91-6a71b182c84f","ios":"levelo://app?vid=526cd2a2-37f8-45eb-9c91-6a71b182c84f"},"vehicle_type_id":"4","last_reported":1700730456,"current_range_meters":24800,"station_id":"ce4bhg92rcd13ifvqf90","pricing_plan_id":"free"},{"bike_id":"ec9bb202-232b-4ca7-8388-6ca6f3ab3904","system_id":"levelo_inurba_marseille","lat":43.2668,"lon":5.3827,"is_reserved":false,"is_disabled":false,"rental_uris":{"android":"levelo://app?vid=ec9bb202-232b-4ca7-8388-6ca6f3ab3904","ios":"levelo://app?vid=ec9bb202-232b-4ca7-8388-6ca6f3ab3904"},"vehicle_type_id":"4","last_reported":1700730456,"current_range_meters":29200,"station_id":"ce4bhg92rcd13ifvqf90","pricing_plan_id":"free"},{"bike_id":"1d100b09-c198-44de-a313-73f119100c42","system_id":"levelo_inurba_marseille","lat":43.26681,"lon":5.382694,"is_reserved":false,"is_disabled":false,"rental_uris":{"android":"levelo://app?vid=1d100b09-c198-44de-a313-73f119100c42","ios":"levelo://app?vid=1d100b09-c198-44de-a313-73f119100c42"},"vehicle_type_id":"4","last_reported":1700730456,"current_range_meters":18800,"station_id":"ce4bhg92rcd13ifvqf90","pricing_plan_id":"free"},{"bike_id":"ab1ecf2e-d30a-4376-b39d-d3a4d73d26f5","system_id":"levelo_inurba_marseille","lat":43.26557,"lon":5.37283,"is_reserved":false,"is_disabled":false,"rental_uris":{"android":"levelo://app?vid=ab1ecf2e-d30a-4376-b39d-d3a4d73d26f5","ios":"levelo://app?vid=ab1ecf2e-d30a-4376-b39d-d3a4d73d26f5"},"vehicle_type_id":"4","last_reported":1700730456,"current_range_meters":7600,"station_id":"ce4bhg12rcd13ifvqf70","pricing_plan_id":"free"},{"bike_id":"8ad24fb6-7255-4f55-987d-f912c5ab4fd6","system_id":"levelo_inurba_marseille","lat":43.26681,"lon":5.382694,"is_reserved":false,"is_disabled":false,"rental_uris":{"android":"levelo://app?vid=8ad24fb6-7255-4f55-987d-f912c5ab4fd6","ios":"levelo://app?vid=8ad24fb6-7255-4f55-987d-f912c5ab4fd6"},"vehicle_type_id":"4","last_reported":1700730456,"current_range_meters":29600,"station_id":"ce4bhg92rcd13ifvqf90","pricing_plan_id":"free"},{"bike_id":"4585e029-de4f-4767-8a55-b83e77ddd939","system_id":"levelo_inurba_marseille","lat":43.265562,"lon":5.372838,"is_reserved":false,"is_disabled":false,"rental_uris":{"android":"levelo://app?vid=4585e029-de4f-4767-8a55-b83e77ddd939","ios":"levelo://app?vid=4585e029-de4f-4767-8a55-b83e77ddd939"},"vehicle_type_id":"4","last_reported":1700730456,"current_range_meters":7200,"station_id":"ce4bhg12rcd13ifvqf70","pricing_plan_id":"free"},{"bike_id":"6d80c712-2bde-477a-8a83-9927cec74d54","system_id":"levelo_inurba_marseille","lat":43.26677,"lon":5.38272,"is_reserved":false,"is_disabled":false,"rental_uris":{"android":"levelo://app?vid=6d80c712-2bde-477a-8a83-9927cec74d54","ios":"levelo://app?vid=6d80c712-2bde-477a-8a83-9927cec74d54"},"vehicle_type_id":"4","last_reported":1700730456,"current_range_meters":28400,"station_id":"ce4bhg92rcd13ifvqf90","pricing_plan_id":"free"},{"bike_id":"28e8ce00-6b21-4e06-9930-c7c4408cc650","system_id":"levelo_inurba_marseille","lat":43.326174,"lon":5.430584,"is_reserved":false,"is_disabled":false,"rental_uris":{"android":"levelo://app?vid=28e8ce00-6b21-4e06-9930-c7c4408cc650","ios":"levelo://app?vid=28e8ce00-6b21-4e06-9930-c7c4408cc650"},"vehicle_type_id":"4","last_reported":1700730456,"current_range_meters":3600,"station_id":"","pricing_plan_id":"free"},{"bike_id":"84d6ec5a-6c37-439d-af18-a16e56e50b19","system_id":"levelo_inurba_marseille","lat":43.267966,"lon":5.393976,"is_reserved":false,"is_disabled":false,"rental_uris":{"android":"levelo://app?vid=84d6ec5a-6c37-439d-af18-a16e56e50b19","ios":"levelo://app?vid=84d6ec5a-6c37-439d-af18-a16e56e50b19"},"vehicle_type_id":"4","last_reported":1700730456,"current_range_meters":4000,"station_id":"ce4bhh12rcd13ifvqfg0","pricing_plan_id":"free"},{"bike_id":"c2d4a234-5d89-4e0b-9155-659d9e397f0f","system_id":"levelo_inurba_marseille","lat":43.265714,"lon":5.372891,"is_reserved":false,"is_disabled":false,"rental_uris":{"android":"levelo://app?vid=c2d4a234-5d89-4e0b-9155-659d9e397f0f","ios":"levelo://app?vid=c2d4a234-5d89-4e0b-9155-659d9e397f0f"},"vehicle_type_id":"4","last_reported":1700730456,"current_range_meters":26000,"station_id":"ce4bhg12rcd13ifvqf70","pricing_plan_id":"free"},{"bike_id":"b40b35cb-4a3a-44b1-b17b-85d162b699b7","system_id":"levelo_inurba_marseille","lat":43.265714,"lon":5.372891,"is_reserved":false,"is_disabled":false,"rental_uris":{"android":"levelo://app?vid=b40b35cb-4a3a-44b1-b17b-85d162b699b7","ios":"levelo://app?vid=b40b35cb-4a3a-44b1-b17b-85d162b699b7"},"vehicle_type_id":"4","last_reported":1700730456,"current_range_meters":20400,"station_id":"ce4bhg12rcd13ifvqf70","pricing_plan_id":"free"},{"bike_id":"644427a7-da99-441a-bc9c-0f2cff0bd648","system_id":"levelo_inurba_marseille","lat":43.265714,"lon":5.372891,"is_reserved":false,"is_disabled":false,"rental_uris":{"android":"levelo://app?vid=644427a7-da99-441a-bc9c-0f2cff0bd648","ios":"levelo://app?vid=644427a7-da99-441a-bc9c-0f2cff0bd648"},"vehicle_type_id":"4","last_reported":1700730456,"current_range_meters":28000,"station_id":"ce4bhg12rcd13ifvqf70","pricing_plan_id":"free"},{"bike_id":"2765a1bd-b423-40c1-b214-83bdca50a2bc","system_id":"levelo_inurba_marseille","lat":43.267966,"lon":5.393976,"is_reserved":false,"is_disabled":false,"rental_uris":{"android":"levelo://app?vid=2765a1bd-b423-40c1-b214-83bdca50a2bc","ios":"levelo://app?vid=2765a1bd-b423-40c1-b214-83bdca50a2bc"},"vehicle_type_id":"4","last_reported":1700730456,"current_range_meters":14000,"station_id":"ce4bhh12rcd13ifvqfg0","pricing_plan_id":"free"},{"bike_id":"653f602f-5d07-4b8c-aabd-3207539a09eb","system_id":"levelo_inurba_marseille","lat":43.267778,"lon":5.394157,"is_reserved":false,"is_disabled":false,"rental_uris":{"android":"levelo://app?vid=653f602f-5d07-4b8c-aabd-3207539a09eb","ios":"levelo://app?vid=653f602f-5d07-4b8c-aabd-3207539a09eb"},"vehicle_type_id":"4","last_reported":1700730456,"current_range_meters":1200,"station_id":"","pricing_plan_id":"free"},{"bike_id":"2b5f0b27-ae58-4e9e-bd76-c585f78e8a73","system_id":"levelo_inurba_marseille","lat":43.26386,"lon":5.37454,"is_reserved":false,"is_disabled":false,"rental_uris":{"android":"levelo://app?vid=2b5f0b27-ae58-4e9e-bd76-c585f78e8a73","ios":"levelo://app?vid=2b5f0b27-ae58-4e9e-bd76-c585f78e8a73"},"vehicle_type_id":"4","last_reported":1700730456,"current_range_meters":19200,"station_id":"","pricing_plan_id":"free"},{"bike_id":"10434b81-71d5-4dcf-af52-cbec2cc92cf8","system_id":"levelo_inurba_marseille","lat":43.261782,"lon":5.374515,"is_reserved":false,"is_disabled":false,"rental_uris":{"android":"levelo://app?vid=10434b81-71d5-4dcf-af52-cbec2cc92cf8","ios":"levelo://app?vid=10434b81-71d5-4dcf-af52-cbec2cc92cf8"},"vehicle_type_id":"4","last_reported":1700730456,"current_range_meters":25200,"station_id":"ce4bhgp2rcd13ifvqfc0","pricing_plan_id":"free"},{"bike_id":"861e94e2-982b-4215-a671-df650b5b6578","system_id":"levelo_inurba_marseille","lat":43.271368,"lon":5.40928,"is_reserved":false,"is_disabled":false,"rental_uris":{"android":"levelo://app?vid=861e94e2-982b-4215-a671-df650b5b6578","ios":"levelo://app?vid=861e94e2-982b-4215-a671-df650b5b6578"},"vehicle_type_id":"4","last_reported":1700730456,"current_range_meters":30400,"station_id":"ce4bhl12rcd13ifvqgf0","pricing_plan_id":"free"},{"bike_id":"860103e4-b3a2-49bf-a852-14e4f54ff085","system_id":"levelo_inurba_marseille","lat":43.27178,"lon":5.40996,"is_reserved":false,"is_disabled":false,"rental_uris":{"android":"levelo://app?vid=860103e4-b3a2-49bf-a852-14e4f54ff085","ios":"levelo://app?vid=860103e4-b3a2-49bf-a852-14e4f54ff085"},"vehicle_type_id":"4","last_reported":1700730456,"current_range_meters":27600,"station_id":"ce4bhl12rcd13ifvqgf0","pricing_plan_id":"free"},{"bike_id":"52b55dc8-c8cc-4913-b197-75376bf1030b","system_id":"levelo_inurba_marseille","lat":43.271388,"lon":5.409269,"is_reserved":false,"is_disabled":false,"rental_uris":{"android":"levelo://app?vid=52b55dc8-c8cc-4913-b197-75376bf1030b","ios":"levelo://app?vid=52b55dc8-c8cc-4913-b197-75376bf1030b"},"vehicle_type_id":"4","last_reported":1700730456,"current_range_meters":27600,"station_id":"ce4bhl12rcd13ifvqgf0","pricing_plan_id":"free"},{"bike_id":"cb16d7ee-4d8d-44c4-bc7a-142b1234ab63","system_id":"levelo_inurba_marseille","lat":43.31725,"lon":5.43786,"is_reserved":false,"is_disabled":false,"rental_uris":{"android":"levelo://app?vid=cb16d7ee-4d8d-44c4-bc7a-142b1234ab63","ios":"levelo://app?vid=cb16d7ee-4d8d-44c4-bc7a-142b1234ab63"},"vehicle_type_id":"4","last_reported":1700730456,"current_range_meters":0,"station_id":"","pricing_plan_id":"free"},{"bike_id":"b3f610bc-642e-4970-aac1-60f0cfd1d9c7","system_id":"levelo_inurba_marseille","lat":43.260219,"lon":5.37546,"is_reserved":false,"is_disabled":false,"rental_uris":{"android":"levelo://app?vid=b3f610bc-642e-4970-aac1-60f0cfd1d9c7","ios":"levelo://app?vid=b3f610bc-642e-4970-aac1-60f0cfd1d9c7"},"vehicle_type_id":"4","last_reported":1700730456,"current_range_meters":30400,"station_id":"ce4bhgh2rcd13ifvqfa0","pricing_plan_id":"free"},{"bike_id":"81269fc0-b290-46df-9c0f-1be945470061","system_id":"levelo_inurba_marseille","lat":43.260225,"lon":5.375455,"is_reserved":false,"is_disabled":false,"rental_uris":{"android":"levelo://app?vid=81269fc0-b290-46df-9c0f-1be945470061","ios":"levelo://app?vid=81269fc0-b290-46df-9c0f-1be945470061"},"vehicle_type_id":"4","last_reported":1700730456,"current_range_meters":26800,"station_id":"ce4bhgh2rcd13ifvqfa0","pricing_plan_id":"free"},{"bike_id":"f8092372-9b7d-407a-992f-b10f307ff72e","system_id":"levelo_inurba_marseille","lat":43.260219,"lon":5.37546,"is_reserved":false,"is_disabled":false,"rental_uris":{"android":"levelo://app?vid=f8092372-9b7d-407a-992f-b10f307ff72e","ios":"levelo://app?vid=f8092372-9b7d-407a-992f-b10f307ff72e"},"vehicle_type_id":"4","last_reported":1700730456,"current_range_meters":25200,"station_id":"ce4bhgh2rcd13ifvqfa0","pricing_plan_id":"free"},{"bike_id":"196b9317-0cbf-4ffa-8731-3e44fb7c3006","system_id":"levelo_inurba_marseille","lat":43.2607,"lon":5.393983,"is_reserved":false,"is_disabled":false,"rental_uris":{"android":"levelo://app?vid=196b9317-0cbf-4ffa-8731-3e44fb7c3006","ios":"levelo://app?vid=196b9317-0cbf-4ffa-8731-3e44fb7c3006"},"vehicle_type_id":"4","last_reported":1700730456,"current_range_meters":14000,"station_id":"ce4bhh92rcd13ifvqfj0","pricing_plan_id":"free"},{"bike_id":"4089c0fd-abcc-4017-8069-a09b41ffc9ed","system_id":"levelo_inurba_marseille","lat":43.275028,"lon":5.424534,"is_reserved":false,"is_disabled":false,"rental_uris":{"android":"levelo://app?vid=4089c0fd-abcc-4017-8069-a09b41ffc9ed","ios":"levelo://app?vid=4089c0fd-abcc-4017-8069-a09b41ffc9ed"},"vehicle_type_id":"4","last_reported":1700730456,"current_range_meters":22400,"station_id":"ce4bhn92rcd13ifvqgrg","pricing_plan_id":"free"},{"bike_id":"87e2af8b-d138-4539-882a-885a80840281","system_id":"levelo_inurba_marseille","lat":43.275028,"lon":5.424534,"is_reserved":false,"is_disabled":false,"rental_uris":{"android":"levelo://app?vid=87e2af8b-d138-4539-882a-885a80840281","ios":"levelo://app?vid=87e2af8b-d138-4539-882a-885a80840281"},"vehicle_type_id":"4","last_reported":1700730456,"current_range_meters":400,"station_id":"ce4bhn92rcd13ifvqgrg","pricing_plan_id":"free"},{"bike_id":"f6e8e16b-61f5-41a0-a327-4af5969d9748","system_id":"levelo_inurba_marseille","lat":43.275028,"lon":5.424534,"is_reserved":false,"is_disabled":false,"rental_uris":{"android":"levelo://app?vid=f6e8e16b-61f5-41a0-a327-4af5969d9748","ios":"levelo://app?vid=f6e8e16b-61f5-41a0-a327-4af5969d9748"},"vehicle_type_id":"4","last_reported":1700730456,"current_range_meters":20000,"station_id":"ce4bhn92rcd13ifvqgrg","pricing_plan_id":"free"},{"bike_id":"7371b4a1-8251-4e69-849c-dce668ffc81f","system_id":"levelo_inurba_marseille","lat":43.275028,"lon":5.424534,"is_reserved":false,"is_disabled":false,"rental_uris":{"android":"levelo://app?vid=7371b4a1-8251-4e69-849c-dce668ffc81f","ios":"levelo://app?vid=7371b4a1-8251-4e69-849c-dce668ffc81f"},"vehicle_type_id":"4","last_reported":1700730456,"current_range_meters":22800,"station_id":"ce4bhn92rcd13ifvqgrg","pricing_plan_id":"free"},{"bike_id":"05e3f246-14c4-42ea-94f0-7f5edda1edc8","system_id":"levelo_inurba_marseille","lat":43.275028,"lon":5.424534,"is_reserved":false,"is_disabled":false,"rental_uris":{"android":"levelo://app?vid=05e3f246-14c4-42ea-94f0-7f5edda1edc8","ios":"levelo://app?vid=05e3f246-14c4-42ea-94f0-7f5edda1edc8"},"vehicle_type_id":"4","last_reported":1700730456,"current_range_meters":10800,"station_id":"ce4bhn92rcd13ifvqgrg","pricing_plan_id":"free"},{"bike_id":"4929c3f9-28dd-448f-8dcb-c2828ff58157","system_id":"levelo_inurba_marseille","lat":43.275028,"lon":5.424534,"is_reserved":false,"is_disabled":false,"rental_uris":{"android":"levelo://app?vid=4929c3f9-28dd-448f-8dcb-c2828ff58157","ios":"levelo://app?vid=4929c3f9-28dd-448f-8dcb-c2828ff58157"},"vehicle_type_id":"4","last_reported":1700730456,"current_range_meters":23600,"station_id":"ce4bhn92rcd13ifvqgrg","pricing_plan_id":"free"},{"bike_id":"8892a09c-3cd4-4bf8-8dc3-aa211792adec","system_id":"levelo_inurba_marseille","lat":43.275028,"lon":5.424534,"is_reserved":false,"is_disabled":false,"rental_uris":{"android":"levelo://app?vid=8892a09c-3cd4-4bf8-8dc3-aa211792adec","ios":"levelo://app?vid=8892a09c-3cd4-4bf8-8dc3-aa211792adec"},"vehicle_type_id":"4","last_reported":1700730456,"current_range_meters":22400,"station_id":"ce4bhn92rcd13ifvqgrg","pricing_plan_id":"free"},{"bike_id":"0b943efe-8fc7-4591-97cf-7ac81ccc7892","system_id":"levelo_inurba_marseille","lat":43.275028,"lon":5.424534,"is_reserved":false,"is_disabled":false,"rental_uris":{"android":"levelo://app?vid=0b943efe-8fc7-4591-97cf-7ac81ccc7892","ios":"levelo://app?vid=0b943efe-8fc7-4591-97cf-7ac81ccc7892"},"vehicle_type_id":"4","last_reported":1700730456,"current_range_meters":28000,"station_id":"ce4bhn92rcd13ifvqgrg","pricing_plan_id":"free"},{"bike_id":"6e7613d8-87ad-44c3-aa6f-2d6c01c9bbb0","system_id":"levelo_inurba_marseille","lat":43.275028,"lon":5.424534,"is_reserved":false,"is_disabled":false,"rental_uris":{"android":"levelo://app?vid=6e7613d8-87ad-44c3-aa6f-2d6c01c9bbb0","ios":"levelo://app?vid=6e7613d8-87ad-44c3-aa6f-2d6c01c9bbb0"},"vehicle_type_id":"4","last_reported":1700730456,"current_range_meters":20400,"station_id":"ce4bhn92rcd13ifvqgrg","pricing_plan_id":"free"},{"bike_id":"ee654ff5-d5af-4998-91cf-8d2323e2e756","system_id":"levelo_inurba_marseille","lat":43.275028,"lon":5.424534,"is_reserved":false,"is_disabled":false,"rental_uris":{"android":"levelo://app?vid=ee654ff5-d5af-4998-91cf-8d2323e2e756","ios":"levelo://app?vid=ee654ff5-d5af-4998-91cf-8d2323e2e756"},"vehicle_type_id":"4","last_reported":1700730456,"current_range_meters":18800,"station_id":"ce4bhn92rcd13ifvqgrg","pricing_plan_id":"free"},{"bike_id":"cd2446c7-e42a-4d8e-a5db-c1b65262cf68","system_id":"levelo_inurba_marseille","lat":43.275028,"lon":5.424534,"is_reserved":false,"is_disabled":false,"rental_uris":{"android":"levelo://app?vid=cd2446c7-e42a-4d8e-a5db-c1b65262cf68","ios":"levelo://app?vid=cd2446c7-e42a-4d8e-a5db-c1b65262cf68"},"vehicle_type_id":"4","last_reported":1700730456,"current_range_meters":20000,"station_id":"ce4bhn92rcd13ifvqgrg","pricing_plan_id":"free"},{"bike_id":"24b53414-447f-4458-bf02-facc15b10c54","system_id":"levelo_inurba_marseille","lat":43.275028,"lon":5.424534,"is_reserved":false,"is_disabled":false,"rental_uris":{"android":"levelo://app?vid=24b53414-447f-4458-bf02-facc15b10c54","ios":"levelo://app?vid=24b53414-447f-4458-bf02-facc15b10c54"},"vehicle_type_id":"4","last_reported":1700730456,"current_range_meters":26000,"station_id":"ce4bhn92rcd13ifvqgrg","pricing_plan_id":"free"},{"bike_id":"2af29e50-c515-41b2-a953-46f56efe302c","system_id":"levelo_inurba_marseille","lat":43.25578,"lon":5.38233,"is_reserved":false,"is_disabled":false,"rental_uris":{"android":"levelo://app?vid=2af29e50-c515-41b2-a953-46f56efe302c","ios":"levelo://app?vid=2af29e50-c515-41b2-a953-46f56efe302c"},"vehicle_type_id":"4","last_reported":1700730456,"current_range_meters":1600,"station_id":"ce4bhih2rcd13ifvqfs0","pricing_plan_id":"free"},{"bike_id":"ce5e8144-3df2-410b-99c0-504188367f48","system_id":"levelo_inurba_marseille","lat":43.258224,"lon":5.394369,"is_reserved":false,"is_disabled":false,"rental_uris":{"android":"levelo://app?vid=ce5e8144-3df2-410b-99c0-504188367f48","ios":"levelo://app?vid=ce5e8144-3df2-410b-99c0-504188367f48"},"vehicle_type_id":"4","last_reported":1700730456,"current_range_meters":28800,"station_id":"ce4bhip2rcd13ifvqft0","pricing_plan_id":"free"},{"bike_id":"3dce9947-a3e6-41d0-be08-8dd732e353e7","system_id":"levelo_inurba_marseille","lat":43.25573,"lon":5.3824,"is_reserved":false,"is_disabled":false,"rental_uris":{"android":"levelo://app?vid=3dce9947-a3e6-41d0-be08-8dd732e353e7","ios":"levelo://app?vid=3dce9947-a3e6-41d0-be08-8dd732e353e7"},"vehicle_type_id":"4","last_reported":1700730456,"current_range_meters":8000,"station_id":"ce4bhih2rcd13ifvqfs0","pricing_plan_id":"free"},{"bike_id":"ef5898dd-fbab-487b-add0-7ed4857565ff","system_id":"levelo_inurba_marseille","lat":43.25572,"lon":5.38239,"is_reserved":false,"is_disabled":false,"rental_uris":{"android":"levelo://app?vid=ef5898dd-fbab-487b-add0-7ed4857565ff","ios":"levelo://app?vid=ef5898dd-fbab-487b-add0-7ed4857565ff"},"vehicle_type_id":"4","last_reported":1700730456,"current_range_meters":4000,"station_id":"ce4bhih2rcd13ifvqfs0","pricing_plan_id":"free"},{"bike_id":"6e3eae0c-ece1-45a2-8c4e-ddb5640f2102","system_id":"levelo_inurba_marseille","lat":43.254947,"lon":5.376454,"is_reserved":false,"is_disabled":false,"rental_uris":{"android":"levelo://app?vid=6e3eae0c-ece1-45a2-8c4e-ddb5640f2102","ios":"levelo://app?vid=6e3eae0c-ece1-45a2-8c4e-ddb5640f2102"},"vehicle_type_id":"4","last_reported":1700730456,"current_range_meters":14000,"station_id":"ce4bhh12rcd13ifvqff0","pricing_plan_id":"free"},