{"last_updated":1758720055,"ttl":60,"version":"2.2","data":{"bikes":[{"bike_id":"61e6b46d-4224-42d1-91fa-78a48f5d0e6a","system_id":"levelo_inurba_marseille","lat":43.326611,"lon":5.409906,"is_reserved":false,"is_disabled":false,"rental_uris":{"android":"levelo://app?vid=61e6b46d-4224-42d1-91fa-78a48f5d0e6a","ios":"levelo://app?vid=61e6b46d-4224-42d1-91fa-78a48f5d0e6a"},"vehicle_type_id":"4","last_reported":1758720055,"current_range_meters":2800,"station_id":"","pricing_plan_id":"cebpf4jnsgd1na2vs0mg"},{"bike_id":"da3478c0-7b34-4d6c-ab30-9e03069435b6","system_id":"levelo_inurba_marseille","lat":43.30564,"lon":5.3656,"is_reserved":false,"is_disabled":false,"rental_uris":{"android":"levelo://app?vid=da3478c0-7b34-4d6c-ab30-9e03069435b6","ios":"levelo://app?vid=da3478c0-7b34-4d6c-ab30-9e03069435b6"},"vehicle_type_id":"4","last_reported":1758720055,"current_range_meters":2800,"station_id":"ce4bgs12rcd13ifvqcag","pricing_plan_id":"cebpf4jnsgd1na2vs0mg"},{"bike_id":"e3e926d8-b807-4ddb-ba03-e288bfec7036","system_id":"levelo_inurba_marseille","lat":43.30163,"lon":5.3742,"is_reserved":false,"is_disabled":false,"rental_uris":{"android":"levelo://app?vid=e3e926d8-b807-4ddb-ba03-e288bfec7036","ios":"levelo://app?vid=e3e926d8-b807-4ddb-ba03-e288bfec7036"},"vehicle_type_id":"4","last_reported":1758720055,"current_range_meters":2800,"station_id":"ce4bgs92rcd13ifvqcc0","pricing_plan_id":"cebpf4jnsgd1na2vs0mg"},{"bike_id":"90a7ce0c-93c8-4a95-9e24-173e24f2eeb8","system_id":"levelo_inurba_marseille","lat":43.29099,"lon":5.38139,"is_reserved":false,"is_disabled":false,"rental_uris":{"android":"levelo://app?vid=90a7ce0c-93c8-4a95-9e24-173e24f2eeb8","ios":"levelo://app?vid=90a7ce0c-93c8-4a95-9e24-173e24f2eeb8"},"vehicle_type_id":"4","last_reported":1758720055,"current_range_meters":2000,"station_id":"ce4bh512rcd13ifvqe2g","pricing_plan_id":"cebpf4jnsgd1na2vs0mg"},{"bike_id":"f5496493-89ec-4070-8102-fb58a4ff037e","system_id":"levelo_inurba_marseille","lat":43.27203,"lon":5.39175,"is_reserved":false,"is_disabled":false,"rental_uris":{"android":"levelo://app?vid=f5496493-89ec-4070-8102-fb58a4ff037e","ios":"levelo://app?vid=f5496493-89ec-4070-8102-fb58a4ff037e"},"vehicle_type_id":"4","last_reported":1758720055,"current_range_meters":2800,"station_id":"ce4bhhp2rcd13ifvqfm0","pricing_plan_id":"cebpf4jnsgd1na2vs0mg"},{"bike_id":"17b5bbe8-9a2e-4746-a46b-dad8beac49cd","system_id":"levelo_inurba_marseille","lat":43.34141,"lon":5.40902,"is_reserved":false,"is_disabled":false,"rental_uris":{"android":"levelo://app?vid=17b5bbe8-9a2e-4746-a46b-dad8beac49cd","ios":"levelo://app?vid=17b5bbe8-9a2e-4746-a46b-dad8beac49cd"},"vehicle_type_id":"4","last_reported":1758720055,"current_range_meters":3200,"station_id":"ce4bhqh2rcd13ifvqhlg","pricing_plan_id":"cebpf4jnsgd1na2vs0mg"},{"bike_id":"bd6039c4-f1ab-4292-b245-e38e78f9ce3d","system_id":"levelo_inurba_marseille","lat":43.33022,"lon":5.39054,"is_reserved":false,"is_disabled":true,"rental_uris":{"android":"levelo://app?vid=bd6039c4-f1ab-4292-b245-e38e78f9ce3d","ios":"levelo://app?vid=bd6039c4-f1ab-4292-b245-e38e78f9ce3d"},"vehicle_type_id":"4","last_reported":1758720055,"current_range_meters":3200,"station_id":"ce4bhr92rcd13ifvqhrg","pricing_plan_id":"cebpf4jnsgd1na2vs0mg"},{"bike_id":"d777b695-fbfb-4cb9-b322-38dc46b6c431","system_id":"levelo_inurba_marseille","lat":43.3038,"lon":5.42488,"is_reserved":false,"is_disabled":false,"rental_uris":{"android":"levelo://app?vid=d777b695-fbfb-4cb9-b322-38dc46b6c431","ios":"levelo://app?vid=d777b695-fbfb-4cb9-b322-38dc46b6c431"},"vehicle_type_id":"4","last_reported":1758720055,"current_range_meters":3200,"station_id":"ce4bhoh2rcd13ifvqh6g","pricing_plan_id":"cebpf4jnsgd1na2vs0mg"},{"bike_id":"c01f598a-4b24-467c-b8ab-a113dd4a438b","system_id":"levelo_inurba_marseille","lat":43.2656,"lon":5.37295,"is_reserved":false,"is_disabled":false,"rental_uris":{"android":"levelo://app?vid=c01f598a-4b24-467c-b8ab-a113dd4a438b","ios":"levelo://app?vid=c01f598a-4b24-467c-b8ab-a113dd4a438b"},"vehicle_type_id":"4","last_reported":1758720055,"current_range_meters":3200,"station_id":"ce4bhg12rcd13ifvqf70","pricing_plan_id":"cebpf4jnsgd1na2vs0mg"},{"bike_id":"0a1ab1a5-b85e-4ac3-936e-fe171b7ebe82","system_id":"levelo_inurba_marseille","lat":43.296295,"lon":5.381289,"is_reserved":false,"is_disabled":false,"rental_uris":{"android":"levelo://app?vid=0a1ab1a5-b85e-4ac3-936e-fe171b7ebe82","ios":"levelo://app?vid=0a1ab1a5-b85e-4ac3-936e-fe171b7ebe82"},"vehicle_type_id":"4","last_reported":1758720055,"current_range_meters":3600,"station_id":"","pricing_plan_id":"cebpf4jnsgd1na2vs0mg"},{"bike_id":"2c067bcf-5c8d-4739-bcc6-b263224cc674","system_id":"levelo_inurba_marseille","lat":43.31327,"lon":5.39714,"is_reserved":false,"is_disabled":false,"rental_uris":{"android":"levelo://app?vid=2c067bcf-5c8d-4739-bcc6-b263224cc674","ios":"levelo://app?vid=2c067bcf-5c8d-4739-bcc6-b263224cc674"},"vehicle_type_id":"4","last_reported":1758720055,"current_range_meters":3600,"station_id":"ce4bgvp2rcd13ifvqcu0","pricing_plan_id":"cebpf4jnsgd1na2vs0mg"},{"bike_id":"213937f4-0cd9-48b8-9d64-0b73c37bc721","system_id":"levelo_inurba_marseille","lat":43.29558,"lon":5.38174,"is_reserved":false,"is_disabled":false,"rental_uris":{"android":"levelo://app?vid=213937f4-0cd9-48b8-9d64-0b73c37bc721","ios":"levelo://app?vid=213937f4-0cd9-48b8-9d64-0b73c37bc721"},"vehicle_type_id":"4","last_reported":1758720055,"current_range_meters":3600,"station_id":"","pricing_plan_id":"cebpf4jnsgd1na2vs0mg"},{"bike_id":"d25fe0ce-95ac-44cd-adb6-9b477cfcb65f","system_id":"levelo_inurba_marseille","lat":43.225364,"lon":5.348375,"is_reserved":false,"is_disabled":false,"rental_uris":{"android":"levelo://app?vid=d25fe0ce-95ac-44cd-adb6-9b477cfcb65f","ios":"levelo://app?vid=d25fe0ce-95ac-44cd-adb6-9b477cfcb65f"},"vehicle_type_id":"4","last_reported":1758720055,"current_range_meters":3600,"station_id":"","pricing_plan_id":"cebpf4jnsgd1na2vs0mg"},{"bike_id":"f683f261-d33c-485f-98c4-e08609dada7e","system_id":"levelo_inurba_marseille","lat":43.2587,"lon":5.39895,"is_reserved":false,"is_disabled":false,"rental_uris":{"android":"levelo://app?vid=f683f261-d33c-485f-98c4-e08609dada7e","ios":"levelo://app?vid=f683f261-d33c-485f-98c4-e08609dada7e"},"vehicle_type_id":"4","last_reported":1758720055,"current_range_meters":3600,"station_id":"ce4bhl92rcd13ifvqghg","pricing_plan_id":"cebpf4jnsgd1na2vs0mg"},{"bike_id":"329f2229-357a-4191-a649-4a948a175b88","system_id":"levelo_inurba_marseille","lat":43.2927,"lon":5.38434,"is_reserved":false,"is_disabled":true,"rental_uris":{"android":"levelo://app?vid=329f2229-357a-4191-a649-4a948a175b88","ios":"levelo://app?vid=329f2229-357a-4191-a649-4a948a175b88"},"vehicle_type_id":"4","last_reported":1758720055,"current_range_meters":4000,"station_id":"ce4bh692rcd13ifvqea0","pricing_plan_id":"cebpf4jnsgd1na2vs0mg"},{"bike_id":"c162a84b-6dd0-46a6-9482-99bd165ca864","system_id":"levelo_inurba_marseille","lat":43.2923,"lon":5.36063,"is_reserved":false,"is_disabled":false,"rental_uris":{"android":"levelo://app?vid=c162a84b-6dd0-46a6-9482-99bd165ca864","ios":"levelo://app?vid=c162a84b-6dd0-46a6-9482-99bd165ca864"},"vehicle_type_id":"4","last_reported":1758720055,"current_range_meters":4000,"station_id":"ce4bhbh2rcd13ifvqeqg","pricing_plan_id":"cebpf4jnsgd1na2vs0mg"},{"bike_id":"bb231cca-c571-45ad-b3a3-d39d69dd21f6","system_id":"levelo_inurba_marseille","lat":43.29191,"lon":5.35813,"is_reserved":false,"is_disabled":false,"rental_uris":{"android":"levelo://app?vid=bb231cca-c571-45ad-b3a3-d39d69dd21f6","ios":"levelo://app?vid=bb231cca-c571-45ad-b3a3-d39d69dd21f6"},"vehicle_type_id":"4","last_reported":1758720055,"current_range_meters":4000,"station_id":"ce4bhb12rcd13ifvqel0","pricing_plan_id":"cebpf4jnsgd1na2vs0mg"},{"bike_id":"88d6d3e4-67a4-42b8-8f75-3002623d7de4","system_id":"levelo_inurba_marseille","lat":43.30599,"lon":5.37225,"is_reserved":false,"is_disabled":false,"rental_uris":{"android":"levelo://app?vid=88d6d3e4-67a4-42b8-8f75-3002623d7de4","ios":"levelo://app?vid=88d6d3e4-67a4-42b8-8f75-3002623d7de4"},"vehicle_type_id":"4","last_reported":1758720055,"current_range_meters":4000,"station_id":"ce4bgqh2rcd13ifvqc4g","pricing_plan_id":"cebpf4jnsgd1na2vs0mg"},{"bike_id":"8cf107b7-2ac4-4c7f-83cb-634d5aff4893","system_id":"levelo_inurba_marseille","lat":43.30524,"lon":5.36541,"is_reserved":false,"is_disabled":false,"rental_uris":{"android":"levelo://app?vid=8cf107b7-2ac4-4c7f-83cb-634d5aff4893","ios":"levelo://app?vid=8cf107b7-2ac4-4c7f-83cb-634d5aff4893"},"vehicle_type_id":"4","last_reported":1758720055,"current_range_meters":4000,"station_id":"ce4bgs12rcd13ifvqcag","pricing_plan_id":"cebpf4jnsgd1na2vs0mg"},{"bike_id":"46830693-1df8-4f66-b747-68731faf634f","system_id":"levelo_inurba_marseille","lat":43.27202,"lon":5.39164,"is_reserved":false,"is_disabled":false,"rental_uris":{"android":"levelo://app?vid=46830693-1df8-4f66-b747-68731faf634f","ios":"levelo://app?vid=46830693-1df8-4f66-b747-68731faf634f"},"vehicle_type_id":"4","last_reported":1758720055,"current_range_meters":4000,"station_id":"ce4bhhp2rcd13ifvqfm0","pricing_plan_id":"cebpf4jnsgd1na2vs0mg"},{"bike_id":"5ce05abb-46a2-4a96-b598-f6c27376c28a","system_id":"levelo_inurba_marseille","lat":43.29556,"lon":5.42284,"is_reserved":false,"is_disabled":false,"rental_uris":{"android":"levelo://app?vid=5ce05abb-46a2-4a96-b598-f6c27376c28a","ios":"levelo://app?vid=5ce05abb-46a2-4a96-b598-f6c27376c28a"},"vehicle_type_id":"4","last_reported":1758720055,"current_range_meters":4000,"station_id":"ce4bhph2rcd13ifvqhdg","pricing_plan_id":"cebpf4jnsgd1na2vs0mg"},{"bike_id":"1efddf8d-578f-4e4c-8c3f-e3a8bd592ba4","system_id":"levelo_inurba_marseille","lat":43.299631,"lon":5.373863,"is_reserved":false,"is_disabled":false,"rental_uris":{"android":"levelo://app?vid=1efddf8d-578f-4e4c-8c3f-e3a8bd592ba4","ios":"levelo://app?vid=1efddf8d-578f-4e4c-8c3f-e3a8bd592ba4"},"vehicle_type_id":"4","last_reported":1758720055,"current_range_meters":4400,"station_id":"","pricing_plan_id":"cebpf4jnsgd1na2vs0mg"},{"bike_id":"87986e1f-353b-4bc5-9625-e3f291fcfbdc","system_id":"levelo_inurba_marseille","lat":43.29273,"lon":5.38438,"is_reserved":false,"is_disabled":false,"rental_uris":{"android":"levelo://app?vid=87986e1f-353b-4bc5-9625-e3f291fcfbdc","ios":"levelo://app?vid=87986e1f-353b-4bc5-9625-e3f291fcfbdc"},"vehicle_type_id":"4","last_reported":1758720055,"current_range_meters":4400,"station_id":"ce4bh692rcd13ifvqea0","pricing_plan_id":"cebpf4jnsgd1na2vs0mg"},{"bike_id":"108f2909-bc7c-4948-bd48-8196aefe45eb","system_id":"levelo_inurba_marseille","lat":43.29975,"lon":5.38498,"is_reserved":false,"is_disabled":false,"rental_uris":{"android":"levelo://app?vid=108f2909-bc7c-4948-bd48-8196aefe45eb","ios":"levelo://app?vid=108f2909-bc7c-4948-bd48-8196aefe45eb"},"vehicle_type_id":"4","last_reported":1758720055,"current_range_meters":4400,"station_id":"ce4bgj92rcd13ifvqbd0","pricing_plan_id":"cebpf4jnsgd1na2vs0mg"},{"bike_id":"cc7594f4-b189-49f1-8bf2-199a9034e89f","system_id":"levelo_inurba_marseille","lat":43.30641,"lon":5.40073,"is_reserved":false,"is_disabled":false,"rental_uris":{"android":"levelo://app?vid=cc7594f4-b189-49f1-8bf2-199a9034e89f","ios":"levelo://app?vid=cc7594f4-b189-49f1-8bf2-199a9034e89f"},"vehicle_type_id":"4","last_reported":1758720055,"current_range_meters":4400,"station_id":"ce4bh112rcd13ifvqda0","pricing_plan_id":"cebpf4jnsgd1na2vs0mg"},{"bike_id":"82304ba4-71d4-444b-a52b-5e234edb762c","system_id":"levelo_inurba_marseille","lat":43.22945,"lon":5.35374,"is_reserved":false,"is_disabled":false,"rental_uris":{"android":"levelo://app?vid=82304ba4-71d4-444b-a52b-5e234edb762c","ios":"levelo://app?vid=82304ba4-71d4-444b-a52b-5e234edb762c"},"vehicle_type_id":"4","last_reported":1758720055,"current_range_meters":4400,"station_id":"","pricing_plan_id":"cebpf4jnsgd1na2vs0mg"},{"bike_id":"cfbd1026-6107-4229-900f-b705ba9b6d6d","system_id":"levelo_inurba_marseille","lat":43.30789,"lon":5.37647,"is_reserved":false,"is_disabled":false,"rental_uris":{"android":"levelo://app?vid=cfbd1026-6107-4229-900f-b705ba9b6d6d","ios":"levelo://app?vid=cfbd1026-6107-4229-900f-b705ba9b6d6d"},"vehicle_type_id":"4","last_reported":1758720055,"current_range_meters":4400,"station_id":"ce4bgv92rcd13ifvqcq0","pricing_plan_id":"cebpf4jnsgd1na2vs0mg"},{"bike_id":"cb6bf7d2-2ed1-47c4-b0a7-9c935f0ebf1a","system_id":"levelo_inurba_marseille","lat":43.26869,"lon":5.40672,"is_reserved":false,"is_disabled":false,"rental_uris":{"android":"levelo://app?vid=cb6bf7d2-2ed1-47c4-b0a7-9c935f0ebf1a","ios":"levelo://app?vid=cb6bf7d2-2ed1-47c4-b0a7-9c935f0ebf1a"},"vehicle_type_id":"4","last_reported":1758720055,"current_range_meters":4800,"station_id":"","pricing_plan_id":"cebpf4jnsgd1na2vs0mg"},{"bike_id":"33ae8a44-5efc-47ea-8014-a2e07b0e0be2","system_id":"levelo_inurba_marseille","lat":43.27917,"lon":5.39596,"is_reserved":false,"is_disabled":false,"rental_uris":{"android":"levelo://app?vid=33ae8a44-5efc-47ea-8014-a2e07b0e0be2","ios":"levelo://app?vid=33ae8a44-5efc-47ea-8014-a2e07b0e0be2"},"vehicle_type_id":"4","last_reported":1758720055,"current_range_meters":4800,"station_id":"ce4bhf92rcd13ifvqf40","pricing_plan_id":"cebpf4jnsgd1na2vs0mg"},{"bike_id":"90273900-1ed7-426f-b60c-73c59ba4ec75","system_id":"levelo_inurba_marseille","lat":43.25579,"lon":5.38229,"is_reserved":false,"is_disabled":false,"rental_uris":{"android":"levelo://app?vid=90273900-1ed7-426f-b60c-73c59ba4ec75","ios":"levelo://app?vid=90273900-1ed7-426f-b60c-73c59ba4ec75"},"vehicle_type_id":"4","last_reported":1758720055,"current_range_meters":4800,"station_id":"ce4bhih2rcd13ifvqfs0","pricing_plan_id":"cebpf4jnsgd1na2vs0mg"},{"bike_id":"03edc37a-804c-4800-afe6-8ba3f0a005cf","system_id":"levelo_inurba_marseille","lat":43.30287,"lon":5.377,"is_reserved":false,"is_disabled":false,"rental_uris":{"android":"levelo://app?vid=03edc37a-804c-4800-afe6-8ba3f0a005cf","ios":"levelo://app?vid=03edc37a-804c-4800-afe6-8ba3f0a005cf"},"vehicle_type_id":"4","last_reported":1758720055,"current_range_meters":5600,"station_id":"ce4bguh2rcd13ifvqcj0","pricing_plan_id":"cebpf4jnsgd1na2vs0mg"},{"bike_id":"962b15bf-a341-4469-9450-c0428eb337e2","system_id":"levelo_inurba_marseille","lat":43.23152,"lon":5.43714,"is_reserved":false,"is_disabled":true,"rental_uris":{"android":"levelo://app?vid=962b15bf-a341-4469-9450-c0428eb337e2","ios":"levelo://app?vid=962b15bf-a341-4469-9450-c0428eb337e2"},"vehicle_type_id":"4","last_reported":1758720055,"current_range_meters":5600,"station_id":"ce4bhmp2rcd13ifvqgog","pricing_plan_id":"cebpf4jnsgd1na2vs0mg"},{"bike_id":"1c640a90-0d8d-4b13-a60e-0501de6a7c32","system_id":"levelo_inurba_marseille","lat":43.29645,"lon":5.37144,"is_reserved":false,"is_disabled":false,"rental_uris":{"android":"levelo://app?vid=1c640a90-0d8d-4b13-a60e-0501de6a7c32","ios":"levelo://app?vid=1c640a90-0d8d-4b13-a60e-0501de6a7c32"},"vehicle_type_id":"4","last_reported":1758720055,"current_range_meters":5600,"station_id":"ce4bgnh2rcd13ifvqc0g","pricing_plan_id":"cebpf4jnsgd1na2vs0mg"},{"bike_id":"642c0d83-6a95-4f87-86b9-a4d2853229d9","system_id":"levelo_inurba_marseille","lat":43.2934,"lon":5.40632,"is_reserved":false,"is_disabled":false,"rental_uris":{"android":"levelo://app?vid=642c0d83-6a95-4f87-86b9-a4d2853229d9","ios":"levelo://app?vid=642c0d83-6a95-4f87-86b9-a4d2853229d9"},"vehicle_type_id":"4","last_reported":1758720055,"current_range_meters":5600,"station_id":"","pricing_plan_id":"cebpf4jnsgd1na2vs0mg"},{"bike_id":"0b5e7d5e-4f7e-49ee-947f-fe60c70c4f00","system_id":"levelo_inurba_marseille","lat":43.28003,"lon":5.40022,"is_reserved":false,"is_disabled":false,"rental_uris":{"android":"levelo://app?vid=0b5e7d5e-4f7e-49ee-947f-fe60c70c4f00","ios":"levelo://app?vid=0b5e7d5e-4f7e-49ee-947f-fe60c70c4f00"},"vehicle_type_id":"4","last_reported":1758720055,"current_range_meters":6000,"station_id":"ce4bho92rcd13ifvqh4g","pricing_plan_id":"cebpf4jnsgd1na2vs0mg"},{"bike_id":"70209913-e287-4d0e-9ea3-4351633deb67","system_id":"levelo_inurba_marseille","lat":43.25489,"lon":5.37644,"is_reserved":false,"is_disabled":false,"rental_uris":{"android":"levelo://app?vid=70209913-e287-4d0e-9ea3-4351633deb67","ios":"levelo://app?vid=70209913-e287-4d0e-9ea3-4351633deb67"},"vehicle_type_id":"4","last_reported":1758720055,"current_range_meters":6000,"station_id":"ce4bhh12rcd13ifvqff0","pricing_plan_id":"cebpf4jnsgd1na2vs0mg"},{"bike_id":"cd699b20-5b89-492b-b95b-410f26ac0021","system_id":"levelo_inurba_marseille","lat":43.28572,"lon":5.39498,"is_reserved":false,"is_disabled":false,"rental_uris":{"android":"levelo://app?vid=cd699b20-5b89-492b-b95b-410f26ac0021","ios":"levelo://app?vid=cd699b20-5b89-492b-b95b-410f26ac0021"},"vehicle_type_id":"4","last_reported":1758720055,"current_range_meters":6400,"station_id":"ce4bh292rcd13ifvqdg0","pricing_plan_id":"cebpf4jnsgd1na2vs0mg"},{"bike_id":"939538dc-20bd-4d94-8a10-8e1e0a179bc7","system_id":"levelo_inurba_marseille","lat":43.33597,"lon":5.410316,"is_reserved":false,"is_disabled":false,"rental_uris":{"android":"levelo://app?vid=939538dc-20bd-4d94-8a10-8e1e0a179bc7","ios":"levelo://app?vid=939538dc-20bd-4d94-8a10-8e1e0a179bc7"},"vehicle_type_id":"4","last_reported":1758720055,"current_range_meters":6400,"station_id":"ce4bhqh2rcd13ifvqhmg","pricing_plan_id":"cebpf4jnsgd1na2vs0mg"},{"bike_id":"c37fa226-a388-4e8c-8468-99ee65bf2e65","system_id":"levelo_inurba_marseille","lat":43.29916,"lon":5.37478,"is_reserved":false,"is_disabled":false,"rental_uris":{"android":"levelo://app?vid=c37fa226-a388-4e8c-8468-99ee65bf2e65","ios":"levelo://app?vid=c37fa226-a388-4e8c-8468-99ee65bf2e65"},"vehicle_type_id":"4","last_reported":1758720055,"current_range_meters":6400,"station_id":"ce4bgjh2rcd13ifvqbg0","pricing_plan_id":"cebpf4jnsgd1na2vs0mg"},{"bike_id":"d24426fc-1850-43c7-96d0-bd3334ac6d5d","system_id":"levelo_inurba_marseille","lat":43.29007,"lon":5.35608,"is_reserved":false,"is_disabled":false,"rental_uris":{"android":"levelo://app?vid=d24426fc-1850-43c7-96d0-bd3334ac6d5d","ios":"levelo://app?vid=d24426fc-1850-43c7-96d0-bd3334ac6d5d"},"vehicle_type_id":"4","last_reported":1758720055,"current_range_meters":6400,"station_id":"ce4bhb92rcd13ifvqen0","pricing_plan_id":"cebpf4jnsgd1na2vs0mg"},{"bike_id":"355e741c-878f-4775-9222-3a4d87cf17a7","system_id":"levelo_inurba_marseille","lat":43.24666,"lon":5.3817,"is_reserved":false,"is_disabled":true,"rental_uris":{"android":"levelo://app?vid=355e741c-878f-4775-9222-3a4d87cf17a7","ios":"levelo://app?vid=355e741c-878f-4775-9222-3a4d87cf17a7"},"vehicle_type_id":"4","last_reported":1758720055,"current_range_meters":6400,"station_id":"ce4bhih2rcd13ifvqfr0","pricing_plan_id":"cebpf4jnsgd1na2vs0mg"},{"bike_id":"4ceef576-c161-49bc-ab4e-5627dc9b554c","system_id":"levelo_inurba_marseille","lat":43.2953,"lon":5.38544,"is_reserved":false,"is_disabled":false,"rental_uris":{"android":"levelo://app?vid=4ceef576-c161-49bc-ab4e-5627dc9b554c","ios":"levelo://app?vid=4ceef576-c161-49bc-ab4e-5627dc9b554c"},"vehicle_type_id":"4","last_reported":1758720055,"current_range_meters":6400,"station_id":"ce4bgih2rcd13ifvqba0","pricing_plan_id":"cebpf4jnsgd1na2vs0mg"},{"bike_id":"56ea1ec7-493b-4831-9aa4-75c634a3d1b4","system_id":"levelo_inurba_marseille","lat":43.3112,"lon":5.37783,"is_reserved":false,"is_disabled":false,"rental_uris":{"android":"levelo://app?vid=56ea1ec7-493b-4831-9aa4-75c634a3d1b4","ios":"levelo://app?vid=56ea1ec7-493b-4831-9aa4-75c634a3d1b4"},"vehicle_type_id":"4","last_reported":1758720055,"current_range_meters":6800,"station_id":"ce4bgt92rcd13ifvqcg0","pricing_plan_id":"cebpf4jnsgd1na2vs0mg"},{"bike_id":"c95e0c05-dd94-491f-8092-9c7978400114","system_id":"levelo_inurba_marseille","lat":43.33507,"lon":5.36232,"is_reserved":false,"is_disabled":false,"rental_uris":{"android":"levelo://app?vid=c95e0c05-dd94-491f-8092-9c7978400114","ios":"levelo://app?vid=c95e0c05-dd94-491f-8092-9c7978400114"},"vehicle_type_id":"4","last_reported":1758720055,"current_range_meters":6800,"station_id":"ce4bhs12rcd13ifvqhvg","pricing_plan_id":"cebpf4jnsgd1na2vs0mg"},{"bike_id":"a1f22ed6-2177-4325-b857-0fcc22cb32d5","system_id":"levelo_inurba_marseille","lat":43.31113,"lon":5.37751,"is_reserved":false,"is_disabled":false,"rental_uris":{"android":"levelo://app?vid=a1f22ed6-2177-4325-b857-0fcc22cb32d5","ios":"levelo://app?vid=a1f22ed6-2177-4325-b857-0fcc22cb32d5"},"vehicle_type_id":"4","last_reported":1758720055,"current_range_meters":6800,"station_id":"ce4bgt92rcd13ifvqcg0","pricing_plan_id":"cebpf4jnsgd1na2vs0mg"},{"bike_id":"a069d3a2-de65-4d0f-8bac-106276120994","system_id":"levelo_inurba_marseille","lat":43.26498,"lon":5.39548,"is_reserved":false,"is_disabled":false,"rental_uris":{"android":"levelo://app?vid=a069d3a2-de65-4d0f-8bac-106276120994","ios":"levelo://app?vid=a069d3a2-de65-4d0f-8bac-106276120994"},"vehicle_type_id":"4","last_reported":1758720055,"current_range_meters":6800,"station_id":"ce4bhi12rcd13ifvqfq0","pricing_plan_id":"cebpf4jnsgd1na2vs0mg"},{"bike_id":"81b02524-f4ca-455a-b3a7-84c0c69189f1","system_id":"levelo_inurba_marseille","lat":43.29528,"lon":5.38546,"is_reserved":false,"is_disabled":false,"rental_uris":{"android":"levelo://app?vid=81b02524-f4ca-455a-b3a7-84c0c69189f1","ios":"levelo://app?vid=81b02524-f4ca-455a-b3a7-84c0c69189f1"},"vehicle_type_id":"4","last_reported":1758720055,"current_range_meters":6800,"station_id":"ce4bgih2rcd13ifvqba0","pricing_plan_id":"cebpf4jnsgd1na2vs0mg"},{"bike_id":"cccd1265-4b91-4025-80b8-05619460df1e","system_id":"levelo_inurba_marseille","lat":43.32368,"lon":5.38889,"is_reserved":false,"is_disabled":false,"rental_uris":{"android":"levelo://app?vid=cccd1265-4b91-4025-80b8-05619460df1e","ios":"levelo://app?vid=cccd1265-4b91-4025-80b8-05619460df1e"},"vehicle_type_id":"4","last_reported":1758720055,"current_range_meters":6800,"station_id":"ce4bhqp2rcd13ifvqhog","pricing_plan_id":"cebpf4jnsgd1na2vs0mg"},{"bike_id":"28fe443f-7a9f-4e7a-b1e2-1fdc28d5f5f3","system_id":"levelo_inurba_marseille","lat":43.23152,"lon":5.43733,"is_reserved":false,"is_disabled":false,"rental_uris":{"android":"levelo://app?vid=28fe443f-7a9f-4e7a-b1e2-1fdc28d5f5f3","ios":"levelo://app?vid=28fe443f-7a9f-4e7a-b1e2-1fdc28d5f5f3"},"vehicle_type_id":"4","last_reported":1758720055,"current_range_meters":7200,"station_id":"ce4bhmp2rcd13ifvqgog","pricing_plan_id":"cebpf4jnsgd1na2vs0mg"},{"bike_id":"5513a85c-3a27-451f-bd4a-d0819a45d863","system_id":"levelo_inurba_marseille","lat":43.217492,"lon":5.346002,"is_reserved":false,"is_disabled":false,"rental_uris":{"android":"levelo://app?vid=5513a85c-3a27-451f-bd4a-d0819a45d863","ios":"levelo://app?vid=5513a85c-3a27-451f-bd4a-d0819a45d863"},"vehicle_type_id":"4","last_reported":1758720055,"current_range_meters":7200,"station_id":"st_cvj6r9ubvosntc0bgbag","pricing_plan_id":"cebpf4jnsgd1na2vs0mg"},{"bike_id":"ff9d0c25-9a3e-4468-b242-a0cc7a3917c6","system_id":"levelo_inurba_marseille","lat":43.27209,"lon":5.39188,"is_reserved":false,"is_disabled":false,"rental_uris":{"android":"levelo://app?vid=ff9d0c25-9a3e-4468-b242-a0cc7a3917c6","ios":"levelo://app?vid=ff9d0c25-9a3e-4468-b242-a0cc7a3917c6"},"vehicle_type_id":"4","last_reported":1758720055,"current_range_meters":7200,"station_id":"ce4bhhp2rcd13ifvqfm0","pricing_plan_id":"cebpf4jnsgd1na2vs0mg"},{"bike_id":"5bffdc97-c66a-4cd6-979f-90a931b79fe1","system_id":"levelo_inurba_marseille","lat":43.24545,"lon":5.3952,"is_reserved":false,"is_disabled":false,"rental_uris":{"android":"levelo://app?vid=5bffdc97-c66a-4cd6-979f-90a931b79fe1","ios":"levelo://app?vid=5bffdc97-c66a-4cd6-979f-90a931b79fe1"},"vehicle_type_id":"4","last_reported":1758720055,"current_range_meters":8000,"station_id":"ce4bhlp2rcd13ifvqgjg","pricing_plan_id":"cebpf4jnsgd1na2vs0mg"},{"bike_id":"93e8a5ea-c8e8-4b0c-acc4-17b4e7c792a0","system_id":"levelo_inurba_marseille","lat":43.32661,"lon":5.40992,"is_reserved":false,"is_disabled":false,"rental_uris":{"android":"levelo://app?vid=93e8a5ea-c8e8-4b0c-acc4-17b4e7c792a0","ios":"levelo://app?vid=93e8a5ea-c8e8-4b0c-acc4-17b4e7c792a0"},"vehicle_type_id":"4","last_reported":1758720055,"current_range_meters":7200,"station_id":"ce4bhpp2rcd13ifvqhgg","pricing_plan_id":"cebpf4jnsgd1na2vs0mg"},{"bike_id":"5b9ead61-c702-40a8-96df-1e54b1d03702","system_id":"levelo_inurba_marseille","lat":43.262,"lon":5.37444,"is_reserved":false,"is_disabled":false,"rental_uris":{"android":"levelo://app?vid=5b9ead61-c702-40a8-96df-1e54b1d03702","ios":"levelo://app?vid=5b9ead61-c702-40a8-96df-1e54b1d03702"},"vehicle_type_id":"4","last_reported":1758720055,"current_range_meters":8000,"station_id":"ce4bhgp2rcd13ifvqfc0","pricing_plan_id":"cebpf4jnsgd1na2vs0mg"},{"bike_id":"314600e1-8c06-48d8-93b2-0e07b118a015","system_id":"levelo_inurba_marseille","lat":43.21191,"lon":5.35074,"is_reserved":false,"is_disabled":false,"rental_uris":{"android":"levelo://app?vid=314600e1-8c06-48d8-93b2-0e07b118a015","ios":"levelo://app?vid=314600e1-8c06-48d8-93b2-0e07b118a015"},"vehicle_type_id":"4","last_reported":1758720055,"current_range_meters":8000,"station_id":"st_cvj6sg6p6f1abm77japg","pricing_plan_id":"cebpf4jnsgd1na2vs0mg"},{"bike_id":"55e99175-9ac2-4b1d-bfc1-d397957375d0","system_id":"levelo_inurba_marseille","lat":43.33602,"lon":5.40995,"is_reserved":false,"is_disabled":false,"rental_uris":{"android":"levelo://app?vid=55e99175-9ac2-4b1d-bfc1-d397957375d0","ios":"levelo://app?vid=55e99175-9ac2-4b1d-bfc1-d397957375d0"},"vehicle_type_id":"4","last_reported":1758720055,"current_range_meters":8000,"station_id":"ce4bhqh2rcd13ifvqhmg","pricing_plan_id":"cebpf4jnsgd1na2vs0mg"},{"bike_id":"5b2fec9d-3c73-4089-9434-8c3d58d85716","system_id":"levelo_inurba_marseille","lat":43.23077,"lon":5.35485,"is_reserved":false,"is_disabled":false,"rental_uris":{"android":"levelo://app?vid=5b2fec9d-3c73-4089-9434-8c3d58d85716","ios":"levelo://app?vid=5b2fec9d-3c73-4089-9434-8c3d58d85716"},"vehicle_type_id":"4","last_reported":1758720055,"current_range_meters":8000,"station_id":"cpo3342slgdg3j2ifvpg","pricing_plan_id":"cebpf4jnsgd1na2vs0mg"},{"bike_id":"59332951-160a-4458-8b5a-46d3821ad3d6","system_id":"levelo_inurba_marseille","lat":43.298715,"lon":5.362324,"is_reserved":false,"is_disabled":false,"rental_uris":{"android":"levelo://app?vid=59332951-160a-4458-8b5a-46d3821ad3d6","ios":"levelo://app?vid=59332951-160a-4458-8b5a-46d3821ad3d6"},"vehicle_type_id":"4","last_reported":1758720055,"current_range_meters":8400,"station_id":"ce4bgpp2rcd13ifvqc3g","pricing_plan_id":"cebpf4jnsgd1na2vs0mg"},{"bike_id":"6f340c1b-ef55-49a7-be3d-93df20afb31d","system_id":"levelo_inurba_marseille","lat":43.30305,"lon":5.36878,"is_reserved":false,"is_disabled":false,"rental_uris":{"android":"levelo://app?vid=6f340c1b-ef55-49a7-be3d-93df20afb31d","ios":"levelo://app?vid=6f340c1b-ef55-49a7-be3d-93df20afb31d"},"vehicle_type_id":"4","last_reported":1758720055,"current_range_meters":8400,"station_id":"ce4bgqh2rcd13ifvqc5g","pricing_plan_id":"cebpf4jnsgd1na2vs0mg"},{"bike_id":"c5f7aa87-dc3e-454b-9d5d-64be469dbad9","system_id":"levelo_inurba_marseille","lat":43.30494,"lon":5.37896,"is_reserved":false,"is_disabled":false,"rental_uris":{"android":"levelo://app?vid=c5f7aa87-dc3e-454b-9d5d-64be469dbad9","ios":"levelo://app?vid=c5f7aa87-dc3e-454b-9d5d-64be469dbad9"},"vehicle_type_id":"4","last_reported":1758720055,"current_range_meters":8400,"station_id":"ce4bgup2rcd13ifvqcn0","pricing_plan_id":"cebpf4jnsgd1na2vs0mg"},{"bike_id":"af098fdf-0fca-4e3e-a41e-61bf4847f809","system_id":"levelo_inurba_marseille","lat":43.29189,"lon":5.35806,"is_reserved":false,"is_disabled":false,"rental_uris":{"android":"levelo://app?vid=af098fdf-0fca-4e3e-a41e-61bf4847f809","ios":"levelo://app?vid=af098fdf-0fca-4e3e-a41e-61bf4847f809"},"vehicle_type_id":"4","last_reported":1758720055,"current_range_meters":8400,"station_id":"ce4bhb12rcd13ifvqel0","pricing_plan_id":"cebpf4jnsgd1na2vs0mg"},{"bike_id":"61418c48-e3a3-4dc5-a404-4c63e11a200c","system_id":"levelo_inurba_marseille","lat":43.30147,"lon":5.38782,"is_reserved":false,"is_disabled":false,"rental_uris":{"android":"levelo://app?vid=61418c48-e3a3-4dc5-a404-4c63e11a200c","ios":"levelo://app?vid=61418c48-e3a3-4dc5-a404-4c63e11a200c"},"vehicle_type_id":"4","last_reported":1758720055,"current_range_meters":8800,"station_id":"ce4bghh2rcd13ifvqb60","pricing_plan_id":"cebpf4jnsgd1na2vs0mg"},{"bike_id":"e8e953ff-cf06-48c0-9eb6-692317dadc43","system_id":"levelo_inurba_marseille","lat":43.2396,"lon":5.36636,"is_reserved":false,"is_disabled":false,"rental_uris":{"android":"levelo://app?vid=e8e953ff-cf06-48c0-9eb6-692317dadc43","ios":"levelo://app?vid=e8e953ff-cf06-48c0-9eb6-692317dadc43"},"vehicle_type_id":"4","last_reported":1758720055,"current_range_meters":8800,"station_id":"ce4bhi12rcd13ifvqfp0","pricing_plan_id":"cebpf4jnsgd1na2vs0mg"},{"bike_id":"69de9079-d6dc-471d-ac03-72140e1ba18c","system_id":"levelo_inurba_marseille","lat":43.29846,"lon":5.36264,"is_reserved":false,"is_disabled":false,"rental_uris":{"android":"levelo://app?vid=69de9079-d6dc-471d-ac03-72140e1ba18c","ios":"levelo://app?vid=69de9079-d6dc-471d-ac03-72140e1ba18c"},"vehicle_type_id":"4","last_reported":1758720055,"current_range_meters":8800,"station_id":"ce4bgpp2rcd13ifvqc3g","pricing_plan_id":"cebpf4jnsgd1na2vs0mg"},{"bike_id":"6111b3b5-a63e-41f2-9b7e-8e325e8d3d54","system_id":"levelo_inurba_marseille","lat":43.33604,"lon":5.41033,"is_reserved":false,"is_disabled":false,"rental_uris":{"android":"levelo://app?vid=6111b3b5-a63e-41f2-9b7e-8e325e8d3d54","ios":"levelo://app?vid=6111b3b5-a63e-41f2-9b7e-8e325e8d3d54"},"vehicle_type_id":"4","last_reported":1758720055,"current_range_meters":8800,"station_id":"ce4bhqh2rcd13ifvqhmg","pricing_plan_id":"cebpf4jnsgd1na2vs0mg"},{"bike_id":"40d31530-4f23-49ef-8e7b-36265cd5453a","system_id":"levelo_inurba_marseille","lat":43.23149,"lon":5.43717,"is_reserved":false,"is_disabled":false,"rental_uris":{"android":"levelo://app?vid=40d31530-4f23-49ef-8e7b-36265cd5453a","ios":"levelo://app?vid=40d31530-4f23-49ef-8e7b-36265cd5453a"},"vehicle_type_id":"4","last_reported":1758720055,"current_range_meters":8800,"station_id":"ce4bhmp2rcd13ifvqgog","pricing_plan_id":"cebpf4jnsgd1na2vs0mg"},{"bike_id":"ddb935f4-02ae-4d56-a833-42b515881102","system_id":"levelo_inurba_marseille","lat":43.29931,"lon":5.36546,"is_reserved":false,"is_disabled":false,"rental_uris":{"android":"levelo://app?vid=ddb935f4-02ae-4d56-a833-42b515881102","ios":"levelo://app?vid=ddb935f4-02ae-4d56-a833-42b515881102"},"vehicle_type_id":"4","last_reported":1758720055,"current_range_meters":8800,"station_id":"ce4bgm92rcd13ifvqbr0","pricing_plan_id":"cebpf4jnsgd1na2vs0mg"},{"bike_id":"b22ab305-0906-4751-bb6a-aa75d764077c","system_id":"levelo_inurba_marseille","lat":43.24654,"lon":5.3889,"is_reserved":false,"is_disabled":false,"rental_uris":{"android":"levelo://app?vid=b22ab305-0906-4751-bb6a-aa75d764077c","ios":"levelo://app?vid=b22ab305-0906-4751-bb6a-aa75d764077c"},"vehicle_type_id":"4","last_reported":1758720055,"current_range_meters":9200,"station_id":"ce4bhg12rcd13ifvqf60","pricing_plan_id":"cebpf4jnsgd1na2vs0mg"},{"bike_id":"9c4a7bdb-c552-4dfd-8efb-40b9e0b0b147","system_id":"levelo_inurba_marseille","lat":43.3093,"lon":5.36741,"is_reserved":false,"is_disabled":false,"rental_uris":{"android":"levelo://app?vid=9c4a7bdb-c552-4dfd-8efb-40b9e0b0b147","ios":"levelo://app?vid=9c4a7bdb-c552-4dfd-8efb-40b9e0b0b147"},"vehicle_type_id":"4","last_reported":1758720055,"current_range_meters":9200,"station_id":"","pricing_plan_id":"cebpf4jnsgd1na2vs0mg"},{"bike_id":"7a1b6221-238e-46ff-9ed8-7c045fc26d76","system_id":"levelo_inurba_marseille","lat":43.30948,"lon":5.39033,"is_reserved":false,"is_disabled":false,"rental_uris":{"android":"levelo://app?vid=7a1b6221-238e-46ff-9ed8-7c045fc26d76","ios":"levelo://app?vid=7a1b6221-238e-46ff-9ed8-7c045fc26d76"},"vehicle_type_id":"4","last_reported":1758720055,"current_range_meters":9200,"station_id":"ce4bgup2rcd13ifvqco0","pricing_plan_id":"cebpf4jnsgd1na2vs0mg"},{"bike_id":"4b2b450c-49df-419a-9443-7dce1fdc292b","system_id":"levelo_inurba_marseille","lat":43.31713,"lon":5.37739,"is_reserved":false,"is_disabled":false,"rental_uris":{"android":"levelo://app?vid=4b2b450c-49df-419a-9443-7dce1fdc292b","ios":"levelo://app?vid=4b2b450c-49df-419a-9443-7dce1fdc292b"},"vehicle_type_id":"4","last_reported":1758720055,"current_range_meters":9200,"station_id":"ce4bgth2rcd13ifvqch0","pricing_plan_id":"cebpf4jnsgd1na2vs0mg"},{"bike_id":"4ce67155-9f15-4130-9400-f86685d8ecda","system_id":"levelo_inurba_marseille","lat":43.29776,"lon":5.36505,"is_reserved":false,"is_disabled":false,"rental_uris":{"android":"levelo://app?vid=4ce67155-9f15-4130-9400-f86685d8ecda","ios":"levelo://app?vid=4ce67155-9f15-4130-9400-f86685d8ecda"},"vehicle_type_id":"4","last_reported":1758720055,"current_range_meters":9600,"station_id":"","pricing_plan_id":"cebpf4jnsgd1na2vs0mg"},{"bike_id":"7f74007b-a8b2-4387-94dd-22ac5767bf51","system_id":"levelo_inurba_marseille","lat":43.22555,"lon":5.41652,"is_reserved":false,"is_disabled":false,"rental_uris":{"android":"levelo://app?vid=7f74007b-a8b2-4387-94dd-22ac5767bf51","ios":"levelo://app?vid=7f74007b-a8b2-4387-94dd-22ac5767bf51"},"vehicle_type_id":"4","last_reported":1758720055,"current_range_meters":9600,"station_id":"st_d2o4gvlbi1j2169b742g","pricing_plan_id":"cebpf4jnsgd1na2vs0mg"},{"bike_id":"43d57fd4-047e-4ac8-97e5-ec9b96239472","system_id":"levelo_inurba_marseille","lat":43.33231,"lon":5.39821,"is_reserved":false,"is_disabled":false,"rental_uris":{"android":"levelo://app?vid=43d57fd4-047e-4ac8-97e5-ec9b96239472","ios":"levelo://app?vid=43d57fd4-047e-4ac8-97e5-ec9b96239472"},"vehicle_type_id":"4","last_reported":1758720055,"current_range_meters":9600,"station_id":"","pricing_plan_id":"cebpf4jnsgd1na2vs0mg"},{"bike_id":"7c0482c3-9253-4d1b-b4f3-be55cdb7721d","system_id":"levelo_inurba_marseille","lat":43.33757,"lon":5.37466,"is_reserved":false,"is_disabled":false,"rental_uris":{"android":"levelo://app?vid=7c0482c3-9253-4d1b-b4f3-be55cdb7721d","ios":"levelo://app?vid=7c0482c3-9253-4d1b-b4f3-be55cdb7721d"},"vehicle_type_id":"4","last_reported":1758720055,"current_range_meters":10000,"station_id":"","pricing_plan_id":"cebpf4jnsgd1na2vs0mg"},{"bike_id":"47a0d683-7e55-4f0f-ab16-389f76e50290","system_id":"levelo_inurba_marseille","lat":43.28467,"lon":5.35899,"is_reserved":false,"is_disabled":false,"rental_uris":{"android":"levelo://app?vid=47a0d683-7e55-4f0f-ab16-389f76e50290","ios":"levelo://app?vid=47a0d683-7e55-4f0f-ab16-389f76e50290"},"vehicle_type_id":"4","last_reported":1758720055,"current_range_meters":10000,"station_id":"ce4bhah2rcd13ifvqei0","pricing_plan_id":"cebpf4jnsgd1na2vs0mg"},{"bike_id":"0c8b27c2-cd1c-476e-8dda-67b9d7117446","system_id":"levelo_inurba_marseille","lat":43.29844,"lon":5.36273,"is_reserved":false,"is_disabled":false,"rental_uris":{"android":"levelo://app?vid=0c8b27c2-cd1c-476e-8dda-67b9d7117446","ios":"levelo://app?vid=0c8b27c2-cd1c-476e-8dda-67b9d7117446"},"vehicle_type_id":"4","last_reported":1758720055,"current_range_meters":9600,"station_id":"ce4bgpp2rcd13ifvqc3g","pricing_plan_id":"cebpf4jnsgd1na2vs0mg"},{"bike_id":"0cdf73a9-f85c-4cd8-a4bd-05247de1ba61","system_id":"levelo_inurba_marseille","lat":43.27675,"lon":5.38869,"is_reserved":false,"is_disabled":false,"rental_uris":{"android":"levelo://app?vid=0cdf73a9-f85c-4cd8-a4bd-05247de1ba61","ios":"levelo://app?vid=0cdf73a9-f85c-4cd8-a4bd-05247de1ba61"},"vehicle_type_id":"4","last_reported":1758720055,"current_range_meters":10000,"station_id":"ce4bhi12rcd13ifvqfo0","pricing_plan_id":"cebpf4jnsgd1na2vs0mg"},{"bike_id":"c3ccbf09-5bbf-4439-ab62-cd1f4f69efb3","system_id":"levelo_inurba_marseille","lat":43.33613,"lon":5.40985,"is_reserved":false,"is_disabled":false,"rental_uris":{"android":"levelo://app?vid=c3ccbf09-5bbf-4439-ab62-cd1f4f69efb3","ios":"levelo://app?vid=c3ccbf09-5bbf-4439-ab62-cd1f4f69efb3"},"vehicle_type_id":"4","last_reported":1758720055,"current_range_meters":10000,"station_id":"ce4bhqh2rcd13ifvqhmg","pricing_plan_id":"cebpf4jnsgd1na2vs0mg"},{"bike_id":"566931d0-93ab-40f1-93fa-52171bbf5a22","system_id":"levelo_inurba_marseille","lat":43.25871,"lon":5.39907,"is_reserved":false,"is_disabled":false,"rental_uris":{"android":"levelo://app?vid=566931d0-93ab-40f1-93fa-52171bbf5a22","ios":"levelo://app?vid=566931d0-93ab-40f1-93fa-52171bbf5a22"},"vehicle_type_id":"4","last_reported":1758720055,"current_range_meters":10000,"station_id":"ce4bhl92rcd13ifvqghg","pricing_plan_id":"cebpf4jnsgd1na2vs0mg"},{"bike_id":"e35dc3d8-0dfe-4bd4-87f7-5d3ca8bee4e5","system_id":"levelo_inurba_marseille","lat":43.250777,"lon":5.426228,"is_reserved":false,"is_disabled":false,"rental_uris":{"android":"levelo://app?vid=e35dc3d8-0dfe-4bd4-87f7-5d3ca8bee4e5","ios":"levelo://app?vid=e35dc3d8-0dfe-4bd4-87f7-5d3ca8bee4e5"},"vehicle_type_id":"4","last_reported":1758720055,"current_range_meters":10000,"station_id":"","pricing_plan_id":"cebpf4jnsgd1na2vs0mg"},{"bike_id":"bd28a96f-5186-4a94-87f5-b4a39f66fe4d","system_id":"levelo_inurba_marseille","lat":43.293,"lon":5.37459,"is_reserved":false,"is_disabled":false,"rental_uris":{"android":"levelo://app?vid=bd28a96f-5186-4a94-87f5-b4a39f66fe4d","ios":"levelo://app?vid=bd28a96f-5186-4a94-87f5-b4a39f66fe4d"},"vehicle_type_id":"4","last_reported":1758720055,"current_range_meters":10800,"station_id":"ce4bgi12rcd13ifvqb70","pricing_plan_id":"cebpf4jnsgd1na2vs0mg"},{"bike_id":"b5dd0a2b-63ae-4289-8320-5ac46bae5697","system_id":"levelo_inurba_marseille","lat":43.2407,"lon":5.37765,"is_reserved":false,"is_disabled":false,"rental_uris":{"android":"levelo://app?vid=b5dd0a2b-63ae-4289-8320-5ac46bae5697","ios":"levelo://app?vid=b5dd0a2b-63ae-4289-8320-5ac46bae5697"},"vehicle_type_id":"4","last_reported":1758720055,"current_range_meters":10800,"station_id":"ce4bhnp2rcd13ifvqgvg","pricing_plan_id":"cebpf4jnsgd1na2vs0mg"},{"bike_id":"e92dd605-5039-432d-8739-2562f9154e8c","system_id":"levelo_inurba_marseille","lat":43.31126,"lon":5.37769,"is_reserved":false,"is_disabled":true,"rental_uris":{"android":"levelo://app?vid=e92dd605-5039-432d-8739-2562f9154e8c","ios":"levelo://app?vid=e92dd605-5039-432d-8739-2562f9154e8c"},"vehicle_type_id":"4","last_reported":1758720055,"current_range_meters":10800,"station_id":"ce4bgt92rcd13ifvqcg0","pricing_plan_id":"cebpf4jnsgd1na2vs0mg"},{"bike_id":"7981bd57-1a91-436b-8601-50130d20e8be","system_id":"levelo_inurba_marseille","lat":43.21198,"lon":5.3506,"is_reserved":false,"is_disabled":false,"rental_uris":{"android":"levelo://app?vid=7981bd57-1a91-436b-8601-50130d20e8be","ios":"levelo://app?vid=7981bd57-1a91-436b-8601-50130d20e8be"},"vehicle_type_id":"4","last_reported":1758720055,"current_range_meters":11200,"station_id":"st_cvj6sg6p6f1abm77japg","pricing_plan_id":"cebpf4jnsgd1na2vs0mg"},{"bike_id":"5d93178e-9df8-409e-9875-7e68c6516015","system_id":"levelo_inurba_marseille","lat":43.29561,"lon":5.37499,"is_reserved":false,"is_disabled":false,"rental_uris":{"android":"levelo://app?vid=5d93178e-9df8-409e-9875-7e68c6516015","ios":"levelo://app?vid=5d93178e-9df8-409e-9875-7e68c6516015"},"vehicle_type_id":"4","last_reported":1758720055,"current_range_meters":11200,"station_id":"ce4bgh92rcd13ifvqb50","pricing_plan_id":"cebpf4jnsgd1na2vs0mg"},{"bike_id":"147cb10d-de7e-4c23-8c61-60e3d194d777","system_id":"levelo_inurba_marseille","lat":43.282688,"lon":5.350538,"is_reserved":false,"is_disabled":false,"rental_uris":{"android":"levelo://app?vid=147cb10d-de7e-4c23-8c61-60e3d194d777","ios":"levelo://app?vid=147cb10d-de7e-4c23-8c61-60e3d194d777"},"vehicle_type_id":"4","last_reported":1758720055,"current_range_meters":11200,"station_id":"ce4bhbp2rcd13ifvqerg","pricing_plan_id":"cebpf4jnsgd1na2vs0mg"},{"bike_id":"1f05af74-d700-4dc0-8346-0007af34ea85","system_id":"levelo_inurba_marseille","lat":43.23151,"lon":5.43712,"is_reserved":false,"is_disabled":false,"rental_uris":{"android":"levelo://app?vid=1f05af74-d700-4dc0-8346-0007af34ea85","ios":"levelo://app?vid=1f05af74-d700-4dc0-8346-0007af34ea85"},"vehicle_type_id":"4","last_reported":1758720055,"current_range_meters":11200,"station_id":"ce4bhmp2rcd13ifvqgog","pricing_plan_id":"cebpf4jnsgd1na2vs0mg"},{"bike_id":"a97c5f3a-89d2-4741-940f-600f22b16835","system_id":"levelo_inurba_marseille","lat":43.2419,"lon":5.39724,"is_reserved":false,"is_disabled":false,"rental_uris":{"android":"levelo://app?vid=a97c5f3a-89d2-4741-940f-600f22b16835","ios":"levelo://app?vid=a97c5f3a-89d2-4741-940f-600f22b16835"},"vehicle_type_id":"4","last_reported":1758720055,"current_range_meters":11200,"station_id":"ce4bhn12rcd13ifvqgpg","pricing_plan_id":"cebpf4jnsgd1na2vs0mg"},{"bike_id":"343c7549-bf08-44ce-9fe4-94fec5c5103f","system_id":"levelo_inurba_marseille","lat":43.2994,"lon":5.36541,"is_reserved":false,"is_disabled":false,"rental_uris":{"android":"levelo://app?vid=343c7549-bf08-44ce-9fe4-94fec5c5103f","ios":"levelo://app?vid=343c7549-bf08-44ce-9fe4-94fec5c5103f"},"vehicle_type_id":"4","last_reported":1758720055,"current_range_meters":11200,"station_id":"ce4bgm92rcd13ifvqbr0","pricing_plan_id":"cebpf4jnsgd1na2vs0mg"},{"bike_id":"0b3ee959-6591-4d1a-ba13-bde058c48bde","system_id":"levelo_inurba_marseille","lat":43.30208,"lon":5.39472,"is_reserved":false,"is_disabled":false,"rental_uris":{"android":"levelo://app?vid=0b3ee959-6591-4d1a-ba13-bde058c48bde","ios":"levelo://app?vid=0b3ee959-6591-4d1a-ba13-bde058c48bde"},"vehicle_type_id":"4","last_reported":1758720055,"current_range_meters":11600,"station_id":"ce4bh0p2rcd13ifvqd70","pricing_plan_id":"cebpf4jnsgd1na2vs0mg"},{"bike_id":"a60abba9-f9b8-477b-8786-175fc2b6218b","system_id":"levelo_inurba_marseille","lat":43.30901,"lon":5.37259,"is_reserved":false,"is_disabled":false,"rental_uris":{"android":"levelo://app?vid=a60abba9-f9b8-477b-8786-175fc2b6218b","ios":"levelo://app?vid=a60abba9-f9b8-477b-8786-175fc2b6218b"},"vehicle_type_id":"4","last_reported":1758720055,"current_range_meters":11600,"station_id":"","pricing_plan_id":"cebpf4jnsgd1na2vs0mg"},{"bike_id":"a847684e-703a-4509-b6ed-c8f6c8fe94e9","system_id":"levelo_inurba_marseille","lat":43.30143,"lon":5.39841,"is_reserved":false,"is_disabled":false,"rental_uris":{"android":"levelo://app?vid=a847684e-703a-4509-b6ed-c8f6c8fe94e9","ios":"levelo://app?vid=a847684e-703a-4509-b6ed-c8f6c8fe94e9"},"vehicle_type_id":"4","last_reported":1758720055,"current_range_meters":11600,"station_id":"ce4bh0h2rcd13ifvqd40","pricing_plan_id":"cebpf4jnsgd1na2vs0mg"},{"bike_id":"44647f99-86f0-450e-8737-c038a5bfd4dd","system_id":"levelo_inurba_marseille","lat":43.28627,"lon":5.35072,"is_reserved":false,"is_disabled":false,"rental_uris":{"android":"levelo://app?vid=44647f99-86f0-450e-8737-c038a5bfd4dd","ios":"levelo://app?vid=44647f99-86f0-450e-8737-c038a5bfd4dd"},"vehicle_type_id":"4","last_reported":1758720055,"current_range_meters":11600,"station_id":"ce4bhch2rcd13ifvqeug","pricing_plan_id":"cebpf4jnsgd1na2vs0mg"},{"bike_id":"0220a805-aee9-409e-95ea-3a0d559cfe9f","system_id":"levelo_inurba_marseille","lat":43.24642,"lon":5.38899,"is_reserved":false,"is_disabled":false,"rental_uris":{"android":"levelo://app?vid=0220a805-aee9-409e-95ea-3a0d559cfe9f","ios":"levelo://app?vid=0220a805-aee9-409e-95ea-3a0d559cfe9f"},"vehicle_type_id":"4","last_reported":1758720055,"current_range_meters":11600,"station_id":"ce4bhg12rcd13ifvqf60","pricing_plan_id":"cebpf4jnsgd1na2vs0mg"},{"bike_id":"eda9196e-2b42-46a8-a7a1-102bbbaf4e73","system_id":"levelo_inurba_marseille","lat":43.27625,"lon":5.3611,"is_reserved":false,"is_disabled":false,"rental_uris":{"android":"levelo://app?vid=eda9196e-2b42-46a8-a7a1-102bbbaf4e73","ios":"levelo://app?vid=eda9196e-2b42-46a8-a7a1-102bbbaf4e73"},"vehicle_type_id":"4","last_reported":1758720055,"current_range_meters":12000,"station_id":"ce4bgj92rcd13ifvqbe0","pricing_plan_id":"cebpf4jnsgd1na2vs0mg"},{"bike_id":"852c755f-1ed9-4a37-a8f7-e469aab2f8aa","system_id":"levelo_inurba_marseille","lat":43.30599,"lon":5.37228,"is_reserved":false,"is_disabled":false,"rental_uris":{"android":"levelo://app?vid=852c755f-1ed9-4a37-a8f7-e469aab2f8aa","ios":"levelo://app?vid=852c755f-1ed9-4a37-a8f7-e469aab2f8aa"},"vehicle_type_id":"4","last_reported":1758720055,"current_range_meters":12000,"station_id":"ce4bgqh2rcd13ifvqc4g","pricing_plan_id":"cebpf4jnsgd1na2vs0mg"},{"bike_id":"c870b162-1a7f-4b58-aa55-4746de7ac151","system_id":"levelo_inurba_marseille","lat":43.30603,"lon":5.37227,"is_reserved":false,"is_disabled":false,"rental_uris":{"android":"levelo://app?vid=c870b162-1a7f-4b58-aa55-4746de7ac151","ios":"levelo://app?vid=c870b162-1a7f-4b58-aa55-4746de7ac151"},"vehicle_type_id":"4","last_reported":1758720055,"current_range_meters":12000,"station_id":"ce4bgqh2rcd13ifvqc4g","pricing_plan_id":"cebpf4jnsgd1na2vs0mg"},{"bike_id":"f051bd67-fe2f-4456-8da3-b16238fe7802","system_id":"levelo_inurba_marseille","lat":43.23188,"lon":5.39991,"is_reserved":false,"is_disabled":false,"rental_uris":{"android":"levelo://app?vid=f051bd67-fe2f-4456-8da3-b16238fe7802","ios":"levelo://app?vid=f051bd67-fe2f-4456-8da3-b16238fe7802"},"vehicle_type_id":"4","last_reported":1758720055,"current_range_meters":12000,"station_id":"ce4bhn12rcd13ifvqgqg","pricing_plan_id":"cebpf4jnsgd1na2vs0mg"},{"bike_id":"d45e55fd-bdef-4148-a4fe-c963d9428301","system_id":"levelo_inurba_marseille","lat":43.259261,"lon":5.409005,"is_reserved":false,"is_disabled":false,"rental_uris":{"android":"levelo://app?vid=d45e55fd-bdef-4148-a4fe-c963d9428301","ios":"levelo://app?vid=d45e55fd-bdef-4148-a4fe-c963d9428301"},"vehicle_type_id":"4","last_reported":1758720055,"current_range_meters":12000,"station_id":"ce4bhm92rcd13ifvqglg","pricing_plan_id":"cebpf4jnsgd1na2vs0mg"},{"bike_id":"16cee2f9-0604-4f00-85ee-c5690b0410f0","system_id":"levelo_inurba_marseille","lat":43.28619,"lon":5.35105,"is_reserved":false,"is_disabled":false,"rental_uris":{"android":"levelo://app?vid=16cee2f9-0604-4f00-85ee-c5690b0410f0","ios":"levelo://app?vid=16cee2f9-0604-4f00-85ee-c5690b0410f0"},"vehicle_type_id":"4","last_reported":1758720055,"current_range_meters":12000,"station_id":"ce4bhch2rcd13ifvqeug","pricing_plan_id":"cebpf4jnsgd1na2vs0mg"},{"bike_id":"38700831-23d8-4235-a846-295ef3fb5d0b","system_id":"levelo_inurba_marseille","lat":43.24185,"lon":5.39733,"is_reserved":false,"is_disabled":false,"rental_uris":{"android":"levelo://app?vid=38700831-23d8-4235-a846-295ef3fb5d0b","ios":"levelo://app?vid=38700831-23d8-4235-a846-295ef3fb5d0b"},"vehicle_type_id":"4","last_reported":1758720055,"current_range_meters":12000,"station_id":"ce4bhn12rcd13ifvqgpg","pricing_plan_id":"cebpf4jnsgd1na2vs0mg"},{"bike_id":"0f1650fe-7e07-4db9-9c9e-440f7f5b47d4","system_id":"levelo_inurba_marseille","lat":43.21201,"lon":5.35064,"is_reserved":false,"is_disabled":false,"rental_uris":{"android":"levelo://app?vid=0f1650fe-7e07-4db9-9c9e-440f7f5b47d4","ios":"levelo://app?vid=0f1650fe-7e07-4db9-9c9e-440f7f5b47d4"},"vehicle_type_id":"4","last_reported":1758720055,"current_range_meters":12000,"station_id":"st_cvj6sg6p6f1abm77japg","pricing_plan_id":"cebpf4jnsgd1na2vs0mg"},{"bike_id":"40c1e12a-e957-4f6e-881a-f1b4ed5d19b1","system_id":"levelo_inurba_marseille","lat":43.28861,"lon":5.35813,"is_reserved":false,"is_disabled":false,"rental_uris":{"android":"levelo://app?vid=40c1e12a-e957-4f6e-881a-f1b4ed5d19b1","ios":"levelo://app?vid=40c1e12a-e957-4f6e-881a-f1b4ed5d19b1"},"vehicle_type_id":"4","last_reported":1758720055,"current_range_meters":12000,"station_id":"ce4bhb12rcd13ifvqem0","pricing_plan_id":"cebpf4jnsgd1na2vs0mg"},{"bike_id":"9feb0e0f-24fa-4463-b0f3-30472830c043","system_id":"levelo_inurba_marseille","lat":43.31757,"lon":5.39002,"is_reserved":false,"is_disabled":false,"rental_uris":{"android":"levelo://app?vid=9feb0e0f-24fa-4463-b0f3-30472830c043","ios":"levelo://app?vid=9feb0e0f-24fa-4463-b0f3-30472830c043"},"vehicle_type_id":"4","last_reported":1758720055,"current_range_meters":12400,"station_id":"ce4bhqp2rcd13ifvqhng","pricing_plan_id":"cebpf4jnsgd1na2vs0mg"},{"bike_id":"4ea71d83-c74b-45e0-95a5-e4c77af55e88","system_id":"levelo_inurba_marseille","lat":43.321172,"lon":5.367781,"is_reserved":false,"is_disabled":false,"rental_uris":{"android":"levelo://app?vid=4ea71d83-c74b-45e0-95a5-e4c77af55e88","ios":"levelo://app?vid=4ea71d83-c74b-45e0-95a5-e4c77af55e88"},"vehicle_type_id":"4","last_reported":1758720055,"current_range_meters":12400,"station_id":"ce4bhrh2rcd13ifvqhug","pricing_plan_id":"cebpf4jnsgd1na2vs0mg"},{"bike_id":"d85afc77-242b-4be6-a9d8-52e2056d100b","system_id":"levelo_inurba_marseille","lat":43.29803,"lon":5.40395,"is_reserved":false,"is_disabled":false,"rental_uris":{"android":"levelo://app?vid=d85afc77-242b-4be6-a9d8-52e2056d100b","ios":"levelo://app?vid=d85afc77-242b-4be6-a9d8-52e2056d100b"},"vehicle_type_id":"4","last_reported":1758720055,"current_range_meters":12400,"station_id":"ce4bh112rcd13ifvqd90","pricing_plan_id":"cebpf4jnsgd1na2vs0mg"},{"bike_id":"952ee192-a3b8-45ab-8500-8f2bd0ec787c","system_id":"levelo_inurba_marseille","lat":43.28616,"lon":5.3511,"is_reserved":false,"is_disabled":false,"rental_uris":{"android":"levelo://app?vid=952ee192-a3b8-45ab-8500-8f2bd0ec787c","ios":"levelo://app?vid=952ee192-a3b8-45ab-8500-8f2bd0ec787c"},"vehicle_type_id":"4","last_reported":1758720055,"current_range_meters":12400,"station_id":"ce4bhch2rcd13ifvqeug","pricing_plan_id":"cebpf4jnsgd1na2vs0mg"},{"bike_id":"4e3ba1cc-8038-45ae-9768-ee6d0e4bbd6c","system_id":"levelo_inurba_marseille","lat":43.27915,"lon":5.39595,"is_reserved":false,"is_disabled":false,"rental_uris":{"android":"levelo://app?vid=4e3ba1cc-8038-45ae-9768-ee6d0e4bbd6c","ios":"levelo://app?vid=4e3ba1cc-8038-45ae-9768-ee6d0e4bbd6c"},"vehicle_type_id":"4","last_reported":1758720055,"current_range_meters":12400,"station_id":"ce4bhf92rcd13ifvqf40","pricing_plan_id":"cebpf4jnsgd1na2vs0mg"},{"bike_id":"1823891f-6894-4799-9f93-448daae9b983","system_id":"levelo_inurba_marseille","lat":43.29779,"lon":5.39334,"is_reserved":false,"is_disabled":false,"rental_uris":{"android":"levelo://app?vid=1823891f-6894-4799-9f93-448daae9b983","ios":"levelo://app?vid=1823891f-6894-4799-9f93-448daae9b983"},"vehicle_type_id":"4","last_reported":1758720055,"current_range_meters":12400,"station_id":"chh1huq6cuj3fo74tm60","pricing_plan_id":"cebpf4jnsgd1na2vs0mg"},{"bike_id":"62f021fc-8ca6-41e3-ae50-b6472d3cf132","system_id":"levelo_inurba_marseille","lat":43.299334,"lon":5.364677,"is_reserved":false,"is_disabled":false,"rental_uris":{"android":"levelo://app?vid=62f021fc-8ca6-41e3-ae50-b6472d3cf132","ios":"levelo://app?vid=62f021fc-8ca6-41e3-ae50-b6472d3cf132"},"vehicle_type_id":"4","last_reported":1758720055,"current_range_meters":12400,"station_id":"ce4bgm92rcd13ifvqbr0","pricing_plan_id":"cebpf4jnsgd1na2vs0mg"},{"bike_id":"256d7e8b-6f10-45e7-998f-21b1a7616e67","system_id":"levelo_inurba_marseille","lat":43.29796,"lon":5.38076,"is_reserved":false,"is_disabled":false,"rental_uris":{"android":"levelo://app?vid=256d7e8b-6f10-45e7-998f-21b1a7616e67","ios":"levelo://app?vid=256d7e8b-6f10-45e7-998f-21b1a7616e67"},"vehicle_type_id":"4","last_reported":1758720055,"current_range_meters":12400,"station_id":"ce4bgip2rcd13ifvqbb0","pricing_plan_id":"cebpf4jnsgd1na2vs0mg"},{"bike_id":"438ead59-de14-4fa0-a61d-03a70a4122ae","system_id":"levelo_inurba_marseille","lat":43.97269,"lon":4.89111,"is_reserved":false,"is_disabled":true,"rental_uris":{"android":"levelo://app?vid=438ead59-de14-4fa0-a61d-03a70a4122ae","ios":"levelo://app?vid=438ead59-de14-4fa0-a61d-03a70a4122ae"},"vehicle_type_id":"4","last_reported":1758720055,"current_range_meters":12400,"station_id":"","pricing_plan_id":"cebpf4jnsgd1na2vs0mg"},{"bike_id":"8c0227e3-55e8-4994-aa0c-9b6ee99b7e26","system_id":"levelo_inurba_marseille","lat":43.23113,"lon":5.35377,"is_reserved":false,"is_disabled":false,"rental_uris":{"android":"levelo://app?vid=8c0227e3-55e8-4994-aa0c-9b6ee99b7e26","ios":"levelo://app?vid=8c0227e3-55e8-4994-aa0c-9b6ee99b7e26"},"vehicle_type_id":"4","last_reported":1758720055,"current_range_meters":12800,"station_id":"cpo3342slgdg3j2ifvpg","pricing_plan_id":"cebpf4jnsgd1na2vs0mg"},{"bike_id":"775d2ad5-89ec-4ca2-aad6-292d6d92b011","system_id":"levelo_inurba_marseille","lat":43.32466,"lon":5.36539,"is_reserved":false,"is_disabled":false,"rental_uris":{"android":"levelo://app?vid=775d2ad5-89ec-4ca2-aad6-292d6d92b011","ios":"levelo://app?vid=775d2ad5-89ec-4ca2-aad6-292d6d92b011"},"vehicle_type_id":"4","last_reported":1758720055,"current_range_meters":12800,"station_id":"ce4bhs12rcd13ifvqhvg","pricing_plan_id":"cebpf4jnsgd1na2vs0mg"},{"bike_id":"ffc2dfaf-3813-4800-83d0-eccca5fd5c8a","system_id":"levelo_inurba_marseille","lat":43.30912,"lon":5.36846,"is_reserved":false,"is_disabled":false,"rental_uris":{"android":"levelo://app?vid=ffc2dfaf-3813-4800-83d0-eccca5fd5c8a","ios":"levelo://app?vid=ffc2dfaf-3813-4800-83d0-eccca5fd5c8a"},"vehicle_type_id":"4","last_reported":1758720055,"current_range_meters":12800,"station_id":"ce4bgn92rcd13ifvqbvg","pricing_plan_id":"cebpf4jnsgd1na2vs0mg"},{"bike_id":"b5097eea-9912-4be2-9cf9-14c224c5fab6","system_id":"levelo_inurba_marseille","lat":43.231966,"lon":5.355572,"is_reserved":false,"is_disabled":false,"rental_uris":{"android":"levelo://app?vid=b5097eea-9912-4be2-9cf9-14c224c5fab6","ios":"levelo://app?vid=b5097eea-9912-4be2-9cf9-14c224c5fab6"},"vehicle_type_id":"4","last_reported":1758720055,"current_range_meters":12800,"station_id":"ce4bhu92rcd13ifvqi70","pricing_plan_id":"cebpf4jnsgd1na2vs0mg"},{"bike_id":"06c10839-75c7-457b-804b-f341157fb4f3","system_id":"levelo_inurba_marseille","lat":43.25057,"lon":5.40437,"is_reserved":false,"is_disabled":false,"rental_uris":{"android":"levelo://app?vid=06c10839-75c7-457b-804b-f341157fb4f3","ios":"levelo://app?vid=06c10839-75c7-457b-804b-f341157fb4f3"},"vehicle_type_id":"4","last_reported":1758720055,"current_range_meters":12800,"station_id":"","pricing_plan_id":"cebpf4jnsgd1na2vs0mg"},{"bike_id":"0aa1d1d8-e4de-4095-ab27-a229d724fd7d","system_id":"levelo_inurba_marseille","lat":43.24533,"lon":5.39524,"is_reserved":false,"is_disabled":false,"rental_uris":{"android":"levelo://app?vid=0aa1d1d8-e4de-4095-ab27-a229d724fd7d","ios":"levelo://app?vid=0aa1d1d8-e4de-4095-ab27-a229d724fd7d"},"vehicle_type_id":"4","last_reported":1758720055,"current_range_meters":12800,"station_id":"ce4bhlp2rcd13ifvqgjg","pricing_plan_id":"cebpf4jnsgd1na2vs0mg"},{"bike_id":"f0d66c07-ad22-4bc1-8ead-1cf2d13a5279","system_id":"levelo_inurba_marseille","lat":43.26804,"lon":5.4027,"is_reserved":false,"is_disabled":false,"rental_uris":{"android":"levelo://app?vid=f0d66c07-ad22-4bc1-8ead-1cf2d13a5279","ios":"levelo://app?vid=f0d66c07-ad22-4bc1-8ead-1cf2d13a5279"},"vehicle_type_id":"4","last_reported":1758720055,"current_range_meters":12800,"station_id":"ce501612rcd8frsf0b60","pricing_plan_id":"cebpf4jnsgd1na2vs0mg"},{"bike_id":"64331bf9-f763-49ab-bafc-1428b2bfa299","system_id":"levelo_inurba_marseille","lat":43.30101,"lon":5.39087,"is_reserved":false,"is_disabled":false,"rental_uris":{"android":"levelo://app?vid=64331bf9-f763-49ab-bafc-1428b2bfa299","ios":"levelo://app?vid=64331bf9-f763-49ab-bafc-1428b2bfa299"},"vehicle_type_id":"4","last_reported":1758720055,"current_range_meters":12800,"station_id":"ce4bh192rcd13ifvqdb0","pricing_plan_id":"cebpf4jnsgd1na2vs0mg"},{"bike_id":"c7afab79-9e12-4c0d-9720-b7bebfd39ed7","system_id":"levelo_inurba_marseille","lat":43.30885,"lon":5.39647,"is_reserved":false,"is_disabled":false,"rental_uris":{"android":"levelo://app?vid=c7afab79-9e12-4c0d-9720-b7bebfd39ed7","ios":"levelo://app?vid=c7afab79-9e12-4c0d-9720-b7bebfd39ed7"},"vehicle_type_id":"4","last_reported":1758720055,"current_range_meters":12800,"station_id":"ce4bh012rcd13ifvqcv0","pricing_plan_id":"cebpf4jnsgd1na2vs0mg"},{"bike_id":"2b142924-375d-48cb-93a3-16a1b9bf5e94","system_id":"levelo_inurba_marseille","lat":43.28612,"lon":5.35104,"is_reserved":false,"is_disabled":false,"rental_uris":{"android":"levelo://app?vid=2b142924-375d-48cb-93a3-16a1b9bf5e94","ios":"levelo://app?vid=2b142924-375d-48cb-93a3-16a1b9bf5e94"},"vehicle_type_id":"4","last_reported":1758720055,"current_range_meters":12800,"station_id":"ce4bhch2rcd13ifvqeug","pricing_plan_id":"cebpf4jnsgd1na2vs0mg"},{"bike_id":"663b6a8e-de8e-4aa3-8c1d-78a4c2b4fffa","system_id":"levelo_inurba_marseille","lat":43.27377,"lon":5.36255,"is_reserved":false,"is_disabled":false,"rental_uris":{"android":"levelo://app?vid=663b6a8e-de8e-4aa3-8c1d-78a4c2b4fffa","ios":"levelo://app?vid=663b6a8e-de8e-4aa3-8c1d-78a4c2b4fffa"},"vehicle_type_id":"4","last_reported":1758720055,"current_range_meters":12800,"station_id":"ce4bhbh2rcd13ifvqeo0","pricing_plan_id":"cebpf4jnsgd1na2vs0mg"},{"bike_id":"b1f3c99e-77e3-4e78-a221-21487f2fd30c","system_id":"levelo_inurba_marseille","lat":43.28466,"lon":5.35886,"is_reserved":false,"is_disabled":false,"rental_uris":{"android":"levelo://app?vid=b1f3c99e-77e3-4e78-a221-21487f2fd30c","ios":"levelo://app?vid=b1f3c99e-77e3-4e78-a221-21487f2fd30c"},"vehicle_type_id":"4","last_reported":1758720055,"current_range_meters":12800,"station_id":"ce4bhah2rcd13ifvqei0","pricing_plan_id":"cebpf4jnsgd1na2vs0mg"},{"bike_id":"2d4006e7-21c9-43f0-a094-fcaaa7f929b9","system_id":"levelo_inurba_marseille","lat":43.305398,"lon":5.365345,"is_reserved":false,"is_disabled":false,"rental_uris":{"android":"levelo://app?vid=2d4006e7-21c9-43f0-a094-fcaaa7f929b9","ios":"levelo://app?vid=2d4006e7-21c9-43f0-a094-fcaaa7f929b9"},"vehicle_type_id":"4","last_reported":1758720055,"current_range_meters":13600,"station_id":"ce4bgs12rcd13ifvqcag","pricing_plan_id":"cebpf4jnsgd1na2vs0mg"},{"bike_id":"b3ec3379-5c3f-4624-9266-6edb4f07b01e","system_id":"levelo_inurba_marseille","lat":43.30269,"lon":5.37699,"is_reserved":false,"is_disabled":false,"rental_uris":{"android":"levelo://app?vid=b3ec3379-5c3f-4624-9266-6edb4f07b01e","ios":"levelo://app?vid=b3ec3379-5c3f-4624-9266-6edb4f07b01e"},"vehicle_type_id":"4","last_reported":1758720055,"current_range_meters":13600,"station_id":"ce4bguh2rcd13ifvqcj0","pricing_plan_id":"cebpf4jnsgd1na2vs0mg"},{"bike_id":"528c3ca2-6e69-4088-b13a-99bd3c7e415f","system_id":"levelo_inurba_marseille","lat":43.23191,"lon":5.39983,"is_reserved":false,"is_disabled":false,"rental_uris":{"android":"levelo://app?vid=528c3ca2-6e69-4088-b13a-99bd3c7e415f","ios":"levelo://app?vid=528c3ca2-6e69-4088-b13a-99bd3c7e415f"},"vehicle_type_id":"4","last_reported":1758720055,"current_range_meters":13600,"station_id":"ce4bhn12rcd13ifvqgqg","pricing_plan_id":"cebpf4jnsgd1na2vs0mg"},{"bike_id":"ff0ac00c-8d6a-4908-a4f8-042b1dd0a492","system_id":"levelo_inurba_marseille","lat":43.30926,"lon":5.40142,"is_reserved":false,"is_disabled":false,"rental_uris":{"android":"levelo://app?vid=ff0ac00c-8d6a-4908-a4f8-042b1dd0a492","ios":"levelo://app?vid=ff0ac00c-8d6a-4908-a4f8-042b1dd0a492"},"vehicle_type_id":"4","last_reported":1758720055,"current_range_meters":13600,"station_id":"ce4bgvp2rcd13ifvqct0","pricing_plan_id":"cebpf4jnsgd1na2vs0mg"},{"bike_id":"d5748f11-c747-445a-ba16-03e2bc50ef5f","system_id":"levelo_inurba_marseille","lat":43.23186,"lon":5.39992,"is_reserved":false,"is_disabled":false,"rental_uris":{"android":"levelo://app?vid=d5748f11-c747-445a-ba16-03e2bc50ef5f","ios":"levelo://app?vid=d5748f11-c747-445a-ba16-03e2bc50ef5f"},"vehicle_type_id":"4","last_reported":1758720055,"current_range_meters":14000,"station_id":"ce4bhn12rcd13ifvqgqg","pricing_plan_id":"cebpf4jnsgd1na2vs0mg"},{"bike_id":"76aa3566-e331-4cbe-a48e-3dd212987155","system_id":"levelo_inurba_marseille","lat":43.31361,"lon":5.36715,"is_reserved":false,"is_disabled":false,"rental_uris":{"android":"levelo://app?vid=76aa3566-e331-4cbe-a48e-3dd212987155","ios":"levelo://app?vid=76aa3566-e331-4cbe-a48e-3dd212987155"},"vehicle_type_id":"4","last_reported":1758720055,"current_range_meters":14000,"station_id":"ce4bgr92rcd13ifvqc6g","pricing_plan_id":"cebpf4jnsgd1na2vs0mg"},{"bike_id":"e2648b19-fcff-4ec5-b1a6-cb277f323325","system_id":"levelo_inurba_marseille","lat":43.28973,"lon":5.37838,"is_reserved":false,"is_disabled":false,"rental_uris":{"android":"levelo://app?vid=e2648b19-fcff-4ec5-b1a6-cb277f323325","ios":"levelo://app?vid=e2648b19-fcff-4ec5-b1a6-cb277f323325"},"vehicle_type_id":"4","last_reported":1758720055,"current_range_meters":14000,"station_id":"ce4bh9p2rcd13ifvqed0","pricing_plan_id":"cebpf4jnsgd1na2vs0mg"},{"bike_id":"b48e70b2-53f1-4641-819c-a53cac59b8ed","system_id":"levelo_inurba_marseille","lat":43.258241,"lon":5.39439,"is_reserved":false,"is_disabled":false,"rental_uris":{"android":"levelo://app?vid=b48e70b2-53f1-4641-819c-a53cac59b8ed","ios":"levelo://app?vid=b48e70b2-53f1-4641-819c-a53cac59b8ed"},"vehicle_type_id":"4","last_reported":1758720055,"current_range_meters":14000,"station_id":"ce4bhip2rcd13ifvqft0","pricing_plan_id":"cebpf4jnsgd1na2vs0mg"},{"bike_id":"36b070bb-df09-4433-b99c-aab79ada22d5","system_id":"levelo_inurba_marseille","lat":43.29287,"lon":5.3744,"is_reserved":false,"is_disabled":false,"rental_uris":{"android":"levelo://app?vid=36b070bb-df09-4433-b99c-aab79ada22d5","ios":"levelo://app?vid=36b070bb-df09-4433-b99c-aab79ada22d5"},"vehicle_type_id":"4","last_reported":1758720055,"current_range_meters":14000,"station_id":"","pricing_plan_id":"cebpf4jnsgd1na2vs0mg"},{"bike_id":"423a0561-40f7-45f5-8b09-c3ea3b6f31bf","system_id":"levelo_inurba_marseille","lat":43.29227,"lon":5.36044,"is_reserved":false,"is_disabled":false,"rental_uris":{"android":"levelo://app?vid=423a0561-40f7-45f5-8b09-c3ea3b6f31bf","ios":"levelo://app?vid=423a0561-40f7-45f5-8b09-c3ea3b6f31bf"},"vehicle_type_id":"4","last_reported":1758720055,"current_range_meters":14400,"station_id":"ce4bhbh2rcd13ifvqeqg","pricing_plan_id":"cebpf4jnsgd1na2vs0mg"},{"bike_id":"ef00c611-56e3-4d87-83a8-6fad9627913a","system_id":"levelo_inurba_marseille","lat":43.308894,"lon":5.371943,"is_reserved":false,"is_disabled":false,"rental_uris":{"android":"levelo://app?vid=ef00c611-56e3-4d87-83a8-6fad9627913a","ios":"levelo://app?vid=ef00c611-56e3-4d87-83a8-6fad9627913a"},"vehicle_type_id":"4","last_reported":1758720055,"current_range_meters":14400,"station_id":"ce4bguh2rcd13ifvqckg","pricing_plan_id":"cebpf4jnsgd1na2vs0mg"},{"bike_id":"52094713-4280-421b-b417-fe5c844f4daa","system_id":"levelo_inurba_marseille","lat":43.25103,"lon":5.40294,"is_reserved":false,"is_disabled":false,"rental_uris":{"android":"levelo://app?vid=52094713-4280-421b-b417-fe5c844f4daa","ios":"levelo://app?vid=52094713-4280-421b-b417-fe5c844f4daa"},"vehicle_type_id":"4","last_reported":1758720055,"current_range_meters":14400,"station_id":"ce4bhlh2rcd13ifvqgig","pricing_plan_id":"cebpf4jnsgd1na2vs0mg"},{"bike_id":"a851cae0-b395-441e-9dd1-21300baf3396","system_id":"levelo_inurba_marseille","lat":43.31519,"lon":5.38678,"is_reserved":false,"is_disabled":false,"rental_uris":{"android":"levelo://app?vid=a851cae0-b395-441e-9dd1-21300baf3396","ios":"levelo://app?vid=a851cae0-b395-441e-9dd1-21300baf3396"},"vehicle_type_id":"4","last_reported":1758720055,"current_range_meters":14400,"station_id":"","pricing_plan_id":"cebpf4jnsgd1na2vs0mg"},{"bike_id":"398fef7f-c52c-464b-b837-db7db0e2602a","system_id":"levelo_inurba_marseille","lat":43.25333,"lon":5.42158,"is_reserved":false,"is_disabled":false,"rental_uris":{"android":"levelo://app?vid=398fef7f-c52c-464b-b837-db7db0e2602a","ios":"levelo://app?vid=398fef7f-c52c-464b-b837-db7db0e2602a"},"vehicle_type_id":"4","last_reported":1758720055,"current_range_meters":14400,"station_id":"st_d2m65c5bi1j21697t3ng","pricing_plan_id":"cebpf4jnsgd1na2vs0mg"},{"bike_id":"f28ef631-b7b8-4ec4-8d1e-0419bfa21e37","system_id":"levelo_inurba_marseille","lat":43.26517,"lon":5.39568,"is_reserved":false,"is_disabled":false,"rental_uris":{"android":"levelo://app?vid=f28ef631-b7b8-4ec4-8d1e-0419bfa21e37","ios":"levelo://app?vid=f28ef631-b7b8-4ec4-8d1e-0419bfa21e37"},"vehicle_type_id":"4","last_reported":1758720055,"current_range_meters":14400,"station_id":"ce4bhi12rcd13ifvqfq0","pricing_plan_id":"cebpf4jnsgd1na2vs0mg"},{"bike_id":"65b19ebe-fff4-4cda-a54a-f51b6011334d","system_id":"levelo_inurba_marseille","lat":43.301439,"lon":5.374986,"is_reserved":false,"is_disabled":false,"rental_uris":{"android":"levelo://app?vid=65b19ebe-fff4-4cda-a54a-f51b6011334d","ios":"levelo://app?vid=65b19ebe-fff4-4cda-a54a-f51b6011334d"},"vehicle_type_id":"4","last_reported":1758720055,"current_range_meters":14400,"station_id":"ce4bguh2rcd13ifvqcj0","pricing_plan_id":"cebpf4jnsgd1na2vs0mg"},{"bike_id":"e69aa272-dee0-480e-b3c5-278251df60a2","system_id":"levelo_inurba_marseille","lat":43.28718,"lon":5.3793,"is_reserved":false,"is_disabled":false,"rental_uris":{"android":"levelo://app?vid=e69aa272-dee0-480e-b3c5-278251df60a2","ios":"levelo://app?vid=e69aa272-dee0-480e-b3c5-278251df60a2"},"vehicle_type_id":"4","last_reported":1758720055,"current_range_meters":14400,"station_id":"ce4bh9p2rcd13ifvqec0","pricing_plan_id":"cebpf4jnsgd1na2vs0mg"},{"bike_id":"3285bfa2-015a-4451-bcb4-c47075a756f2","system_id":"levelo_inurba_marseille","lat":43.30794,"lon":5.38153,"is_reserved":false,"is_disabled":false,"rental_uris":{"android":"levelo://app?vid=3285bfa2-015a-4451-bcb4-c47075a756f2","ios":"levelo://app?vid=3285bfa2-015a-4451-bcb4-c47075a756f2"},"vehicle_type_id":"4","last_reported":1758720055,"current_range_meters":14400,"station_id":"ce4bgt12rcd13ifvqce0","pricing_plan_id":"cebpf4jnsgd1na2vs0mg"},{"bike_id":"bc3d496b-e51a-464a-9788-dc2a653eb86a","system_id":"levelo_inurba_marseille","lat":43.31526,"lon":5.38037,"is_reserved":false,"is_disabled":false,"rental_uris":{"android":"levelo://app?vid=bc3d496b-e51a-464a-9788-dc2a653eb86a","ios":"levelo://app?vid=bc3d496b-e51a-464a-9788-dc2a653eb86a"},"vehicle_type_id":"4","last_reported":1758720055,"current_range_meters":14000,"station_id":"ce4bhsp2rcd13ifvqi50","pricing_plan_id":"cebpf4jnsgd1na2vs0mg"},{"bike_id":"45da2f63-fcbe-4329-abbb-56a1a825057c","system_id":"levelo_inurba_marseille","lat":43.29948,"lon":5.36544,"is_reserved":false,"is_disabled":false,"rental_uris":{"android":"levelo://app?vid=45da2f63-fcbe-4329-abbb-56a1a825057c","ios":"levelo://app?vid=45da2f63-fcbe-4329-abbb-56a1a825057c"},"vehicle_type_id":"4","last_reported":1758720055,"current_range_meters":14800,"station_id":"ce4bgm92rcd13ifvqbr0","pricing_plan_id":"cebpf4jnsgd1na2vs0mg"},{"bike_id":"26649d3d-1a4d-4e9f-99a7-20dca3ca1922","system_id":"levelo_inurba_marseille","lat":43.29974,"lon":5.37175,"is_reserved":false,"is_disabled":false,"rental_uris":{"android":"levelo://app?vid=26649d3d-1a4d-4e9f-99a7-20dca3ca1922","ios":"levelo://app?vid=26649d3d-1a4d-4e9f-99a7-20dca3ca1922"},"vehicle_type_id":"4","last_reported":1758720055,"current_range_meters":14800,"station_id":"ce4bgr92rcd13ifvqc7g","pricing_plan_id":"cebpf4jnsgd1na2vs0mg"},{"bike_id":"3a319be7-fef3-40df-96fe-6bdc37dc7081","system_id":"levelo_inurba_marseille","lat":43.28102,"lon":5.37832,"is_reserved":false,"is_disabled":false,"rental_uris":{"android":"levelo://app?vid=3a319be7-fef3-40df-96fe-6bdc37dc7081","ios":"levelo://app?vid=3a319be7-fef3-40df-96fe-6bdc37dc7081"},"vehicle_type_id":"4","last_reported":1758720055,"current_range_meters":14800,"station_id":"ce4bha12rcd13ifvqee0","pricing_plan_id":"cebpf4jnsgd1na2vs0mg"},{"bike_id":"d305d3f9-0825-450c-8324-a3c05356c6b7","system_id":"levelo_inurba_marseille","lat":43.28575,"lon":5.39489,"is_reserved":false,"is_disabled":false,"rental_uris":{"android":"levelo://app?vid=d305d3f9-0825-450c-8324-a3c05356c6b7","ios":"levelo://app?vid=d305d3f9-0825-450c-8324-a3c05356c6b7"},"vehicle_type_id":"4","last_reported":1758720055,"current_range_meters":14800,"station_id":"ce4bh292rcd13ifvqdg0","pricing_plan_id":"cebpf4jnsgd1na2vs0mg"},{"bike_id":"ac1e1885-274a-420d-b466-ccc9db2ad960","system_id":"levelo_inurba_marseille","lat":43.28578,"lon":5.39508,"is_reserved":false,"is_disabled":false,"rental_uris":{"android":"levelo://app?vid=ac1e1885-274a-420d-b466-ccc9db2ad960","ios":"levelo://app?vid=ac1e1885-274a-420d-b466-ccc9db2ad960"},"vehicle_type_id":"4","last_reported":1758720055,"current_range_meters":14800,"station_id":"ce4bh292rcd13ifvqdg0","pricing_plan_id":"cebpf4jnsgd1na2vs0mg"},{"bike_id":"c18e534f-0caa-4d21-ba53-6de05bcf0f23","system_id":"levelo_inurba_marseille","lat":43.26557,"lon":5.37283,"is_reserved":false,"is_disabled":false,"rental_uris":{"android":"levelo://app?vid=c18e534f-0caa-4d21-ba53-6de05bcf0f23","ios":"levelo://app?vid=c18e534f-0caa-4d21-ba53-6de05bcf0f23"},"vehicle_type_id":"4","last_reported":1758720055,"current_range_meters":15200,"station_id":"ce4bhg12rcd13ifvqf70","pricing_plan_id":"cebpf4jnsgd1na2vs0mg"},{"bike_id":"3cb1dae7-6bcd-41e5-b1b7-c1d25c751a99","system_id":"levelo_inurba_marseille","lat":43.337594,"lon":5.374419,"is_reserved":false,"is_disabled":false,"rental_uris":{"android":"levelo://app?vid=3cb1dae7-6bcd-41e5-b1b7-c1d25c751a99","ios":"levelo://app?vid=3cb1dae7-6bcd-41e5-b1b7-c1d25c751a99"},"vehicle_type_id":"4","last_reported":1758720055,"current_range_meters":15200,"station_id":"","pricing_plan_id":"cebpf4jnsgd1na2vs0mg"},{"bike_id":"6e28c473-43c7-4359-9768-11e494b67b04","system_id":"levelo_inurba_marseille","lat":43.27076,"lon":5.42281,"is_reserved":false,"is_disabled":false,"rental_uris":{"android":"levelo://app?vid=6e28c473-43c7-4359-9768-11e494b67b04","ios":"levelo://app?vid=6e28c473-43c7-4359-9768-11e494b67b04"},"vehicle_type_id":"4","last_reported":1758720055,"current_range_meters":15200,"station_id":"ce4bhk92rcd13ifvqgb0","pricing_plan_id":"cebpf4jnsgd1na2vs0mg"},{"bike_id":"9c12f999-3f0a-4b06-99a7-b1ca28255a8f","system_id":"levelo_inurba_marseille","lat":43.34143,"lon":5.40906,"is_reserved":false,"is_disabled":false,"rental_uris":{"android":"levelo://app?vid=9c12f999-3f0a-4b06-99a7-b1ca28255a8f","ios":"levelo://app?vid=9c12f999-3f0a-4b06-99a7-b1ca28255a8f"},"vehicle_type_id":"4","last_reported":1758720055,"current_range_meters":15200,"station_id":"ce4bhqh2rcd13ifvqhlg","pricing_plan_id":"cebpf4jnsgd1na2vs0mg"},{"bike_id":"e2017298-7010-4fcc-9644-9ccfb0f46125","system_id":"levelo_inurba_marseille","lat":43.30111,"lon":5.41501,"is_reserved":false,"is_disabled":false,"rental_uris":{"android":"levelo://app?vid=e2017298-7010-4fcc-9644-9ccfb0f46125","ios":"levelo://app?vid=e2017298-7010-4fcc-9644-9ccfb0f46125"},"vehicle_type_id":"4","last_reported":1758720055,"current_range_meters":15200,"station_id":"","pricing_plan_id":"cebpf4jnsgd1na2vs0mg"},{"bike_id":"d9e1888b-5c06-4823-924b-a03611151086","system_id":"levelo_inurba_marseille","lat":43.28616,"lon":5.351043,"is_reserved":false,"is_disabled":false,"rental_uris":{"android":"levelo://app?vid=d9e1888b-5c06-4823-924b-a03611151086","ios":"levelo://app?vid=d9e1888b-5c06-4823-924b-a03611151086"},"vehicle_type_id":"4","last_reported":1758720055,"current_range_meters":16000,"station_id":"ce4bhch2rcd13ifvqeug","pricing_plan_id":"cebpf4jnsgd1na2vs0mg"},{"bike_id":"d74ec344-7e15-469b-a6ff-17981e363258","system_id":"levelo_inurba_marseille","lat":43.290307,"lon":5.386496,"is_reserved":false,"is_disabled":false,"rental_uris":{"android":"levelo://app?vid=d74ec344-7e15-469b-a6ff-17981e363258","ios":"levelo://app?vid=d74ec344-7e15-469b-a6ff-17981e363258"},"vehicle_type_id":"4","last_reported":1758720055,"current_range_meters":16000,"station_id":"ce4bh4p2rcd13ifvqe0g","pricing_plan_id":"cebpf4jnsgd1na2vs0mg"},{"bike_id":"57b14c92-2a17-45b3-beb1-cbb460ef441b","system_id":"levelo_inurba_marseille","lat":43.231831,"lon":5.399917,"is_reserved":false,"is_disabled":false,"rental_uris":{"android":"levelo://app?vid=57b14c92-2a17-45b3-beb1-cbb460ef441b","ios":"levelo://app?vid=57b14c92-2a17-45b3-beb1-cbb460ef441b"},"vehicle_type_id":"4","last_reported":1758720055,"current_range_meters":16000,"station_id":"ce4bhn12rcd13ifvqgqg","pricing_plan_id":"cebpf4jnsgd1na2vs0mg"},{"bike_id":"bf1244d3-d7e7-45bd-8580-d0cbc34b36e3","system_id":"levelo_inurba_marseille","lat":43.22564,"lon":5.41633,"is_reserved":false,"is_disabled":false,"rental_uris":{"android":"levelo://app?vid=bf1244d3-d7e7-45bd-8580-d0cbc34b36e3","ios":"levelo://app?vid=bf1244d3-d7e7-45bd-8580-d0cbc34b36e3"},"vehicle_type_id":"4","last_reported":1758720055,"current_range_meters":16000,"station_id":"st_d2o4gvlbi1j2169b742g","pricing_plan_id":"cebpf4jnsgd1na2vs0mg"},{"bike_id":"75f95d47-be5d-4766-8418-9a4c9a781a89","system_id":"levelo_inurba_marseille","lat":43.29758,"lon":5.37903,"is_reserved":false,"is_disabled":false,"rental_uris":{"android":"levelo://app?vid=75f95d47-be5d-4766-8418-9a4c9a781a89","ios":"levelo://app?vid=75f95d47-be5d-4766-8418-9a4c9a781a89"},"vehicle_type_id":"4","last_reported":1758720055,"current_range_meters":16000,"station_id":"","pricing_plan_id":"cebpf4jnsgd1na2vs0mg"},{"bike_id":"178af37d-dd54-4cf7-b80a-b996e0f2a163","system_id":"levelo_inurba_marseille","lat":43.212,"lon":5.35093,"is_reserved":false,"is_disabled":false,"rental_uris":{"android":"levelo://app?vid=178af37d-dd54-4cf7-b80a-b996e0f2a163","ios":"levelo://app?vid=178af37d-dd54-4cf7-b80a-b996e0f2a163"},"vehicle_type_id":"4","last_reported":1758720055,"current_range_meters":16000,"station_id":"st_cvj6sg6p6f1abm77japg","pricing_plan_id":"cebpf4jnsgd1na2vs0mg"},{"bike_id":"50c03ce7-6089-4ca2-9f23-f4c8c568a597","system_id":"levelo_inurba_marseille","lat":43.33799,"lon":5.37422,"is_reserved":false,"is_disabled":false,"rental_uris":{"android":"levelo://app?vid=50c03ce7-6089-4ca2-9f23-f4c8c568a597","ios":"levelo://app?vid=50c03ce7-6089-4ca2-9f23-f4c8c568a597"},"vehicle_type_id":"4","last_reported":1758720055,"current_range_meters":16000,"station_id":"","pricing_plan_id":"cebpf4jnsgd1na2vs0mg"},{"bike_id":"1f245d0b-a243-4473-a434-d74cae53f5e3","system_id":"levelo_inurba_marseille","lat":43.32109,"lon":5.36763,"is_reserved":false,"is_disabled":false,"rental_uris":{"android":"levelo://app?vid=1f245d0b-a243-4473-a434-d74cae53f5e3","ios":"levelo://app?vid=1f245d0b-a243-4473-a434-d74cae53f5e3"},"vehicle_type_id":"4","last_reported":1758720055,"current_range_meters":16000,"station_id":"ce4bhrh2rcd13ifvqhug","pricing_plan_id":"cebpf4jnsgd1na2vs0mg"},{"bike_id":"c7f6a08b-c655-4213-b2ba-7d02e7f382fe","system_id":"levelo_inurba_marseille","lat":43.27988,"lon":5.39483,"is_reserved":false,"is_disabled":false,"rental_uris":{"android":"levelo://app?vid=c7f6a08b-c655-4213-b2ba-7d02e7f382fe","ios":"levelo://app?vid=c7f6a08b-c655-4213-b2ba-7d02e7f382fe"},"vehicle_type_id":"4","last_reported":1758720055,"current_range_meters":16000,"station_id":"","pricing_plan_id":"cebpf4jnsgd1na2vs0mg"},{"bike_id":"e19472f1-87e0-4943-97f3-e785d2a10054","system_id":"levelo_inurba_marseille","lat":43.28874,"lon":5.4251,"is_reserved":false,"is_disabled":false,"rental_uris":{"android":"levelo://app?vid=e19472f1-87e0-4943-97f3-e785d2a10054","ios":"levelo://app?vid=e19472f1-87e0-4943-97f3-e785d2a10054"},"vehicle_type_id":"4","last_reported":1758720055,"current_range_meters":16000,"station_id":"","pricing_plan_id":"cebpf4jnsgd1na2vs0mg"},{"bike_id":"9ace8b35-9d9b-46ac-8c4e-8fcce01b21af","system_id":"levelo_inurba_marseille","lat":43.24806,"lon":5.3746,"is_reserved":false,"is_disabled":false,"rental_uris":{"android":"levelo://app?vid=9ace8b35-9d9b-46ac-8c4e-8fcce01b21af","ios":"levelo://app?vid=9ace8b35-9d9b-46ac-8c4e-8fcce01b21af"},"vehicle_type_id":"4","last_reported":1758720055,"current_range_meters":16000,"station_id":"ce4bhgh2rcd13ifvqfb0","pricing_plan_id":"cebpf4jnsgd1na2vs0mg"},{"bike_id":"489c8028-3a4e-4ea0-a278-8eb5ac7c730e","system_id":"levelo_inurba_marseille","lat":43.30126,"lon":5.39852,"is_reserved":false,"is_disabled":false,"rental_uris":{"android":"levelo://app?vid=489c8028-3a4e-4ea0-a278-8eb5ac7c730e","ios":"levelo://app?vid=489c8028-3a4e-4ea0-a278-8eb5ac7c730e"},"vehicle_type_id":"4","last_reported":1758720055,"current_range_meters":16000,"station_id":"ce4bh0h2rcd13ifvqd40","pricing_plan_id":"cebpf4jnsgd1na2vs0mg"},{"bike_id":"9bcafe29-ffe4-4ff0-b32d-2df5570d2878","system_id":"levelo_inurba_marseille","lat":43.29003,"lon":5.3561,"is_reserved":false,"is_disabled":false,"rental_uris":{"android":"levelo://app?vid=9bcafe29-ffe4-4ff0-b32d-2df5570d2878","ios":"levelo://app?vid=9bcafe29-ffe4-4ff0-b32d-2df5570d2878"},"vehicle_type_id":"4","last_reported":1758720055,"current_range_meters":16400,"station_id":"ce4bhb92rcd13ifvqen0","pricing_plan_id":"cebpf4jnsgd1na2vs0mg"},{"bike_id":"8eae954c-dab6-4303-94f5-569e1c483f62","system_id":"levelo_inurba_marseille","lat":43.2945,"lon":5.40746,"is_reserved":false,"is_disabled":false,"rental_uris":{"android":"levelo://app?vid=8eae954c-dab6-4303-94f5-569e1c483f62","ios":"levelo://app?vid=8eae954c-dab6-4303-94f5-569e1c483f62"},"vehicle_type_id":"4","last_reported":1758720055,"current_range_meters":16400,"station_id":"","pricing_plan_id":"cebpf4jnsgd1na2vs0mg"},{"bike_id":"0e9ca394-4351-4bf8-a641-f4e5215baf20","system_id":"levelo_inurba_marseille","lat":43.28266,"lon":5.35062,"is_reserved":false,"is_disabled":false,"rental_uris":{"android":"levelo://app?vid=0e9ca394-4351-4bf8-a641-f4e5215baf20","ios":"levelo://app?vid=0e9ca394-4351-4bf8-a641-f4e5215baf20"},"vehicle_type_id":"4","last_reported":1758720055,"current_range_meters":16400,"station_id":"ce4bhbp2rcd13ifvqerg","pricing_plan_id":"cebpf4jnsgd1na2vs0mg"},{"bike_id":"d2be082e-bd73-4203-addb-18871b3a9587","system_id":"levelo_inurba_marseille","lat":43.29434,"lon":5.37471,"is_reserved":false,"is_disabled":false,"rental_uris":{"android":"levelo://app?vid=d2be082e-bd73-4203-addb-18871b3a9587","ios":"levelo://app?vid=d2be082e-bd73-4203-addb-18871b3a9587"},"vehicle_type_id":"4","last_reported":1758720055,"current_range_meters":16400,"station_id":"","pricing_plan_id":"cebpf4jnsgd1na2vs0mg"},{"bike_id":"8a7b03e9-9644-45a5-b46a-f80190d1f100","system_id":"levelo_inurba_marseille","lat":43.32105,"lon":5.36775,"is_reserved":false,"is_disabled":false,"rental_uris":{"android":"levelo://app?vid=8a7b03e9-9644-45a5-b46a-f80190d1f100","ios":"levelo://app?vid=8a7b03e9-9644-45a5-b46a-f80190d1f100"},"vehicle_type_id":"4","last_reported":1758720055,"current_range_meters":16400,"station_id":"ce4bhrh2rcd13ifvqhug","pricing_plan_id":"cebpf4jnsgd1na2vs0mg"},{"bike_id":"790d283e-3a4b-4d46-9367-7cf5e85cd476","system_id":"levelo_inurba_marseille","lat":43.28606,"lon":5.37062,"is_reserved":false,"is_disabled":false,"rental_uris":{"android":"levelo://app?vid=790d283e-3a4b-4d46-9367-7cf5e85cd476","ios":"levelo://app?vid=790d283e-3a4b-4d46-9367-7cf5e85cd476"},"vehicle_type_id":"4","last_reported":1758720055,"current_range_meters":16400,"station_id":"ce4bht12rcd13ifvqi60","pricing_plan_id":"cebpf4jnsgd1na2vs0mg"},{"bike_id":"fc82edb0-1d7e-4d11-9eac-201faf08cfe5","system_id":"levelo_inurba_marseille","lat":43.31164,"lon":5.38714,"is_reserved":false,"is_disabled":false,"rental_uris":{"android":"levelo://app?vid=fc82edb0-1d7e-4d11-9eac-201faf08cfe5","ios":"levelo://app?vid=fc82edb0-1d7e-4d11-9eac-201faf08cfe5"},"vehicle_type_id":"4","last_reported":1758720055,"current_range_meters":16800,"station_id":"ce4bgv12rcd13ifvqcp0","pricing_plan_id":"cebpf4jnsgd1na2vs0mg"},{"bike_id":"27e928a5-c889-4a1e-8aae-76e19cbf3411","system_id":"levelo_inurba_marseille","lat":43.24661,"lon":5.38165,"is_reserved":false,"is_disabled":false,"rental_uris":{"android":"levelo://app?vid=27e928a5-c889-4a1e-8aae-76e19cbf3411","ios":"levelo://app?vid=27e928a5-c889-4a1e-8aae-76e19cbf3411"},"vehicle_type_id":"4","last_reported":1758720055,"current_range_meters":16800,"station_id":"ce4bhih2rcd13ifvqfr0","pricing_plan_id":"cebpf4jnsgd1na2vs0mg"},{"bike_id":"8a828295-28e2-4f47-bc01-1374c80f32a1","system_id":"levelo_inurba_marseille","lat":43.26212,"lon":5.37444,"is_reserved":false,"is_disabled":false,"rental_uris":{"android":"levelo://app?vid=8a828295-28e2-4f47-bc01-1374c80f32a1","ios":"levelo://app?vid=8a828295-28e2-4f47-bc01-1374c80f32a1"},"vehicle_type_id":"4","last_reported":1758720055,"current_range_meters":16800,"station_id":"ce4bhgp2rcd13ifvqfc0","pricing_plan_id":"cebpf4jnsgd1na2vs0mg"},{"bike_id":"0ed00afc-304d-4ea6-8f32-43e128f1b9d5","system_id":"levelo_inurba_marseille","lat":43.26496,"lon":5.39541,"is_reserved":false,"is_disabled":false,"rental_uris":{"android":"levelo://app?vid=0ed00afc-304d-4ea6-8f32-43e128f1b9d5","ios":"levelo://app?vid=0ed00afc-304d-4ea6-8f32-43e128f1b9d5"},"vehicle_type_id":"4","last_reported":1758720055,"current_range_meters":16800,"station_id":"ce4bhi12rcd13ifvqfq0","pricing_plan_id":"cebpf4jnsgd1na2vs0mg"},{"bike_id":"e8e0a80f-25dc-47ab-ae8b-3cbce8fbad61","system_id":"levelo_inurba_marseille","lat":43.241809,"lon":5.397235,"is_reserved":false,"is_disabled":false,"rental_uris":{"android":"levelo://app?vid=e8e0a80f-25dc-47ab-ae8b-3cbce8fbad61","ios":"levelo://app?vid=e8e0a80f-25dc-47ab-ae8b-3cbce8fbad61"},"vehicle_type_id":"4","last_reported":1758720055,"current_range_meters":16800,"station_id":"ce4bhn12rcd13ifvqgpg","pricing_plan_id":"cebpf4jnsgd1na2vs0mg"},{"bike_id":"d25ea62f-67e4-45a8-83f3-4e59e22ad782","system_id":"levelo_inurba_marseille","lat":43.29283,"lon":5.37439,"is_reserved":false,"is_disabled":false,"rental_uris":{"android":"levelo://app?vid=d25ea62f-67e4-45a8-83f3-4e59e22ad782","ios":"levelo://app?vid=d25ea62f-67e4-45a8-83f3-4e59e22ad782"},"vehicle_type_id":"4","last_reported":1758720055,"current_range_meters":16800,"station_id":"ce4bgi12rcd13ifvqb70","pricing_plan_id":"cebpf4jnsgd1na2vs0mg"},{"bike_id":"002673c7-e49b-40c2-82da-6cf2f4393eb8","system_id":"levelo_inurba_marseille","lat":43.30499,"lon":5.3789,"is_reserved":false,"is_disabled":true,"rental_uris":{"android":"levelo://app?vid=002673c7-e49b-40c2-82da-6cf2f4393eb8","ios":"levelo://app?vid=002673c7-e49b-40c2-82da-6cf2f4393eb8"},"vehicle_type_id":"4","last_reported":1758720055,"current_range_meters":16800,"station_id":"ce4bgup2rcd13ifvqcn0","pricing_plan_id":"cebpf4jnsgd1na2vs0mg"},{"bike_id":"129c8450-4cca-4e9f-b9f6-538b0080ad49","system_id":"levelo_inurba_marseille","lat":43.32549,"lon":5.38898,"is_reserved":false,"is_disabled":false,"rental_uris":{"android":"levelo://app?vid=129c8450-4cca-4e9f-b9f6-538b0080ad49","ios":"levelo://app?vid=129c8450-4cca-4e9f-b9f6-538b0080ad49"},"vehicle_type_id":"4","last_reported":1758720055,"current_range_meters":16800,"station_id":"","pricing_plan_id":"cebpf4jnsgd1na2vs0mg"},{"bike_id":"ad9a6248-1b43-4fc5-bfba-44f7d3067aab","system_id":"levelo_inurba_marseille","lat":43.21192,"lon":5.35072,"is_reserved":false,"is_disabled":false,"rental_uris":{"android":"levelo://app?vid=ad9a6248-1b43-4fc5-bfba-44f7d3067aab","ios":"levelo://app?vid=ad9a6248-1b43-4fc5-bfba-44f7d3067aab"},"vehicle_type_id":"4","last_reported":1758720055,"current_range_meters":16800,"station_id":"st_cvj6sg6p6f1abm77japg","pricing_plan_id":"cebpf4jnsgd1na2vs0mg"},{"bike_id":"639c9fd8-1e3b-4199-b4ec-f6e48fc9f507","system_id":"levelo_inurba_marseille","lat":43.29016,"lon":5.3813,"is_reserved":false,"is_disabled":false,"rental_uris":{"android":"levelo://app?vid=639c9fd8-1e3b-4199-b4ec-f6e48fc9f507","ios":"levelo://app?vid=639c9fd8-1e3b-4199-b4ec-f6e48fc9f507"},"vehicle_type_id":"4","last_reported":1758720055,"current_range_meters":16800,"station_id":"ce4bh4p2rcd13ifvqe1g","pricing_plan_id":"cebpf4jnsgd1na2vs0mg"},{"bike_id":"314d8272-0758-4eac-bb7f-300f535c69c4","system_id":"levelo_inurba_marseille","lat":43.30797,"lon":5.38144,"is_reserved":false,"is_disabled":false,"rental_uris":{"android":"levelo://app?vid=314d8272-0758-4eac-bb7f-300f535c69c4","ios":"levelo://app?vid=314d8272-0758-4eac-bb7f-300f535c69c4"},"vehicle_type_id":"4","last_reported":1758720055,"current_range_meters":16800,"station_id":"ce4bgt12rcd13ifvqce0","pricing_plan_id":"cebpf4jnsgd1na2vs0mg"},{"bike_id":"c5c121c9-7ee3-48be-a0e1-adfa94307af5","system_id":"levelo_inurba_marseille","lat":43.30124,"lon":5.39852,"is_reserved":false,"is_disabled":false,"rental_uris":{"android":"levelo://app?vid=c5c121c9-7ee3-48be-a0e1-adfa94307af5","ios":"levelo://app?vid=c5c121c9-7ee3-48be-a0e1-adfa94307af5"},"vehicle_type_id":"4","last_reported":1758720055,"current_range_meters":16800,"station_id":"ce4bh0h2rcd13ifvqd40","pricing_plan_id":"cebpf4jnsgd1na2vs0mg"},{"bike_id":"da7c3da2-1785-45c7-8cff-44ef4c940a0d","system_id":"levelo_inurba_marseille","lat":43.31499,"lon":5.37306,"is_reserved":false,"is_disabled":false,"rental_uris":{"android":"levelo://app?vid=da7c3da2-1785-45c7-8cff-44ef4c940a0d","ios":"levelo://app?vid=da7c3da2-1785-45c7-8cff-44ef4c940a0d"},"vehicle_type_id":"4","last_reported":1758720055,"current_range_meters":17200,"station_id":"ce4bgt12rcd13ifvqcd0","pricing_plan_id":"cebpf4jnsgd1na2vs0mg"},{"bike_id":"cdd9250b-20c0-48e2-b45b-56204b8135aa","system_id":"levelo_inurba_marseille","lat":43.30307,"lon":5.3778,"is_reserved":false,"is_disabled":false,"rental_uris":{"android":"levelo://app?vid=cdd9250b-20c0-48e2-b45b-56204b8135aa","ios":"levelo://app?vid=cdd9250b-20c0-48e2-b45b-56204b8135aa"},"vehicle_type_id":"4","last_reported":1758720055,"current_range_meters":17200,"station_id":"","pricing_plan_id":"cebpf4jnsgd1na2vs0mg"},{"bike_id":"2bd2a176-8590-4e06-8b8c-a96b49b7b36a","system_id":"levelo_inurba_marseille","lat":43.262237,"lon":5.404538,"is_reserved":false,"is_disabled":false,"rental_uris":{"android":"levelo://app?vid=2bd2a176-8590-4e06-8b8c-a96b49b7b36a","ios":"levelo://app?vid=2bd2a176-8590-4e06-8b8c-a96b49b7b36a"},"vehicle_type_id":"4","last_reported":1758720055,"current_range_meters":17200,"station_id":"","pricing_plan_id":"cebpf4jnsgd1na2vs0mg"},{"bike_id":"6ce97256-6e29-4ee4-b817-ac92bdd5aea1","system_id":"levelo_inurba_marseille","lat":43.22534,"lon":5.34835,"is_reserved":false,"is_disabled":false,"rental_uris":{"android":"levelo://app?vid=6ce97256-6e29-4ee4-b817-ac92bdd5aea1","ios":"levelo://app?vid=6ce97256-6e29-4ee4-b817-ac92bdd5aea1"},"vehicle_type_id":"4","last_reported":1758720055,"current_range_meters":17200,"station_id":"","pricing_plan_id":"cebpf4jnsgd1na2vs0mg"},{"bike_id":"c5e35d50-1334-4251-9e23-b568a1a449ad","system_id":"levelo_inurba_marseille","lat":43.3028,"lon":5.37719,"is_reserved":false,"is_disabled":false,"rental_uris":{"android":"levelo://app?vid=c5e35d50-1334-4251-9e23-b568a1a449ad","ios":"levelo://app?vid=c5e35d50-1334-4251-9e23-b568a1a449ad"},"vehicle_type_id":"4","last_reported":1758720055,"current_range_meters":17200,"station_id":"ce4bguh2rcd13ifvqcj0","pricing_plan_id":"cebpf4jnsgd1na2vs0mg"},{"bike_id":"a6ad0c6c-868d-42f3-ba54-573e1a175a36","system_id":"levelo_inurba_marseille","lat":43.26266,"lon":5.41281,"is_reserved":false,"is_disabled":false,"rental_uris":{"android":"levelo://app?vid=a6ad0c6c-868d-42f3-ba54-573e1a175a36","ios":"levelo://app?vid=a6ad0c6c-868d-42f3-ba54-573e1a175a36"},"vehicle_type_id":"4","last_reported":1758720055,"current_range_meters":17200,"station_id":"","pricing_plan_id":"cebpf4jnsgd1na2vs0mg"},{"bike_id":"01e07cf5-8211-444c-b3c6-74aa7d15ada5","system_id":"levelo_inurba_marseille","lat":43.26561,"lon":5.39002,"is_reserved":false,"is_disabled":false,"rental_uris":{"android":"levelo://app?vid=01e07cf5-8211-444c-b3c6-74aa7d15ada5","ios":"levelo://app?vid=01e07cf5-8211-444c-b3c6-74aa7d15ada5"},"vehicle_type_id":"4","last_reported":1758720055,"current_range_meters":17200,"station_id":"ce4bhe12rcd13ifvqf30","pricing_plan_id":"cebpf4jnsgd1na2vs0mg"},{"bike_id":"003515e8-8117-44bb-979d-5f47e8d50fda","system_id":"levelo_inurba_marseille","lat":43.30634,"lon":5.37561,"is_reserved":false,"is_disabled":false,"rental_uris":{"android":"levelo://app?vid=003515e8-8117-44bb-979d-5f47e8d50fda","ios":"levelo://app?vid=003515e8-8117-44bb-979d-5f47e8d50fda"},"vehicle_type_id":"4","last_reported":1758720055,"current_range_meters":17600,"station_id":"","pricing_plan_id":"cebpf4jnsgd1na2vs0mg"},{"bike_id":"5b2e4301-8a04-44b6-bb74-5f97ee4e1633","system_id":"levelo_inurba_marseille","lat":43.27371,"lon":5.36264,"is_reserved":false,"is_disabled":false,"rental_uris":{"android":"levelo://app?vid=5b2e4301-8a04-44b6-bb74-5f97ee4e1633","ios":"levelo://app?vid=5b2e4301-8a04-44b6-bb74-5f97ee4e1633"},"vehicle_type_id":"4","last_reported":1758720055,"current_range_meters":17600,"station_id":"ce4bhbh2rcd13ifvqeo0","pricing_plan_id":"cebpf4jnsgd1na2vs0mg"},{"bike_id":"c7cbf2ab-3acb-4199-8447-a862293afa1c","system_id":"levelo_inurba_marseille","lat":43.23194,"lon":5.3556,"is_reserved":false,"is_disabled":false,"rental_uris":{"android":"levelo://app?vid=c7cbf2ab-3acb-4199-8447-a862293afa1c","ios":"levelo://app?vid=c7cbf2ab-3acb-4199-8447-a862293afa1c"},"vehicle_type_id":"4","last_reported":1758720055,"current_range_meters":17600,"station_id":"ce4bhu92rcd13ifvqi70","pricing_plan_id":"cebpf4jnsgd1na2vs0mg"},{"bike_id":"7f26efef-5bca-4964-9649-a135cb9baf4f","system_id":"levelo_inurba_marseille","lat":43.250939,"lon":5.395075,"is_reserved":false,"is_disabled":false,"rental_uris":{"android":"levelo://app?vid=7f26efef-5bca-4964-9649-a135cb9baf4f","ios":"levelo://app?vid=7f26efef-5bca-4964-9649-a135cb9baf4f"},"vehicle_type_id":"4","last_reported":1758720055,"current_range_meters":17600,"station_id":"ce4bhm12rcd13ifvqgkg","pricing_plan_id":"cebpf4jnsgd1na2vs0mg"},{"bike_id":"c7b50ed8-cc0c-4c3a-8ced-da37a8c9e42c","system_id":"levelo_inurba_marseille","lat":43.29007,"lon":5.356217,"is_reserved":false,"is_disabled":false,"rental_uris":{"android":"levelo://app?vid=c7b50ed8-cc0c-4c3a-8ced-da37a8c9e42c","ios":"levelo://app?vid=c7b50ed8-cc0c-4c3a-8ced-da37a8c9e42c"},"vehicle_type_id":"4","last_reported":1758720055,"current_range_meters":17200,"station_id":"ce4bhb92rcd13ifvqen0","pricing_plan_id":"cebpf4jnsgd1na2vs0mg"},{"bike_id":"212de2eb-8bbc-413c-b204-9fe1facd76e8","system_id":"levelo_inurba_marseille","lat":43.31294,"lon":5.37752,"is_reserved":false,"is_disabled":false,"rental_uris":{"android":"levelo://app?vid=212de2eb-8bbc-413c-b204-9fe1facd76e8","ios":"levelo://app?vid=212de2eb-8bbc-413c-b204-9fe1facd76e8"},"vehicle_type_id":"4","last_reported":1758720055,"current_range_meters":17600,"station_id":"","pricing_plan_id":"cebpf4jnsgd1na2vs0mg"},{"bike_id":"e57b9920-a24e-4c74-a0ad-0e4f80344c9e","system_id":"levelo_inurba_marseille","lat":43.30098,"lon":5.39081,"is_reserved":false,"is_disabled":false,"rental_uris":{"android":"levelo://app?vid=e57b9920-a24e-4c74-a0ad-0e4f80344c9e","ios":"levelo://app?vid=e57b9920-a24e-4c74-a0ad-0e4f80344c9e"},"vehicle_type_id":"4","last_reported":1758720055,"current_range_meters":17600,"station_id":"ce4bh192rcd13ifvqdb0","pricing_plan_id":"cebpf4jnsgd1na2vs0mg"},{"bike_id":"66dfdcea-1b56-4a2f-9d3f-7b3a8a018cea","system_id":"levelo_inurba_marseille","lat":43.30207,"lon":5.39459,"is_reserved":false,"is_disabled":false,"rental_uris":{"android":"levelo://app?vid=66dfdcea-1b56-4a2f-9d3f-7b3a8a018cea","ios":"levelo://app?vid=66dfdcea-1b56-4a2f-9d3f-7b3a8a018cea"},"vehicle_type_id":"4","last_reported":1758720055,"current_range_meters":17600,"station_id":"ce4bh0p2rcd13ifvqd70","pricing_plan_id":"cebpf4jnsgd1na2vs0mg"},{"bike_id":"b33afcb9-323b-4b25-b34a-d7ff770bee10","system_id":"levelo_inurba_marseille","lat":43.27372,"lon":5.36261,"is_reserved":false,"is_disabled":false,"rental_uris":{"android":"levelo://app?vid=b33afcb9-323b-4b25-b34a-d7ff770bee10","ios":"levelo://app?vid=b33afcb9-323b-4b25-b34a-d7ff770bee10"},"vehicle_type_id":"4","last_reported":1758720055,"current_range_meters":18000,"station_id":"ce4bhbh2rcd13ifvqeo0","pricing_plan_id":"cebpf4jnsgd1na2vs0mg"},{"bike_id":"429b97eb-f7cc-4d35-b219-e8e26e3f47e0","system_id":"levelo_inurba_marseille","lat":43.27379,"lon":5.36248,"is_reserved":false,"is_disabled":false,"rental_uris":{"android":"levelo://app?vid=429b97eb-f7cc-4d35-b219-e8e26e3f47e0","ios":"levelo://app?vid=429b97eb-f7cc-4d35-b219-e8e26e3f47e0"},"vehicle_type_id":"4","last_reported":1758720055,"current_range_meters":18000,"station_id":"ce4bhbh2rcd13ifvqeo0","pricing_plan_id":"cebpf4jnsgd1na2vs0mg"},{"bike_id":"7f57effa-33de-4b13-b1a9-92ae0044b1d0","system_id":"levelo_inurba_marseille","lat":43.26029,"lon":5.37557,"is_reserved":false,"is_disabled":false,"rental_uris":{"android":"levelo://app?vid=7f57effa-33de-4b13-b1a9-92ae0044b1d0","ios":"levelo://app?vid=7f57effa-33de-4b13-b1a9-92ae0044b1d0"},"vehicle_type_id":"4","last_reported":1758720055,"current_range_meters":18000,"station_id":"ce4bhgh2rcd13ifvqfa0","pricing_plan_id":"cebpf4jnsgd1na2vs0mg"},{"bike_id":"2865e8a9-e6fd-47b8-8029-33c3420fdb82","system_id":"levelo_inurba_marseille","lat":43.29923,"lon":5.36475,"is_reserved":false,"is_disabled":false,"rental_uris":{"android":"levelo://app?vid=2865e8a9-e6fd-47b8-8029-33c3420fdb82","ios":"levelo://app?vid=2865e8a9-e6fd-47b8-8029-33c3420fdb82"},"vehicle_type_id":"4","last_reported":1758720055,"current_range_meters":18000,"station_id":"","pricing_plan_id":"cebpf4jnsgd1na2vs0mg"},{"bike_id":"e1864d3e-b11d-4ddc-8504-46d411ba79ba","system_id":"levelo_inurba_marseille","lat":43.25097,"lon":5.40324,"is_reserved":false,"is_disabled":false,"rental_uris":{"android":"levelo://app?vid=e1864d3e-b11d-4ddc-8504-46d411ba79ba","ios":"levelo://app?vid=e1864d3e-b11d-4ddc-8504-46d411ba79ba"},"vehicle_type_id":"4","last_reported":1758720055,"current_range_meters":18000,"station_id":"ce4bhlh2rcd13ifvqgig","pricing_plan_id":"cebpf4jnsgd1na2vs0mg"},{"bike_id":"a6f6d533-4fc3-4370-b2fa-661e08c1327d","system_id":"levelo_inurba_marseille","lat":43.276697,"lon":5.38891,"is_reserved":false,"is_disabled":false,"rental_uris":{"android":"levelo://app?vid=a6f6d533-4fc3-4370-b2fa-661e08c1327d","ios":"levelo://app?vid=a6f6d533-4fc3-4370-b2fa-661e08c1327d"},"vehicle_type_id":"4","last_reported":1758720055,"current_range_meters":18000,"station_id":"ce4bhi12rcd13ifvqfo0","pricing_plan_id":"cebpf4jnsgd1na2vs0mg"},{"bike_id":"39164cf7-c550-4f16-afb2-fae697a272b5","system_id":"levelo_inurba_marseille","lat":43.26681,"lon":5.3827,"is_reserved":false,"is_disabled":false,"rental_uris":{"android":"levelo://app?vid=39164cf7-c550-4f16-afb2-fae697a272b5","ios":"levelo://app?vid=39164cf7-c550-4f16-afb2-fae697a272b5"},"vehicle_type_id":"4","last_reported":1758720055,"current_range_meters":18000,"station_id":"ce4bhg92rcd13ifvqf90","pricing_plan_id":"cebpf4jnsgd1na2vs0mg"},{"bike_id":"c3fc2c56-8946-4650-8440-7460dd1f0882","system_id":"levelo_inurba_marseille","lat":43.23185,"lon":5.39984,"is_reserved":false,"is_disabled":false,"rental_uris":{"android":"levelo://app?vid=c3fc2c56-8946-4650-8440-7460dd1f0882","ios":"levelo://app?vid=c3fc2c56-8946-4650-8440-7460dd1f0882"},"vehicle_type_id":"4","last_reported":1758720055,"current_range_meters":18000,"station_id":"ce4bhn12rcd13ifvqgqg","pricing_plan_id":"cebpf4jnsgd1na2vs0mg"},{"bike_id":"f45d6106-91c9-41a9-b799-78abc1845bbe","system_id":"levelo_inurba_marseille","lat":43.33713,"lon":5.39178,"is_reserved":false,"is_disabled":false,"rental_uris":{"android":"levelo://app?vid=f45d6106-91c9-41a9-b799-78abc1845bbe","ios":"levelo://app?vid=f45d6106-91c9-41a9-b799-78abc1845bbe"},"vehicle_type_id":"4","last_reported":1758720055,"current_range_meters":18000,"station_id":"ce4bhr92rcd13ifvqhsg","pricing_plan_id":"cebpf4jnsgd1na2vs0mg"},{"bike_id":"327c041e-5c9e-4b0d-a97c-a2dbaab036ae","system_id":"levelo_inurba_marseille","lat":43.32795,"lon":5.41059,"is_reserved":false,"is_disabled":false,"rental_uris":{"android":"levelo://app?vid=327c041e-5c9e-4b0d-a97c-a2dbaab036ae","ios":"levelo://app?vid=327c041e-5c9e-4b0d-a97c-a2dbaab036ae"},"vehicle_type_id":"4","last_reported":1758720055,"current_range_meters":18800,"station_id":"","pricing_plan_id":"cebpf4jnsgd1na2vs0mg"},{"bike_id":"71b530dc-16dd-4ef7-b73c-63c1d69cb1d4","system_id":"levelo_inurba_marseille","lat":43.25738,"lon":5.41101,"is_reserved":false,"is_disabled":false,"rental_uris":{"android":"levelo://app?vid=71b530dc-16dd-4ef7-b73c-63c1d69cb1d4","ios":"levelo://app?vid=71b530dc-16dd-4ef7-b73c-63c1d69cb1d4"},"vehicle_type_id":"4","last_reported":1758720055,"current_range_meters":18800,"station_id":"ce4bhkp2rcd13ifvqgd0","pricing_plan_id":"cebpf4jnsgd1na2vs0mg"},{"bike_id":"361336e3-afb9-43e6-b91b-94f8d0c191ba","system_id":"levelo_inurba_marseille","lat":43.29546,"lon":5.38542,"is_reserved":false,"is_disabled":false,"rental_uris":{"android":"levelo://app?vid=361336e3-afb9-43e6-b91b-94f8d0c191ba","ios":"levelo://app?vid=361336e3-afb9-43e6-b91b-94f8d0c191ba"},"vehicle_type_id":"4","last_reported":1758720055,"current_range_meters":18800,"station_id":"ce4bgih2rcd13ifvqba0","pricing_plan_id":"cebpf4jnsgd1na2vs0mg"},{"bike_id":"3481ae3d-425e-47f4-825a-d708993b7e12","system_id":"levelo_inurba_marseille","lat":43.23178,"lon":5.39989,"is_reserved":false,"is_disabled":false,"rental_uris":{"android":"levelo://app?vid=3481ae3d-425e-47f4-825a-d708993b7e12","ios":"levelo://app?vid=3481ae3d-425e-47f4-825a-d708993b7e12"},"vehicle_type_id":"4","last_reported":1758720055,"current_range_meters":18800,"station_id":"ce4bhn12rcd13ifvqgqg","pricing_plan_id":"cebpf4jnsgd1na2vs0mg"},{"bike_id":"b15170a6-7d67-41e7-ae17-21693ff080a3","system_id":"levelo_inurba_marseille","lat":43.25866,"lon":5.39877,"is_reserved":false,"is_disabled":false,"rental_uris":{"android":"levelo://app?vid=b15170a6-7d67-41e7-ae17-21693ff080a3","ios":"levelo://app?vid=b15170a6-7d67-41e7-ae17-21693ff080a3"},"vehicle_type_id":"4","last_reported":1758720055,"current_range_meters":18800,"station_id":"ce4bhl92rcd13ifvqghg","pricing_plan_id":"cebpf4jnsgd1na2vs0mg"},{"bike_id":"92622926-62f8-4a9a-9b0b-0d1cde87c7f8","system_id":"levelo_inurba_marseille","lat":43.2465,"lon":5.38895,"is_reserved":false,"is_disabled":false,"rental_uris":{"android":"levelo://app?vid=92622926-62f8-4a9a-9b0b-0d1cde87c7f8","ios":"levelo://app?vid=92622926-62f8-4a9a-9b0b-0d1cde87c7f8"},"vehicle_type_id":"4","last_reported":1758720055,"current_range_meters":18800,"station_id":"ce4bhg12rcd13ifvqf60","pricing_plan_id":"cebpf4jnsgd1na2vs0mg"},{"bike_id":"c84206f7-dec6-4943-8039-afa2fdb3d77b","system_id":"levelo_inurba_marseille","lat":43.32489,"lon":5.3659,"is_reserved":false,"is_disabled":false,"rental_uris":{"android":"levelo://app?vid=c84206f7-dec6-4943-8039-afa2fdb3d77b","ios":"levelo://app?vid=c84206f7-dec6-4943-8039-afa2fdb3d77b"},"vehicle_type_id":"4","last_reported":1758720055,"current_range_meters":18800,"station_id":"ce4bhs12rcd13ifvqhvg","pricing_plan_id":"cebpf4jnsgd1na2vs0mg"},{"bike_id":"e36db1cf-e24d-4169-9bb9-2be9d199371d","system_id":"levelo_inurba_marseille","lat":43.24571,"lon":5.39508,"is_reserved":false,"is_disabled":false,"rental_uris":{"android":"levelo://app?vid=e36db1cf-e24d-4169-9bb9-2be9d199371d","ios":"levelo://app?vid=e36db1cf-e24d-4169-9bb9-2be9d199371d"},"vehicle_type_id":"4","last_reported":1758720055,"current_range_meters":18800,"station_id":"ce4bhlp2rcd13ifvqgjg","pricing_plan_id":"cebpf4jnsgd1na2vs0mg"},{"bike_id":"5a12bcaa-d564-4280-83bb-28105c2290b3","system_id":"levelo_inurba_marseille","lat":43.261871,"lon":5.374517,"is_reserved":false,"is_disabled":false,"rental_uris":{"android":"levelo://app?vid=5a12bcaa-d564-4280-83bb-28105c2290b3","ios":"levelo://app?vid=5a12bcaa-d564-4280-83bb-28105c2290b3"},"vehicle_type_id":"4","last_reported":1758720055,"current_range_meters":19200,"station_id":"ce4bhgp2rcd13ifvqfc0","pricing_plan_id":"cebpf4jnsgd1na2vs0mg"},{"bike_id":"752f194e-e10d-4b28-96b5-a8b3a975c61e","system_id":"levelo_inurba_marseille","lat":43.31756,"lon":5.39007,"is_reserved":false,"is_disabled":false,"rental_uris":{"android":"levelo://app?vid=752f194e-e10d-4b28-96b5-a8b3a975c61e","ios":"levelo://app?vid=752f194e-e10d-4b28-96b5-a8b3a975c61e"},"vehicle_type_id":"4","last_reported":1758720055,"current_range_meters":19200,"station_id":"ce4bhqp2rcd13ifvqhng","pricing_plan_id":"cebpf4jnsgd1na2vs0mg"},{"bike_id":"725b1ff1-3894-44f1-a38e-91bc39cbab7e","system_id":"levelo_inurba_marseille","lat":43.24651,"lon":5.43119,"is_reserved":false,"is_disabled":false,"rental_uris":{"android":"levelo://app?vid=725b1ff1-3894-44f1-a38e-91bc39cbab7e","ios":"levelo://app?vid=725b1ff1-3894-44f1-a38e-91bc39cbab7e"},"vehicle_type_id":"4","last_reported":1758720055,"current_range_meters":19200,"station_id":"st_d2m6c4gdas8pm72e190g","pricing_plan_id":"cebpf4jnsgd1na2vs0mg"},{"bike_id":"175760d5-253d-4692-91bd-1ac0c3f225e0","system_id":"levelo_inurba_marseille","lat":43.30888,"lon":5.39638,"is_reserved":false,"is_disabled":false,"rental_uris":{"android":"levelo://app?vid=175760d5-253d-4692-91bd-1ac0c3f225e0","ios":"levelo://app?vid=175760d5-253d-4692-91bd-1ac0c3f225e0"},"vehicle_type_id":"4","last_reported":1758720055,"current_range_meters":19200,"station_id":"ce4bh012rcd13ifvqcv0","pricing_plan_id":"cebpf4jnsgd1na2vs0mg"},