{"last_updated":1751292652,"ttl":60,"version":"2.2","data":{"bikes":[{"bike_id":"3da29fb8-fc97-44c6-b9ac-31dd456b2fd4","system_id":"levelo_inurba_marseille","lat":43.33771,"lon":5.37424,"is_reserved":false,"is_disabled":true,"rental_uris":{"android":"levelo://app?vid=3da29fb8-fc97-44c6-b9ac-31dd456b2fd4","ios":"levelo://app?vid=3da29fb8-fc97-44c6-b9ac-31dd456b2fd4"},"vehicle_type_id":"4","last_reported":1751292652,"current_range_meters":0,"station_id":"","pricing_plan_id":"cebpf4jnsgd1na2vs0mg"},{"bike_id":"01861ad8-a8d7-4be6-816e-651927c87584","system_id":"levelo_inurba_marseille","lat":43.33751,"lon":5.37456,"is_reserved":false,"is_disabled":true,"rental_uris":{"android":"levelo://app?vid=01861ad8-a8d7-4be6-816e-651927c87584","ios":"levelo://app?vid=01861ad8-a8d7-4be6-816e-651927c87584"},"vehicle_type_id":"4","last_reported":1751292652,"current_range_meters":0,"station_id":"","pricing_plan_id":"cebpf4jnsgd1na2vs0mg"},{"bike_id":"f1483ff6-ae8a-4286-a635-7d40887e3e92","system_id":"levelo_inurba_marseille","lat":43.26951,"lon":5.36632,"is_reserved":false,"is_disabled":true,"rental_uris":{"android":"levelo://app?vid=f1483ff6-ae8a-4286-a635-7d40887e3e92","ios":"levelo://app?vid=f1483ff6-ae8a-4286-a635-7d40887e3e92"},"vehicle_type_id":"4","last_reported":1751292652,"current_range_meters":0,"station_id":"","pricing_plan_id":"cebpf4jnsgd1na2vs0mg"},{"bike_id":"7dcec680-bd4c-4a60-97a2-d5e4f2ccc607","system_id":"levelo_inurba_marseille","lat":43.30534,"lon":5.38439,"is_reserved":false,"is_disabled":true,"rental_uris":{"android":"levelo://app?vid=7dcec680-bd4c-4a60-97a2-d5e4f2ccc607","ios":"levelo://app?vid=7dcec680-bd4c-4a60-97a2-d5e4f2ccc607"},"vehicle_type_id":"4","last_reported":1751292652,"current_range_meters":0,"station_id":"ce4bgg92rcd13ifvqb30","pricing_plan_id":"cebpf4jnsgd1na2vs0mg"},{"bike_id":"b6adb6d2-30c1-4c9c-b4ac-7926495efd65","system_id":"levelo_inurba_marseille","lat":43.29302,"lon":5.37467,"is_reserved":false,"is_disabled":true,"rental_uris":{"android":"levelo://app?vid=b6adb6d2-30c1-4c9c-b4ac-7926495efd65","ios":"levelo://app?vid=b6adb6d2-30c1-4c9c-b4ac-7926495efd65"},"vehicle_type_id":"4","last_reported":1751292652,"current_range_meters":0,"station_id":"ce4bgi12rcd13ifvqb70","pricing_plan_id":"cebpf4jnsgd1na2vs0mg"},{"bike_id":"1f57c357-5855-4420-949f-abb4d102ca71","system_id":"levelo_inurba_marseille","lat":43.2895,"lon":5.36631,"is_reserved":false,"is_disabled":true,"rental_uris":{"android":"levelo://app?vid=1f57c357-5855-4420-949f-abb4d102ca71","ios":"levelo://app?vid=1f57c357-5855-4420-949f-abb4d102ca71"},"vehicle_type_id":"4","last_reported":1751292652,"current_range_meters":0,"station_id":"ce4bhap2rcd13ifvqek0","pricing_plan_id":"cebpf4jnsgd1na2vs0mg"},{"bike_id":"9562ba87-da60-4d15-a8eb-8bcd7fa87db2","system_id":"levelo_inurba_marseille","lat":43.27375,"lon":5.36257,"is_reserved":false,"is_disabled":true,"rental_uris":{"android":"levelo://app?vid=9562ba87-da60-4d15-a8eb-8bcd7fa87db2","ios":"levelo://app?vid=9562ba87-da60-4d15-a8eb-8bcd7fa87db2"},"vehicle_type_id":"4","last_reported":1751292652,"current_range_meters":0,"station_id":"ce4bhbh2rcd13ifvqeo0","pricing_plan_id":"cebpf4jnsgd1na2vs0mg"},{"bike_id":"bb39be11-6860-4117-92d0-cb1a60e34edc","system_id":"levelo_inurba_marseille","lat":43.23185,"lon":5.39993,"is_reserved":false,"is_disabled":true,"rental_uris":{"android":"levelo://app?vid=bb39be11-6860-4117-92d0-cb1a60e34edc","ios":"levelo://app?vid=bb39be11-6860-4117-92d0-cb1a60e34edc"},"vehicle_type_id":"4","last_reported":1751292652,"current_range_meters":0,"station_id":"ce4bhn12rcd13ifvqgqg","pricing_plan_id":"cebpf4jnsgd1na2vs0mg"},{"bike_id":"29e697ca-26a6-4412-8107-f2c74b259edc","system_id":"levelo_inurba_marseille","lat":43.241909,"lon":5.383812,"is_reserved":false,"is_disabled":true,"rental_uris":{"android":"levelo://app?vid=29e697ca-26a6-4412-8107-f2c74b259edc","ios":"levelo://app?vid=29e697ca-26a6-4412-8107-f2c74b259edc"},"vehicle_type_id":"4","last_reported":1751292652,"current_range_meters":400,"station_id":"","pricing_plan_id":"cebpf4jnsgd1na2vs0mg"},{"bike_id":"72174a07-92e4-4eff-9fb2-d99b9f05b343","system_id":"levelo_inurba_marseille","lat":43.30957,"lon":5.39023,"is_reserved":false,"is_disabled":true,"rental_uris":{"android":"levelo://app?vid=72174a07-92e4-4eff-9fb2-d99b9f05b343","ios":"levelo://app?vid=72174a07-92e4-4eff-9fb2-d99b9f05b343"},"vehicle_type_id":"4","last_reported":1751292652,"current_range_meters":400,"station_id":"ce4bgup2rcd13ifvqco0","pricing_plan_id":"cebpf4jnsgd1na2vs0mg"},{"bike_id":"2a0eba67-d0e7-4693-bdef-e4738026cc4a","system_id":"levelo_inurba_marseille","lat":43.30642,"lon":5.40103,"is_reserved":false,"is_disabled":true,"rental_uris":{"android":"levelo://app?vid=2a0eba67-d0e7-4693-bdef-e4738026cc4a","ios":"levelo://app?vid=2a0eba67-d0e7-4693-bdef-e4738026cc4a"},"vehicle_type_id":"4","last_reported":1751292652,"current_range_meters":400,"station_id":"ce4bh112rcd13ifvqda0","pricing_plan_id":"cebpf4jnsgd1na2vs0mg"},{"bike_id":"85eb80f1-fdf8-4910-9983-416402de22ff","system_id":"levelo_inurba_marseille","lat":43.27696,"lon":5.41541,"is_reserved":false,"is_disabled":true,"rental_uris":{"android":"levelo://app?vid=85eb80f1-fdf8-4910-9983-416402de22ff","ios":"levelo://app?vid=85eb80f1-fdf8-4910-9983-416402de22ff"},"vehicle_type_id":"4","last_reported":1751292652,"current_range_meters":800,"station_id":"","pricing_plan_id":"cebpf4jnsgd1na2vs0mg"},{"bike_id":"4bb4a733-a9bd-4772-9320-a8c7885ff73b","system_id":"levelo_inurba_marseille","lat":43.27798,"lon":5.3556,"is_reserved":false,"is_disabled":true,"rental_uris":{"android":"levelo://app?vid=4bb4a733-a9bd-4772-9320-a8c7885ff73b","ios":"levelo://app?vid=4bb4a733-a9bd-4772-9320-a8c7885ff73b"},"vehicle_type_id":"4","last_reported":1751292652,"current_range_meters":800,"station_id":"","pricing_plan_id":"cebpf4jnsgd1na2vs0mg"},{"bike_id":"a206f390-05da-421f-9fa3-5ef5278576d7","system_id":"levelo_inurba_marseille","lat":43.2997,"lon":5.38499,"is_reserved":false,"is_disabled":true,"rental_uris":{"android":"levelo://app?vid=a206f390-05da-421f-9fa3-5ef5278576d7","ios":"levelo://app?vid=a206f390-05da-421f-9fa3-5ef5278576d7"},"vehicle_type_id":"4","last_reported":1751292652,"current_range_meters":800,"station_id":"ce4bgj92rcd13ifvqbd0","pricing_plan_id":"cebpf4jnsgd1na2vs0mg"},{"bike_id":"79ea60c7-e83f-4f11-80bb-1a634fed3008","system_id":"levelo_inurba_marseille","lat":43.28699,"lon":5.37388,"is_reserved":false,"is_disabled":true,"rental_uris":{"android":"levelo://app?vid=79ea60c7-e83f-4f11-80bb-1a634fed3008","ios":"levelo://app?vid=79ea60c7-e83f-4f11-80bb-1a634fed3008"},"vehicle_type_id":"4","last_reported":1751292652,"current_range_meters":800,"station_id":"ce4bh3p2rcd13ifvqdq0","pricing_plan_id":"cebpf4jnsgd1na2vs0mg"},{"bike_id":"dae65893-8d15-4248-8129-ce063fd04bd3","system_id":"levelo_inurba_marseille","lat":43.28262,"lon":5.35069,"is_reserved":false,"is_disabled":true,"rental_uris":{"android":"levelo://app?vid=dae65893-8d15-4248-8129-ce063fd04bd3","ios":"levelo://app?vid=dae65893-8d15-4248-8129-ce063fd04bd3"},"vehicle_type_id":"4","last_reported":1751292652,"current_range_meters":800,"station_id":"ce4bhbp2rcd13ifvqerg","pricing_plan_id":"cebpf4jnsgd1na2vs0mg"},{"bike_id":"90030d96-5766-4d8e-bb04-b82d89820d83","system_id":"levelo_inurba_marseille","lat":43.25583,"lon":5.38243,"is_reserved":false,"is_disabled":true,"rental_uris":{"android":"levelo://app?vid=90030d96-5766-4d8e-bb04-b82d89820d83","ios":"levelo://app?vid=90030d96-5766-4d8e-bb04-b82d89820d83"},"vehicle_type_id":"4","last_reported":1751292652,"current_range_meters":1200,"station_id":"ce4bhih2rcd13ifvqfs0","pricing_plan_id":"cebpf4jnsgd1na2vs0mg"},{"bike_id":"a37e8def-144c-4d8d-aabf-950aca51f939","system_id":"levelo_inurba_marseille","lat":43.297702,"lon":5.38121,"is_reserved":false,"is_disabled":true,"rental_uris":{"android":"levelo://app?vid=a37e8def-144c-4d8d-aabf-950aca51f939","ios":"levelo://app?vid=a37e8def-144c-4d8d-aabf-950aca51f939"},"vehicle_type_id":"4","last_reported":1751292652,"current_range_meters":2000,"station_id":"","pricing_plan_id":"cebpf4jnsgd1na2vs0mg"},{"bike_id":"9e163c86-36ef-4269-bcd8-6c9e6f4075a0","system_id":"levelo_inurba_marseille","lat":43.30296,"lon":5.3713,"is_reserved":false,"is_disabled":false,"rental_uris":{"android":"levelo://app?vid=9e163c86-36ef-4269-bcd8-6c9e6f4075a0","ios":"levelo://app?vid=9e163c86-36ef-4269-bcd8-6c9e6f4075a0"},"vehicle_type_id":"4","last_reported":1751292652,"current_range_meters":2800,"station_id":"","pricing_plan_id":"cebpf4jnsgd1na2vs0mg"},{"bike_id":"8ab4e132-cad2-4b12-be96-39ab7d178c89","system_id":"levelo_inurba_marseille","lat":43.29526,"lon":5.394,"is_reserved":false,"is_disabled":false,"rental_uris":{"android":"levelo://app?vid=8ab4e132-cad2-4b12-be96-39ab7d178c89","ios":"levelo://app?vid=8ab4e132-cad2-4b12-be96-39ab7d178c89"},"vehicle_type_id":"4","last_reported":1751292652,"current_range_meters":2800,"station_id":"ce4bh292rcd13ifvqdf0","pricing_plan_id":"cebpf4jnsgd1na2vs0mg"},{"bike_id":"77035973-c8c2-4fa9-89b3-fe36706459da","system_id":"levelo_inurba_marseille","lat":43.28416,"lon":5.3498,"is_reserved":false,"is_disabled":false,"rental_uris":{"android":"levelo://app?vid=77035973-c8c2-4fa9-89b3-fe36706459da","ios":"levelo://app?vid=77035973-c8c2-4fa9-89b3-fe36706459da"},"vehicle_type_id":"4","last_reported":1751292652,"current_range_meters":2800,"station_id":"ce4bhbh2rcd13ifvqepg","pricing_plan_id":"cebpf4jnsgd1na2vs0mg"},{"bike_id":"054ad515-5d19-4dfc-bc55-f242a376bb2e","system_id":"levelo_inurba_marseille","lat":43.27309,"lon":5.3907,"is_reserved":false,"is_disabled":false,"rental_uris":{"android":"levelo://app?vid=054ad515-5d19-4dfc-bc55-f242a376bb2e","ios":"levelo://app?vid=054ad515-5d19-4dfc-bc55-f242a376bb2e"},"vehicle_type_id":"4","last_reported":1751292652,"current_range_meters":2800,"station_id":"ce4bhgp2rcd13ifvqfe0","pricing_plan_id":"cebpf4jnsgd1na2vs0mg"},{"bike_id":"d5b5bc74-aaeb-40c0-b979-fb1a262527de","system_id":"levelo_inurba_marseille","lat":43.33266,"lon":5.35886,"is_reserved":false,"is_disabled":false,"rental_uris":{"android":"levelo://app?vid=d5b5bc74-aaeb-40c0-b979-fb1a262527de","ios":"levelo://app?vid=d5b5bc74-aaeb-40c0-b979-fb1a262527de"},"vehicle_type_id":"4","last_reported":1751292652,"current_range_meters":3200,"station_id":"","pricing_plan_id":"cebpf4jnsgd1na2vs0mg"},{"bike_id":"cff78932-c0e8-482b-8e27-864682d9658c","system_id":"levelo_inurba_marseille","lat":43.29383,"lon":5.37843,"is_reserved":false,"is_disabled":false,"rental_uris":{"android":"levelo://app?vid=cff78932-c0e8-482b-8e27-864682d9658c","ios":"levelo://app?vid=cff78932-c0e8-482b-8e27-864682d9658c"},"vehicle_type_id":"4","last_reported":1751292652,"current_range_meters":3200,"station_id":"ce4bgjh2rcd13ifvqbf0","pricing_plan_id":"cebpf4jnsgd1na2vs0mg"},{"bike_id":"8261e0cb-264b-4471-a002-53af74bc96ff","system_id":"levelo_inurba_marseille","lat":43.30911,"lon":5.36848,"is_reserved":false,"is_disabled":false,"rental_uris":{"android":"levelo://app?vid=8261e0cb-264b-4471-a002-53af74bc96ff","ios":"levelo://app?vid=8261e0cb-264b-4471-a002-53af74bc96ff"},"vehicle_type_id":"4","last_reported":1751292652,"current_range_meters":3200,"station_id":"ce4bgn92rcd13ifvqbvg","pricing_plan_id":"cebpf4jnsgd1na2vs0mg"},{"bike_id":"38b29642-41de-4881-ab6f-22f09dfb9c1a","system_id":"levelo_inurba_marseille","lat":43.28417,"lon":5.34989,"is_reserved":false,"is_disabled":false,"rental_uris":{"android":"levelo://app?vid=38b29642-41de-4881-ab6f-22f09dfb9c1a","ios":"levelo://app?vid=38b29642-41de-4881-ab6f-22f09dfb9c1a"},"vehicle_type_id":"4","last_reported":1751292652,"current_range_meters":3200,"station_id":"ce4bhbh2rcd13ifvqepg","pricing_plan_id":"cebpf4jnsgd1na2vs0mg"},{"bike_id":"e46e85a4-3ea9-4f36-8a7d-93d457a8a658","system_id":"levelo_inurba_marseille","lat":43.27309,"lon":5.39076,"is_reserved":false,"is_disabled":false,"rental_uris":{"android":"levelo://app?vid=e46e85a4-3ea9-4f36-8a7d-93d457a8a658","ios":"levelo://app?vid=e46e85a4-3ea9-4f36-8a7d-93d457a8a658"},"vehicle_type_id":"4","last_reported":1751292652,"current_range_meters":3200,"station_id":"ce4bhgp2rcd13ifvqfe0","pricing_plan_id":"cebpf4jnsgd1na2vs0mg"},{"bike_id":"80d2eceb-c33a-4cc9-8303-a9dea6f3dcf1","system_id":"levelo_inurba_marseille","lat":43.29782,"lon":5.39347,"is_reserved":false,"is_disabled":false,"rental_uris":{"android":"levelo://app?vid=80d2eceb-c33a-4cc9-8303-a9dea6f3dcf1","ios":"levelo://app?vid=80d2eceb-c33a-4cc9-8303-a9dea6f3dcf1"},"vehicle_type_id":"4","last_reported":1751292652,"current_range_meters":3200,"station_id":"chh1huq6cuj3fo74tm60","pricing_plan_id":"cebpf4jnsgd1na2vs0mg"},{"bike_id":"14d9fd99-9b30-4153-ba8e-87760ef8d31a","system_id":"levelo_inurba_marseille","lat":43.27,"lon":5.38734,"is_reserved":false,"is_disabled":false,"rental_uris":{"android":"levelo://app?vid=14d9fd99-9b30-4153-ba8e-87760ef8d31a","ios":"levelo://app?vid=14d9fd99-9b30-4153-ba8e-87760ef8d31a"},"vehicle_type_id":"4","last_reported":1751292652,"current_range_meters":3600,"station_id":"","pricing_plan_id":"cebpf4jnsgd1na2vs0mg"},{"bike_id":"6b4c4e78-5381-43a1-9c3f-25bbda2087a0","system_id":"levelo_inurba_marseille","lat":43.313294,"lon":5.396977,"is_reserved":false,"is_disabled":false,"rental_uris":{"android":"levelo://app?vid=6b4c4e78-5381-43a1-9c3f-25bbda2087a0","ios":"levelo://app?vid=6b4c4e78-5381-43a1-9c3f-25bbda2087a0"},"vehicle_type_id":"4","last_reported":1751292652,"current_range_meters":3600,"station_id":"ce4bgvp2rcd13ifvqcu0","pricing_plan_id":"cebpf4jnsgd1na2vs0mg"},{"bike_id":"1392b63b-f116-45ff-a253-d2ae42bfcfb3","system_id":"levelo_inurba_marseille","lat":43.27373,"lon":5.36257,"is_reserved":false,"is_disabled":false,"rental_uris":{"android":"levelo://app?vid=1392b63b-f116-45ff-a253-d2ae42bfcfb3","ios":"levelo://app?vid=1392b63b-f116-45ff-a253-d2ae42bfcfb3"},"vehicle_type_id":"4","last_reported":1751292652,"current_range_meters":3600,"station_id":"ce4bhbh2rcd13ifvqeo0","pricing_plan_id":"cebpf4jnsgd1na2vs0mg"},{"bike_id":"47a00302-48fd-4056-9d9b-cd55ce067415","system_id":"levelo_inurba_marseille","lat":43.28616,"lon":5.35103,"is_reserved":false,"is_disabled":false,"rental_uris":{"android":"levelo://app?vid=47a00302-48fd-4056-9d9b-cd55ce067415","ios":"levelo://app?vid=47a00302-48fd-4056-9d9b-cd55ce067415"},"vehicle_type_id":"4","last_reported":1751292652,"current_range_meters":3600,"station_id":"ce4bhch2rcd13ifvqeug","pricing_plan_id":"cebpf4jnsgd1na2vs0mg"},{"bike_id":"24083118-6734-4255-8d0b-1e428b21b34d","system_id":"levelo_inurba_marseille","lat":43.26194,"lon":5.37449,"is_reserved":false,"is_disabled":false,"rental_uris":{"android":"levelo://app?vid=24083118-6734-4255-8d0b-1e428b21b34d","ios":"levelo://app?vid=24083118-6734-4255-8d0b-1e428b21b34d"},"vehicle_type_id":"4","last_reported":1751292652,"current_range_meters":3600,"station_id":"ce4bhgp2rcd13ifvqfc0","pricing_plan_id":"cebpf4jnsgd1na2vs0mg"},{"bike_id":"721165c1-ef6f-40cc-8d33-af3a7999864b","system_id":"levelo_inurba_marseille","lat":43.3259,"lon":5.3788,"is_reserved":false,"is_disabled":false,"rental_uris":{"android":"levelo://app?vid=721165c1-ef6f-40cc-8d33-af3a7999864b","ios":"levelo://app?vid=721165c1-ef6f-40cc-8d33-af3a7999864b"},"vehicle_type_id":"4","last_reported":1751292652,"current_range_meters":4000,"station_id":"","pricing_plan_id":"cebpf4jnsgd1na2vs0mg"},{"bike_id":"b921b156-8634-481c-b04c-24b2f49eff5f","system_id":"levelo_inurba_marseille","lat":43.32334,"lon":5.40626,"is_reserved":false,"is_disabled":false,"rental_uris":{"android":"levelo://app?vid=b921b156-8634-481c-b04c-24b2f49eff5f","ios":"levelo://app?vid=b921b156-8634-481c-b04c-24b2f49eff5f"},"vehicle_type_id":"4","last_reported":1751292652,"current_range_meters":4000,"station_id":"ce4bhq92rcd13ifvqhjg","pricing_plan_id":"cebpf4jnsgd1na2vs0mg"},{"bike_id":"2ff54923-0f05-4d07-aacc-d62577cdd530","system_id":"levelo_inurba_marseille","lat":43.33604,"lon":5.41041,"is_reserved":false,"is_disabled":false,"rental_uris":{"android":"levelo://app?vid=2ff54923-0f05-4d07-aacc-d62577cdd530","ios":"levelo://app?vid=2ff54923-0f05-4d07-aacc-d62577cdd530"},"vehicle_type_id":"4","last_reported":1751292652,"current_range_meters":4000,"station_id":"ce4bhqh2rcd13ifvqhmg","pricing_plan_id":"cebpf4jnsgd1na2vs0mg"},{"bike_id":"2b1f6dbf-d8f7-4e0a-934b-d13ef71aea48","system_id":"levelo_inurba_marseille","lat":43.2944,"lon":5.39745,"is_reserved":false,"is_disabled":false,"rental_uris":{"android":"levelo://app?vid=2b1f6dbf-d8f7-4e0a-934b-d13ef71aea48","ios":"levelo://app?vid=2b1f6dbf-d8f7-4e0a-934b-d13ef71aea48"},"vehicle_type_id":"4","last_reported":1751292652,"current_range_meters":4400,"station_id":"ce4bh3h2rcd13ifvqdo0","pricing_plan_id":"cebpf4jnsgd1na2vs0mg"},{"bike_id":"8ff2b893-f7d4-4a9e-a261-9b23ddae6b6a","system_id":"levelo_inurba_marseille","lat":43.26192,"lon":5.37451,"is_reserved":false,"is_disabled":false,"rental_uris":{"android":"levelo://app?vid=8ff2b893-f7d4-4a9e-a261-9b23ddae6b6a","ios":"levelo://app?vid=8ff2b893-f7d4-4a9e-a261-9b23ddae6b6a"},"vehicle_type_id":"4","last_reported":1751292652,"current_range_meters":4400,"station_id":"ce4bhgp2rcd13ifvqfc0","pricing_plan_id":"cebpf4jnsgd1na2vs0mg"},{"bike_id":"cf4fa36c-bc36-497b-9ed5-ba90b4851a6b","system_id":"levelo_inurba_marseille","lat":43.27829,"lon":5.3921,"is_reserved":false,"is_disabled":false,"rental_uris":{"android":"levelo://app?vid=cf4fa36c-bc36-497b-9ed5-ba90b4851a6b","ios":"levelo://app?vid=cf4fa36c-bc36-497b-9ed5-ba90b4851a6b"},"vehicle_type_id":"4","last_reported":1751292652,"current_range_meters":4400,"station_id":"ce4bhjp2rcd13ifvqga0","pricing_plan_id":"cebpf4jnsgd1na2vs0mg"},{"bike_id":"87985e62-2823-4157-8a35-599ee9a377ab","system_id":"levelo_inurba_marseille","lat":43.21188,"lon":5.35079,"is_reserved":false,"is_disabled":false,"rental_uris":{"android":"levelo://app?vid=87985e62-2823-4157-8a35-599ee9a377ab","ios":"levelo://app?vid=87985e62-2823-4157-8a35-599ee9a377ab"},"vehicle_type_id":"4","last_reported":1751292652,"current_range_meters":4400,"station_id":"st_cvj6sg6p6f1abm77japg","pricing_plan_id":"cebpf4jnsgd1na2vs0mg"},{"bike_id":"47ec81e4-1050-43f7-b41e-51c895952ed4","system_id":"levelo_inurba_marseille","lat":43.24539,"lon":5.39534,"is_reserved":false,"is_disabled":false,"rental_uris":{"android":"levelo://app?vid=47ec81e4-1050-43f7-b41e-51c895952ed4","ios":"levelo://app?vid=47ec81e4-1050-43f7-b41e-51c895952ed4"},"vehicle_type_id":"4","last_reported":1751292652,"current_range_meters":4800,"station_id":"ce4bhlp2rcd13ifvqgjg","pricing_plan_id":"cebpf4jnsgd1na2vs0mg"},{"bike_id":"6d448edb-3d75-4306-8015-d2bc987571de","system_id":"levelo_inurba_marseille","lat":43.23964,"lon":5.3664,"is_reserved":false,"is_disabled":false,"rental_uris":{"android":"levelo://app?vid=6d448edb-3d75-4306-8015-d2bc987571de","ios":"levelo://app?vid=6d448edb-3d75-4306-8015-d2bc987571de"},"vehicle_type_id":"4","last_reported":1751292652,"current_range_meters":5600,"station_id":"ce4bhi12rcd13ifvqfp0","pricing_plan_id":"cebpf4jnsgd1na2vs0mg"},{"bike_id":"77d35df0-1d5f-4f3b-ac7b-c58e4c2fc332","system_id":"levelo_inurba_marseille","lat":43.28374,"lon":5.38639,"is_reserved":false,"is_disabled":false,"rental_uris":{"android":"levelo://app?vid=77d35df0-1d5f-4f3b-ac7b-c58e4c2fc332","ios":"levelo://app?vid=77d35df0-1d5f-4f3b-ac7b-c58e4c2fc332"},"vehicle_type_id":"4","last_reported":1751292652,"current_range_meters":6000,"station_id":"ce4bh492rcd13ifvqdvg","pricing_plan_id":"cebpf4jnsgd1na2vs0mg"},{"bike_id":"8a654a42-f4b4-4d2c-b2bb-bdc27fd056a6","system_id":"levelo_inurba_marseille","lat":43.29024,"lon":5.38651,"is_reserved":false,"is_disabled":false,"rental_uris":{"android":"levelo://app?vid=8a654a42-f4b4-4d2c-b2bb-bdc27fd056a6","ios":"levelo://app?vid=8a654a42-f4b4-4d2c-b2bb-bdc27fd056a6"},"vehicle_type_id":"4","last_reported":1751292652,"current_range_meters":6000,"station_id":"ce4bh4p2rcd13ifvqe0g","pricing_plan_id":"cebpf4jnsgd1na2vs0mg"},{"bike_id":"13124f84-2d14-44cc-9363-3f1ffdb095c8","system_id":"levelo_inurba_marseille","lat":43.26953,"lon":5.38631,"is_reserved":false,"is_disabled":false,"rental_uris":{"android":"levelo://app?vid=13124f84-2d14-44cc-9363-3f1ffdb095c8","ios":"levelo://app?vid=13124f84-2d14-44cc-9363-3f1ffdb095c8"},"vehicle_type_id":"4","last_reported":1751292652,"current_range_meters":6000,"station_id":"ce4bhh92rcd13ifvqfh0","pricing_plan_id":"cebpf4jnsgd1na2vs0mg"},{"bike_id":"9fb6792b-1223-42ad-b05e-0a2467708a27","system_id":"levelo_inurba_marseille","lat":43.31522,"lon":5.38038,"is_reserved":false,"is_disabled":false,"rental_uris":{"android":"levelo://app?vid=9fb6792b-1223-42ad-b05e-0a2467708a27","ios":"levelo://app?vid=9fb6792b-1223-42ad-b05e-0a2467708a27"},"vehicle_type_id":"4","last_reported":1751292652,"current_range_meters":6000,"station_id":"ce4bhsp2rcd13ifvqi50","pricing_plan_id":"cebpf4jnsgd1na2vs0mg"},{"bike_id":"9586c5b1-52ee-40b4-b78c-e17b4d1fa19d","system_id":"levelo_inurba_marseille","lat":43.30946,"lon":5.39038,"is_reserved":false,"is_disabled":false,"rental_uris":{"android":"levelo://app?vid=9586c5b1-52ee-40b4-b78c-e17b4d1fa19d","ios":"levelo://app?vid=9586c5b1-52ee-40b4-b78c-e17b4d1fa19d"},"vehicle_type_id":"4","last_reported":1751292652,"current_range_meters":6400,"station_id":"ce4bgup2rcd13ifvqco0","pricing_plan_id":"cebpf4jnsgd1na2vs0mg"},{"bike_id":"fe8fd306-5b0a-4163-a225-a5e43cd58ca3","system_id":"levelo_inurba_marseille","lat":43.2926,"lon":5.38445,"is_reserved":false,"is_disabled":false,"rental_uris":{"android":"levelo://app?vid=fe8fd306-5b0a-4163-a225-a5e43cd58ca3","ios":"levelo://app?vid=fe8fd306-5b0a-4163-a225-a5e43cd58ca3"},"vehicle_type_id":"4","last_reported":1751292652,"current_range_meters":6400,"station_id":"ce4bh692rcd13ifvqea0","pricing_plan_id":"cebpf4jnsgd1na2vs0mg"},{"bike_id":"c05710f1-482c-4825-b1ba-a989d6bf2aa6","system_id":"levelo_inurba_marseille","lat":43.249908,"lon":5.389325,"is_reserved":false,"is_disabled":false,"rental_uris":{"android":"levelo://app?vid=c05710f1-482c-4825-b1ba-a989d6bf2aa6","ios":"levelo://app?vid=c05710f1-482c-4825-b1ba-a989d6bf2aa6"},"vehicle_type_id":"4","last_reported":1751292652,"current_range_meters":6400,"station_id":"ce4bhgp2rcd13ifvqfd0","pricing_plan_id":"cebpf4jnsgd1na2vs0mg"},{"bike_id":"cd8a6b1a-e069-4940-8e68-29b80c8f9cae","system_id":"levelo_inurba_marseille","lat":43.24182,"lon":5.39724,"is_reserved":false,"is_disabled":false,"rental_uris":{"android":"levelo://app?vid=cd8a6b1a-e069-4940-8e68-29b80c8f9cae","ios":"levelo://app?vid=cd8a6b1a-e069-4940-8e68-29b80c8f9cae"},"vehicle_type_id":"4","last_reported":1751292652,"current_range_meters":6400,"station_id":"ce4bhn12rcd13ifvqgpg","pricing_plan_id":"cebpf4jnsgd1na2vs0mg"},{"bike_id":"6765dee0-770a-4bfd-a80a-3fa36da7ede5","system_id":"levelo_inurba_marseille","lat":43.309518,"lon":5.390417,"is_reserved":false,"is_disabled":false,"rental_uris":{"android":"levelo://app?vid=6765dee0-770a-4bfd-a80a-3fa36da7ede5","ios":"levelo://app?vid=6765dee0-770a-4bfd-a80a-3fa36da7ede5"},"vehicle_type_id":"4","last_reported":1751292652,"current_range_meters":6800,"station_id":"ce4bgup2rcd13ifvqco0","pricing_plan_id":"cebpf4jnsgd1na2vs0mg"},{"bike_id":"b875df27-a820-47d0-980e-08e014eb2d1b","system_id":"levelo_inurba_marseille","lat":43.27357,"lon":5.36262,"is_reserved":false,"is_disabled":false,"rental_uris":{"android":"levelo://app?vid=b875df27-a820-47d0-980e-08e014eb2d1b","ios":"levelo://app?vid=b875df27-a820-47d0-980e-08e014eb2d1b"},"vehicle_type_id":"4","last_reported":1751292652,"current_range_meters":6800,"station_id":"ce4bhbh2rcd13ifvqeo0","pricing_plan_id":"cebpf4jnsgd1na2vs0mg"},{"bike_id":"7b28ebac-3c6a-43aa-aca9-7bd954b07205","system_id":"levelo_inurba_marseille","lat":43.29675,"lon":5.3795,"is_reserved":false,"is_disabled":false,"rental_uris":{"android":"levelo://app?vid=7b28ebac-3c6a-43aa-aca9-7bd954b07205","ios":"levelo://app?vid=7b28ebac-3c6a-43aa-aca9-7bd954b07205"},"vehicle_type_id":"4","last_reported":1751292652,"current_range_meters":7200,"station_id":"","pricing_plan_id":"cebpf4jnsgd1na2vs0mg"},{"bike_id":"c3677f33-4c2b-4235-9621-bd9c7f293ac6","system_id":"levelo_inurba_marseille","lat":43.2857,"lon":5.395,"is_reserved":false,"is_disabled":false,"rental_uris":{"android":"levelo://app?vid=c3677f33-4c2b-4235-9621-bd9c7f293ac6","ios":"levelo://app?vid=c3677f33-4c2b-4235-9621-bd9c7f293ac6"},"vehicle_type_id":"4","last_reported":1751292652,"current_range_meters":7200,"station_id":"ce4bh292rcd13ifvqdg0","pricing_plan_id":"cebpf4jnsgd1na2vs0mg"},{"bike_id":"ff8f977e-c3ed-4979-9272-21b02309215a","system_id":"levelo_inurba_marseille","lat":43.284109,"lon":5.349642,"is_reserved":false,"is_disabled":false,"rental_uris":{"android":"levelo://app?vid=ff8f977e-c3ed-4979-9272-21b02309215a","ios":"levelo://app?vid=ff8f977e-c3ed-4979-9272-21b02309215a"},"vehicle_type_id":"4","last_reported":1751292652,"current_range_meters":7200,"station_id":"ce4bhbh2rcd13ifvqepg","pricing_plan_id":"cebpf4jnsgd1na2vs0mg"},{"bike_id":"cbe8cf16-ee4d-44dc-af26-2dea0d93d494","system_id":"levelo_inurba_marseille","lat":43.337444,"lon":5.374475,"is_reserved":false,"is_disabled":false,"rental_uris":{"android":"levelo://app?vid=cbe8cf16-ee4d-44dc-af26-2dea0d93d494","ios":"levelo://app?vid=cbe8cf16-ee4d-44dc-af26-2dea0d93d494"},"vehicle_type_id":"4","last_reported":1751292652,"current_range_meters":8000,"station_id":"","pricing_plan_id":"cebpf4jnsgd1na2vs0mg"},{"bike_id":"7bbb7221-a997-4f36-8c3d-823df02b3d3d","system_id":"levelo_inurba_marseille","lat":43.30144,"lon":5.38076,"is_reserved":false,"is_disabled":false,"rental_uris":{"android":"levelo://app?vid=7bbb7221-a997-4f36-8c3d-823df02b3d3d","ios":"levelo://app?vid=7bbb7221-a997-4f36-8c3d-823df02b3d3d"},"vehicle_type_id":"4","last_reported":1751292652,"current_range_meters":8000,"station_id":"ce4bgjp2rcd13ifvqbh0","pricing_plan_id":"cebpf4jnsgd1na2vs0mg"},{"bike_id":"9ec93d41-8fa3-4570-81b1-fbc18a0dcc83","system_id":"levelo_inurba_marseille","lat":43.29619,"lon":5.37163,"is_reserved":false,"is_disabled":false,"rental_uris":{"android":"levelo://app?vid=9ec93d41-8fa3-4570-81b1-fbc18a0dcc83","ios":"levelo://app?vid=9ec93d41-8fa3-4570-81b1-fbc18a0dcc83"},"vehicle_type_id":"4","last_reported":1751292652,"current_range_meters":8000,"station_id":"ce4bgnh2rcd13ifvqc0g","pricing_plan_id":"cebpf4jnsgd1na2vs0mg"},{"bike_id":"823e418c-48aa-4c9b-b043-89b5fda7847f","system_id":"levelo_inurba_marseille","lat":43.29434,"lon":5.39761,"is_reserved":false,"is_disabled":false,"rental_uris":{"android":"levelo://app?vid=823e418c-48aa-4c9b-b043-89b5fda7847f","ios":"levelo://app?vid=823e418c-48aa-4c9b-b043-89b5fda7847f"},"vehicle_type_id":"4","last_reported":1751292652,"current_range_meters":8000,"station_id":"ce4bh3h2rcd13ifvqdo0","pricing_plan_id":"cebpf4jnsgd1na2vs0mg"},{"bike_id":"12f4e51f-cdc9-4779-9d6b-bcb51afab2b2","system_id":"levelo_inurba_marseille","lat":43.28462,"lon":5.35887,"is_reserved":false,"is_disabled":false,"rental_uris":{"android":"levelo://app?vid=12f4e51f-cdc9-4779-9d6b-bcb51afab2b2","ios":"levelo://app?vid=12f4e51f-cdc9-4779-9d6b-bcb51afab2b2"},"vehicle_type_id":"4","last_reported":1751292652,"current_range_meters":8000,"station_id":"ce4bhah2rcd13ifvqei0","pricing_plan_id":"cebpf4jnsgd1na2vs0mg"},{"bike_id":"0c04431b-39df-4756-aff6-afda78d0c65f","system_id":"levelo_inurba_marseille","lat":43.27373,"lon":5.3626,"is_reserved":false,"is_disabled":false,"rental_uris":{"android":"levelo://app?vid=0c04431b-39df-4756-aff6-afda78d0c65f","ios":"levelo://app?vid=0c04431b-39df-4756-aff6-afda78d0c65f"},"vehicle_type_id":"4","last_reported":1751292652,"current_range_meters":8000,"station_id":"ce4bhbh2rcd13ifvqeo0","pricing_plan_id":"cebpf4jnsgd1na2vs0mg"},{"bike_id":"9fc6b39a-5532-40ac-8f58-975bced56a19","system_id":"levelo_inurba_marseille","lat":43.32611,"lon":5.40472,"is_reserved":false,"is_disabled":false,"rental_uris":{"android":"levelo://app?vid=9fc6b39a-5532-40ac-8f58-975bced56a19","ios":"levelo://app?vid=9fc6b39a-5532-40ac-8f58-975bced56a19"},"vehicle_type_id":"4","last_reported":1751292652,"current_range_meters":8400,"station_id":"","pricing_plan_id":"cebpf4jnsgd1na2vs0mg"},{"bike_id":"d308c658-b19c-49c0-8014-5506ff26f69a","system_id":"levelo_inurba_marseille","lat":43.23071,"lon":5.40505,"is_reserved":false,"is_disabled":false,"rental_uris":{"android":"levelo://app?vid=d308c658-b19c-49c0-8014-5506ff26f69a","ios":"levelo://app?vid=d308c658-b19c-49c0-8014-5506ff26f69a"},"vehicle_type_id":"4","last_reported":1751292652,"current_range_meters":8400,"station_id":"","pricing_plan_id":"cebpf4jnsgd1na2vs0mg"},{"bike_id":"fc14e6ce-abef-4f3f-9b83-8385fa618e69","system_id":"levelo_inurba_marseille","lat":43.30612,"lon":5.37224,"is_reserved":false,"is_disabled":false,"rental_uris":{"android":"levelo://app?vid=fc14e6ce-abef-4f3f-9b83-8385fa618e69","ios":"levelo://app?vid=fc14e6ce-abef-4f3f-9b83-8385fa618e69"},"vehicle_type_id":"4","last_reported":1751292652,"current_range_meters":8400,"station_id":"ce4bgqh2rcd13ifvqc4g","pricing_plan_id":"cebpf4jnsgd1na2vs0mg"},{"bike_id":"4d6773c7-bb65-4fc4-b3e9-c26be97b707d","system_id":"levelo_inurba_marseille","lat":43.305534,"lon":5.365486,"is_reserved":false,"is_disabled":false,"rental_uris":{"android":"levelo://app?vid=4d6773c7-bb65-4fc4-b3e9-c26be97b707d","ios":"levelo://app?vid=4d6773c7-bb65-4fc4-b3e9-c26be97b707d"},"vehicle_type_id":"4","last_reported":1751292652,"current_range_meters":8400,"station_id":"ce4bgs12rcd13ifvqcag","pricing_plan_id":"cebpf4jnsgd1na2vs0mg"},{"bike_id":"aab6938f-ae86-4028-9d54-9cea8f89fae8","system_id":"levelo_inurba_marseille","lat":43.30946,"lon":5.39032,"is_reserved":false,"is_disabled":false,"rental_uris":{"android":"levelo://app?vid=aab6938f-ae86-4028-9d54-9cea8f89fae8","ios":"levelo://app?vid=aab6938f-ae86-4028-9d54-9cea8f89fae8"},"vehicle_type_id":"4","last_reported":1751292652,"current_range_meters":8400,"station_id":"ce4bgup2rcd13ifvqco0","pricing_plan_id":"cebpf4jnsgd1na2vs0mg"},{"bike_id":"507e6b7c-c392-4f73-b674-a69da24d246e","system_id":"levelo_inurba_marseille","lat":43.28714,"lon":5.37945,"is_reserved":false,"is_disabled":false,"rental_uris":{"android":"levelo://app?vid=507e6b7c-c392-4f73-b674-a69da24d246e","ios":"levelo://app?vid=507e6b7c-c392-4f73-b674-a69da24d246e"},"vehicle_type_id":"4","last_reported":1751292652,"current_range_meters":8400,"station_id":"ce4bh9p2rcd13ifvqec0","pricing_plan_id":"cebpf4jnsgd1na2vs0mg"},{"bike_id":"d7d64aa7-3f1c-401a-afb1-2a560f7861c0","system_id":"levelo_inurba_marseille","lat":43.2738,"lon":5.36249,"is_reserved":false,"is_disabled":false,"rental_uris":{"android":"levelo://app?vid=d7d64aa7-3f1c-401a-afb1-2a560f7861c0","ios":"levelo://app?vid=d7d64aa7-3f1c-401a-afb1-2a560f7861c0"},"vehicle_type_id":"4","last_reported":1751292652,"current_range_meters":8400,"station_id":"ce4bhbh2rcd13ifvqeo0","pricing_plan_id":"cebpf4jnsgd1na2vs0mg"},{"bike_id":"e219543a-880e-4c38-aff0-63dd83878c8b","system_id":"levelo_inurba_marseille","lat":43.32112,"lon":5.36774,"is_reserved":false,"is_disabled":false,"rental_uris":{"android":"levelo://app?vid=e219543a-880e-4c38-aff0-63dd83878c8b","ios":"levelo://app?vid=e219543a-880e-4c38-aff0-63dd83878c8b"},"vehicle_type_id":"4","last_reported":1751292652,"current_range_meters":8400,"station_id":"ce4bhrh2rcd13ifvqhug","pricing_plan_id":"cebpf4jnsgd1na2vs0mg"},{"bike_id":"bedd7c3f-6c65-43ac-b36c-f7cf2c65958d","system_id":"levelo_inurba_marseille","lat":43.30605,"lon":5.37221,"is_reserved":false,"is_disabled":false,"rental_uris":{"android":"levelo://app?vid=bedd7c3f-6c65-43ac-b36c-f7cf2c65958d","ios":"levelo://app?vid=bedd7c3f-6c65-43ac-b36c-f7cf2c65958d"},"vehicle_type_id":"4","last_reported":1751292652,"current_range_meters":8800,"station_id":"ce4bgqh2rcd13ifvqc4g","pricing_plan_id":"cebpf4jnsgd1na2vs0mg"},{"bike_id":"2630b0d7-8518-44a1-b41d-4305f5c2b588","system_id":"levelo_inurba_marseille","lat":43.288553,"lon":5.393204,"is_reserved":false,"is_disabled":false,"rental_uris":{"android":"levelo://app?vid=2630b0d7-8518-44a1-b41d-4305f5c2b588","ios":"levelo://app?vid=2630b0d7-8518-44a1-b41d-4305f5c2b588"},"vehicle_type_id":"4","last_reported":1751292652,"current_range_meters":8800,"station_id":"ce4bh492rcd13ifvqdug","pricing_plan_id":"cebpf4jnsgd1na2vs0mg"},{"bike_id":"59a074fc-769e-4d5d-a6d4-002d8e573dd6","system_id":"levelo_inurba_marseille","lat":43.21186,"lon":5.3507,"is_reserved":false,"is_disabled":false,"rental_uris":{"android":"levelo://app?vid=59a074fc-769e-4d5d-a6d4-002d8e573dd6","ios":"levelo://app?vid=59a074fc-769e-4d5d-a6d4-002d8e573dd6"},"vehicle_type_id":"4","last_reported":1751292652,"current_range_meters":8800,"station_id":"st_cvj6sg6p6f1abm77japg","pricing_plan_id":"cebpf4jnsgd1na2vs0mg"},{"bike_id":"c595d0e1-c778-4abe-9c79-a9dd74f54e27","system_id":"levelo_inurba_marseille","lat":43.244738,"lon":5.372136,"is_reserved":false,"is_disabled":false,"rental_uris":{"android":"levelo://app?vid=c595d0e1-c778-4abe-9c79-a9dd74f54e27","ios":"levelo://app?vid=c595d0e1-c778-4abe-9c79-a9dd74f54e27"},"vehicle_type_id":"4","last_reported":1751292652,"current_range_meters":9200,"station_id":"","pricing_plan_id":"cebpf4jnsgd1na2vs0mg"},{"bike_id":"9007332c-88fb-4963-a9e4-8e0b13fc4a03","system_id":"levelo_inurba_marseille","lat":43.29521,"lon":5.38537,"is_reserved":false,"is_disabled":false,"rental_uris":{"android":"levelo://app?vid=9007332c-88fb-4963-a9e4-8e0b13fc4a03","ios":"levelo://app?vid=9007332c-88fb-4963-a9e4-8e0b13fc4a03"},"vehicle_type_id":"4","last_reported":1751292652,"current_range_meters":9200,"station_id":"ce4bgih2rcd13ifvqba0","pricing_plan_id":"cebpf4jnsgd1na2vs0mg"},{"bike_id":"a24fdfb7-de76-42ad-bddc-27b1f1caeec0","system_id":"levelo_inurba_marseille","lat":43.30132,"lon":5.39868,"is_reserved":false,"is_disabled":false,"rental_uris":{"android":"levelo://app?vid=a24fdfb7-de76-42ad-bddc-27b1f1caeec0","ios":"levelo://app?vid=a24fdfb7-de76-42ad-bddc-27b1f1caeec0"},"vehicle_type_id":"4","last_reported":1751292652,"current_range_meters":9200,"station_id":"ce4bh0h2rcd13ifvqd40","pricing_plan_id":"cebpf4jnsgd1na2vs0mg"},{"bike_id":"e89cbba3-0082-48af-bacf-f12cb71cea08","system_id":"levelo_inurba_marseille","lat":43.24807,"lon":5.37458,"is_reserved":false,"is_disabled":false,"rental_uris":{"android":"levelo://app?vid=e89cbba3-0082-48af-bacf-f12cb71cea08","ios":"levelo://app?vid=e89cbba3-0082-48af-bacf-f12cb71cea08"},"vehicle_type_id":"4","last_reported":1751292652,"current_range_meters":9200,"station_id":"ce4bhgh2rcd13ifvqfb0","pricing_plan_id":"cebpf4jnsgd1na2vs0mg"},{"bike_id":"69c15efa-aeb8-4947-9bef-7b2f1acff67b","system_id":"levelo_inurba_marseille","lat":43.27495,"lon":5.42465,"is_reserved":false,"is_disabled":false,"rental_uris":{"android":"levelo://app?vid=69c15efa-aeb8-4947-9bef-7b2f1acff67b","ios":"levelo://app?vid=69c15efa-aeb8-4947-9bef-7b2f1acff67b"},"vehicle_type_id":"4","last_reported":1751292652,"current_range_meters":9200,"station_id":"ce4bhn92rcd13ifvqgrg","pricing_plan_id":"cebpf4jnsgd1na2vs0mg"},{"bike_id":"b879504e-c85b-45ea-ab13-dce989cb130f","system_id":"levelo_inurba_marseille","lat":43.32372,"lon":5.36764,"is_reserved":false,"is_disabled":false,"rental_uris":{"android":"levelo://app?vid=b879504e-c85b-45ea-ab13-dce989cb130f","ios":"levelo://app?vid=b879504e-c85b-45ea-ab13-dce989cb130f"},"vehicle_type_id":"4","last_reported":1751292652,"current_range_meters":9200,"station_id":"ce4bhsh2rcd13ifvqi2g","pricing_plan_id":"cebpf4jnsgd1na2vs0mg"},{"bike_id":"120036e1-945c-4ddf-ba61-047361af53a6","system_id":"levelo_inurba_marseille","lat":43.211991,"lon":5.350792,"is_reserved":false,"is_disabled":false,"rental_uris":{"android":"levelo://app?vid=120036e1-945c-4ddf-ba61-047361af53a6","ios":"levelo://app?vid=120036e1-945c-4ddf-ba61-047361af53a6"},"vehicle_type_id":"4","last_reported":1751292652,"current_range_meters":9200,"station_id":"st_cvj6sg6p6f1abm77japg","pricing_plan_id":"cebpf4jnsgd1na2vs0mg"},{"bike_id":"05d3d448-235e-4ac7-88df-050f15d5a616","system_id":"levelo_inurba_marseille","lat":43.27935,"lon":5.42212,"is_reserved":false,"is_disabled":false,"rental_uris":{"android":"levelo://app?vid=05d3d448-235e-4ac7-88df-050f15d5a616","ios":"levelo://app?vid=05d3d448-235e-4ac7-88df-050f15d5a616"},"vehicle_type_id":"4","last_reported":1751292652,"current_range_meters":9600,"station_id":"","pricing_plan_id":"cebpf4jnsgd1na2vs0mg"},{"bike_id":"0fccd848-719e-476d-8ad1-21378dd8bf90","system_id":"levelo_inurba_marseille","lat":43.284587,"lon":5.358917,"is_reserved":false,"is_disabled":false,"rental_uris":{"android":"levelo://app?vid=0fccd848-719e-476d-8ad1-21378dd8bf90","ios":"levelo://app?vid=0fccd848-719e-476d-8ad1-21378dd8bf90"},"vehicle_type_id":"4","last_reported":1751292652,"current_range_meters":9600,"station_id":"ce4bhah2rcd13ifvqei0","pricing_plan_id":"cebpf4jnsgd1na2vs0mg"},{"bike_id":"36326b5b-da79-49e5-bf91-71f30e40ae68","system_id":"levelo_inurba_marseille","lat":43.27373,"lon":5.36257,"is_reserved":false,"is_disabled":false,"rental_uris":{"android":"levelo://app?vid=36326b5b-da79-49e5-bf91-71f30e40ae68","ios":"levelo://app?vid=36326b5b-da79-49e5-bf91-71f30e40ae68"},"vehicle_type_id":"4","last_reported":1751292652,"current_range_meters":9600,"station_id":"ce4bhbh2rcd13ifvqeo0","pricing_plan_id":"cebpf4jnsgd1na2vs0mg"},{"bike_id":"5dd58a21-6b6b-4f26-829a-cc7598700bb3","system_id":"levelo_inurba_marseille","lat":43.29232,"lon":5.36069,"is_reserved":false,"is_disabled":false,"rental_uris":{"android":"levelo://app?vid=5dd58a21-6b6b-4f26-829a-cc7598700bb3","ios":"levelo://app?vid=5dd58a21-6b6b-4f26-829a-cc7598700bb3"},"vehicle_type_id":"4","last_reported":1751292652,"current_range_meters":9600,"station_id":"ce4bhbh2rcd13ifvqeqg","pricing_plan_id":"cebpf4jnsgd1na2vs0mg"},{"bike_id":"cd59e4e1-ea8f-4394-87f2-1811a9d832b0","system_id":"levelo_inurba_marseille","lat":43.27071,"lon":5.42285,"is_reserved":false,"is_disabled":false,"rental_uris":{"android":"levelo://app?vid=cd59e4e1-ea8f-4394-87f2-1811a9d832b0","ios":"levelo://app?vid=cd59e4e1-ea8f-4394-87f2-1811a9d832b0"},"vehicle_type_id":"4","last_reported":1751292652,"current_range_meters":9600,"station_id":"ce4bhk92rcd13ifvqgb0","pricing_plan_id":"cebpf4jnsgd1na2vs0mg"},{"bike_id":"7c20f540-06e0-42f4-a6cf-8357cb8cad05","system_id":"levelo_inurba_marseille","lat":43.25108,"lon":5.4032,"is_reserved":false,"is_disabled":false,"rental_uris":{"android":"levelo://app?vid=7c20f540-06e0-42f4-a6cf-8357cb8cad05","ios":"levelo://app?vid=7c20f540-06e0-42f4-a6cf-8357cb8cad05"},"vehicle_type_id":"4","last_reported":1751292652,"current_range_meters":9600,"station_id":"ce4bhlh2rcd13ifvqgig","pricing_plan_id":"cebpf4jnsgd1na2vs0mg"},{"bike_id":"0b4b4c09-5cf0-4b66-b368-151704d0b589","system_id":"levelo_inurba_marseille","lat":43.24182,"lon":5.39724,"is_reserved":false,"is_disabled":false,"rental_uris":{"android":"levelo://app?vid=0b4b4c09-5cf0-4b66-b368-151704d0b589","ios":"levelo://app?vid=0b4b4c09-5cf0-4b66-b368-151704d0b589"},"vehicle_type_id":"4","last_reported":1751292652,"current_range_meters":9600,"station_id":"ce4bhn12rcd13ifvqgpg","pricing_plan_id":"cebpf4jnsgd1na2vs0mg"},{"bike_id":"a0228c66-07ee-4925-a497-abfea7544ad2","system_id":"levelo_inurba_marseille","lat":43.30379,"lon":5.42489,"is_reserved":false,"is_disabled":false,"rental_uris":{"android":"levelo://app?vid=a0228c66-07ee-4925-a497-abfea7544ad2","ios":"levelo://app?vid=a0228c66-07ee-4925-a497-abfea7544ad2"},"vehicle_type_id":"4","last_reported":1751292652,"current_range_meters":9600,"station_id":"ce4bhoh2rcd13ifvqh6g","pricing_plan_id":"cebpf4jnsgd1na2vs0mg"},{"bike_id":"3035be0e-7c3d-4f7d-a1cb-7a1af59e497b","system_id":"levelo_inurba_marseille","lat":43.29677,"lon":5.36001,"is_reserved":false,"is_disabled":false,"rental_uris":{"android":"levelo://app?vid=3035be0e-7c3d-4f7d-a1cb-7a1af59e497b","ios":"levelo://app?vid=3035be0e-7c3d-4f7d-a1cb-7a1af59e497b"},"vehicle_type_id":"4","last_reported":1751292652,"current_range_meters":10000,"station_id":"","pricing_plan_id":"cebpf4jnsgd1na2vs0mg"},{"bike_id":"00a57c94-7ec0-4b88-883f-164c177fcc3a","system_id":"levelo_inurba_marseille","lat":43.30202,"lon":5.39465,"is_reserved":false,"is_disabled":false,"rental_uris":{"android":"levelo://app?vid=00a57c94-7ec0-4b88-883f-164c177fcc3a","ios":"levelo://app?vid=00a57c94-7ec0-4b88-883f-164c177fcc3a"},"vehicle_type_id":"4","last_reported":1751292652,"current_range_meters":10000,"station_id":"ce4bh0p2rcd13ifvqd70","pricing_plan_id":"cebpf4jnsgd1na2vs0mg"},{"bike_id":"f8c06bdf-49c7-493b-87d0-4d974e3b060b","system_id":"levelo_inurba_marseille","lat":43.273976,"lon":5.36257,"is_reserved":false,"is_disabled":false,"rental_uris":{"android":"levelo://app?vid=f8c06bdf-49c7-493b-87d0-4d974e3b060b","ios":"levelo://app?vid=f8c06bdf-49c7-493b-87d0-4d974e3b060b"},"vehicle_type_id":"4","last_reported":1751292652,"current_range_meters":10000,"station_id":"ce4bhbh2rcd13ifvqeo0","pricing_plan_id":"cebpf4jnsgd1na2vs0mg"},{"bike_id":"aa425421-c625-4cd8-87b9-5dda1b3dfbfe","system_id":"levelo_inurba_marseille","lat":43.29552,"lon":5.42297,"is_reserved":false,"is_disabled":false,"rental_uris":{"android":"levelo://app?vid=aa425421-c625-4cd8-87b9-5dda1b3dfbfe","ios":"levelo://app?vid=aa425421-c625-4cd8-87b9-5dda1b3dfbfe"},"vehicle_type_id":"4","last_reported":1751292652,"current_range_meters":10000,"station_id":"ce4bhph2rcd13ifvqhdg","pricing_plan_id":"cebpf4jnsgd1na2vs0mg"},{"bike_id":"b05ac08d-847b-4f20-ac36-038a0d69d167","system_id":"levelo_inurba_marseille","lat":43.28122,"lon":5.35864,"is_reserved":false,"is_disabled":false,"rental_uris":{"android":"levelo://app?vid=b05ac08d-847b-4f20-ac36-038a0d69d167","ios":"levelo://app?vid=b05ac08d-847b-4f20-ac36-038a0d69d167"},"vehicle_type_id":"4","last_reported":1751292652,"current_range_meters":10800,"station_id":"","pricing_plan_id":"cebpf4jnsgd1na2vs0mg"},{"bike_id":"78284af2-bf69-4fd5-b7d0-bf87d4b01869","system_id":"levelo_inurba_marseille","lat":43.31219,"lon":5.36881,"is_reserved":false,"is_disabled":false,"rental_uris":{"android":"levelo://app?vid=78284af2-bf69-4fd5-b7d0-bf87d4b01869","ios":"levelo://app?vid=78284af2-bf69-4fd5-b7d0-bf87d4b01869"},"vehicle_type_id":"4","last_reported":1751292652,"current_range_meters":10800,"station_id":"ce4bgl92rcd13ifvqbq0","pricing_plan_id":"cebpf4jnsgd1na2vs0mg"},{"bike_id":"83d719b8-7401-4b46-aad2-2573411a912e","system_id":"levelo_inurba_marseille","lat":43.26214,"lon":5.37447,"is_reserved":false,"is_disabled":false,"rental_uris":{"android":"levelo://app?vid=83d719b8-7401-4b46-aad2-2573411a912e","ios":"levelo://app?vid=83d719b8-7401-4b46-aad2-2573411a912e"},"vehicle_type_id":"4","last_reported":1751292652,"current_range_meters":10800,"station_id":"ce4bhgp2rcd13ifvqfc0","pricing_plan_id":"cebpf4jnsgd1na2vs0mg"},{"bike_id":"b05733ac-e333-4bae-a385-6c30ebf06450","system_id":"levelo_inurba_marseille","lat":43.27483,"lon":5.42456,"is_reserved":false,"is_disabled":false,"rental_uris":{"android":"levelo://app?vid=b05733ac-e333-4bae-a385-6c30ebf06450","ios":"levelo://app?vid=b05733ac-e333-4bae-a385-6c30ebf06450"},"vehicle_type_id":"4","last_reported":1751292652,"current_range_meters":10800,"station_id":"ce4bhn92rcd13ifvqgrg","pricing_plan_id":"cebpf4jnsgd1na2vs0mg"},{"bike_id":"9feb9b77-8fdc-44f1-a601-620d06dc9d7a","system_id":"levelo_inurba_marseille","lat":43.3235,"lon":5.40622,"is_reserved":false,"is_disabled":false,"rental_uris":{"android":"levelo://app?vid=9feb9b77-8fdc-44f1-a601-620d06dc9d7a","ios":"levelo://app?vid=9feb9b77-8fdc-44f1-a601-620d06dc9d7a"},"vehicle_type_id":"4","last_reported":1751292652,"current_range_meters":10800,"station_id":"ce4bhq92rcd13ifvqhjg","pricing_plan_id":"cebpf4jnsgd1na2vs0mg"},{"bike_id":"e7641e58-176f-485d-9342-129003cdc52b","system_id":"levelo_inurba_marseille","lat":43.32102,"lon":5.36779,"is_reserved":false,"is_disabled":false,"rental_uris":{"android":"levelo://app?vid=e7641e58-176f-485d-9342-129003cdc52b","ios":"levelo://app?vid=e7641e58-176f-485d-9342-129003cdc52b"},"vehicle_type_id":"4","last_reported":1751292652,"current_range_meters":10800,"station_id":"ce4bhrh2rcd13ifvqhug","pricing_plan_id":"cebpf4jnsgd1na2vs0mg"},{"bike_id":"32be6b32-514a-4d84-90b5-9913910bb2f1","system_id":"levelo_inurba_marseille","lat":43.32365,"lon":5.36762,"is_reserved":false,"is_disabled":false,"rental_uris":{"android":"levelo://app?vid=32be6b32-514a-4d84-90b5-9913910bb2f1","ios":"levelo://app?vid=32be6b32-514a-4d84-90b5-9913910bb2f1"},"vehicle_type_id":"4","last_reported":1751292652,"current_range_meters":10800,"station_id":"ce4bhsh2rcd13ifvqi2g","pricing_plan_id":"cebpf4jnsgd1na2vs0mg"},{"bike_id":"475a6667-051d-40b1-936b-0c3cde139cea","system_id":"levelo_inurba_marseille","lat":43.2872,"lon":5.36079,"is_reserved":false,"is_disabled":false,"rental_uris":{"android":"levelo://app?vid=475a6667-051d-40b1-936b-0c3cde139cea","ios":"levelo://app?vid=475a6667-051d-40b1-936b-0c3cde139cea"},"vehicle_type_id":"4","last_reported":1751292652,"current_range_meters":10800,"station_id":"cki0cbj6b192h4jlfktg","pricing_plan_id":"cebpf4jnsgd1na2vs0mg"},{"bike_id":"7cd73daf-6410-4b72-a872-e5224e9d29ff","system_id":"levelo_inurba_marseille","lat":43.27392,"lon":5.4116,"is_reserved":false,"is_disabled":false,"rental_uris":{"android":"levelo://app?vid=7cd73daf-6410-4b72-a872-e5224e9d29ff","ios":"levelo://app?vid=7cd73daf-6410-4b72-a872-e5224e9d29ff"},"vehicle_type_id":"4","last_reported":1751292652,"current_range_meters":11200,"station_id":"","pricing_plan_id":"cebpf4jnsgd1na2vs0mg"},{"bike_id":"acca692d-8d39-459c-a574-7087df4141fc","system_id":"levelo_inurba_marseille","lat":43.31507,"lon":5.37289,"is_reserved":false,"is_disabled":false,"rental_uris":{"android":"levelo://app?vid=acca692d-8d39-459c-a574-7087df4141fc","ios":"levelo://app?vid=acca692d-8d39-459c-a574-7087df4141fc"},"vehicle_type_id":"4","last_reported":1751292652,"current_range_meters":11200,"station_id":"ce4bgt12rcd13ifvqcd0","pricing_plan_id":"cebpf4jnsgd1na2vs0mg"},{"bike_id":"6b6a646f-e1ae-4138-9055-a2e578c870cb","system_id":"levelo_inurba_marseille","lat":43.21741,"lon":5.34612,"is_reserved":false,"is_disabled":false,"rental_uris":{"android":"levelo://app?vid=6b6a646f-e1ae-4138-9055-a2e578c870cb","ios":"levelo://app?vid=6b6a646f-e1ae-4138-9055-a2e578c870cb"},"vehicle_type_id":"4","last_reported":1751292652,"current_range_meters":11200,"station_id":"st_cvj6r9ubvosntc0bgbag","pricing_plan_id":"cebpf4jnsgd1na2vs0mg"},{"bike_id":"786f230b-598f-4e58-bbc2-1e0a419e9de2","system_id":"levelo_inurba_marseille","lat":43.264682,"lon":5.392084,"is_reserved":false,"is_disabled":false,"rental_uris":{"android":"levelo://app?vid=786f230b-598f-4e58-bbc2-1e0a419e9de2","ios":"levelo://app?vid=786f230b-598f-4e58-bbc2-1e0a419e9de2"},"vehicle_type_id":"4","last_reported":1751292652,"current_range_meters":11600,"station_id":"","pricing_plan_id":"cebpf4jnsgd1na2vs0mg"},{"bike_id":"f5c16f07-bc6f-4121-91a7-5ad90eec4f34","system_id":"levelo_inurba_marseille","lat":43.31208,"lon":5.37329,"is_reserved":false,"is_disabled":false,"rental_uris":{"android":"levelo://app?vid=f5c16f07-bc6f-4121-91a7-5ad90eec4f34","ios":"levelo://app?vid=f5c16f07-bc6f-4121-91a7-5ad90eec4f34"},"vehicle_type_id":"4","last_reported":1751292652,"current_range_meters":11600,"station_id":"","pricing_plan_id":"cebpf4jnsgd1na2vs0mg"},{"bike_id":"2c941d90-e42f-422f-8651-5cc6f449d5f0","system_id":"levelo_inurba_marseille","lat":43.26212,"lon":5.37448,"is_reserved":false,"is_disabled":false,"rental_uris":{"android":"levelo://app?vid=2c941d90-e42f-422f-8651-5cc6f449d5f0","ios":"levelo://app?vid=2c941d90-e42f-422f-8651-5cc6f449d5f0"},"vehicle_type_id":"4","last_reported":1751292652,"current_range_meters":11600,"station_id":"ce4bhgp2rcd13ifvqfc0","pricing_plan_id":"cebpf4jnsgd1na2vs0mg"},{"bike_id":"e245ea00-c68a-475b-a902-5a5d4d3b2940","system_id":"levelo_inurba_marseille","lat":43.21195,"lon":5.35081,"is_reserved":false,"is_disabled":false,"rental_uris":{"android":"levelo://app?vid=e245ea00-c68a-475b-a902-5a5d4d3b2940","ios":"levelo://app?vid=e245ea00-c68a-475b-a902-5a5d4d3b2940"},"vehicle_type_id":"4","last_reported":1751292652,"current_range_meters":11600,"station_id":"st_cvj6sg6p6f1abm77japg","pricing_plan_id":"cebpf4jnsgd1na2vs0mg"},{"bike_id":"5031ccf9-7dcf-4258-a4a4-0c83bcd30a12","system_id":"levelo_inurba_marseille","lat":43.337444,"lon":5.374475,"is_reserved":false,"is_disabled":false,"rental_uris":{"android":"levelo://app?vid=5031ccf9-7dcf-4258-a4a4-0c83bcd30a12","ios":"levelo://app?vid=5031ccf9-7dcf-4258-a4a4-0c83bcd30a12"},"vehicle_type_id":"4","last_reported":1751292652,"current_range_meters":12000,"station_id":"","pricing_plan_id":"cebpf4jnsgd1na2vs0mg"},{"bike_id":"7dc148e5-fd7e-4677-bce3-55c94c6ee080","system_id":"levelo_inurba_marseille","lat":43.306769,"lon":5.409244,"is_reserved":false,"is_disabled":false,"rental_uris":{"android":"levelo://app?vid=7dc148e5-fd7e-4677-bce3-55c94c6ee080","ios":"levelo://app?vid=7dc148e5-fd7e-4677-bce3-55c94c6ee080"},"vehicle_type_id":"4","last_reported":1751292652,"current_range_meters":12000,"station_id":"","pricing_plan_id":"cebpf4jnsgd1na2vs0mg"},{"bike_id":"6ca45d85-724d-46a1-81a2-c6ea453808e9","system_id":"levelo_inurba_marseille","lat":43.30552,"lon":5.36707,"is_reserved":false,"is_disabled":false,"rental_uris":{"android":"levelo://app?vid=6ca45d85-724d-46a1-81a2-c6ea453808e9","ios":"levelo://app?vid=6ca45d85-724d-46a1-81a2-c6ea453808e9"},"vehicle_type_id":"4","last_reported":1751292652,"current_range_meters":12000,"station_id":"ce4bgrp2rcd13ifvqc9g","pricing_plan_id":"cebpf4jnsgd1na2vs0mg"},{"bike_id":"07960eb1-de65-4ab0-945c-4f9428a687b4","system_id":"levelo_inurba_marseille","lat":43.29256,"lon":5.40904,"is_reserved":false,"is_disabled":false,"rental_uris":{"android":"levelo://app?vid=07960eb1-de65-4ab0-945c-4f9428a687b4","ios":"levelo://app?vid=07960eb1-de65-4ab0-945c-4f9428a687b4"},"vehicle_type_id":"4","last_reported":1751292652,"current_range_meters":12000,"station_id":"ce4bh192rcd13ifvqdc0","pricing_plan_id":"cebpf4jnsgd1na2vs0mg"},{"bike_id":"8c2138aa-2b67-4f7c-8d46-cc2afcfe6717","system_id":"levelo_inurba_marseille","lat":43.28975,"lon":5.37836,"is_reserved":false,"is_disabled":false,"rental_uris":{"android":"levelo://app?vid=8c2138aa-2b67-4f7c-8d46-cc2afcfe6717","ios":"levelo://app?vid=8c2138aa-2b67-4f7c-8d46-cc2afcfe6717"},"vehicle_type_id":"4","last_reported":1751292652,"current_range_meters":12000,"station_id":"ce4bh9p2rcd13ifvqed0","pricing_plan_id":"cebpf4jnsgd1na2vs0mg"},{"bike_id":"b06370fd-57df-4a21-8a70-e1ffee6d1c17","system_id":"levelo_inurba_marseille","lat":43.2826,"lon":5.3508,"is_reserved":false,"is_disabled":false,"rental_uris":{"android":"levelo://app?vid=b06370fd-57df-4a21-8a70-e1ffee6d1c17","ios":"levelo://app?vid=b06370fd-57df-4a21-8a70-e1ffee6d1c17"},"vehicle_type_id":"4","last_reported":1751292652,"current_range_meters":12000,"station_id":"ce4bhbp2rcd13ifvqerg","pricing_plan_id":"cebpf4jnsgd1na2vs0mg"},{"bike_id":"b6c522c6-cbef-4d71-a62b-f5594355331f","system_id":"levelo_inurba_marseille","lat":43.2654,"lon":5.39064,"is_reserved":false,"is_disabled":false,"rental_uris":{"android":"levelo://app?vid=b6c522c6-cbef-4d71-a62b-f5594355331f","ios":"levelo://app?vid=b6c522c6-cbef-4d71-a62b-f5594355331f"},"vehicle_type_id":"4","last_reported":1751292652,"current_range_meters":12000,"station_id":"ce4bhe12rcd13ifvqf30","pricing_plan_id":"cebpf4jnsgd1na2vs0mg"},{"bike_id":"c2e134cb-ee58-410e-8443-cdf3a592d767","system_id":"levelo_inurba_marseille","lat":43.29572,"lon":5.38705,"is_reserved":false,"is_disabled":false,"rental_uris":{"android":"levelo://app?vid=c2e134cb-ee58-410e-8443-cdf3a592d767","ios":"levelo://app?vid=c2e134cb-ee58-410e-8443-cdf3a592d767"},"vehicle_type_id":"4","last_reported":1751292652,"current_range_meters":12400,"station_id":"","pricing_plan_id":"cebpf4jnsgd1na2vs0mg"},{"bike_id":"5a43fa58-a0c9-4110-89c2-86fcbb47143d","system_id":"levelo_inurba_marseille","lat":43.23154,"lon":5.43706,"is_reserved":false,"is_disabled":false,"rental_uris":{"android":"levelo://app?vid=5a43fa58-a0c9-4110-89c2-86fcbb47143d","ios":"levelo://app?vid=5a43fa58-a0c9-4110-89c2-86fcbb47143d"},"vehicle_type_id":"4","last_reported":1751292652,"current_range_meters":12400,"station_id":"ce4bhmp2rcd13ifvqgog","pricing_plan_id":"cebpf4jnsgd1na2vs0mg"},{"bike_id":"1b4f6545-8df3-4501-93c1-b998da516dd1","system_id":"levelo_inurba_marseille","lat":43.32354,"lon":5.36745,"is_reserved":false,"is_disabled":false,"rental_uris":{"android":"levelo://app?vid=1b4f6545-8df3-4501-93c1-b998da516dd1","ios":"levelo://app?vid=1b4f6545-8df3-4501-93c1-b998da516dd1"},"vehicle_type_id":"4","last_reported":1751292652,"current_range_meters":12400,"station_id":"ce4bhsh2rcd13ifvqi2g","pricing_plan_id":"cebpf4jnsgd1na2vs0mg"},{"bike_id":"2a7d4522-b0dd-48c1-8653-7a6d0e58cc43","system_id":"levelo_inurba_marseille","lat":43.32082,"lon":5.40116,"is_reserved":false,"is_disabled":false,"rental_uris":{"android":"levelo://app?vid=2a7d4522-b0dd-48c1-8653-7a6d0e58cc43","ios":"levelo://app?vid=2a7d4522-b0dd-48c1-8653-7a6d0e58cc43"},"vehicle_type_id":"4","last_reported":1751292652,"current_range_meters":12800,"station_id":"","pricing_plan_id":"cebpf4jnsgd1na2vs0mg"},{"bike_id":"8d9d8d62-fb01-4fdd-a0b9-05ab8b882715","system_id":"levelo_inurba_marseille","lat":43.29971,"lon":5.37178,"is_reserved":false,"is_disabled":false,"rental_uris":{"android":"levelo://app?vid=8d9d8d62-fb01-4fdd-a0b9-05ab8b882715","ios":"levelo://app?vid=8d9d8d62-fb01-4fdd-a0b9-05ab8b882715"},"vehicle_type_id":"4","last_reported":1751292652,"current_range_meters":12800,"station_id":"ce4bgr92rcd13ifvqc7g","pricing_plan_id":"cebpf4jnsgd1na2vs0mg"},{"bike_id":"cb500ca7-1f8c-459d-9d0f-3400b4a234a7","system_id":"levelo_inurba_marseille","lat":43.26212,"lon":5.37443,"is_reserved":false,"is_disabled":false,"rental_uris":{"android":"levelo://app?vid=cb500ca7-1f8c-459d-9d0f-3400b4a234a7","ios":"levelo://app?vid=cb500ca7-1f8c-459d-9d0f-3400b4a234a7"},"vehicle_type_id":"4","last_reported":1751292652,"current_range_meters":12800,"station_id":"ce4bhgp2rcd13ifvqfc0","pricing_plan_id":"cebpf4jnsgd1na2vs0mg"},{"bike_id":"ceb818d5-6a0e-45de-8d40-c9c1b19d5e60","system_id":"levelo_inurba_marseille","lat":43.323457,"lon":5.367368,"is_reserved":false,"is_disabled":false,"rental_uris":{"android":"levelo://app?vid=ceb818d5-6a0e-45de-8d40-c9c1b19d5e60","ios":"levelo://app?vid=ceb818d5-6a0e-45de-8d40-c9c1b19d5e60"},"vehicle_type_id":"4","last_reported":1751292652,"current_range_meters":12800,"station_id":"ce4bhsh2rcd13ifvqi2g","pricing_plan_id":"cebpf4jnsgd1na2vs0mg"},{"bike_id":"d97fb146-df52-454f-9826-e3f143dab8fc","system_id":"levelo_inurba_marseille","lat":43.21187,"lon":5.35075,"is_reserved":false,"is_disabled":false,"rental_uris":{"android":"levelo://app?vid=d97fb146-df52-454f-9826-e3f143dab8fc","ios":"levelo://app?vid=d97fb146-df52-454f-9826-e3f143dab8fc"},"vehicle_type_id":"4","last_reported":1751292652,"current_range_meters":12800,"station_id":"st_cvj6sg6p6f1abm77japg","pricing_plan_id":"cebpf4jnsgd1na2vs0mg"},{"bike_id":"5be1a4b5-3e1e-4bcd-9477-5aee0b89f062","system_id":"levelo_inurba_marseille","lat":43.27845,"lon":5.35453,"is_reserved":false,"is_disabled":false,"rental_uris":{"android":"levelo://app?vid=5be1a4b5-3e1e-4bcd-9477-5aee0b89f062","ios":"levelo://app?vid=5be1a4b5-3e1e-4bcd-9477-5aee0b89f062"},"vehicle_type_id":"4","last_reported":1751292652,"current_range_meters":13600,"station_id":"","pricing_plan_id":"cebpf4jnsgd1na2vs0mg"},{"bike_id":"30beeb03-99f8-4c21-aeda-bd83286c050c","system_id":"levelo_inurba_marseille","lat":43.29587,"lon":5.37503,"is_reserved":false,"is_disabled":false,"rental_uris":{"android":"levelo://app?vid=30beeb03-99f8-4c21-aeda-bd83286c050c","ios":"levelo://app?vid=30beeb03-99f8-4c21-aeda-bd83286c050c"},"vehicle_type_id":"4","last_reported":1751292652,"current_range_meters":13600,"station_id":"ce4bgh92rcd13ifvqb50","pricing_plan_id":"cebpf4jnsgd1na2vs0mg"},{"bike_id":"02f297e0-a7cf-4d55-b3c1-a450b6837cfd","system_id":"levelo_inurba_marseille","lat":43.29848,"lon":5.36284,"is_reserved":false,"is_disabled":false,"rental_uris":{"android":"levelo://app?vid=02f297e0-a7cf-4d55-b3c1-a450b6837cfd","ios":"levelo://app?vid=02f297e0-a7cf-4d55-b3c1-a450b6837cfd"},"vehicle_type_id":"4","last_reported":1751292652,"current_range_meters":13600,"station_id":"ce4bgpp2rcd13ifvqc3g","pricing_plan_id":"cebpf4jnsgd1na2vs0mg"},{"bike_id":"d1fa1f13-896f-42d0-9d54-173a8ac42429","system_id":"levelo_inurba_marseille","lat":43.29195,"lon":5.3932,"is_reserved":false,"is_disabled":false,"rental_uris":{"android":"levelo://app?vid=d1fa1f13-896f-42d0-9d54-173a8ac42429","ios":"levelo://app?vid=d1fa1f13-896f-42d0-9d54-173a8ac42429"},"vehicle_type_id":"4","last_reported":1751292652,"current_range_meters":13600,"station_id":"ce4bh192rcd13ifvqdd0","pricing_plan_id":"cebpf4jnsgd1na2vs0mg"},{"bike_id":"79ae6ee3-84f8-4cbf-ba8d-c2fbd9509493","system_id":"levelo_inurba_marseille","lat":43.28269,"lon":5.35074,"is_reserved":false,"is_disabled":false,"rental_uris":{"android":"levelo://app?vid=79ae6ee3-84f8-4cbf-ba8d-c2fbd9509493","ios":"levelo://app?vid=79ae6ee3-84f8-4cbf-ba8d-c2fbd9509493"},"vehicle_type_id":"4","last_reported":1751292652,"current_range_meters":13600,"station_id":"ce4bhbp2rcd13ifvqerg","pricing_plan_id":"cebpf4jnsgd1na2vs0mg"},{"bike_id":"ea3d6cab-de34-4d69-9c23-d3e2b6233884","system_id":"levelo_inurba_marseille","lat":43.26212,"lon":5.37442,"is_reserved":false,"is_disabled":false,"rental_uris":{"android":"levelo://app?vid=ea3d6cab-de34-4d69-9c23-d3e2b6233884","ios":"levelo://app?vid=ea3d6cab-de34-4d69-9c23-d3e2b6233884"},"vehicle_type_id":"4","last_reported":1751292652,"current_range_meters":13600,"station_id":"ce4bhgp2rcd13ifvqfc0","pricing_plan_id":"cebpf4jnsgd1na2vs0mg"},{"bike_id":"02f8e323-4114-4bc9-8bc2-346672cab367","system_id":"levelo_inurba_marseille","lat":43.23149,"lon":5.43713,"is_reserved":false,"is_disabled":false,"rental_uris":{"android":"levelo://app?vid=02f8e323-4114-4bc9-8bc2-346672cab367","ios":"levelo://app?vid=02f8e323-4114-4bc9-8bc2-346672cab367"},"vehicle_type_id":"4","last_reported":1751292652,"current_range_meters":13600,"station_id":"ce4bhmp2rcd13ifvqgog","pricing_plan_id":"cebpf4jnsgd1na2vs0mg"},{"bike_id":"88ace19f-5099-4c38-9beb-02c2db57fc8e","system_id":"levelo_inurba_marseille","lat":43.2827,"lon":5.35085,"is_reserved":false,"is_disabled":false,"rental_uris":{"android":"levelo://app?vid=88ace19f-5099-4c38-9beb-02c2db57fc8e","ios":"levelo://app?vid=88ace19f-5099-4c38-9beb-02c2db57fc8e"},"vehicle_type_id":"4","last_reported":1751292652,"current_range_meters":14000,"station_id":"ce4bhbp2rcd13ifvqerg","pricing_plan_id":"cebpf4jnsgd1na2vs0mg"},{"bike_id":"c1ba7a1b-de2b-4a01-b5d1-16b0aecf608b","system_id":"levelo_inurba_marseille","lat":43.28267,"lon":5.3506,"is_reserved":false,"is_disabled":false,"rental_uris":{"android":"levelo://app?vid=c1ba7a1b-de2b-4a01-b5d1-16b0aecf608b","ios":"levelo://app?vid=c1ba7a1b-de2b-4a01-b5d1-16b0aecf608b"},"vehicle_type_id":"4","last_reported":1751292652,"current_range_meters":14000,"station_id":"ce4bhbp2rcd13ifvqerg","pricing_plan_id":"cebpf4jnsgd1na2vs0mg"},{"bike_id":"5ad89c97-d13e-490d-9775-036d6518236b","system_id":"levelo_inurba_marseille","lat":43.28266,"lon":5.35082,"is_reserved":false,"is_disabled":false,"rental_uris":{"android":"levelo://app?vid=5ad89c97-d13e-490d-9775-036d6518236b","ios":"levelo://app?vid=5ad89c97-d13e-490d-9775-036d6518236b"},"vehicle_type_id":"4","last_reported":1751292652,"current_range_meters":14000,"station_id":"ce4bhbp2rcd13ifvqerg","pricing_plan_id":"cebpf4jnsgd1na2vs0mg"},{"bike_id":"4f0388d4-351e-471e-92a7-8045d56ffd48","system_id":"levelo_inurba_marseille","lat":43.23964,"lon":5.36633,"is_reserved":false,"is_disabled":false,"rental_uris":{"android":"levelo://app?vid=4f0388d4-351e-471e-92a7-8045d56ffd48","ios":"levelo://app?vid=4f0388d4-351e-471e-92a7-8045d56ffd48"},"vehicle_type_id":"4","last_reported":1751292652,"current_range_meters":14000,"station_id":"ce4bhi12rcd13ifvqfp0","pricing_plan_id":"cebpf4jnsgd1na2vs0mg"},{"bike_id":"c13c93ac-6b62-443c-9e36-caf61b27325a","system_id":"levelo_inurba_marseille","lat":43.21191,"lon":5.35068,"is_reserved":false,"is_disabled":false,"rental_uris":{"android":"levelo://app?vid=c13c93ac-6b62-443c-9e36-caf61b27325a","ios":"levelo://app?vid=c13c93ac-6b62-443c-9e36-caf61b27325a"},"vehicle_type_id":"4","last_reported":1751292652,"current_range_meters":14000,"station_id":"st_cvj6sg6p6f1abm77japg","pricing_plan_id":"cebpf4jnsgd1na2vs0mg"},{"bike_id":"1ac664aa-f2a4-4b75-879f-dcb93272d133","system_id":"levelo_inurba_marseille","lat":43.320324,"lon":5.409449,"is_reserved":false,"is_disabled":false,"rental_uris":{"android":"levelo://app?vid=1ac664aa-f2a4-4b75-879f-dcb93272d133","ios":"levelo://app?vid=1ac664aa-f2a4-4b75-879f-dcb93272d133"},"vehicle_type_id":"4","last_reported":1751292652,"current_range_meters":14400,"station_id":"","pricing_plan_id":"cebpf4jnsgd1na2vs0mg"},{"bike_id":"b6941871-17ec-4dc8-9dbe-bf1e08f324ad","system_id":"levelo_inurba_marseille","lat":43.312246,"lon":5.368663,"is_reserved":false,"is_disabled":false,"rental_uris":{"android":"levelo://app?vid=b6941871-17ec-4dc8-9dbe-bf1e08f324ad","ios":"levelo://app?vid=b6941871-17ec-4dc8-9dbe-bf1e08f324ad"},"vehicle_type_id":"4","last_reported":1751292652,"current_range_meters":14400,"station_id":"ce4bgl92rcd13ifvqbq0","pricing_plan_id":"cebpf4jnsgd1na2vs0mg"},{"bike_id":"8efc01f9-3e2e-4f21-bfa7-dd8477b85956","system_id":"levelo_inurba_marseille","lat":43.30533,"lon":5.36704,"is_reserved":false,"is_disabled":false,"rental_uris":{"android":"levelo://app?vid=8efc01f9-3e2e-4f21-bfa7-dd8477b85956","ios":"levelo://app?vid=8efc01f9-3e2e-4f21-bfa7-dd8477b85956"},"vehicle_type_id":"4","last_reported":1751292652,"current_range_meters":14400,"station_id":"ce4bgrp2rcd13ifvqc9g","pricing_plan_id":"cebpf4jnsgd1na2vs0mg"},{"bike_id":"96e785d3-0c2a-4bec-b011-c91b6e4e90c3","system_id":"levelo_inurba_marseille","lat":43.26205,"lon":5.37443,"is_reserved":false,"is_disabled":false,"rental_uris":{"android":"levelo://app?vid=96e785d3-0c2a-4bec-b011-c91b6e4e90c3","ios":"levelo://app?vid=96e785d3-0c2a-4bec-b011-c91b6e4e90c3"},"vehicle_type_id":"4","last_reported":1751292652,"current_range_meters":14400,"station_id":"ce4bhgp2rcd13ifvqfc0","pricing_plan_id":"cebpf4jnsgd1na2vs0mg"},{"bike_id":"ecda20bd-1c69-43c0-afe9-e93e538fd2c4","system_id":"levelo_inurba_marseille","lat":43.24366,"lon":5.37064,"is_reserved":false,"is_disabled":false,"rental_uris":{"android":"levelo://app?vid=ecda20bd-1c69-43c0-afe9-e93e538fd2c4","ios":"levelo://app?vid=ecda20bd-1c69-43c0-afe9-e93e538fd2c4"},"vehicle_type_id":"4","last_reported":1751292652,"current_range_meters":14400,"station_id":"ce4bhhh2rcd13ifvqfk0","pricing_plan_id":"cebpf4jnsgd1na2vs0mg"},{"bike_id":"0bbacc1b-16a4-4b0f-a6c0-a6651dd5b39c","system_id":"levelo_inurba_marseille","lat":43.24393,"lon":5.37048,"is_reserved":false,"is_disabled":false,"rental_uris":{"android":"levelo://app?vid=0bbacc1b-16a4-4b0f-a6c0-a6651dd5b39c","ios":"levelo://app?vid=0bbacc1b-16a4-4b0f-a6c0-a6651dd5b39c"},"vehicle_type_id":"4","last_reported":1751292652,"current_range_meters":14400,"station_id":"ce4bhhh2rcd13ifvqfk0","pricing_plan_id":"cebpf4jnsgd1na2vs0mg"},{"bike_id":"1311e9d2-37ca-4bc3-97a9-b2739255a522","system_id":"levelo_inurba_marseille","lat":43.27812,"lon":5.40709,"is_reserved":false,"is_disabled":false,"rental_uris":{"android":"levelo://app?vid=1311e9d2-37ca-4bc3-97a9-b2739255a522","ios":"levelo://app?vid=1311e9d2-37ca-4bc3-97a9-b2739255a522"},"vehicle_type_id":"4","last_reported":1751292652,"current_range_meters":14400,"station_id":"ce4bhnh2rcd13ifvqgtg","pricing_plan_id":"cebpf4jnsgd1na2vs0mg"},{"bike_id":"4e47abe4-6598-4756-807d-26ba558e3c39","system_id":"levelo_inurba_marseille","lat":43.29904,"lon":5.43661,"is_reserved":false,"is_disabled":false,"rental_uris":{"android":"levelo://app?vid=4e47abe4-6598-4756-807d-26ba558e3c39","ios":"levelo://app?vid=4e47abe4-6598-4756-807d-26ba558e3c39"},"vehicle_type_id":"4","last_reported":1751292652,"current_range_meters":14400,"station_id":"ce4bhpp2rcd13ifvqhfg","pricing_plan_id":"cebpf4jnsgd1na2vs0mg"},{"bike_id":"1542d3c6-400b-4301-8a35-f84bbdbd0597","system_id":"levelo_inurba_marseille","lat":43.29894,"lon":5.43673,"is_reserved":false,"is_disabled":false,"rental_uris":{"android":"levelo://app?vid=1542d3c6-400b-4301-8a35-f84bbdbd0597","ios":"levelo://app?vid=1542d3c6-400b-4301-8a35-f84bbdbd0597"},"vehicle_type_id":"4","last_reported":1751292652,"current_range_meters":14400,"station_id":"ce4bhpp2rcd13ifvqhfg","pricing_plan_id":"cebpf4jnsgd1na2vs0mg"},{"bike_id":"87616cdc-8aff-47c9-8aa9-626e349ec4f0","system_id":"levelo_inurba_marseille","lat":43.258615,"lon":5.398948,"is_reserved":false,"is_disabled":false,"rental_uris":{"android":"levelo://app?vid=87616cdc-8aff-47c9-8aa9-626e349ec4f0","ios":"levelo://app?vid=87616cdc-8aff-47c9-8aa9-626e349ec4f0"},"vehicle_type_id":"4","last_reported":1751292652,"current_range_meters":14800,"station_id":"","pricing_plan_id":"cebpf4jnsgd1na2vs0mg"},{"bike_id":"3ceeb769-83e5-44dd-9dc1-1a751e250dde","system_id":"levelo_inurba_marseille","lat":43.29529,"lon":5.37507,"is_reserved":false,"is_disabled":false,"rental_uris":{"android":"levelo://app?vid=3ceeb769-83e5-44dd-9dc1-1a751e250dde","ios":"levelo://app?vid=3ceeb769-83e5-44dd-9dc1-1a751e250dde"},"vehicle_type_id":"4","last_reported":1751292652,"current_range_meters":14800,"station_id":"ce4bgkp2rcd13ifvqbmg","pricing_plan_id":"cebpf4jnsgd1na2vs0mg"},{"bike_id":"04253149-275e-4989-b782-a325f35ad71e","system_id":"levelo_inurba_marseille","lat":43.29023,"lon":5.38137,"is_reserved":false,"is_disabled":false,"rental_uris":{"android":"levelo://app?vid=04253149-275e-4989-b782-a325f35ad71e","ios":"levelo://app?vid=04253149-275e-4989-b782-a325f35ad71e"},"vehicle_type_id":"4","last_reported":1751292652,"current_range_meters":14800,"station_id":"ce4bh4p2rcd13ifvqe1g","pricing_plan_id":"cebpf4jnsgd1na2vs0mg"},{"bike_id":"88547822-fe4a-42bb-8a70-133e1829e579","system_id":"levelo_inurba_marseille","lat":43.28412,"lon":5.34985,"is_reserved":false,"is_disabled":false,"rental_uris":{"android":"levelo://app?vid=88547822-fe4a-42bb-8a70-133e1829e579","ios":"levelo://app?vid=88547822-fe4a-42bb-8a70-133e1829e579"},"vehicle_type_id":"4","last_reported":1751292652,"current_range_meters":14800,"station_id":"ce4bhbh2rcd13ifvqepg","pricing_plan_id":"cebpf4jnsgd1na2vs0mg"},{"bike_id":"6b04a8db-f012-4ea9-88f5-d59ff3f24fd9","system_id":"levelo_inurba_marseille","lat":43.299,"lon":5.43658,"is_reserved":false,"is_disabled":false,"rental_uris":{"android":"levelo://app?vid=6b04a8db-f012-4ea9-88f5-d59ff3f24fd9","ios":"levelo://app?vid=6b04a8db-f012-4ea9-88f5-d59ff3f24fd9"},"vehicle_type_id":"4","last_reported":1751292652,"current_range_meters":14800,"station_id":"ce4bhpp2rcd13ifvqhfg","pricing_plan_id":"cebpf4jnsgd1na2vs0mg"},{"bike_id":"b5e1e5e2-d1c0-4ef2-96f6-624910f43609","system_id":"levelo_inurba_marseille","lat":43.29617,"lon":5.37167,"is_reserved":false,"is_disabled":false,"rental_uris":{"android":"levelo://app?vid=b5e1e5e2-d1c0-4ef2-96f6-624910f43609","ios":"levelo://app?vid=b5e1e5e2-d1c0-4ef2-96f6-624910f43609"},"vehicle_type_id":"4","last_reported":1751292652,"current_range_meters":15200,"station_id":"ce4bgnh2rcd13ifvqc0g","pricing_plan_id":"cebpf4jnsgd1na2vs0mg"},{"bike_id":"2397d987-2630-4f45-921c-33bbbc44c168","system_id":"levelo_inurba_marseille","lat":43.28618,"lon":5.35106,"is_reserved":false,"is_disabled":false,"rental_uris":{"android":"levelo://app?vid=2397d987-2630-4f45-921c-33bbbc44c168","ios":"levelo://app?vid=2397d987-2630-4f45-921c-33bbbc44c168"},"vehicle_type_id":"4","last_reported":1751292652,"current_range_meters":15200,"station_id":"ce4bhch2rcd13ifvqeug","pricing_plan_id":"cebpf4jnsgd1na2vs0mg"},{"bike_id":"6531b65e-c323-4552-901b-d44bb8ccf8d7","system_id":"levelo_inurba_marseille","lat":43.32651,"lon":5.40995,"is_reserved":false,"is_disabled":false,"rental_uris":{"android":"levelo://app?vid=6531b65e-c323-4552-901b-d44bb8ccf8d7","ios":"levelo://app?vid=6531b65e-c323-4552-901b-d44bb8ccf8d7"},"vehicle_type_id":"4","last_reported":1751292652,"current_range_meters":15200,"station_id":"ce4bhpp2rcd13ifvqhgg","pricing_plan_id":"cebpf4jnsgd1na2vs0mg"},{"bike_id":"aad466d4-9058-4038-a189-895fae6f1c28","system_id":"levelo_inurba_marseille","lat":43.211871,"lon":5.350702,"is_reserved":false,"is_disabled":false,"rental_uris":{"android":"levelo://app?vid=aad466d4-9058-4038-a189-895fae6f1c28","ios":"levelo://app?vid=aad466d4-9058-4038-a189-895fae6f1c28"},"vehicle_type_id":"4","last_reported":1751292652,"current_range_meters":15200,"station_id":"st_cvj6sg6p6f1abm77japg","pricing_plan_id":"cebpf4jnsgd1na2vs0mg"},{"bike_id":"86d2f0bc-12ff-4e8c-82f5-a7aa9d8bcacb","system_id":"levelo_inurba_marseille","lat":43.30551,"lon":5.36562,"is_reserved":false,"is_disabled":false,"rental_uris":{"android":"levelo://app?vid=86d2f0bc-12ff-4e8c-82f5-a7aa9d8bcacb","ios":"levelo://app?vid=86d2f0bc-12ff-4e8c-82f5-a7aa9d8bcacb"},"vehicle_type_id":"4","last_reported":1751292652,"current_range_meters":16000,"station_id":"ce4bgs12rcd13ifvqcag","pricing_plan_id":"cebpf4jnsgd1na2vs0mg"},{"bike_id":"19902b26-1db2-418b-b8f6-5d1724e262de","system_id":"levelo_inurba_marseille","lat":43.30089,"lon":5.39064,"is_reserved":false,"is_disabled":false,"rental_uris":{"android":"levelo://app?vid=19902b26-1db2-418b-b8f6-5d1724e262de","ios":"levelo://app?vid=19902b26-1db2-418b-b8f6-5d1724e262de"},"vehicle_type_id":"4","last_reported":1751292652,"current_range_meters":16000,"station_id":"ce4bh192rcd13ifvqdb0","pricing_plan_id":"cebpf4jnsgd1na2vs0mg"},{"bike_id":"06dcfacd-21fd-46bf-9491-a5196addb6a1","system_id":"levelo_inurba_marseille","lat":43.28032,"lon":5.36941,"is_reserved":false,"is_disabled":false,"rental_uris":{"android":"levelo://app?vid=06dcfacd-21fd-46bf-9491-a5196addb6a1","ios":"levelo://app?vid=06dcfacd-21fd-46bf-9491-a5196addb6a1"},"vehicle_type_id":"4","last_reported":1751292652,"current_range_meters":16000,"station_id":"ce4bha12rcd13ifvqef0","pricing_plan_id":"cebpf4jnsgd1na2vs0mg"},{"bike_id":"7be49b39-878f-480b-aa52-67aa476fd395","system_id":"levelo_inurba_marseille","lat":43.27904,"lon":5.38025,"is_reserved":false,"is_disabled":false,"rental_uris":{"android":"levelo://app?vid=7be49b39-878f-480b-aa52-67aa476fd395","ios":"levelo://app?vid=7be49b39-878f-480b-aa52-67aa476fd395"},"vehicle_type_id":"4","last_reported":1751292652,"current_range_meters":16000,"station_id":"ce4bhf92rcd13ifvqf50","pricing_plan_id":"cebpf4jnsgd1na2vs0mg"},{"bike_id":"d18872b4-cc39-4e0a-ae9d-ec491242a57c","system_id":"levelo_inurba_marseille","lat":43.27952,"lon":5.41041,"is_reserved":false,"is_disabled":false,"rental_uris":{"android":"levelo://app?vid=d18872b4-cc39-4e0a-ae9d-ec491242a57c","ios":"levelo://app?vid=d18872b4-cc39-4e0a-ae9d-ec491242a57c"},"vehicle_type_id":"4","last_reported":1751292652,"current_range_meters":16000,"station_id":"ce4bhnp2rcd13ifvqh0g","pricing_plan_id":"cebpf4jnsgd1na2vs0mg"},{"bike_id":"27de128b-79d6-4ae4-99ba-8537bd95d5a2","system_id":"levelo_inurba_marseille","lat":43.324826,"lon":5.365704,"is_reserved":false,"is_disabled":false,"rental_uris":{"android":"levelo://app?vid=27de128b-79d6-4ae4-99ba-8537bd95d5a2","ios":"levelo://app?vid=27de128b-79d6-4ae4-99ba-8537bd95d5a2"},"vehicle_type_id":"4","last_reported":1751292652,"current_range_meters":16000,"station_id":"ce4bhs12rcd13ifvqhvg","pricing_plan_id":"cebpf4jnsgd1na2vs0mg"},{"bike_id":"4f97e136-2006-43b5-84b8-8ce28f4647e9","system_id":"levelo_inurba_marseille","lat":43.21191,"lon":5.35072,"is_reserved":false,"is_disabled":false,"rental_uris":{"android":"levelo://app?vid=4f97e136-2006-43b5-84b8-8ce28f4647e9","ios":"levelo://app?vid=4f97e136-2006-43b5-84b8-8ce28f4647e9"},"vehicle_type_id":"4","last_reported":1751292652,"current_range_meters":16000,"station_id":"st_cvj6sg6p6f1abm77japg","pricing_plan_id":"cebpf4jnsgd1na2vs0mg"},{"bike_id":"8ceb2860-ca09-420a-8aab-fcf0c529a0d3","system_id":"levelo_inurba_marseille","lat":43.21179,"lon":5.35074,"is_reserved":false,"is_disabled":false,"rental_uris":{"android":"levelo://app?vid=8ceb2860-ca09-420a-8aab-fcf0c529a0d3","ios":"levelo://app?vid=8ceb2860-ca09-420a-8aab-fcf0c529a0d3"},"vehicle_type_id":"4","last_reported":1751292652,"current_range_meters":16000,"station_id":"st_cvj6sg6p6f1abm77japg","pricing_plan_id":"cebpf4jnsgd1na2vs0mg"},{"bike_id":"cd1659d8-a895-43b6-8b18-29da64b47e09","system_id":"levelo_inurba_marseille","lat":43.29008,"lon":5.35625,"is_reserved":false,"is_disabled":false,"rental_uris":{"android":"levelo://app?vid=cd1659d8-a895-43b6-8b18-29da64b47e09","ios":"levelo://app?vid=cd1659d8-a895-43b6-8b18-29da64b47e09"},"vehicle_type_id":"4","last_reported":1751292652,"current_range_meters":16400,"station_id":"","pricing_plan_id":"cebpf4jnsgd1na2vs0mg"},{"bike_id":"4dfc162d-0df1-4bab-b375-7ab302a074ce","system_id":"levelo_inurba_marseille","lat":43.296262,"lon":5.405828,"is_reserved":false,"is_disabled":false,"rental_uris":{"android":"levelo://app?vid=4dfc162d-0df1-4bab-b375-7ab302a074ce","ios":"levelo://app?vid=4dfc162d-0df1-4bab-b375-7ab302a074ce"},"vehicle_type_id":"4","last_reported":1751292652,"current_range_meters":16400,"station_id":"ce4bh0h2rcd13ifvqd60","pricing_plan_id":"cebpf4jnsgd1na2vs0mg"},{"bike_id":"ef56af2f-739b-4071-a865-2862ea606449","system_id":"levelo_inurba_marseille","lat":43.27363,"lon":5.36248,"is_reserved":false,"is_disabled":false,"rental_uris":{"android":"levelo://app?vid=ef56af2f-739b-4071-a865-2862ea606449","ios":"levelo://app?vid=ef56af2f-739b-4071-a865-2862ea606449"},"vehicle_type_id":"4","last_reported":1751292652,"current_range_meters":16400,"station_id":"ce4bhbh2rcd13ifvqeo0","pricing_plan_id":"cebpf4jnsgd1na2vs0mg"},{"bike_id":"d8facb10-b967-4a32-9b5c-8cfed4bbd05b","system_id":"levelo_inurba_marseille","lat":43.32114,"lon":5.3677,"is_reserved":false,"is_disabled":false,"rental_uris":{"android":"levelo://app?vid=d8facb10-b967-4a32-9b5c-8cfed4bbd05b","ios":"levelo://app?vid=d8facb10-b967-4a32-9b5c-8cfed4bbd05b"},"vehicle_type_id":"4","last_reported":1751292652,"current_range_meters":16400,"station_id":"ce4bhrh2rcd13ifvqhug","pricing_plan_id":"cebpf4jnsgd1na2vs0mg"},{"bike_id":"c55c286f-5c9b-48d4-8f68-d7a169141ef3","system_id":"levelo_inurba_marseille","lat":43.29644,"lon":5.37145,"is_reserved":false,"is_disabled":false,"rental_uris":{"android":"levelo://app?vid=c55c286f-5c9b-48d4-8f68-d7a169141ef3","ios":"levelo://app?vid=c55c286f-5c9b-48d4-8f68-d7a169141ef3"},"vehicle_type_id":"4","last_reported":1751292652,"current_range_meters":16800,"station_id":"ce4bgnh2rcd13ifvqc0g","pricing_plan_id":"cebpf4jnsgd1na2vs0mg"},{"bike_id":"2b4fa9d6-d55c-459f-b66a-601a052cf300","system_id":"levelo_inurba_marseille","lat":43.31489,"lon":5.37332,"is_reserved":false,"is_disabled":false,"rental_uris":{"android":"levelo://app?vid=2b4fa9d6-d55c-459f-b66a-601a052cf300","ios":"levelo://app?vid=2b4fa9d6-d55c-459f-b66a-601a052cf300"},"vehicle_type_id":"4","last_reported":1751292652,"current_range_meters":16800,"station_id":"ce4bgt12rcd13ifvqcd0","pricing_plan_id":"cebpf4jnsgd1na2vs0mg"},{"bike_id":"0e1fd179-f6dc-4047-8ba7-96fc9adce901","system_id":"levelo_inurba_marseille","lat":43.28611,"lon":5.35101,"is_reserved":false,"is_disabled":false,"rental_uris":{"android":"levelo://app?vid=0e1fd179-f6dc-4047-8ba7-96fc9adce901","ios":"levelo://app?vid=0e1fd179-f6dc-4047-8ba7-96fc9adce901"},"vehicle_type_id":"4","last_reported":1751292652,"current_range_meters":16800,"station_id":"ce4bhch2rcd13ifvqeug","pricing_plan_id":"cebpf4jnsgd1na2vs0mg"},{"bike_id":"4c94006b-60b3-48f9-b81d-fdb441e29ae5","system_id":"levelo_inurba_marseille","lat":43.25574,"lon":5.38234,"is_reserved":false,"is_disabled":false,"rental_uris":{"android":"levelo://app?vid=4c94006b-60b3-48f9-b81d-fdb441e29ae5","ios":"levelo://app?vid=4c94006b-60b3-48f9-b81d-fdb441e29ae5"},"vehicle_type_id":"4","last_reported":1751292652,"current_range_meters":16800,"station_id":"ce4bhih2rcd13ifvqfs0","pricing_plan_id":"cebpf4jnsgd1na2vs0mg"},{"bike_id":"7def622c-1243-44da-af36-4c505b4f00ba","system_id":"levelo_inurba_marseille","lat":43.241833,"lon":5.397371,"is_reserved":false,"is_disabled":false,"rental_uris":{"android":"levelo://app?vid=7def622c-1243-44da-af36-4c505b4f00ba","ios":"levelo://app?vid=7def622c-1243-44da-af36-4c505b4f00ba"},"vehicle_type_id":"4","last_reported":1751292652,"current_range_meters":16800,"station_id":"ce4bhn12rcd13ifvqgpg","pricing_plan_id":"cebpf4jnsgd1na2vs0mg"},{"bike_id":"e89f449d-cc97-4497-a5e4-f39b9257927a","system_id":"levelo_inurba_marseille","lat":43.33023,"lon":5.39043,"is_reserved":false,"is_disabled":false,"rental_uris":{"android":"levelo://app?vid=e89f449d-cc97-4497-a5e4-f39b9257927a","ios":"levelo://app?vid=e89f449d-cc97-4497-a5e4-f39b9257927a"},"vehicle_type_id":"4","last_reported":1751292652,"current_range_meters":16800,"station_id":"ce4bhr92rcd13ifvqhrg","pricing_plan_id":"cebpf4jnsgd1na2vs0mg"},{"bike_id":"048ec6e9-5fd9-4256-ae6a-a72856ab2acf","system_id":"levelo_inurba_marseille","lat":43.211806,"lon":5.350691,"is_reserved":false,"is_disabled":false,"rental_uris":{"android":"levelo://app?vid=048ec6e9-5fd9-4256-ae6a-a72856ab2acf","ios":"levelo://app?vid=048ec6e9-5fd9-4256-ae6a-a72856ab2acf"},"vehicle_type_id":"4","last_reported":1751292652,"current_range_meters":16800,"station_id":"st_cvj6sg6p6f1abm77japg","pricing_plan_id":"cebpf4jnsgd1na2vs0mg"},{"bike_id":"d5da5bd9-7c2a-48e5-92aa-fa21076cad13","system_id":"levelo_inurba_marseille","lat":43.21181,"lon":5.35073,"is_reserved":false,"is_disabled":false,"rental_uris":{"android":"levelo://app?vid=d5da5bd9-7c2a-48e5-92aa-fa21076cad13","ios":"levelo://app?vid=d5da5bd9-7c2a-48e5-92aa-fa21076cad13"},"vehicle_type_id":"4","last_reported":1751292652,"current_range_meters":16800,"station_id":"st_cvj6sg6p6f1abm77japg","pricing_plan_id":"cebpf4jnsgd1na2vs0mg"},{"bike_id":"673a88ab-c78a-4c7c-a98b-d65ce23f2fad","system_id":"levelo_inurba_marseille","lat":43.27368,"lon":5.36257,"is_reserved":false,"is_disabled":false,"rental_uris":{"android":"levelo://app?vid=673a88ab-c78a-4c7c-a98b-d65ce23f2fad","ios":"levelo://app?vid=673a88ab-c78a-4c7c-a98b-d65ce23f2fad"},"vehicle_type_id":"4","last_reported":1751292652,"current_range_meters":17200,"station_id":"ce4bhbh2rcd13ifvqeo0","pricing_plan_id":"cebpf4jnsgd1na2vs0mg"},{"bike_id":"c28e39dc-72cd-4fd8-89b7-00c27c125c16","system_id":"levelo_inurba_marseille","lat":43.28409,"lon":5.34996,"is_reserved":false,"is_disabled":false,"rental_uris":{"android":"levelo://app?vid=c28e39dc-72cd-4fd8-89b7-00c27c125c16","ios":"levelo://app?vid=c28e39dc-72cd-4fd8-89b7-00c27c125c16"},"vehicle_type_id":"4","last_reported":1751292652,"current_range_meters":17200,"station_id":"ce4bhbh2rcd13ifvqepg","pricing_plan_id":"cebpf4jnsgd1na2vs0mg"},{"bike_id":"e3be0bae-c457-417e-b637-2edfbaf52fd0","system_id":"levelo_inurba_marseille","lat":43.28264,"lon":5.35069,"is_reserved":false,"is_disabled":false,"rental_uris":{"android":"levelo://app?vid=e3be0bae-c457-417e-b637-2edfbaf52fd0","ios":"levelo://app?vid=e3be0bae-c457-417e-b637-2edfbaf52fd0"},"vehicle_type_id":"4","last_reported":1751292652,"current_range_meters":17200,"station_id":"ce4bhbp2rcd13ifvqerg","pricing_plan_id":"cebpf4jnsgd1na2vs0mg"},{"bike_id":"239e84d7-ba67-479e-87f8-8f446afe1101","system_id":"levelo_inurba_marseille","lat":43.23968,"lon":5.36632,"is_reserved":false,"is_disabled":false,"rental_uris":{"android":"levelo://app?vid=239e84d7-ba67-479e-87f8-8f446afe1101","ios":"levelo://app?vid=239e84d7-ba67-479e-87f8-8f446afe1101"},"vehicle_type_id":"4","last_reported":1751292652,"current_range_meters":17200,"station_id":"ce4bhi12rcd13ifvqfp0","pricing_plan_id":"cebpf4jnsgd1na2vs0mg"},{"bike_id":"d90daeb2-baa5-4f84-8ba2-ffc1dcd4b96b","system_id":"levelo_inurba_marseille","lat":43.24171,"lon":5.364,"is_reserved":false,"is_disabled":false,"rental_uris":{"android":"levelo://app?vid=d90daeb2-baa5-4f84-8ba2-ffc1dcd4b96b","ios":"levelo://app?vid=d90daeb2-baa5-4f84-8ba2-ffc1dcd4b96b"},"vehicle_type_id":"4","last_reported":1751292652,"current_range_meters":17200,"station_id":"cpo36qri1sfpv3e86is0","pricing_plan_id":"cebpf4jnsgd1na2vs0mg"},{"bike_id":"e552832c-7ca2-4106-b0f9-92bbabda27d1","system_id":"levelo_inurba_marseille","lat":43.211909,"lon":5.350822,"is_reserved":false,"is_disabled":false,"rental_uris":{"android":"levelo://app?vid=e552832c-7ca2-4106-b0f9-92bbabda27d1","ios":"levelo://app?vid=e552832c-7ca2-4106-b0f9-92bbabda27d1"},"vehicle_type_id":"4","last_reported":1751292652,"current_range_meters":17200,"station_id":"st_cvj6sg6p6f1abm77japg","pricing_plan_id":"cebpf4jnsgd1na2vs0mg"},{"bike_id":"b13877a6-4825-4d82-b46b-67fa8ad66c5d","system_id":"levelo_inurba_marseille","lat":43.21192,"lon":5.35072,"is_reserved":false,"is_disabled":false,"rental_uris":{"android":"levelo://app?vid=b13877a6-4825-4d82-b46b-67fa8ad66c5d","ios":"levelo://app?vid=b13877a6-4825-4d82-b46b-67fa8ad66c5d"},"vehicle_type_id":"4","last_reported":1751292652,"current_range_meters":17200,"station_id":"st_cvj6sg6p6f1abm77japg","pricing_plan_id":"cebpf4jnsgd1na2vs0mg"},{"bike_id":"04e62e8f-4107-4d43-8ea4-5d40c5fb3e83","system_id":"levelo_inurba_marseille","lat":43.32214,"lon":5.389423,"is_reserved":false,"is_disabled":false,"rental_uris":{"android":"levelo://app?vid=04e62e8f-4107-4d43-8ea4-5d40c5fb3e83","ios":"levelo://app?vid=04e62e8f-4107-4d43-8ea4-5d40c5fb3e83"},"vehicle_type_id":"4","last_reported":1751292652,"current_range_meters":17600,"station_id":"","pricing_plan_id":"cebpf4jnsgd1na2vs0mg"},{"bike_id":"e891d413-f511-44d4-9ddd-90f57509289b","system_id":"levelo_inurba_marseille","lat":43.317104,"lon":5.367823,"is_reserved":false,"is_disabled":false,"rental_uris":{"android":"levelo://app?vid=e891d413-f511-44d4-9ddd-90f57509289b","ios":"levelo://app?vid=e891d413-f511-44d4-9ddd-90f57509289b"},"vehicle_type_id":"4","last_reported":1751292652,"current_range_meters":17600,"station_id":"","pricing_plan_id":"cebpf4jnsgd1na2vs0mg"},{"bike_id":"1c1e0436-c990-4c38-b11e-d6968f287975","system_id":"levelo_inurba_marseille","lat":43.29576,"lon":5.36789,"is_reserved":false,"is_disabled":false,"rental_uris":{"android":"levelo://app?vid=1c1e0436-c990-4c38-b11e-d6968f287975","ios":"levelo://app?vid=1c1e0436-c990-4c38-b11e-d6968f287975"},"vehicle_type_id":"4","last_reported":1751292652,"current_range_meters":17600,"station_id":"ce4bgph2rcd13ifvqc2g","pricing_plan_id":"cebpf4jnsgd1na2vs0mg"},{"bike_id":"ea26da89-1c4e-4774-856f-64f4ff0845f5","system_id":"levelo_inurba_marseille","lat":43.28268,"lon":5.35082,"is_reserved":false,"is_disabled":false,"rental_uris":{"android":"levelo://app?vid=ea26da89-1c4e-4774-856f-64f4ff0845f5","ios":"levelo://app?vid=ea26da89-1c4e-4774-856f-64f4ff0845f5"},"vehicle_type_id":"4","last_reported":1751292652,"current_range_meters":17600,"station_id":"ce4bhbp2rcd13ifvqerg","pricing_plan_id":"cebpf4jnsgd1na2vs0mg"},{"bike_id":"714e81cc-0a88-4f76-a904-b1c3a28974fe","system_id":"levelo_inurba_marseille","lat":43.28617,"lon":5.35109,"is_reserved":false,"is_disabled":false,"rental_uris":{"android":"levelo://app?vid=714e81cc-0a88-4f76-a904-b1c3a28974fe","ios":"levelo://app?vid=714e81cc-0a88-4f76-a904-b1c3a28974fe"},"vehicle_type_id":"4","last_reported":1751292652,"current_range_meters":17600,"station_id":"ce4bhch2rcd13ifvqeug","pricing_plan_id":"cebpf4jnsgd1na2vs0mg"},{"bike_id":"0d839b5e-baaf-4b32-8658-bb0d20744629","system_id":"levelo_inurba_marseille","lat":43.211916,"lon":5.350782,"is_reserved":false,"is_disabled":false,"rental_uris":{"android":"levelo://app?vid=0d839b5e-baaf-4b32-8658-bb0d20744629","ios":"levelo://app?vid=0d839b5e-baaf-4b32-8658-bb0d20744629"},"vehicle_type_id":"4","last_reported":1751292652,"current_range_meters":17600,"station_id":"st_cvj6sg6p6f1abm77japg","pricing_plan_id":"cebpf4jnsgd1na2vs0mg"},{"bike_id":"fa16bbec-3211-49bd-a8b0-90a3ace4afe6","system_id":"levelo_inurba_marseille","lat":43.31604,"lon":5.38456,"is_reserved":false,"is_disabled":false,"rental_uris":{"android":"levelo://app?vid=fa16bbec-3211-49bd-a8b0-90a3ace4afe6","ios":"levelo://app?vid=fa16bbec-3211-49bd-a8b0-90a3ace4afe6"},"vehicle_type_id":"4","last_reported":1751292652,"current_range_meters":18000,"station_id":"","pricing_plan_id":"cebpf4jnsgd1na2vs0mg"},{"bike_id":"abfebedf-c9cc-494d-a1c8-1e36d87dc0c3","system_id":"levelo_inurba_marseille","lat":43.31484,"lon":5.37312,"is_reserved":false,"is_disabled":false,"rental_uris":{"android":"levelo://app?vid=abfebedf-c9cc-494d-a1c8-1e36d87dc0c3","ios":"levelo://app?vid=abfebedf-c9cc-494d-a1c8-1e36d87dc0c3"},"vehicle_type_id":"4","last_reported":1751292652,"current_range_meters":18000,"station_id":"ce4bgt12rcd13ifvqcd0","pricing_plan_id":"cebpf4jnsgd1na2vs0mg"},{"bike_id":"c2b72fe0-bae6-4c7b-ad48-9e771b203dc8","system_id":"levelo_inurba_marseille","lat":43.31344,"lon":5.3847,"is_reserved":false,"is_disabled":false,"rental_uris":{"android":"levelo://app?vid=c2b72fe0-bae6-4c7b-ad48-9e771b203dc8","ios":"levelo://app?vid=c2b72fe0-bae6-4c7b-ad48-9e771b203dc8"},"vehicle_type_id":"4","last_reported":1751292652,"current_range_meters":18000,"station_id":"ce4bgt92rcd13ifvqcf0","pricing_plan_id":"cebpf4jnsgd1na2vs0mg"},{"bike_id":"35e057b1-28f4-490c-aa92-1b0e44aa45cb","system_id":"levelo_inurba_marseille","lat":43.30909,"lon":5.40132,"is_reserved":false,"is_disabled":false,"rental_uris":{"android":"levelo://app?vid=35e057b1-28f4-490c-aa92-1b0e44aa45cb","ios":"levelo://app?vid=35e057b1-28f4-490c-aa92-1b0e44aa45cb"},"vehicle_type_id":"4","last_reported":1751292652,"current_range_meters":18000,"station_id":"ce4bgvp2rcd13ifvqct0","pricing_plan_id":"cebpf4jnsgd1na2vs0mg"},{"bike_id":"21b7a841-4e7c-4db3-83ee-859fdeb29179","system_id":"levelo_inurba_marseille","lat":43.28272,"lon":5.35077,"is_reserved":false,"is_disabled":false,"rental_uris":{"android":"levelo://app?vid=21b7a841-4e7c-4db3-83ee-859fdeb29179","ios":"levelo://app?vid=21b7a841-4e7c-4db3-83ee-859fdeb29179"},"vehicle_type_id":"4","last_reported":1751292652,"current_range_meters":18000,"station_id":"ce4bhbp2rcd13ifvqerg","pricing_plan_id":"cebpf4jnsgd1na2vs0mg"},{"bike_id":"e25ba395-2bc9-44d2-8b95-073fe9e7fe66","system_id":"levelo_inurba_marseille","lat":43.286167,"lon":5.351086,"is_reserved":false,"is_disabled":false,"rental_uris":{"android":"levelo://app?vid=e25ba395-2bc9-44d2-8b95-073fe9e7fe66","ios":"levelo://app?vid=e25ba395-2bc9-44d2-8b95-073fe9e7fe66"},"vehicle_type_id":"4","last_reported":1751292652,"current_range_meters":18000,"station_id":"ce4bhch2rcd13ifvqeug","pricing_plan_id":"cebpf4jnsgd1na2vs0mg"},{"bike_id":"0e1947be-a168-4a7d-b759-41db26abc88e","system_id":"levelo_inurba_marseille","lat":43.262,"lon":5.37926,"is_reserved":false,"is_disabled":false,"rental_uris":{"android":"levelo://app?vid=0e1947be-a168-4a7d-b759-41db26abc88e","ios":"levelo://app?vid=0e1947be-a168-4a7d-b759-41db26abc88e"},"vehicle_type_id":"4","last_reported":1751292652,"current_range_meters":18000,"station_id":"ce4bhjp2rcd13ifvqg90","pricing_plan_id":"cebpf4jnsgd1na2vs0mg"},{"bike_id":"8fb78d9e-06a2-4009-8b6c-48f3076c4c4d","system_id":"levelo_inurba_marseille","lat":43.24181,"lon":5.39713,"is_reserved":false,"is_disabled":false,"rental_uris":{"android":"levelo://app?vid=8fb78d9e-06a2-4009-8b6c-48f3076c4c4d","ios":"levelo://app?vid=8fb78d9e-06a2-4009-8b6c-48f3076c4c4d"},"vehicle_type_id":"4","last_reported":1751292652,"current_range_meters":18000,"station_id":"ce4bhn12rcd13ifvqgpg","pricing_plan_id":"cebpf4jnsgd1na2vs0mg"},{"bike_id":"ec59dc73-efec-49fb-a623-8c210bcd8f9c","system_id":"levelo_inurba_marseille","lat":43.21747,"lon":5.34628,"is_reserved":false,"is_disabled":false,"rental_uris":{"android":"levelo://app?vid=ec59dc73-efec-49fb-a623-8c210bcd8f9c","ios":"levelo://app?vid=ec59dc73-efec-49fb-a623-8c210bcd8f9c"},"vehicle_type_id":"4","last_reported":1751292652,"current_range_meters":18000,"station_id":"st_cvj6r9ubvosntc0bgbag","pricing_plan_id":"cebpf4jnsgd1na2vs0mg"},{"bike_id":"f603f3aa-5bf7-4a19-a8a1-b47909f854c7","system_id":"levelo_inurba_marseille","lat":43.21203,"lon":5.35079,"is_reserved":false,"is_disabled":false,"rental_uris":{"android":"levelo://app?vid=f603f3aa-5bf7-4a19-a8a1-b47909f854c7","ios":"levelo://app?vid=f603f3aa-5bf7-4a19-a8a1-b47909f854c7"},"vehicle_type_id":"4","last_reported":1751292652,"current_range_meters":18000,"station_id":"st_cvj6sg6p6f1abm77japg","pricing_plan_id":"cebpf4jnsgd1na2vs0mg"},{"bike_id":"c0228700-5312-4a39-89af-ec53a5d729c5","system_id":"levelo_inurba_marseille","lat":43.28309,"lon":5.43245,"is_reserved":false,"is_disabled":false,"rental_uris":{"android":"levelo://app?vid=c0228700-5312-4a39-89af-ec53a5d729c5","ios":"levelo://app?vid=c0228700-5312-4a39-89af-ec53a5d729c5"},"vehicle_type_id":"4","last_reported":1751292652,"current_range_meters":18800,"station_id":"","pricing_plan_id":"cebpf4jnsgd1na2vs0mg"},{"bike_id":"7e4753a4-9642-407b-b691-0d09d36eb90d","system_id":"levelo_inurba_marseille","lat":43.29524,"lon":5.39394,"is_reserved":false,"is_disabled":false,"rental_uris":{"android":"levelo://app?vid=7e4753a4-9642-407b-b691-0d09d36eb90d","ios":"levelo://app?vid=7e4753a4-9642-407b-b691-0d09d36eb90d"},"vehicle_type_id":"4","last_reported":1751292652,"current_range_meters":18800,"station_id":"ce4bh292rcd13ifvqdf0","pricing_plan_id":"cebpf4jnsgd1na2vs0mg"},{"bike_id":"c00ae7d6-71aa-44c9-990b-3454129a50d6","system_id":"levelo_inurba_marseille","lat":43.28719,"lon":5.37936,"is_reserved":false,"is_disabled":false,"rental_uris":{"android":"levelo://app?vid=c00ae7d6-71aa-44c9-990b-3454129a50d6","ios":"levelo://app?vid=c00ae7d6-71aa-44c9-990b-3454129a50d6"},"vehicle_type_id":"4","last_reported":1751292652,"current_range_meters":18800,"station_id":"ce4bh9p2rcd13ifvqec0","pricing_plan_id":"cebpf4jnsgd1na2vs0mg"},{"bike_id":"867d9b39-1b5b-4283-a542-54578177d52d","system_id":"levelo_inurba_marseille","lat":43.28412,"lon":5.35005,"is_reserved":false,"is_disabled":false,"rental_uris":{"android":"levelo://app?vid=867d9b39-1b5b-4283-a542-54578177d52d","ios":"levelo://app?vid=867d9b39-1b5b-4283-a542-54578177d52d"},"vehicle_type_id":"4","last_reported":1751292652,"current_range_meters":18800,"station_id":"ce4bhbh2rcd13ifvqepg","pricing_plan_id":"cebpf4jnsgd1na2vs0mg"},{"bike_id":"54be3de2-df67-4a95-9977-e24f36936837","system_id":"levelo_inurba_marseille","lat":43.28419,"lon":5.34994,"is_reserved":false,"is_disabled":false,"rental_uris":{"android":"levelo://app?vid=54be3de2-df67-4a95-9977-e24f36936837","ios":"levelo://app?vid=54be3de2-df67-4a95-9977-e24f36936837"},"vehicle_type_id":"4","last_reported":1751292652,"current_range_meters":18800,"station_id":"ce4bhbh2rcd13ifvqepg","pricing_plan_id":"cebpf4jnsgd1na2vs0mg"},{"bike_id":"0729775a-5915-4c15-83cb-ff6f811acf0e","system_id":"levelo_inurba_marseille","lat":43.28608,"lon":5.35104,"is_reserved":false,"is_disabled":false,"rental_uris":{"android":"levelo://app?vid=0729775a-5915-4c15-83cb-ff6f811acf0e","ios":"levelo://app?vid=0729775a-5915-4c15-83cb-ff6f811acf0e"},"vehicle_type_id":"4","last_reported":1751292652,"current_range_meters":18800,"station_id":"ce4bhch2rcd13ifvqeug","pricing_plan_id":"cebpf4jnsgd1na2vs0mg"},{"bike_id":"e56fc24a-ab61-412b-a208-b20cf4c3f3e0","system_id":"levelo_inurba_marseille","lat":43.30377,"lon":5.42484,"is_reserved":false,"is_disabled":false,"rental_uris":{"android":"levelo://app?vid=e56fc24a-ab61-412b-a208-b20cf4c3f3e0","ios":"levelo://app?vid=e56fc24a-ab61-412b-a208-b20cf4c3f3e0"},"vehicle_type_id":"4","last_reported":1751292652,"current_range_meters":18800,"station_id":"ce4bhoh2rcd13ifvqh6g","pricing_plan_id":"cebpf4jnsgd1na2vs0mg"},{"bike_id":"a0cef316-ad95-4855-8f78-a31341a2b90e","system_id":"levelo_inurba_marseille","lat":43.33014,"lon":5.39038,"is_reserved":false,"is_disabled":false,"rental_uris":{"android":"levelo://app?vid=a0cef316-ad95-4855-8f78-a31341a2b90e","ios":"levelo://app?vid=a0cef316-ad95-4855-8f78-a31341a2b90e"},"vehicle_type_id":"4","last_reported":1751292652,"current_range_meters":18800,"station_id":"ce4bhr92rcd13ifvqhrg","pricing_plan_id":"cebpf4jnsgd1na2vs0mg"},{"bike_id":"f6a1c1bd-3663-4ab8-bab0-50209b089269","system_id":"levelo_inurba_marseille","lat":43.2319,"lon":5.35562,"is_reserved":false,"is_disabled":false,"rental_uris":{"android":"levelo://app?vid=f6a1c1bd-3663-4ab8-bab0-50209b089269","ios":"levelo://app?vid=f6a1c1bd-3663-4ab8-bab0-50209b089269"},"vehicle_type_id":"4","last_reported":1751292652,"current_range_meters":18800,"station_id":"ce4bhu92rcd13ifvqi70","pricing_plan_id":"cebpf4jnsgd1na2vs0mg"},{"bike_id":"fb3410cc-f232-48b7-9995-47fbeb6980ad","system_id":"levelo_inurba_marseille","lat":43.31112,"lon":5.37773,"is_reserved":false,"is_disabled":false,"rental_uris":{"android":"levelo://app?vid=fb3410cc-f232-48b7-9995-47fbeb6980ad","ios":"levelo://app?vid=fb3410cc-f232-48b7-9995-47fbeb6980ad"},"vehicle_type_id":"4","last_reported":1751292652,"current_range_meters":19200,"station_id":"ce4bgt92rcd13ifvqcg0","pricing_plan_id":"cebpf4jnsgd1na2vs0mg"},{"bike_id":"566cdaf1-8ce7-454a-aec9-c370e2c0ae71","system_id":"levelo_inurba_marseille","lat":43.29031,"lon":5.38142,"is_reserved":false,"is_disabled":false,"rental_uris":{"android":"levelo://app?vid=566cdaf1-8ce7-454a-aec9-c370e2c0ae71","ios":"levelo://app?vid=566cdaf1-8ce7-454a-aec9-c370e2c0ae71"},"vehicle_type_id":"4","last_reported":1751292652,"current_range_meters":19200,"station_id":"ce4bh4p2rcd13ifvqe1g","pricing_plan_id":"cebpf4jnsgd1na2vs0mg"},{"bike_id":"0a24663d-7c62-458e-8d52-c21c6564ba2b","system_id":"levelo_inurba_marseille","lat":43.29229,"lon":5.36075,"is_reserved":false,"is_disabled":false,"rental_uris":{"android":"levelo://app?vid=0a24663d-7c62-458e-8d52-c21c6564ba2b","ios":"levelo://app?vid=0a24663d-7c62-458e-8d52-c21c6564ba2b"},"vehicle_type_id":"4","last_reported":1751292652,"current_range_meters":19200,"station_id":"ce4bhbh2rcd13ifvqeqg","pricing_plan_id":"cebpf4jnsgd1na2vs0mg"},{"bike_id":"c86926a4-dfc8-49dc-a366-e03f450765e4","system_id":"levelo_inurba_marseille","lat":43.26482,"lon":5.39544,"is_reserved":false,"is_disabled":false,"rental_uris":{"android":"levelo://app?vid=c86926a4-dfc8-49dc-a366-e03f450765e4","ios":"levelo://app?vid=c86926a4-dfc8-49dc-a366-e03f450765e4"},"vehicle_type_id":"4","last_reported":1751292652,"current_range_meters":19200,"station_id":"ce4bhi12rcd13ifvqfq0","pricing_plan_id":"cebpf4jnsgd1na2vs0mg"},{"bike_id":"5b76ed96-bc13-441b-b2d6-d9034dfbd706","system_id":"levelo_inurba_marseille","lat":43.2418,"lon":5.39731,"is_reserved":false,"is_disabled":false,"rental_uris":{"android":"levelo://app?vid=5b76ed96-bc13-441b-b2d6-d9034dfbd706","ios":"levelo://app?vid=5b76ed96-bc13-441b-b2d6-d9034dfbd706"},"vehicle_type_id":"4","last_reported":1751292652,"current_range_meters":19200,"station_id":"ce4bhn12rcd13ifvqgpg","pricing_plan_id":"cebpf4jnsgd1na2vs0mg"},{"bike_id":"b02446ed-ac26-4405-bbc4-99b41ccda5a7","system_id":"levelo_inurba_marseille","lat":43.28074,"lon":5.39662,"is_reserved":false,"is_disabled":false,"rental_uris":{"android":"levelo://app?vid=b02446ed-ac26-4405-bbc4-99b41ccda5a7","ios":"levelo://app?vid=b02446ed-ac26-4405-bbc4-99b41ccda5a7"},"vehicle_type_id":"4","last_reported":1751292652,"current_range_meters":19200,"station_id":"ce4bho12rcd13ifvqh2g","pricing_plan_id":"cebpf4jnsgd1na2vs0mg"},{"bike_id":"62356331-a304-4ae1-ae69-10136cbd3f1d","system_id":"levelo_inurba_marseille","lat":43.321,"lon":5.36773,"is_reserved":false,"is_disabled":false,"rental_uris":{"android":"levelo://app?vid=62356331-a304-4ae1-ae69-10136cbd3f1d","ios":"levelo://app?vid=62356331-a304-4ae1-ae69-10136cbd3f1d"},"vehicle_type_id":"4","last_reported":1751292652,"current_range_meters":19200,"station_id":"ce4bhrh2rcd13ifvqhug","pricing_plan_id":"cebpf4jnsgd1na2vs0mg"},{"bike_id":"518354b5-8405-430c-bbfc-0e30bc76b92d","system_id":"levelo_inurba_marseille","lat":43.2176,"lon":5.34591,"is_reserved":false,"is_disabled":false,"rental_uris":{"android":"levelo://app?vid=518354b5-8405-430c-bbfc-0e30bc76b92d","ios":"levelo://app?vid=518354b5-8405-430c-bbfc-0e30bc76b92d"},"vehicle_type_id":"4","last_reported":1751292652,"current_range_meters":19600,"station_id":"","pricing_plan_id":"cebpf4jnsgd1na2vs0mg"},{"bike_id":"b7f9fbca-fef8-4355-bd42-70cd92158416","system_id":"levelo_inurba_marseille","lat":43.28254,"lon":5.35082,"is_reserved":false,"is_disabled":false,"rental_uris":{"android":"levelo://app?vid=b7f9fbca-fef8-4355-bd42-70cd92158416","ios":"levelo://app?vid=b7f9fbca-fef8-4355-bd42-70cd92158416"},"vehicle_type_id":"4","last_reported":1751292652,"current_range_meters":19600,"station_id":"ce4bhbp2rcd13ifvqerg","pricing_plan_id":"cebpf4jnsgd1na2vs0mg"},{"bike_id":"8eb3ca37-eeff-49e8-bb56-f1711498ac9c","system_id":"levelo_inurba_marseille","lat":43.28264,"lon":5.35065,"is_reserved":false,"is_disabled":false,"rental_uris":{"android":"levelo://app?vid=8eb3ca37-eeff-49e8-bb56-f1711498ac9c","ios":"levelo://app?vid=8eb3ca37-eeff-49e8-bb56-f1711498ac9c"},"vehicle_type_id":"4","last_reported":1751292652,"current_range_meters":19600,"station_id":"ce4bhbp2rcd13ifvqerg","pricing_plan_id":"cebpf4jnsgd1na2vs0mg"},{"bike_id":"fbae02d1-d336-4525-95a8-099810f0b091","system_id":"levelo_inurba_marseille","lat":43.282814,"lon":5.350822,"is_reserved":false,"is_disabled":false,"rental_uris":{"android":"levelo://app?vid=fbae02d1-d336-4525-95a8-099810f0b091","ios":"levelo://app?vid=fbae02d1-d336-4525-95a8-099810f0b091"},"vehicle_type_id":"4","last_reported":1751292652,"current_range_meters":19600,"station_id":"ce4bhbp2rcd13ifvqerg","pricing_plan_id":"cebpf4jnsgd1na2vs0mg"},{"bike_id":"dd1beb1b-b34e-4489-a7a9-e312831b1c1d","system_id":"levelo_inurba_marseille","lat":43.26557,"lon":5.37286,"is_reserved":false,"is_disabled":false,"rental_uris":{"android":"levelo://app?vid=dd1beb1b-b34e-4489-a7a9-e312831b1c1d","ios":"levelo://app?vid=dd1beb1b-b34e-4489-a7a9-e312831b1c1d"},"vehicle_type_id":"4","last_reported":1751292652,"current_range_meters":19600,"station_id":"ce4bhg12rcd13ifvqf70","pricing_plan_id":"cebpf4jnsgd1na2vs0mg"},{"bike_id":"41559934-a033-4b0d-b765-3f5f13ec35e2","system_id":"levelo_inurba_marseille","lat":43.26187,"lon":5.37947,"is_reserved":false,"is_disabled":false,"rental_uris":{"android":"levelo://app?vid=41559934-a033-4b0d-b765-3f5f13ec35e2","ios":"levelo://app?vid=41559934-a033-4b0d-b765-3f5f13ec35e2"},"vehicle_type_id":"4","last_reported":1751292652,"current_range_meters":19600,"station_id":"ce4bhjp2rcd13ifvqg90","pricing_plan_id":"cebpf4jnsgd1na2vs0mg"},{"bike_id":"633f6f92-606d-4082-8db3-5efbb2f64b2d","system_id":"levelo_inurba_marseille","lat":43.27949,"lon":5.41049,"is_reserved":false,"is_disabled":false,"rental_uris":{"android":"levelo://app?vid=633f6f92-606d-4082-8db3-5efbb2f64b2d","ios":"levelo://app?vid=633f6f92-606d-4082-8db3-5efbb2f64b2d"},"vehicle_type_id":"4","last_reported":1751292652,"current_range_meters":19600,"station_id":"ce4bhnp2rcd13ifvqh0g","pricing_plan_id":"cebpf4jnsgd1na2vs0mg"},{"bike_id":"52e7090a-2100-4958-b461-e041020d44e3","system_id":"levelo_inurba_marseille","lat":43.30376,"lon":5.42487,"is_reserved":false,"is_disabled":false,"rental_uris":{"android":"levelo://app?vid=52e7090a-2100-4958-b461-e041020d44e3","ios":"levelo://app?vid=52e7090a-2100-4958-b461-e041020d44e3"},"vehicle_type_id":"4","last_reported":1751292652,"current_range_meters":19600,"station_id":"ce4bhoh2rcd13ifvqh6g","pricing_plan_id":"cebpf4jnsgd1na2vs0mg"},{"bike_id":"4db1f4d1-cc69-4062-a9a6-1e117a1edb6f","system_id":"levelo_inurba_marseille","lat":43.231956,"lon":5.355548,"is_reserved":false,"is_disabled":false,"rental_uris":{"android":"levelo://app?vid=4db1f4d1-cc69-4062-a9a6-1e117a1edb6f","ios":"levelo://app?vid=4db1f4d1-cc69-4062-a9a6-1e117a1edb6f"},"vehicle_type_id":"4","last_reported":1751292652,"current_range_meters":19600,"station_id":"ce4bhu92rcd13ifvqi70","pricing_plan_id":"cebpf4jnsgd1na2vs0mg"},{"bike_id":"1540b4ec-0ad8-4795-b014-049028ae6cbd","system_id":"levelo_inurba_marseille","lat":43.26947,"lon":5.40284,"is_reserved":false,"is_disabled":false,"rental_uris":{"android":"levelo://app?vid=1540b4ec-0ad8-4795-b014-049028ae6cbd","ios":"levelo://app?vid=1540b4ec-0ad8-4795-b014-049028ae6cbd"},"vehicle_type_id":"4","last_reported":1751292652,"current_range_meters":19600,"station_id":"cjm6bp8fraef2m0cb0m0","pricing_plan_id":"cebpf4jnsgd1na2vs0mg"},