{"last_updated":1744607458,"ttl":60,"version":"2.2","data":{"bikes":[{"bike_id":"1ac6fc31-c687-4c8f-9c88-c33314250341","system_id":"levelo_inurba_marseille","lat":43.2868,"lon":5.37417,"is_reserved":false,"is_disabled":false,"rental_uris":{"android":"levelo://app?vid=1ac6fc31-c687-4c8f-9c88-c33314250341","ios":"levelo://app?vid=1ac6fc31-c687-4c8f-9c88-c33314250341"},"vehicle_type_id":"4","last_reported":1744607458,"current_range_meters":2800,"station_id":"ce4bh3p2rcd13ifvqdq0","pricing_plan_id":"cebpf4jnsgd1na2vs0mg"},{"bike_id":"b6ff7e66-b821-4f07-a3cf-b9f4abde04e1","system_id":"levelo_inurba_marseille","lat":43.27983,"lon":5.40053,"is_reserved":false,"is_disabled":true,"rental_uris":{"android":"levelo://app?vid=b6ff7e66-b821-4f07-a3cf-b9f4abde04e1","ios":"levelo://app?vid=b6ff7e66-b821-4f07-a3cf-b9f4abde04e1"},"vehicle_type_id":"4","last_reported":1744607458,"current_range_meters":2800,"station_id":"ce4bho92rcd13ifvqh4g","pricing_plan_id":"cebpf4jnsgd1na2vs0mg"},{"bike_id":"a2ccfbf7-8a0b-49de-8499-18c843f628a5","system_id":"levelo_inurba_marseille","lat":43.231904,"lon":5.355544,"is_reserved":false,"is_disabled":false,"rental_uris":{"android":"levelo://app?vid=a2ccfbf7-8a0b-49de-8499-18c843f628a5","ios":"levelo://app?vid=a2ccfbf7-8a0b-49de-8499-18c843f628a5"},"vehicle_type_id":"4","last_reported":1744607458,"current_range_meters":3600,"station_id":"ce4bhu92rcd13ifvqi70","pricing_plan_id":"cebpf4jnsgd1na2vs0mg"},{"bike_id":"d53356ed-34e7-4ce0-8d94-e073954cdd85","system_id":"levelo_inurba_marseille","lat":43.2705,"lon":5.4029,"is_reserved":false,"is_disabled":true,"rental_uris":{"android":"levelo://app?vid=d53356ed-34e7-4ce0-8d94-e073954cdd85","ios":"levelo://app?vid=d53356ed-34e7-4ce0-8d94-e073954cdd85"},"vehicle_type_id":"4","last_reported":1744607458,"current_range_meters":3600,"station_id":"ce4bhk92rcd13ifvqgc0","pricing_plan_id":"cebpf4jnsgd1na2vs0mg"},{"bike_id":"11e8aa7d-be07-4d4e-9d56-522c2ab67459","system_id":"levelo_inurba_marseille","lat":43.32111,"lon":5.40842,"is_reserved":false,"is_disabled":false,"rental_uris":{"android":"levelo://app?vid=11e8aa7d-be07-4d4e-9d56-522c2ab67459","ios":"levelo://app?vid=11e8aa7d-be07-4d4e-9d56-522c2ab67459"},"vehicle_type_id":"4","last_reported":1744607458,"current_range_meters":3600,"station_id":"","pricing_plan_id":"cebpf4jnsgd1na2vs0mg"},{"bike_id":"ef291804-1477-432e-b153-82ea15725418","system_id":"levelo_inurba_marseille","lat":43.33742,"lon":5.37454,"is_reserved":false,"is_disabled":false,"rental_uris":{"android":"levelo://app?vid=ef291804-1477-432e-b153-82ea15725418","ios":"levelo://app?vid=ef291804-1477-432e-b153-82ea15725418"},"vehicle_type_id":"4","last_reported":1744607458,"current_range_meters":3600,"station_id":"","pricing_plan_id":"cebpf4jnsgd1na2vs0mg"},{"bike_id":"2cb150e7-b520-435d-bb1c-0396055ba1bc","system_id":"levelo_inurba_marseille","lat":43.298796,"lon":5.397378,"is_reserved":false,"is_disabled":false,"rental_uris":{"android":"levelo://app?vid=2cb150e7-b520-435d-bb1c-0396055ba1bc","ios":"levelo://app?vid=2cb150e7-b520-435d-bb1c-0396055ba1bc"},"vehicle_type_id":"4","last_reported":1744607458,"current_range_meters":3600,"station_id":"ce4bh0h2rcd13ifvqd50","pricing_plan_id":"cebpf4jnsgd1na2vs0mg"},{"bike_id":"1130922e-9ccc-463b-9207-aadecd794edb","system_id":"levelo_inurba_marseille","lat":43.31998,"lon":5.38155,"is_reserved":false,"is_disabled":true,"rental_uris":{"android":"levelo://app?vid=1130922e-9ccc-463b-9207-aadecd794edb","ios":"levelo://app?vid=1130922e-9ccc-463b-9207-aadecd794edb"},"vehicle_type_id":"4","last_reported":1744607458,"current_range_meters":4000,"station_id":"ce4bhr12rcd13ifvqhpg","pricing_plan_id":"cebpf4jnsgd1na2vs0mg"},{"bike_id":"c8907ab1-08e3-4e34-b765-678ded4dfd20","system_id":"levelo_inurba_marseille","lat":43.262173,"lon":5.404548,"is_reserved":false,"is_disabled":false,"rental_uris":{"android":"levelo://app?vid=c8907ab1-08e3-4e34-b765-678ded4dfd20","ios":"levelo://app?vid=c8907ab1-08e3-4e34-b765-678ded4dfd20"},"vehicle_type_id":"4","last_reported":1744607458,"current_range_meters":4400,"station_id":"ce4bhmh2rcd13ifvqgmg","pricing_plan_id":"cebpf4jnsgd1na2vs0mg"},{"bike_id":"5b77a833-8185-45c2-9fe3-07eb40df54ca","system_id":"levelo_inurba_marseille","lat":43.33995,"lon":5.38057,"is_reserved":false,"is_disabled":false,"rental_uris":{"android":"levelo://app?vid=5b77a833-8185-45c2-9fe3-07eb40df54ca","ios":"levelo://app?vid=5b77a833-8185-45c2-9fe3-07eb40df54ca"},"vehicle_type_id":"4","last_reported":1744607458,"current_range_meters":4400,"station_id":"","pricing_plan_id":"cebpf4jnsgd1na2vs0mg"},{"bike_id":"d8f603cd-3b83-4148-bab8-3a185ad2a59f","system_id":"levelo_inurba_marseille","lat":43.32416,"lon":5.3913,"is_reserved":false,"is_disabled":false,"rental_uris":{"android":"levelo://app?vid=d8f603cd-3b83-4148-bab8-3a185ad2a59f","ios":"levelo://app?vid=d8f603cd-3b83-4148-bab8-3a185ad2a59f"},"vehicle_type_id":"4","last_reported":1744607458,"current_range_meters":4800,"station_id":"","pricing_plan_id":"cebpf4jnsgd1na2vs0mg"},{"bike_id":"72084d32-f4df-44fa-bf57-eccb5f194a83","system_id":"levelo_inurba_marseille","lat":43.259349,"lon":5.408941,"is_reserved":false,"is_disabled":false,"rental_uris":{"android":"levelo://app?vid=72084d32-f4df-44fa-bf57-eccb5f194a83","ios":"levelo://app?vid=72084d32-f4df-44fa-bf57-eccb5f194a83"},"vehicle_type_id":"4","last_reported":1744607458,"current_range_meters":4800,"station_id":"ce4bhm92rcd13ifvqglg","pricing_plan_id":"cebpf4jnsgd1na2vs0mg"},{"bike_id":"bab3be6d-6345-43f6-b375-913477b629be","system_id":"levelo_inurba_marseille","lat":43.30171,"lon":5.36637,"is_reserved":false,"is_disabled":false,"rental_uris":{"android":"levelo://app?vid=bab3be6d-6345-43f6-b375-913477b629be","ios":"levelo://app?vid=bab3be6d-6345-43f6-b375-913477b629be"},"vehicle_type_id":"4","last_reported":1744607458,"current_range_meters":4800,"station_id":"ce4bgrh2rcd13ifvqc8g","pricing_plan_id":"cebpf4jnsgd1na2vs0mg"},{"bike_id":"4a0973b0-92a0-41e8-9b0d-a99e944bafe0","system_id":"levelo_inurba_marseille","lat":43.34476,"lon":5.41296,"is_reserved":false,"is_disabled":false,"rental_uris":{"android":"levelo://app?vid=4a0973b0-92a0-41e8-9b0d-a99e944bafe0","ios":"levelo://app?vid=4a0973b0-92a0-41e8-9b0d-a99e944bafe0"},"vehicle_type_id":"4","last_reported":1744607458,"current_range_meters":4800,"station_id":"","pricing_plan_id":"cebpf4jnsgd1na2vs0mg"},{"bike_id":"0667a681-3c45-40b6-898c-d890bc8198c8","system_id":"levelo_inurba_marseille","lat":43.29252,"lon":5.40208,"is_reserved":false,"is_disabled":false,"rental_uris":{"android":"levelo://app?vid=0667a681-3c45-40b6-898c-d890bc8198c8","ios":"levelo://app?vid=0667a681-3c45-40b6-898c-d890bc8198c8"},"vehicle_type_id":"4","last_reported":1744607458,"current_range_meters":5600,"station_id":"ce4bh312rcd13ifvqdk0","pricing_plan_id":"cebpf4jnsgd1na2vs0mg"},{"bike_id":"6bfc4779-3d5c-441c-8e37-70bc904878da","system_id":"levelo_inurba_marseille","lat":43.28467,"lon":5.359,"is_reserved":false,"is_disabled":false,"rental_uris":{"android":"levelo://app?vid=6bfc4779-3d5c-441c-8e37-70bc904878da","ios":"levelo://app?vid=6bfc4779-3d5c-441c-8e37-70bc904878da"},"vehicle_type_id":"4","last_reported":1744607458,"current_range_meters":5600,"station_id":"ce4bhah2rcd13ifvqei0","pricing_plan_id":"cebpf4jnsgd1na2vs0mg"},{"bike_id":"493cde9e-7859-4c26-a2e6-f744ee5d8553","system_id":"levelo_inurba_marseille","lat":43.31772,"lon":5.36972,"is_reserved":false,"is_disabled":false,"rental_uris":{"android":"levelo://app?vid=493cde9e-7859-4c26-a2e6-f744ee5d8553","ios":"levelo://app?vid=493cde9e-7859-4c26-a2e6-f744ee5d8553"},"vehicle_type_id":"4","last_reported":1744607458,"current_range_meters":5600,"station_id":"","pricing_plan_id":"cebpf4jnsgd1na2vs0mg"},{"bike_id":"ad6ed18b-1265-4c43-a009-6420ff91943e","system_id":"levelo_inurba_marseille","lat":43.284635,"lon":5.35892,"is_reserved":false,"is_disabled":true,"rental_uris":{"android":"levelo://app?vid=ad6ed18b-1265-4c43-a009-6420ff91943e","ios":"levelo://app?vid=ad6ed18b-1265-4c43-a009-6420ff91943e"},"vehicle_type_id":"4","last_reported":1744607458,"current_range_meters":5600,"station_id":"ce4bhah2rcd13ifvqei0","pricing_plan_id":"cebpf4jnsgd1na2vs0mg"},{"bike_id":"0e7bf4ae-5aed-4055-a1f8-96debbb9847e","system_id":"levelo_inurba_marseille","lat":43.24168,"lon":5.36402,"is_reserved":false,"is_disabled":false,"rental_uris":{"android":"levelo://app?vid=0e7bf4ae-5aed-4055-a1f8-96debbb9847e","ios":"levelo://app?vid=0e7bf4ae-5aed-4055-a1f8-96debbb9847e"},"vehicle_type_id":"4","last_reported":1744607458,"current_range_meters":5600,"station_id":"cpo36qri1sfpv3e86is0","pricing_plan_id":"cebpf4jnsgd1na2vs0mg"},{"bike_id":"f11cc1ae-0896-4c35-b60f-075468e2ad4a","system_id":"levelo_inurba_marseille","lat":43.24175,"lon":5.39734,"is_reserved":false,"is_disabled":false,"rental_uris":{"android":"levelo://app?vid=f11cc1ae-0896-4c35-b60f-075468e2ad4a","ios":"levelo://app?vid=f11cc1ae-0896-4c35-b60f-075468e2ad4a"},"vehicle_type_id":"4","last_reported":1744607458,"current_range_meters":6000,"station_id":"ce4bhn12rcd13ifvqgpg","pricing_plan_id":"cebpf4jnsgd1na2vs0mg"},{"bike_id":"b7e965ff-4854-44fc-8e2a-103893462049","system_id":"levelo_inurba_marseille","lat":43.337444,"lon":5.374475,"is_reserved":false,"is_disabled":true,"rental_uris":{"android":"levelo://app?vid=b7e965ff-4854-44fc-8e2a-103893462049","ios":"levelo://app?vid=b7e965ff-4854-44fc-8e2a-103893462049"},"vehicle_type_id":"4","last_reported":1744607458,"current_range_meters":6000,"station_id":"","pricing_plan_id":"cebpf4jnsgd1na2vs0mg"},{"bike_id":"2f5bc015-0a98-4a0d-a50f-f7181e1d6abe","system_id":"levelo_inurba_marseille","lat":43.23431,"lon":5.4126,"is_reserved":false,"is_disabled":false,"rental_uris":{"android":"levelo://app?vid=2f5bc015-0a98-4a0d-a50f-f7181e1d6abe","ios":"levelo://app?vid=2f5bc015-0a98-4a0d-a50f-f7181e1d6abe"},"vehicle_type_id":"4","last_reported":1744607458,"current_range_meters":6400,"station_id":"","pricing_plan_id":"cebpf4jnsgd1na2vs0mg"},{"bike_id":"97c5290c-6dcd-4f81-953a-f5953018fa5b","system_id":"levelo_inurba_marseille","lat":43.31052,"lon":5.37501,"is_reserved":false,"is_disabled":false,"rental_uris":{"android":"levelo://app?vid=97c5290c-6dcd-4f81-953a-f5953018fa5b","ios":"levelo://app?vid=97c5290c-6dcd-4f81-953a-f5953018fa5b"},"vehicle_type_id":"4","last_reported":1744607458,"current_range_meters":6400,"station_id":"","pricing_plan_id":"cebpf4jnsgd1na2vs0mg"},{"bike_id":"eef662bd-49fa-4185-a5f5-5664aa402854","system_id":"levelo_inurba_marseille","lat":43.22917,"lon":5.35408,"is_reserved":false,"is_disabled":false,"rental_uris":{"android":"levelo://app?vid=eef662bd-49fa-4185-a5f5-5664aa402854","ios":"levelo://app?vid=eef662bd-49fa-4185-a5f5-5664aa402854"},"vehicle_type_id":"4","last_reported":1744607458,"current_range_meters":6800,"station_id":"cpo3532slgdg3j2ikp40","pricing_plan_id":"cebpf4jnsgd1na2vs0mg"},{"bike_id":"998bf81d-ad9f-4ed4-abc9-e0d2ed6ed276","system_id":"levelo_inurba_marseille","lat":43.2318,"lon":5.35567,"is_reserved":false,"is_disabled":true,"rental_uris":{"android":"levelo://app?vid=998bf81d-ad9f-4ed4-abc9-e0d2ed6ed276","ios":"levelo://app?vid=998bf81d-ad9f-4ed4-abc9-e0d2ed6ed276"},"vehicle_type_id":"4","last_reported":1744607458,"current_range_meters":6800,"station_id":"ce4bhu92rcd13ifvqi70","pricing_plan_id":"cebpf4jnsgd1na2vs0mg"},{"bike_id":"4f38e127-be9f-468e-8871-e9cd4f365dca","system_id":"levelo_inurba_marseille","lat":43.246875,"lon":5.411668,"is_reserved":false,"is_disabled":false,"rental_uris":{"android":"levelo://app?vid=4f38e127-be9f-468e-8871-e9cd4f365dca","ios":"levelo://app?vid=4f38e127-be9f-468e-8871-e9cd4f365dca"},"vehicle_type_id":"4","last_reported":1744607458,"current_range_meters":6800,"station_id":"","pricing_plan_id":"cebpf4jnsgd1na2vs0mg"},{"bike_id":"dab7f9b6-bca9-473a-ae7b-5cf9dcdb45f2","system_id":"levelo_inurba_marseille","lat":43.24799,"lon":5.37459,"is_reserved":false,"is_disabled":false,"rental_uris":{"android":"levelo://app?vid=dab7f9b6-bca9-473a-ae7b-5cf9dcdb45f2","ios":"levelo://app?vid=dab7f9b6-bca9-473a-ae7b-5cf9dcdb45f2"},"vehicle_type_id":"4","last_reported":1744607458,"current_range_meters":6800,"station_id":"ce4bhgh2rcd13ifvqfb0","pricing_plan_id":"cebpf4jnsgd1na2vs0mg"},{"bike_id":"3d16c2e3-7c12-4342-883a-029e0fc16b05","system_id":"levelo_inurba_marseille","lat":43.310289,"lon":5.370963,"is_reserved":false,"is_disabled":false,"rental_uris":{"android":"levelo://app?vid=3d16c2e3-7c12-4342-883a-029e0fc16b05","ios":"levelo://app?vid=3d16c2e3-7c12-4342-883a-029e0fc16b05"},"vehicle_type_id":"4","last_reported":1744607458,"current_range_meters":6800,"station_id":"","pricing_plan_id":"cebpf4jnsgd1na2vs0mg"},{"bike_id":"fe3d6e42-5076-494f-915f-43c55a9fdcc4","system_id":"levelo_inurba_marseille","lat":43.27051,"lon":5.42279,"is_reserved":false,"is_disabled":false,"rental_uris":{"android":"levelo://app?vid=fe3d6e42-5076-494f-915f-43c55a9fdcc4","ios":"levelo://app?vid=fe3d6e42-5076-494f-915f-43c55a9fdcc4"},"vehicle_type_id":"4","last_reported":1744607458,"current_range_meters":6800,"station_id":"ce4bhk92rcd13ifvqgb0","pricing_plan_id":"cebpf4jnsgd1na2vs0mg"},{"bike_id":"30cc8b33-f5d2-402b-bc22-73b6e88b3714","system_id":"levelo_inurba_marseille","lat":43.2467,"lon":5.38165,"is_reserved":false,"is_disabled":false,"rental_uris":{"android":"levelo://app?vid=30cc8b33-f5d2-402b-bc22-73b6e88b3714","ios":"levelo://app?vid=30cc8b33-f5d2-402b-bc22-73b6e88b3714"},"vehicle_type_id":"4","last_reported":1744607458,"current_range_meters":6800,"station_id":"ce4bhih2rcd13ifvqfr0","pricing_plan_id":"cebpf4jnsgd1na2vs0mg"},{"bike_id":"f7843f46-58aa-4cf6-a1d0-1b94b16f71c2","system_id":"levelo_inurba_marseille","lat":43.29847,"lon":5.39665,"is_reserved":false,"is_disabled":false,"rental_uris":{"android":"levelo://app?vid=f7843f46-58aa-4cf6-a1d0-1b94b16f71c2","ios":"levelo://app?vid=f7843f46-58aa-4cf6-a1d0-1b94b16f71c2"},"vehicle_type_id":"4","last_reported":1744607458,"current_range_meters":7200,"station_id":"","pricing_plan_id":"cebpf4jnsgd1na2vs0mg"},{"bike_id":"49ee7a2d-b87d-42ef-bdb3-cf1b5b3fae9b","system_id":"levelo_inurba_marseille","lat":43.24161,"lon":5.36406,"is_reserved":false,"is_disabled":false,"rental_uris":{"android":"levelo://app?vid=49ee7a2d-b87d-42ef-bdb3-cf1b5b3fae9b","ios":"levelo://app?vid=49ee7a2d-b87d-42ef-bdb3-cf1b5b3fae9b"},"vehicle_type_id":"4","last_reported":1744607458,"current_range_meters":7200,"station_id":"cpo36qri1sfpv3e86is0","pricing_plan_id":"cebpf4jnsgd1na2vs0mg"},{"bike_id":"0c30a5d7-82b9-4bb2-9032-224893c69d2f","system_id":"levelo_inurba_marseille","lat":43.264826,"lon":5.39565,"is_reserved":false,"is_disabled":true,"rental_uris":{"android":"levelo://app?vid=0c30a5d7-82b9-4bb2-9032-224893c69d2f","ios":"levelo://app?vid=0c30a5d7-82b9-4bb2-9032-224893c69d2f"},"vehicle_type_id":"4","last_reported":1744607458,"current_range_meters":7200,"station_id":"ce4bhi12rcd13ifvqfq0","pricing_plan_id":"cebpf4jnsgd1na2vs0mg"},{"bike_id":"e654e523-849c-4f04-8e39-f201a550baf0","system_id":"levelo_inurba_marseille","lat":43.295472,"lon":5.422777,"is_reserved":false,"is_disabled":false,"rental_uris":{"android":"levelo://app?vid=e654e523-849c-4f04-8e39-f201a550baf0","ios":"levelo://app?vid=e654e523-849c-4f04-8e39-f201a550baf0"},"vehicle_type_id":"4","last_reported":1744607458,"current_range_meters":7200,"station_id":"ce4bhph2rcd13ifvqhdg","pricing_plan_id":"cebpf4jnsgd1na2vs0mg"},{"bike_id":"71d758d9-e1f9-440e-be18-d9a62c8ebcd3","system_id":"levelo_inurba_marseille","lat":43.279196,"lon":5.395854,"is_reserved":false,"is_disabled":false,"rental_uris":{"android":"levelo://app?vid=71d758d9-e1f9-440e-be18-d9a62c8ebcd3","ios":"levelo://app?vid=71d758d9-e1f9-440e-be18-d9a62c8ebcd3"},"vehicle_type_id":"4","last_reported":1744607458,"current_range_meters":7200,"station_id":"ce4bhf92rcd13ifvqf40","pricing_plan_id":"cebpf4jnsgd1na2vs0mg"},{"bike_id":"d548f3b7-c727-43d3-b2ff-195f57830026","system_id":"levelo_inurba_marseille","lat":43.28429,"lon":5.3751,"is_reserved":false,"is_disabled":false,"rental_uris":{"android":"levelo://app?vid=d548f3b7-c727-43d3-b2ff-195f57830026","ios":"levelo://app?vid=d548f3b7-c727-43d3-b2ff-195f57830026"},"vehicle_type_id":"4","last_reported":1744607458,"current_range_meters":7200,"station_id":"ce4bh412rcd13ifvqds0","pricing_plan_id":"cebpf4jnsgd1na2vs0mg"},{"bike_id":"76450c2c-888f-4d08-a5c0-d825237615aa","system_id":"levelo_inurba_marseille","lat":43.272294,"lon":5.423049,"is_reserved":false,"is_disabled":false,"rental_uris":{"android":"levelo://app?vid=76450c2c-888f-4d08-a5c0-d825237615aa","ios":"levelo://app?vid=76450c2c-888f-4d08-a5c0-d825237615aa"},"vehicle_type_id":"4","last_reported":1744607458,"current_range_meters":8000,"station_id":"","pricing_plan_id":"cebpf4jnsgd1na2vs0mg"},{"bike_id":"6e2ac28e-dfb7-46b8-8016-b7ae92b2a4f0","system_id":"levelo_inurba_marseille","lat":43.28016,"lon":5.39986,"is_reserved":false,"is_disabled":false,"rental_uris":{"android":"levelo://app?vid=6e2ac28e-dfb7-46b8-8016-b7ae92b2a4f0","ios":"levelo://app?vid=6e2ac28e-dfb7-46b8-8016-b7ae92b2a4f0"},"vehicle_type_id":"4","last_reported":1744607458,"current_range_meters":8000,"station_id":"ce4bho92rcd13ifvqh4g","pricing_plan_id":"cebpf4jnsgd1na2vs0mg"},{"bike_id":"0dcc817d-733c-4ec3-9556-4431f10629f3","system_id":"levelo_inurba_marseille","lat":43.28691,"lon":5.39986,"is_reserved":false,"is_disabled":false,"rental_uris":{"android":"levelo://app?vid=0dcc817d-733c-4ec3-9556-4431f10629f3","ios":"levelo://app?vid=0dcc817d-733c-4ec3-9556-4431f10629f3"},"vehicle_type_id":"4","last_reported":1744607458,"current_range_meters":8000,"station_id":"ce4bho92rcd13ifvqh3g","pricing_plan_id":"cebpf4jnsgd1na2vs0mg"},{"bike_id":"c4418ba2-fdb3-4569-93a7-bee11ff3285c","system_id":"levelo_inurba_marseille","lat":43.29241,"lon":5.40184,"is_reserved":false,"is_disabled":false,"rental_uris":{"android":"levelo://app?vid=c4418ba2-fdb3-4569-93a7-bee11ff3285c","ios":"levelo://app?vid=c4418ba2-fdb3-4569-93a7-bee11ff3285c"},"vehicle_type_id":"4","last_reported":1744607458,"current_range_meters":8000,"station_id":"","pricing_plan_id":"cebpf4jnsgd1na2vs0mg"},{"bike_id":"91fffdcd-2fa7-4f34-b242-95e7e93ac05b","system_id":"levelo_inurba_marseille","lat":43.26318,"lon":5.39773,"is_reserved":false,"is_disabled":false,"rental_uris":{"android":"levelo://app?vid=91fffdcd-2fa7-4f34-b242-95e7e93ac05b","ios":"levelo://app?vid=91fffdcd-2fa7-4f34-b242-95e7e93ac05b"},"vehicle_type_id":"4","last_reported":1744607458,"current_range_meters":8000,"station_id":"","pricing_plan_id":"cebpf4jnsgd1na2vs0mg"},{"bike_id":"c127d1a8-0150-4856-a57b-18fd29314b2c","system_id":"levelo_inurba_marseille","lat":43.32469,"lon":5.36579,"is_reserved":false,"is_disabled":false,"rental_uris":{"android":"levelo://app?vid=c127d1a8-0150-4856-a57b-18fd29314b2c","ios":"levelo://app?vid=c127d1a8-0150-4856-a57b-18fd29314b2c"},"vehicle_type_id":"4","last_reported":1744607458,"current_range_meters":8000,"station_id":"ce4bhs12rcd13ifvqhvg","pricing_plan_id":"cebpf4jnsgd1na2vs0mg"},{"bike_id":"4d49d7bf-c387-4802-8134-39419f66ab07","system_id":"levelo_inurba_marseille","lat":43.25071,"lon":5.39535,"is_reserved":false,"is_disabled":false,"rental_uris":{"android":"levelo://app?vid=4d49d7bf-c387-4802-8134-39419f66ab07","ios":"levelo://app?vid=4d49d7bf-c387-4802-8134-39419f66ab07"},"vehicle_type_id":"4","last_reported":1744607458,"current_range_meters":8000,"station_id":"ce4bhm12rcd13ifvqgkg","pricing_plan_id":"cebpf4jnsgd1na2vs0mg"},{"bike_id":"a97af672-b176-42f7-912b-8dfee7634705","system_id":"levelo_inurba_marseille","lat":43.30303,"lon":5.36878,"is_reserved":false,"is_disabled":false,"rental_uris":{"android":"levelo://app?vid=a97af672-b176-42f7-912b-8dfee7634705","ios":"levelo://app?vid=a97af672-b176-42f7-912b-8dfee7634705"},"vehicle_type_id":"4","last_reported":1744607458,"current_range_meters":8400,"station_id":"ce4bgqh2rcd13ifvqc5g","pricing_plan_id":"cebpf4jnsgd1na2vs0mg"},{"bike_id":"f7cd819f-b752-47cc-848d-ff43c669ccb8","system_id":"levelo_inurba_marseille","lat":43.30979,"lon":5.41738,"is_reserved":false,"is_disabled":false,"rental_uris":{"android":"levelo://app?vid=f7cd819f-b752-47cc-848d-ff43c669ccb8","ios":"levelo://app?vid=f7cd819f-b752-47cc-848d-ff43c669ccb8"},"vehicle_type_id":"4","last_reported":1744607458,"current_range_meters":8400,"station_id":"","pricing_plan_id":"cebpf4jnsgd1na2vs0mg"},{"bike_id":"7a19dc1e-c605-44fa-ad0c-ac48b8d0aeb6","system_id":"levelo_inurba_marseille","lat":43.281514,"lon":5.426447,"is_reserved":false,"is_disabled":false,"rental_uris":{"android":"levelo://app?vid=7a19dc1e-c605-44fa-ad0c-ac48b8d0aeb6","ios":"levelo://app?vid=7a19dc1e-c605-44fa-ad0c-ac48b8d0aeb6"},"vehicle_type_id":"4","last_reported":1744607458,"current_range_meters":8400,"station_id":"ce4bhnh2rcd13ifvqgug","pricing_plan_id":"cebpf4jnsgd1na2vs0mg"},{"bike_id":"ca35089c-8d6b-4427-848b-6ee23f62207c","system_id":"levelo_inurba_marseille","lat":43.28688,"lon":5.37399,"is_reserved":false,"is_disabled":false,"rental_uris":{"android":"levelo://app?vid=ca35089c-8d6b-4427-848b-6ee23f62207c","ios":"levelo://app?vid=ca35089c-8d6b-4427-848b-6ee23f62207c"},"vehicle_type_id":"4","last_reported":1744607458,"current_range_meters":8400,"station_id":"ce4bh3p2rcd13ifvqdq0","pricing_plan_id":"cebpf4jnsgd1na2vs0mg"},{"bike_id":"82d38bd3-c046-4f55-aec8-4eb686f05e29","system_id":"levelo_inurba_marseille","lat":43.22954,"lon":5.35366,"is_reserved":false,"is_disabled":true,"rental_uris":{"android":"levelo://app?vid=82d38bd3-c046-4f55-aec8-4eb686f05e29","ios":"levelo://app?vid=82d38bd3-c046-4f55-aec8-4eb686f05e29"},"vehicle_type_id":"4","last_reported":1744607458,"current_range_meters":8400,"station_id":"cpo3532slgdg3j2ikp40","pricing_plan_id":"cebpf4jnsgd1na2vs0mg"},{"bike_id":"efd328ca-f8bf-4550-bd94-c2fd75978f3c","system_id":"levelo_inurba_marseille","lat":43.33054,"lon":5.38083,"is_reserved":false,"is_disabled":false,"rental_uris":{"android":"levelo://app?vid=efd328ca-f8bf-4550-bd94-c2fd75978f3c","ios":"levelo://app?vid=efd328ca-f8bf-4550-bd94-c2fd75978f3c"},"vehicle_type_id":"4","last_reported":1744607458,"current_range_meters":8400,"station_id":"","pricing_plan_id":"cebpf4jnsgd1na2vs0mg"},{"bike_id":"e3033e51-0403-4e5c-9649-cc323385bf93","system_id":"levelo_inurba_marseille","lat":43.27493,"lon":5.42471,"is_reserved":false,"is_disabled":false,"rental_uris":{"android":"levelo://app?vid=e3033e51-0403-4e5c-9649-cc323385bf93","ios":"levelo://app?vid=e3033e51-0403-4e5c-9649-cc323385bf93"},"vehicle_type_id":"4","last_reported":1744607458,"current_range_meters":8800,"station_id":"ce4bhn92rcd13ifvqgrg","pricing_plan_id":"cebpf4jnsgd1na2vs0mg"},{"bike_id":"12aec038-db5e-4d5d-a5cf-e01dc2e28ea3","system_id":"levelo_inurba_marseille","lat":43.30088,"lon":5.40528,"is_reserved":false,"is_disabled":true,"rental_uris":{"android":"levelo://app?vid=12aec038-db5e-4d5d-a5cf-e01dc2e28ea3","ios":"levelo://app?vid=12aec038-db5e-4d5d-a5cf-e01dc2e28ea3"},"vehicle_type_id":"4","last_reported":1744607458,"current_range_meters":8800,"station_id":"","pricing_plan_id":"cebpf4jnsgd1na2vs0mg"},{"bike_id":"83567ef6-3762-49b5-a856-7bc0d9276709","system_id":"levelo_inurba_marseille","lat":43.27839,"lon":5.39191,"is_reserved":false,"is_disabled":false,"rental_uris":{"android":"levelo://app?vid=83567ef6-3762-49b5-a856-7bc0d9276709","ios":"levelo://app?vid=83567ef6-3762-49b5-a856-7bc0d9276709"},"vehicle_type_id":"4","last_reported":1744607458,"current_range_meters":8800,"station_id":"ce4bhjp2rcd13ifvqga0","pricing_plan_id":"cebpf4jnsgd1na2vs0mg"},{"bike_id":"b0c064f7-6710-4684-831e-3fb959bd9f3a","system_id":"levelo_inurba_marseille","lat":43.27942,"lon":5.41051,"is_reserved":false,"is_disabled":false,"rental_uris":{"android":"levelo://app?vid=b0c064f7-6710-4684-831e-3fb959bd9f3a","ios":"levelo://app?vid=b0c064f7-6710-4684-831e-3fb959bd9f3a"},"vehicle_type_id":"4","last_reported":1744607458,"current_range_meters":8800,"station_id":"ce4bhnp2rcd13ifvqh0g","pricing_plan_id":"cebpf4jnsgd1na2vs0mg"},{"bike_id":"e24a7b75-ee5b-4514-833f-b0a5cfeba052","system_id":"levelo_inurba_marseille","lat":43.2509,"lon":5.40389,"is_reserved":false,"is_disabled":false,"rental_uris":{"android":"levelo://app?vid=e24a7b75-ee5b-4514-833f-b0a5cfeba052","ios":"levelo://app?vid=e24a7b75-ee5b-4514-833f-b0a5cfeba052"},"vehicle_type_id":"4","last_reported":1744607458,"current_range_meters":8800,"station_id":"ce4bhlh2rcd13ifvqgig","pricing_plan_id":"cebpf4jnsgd1na2vs0mg"},{"bike_id":"5bd83869-317c-4f7d-93ed-182a084c5a24","system_id":"levelo_inurba_marseille","lat":43.256976,"lon":5.411155,"is_reserved":false,"is_disabled":false,"rental_uris":{"android":"levelo://app?vid=5bd83869-317c-4f7d-93ed-182a084c5a24","ios":"levelo://app?vid=5bd83869-317c-4f7d-93ed-182a084c5a24"},"vehicle_type_id":"4","last_reported":1744607458,"current_range_meters":8800,"station_id":"ce4bhkp2rcd13ifvqgd0","pricing_plan_id":"cebpf4jnsgd1na2vs0mg"},{"bike_id":"e5afee93-2191-4e03-8277-e3b90ad6fc7d","system_id":"levelo_inurba_marseille","lat":43.28475,"lon":5.38445,"is_reserved":false,"is_disabled":false,"rental_uris":{"android":"levelo://app?vid=e5afee93-2191-4e03-8277-e3b90ad6fc7d","ios":"levelo://app?vid=e5afee93-2191-4e03-8277-e3b90ad6fc7d"},"vehicle_type_id":"4","last_reported":1744607458,"current_range_meters":8800,"station_id":"ce4bh512rcd13ifvqe3g","pricing_plan_id":"cebpf4jnsgd1na2vs0mg"},{"bike_id":"45a1a513-23ca-4b7d-91b2-f9ad1dee8bcd","system_id":"levelo_inurba_marseille","lat":43.29881,"lon":5.38916,"is_reserved":false,"is_disabled":false,"rental_uris":{"android":"levelo://app?vid=45a1a513-23ca-4b7d-91b2-f9ad1dee8bcd","ios":"levelo://app?vid=45a1a513-23ca-4b7d-91b2-f9ad1dee8bcd"},"vehicle_type_id":"4","last_reported":1744607458,"current_range_meters":8800,"station_id":"ce4bh392rcd13ifvqdl0","pricing_plan_id":"cebpf4jnsgd1na2vs0mg"},{"bike_id":"b55dd5e7-54b2-4035-b945-7b626dd7afc7","system_id":"levelo_inurba_marseille","lat":43.27549,"lon":5.40904,"is_reserved":false,"is_disabled":false,"rental_uris":{"android":"levelo://app?vid=b55dd5e7-54b2-4035-b945-7b626dd7afc7","ios":"levelo://app?vid=b55dd5e7-54b2-4035-b945-7b626dd7afc7"},"vehicle_type_id":"4","last_reported":1744607458,"current_range_meters":8800,"station_id":"","pricing_plan_id":"cebpf4jnsgd1na2vs0mg"},{"bike_id":"982bb1bc-457f-43d7-ae21-85035c856353","system_id":"levelo_inurba_marseille","lat":43.22513,"lon":5.34752,"is_reserved":false,"is_disabled":true,"rental_uris":{"android":"levelo://app?vid=982bb1bc-457f-43d7-ae21-85035c856353","ios":"levelo://app?vid=982bb1bc-457f-43d7-ae21-85035c856353"},"vehicle_type_id":"4","last_reported":1744607458,"current_range_meters":8800,"station_id":"st_cvj5dfep6f1abm77gieg","pricing_plan_id":"cebpf4jnsgd1na2vs0mg"},{"bike_id":"d3d40591-4ab6-47c0-858b-e2d1c8bbaff8","system_id":"levelo_inurba_marseille","lat":43.32331,"lon":5.40627,"is_reserved":false,"is_disabled":false,"rental_uris":{"android":"levelo://app?vid=d3d40591-4ab6-47c0-858b-e2d1c8bbaff8","ios":"levelo://app?vid=d3d40591-4ab6-47c0-858b-e2d1c8bbaff8"},"vehicle_type_id":"4","last_reported":1744607458,"current_range_meters":8800,"station_id":"ce4bhq92rcd13ifvqhjg","pricing_plan_id":"cebpf4jnsgd1na2vs0mg"},{"bike_id":"458725bc-46e9-4766-aa8b-f13cfc93ab12","system_id":"levelo_inurba_marseille","lat":43.31996,"lon":5.3817,"is_reserved":false,"is_disabled":false,"rental_uris":{"android":"levelo://app?vid=458725bc-46e9-4766-aa8b-f13cfc93ab12","ios":"levelo://app?vid=458725bc-46e9-4766-aa8b-f13cfc93ab12"},"vehicle_type_id":"4","last_reported":1744607458,"current_range_meters":8800,"station_id":"ce4bhr12rcd13ifvqhpg","pricing_plan_id":"cebpf4jnsgd1na2vs0mg"},{"bike_id":"020e9999-d552-48d0-ae5f-b725af0dbea2","system_id":"levelo_inurba_marseille","lat":43.29915,"lon":5.43746,"is_reserved":false,"is_disabled":false,"rental_uris":{"android":"levelo://app?vid=020e9999-d552-48d0-ae5f-b725af0dbea2","ios":"levelo://app?vid=020e9999-d552-48d0-ae5f-b725af0dbea2"},"vehicle_type_id":"4","last_reported":1744607458,"current_range_meters":8800,"station_id":"","pricing_plan_id":"cebpf4jnsgd1na2vs0mg"},{"bike_id":"294071bc-a920-4692-8543-aa287d081c58","system_id":"levelo_inurba_marseille","lat":43.335907,"lon":5.41024,"is_reserved":false,"is_disabled":false,"rental_uris":{"android":"levelo://app?vid=294071bc-a920-4692-8543-aa287d081c58","ios":"levelo://app?vid=294071bc-a920-4692-8543-aa287d081c58"},"vehicle_type_id":"4","last_reported":1744607458,"current_range_meters":8800,"station_id":"ce4bhqh2rcd13ifvqhmg","pricing_plan_id":"cebpf4jnsgd1na2vs0mg"},{"bike_id":"a3bf51d9-08b7-458c-9b6d-ef5680cc95d6","system_id":"levelo_inurba_marseille","lat":43.21743,"lon":5.3461,"is_reserved":false,"is_disabled":true,"rental_uris":{"android":"levelo://app?vid=a3bf51d9-08b7-458c-9b6d-ef5680cc95d6","ios":"levelo://app?vid=a3bf51d9-08b7-458c-9b6d-ef5680cc95d6"},"vehicle_type_id":"4","last_reported":1744607458,"current_range_meters":8800,"station_id":"st_cvj6r9ubvosntc0bgbag","pricing_plan_id":"cebpf4jnsgd1na2vs0mg"},{"bike_id":"4bbe6e48-9bfa-4dec-aab0-5597477f7da1","system_id":"levelo_inurba_marseille","lat":43.32412,"lon":5.39141,"is_reserved":false,"is_disabled":false,"rental_uris":{"android":"levelo://app?vid=4bbe6e48-9bfa-4dec-aab0-5597477f7da1","ios":"levelo://app?vid=4bbe6e48-9bfa-4dec-aab0-5597477f7da1"},"vehicle_type_id":"4","last_reported":1744607458,"current_range_meters":8800,"station_id":"","pricing_plan_id":"cebpf4jnsgd1na2vs0mg"},{"bike_id":"203308fc-5b45-40a7-a512-e07814ba23a1","system_id":"levelo_inurba_marseille","lat":43.30462,"lon":5.37914,"is_reserved":false,"is_disabled":false,"rental_uris":{"android":"levelo://app?vid=203308fc-5b45-40a7-a512-e07814ba23a1","ios":"levelo://app?vid=203308fc-5b45-40a7-a512-e07814ba23a1"},"vehicle_type_id":"4","last_reported":1744607458,"current_range_meters":8800,"station_id":"ce4bgup2rcd13ifvqcn0","pricing_plan_id":"cebpf4jnsgd1na2vs0mg"},{"bike_id":"7f6c4363-715d-4f42-b9a9-3392906a5fa6","system_id":"levelo_inurba_marseille","lat":43.246723,"lon":5.381627,"is_reserved":false,"is_disabled":false,"rental_uris":{"android":"levelo://app?vid=7f6c4363-715d-4f42-b9a9-3392906a5fa6","ios":"levelo://app?vid=7f6c4363-715d-4f42-b9a9-3392906a5fa6"},"vehicle_type_id":"4","last_reported":1744607458,"current_range_meters":9200,"station_id":"ce4bhih2rcd13ifvqfr0","pricing_plan_id":"cebpf4jnsgd1na2vs0mg"},{"bike_id":"cff81221-1201-4751-b266-918489808edd","system_id":"levelo_inurba_marseille","lat":43.26826,"lon":5.40226,"is_reserved":false,"is_disabled":false,"rental_uris":{"android":"levelo://app?vid=cff81221-1201-4751-b266-918489808edd","ios":"levelo://app?vid=cff81221-1201-4751-b266-918489808edd"},"vehicle_type_id":"4","last_reported":1744607458,"current_range_meters":9200,"station_id":"ce501612rcd8frsf0b60","pricing_plan_id":"cebpf4jnsgd1na2vs0mg"},{"bike_id":"923369c3-577a-4223-983d-7b17c8620a60","system_id":"levelo_inurba_marseille","lat":43.28441,"lon":5.3917,"is_reserved":false,"is_disabled":false,"rental_uris":{"android":"levelo://app?vid=923369c3-577a-4223-983d-7b17c8620a60","ios":"levelo://app?vid=923369c3-577a-4223-983d-7b17c8620a60"},"vehicle_type_id":"4","last_reported":1744607458,"current_range_meters":9200,"station_id":"ce4bhoh2rcd13ifvqh5g","pricing_plan_id":"cebpf4jnsgd1na2vs0mg"},{"bike_id":"d8b9884b-4022-4710-9f87-50e0dbfd421d","system_id":"levelo_inurba_marseille","lat":43.2416,"lon":5.36403,"is_reserved":false,"is_disabled":false,"rental_uris":{"android":"levelo://app?vid=d8b9884b-4022-4710-9f87-50e0dbfd421d","ios":"levelo://app?vid=d8b9884b-4022-4710-9f87-50e0dbfd421d"},"vehicle_type_id":"4","last_reported":1744607458,"current_range_meters":9200,"station_id":"cpo36qri1sfpv3e86is0","pricing_plan_id":"cebpf4jnsgd1na2vs0mg"},{"bike_id":"189bc3aa-c23a-4e02-a51e-2e6020d77594","system_id":"levelo_inurba_marseille","lat":43.2316,"lon":5.43691,"is_reserved":false,"is_disabled":false,"rental_uris":{"android":"levelo://app?vid=189bc3aa-c23a-4e02-a51e-2e6020d77594","ios":"levelo://app?vid=189bc3aa-c23a-4e02-a51e-2e6020d77594"},"vehicle_type_id":"4","last_reported":1744607458,"current_range_meters":9200,"station_id":"ce4bhmp2rcd13ifvqgog","pricing_plan_id":"cebpf4jnsgd1na2vs0mg"},{"bike_id":"d49ed5f3-63dd-41d8-a7c3-7b7860b035b1","system_id":"levelo_inurba_marseille","lat":43.248133,"lon":5.374632,"is_reserved":false,"is_disabled":true,"rental_uris":{"android":"levelo://app?vid=d49ed5f3-63dd-41d8-a7c3-7b7860b035b1","ios":"levelo://app?vid=d49ed5f3-63dd-41d8-a7c3-7b7860b035b1"},"vehicle_type_id":"4","last_reported":1744607458,"current_range_meters":9200,"station_id":"ce4bhgh2rcd13ifvqfb0","pricing_plan_id":"cebpf4jnsgd1na2vs0mg"},{"bike_id":"1201dea7-5edd-4dc9-ae9c-c6b3d8e2a04f","system_id":"levelo_inurba_marseille","lat":43.270541,"lon":5.402594,"is_reserved":false,"is_disabled":false,"rental_uris":{"android":"levelo://app?vid=1201dea7-5edd-4dc9-ae9c-c6b3d8e2a04f","ios":"levelo://app?vid=1201dea7-5edd-4dc9-ae9c-c6b3d8e2a04f"},"vehicle_type_id":"4","last_reported":1744607458,"current_range_meters":9200,"station_id":"ce4bhk92rcd13ifvqgc0","pricing_plan_id":"cebpf4jnsgd1na2vs0mg"},{"bike_id":"5591936e-ca63-41c7-89f3-9c9493c86f89","system_id":"levelo_inurba_marseille","lat":43.24165,"lon":5.36403,"is_reserved":false,"is_disabled":false,"rental_uris":{"android":"levelo://app?vid=5591936e-ca63-41c7-89f3-9c9493c86f89","ios":"levelo://app?vid=5591936e-ca63-41c7-89f3-9c9493c86f89"},"vehicle_type_id":"4","last_reported":1744607458,"current_range_meters":9200,"station_id":"cpo36qri1sfpv3e86is0","pricing_plan_id":"cebpf4jnsgd1na2vs0mg"},{"bike_id":"35bd4d02-fb6f-47e3-8b9b-a14059c8d044","system_id":"levelo_inurba_marseille","lat":43.2416,"lon":5.39725,"is_reserved":false,"is_disabled":false,"rental_uris":{"android":"levelo://app?vid=35bd4d02-fb6f-47e3-8b9b-a14059c8d044","ios":"levelo://app?vid=35bd4d02-fb6f-47e3-8b9b-a14059c8d044"},"vehicle_type_id":"4","last_reported":1744607458,"current_range_meters":9200,"station_id":"ce4bhn12rcd13ifvqgpg","pricing_plan_id":"cebpf4jnsgd1na2vs0mg"},{"bike_id":"bac238c1-16ce-4496-8a56-a76b60a16357","system_id":"levelo_inurba_marseille","lat":43.28677,"lon":5.39971,"is_reserved":false,"is_disabled":false,"rental_uris":{"android":"levelo://app?vid=bac238c1-16ce-4496-8a56-a76b60a16357","ios":"levelo://app?vid=bac238c1-16ce-4496-8a56-a76b60a16357"},"vehicle_type_id":"4","last_reported":1744607458,"current_range_meters":9600,"station_id":"ce4bho92rcd13ifvqh3g","pricing_plan_id":"cebpf4jnsgd1na2vs0mg"},{"bike_id":"0ceb1776-0c88-4ba3-9905-2f990572e867","system_id":"levelo_inurba_marseille","lat":43.30373,"lon":5.42488,"is_reserved":false,"is_disabled":false,"rental_uris":{"android":"levelo://app?vid=0ceb1776-0c88-4ba3-9905-2f990572e867","ios":"levelo://app?vid=0ceb1776-0c88-4ba3-9905-2f990572e867"},"vehicle_type_id":"4","last_reported":1744607458,"current_range_meters":9600,"station_id":"ce4bhoh2rcd13ifvqh6g","pricing_plan_id":"cebpf4jnsgd1na2vs0mg"},{"bike_id":"34f6756b-3176-41ae-9a17-73fda68b3b50","system_id":"levelo_inurba_marseille","lat":43.289435,"lon":5.36627,"is_reserved":false,"is_disabled":false,"rental_uris":{"android":"levelo://app?vid=34f6756b-3176-41ae-9a17-73fda68b3b50","ios":"levelo://app?vid=34f6756b-3176-41ae-9a17-73fda68b3b50"},"vehicle_type_id":"4","last_reported":1744607458,"current_range_meters":9600,"station_id":"ce4bhap2rcd13ifvqek0","pricing_plan_id":"cebpf4jnsgd1na2vs0mg"},{"bike_id":"96150cb6-a820-4cd1-ac2e-1ceabdb535c7","system_id":"levelo_inurba_marseille","lat":43.29277,"lon":5.40127,"is_reserved":false,"is_disabled":false,"rental_uris":{"android":"levelo://app?vid=96150cb6-a820-4cd1-ac2e-1ceabdb535c7","ios":"levelo://app?vid=96150cb6-a820-4cd1-ac2e-1ceabdb535c7"},"vehicle_type_id":"4","last_reported":1744607458,"current_range_meters":9600,"station_id":"ce4bh312rcd13ifvqdk0","pricing_plan_id":"cebpf4jnsgd1na2vs0mg"},{"bike_id":"b3e64b14-29c8-4f32-9a7d-73acca2d0222","system_id":"levelo_inurba_marseille","lat":43.29047,"lon":5.39963,"is_reserved":false,"is_disabled":true,"rental_uris":{"android":"levelo://app?vid=b3e64b14-29c8-4f32-9a7d-73acca2d0222","ios":"levelo://app?vid=b3e64b14-29c8-4f32-9a7d-73acca2d0222"},"vehicle_type_id":"4","last_reported":1744607458,"current_range_meters":9600,"station_id":"ce4bh392rcd13ifvqdm0","pricing_plan_id":"cebpf4jnsgd1na2vs0mg"},{"bike_id":"eeecd2fe-6254-4002-abf4-dbb4c5b284dc","system_id":"levelo_inurba_marseille","lat":43.27961,"lon":5.4167,"is_reserved":false,"is_disabled":true,"rental_uris":{"android":"levelo://app?vid=eeecd2fe-6254-4002-abf4-dbb4c5b284dc","ios":"levelo://app?vid=eeecd2fe-6254-4002-abf4-dbb4c5b284dc"},"vehicle_type_id":"4","last_reported":1744607458,"current_range_meters":10000,"station_id":"ce4bho12rcd13ifvqh1g","pricing_plan_id":"cebpf4jnsgd1na2vs0mg"},{"bike_id":"f0f7657a-86a9-4070-a538-99dcc5cb5533","system_id":"levelo_inurba_marseille","lat":43.26948,"lon":5.38628,"is_reserved":false,"is_disabled":false,"rental_uris":{"android":"levelo://app?vid=f0f7657a-86a9-4070-a538-99dcc5cb5533","ios":"levelo://app?vid=f0f7657a-86a9-4070-a538-99dcc5cb5533"},"vehicle_type_id":"4","last_reported":1744607458,"current_range_meters":10000,"station_id":"ce4bhh92rcd13ifvqfh0","pricing_plan_id":"cebpf4jnsgd1na2vs0mg"},{"bike_id":"72ebdd68-4727-45bd-ae87-df9c54928155","system_id":"levelo_inurba_marseille","lat":43.32546,"lon":5.410661,"is_reserved":false,"is_disabled":false,"rental_uris":{"android":"levelo://app?vid=72ebdd68-4727-45bd-ae87-df9c54928155","ios":"levelo://app?vid=72ebdd68-4727-45bd-ae87-df9c54928155"},"vehicle_type_id":"4","last_reported":1744607458,"current_range_meters":10000,"station_id":"","pricing_plan_id":"cebpf4jnsgd1na2vs0mg"},{"bike_id":"cec9fed2-74bc-4f07-a628-035c465b00b6","system_id":"levelo_inurba_marseille","lat":43.24167,"lon":5.3975,"is_reserved":false,"is_disabled":false,"rental_uris":{"android":"levelo://app?vid=cec9fed2-74bc-4f07-a628-035c465b00b6","ios":"levelo://app?vid=cec9fed2-74bc-4f07-a628-035c465b00b6"},"vehicle_type_id":"4","last_reported":1744607458,"current_range_meters":10000,"station_id":"ce4bhn12rcd13ifvqgpg","pricing_plan_id":"cebpf4jnsgd1na2vs0mg"},{"bike_id":"2bb6b5da-a4a8-4544-9220-ce73d140bbc1","system_id":"levelo_inurba_marseille","lat":43.28447,"lon":5.39186,"is_reserved":false,"is_disabled":false,"rental_uris":{"android":"levelo://app?vid=2bb6b5da-a4a8-4544-9220-ce73d140bbc1","ios":"levelo://app?vid=2bb6b5da-a4a8-4544-9220-ce73d140bbc1"},"vehicle_type_id":"4","last_reported":1744607458,"current_range_meters":10800,"station_id":"ce4bhoh2rcd13ifvqh5g","pricing_plan_id":"cebpf4jnsgd1na2vs0mg"},{"bike_id":"ba0617bc-a737-4e7c-be8e-b25cef28a43b","system_id":"levelo_inurba_marseille","lat":43.30316,"lon":5.40454,"is_reserved":false,"is_disabled":false,"rental_uris":{"android":"levelo://app?vid=ba0617bc-a737-4e7c-be8e-b25cef28a43b","ios":"levelo://app?vid=ba0617bc-a737-4e7c-be8e-b25cef28a43b"},"vehicle_type_id":"4","last_reported":1744607458,"current_range_meters":10800,"station_id":"ce4bh012rcd13ifvqd10","pricing_plan_id":"cebpf4jnsgd1na2vs0mg"},{"bike_id":"6a003e47-a1cc-4c38-b762-6e37af426d05","system_id":"levelo_inurba_marseille","lat":43.32333,"lon":5.36802,"is_reserved":false,"is_disabled":false,"rental_uris":{"android":"levelo://app?vid=6a003e47-a1cc-4c38-b762-6e37af426d05","ios":"levelo://app?vid=6a003e47-a1cc-4c38-b762-6e37af426d05"},"vehicle_type_id":"4","last_reported":1744607458,"current_range_meters":10800,"station_id":"ce4bhsh2rcd13ifvqi2g","pricing_plan_id":"cebpf4jnsgd1na2vs0mg"},{"bike_id":"e0c9e09f-8004-440c-8329-33dcb2098b13","system_id":"levelo_inurba_marseille","lat":43.28932,"lon":5.36414,"is_reserved":false,"is_disabled":false,"rental_uris":{"android":"levelo://app?vid=e0c9e09f-8004-440c-8329-33dcb2098b13","ios":"levelo://app?vid=e0c9e09f-8004-440c-8329-33dcb2098b13"},"vehicle_type_id":"4","last_reported":1744607458,"current_range_meters":10800,"station_id":"ce4bhc92rcd13ifvqetg","pricing_plan_id":"cebpf4jnsgd1na2vs0mg"},{"bike_id":"c2a31b7c-37b8-460a-a9ba-47af7e49c6b9","system_id":"levelo_inurba_marseille","lat":43.2748,"lon":5.42478,"is_reserved":false,"is_disabled":false,"rental_uris":{"android":"levelo://app?vid=c2a31b7c-37b8-460a-a9ba-47af7e49c6b9","ios":"levelo://app?vid=c2a31b7c-37b8-460a-a9ba-47af7e49c6b9"},"vehicle_type_id":"4","last_reported":1744607458,"current_range_meters":10800,"station_id":"ce4bhn92rcd13ifvqgrg","pricing_plan_id":"cebpf4jnsgd1na2vs0mg"},{"bike_id":"65f98b52-627f-4221-921f-c1d48e4da20d","system_id":"levelo_inurba_marseille","lat":43.217491,"lon":5.345999,"is_reserved":false,"is_disabled":false,"rental_uris":{"android":"levelo://app?vid=65f98b52-627f-4221-921f-c1d48e4da20d","ios":"levelo://app?vid=65f98b52-627f-4221-921f-c1d48e4da20d"},"vehicle_type_id":"4","last_reported":1744607458,"current_range_meters":10800,"station_id":"st_cvj6r9ubvosntc0bgbag","pricing_plan_id":"cebpf4jnsgd1na2vs0mg"},{"bike_id":"0d6889fd-fc28-4905-ae73-dde45f2ce921","system_id":"levelo_inurba_marseille","lat":43.24652,"lon":5.38173,"is_reserved":false,"is_disabled":false,"rental_uris":{"android":"levelo://app?vid=0d6889fd-fc28-4905-ae73-dde45f2ce921","ios":"levelo://app?vid=0d6889fd-fc28-4905-ae73-dde45f2ce921"},"vehicle_type_id":"4","last_reported":1744607458,"current_range_meters":10800,"station_id":"ce4bhih2rcd13ifvqfr0","pricing_plan_id":"cebpf4jnsgd1na2vs0mg"},{"bike_id":"d7eac028-2fd0-4f39-be58-fbce5fdcab81","system_id":"levelo_inurba_marseille","lat":43.28421,"lon":5.34995,"is_reserved":false,"is_disabled":true,"rental_uris":{"android":"levelo://app?vid=d7eac028-2fd0-4f39-be58-fbce5fdcab81","ios":"levelo://app?vid=d7eac028-2fd0-4f39-be58-fbce5fdcab81"},"vehicle_type_id":"4","last_reported":1744607458,"current_range_meters":11200,"station_id":"ce4bhbh2rcd13ifvqepg","pricing_plan_id":"cebpf4jnsgd1na2vs0mg"},{"bike_id":"e617923d-5e38-4ab5-9f0a-d006b9dcc88d","system_id":"levelo_inurba_marseille","lat":43.29534,"lon":5.38549,"is_reserved":false,"is_disabled":true,"rental_uris":{"android":"levelo://app?vid=e617923d-5e38-4ab5-9f0a-d006b9dcc88d","ios":"levelo://app?vid=e617923d-5e38-4ab5-9f0a-d006b9dcc88d"},"vehicle_type_id":"4","last_reported":1744607458,"current_range_meters":11200,"station_id":"ce4bgih2rcd13ifvqba0","pricing_plan_id":"cebpf4jnsgd1na2vs0mg"},{"bike_id":"cb918d5b-8793-4d93-bf83-5042608ad86c","system_id":"levelo_inurba_marseille","lat":43.3318,"lon":5.39562,"is_reserved":false,"is_disabled":false,"rental_uris":{"android":"levelo://app?vid=cb918d5b-8793-4d93-bf83-5042608ad86c","ios":"levelo://app?vid=cb918d5b-8793-4d93-bf83-5042608ad86c"},"vehicle_type_id":"4","last_reported":1744607458,"current_range_meters":11200,"station_id":"","pricing_plan_id":"cebpf4jnsgd1na2vs0mg"},{"bike_id":"fbcffd98-9af3-437e-a238-670cf1dcb555","system_id":"levelo_inurba_marseille","lat":43.29073,"lon":5.3647,"is_reserved":false,"is_disabled":true,"rental_uris":{"android":"levelo://app?vid=fbcffd98-9af3-437e-a238-670cf1dcb555","ios":"levelo://app?vid=fbcffd98-9af3-437e-a238-670cf1dcb555"},"vehicle_type_id":"4","last_reported":1744607458,"current_range_meters":11200,"station_id":"","pricing_plan_id":"cebpf4jnsgd1na2vs0mg"},{"bike_id":"e6be24a9-462c-4d93-b7b5-635bacae826f","system_id":"levelo_inurba_marseille","lat":43.29911,"lon":5.40374,"is_reserved":false,"is_disabled":false,"rental_uris":{"android":"levelo://app?vid=e6be24a9-462c-4d93-b7b5-635bacae826f","ios":"levelo://app?vid=e6be24a9-462c-4d93-b7b5-635bacae826f"},"vehicle_type_id":"4","last_reported":1744607458,"current_range_meters":11200,"station_id":"","pricing_plan_id":"cebpf4jnsgd1na2vs0mg"},{"bike_id":"67868cb0-fe57-4755-a0f4-83fc5971e42b","system_id":"levelo_inurba_marseille","lat":43.268074,"lon":5.402586,"is_reserved":false,"is_disabled":false,"rental_uris":{"android":"levelo://app?vid=67868cb0-fe57-4755-a0f4-83fc5971e42b","ios":"levelo://app?vid=67868cb0-fe57-4755-a0f4-83fc5971e42b"},"vehicle_type_id":"4","last_reported":1744607458,"current_range_meters":11600,"station_id":"ce501612rcd8frsf0b60","pricing_plan_id":"cebpf4jnsgd1na2vs0mg"},{"bike_id":"a2083c1c-8348-4760-8030-d1ae4e66cda8","system_id":"levelo_inurba_marseille","lat":43.29077,"lon":5.37161,"is_reserved":false,"is_disabled":false,"rental_uris":{"android":"levelo://app?vid=a2083c1c-8348-4760-8030-d1ae4e66cda8","ios":"levelo://app?vid=a2083c1c-8348-4760-8030-d1ae4e66cda8"},"vehicle_type_id":"4","last_reported":1744607458,"current_range_meters":11600,"station_id":"ce4bh5p2rcd13ifvqe4g","pricing_plan_id":"cebpf4jnsgd1na2vs0mg"},{"bike_id":"ccb89218-1760-4c33-987c-ea7c17bce33c","system_id":"levelo_inurba_marseille","lat":43.27947,"lon":5.41038,"is_reserved":false,"is_disabled":false,"rental_uris":{"android":"levelo://app?vid=ccb89218-1760-4c33-987c-ea7c17bce33c","ios":"levelo://app?vid=ccb89218-1760-4c33-987c-ea7c17bce33c"},"vehicle_type_id":"4","last_reported":1744607458,"current_range_meters":12000,"station_id":"ce4bhnp2rcd13ifvqh0g","pricing_plan_id":"cebpf4jnsgd1na2vs0mg"},{"bike_id":"ece71115-0f99-4b98-8cf0-dd86ae7901a5","system_id":"levelo_inurba_marseille","lat":43.23147,"lon":5.4372,"is_reserved":false,"is_disabled":false,"rental_uris":{"android":"levelo://app?vid=ece71115-0f99-4b98-8cf0-dd86ae7901a5","ios":"levelo://app?vid=ece71115-0f99-4b98-8cf0-dd86ae7901a5"},"vehicle_type_id":"4","last_reported":1744607458,"current_range_meters":12000,"station_id":"ce4bhmp2rcd13ifvqgog","pricing_plan_id":"cebpf4jnsgd1na2vs0mg"},{"bike_id":"64538bc4-b51e-4503-877d-144db96564f3","system_id":"levelo_inurba_marseille","lat":43.30316,"lon":5.40446,"is_reserved":false,"is_disabled":false,"rental_uris":{"android":"levelo://app?vid=64538bc4-b51e-4503-877d-144db96564f3","ios":"levelo://app?vid=64538bc4-b51e-4503-877d-144db96564f3"},"vehicle_type_id":"4","last_reported":1744607458,"current_range_meters":12000,"station_id":"ce4bh012rcd13ifvqd10","pricing_plan_id":"cebpf4jnsgd1na2vs0mg"},{"bike_id":"229e8b04-963a-4bfa-a656-9fbbab07788e","system_id":"levelo_inurba_marseille","lat":43.31178,"lon":5.38717,"is_reserved":false,"is_disabled":true,"rental_uris":{"android":"levelo://app?vid=229e8b04-963a-4bfa-a656-9fbbab07788e","ios":"levelo://app?vid=229e8b04-963a-4bfa-a656-9fbbab07788e"},"vehicle_type_id":"4","last_reported":1744607458,"current_range_meters":12000,"station_id":"ce4bgv12rcd13ifvqcp0","pricing_plan_id":"cebpf4jnsgd1na2vs0mg"},{"bike_id":"ad1eb90c-c5c4-438d-a60f-7c5e492e3bd9","system_id":"levelo_inurba_marseille","lat":43.289425,"lon":5.366372,"is_reserved":false,"is_disabled":false,"rental_uris":{"android":"levelo://app?vid=ad1eb90c-c5c4-438d-a60f-7c5e492e3bd9","ios":"levelo://app?vid=ad1eb90c-c5c4-438d-a60f-7c5e492e3bd9"},"vehicle_type_id":"4","last_reported":1744607458,"current_range_meters":12000,"station_id":"ce4bhap2rcd13ifvqek0","pricing_plan_id":"cebpf4jnsgd1na2vs0mg"},{"bike_id":"1fe08170-843a-4805-bdff-cc804c925b61","system_id":"levelo_inurba_marseille","lat":43.30436,"lon":5.38904,"is_reserved":false,"is_disabled":false,"rental_uris":{"android":"levelo://app?vid=1fe08170-843a-4805-bdff-cc804c925b61","ios":"levelo://app?vid=1fe08170-843a-4805-bdff-cc804c925b61"},"vehicle_type_id":"4","last_reported":1744607458,"current_range_meters":12000,"station_id":"ce4bgk12rcd13ifvqbi0","pricing_plan_id":"cebpf4jnsgd1na2vs0mg"},{"bike_id":"343cc64c-4a39-45e1-84bf-d73c3feac488","system_id":"levelo_inurba_marseille","lat":43.31471,"lon":5.37299,"is_reserved":false,"is_disabled":false,"rental_uris":{"android":"levelo://app?vid=343cc64c-4a39-45e1-84bf-d73c3feac488","ios":"levelo://app?vid=343cc64c-4a39-45e1-84bf-d73c3feac488"},"vehicle_type_id":"4","last_reported":1744607458,"current_range_meters":12000,"station_id":"ce4bgt12rcd13ifvqcd0","pricing_plan_id":"cebpf4jnsgd1na2vs0mg"},{"bike_id":"7ece343c-ed75-415e-9fc3-18cd796202b0","system_id":"levelo_inurba_marseille","lat":43.323378,"lon":5.406237,"is_reserved":false,"is_disabled":false,"rental_uris":{"android":"levelo://app?vid=7ece343c-ed75-415e-9fc3-18cd796202b0","ios":"levelo://app?vid=7ece343c-ed75-415e-9fc3-18cd796202b0"},"vehicle_type_id":"4","last_reported":1744607458,"current_range_meters":12800,"station_id":"","pricing_plan_id":"cebpf4jnsgd1na2vs0mg"},{"bike_id":"72795014-e60d-4831-88a1-e24f7bb1743d","system_id":"levelo_inurba_marseille","lat":43.32389,"lon":5.38997,"is_reserved":false,"is_disabled":false,"rental_uris":{"android":"levelo://app?vid=72795014-e60d-4831-88a1-e24f7bb1743d","ios":"levelo://app?vid=72795014-e60d-4831-88a1-e24f7bb1743d"},"vehicle_type_id":"4","last_reported":1744607458,"current_range_meters":12800,"station_id":"","pricing_plan_id":"cebpf4jnsgd1na2vs0mg"},{"bike_id":"491f8d55-213a-4477-afe5-576efb509e41","system_id":"levelo_inurba_marseille","lat":43.30321,"lon":5.40436,"is_reserved":false,"is_disabled":false,"rental_uris":{"android":"levelo://app?vid=491f8d55-213a-4477-afe5-576efb509e41","ios":"levelo://app?vid=491f8d55-213a-4477-afe5-576efb509e41"},"vehicle_type_id":"4","last_reported":1744607458,"current_range_meters":12800,"station_id":"ce4bh012rcd13ifvqd10","pricing_plan_id":"cebpf4jnsgd1na2vs0mg"},{"bike_id":"94ebb454-9dc3-4e5a-a1c0-ae0c608bc7ee","system_id":"levelo_inurba_marseille","lat":43.28006,"lon":5.41662,"is_reserved":false,"is_disabled":true,"rental_uris":{"android":"levelo://app?vid=94ebb454-9dc3-4e5a-a1c0-ae0c608bc7ee","ios":"levelo://app?vid=94ebb454-9dc3-4e5a-a1c0-ae0c608bc7ee"},"vehicle_type_id":"4","last_reported":1744607458,"current_range_meters":12800,"station_id":"ce4bho12rcd13ifvqh1g","pricing_plan_id":"cebpf4jnsgd1na2vs0mg"},{"bike_id":"c5de9f04-a68c-4314-9995-789e3d717983","system_id":"levelo_inurba_marseille","lat":43.24391,"lon":5.37089,"is_reserved":false,"is_disabled":true,"rental_uris":{"android":"levelo://app?vid=c5de9f04-a68c-4314-9995-789e3d717983","ios":"levelo://app?vid=c5de9f04-a68c-4314-9995-789e3d717983"},"vehicle_type_id":"4","last_reported":1744607458,"current_range_meters":13600,"station_id":"ce4bhhh2rcd13ifvqfk0","pricing_plan_id":"cebpf4jnsgd1na2vs0mg"},{"bike_id":"2551df23-46eb-4dc9-b328-33c9a95ff7ca","system_id":"levelo_inurba_marseille","lat":43.292216,"lon":5.360625,"is_reserved":false,"is_disabled":true,"rental_uris":{"android":"levelo://app?vid=2551df23-46eb-4dc9-b328-33c9a95ff7ca","ios":"levelo://app?vid=2551df23-46eb-4dc9-b328-33c9a95ff7ca"},"vehicle_type_id":"4","last_reported":1744607458,"current_range_meters":13600,"station_id":"ce4bhbh2rcd13ifvqeqg","pricing_plan_id":"cebpf4jnsgd1na2vs0mg"},{"bike_id":"935a7e55-4cea-4394-8ed2-15f7e1ee706c","system_id":"levelo_inurba_marseille","lat":43.27253,"lon":5.431511,"is_reserved":false,"is_disabled":false,"rental_uris":{"android":"levelo://app?vid=935a7e55-4cea-4394-8ed2-15f7e1ee706c","ios":"levelo://app?vid=935a7e55-4cea-4394-8ed2-15f7e1ee706c"},"vehicle_type_id":"4","last_reported":1744607458,"current_range_meters":14000,"station_id":"","pricing_plan_id":"cebpf4jnsgd1na2vs0mg"},{"bike_id":"50f3a6ca-1b32-4e17-a21b-a50e16960e96","system_id":"levelo_inurba_marseille","lat":43.337766,"lon":5.374441,"is_reserved":false,"is_disabled":false,"rental_uris":{"android":"levelo://app?vid=50f3a6ca-1b32-4e17-a21b-a50e16960e96","ios":"levelo://app?vid=50f3a6ca-1b32-4e17-a21b-a50e16960e96"},"vehicle_type_id":"4","last_reported":1744607458,"current_range_meters":14000,"station_id":"","pricing_plan_id":"cebpf4jnsgd1na2vs0mg"},{"bike_id":"da48e56b-5b98-4592-a2ea-cf5907cac18b","system_id":"levelo_inurba_marseille","lat":43.337652,"lon":5.374374,"is_reserved":false,"is_disabled":false,"rental_uris":{"android":"levelo://app?vid=da48e56b-5b98-4592-a2ea-cf5907cac18b","ios":"levelo://app?vid=da48e56b-5b98-4592-a2ea-cf5907cac18b"},"vehicle_type_id":"4","last_reported":1744607458,"current_range_meters":14400,"station_id":"","pricing_plan_id":"cebpf4jnsgd1na2vs0mg"},{"bike_id":"86ac3ad7-4349-4b45-82d1-b61ad882a2f6","system_id":"levelo_inurba_marseille","lat":43.217427,"lon":5.346056,"is_reserved":false,"is_disabled":true,"rental_uris":{"android":"levelo://app?vid=86ac3ad7-4349-4b45-82d1-b61ad882a2f6","ios":"levelo://app?vid=86ac3ad7-4349-4b45-82d1-b61ad882a2f6"},"vehicle_type_id":"4","last_reported":1744607458,"current_range_meters":14800,"station_id":"st_cvj6r9ubvosntc0bgbag","pricing_plan_id":"cebpf4jnsgd1na2vs0mg"},{"bike_id":"5badbb30-e7bf-4735-8929-7b4b101f03b1","system_id":"levelo_inurba_marseille","lat":43.24167,"lon":5.36397,"is_reserved":false,"is_disabled":false,"rental_uris":{"android":"levelo://app?vid=5badbb30-e7bf-4735-8929-7b4b101f03b1","ios":"levelo://app?vid=5badbb30-e7bf-4735-8929-7b4b101f03b1"},"vehicle_type_id":"4","last_reported":1744607458,"current_range_meters":16000,"station_id":"cpo36qri1sfpv3e86is0","pricing_plan_id":"cebpf4jnsgd1na2vs0mg"},{"bike_id":"c2652164-c871-427c-840e-2dcb99169578","system_id":"levelo_inurba_marseille","lat":43.24671,"lon":5.38142,"is_reserved":false,"is_disabled":false,"rental_uris":{"android":"levelo://app?vid=c2652164-c871-427c-840e-2dcb99169578","ios":"levelo://app?vid=c2652164-c871-427c-840e-2dcb99169578"},"vehicle_type_id":"4","last_reported":1744607458,"current_range_meters":16000,"station_id":"ce4bhih2rcd13ifvqfr0","pricing_plan_id":"cebpf4jnsgd1na2vs0mg"},{"bike_id":"216a8464-4ea5-4b56-8cd6-224becea39c4","system_id":"levelo_inurba_marseille","lat":43.27851,"lon":5.40662,"is_reserved":false,"is_disabled":false,"rental_uris":{"android":"levelo://app?vid=216a8464-4ea5-4b56-8cd6-224becea39c4","ios":"levelo://app?vid=216a8464-4ea5-4b56-8cd6-224becea39c4"},"vehicle_type_id":"4","last_reported":1744607458,"current_range_meters":16000,"station_id":"","pricing_plan_id":"cebpf4jnsgd1na2vs0mg"},{"bike_id":"fb13c941-1858-46a4-86ad-2a5e302996c3","system_id":"levelo_inurba_marseille","lat":43.25859,"lon":5.399,"is_reserved":false,"is_disabled":true,"rental_uris":{"android":"levelo://app?vid=fb13c941-1858-46a4-86ad-2a5e302996c3","ios":"levelo://app?vid=fb13c941-1858-46a4-86ad-2a5e302996c3"},"vehicle_type_id":"4","last_reported":1744607458,"current_range_meters":16000,"station_id":"ce4bhl92rcd13ifvqghg","pricing_plan_id":"cebpf4jnsgd1na2vs0mg"},{"bike_id":"75512835-accd-4f82-bd48-3aaf74c0b892","system_id":"levelo_inurba_marseille","lat":43.3015,"lon":5.38079,"is_reserved":false,"is_disabled":false,"rental_uris":{"android":"levelo://app?vid=75512835-accd-4f82-bd48-3aaf74c0b892","ios":"levelo://app?vid=75512835-accd-4f82-bd48-3aaf74c0b892"},"vehicle_type_id":"4","last_reported":1744607458,"current_range_meters":15200,"station_id":"ce4bgjp2rcd13ifvqbh0","pricing_plan_id":"cebpf4jnsgd1na2vs0mg"},{"bike_id":"df49f249-4aa5-4aa6-9193-27ea889ed0d0","system_id":"levelo_inurba_marseille","lat":43.30439,"lon":5.389,"is_reserved":false,"is_disabled":true,"rental_uris":{"android":"levelo://app?vid=df49f249-4aa5-4aa6-9193-27ea889ed0d0","ios":"levelo://app?vid=df49f249-4aa5-4aa6-9193-27ea889ed0d0"},"vehicle_type_id":"4","last_reported":1744607458,"current_range_meters":16000,"station_id":"ce4bgk12rcd13ifvqbi0","pricing_plan_id":"cebpf4jnsgd1na2vs0mg"},{"bike_id":"9032fd9f-8258-4b06-828f-3216c8110290","system_id":"levelo_inurba_marseille","lat":43.30979,"lon":5.41731,"is_reserved":false,"is_disabled":false,"rental_uris":{"android":"levelo://app?vid=9032fd9f-8258-4b06-828f-3216c8110290","ios":"levelo://app?vid=9032fd9f-8258-4b06-828f-3216c8110290"},"vehicle_type_id":"4","last_reported":1744607458,"current_range_meters":16000,"station_id":"","pricing_plan_id":"cebpf4jnsgd1na2vs0mg"},{"bike_id":"7397fdfe-7e90-496c-9947-80ce65e17a33","system_id":"levelo_inurba_marseille","lat":43.27817,"lon":5.39216,"is_reserved":false,"is_disabled":false,"rental_uris":{"android":"levelo://app?vid=7397fdfe-7e90-496c-9947-80ce65e17a33","ios":"levelo://app?vid=7397fdfe-7e90-496c-9947-80ce65e17a33"},"vehicle_type_id":"4","last_reported":1744607458,"current_range_meters":16000,"station_id":"ce4bhjp2rcd13ifvqga0","pricing_plan_id":"cebpf4jnsgd1na2vs0mg"},{"bike_id":"8e84781a-82c3-4b14-a541-78f95f1999c0","system_id":"levelo_inurba_marseille","lat":43.27428,"lon":5.39371,"is_reserved":false,"is_disabled":true,"rental_uris":{"android":"levelo://app?vid=8e84781a-82c3-4b14-a541-78f95f1999c0","ios":"levelo://app?vid=8e84781a-82c3-4b14-a541-78f95f1999c0"},"vehicle_type_id":"4","last_reported":1744607458,"current_range_meters":16400,"station_id":"ce4bhdp2rcd13ifvqf20","pricing_plan_id":"cebpf4jnsgd1na2vs0mg"},{"bike_id":"59c7d7f9-492d-4240-b3d4-e8d1015f1ebd","system_id":"levelo_inurba_marseille","lat":43.21741,"lon":5.34617,"is_reserved":false,"is_disabled":true,"rental_uris":{"android":"levelo://app?vid=59c7d7f9-492d-4240-b3d4-e8d1015f1ebd","ios":"levelo://app?vid=59c7d7f9-492d-4240-b3d4-e8d1015f1ebd"},"vehicle_type_id":"4","last_reported":1744607458,"current_range_meters":16400,"station_id":"st_cvj6r9ubvosntc0bgbag","pricing_plan_id":"cebpf4jnsgd1na2vs0mg"},{"bike_id":"6c65b7ec-1b73-4a9b-9157-25ecb751c038","system_id":"levelo_inurba_marseille","lat":43.28667,"lon":5.38673,"is_reserved":false,"is_disabled":false,"rental_uris":{"android":"levelo://app?vid=6c65b7ec-1b73-4a9b-9157-25ecb751c038","ios":"levelo://app?vid=6c65b7ec-1b73-4a9b-9157-25ecb751c038"},"vehicle_type_id":"4","last_reported":1744607458,"current_range_meters":16400,"station_id":"ce4bh492rcd13ifvqdug","pricing_plan_id":"cebpf4jnsgd1na2vs0mg"},{"bike_id":"27a55245-8dd2-4f1a-af63-95a9d7b71690","system_id":"levelo_inurba_marseille","lat":43.31057,"lon":5.37829,"is_reserved":false,"is_disabled":true,"rental_uris":{"android":"levelo://app?vid=27a55245-8dd2-4f1a-af63-95a9d7b71690","ios":"levelo://app?vid=27a55245-8dd2-4f1a-af63-95a9d7b71690"},"vehicle_type_id":"4","last_reported":1744607458,"current_range_meters":16400,"station_id":"","pricing_plan_id":"cebpf4jnsgd1na2vs0mg"},{"bike_id":"3cb9671b-50f5-4729-8af7-61d7d3f36f51","system_id":"levelo_inurba_marseille","lat":43.29618,"lon":5.37156,"is_reserved":false,"is_disabled":false,"rental_uris":{"android":"levelo://app?vid=3cb9671b-50f5-4729-8af7-61d7d3f36f51","ios":"levelo://app?vid=3cb9671b-50f5-4729-8af7-61d7d3f36f51"},"vehicle_type_id":"4","last_reported":1744607458,"current_range_meters":16800,"station_id":"ce4bgnh2rcd13ifvqc0g","pricing_plan_id":"cebpf4jnsgd1na2vs0mg"},{"bike_id":"10f9e84f-2f08-49b5-bb9a-785f0bd93774","system_id":"levelo_inurba_marseille","lat":43.279919,"lon":5.400131,"is_reserved":false,"is_disabled":false,"rental_uris":{"android":"levelo://app?vid=10f9e84f-2f08-49b5-bb9a-785f0bd93774","ios":"levelo://app?vid=10f9e84f-2f08-49b5-bb9a-785f0bd93774"},"vehicle_type_id":"4","last_reported":1744607458,"current_range_meters":16800,"station_id":"ce4bho92rcd13ifvqh4g","pricing_plan_id":"cebpf4jnsgd1na2vs0mg"},{"bike_id":"61377ee4-fd99-4c2f-b5ad-a5ac167d945b","system_id":"levelo_inurba_marseille","lat":43.231547,"lon":5.436975,"is_reserved":false,"is_disabled":false,"rental_uris":{"android":"levelo://app?vid=61377ee4-fd99-4c2f-b5ad-a5ac167d945b","ios":"levelo://app?vid=61377ee4-fd99-4c2f-b5ad-a5ac167d945b"},"vehicle_type_id":"4","last_reported":1744607458,"current_range_meters":16800,"station_id":"ce4bhmp2rcd13ifvqgog","pricing_plan_id":"cebpf4jnsgd1na2vs0mg"},{"bike_id":"a6535ba8-9ced-4cad-b71b-a79f16af244f","system_id":"levelo_inurba_marseille","lat":43.246639,"lon":5.38161,"is_reserved":false,"is_disabled":false,"rental_uris":{"android":"levelo://app?vid=a6535ba8-9ced-4cad-b71b-a79f16af244f","ios":"levelo://app?vid=a6535ba8-9ced-4cad-b71b-a79f16af244f"},"vehicle_type_id":"4","last_reported":1744607458,"current_range_meters":17200,"station_id":"ce4bhih2rcd13ifvqfr0","pricing_plan_id":"cebpf4jnsgd1na2vs0mg"},{"bike_id":"b456b85c-8928-4a5a-9171-1132c2572ebe","system_id":"levelo_inurba_marseille","lat":43.267913,"lon":5.402576,"is_reserved":false,"is_disabled":false,"rental_uris":{"android":"levelo://app?vid=b456b85c-8928-4a5a-9171-1132c2572ebe","ios":"levelo://app?vid=b456b85c-8928-4a5a-9171-1132c2572ebe"},"vehicle_type_id":"4","last_reported":1744607458,"current_range_meters":17200,"station_id":"ce501612rcd8frsf0b60","pricing_plan_id":"cebpf4jnsgd1na2vs0mg"},{"bike_id":"72ecbc85-7cd1-4418-be98-d8877b1e610a","system_id":"levelo_inurba_marseille","lat":43.28938,"lon":5.36643,"is_reserved":false,"is_disabled":false,"rental_uris":{"android":"levelo://app?vid=72ecbc85-7cd1-4418-be98-d8877b1e610a","ios":"levelo://app?vid=72ecbc85-7cd1-4418-be98-d8877b1e610a"},"vehicle_type_id":"4","last_reported":1744607458,"current_range_meters":17200,"station_id":"ce4bhap2rcd13ifvqek0","pricing_plan_id":"cebpf4jnsgd1na2vs0mg"},{"bike_id":"7068e823-0ef7-4bec-9d46-9774d9ea3ba0","system_id":"levelo_inurba_marseille","lat":43.31495,"lon":5.37307,"is_reserved":false,"is_disabled":false,"rental_uris":{"android":"levelo://app?vid=7068e823-0ef7-4bec-9d46-9774d9ea3ba0","ios":"levelo://app?vid=7068e823-0ef7-4bec-9d46-9774d9ea3ba0"},"vehicle_type_id":"4","last_reported":1744607458,"current_range_meters":17200,"station_id":"ce4bgt12rcd13ifvqcd0","pricing_plan_id":"cebpf4jnsgd1na2vs0mg"},{"bike_id":"ac3c167b-6aff-4193-8f82-b9a885edc17c","system_id":"levelo_inurba_marseille","lat":43.28864,"lon":5.35838,"is_reserved":false,"is_disabled":false,"rental_uris":{"android":"levelo://app?vid=ac3c167b-6aff-4193-8f82-b9a885edc17c","ios":"levelo://app?vid=ac3c167b-6aff-4193-8f82-b9a885edc17c"},"vehicle_type_id":"4","last_reported":1744607458,"current_range_meters":17200,"station_id":"ce4bhb12rcd13ifvqem0","pricing_plan_id":"cebpf4jnsgd1na2vs0mg"},{"bike_id":"407a54c4-ce42-4e1a-bc9b-9b8f2ef8a27a","system_id":"levelo_inurba_marseille","lat":43.32413,"lon":5.39122,"is_reserved":false,"is_disabled":false,"rental_uris":{"android":"levelo://app?vid=407a54c4-ce42-4e1a-bc9b-9b8f2ef8a27a","ios":"levelo://app?vid=407a54c4-ce42-4e1a-bc9b-9b8f2ef8a27a"},"vehicle_type_id":"4","last_reported":1744607458,"current_range_meters":17600,"station_id":"","pricing_plan_id":"cebpf4jnsgd1na2vs0mg"},{"bike_id":"626065a0-5dba-4dd3-94f8-76bb3800d58f","system_id":"levelo_inurba_marseille","lat":43.25717,"lon":5.41106,"is_reserved":false,"is_disabled":false,"rental_uris":{"android":"levelo://app?vid=626065a0-5dba-4dd3-94f8-76bb3800d58f","ios":"levelo://app?vid=626065a0-5dba-4dd3-94f8-76bb3800d58f"},"vehicle_type_id":"4","last_reported":1744607458,"current_range_meters":17600,"station_id":"ce4bhkp2rcd13ifvqgd0","pricing_plan_id":"cebpf4jnsgd1na2vs0mg"},{"bike_id":"a818834f-725d-4dbb-9bab-d3518b1b13c4","system_id":"levelo_inurba_marseille","lat":43.32363,"lon":5.36798,"is_reserved":false,"is_disabled":false,"rental_uris":{"android":"levelo://app?vid=a818834f-725d-4dbb-9bab-d3518b1b13c4","ios":"levelo://app?vid=a818834f-725d-4dbb-9bab-d3518b1b13c4"},"vehicle_type_id":"4","last_reported":1744607458,"current_range_meters":17600,"station_id":"ce4bhsh2rcd13ifvqi2g","pricing_plan_id":"cebpf4jnsgd1na2vs0mg"},{"bike_id":"08e69920-6699-44a2-bf5e-065531bec167","system_id":"levelo_inurba_marseille","lat":43.29269,"lon":5.401219,"is_reserved":false,"is_disabled":true,"rental_uris":{"android":"levelo://app?vid=08e69920-6699-44a2-bf5e-065531bec167","ios":"levelo://app?vid=08e69920-6699-44a2-bf5e-065531bec167"},"vehicle_type_id":"4","last_reported":1744607458,"current_range_meters":17600,"station_id":"ce4bh312rcd13ifvqdk0","pricing_plan_id":"cebpf4jnsgd1na2vs0mg"},{"bike_id":"56135a82-d19f-45ea-a72c-58b1131d0fcb","system_id":"levelo_inurba_marseille","lat":43.28084,"lon":5.39676,"is_reserved":false,"is_disabled":true,"rental_uris":{"android":"levelo://app?vid=56135a82-d19f-45ea-a72c-58b1131d0fcb","ios":"levelo://app?vid=56135a82-d19f-45ea-a72c-58b1131d0fcb"},"vehicle_type_id":"4","last_reported":1744607458,"current_range_meters":17600,"station_id":"ce4bho12rcd13ifvqh2g","pricing_plan_id":"cebpf4jnsgd1na2vs0mg"},{"bike_id":"a60d7b62-256e-4184-956a-1f073b4fcf42","system_id":"levelo_inurba_marseille","lat":43.299379,"lon":5.365401,"is_reserved":false,"is_disabled":false,"rental_uris":{"android":"levelo://app?vid=a60d7b62-256e-4184-956a-1f073b4fcf42","ios":"levelo://app?vid=a60d7b62-256e-4184-956a-1f073b4fcf42"},"vehicle_type_id":"4","last_reported":1744607458,"current_range_meters":17600,"station_id":"ce4bgm92rcd13ifvqbr0","pricing_plan_id":"cebpf4jnsgd1na2vs0mg"},{"bike_id":"e1cdcd88-4a6b-4a95-887f-82f9936440ef","system_id":"levelo_inurba_marseille","lat":43.32516,"lon":5.41459,"is_reserved":false,"is_disabled":false,"rental_uris":{"android":"levelo://app?vid=e1cdcd88-4a6b-4a95-887f-82f9936440ef","ios":"levelo://app?vid=e1cdcd88-4a6b-4a95-887f-82f9936440ef"},"vehicle_type_id":"4","last_reported":1744607458,"current_range_meters":18000,"station_id":"ce4bhq12rcd13ifvqhhg","pricing_plan_id":"cebpf4jnsgd1na2vs0mg"},{"bike_id":"301f53d6-0a8d-48c7-b250-860880def1f4","system_id":"levelo_inurba_marseille","lat":43.310293,"lon":5.371101,"is_reserved":false,"is_disabled":false,"rental_uris":{"android":"levelo://app?vid=301f53d6-0a8d-48c7-b250-860880def1f4","ios":"levelo://app?vid=301f53d6-0a8d-48c7-b250-860880def1f4"},"vehicle_type_id":"4","last_reported":1744607458,"current_range_meters":18000,"station_id":"","pricing_plan_id":"cebpf4jnsgd1na2vs0mg"},{"bike_id":"7c2a4588-bcf7-4c8d-b580-ff8de5ba6372","system_id":"levelo_inurba_marseille","lat":43.287264,"lon":5.400018,"is_reserved":false,"is_disabled":true,"rental_uris":{"android":"levelo://app?vid=7c2a4588-bcf7-4c8d-b580-ff8de5ba6372","ios":"levelo://app?vid=7c2a4588-bcf7-4c8d-b580-ff8de5ba6372"},"vehicle_type_id":"4","last_reported":1744607458,"current_range_meters":18000,"station_id":"ce4bho92rcd13ifvqh3g","pricing_plan_id":"cebpf4jnsgd1na2vs0mg"},{"bike_id":"92acc3ad-3130-40c6-a9a1-3c9cc354f998","system_id":"levelo_inurba_marseille","lat":43.24382,"lon":5.37077,"is_reserved":false,"is_disabled":false,"rental_uris":{"android":"levelo://app?vid=92acc3ad-3130-40c6-a9a1-3c9cc354f998","ios":"levelo://app?vid=92acc3ad-3130-40c6-a9a1-3c9cc354f998"},"vehicle_type_id":"4","last_reported":1744607458,"current_range_meters":18000,"station_id":"ce4bhhh2rcd13ifvqfk0","pricing_plan_id":"cebpf4jnsgd1na2vs0mg"},{"bike_id":"a8791189-08ab-44ed-9124-c68d4aa71e0a","system_id":"levelo_inurba_marseille","lat":43.28735,"lon":5.39959,"is_reserved":false,"is_disabled":false,"rental_uris":{"android":"levelo://app?vid=a8791189-08ab-44ed-9124-c68d4aa71e0a","ios":"levelo://app?vid=a8791189-08ab-44ed-9124-c68d4aa71e0a"},"vehicle_type_id":"4","last_reported":1744607458,"current_range_meters":18000,"station_id":"ce4bho92rcd13ifvqh3g","pricing_plan_id":"cebpf4jnsgd1na2vs0mg"},{"bike_id":"91cd5f61-fcd7-440a-9c95-b35a968d1ead","system_id":"levelo_inurba_marseille","lat":43.25704,"lon":5.41141,"is_reserved":false,"is_disabled":false,"rental_uris":{"android":"levelo://app?vid=91cd5f61-fcd7-440a-9c95-b35a968d1ead","ios":"levelo://app?vid=91cd5f61-fcd7-440a-9c95-b35a968d1ead"},"vehicle_type_id":"4","last_reported":1744607458,"current_range_meters":18000,"station_id":"ce4bhkp2rcd13ifvqgd0","pricing_plan_id":"cebpf4jnsgd1na2vs0mg"},{"bike_id":"86507adb-43c1-4a89-acc7-c74cd80a099f","system_id":"levelo_inurba_marseille","lat":43.231273,"lon":5.366691,"is_reserved":false,"is_disabled":false,"rental_uris":{"android":"levelo://app?vid=86507adb-43c1-4a89-acc7-c74cd80a099f","ios":"levelo://app?vid=86507adb-43c1-4a89-acc7-c74cd80a099f"},"vehicle_type_id":"4","last_reported":1744607458,"current_range_meters":18000,"station_id":"","pricing_plan_id":"cebpf4jnsgd1na2vs0mg"},{"bike_id":"46e1fc9d-0b93-4a87-b368-562a1bf4c38d","system_id":"levelo_inurba_marseille","lat":43.34129,"lon":5.4092,"is_reserved":false,"is_disabled":false,"rental_uris":{"android":"levelo://app?vid=46e1fc9d-0b93-4a87-b368-562a1bf4c38d","ios":"levelo://app?vid=46e1fc9d-0b93-4a87-b368-562a1bf4c38d"},"vehicle_type_id":"4","last_reported":1744607458,"current_range_meters":18000,"station_id":"ce4bhqh2rcd13ifvqhlg","pricing_plan_id":"cebpf4jnsgd1na2vs0mg"},{"bike_id":"ec55715f-50ef-4b62-b932-d89df8729be7","system_id":"levelo_inurba_marseille","lat":43.31593,"lon":5.38868,"is_reserved":false,"is_disabled":false,"rental_uris":{"android":"levelo://app?vid=ec55715f-50ef-4b62-b932-d89df8729be7","ios":"levelo://app?vid=ec55715f-50ef-4b62-b932-d89df8729be7"},"vehicle_type_id":"4","last_reported":1744607458,"current_range_meters":18800,"station_id":"","pricing_plan_id":"cebpf4jnsgd1na2vs0mg"},{"bike_id":"86c06b03-5d3d-487a-bec3-c7d20381f28b","system_id":"levelo_inurba_marseille","lat":43.290163,"lon":5.381436,"is_reserved":false,"is_disabled":true,"rental_uris":{"android":"levelo://app?vid=86c06b03-5d3d-487a-bec3-c7d20381f28b","ios":"levelo://app?vid=86c06b03-5d3d-487a-bec3-c7d20381f28b"},"vehicle_type_id":"4","last_reported":1744607458,"current_range_meters":18800,"station_id":"ce4bh4p2rcd13ifvqe1g","pricing_plan_id":"cebpf4jnsgd1na2vs0mg"},{"bike_id":"fb699e76-3264-4e44-9571-0622c9467b82","system_id":"levelo_inurba_marseille","lat":43.27922,"lon":5.396,"is_reserved":false,"is_disabled":false,"rental_uris":{"android":"levelo://app?vid=fb699e76-3264-4e44-9571-0622c9467b82","ios":"levelo://app?vid=fb699e76-3264-4e44-9571-0622c9467b82"},"vehicle_type_id":"4","last_reported":1744607458,"current_range_meters":19200,"station_id":"ce4bhf92rcd13ifvqf40","pricing_plan_id":"cebpf4jnsgd1na2vs0mg"},{"bike_id":"9ccaf1e8-d14c-4218-be36-430bac425c11","system_id":"levelo_inurba_marseille","lat":43.30616,"lon":5.39383,"is_reserved":false,"is_disabled":true,"rental_uris":{"android":"levelo://app?vid=9ccaf1e8-d14c-4218-be36-430bac425c11","ios":"levelo://app?vid=9ccaf1e8-d14c-4218-be36-430bac425c11"},"vehicle_type_id":"4","last_reported":1744607458,"current_range_meters":19200,"station_id":"ce4bh0p2rcd13ifvqd80","pricing_plan_id":"cebpf4jnsgd1na2vs0mg"},{"bike_id":"2f601a2d-782e-46f1-9cec-c8e17e6431fb","system_id":"levelo_inurba_marseille","lat":43.3095,"lon":5.39043,"is_reserved":false,"is_disabled":false,"rental_uris":{"android":"levelo://app?vid=2f601a2d-782e-46f1-9cec-c8e17e6431fb","ios":"levelo://app?vid=2f601a2d-782e-46f1-9cec-c8e17e6431fb"},"vehicle_type_id":"4","last_reported":1744607458,"current_range_meters":19200,"station_id":"ce4bgup2rcd13ifvqco0","pricing_plan_id":"cebpf4jnsgd1na2vs0mg"},{"bike_id":"1db2c28a-e0ef-4f48-818f-eb01d86707b7","system_id":"levelo_inurba_marseille","lat":43.292569,"lon":5.409102,"is_reserved":false,"is_disabled":true,"rental_uris":{"android":"levelo://app?vid=1db2c28a-e0ef-4f48-818f-eb01d86707b7","ios":"levelo://app?vid=1db2c28a-e0ef-4f48-818f-eb01d86707b7"},"vehicle_type_id":"4","last_reported":1744607458,"current_range_meters":19200,"station_id":"ce4bh192rcd13ifvqdc0","pricing_plan_id":"cebpf4jnsgd1na2vs0mg"},{"bike_id":"382a1a40-cce5-4bcf-8677-ad51fb5a2457","system_id":"levelo_inurba_marseille","lat":43.288538,"lon":5.393258,"is_reserved":false,"is_disabled":true,"rental_uris":{"android":"levelo://app?vid=382a1a40-cce5-4bcf-8677-ad51fb5a2457","ios":"levelo://app?vid=382a1a40-cce5-4bcf-8677-ad51fb5a2457"},"vehicle_type_id":"4","last_reported":1744607458,"current_range_meters":19200,"station_id":"ce4bh2p2rcd13ifvqdi0","pricing_plan_id":"cebpf4jnsgd1na2vs0mg"},{"bike_id":"05ef945a-87ec-42f8-9aba-7b0a3ccc320a","system_id":"levelo_inurba_marseille","lat":43.31712,"lon":5.42407,"is_reserved":false,"is_disabled":false,"rental_uris":{"android":"levelo://app?vid=05ef945a-87ec-42f8-9aba-7b0a3ccc320a","ios":"levelo://app?vid=05ef945a-87ec-42f8-9aba-7b0a3ccc320a"},"vehicle_type_id":"4","last_reported":1744607458,"current_range_meters":19200,"station_id":"ce4bhp92rcd13ifvqhbg","pricing_plan_id":"cebpf4jnsgd1na2vs0mg"},{"bike_id":"577ffec8-632b-4e30-b8cf-6b3da4fe608a","system_id":"levelo_inurba_marseille","lat":43.25724,"lon":5.4173,"is_reserved":false,"is_disabled":false,"rental_uris":{"android":"levelo://app?vid=577ffec8-632b-4e30-b8cf-6b3da4fe608a","ios":"levelo://app?vid=577ffec8-632b-4e30-b8cf-6b3da4fe608a"},"vehicle_type_id":"4","last_reported":1744607458,"current_range_meters":19200,"station_id":"","pricing_plan_id":"cebpf4jnsgd1na2vs0mg"},{"bike_id":"730c5e85-5d7c-4ba0-bad9-be798910c304","system_id":"levelo_inurba_marseille","lat":43.29453,"lon":5.3975,"is_reserved":false,"is_disabled":false,"rental_uris":{"android":"levelo://app?vid=730c5e85-5d7c-4ba0-bad9-be798910c304","ios":"levelo://app?vid=730c5e85-5d7c-4ba0-bad9-be798910c304"},"vehicle_type_id":"4","last_reported":1744607458,"current_range_meters":19600,"station_id":"ce4bh3h2rcd13ifvqdo0","pricing_plan_id":"cebpf4jnsgd1na2vs0mg"},{"bike_id":"37aab643-a03b-4324-b0c2-f9b062aff4f0","system_id":"levelo_inurba_marseille","lat":43.30139,"lon":5.38072,"is_reserved":false,"is_disabled":false,"rental_uris":{"android":"levelo://app?vid=37aab643-a03b-4324-b0c2-f9b062aff4f0","ios":"levelo://app?vid=37aab643-a03b-4324-b0c2-f9b062aff4f0"},"vehicle_type_id":"4","last_reported":1744607458,"current_range_meters":19600,"station_id":"ce4bgjp2rcd13ifvqbh0","pricing_plan_id":"cebpf4jnsgd1na2vs0mg"},{"bike_id":"177c0557-58ff-4f4f-9a4b-4b8689a6410b","system_id":"levelo_inurba_marseille","lat":43.287056,"lon":5.399953,"is_reserved":false,"is_disabled":false,"rental_uris":{"android":"levelo://app?vid=177c0557-58ff-4f4f-9a4b-4b8689a6410b","ios":"levelo://app?vid=177c0557-58ff-4f4f-9a4b-4b8689a6410b"},"vehicle_type_id":"4","last_reported":1744607458,"current_range_meters":19600,"station_id":"ce4bho92rcd13ifvqh3g","pricing_plan_id":"cebpf4jnsgd1na2vs0mg"},{"bike_id":"d2d37f01-fa46-4fbc-a721-7789f4003663","system_id":"levelo_inurba_marseille","lat":43.24975,"lon":5.38961,"is_reserved":false,"is_disabled":false,"rental_uris":{"android":"levelo://app?vid=d2d37f01-fa46-4fbc-a721-7789f4003663","ios":"levelo://app?vid=d2d37f01-fa46-4fbc-a721-7789f4003663"},"vehicle_type_id":"4","last_reported":1744607458,"current_range_meters":19600,"station_id":"ce4bhgp2rcd13ifvqfd0","pricing_plan_id":"cebpf4jnsgd1na2vs0mg"},{"bike_id":"605dd58f-f426-4430-a476-fb56d2facab6","system_id":"levelo_inurba_marseille","lat":43.336036,"lon":5.410059,"is_reserved":false,"is_disabled":false,"rental_uris":{"android":"levelo://app?vid=605dd58f-f426-4430-a476-fb56d2facab6","ios":"levelo://app?vid=605dd58f-f426-4430-a476-fb56d2facab6"},"vehicle_type_id":"4","last_reported":1744607458,"current_range_meters":19600,"station_id":"ce4bhqh2rcd13ifvqhmg","pricing_plan_id":"cebpf4jnsgd1na2vs0mg"},{"bike_id":"0c89cc46-3a4b-4000-b641-0c7712c59585","system_id":"levelo_inurba_marseille","lat":43.30308,"lon":5.37513,"is_reserved":false,"is_disabled":true,"rental_uris":{"android":"levelo://app?vid=0c89cc46-3a4b-4000-b641-0c7712c59585","ios":"levelo://app?vid=0c89cc46-3a4b-4000-b641-0c7712c59585"},"vehicle_type_id":"4","last_reported":1744607458,"current_range_meters":19600,"station_id":"","pricing_plan_id":"cebpf4jnsgd1na2vs0mg"},{"bike_id":"e951b6c2-47b9-4111-a7ec-03f8051784e9","system_id":"levelo_inurba_marseille","lat":43.259296,"lon":5.409062,"is_reserved":false,"is_disabled":false,"rental_uris":{"android":"levelo://app?vid=e951b6c2-47b9-4111-a7ec-03f8051784e9","ios":"levelo://app?vid=e951b6c2-47b9-4111-a7ec-03f8051784e9"},"vehicle_type_id":"4","last_reported":1744607458,"current_range_meters":19600,"station_id":"ce4bhm92rcd13ifvqglg","pricing_plan_id":"cebpf4jnsgd1na2vs0mg"},{"bike_id":"f2b958c0-24a2-4e27-9609-9870f4395933","system_id":"levelo_inurba_marseille","lat":43.290444,"lon":5.399906,"is_reserved":false,"is_disabled":true,"rental_uris":{"android":"levelo://app?vid=f2b958c0-24a2-4e27-9609-9870f4395933","ios":"levelo://app?vid=f2b958c0-24a2-4e27-9609-9870f4395933"},"vehicle_type_id":"4","last_reported":1744607458,"current_range_meters":20000,"station_id":"ce4bh392rcd13ifvqdm0","pricing_plan_id":"cebpf4jnsgd1na2vs0mg"},{"bike_id":"1e8cc7af-6955-45de-96fb-b930b948e842","system_id":"levelo_inurba_marseille","lat":43.30601,"lon":5.39353,"is_reserved":false,"is_disabled":false,"rental_uris":{"android":"levelo://app?vid=1e8cc7af-6955-45de-96fb-b930b948e842","ios":"levelo://app?vid=1e8cc7af-6955-45de-96fb-b930b948e842"},"vehicle_type_id":"4","last_reported":1744607458,"current_range_meters":20000,"station_id":"ce4bh0p2rcd13ifvqd80","pricing_plan_id":"cebpf4jnsgd1na2vs0mg"},{"bike_id":"468f8b85-c30d-4a82-a61b-d8ed9e522211","system_id":"levelo_inurba_marseille","lat":43.284533,"lon":5.358808,"is_reserved":false,"is_disabled":false,"rental_uris":{"android":"levelo://app?vid=468f8b85-c30d-4a82-a61b-d8ed9e522211","ios":"levelo://app?vid=468f8b85-c30d-4a82-a61b-d8ed9e522211"},"vehicle_type_id":"4","last_reported":1744607458,"current_range_meters":20000,"station_id":"ce4bhah2rcd13ifvqei0","pricing_plan_id":"cebpf4jnsgd1na2vs0mg"},{"bike_id":"8ba8da06-09b4-4e35-9af5-e823a105a352","system_id":"levelo_inurba_marseille","lat":43.23055,"lon":5.35522,"is_reserved":false,"is_disabled":false,"rental_uris":{"android":"levelo://app?vid=8ba8da06-09b4-4e35-9af5-e823a105a352","ios":"levelo://app?vid=8ba8da06-09b4-4e35-9af5-e823a105a352"},"vehicle_type_id":"4","last_reported":1744607458,"current_range_meters":20000,"station_id":"cpo3342slgdg3j2ifvpg","pricing_plan_id":"cebpf4jnsgd1na2vs0mg"},{"bike_id":"7b373de9-a4fc-42ba-a0cd-5e438d52420c","system_id":"levelo_inurba_marseille","lat":43.2791,"lon":5.39595,"is_reserved":false,"is_disabled":false,"rental_uris":{"android":"levelo://app?vid=7b373de9-a4fc-42ba-a0cd-5e438d52420c","ios":"levelo://app?vid=7b373de9-a4fc-42ba-a0cd-5e438d52420c"},"vehicle_type_id":"4","last_reported":1744607458,"current_range_meters":20000,"station_id":"ce4bhf92rcd13ifvqf40","pricing_plan_id":"cebpf4jnsgd1na2vs0mg"},{"bike_id":"d3ef79fd-6570-4243-bf7a-f37d60285df3","system_id":"levelo_inurba_marseille","lat":43.24166,"lon":5.36397,"is_reserved":false,"is_disabled":false,"rental_uris":{"android":"levelo://app?vid=d3ef79fd-6570-4243-bf7a-f37d60285df3","ios":"levelo://app?vid=d3ef79fd-6570-4243-bf7a-f37d60285df3"},"vehicle_type_id":"4","last_reported":1744607458,"current_range_meters":20000,"station_id":"cpo36qri1sfpv3e86is0","pricing_plan_id":"cebpf4jnsgd1na2vs0mg"},{"bike_id":"7b98c8bb-62d9-4cd3-a36f-0a17b94f78cd","system_id":"levelo_inurba_marseille","lat":43.23475,"lon":5.38098,"is_reserved":false,"is_disabled":false,"rental_uris":{"android":"levelo://app?vid=7b98c8bb-62d9-4cd3-a36f-0a17b94f78cd","ios":"levelo://app?vid=7b98c8bb-62d9-4cd3-a36f-0a17b94f78cd"},"vehicle_type_id":"4","last_reported":1744607458,"current_range_meters":20000,"station_id":"","pricing_plan_id":"cebpf4jnsgd1na2vs0mg"},{"bike_id":"af757c1b-a0cd-42a7-b400-8982e931e188","system_id":"levelo_inurba_marseille","lat":43.303147,"lon":5.369002,"is_reserved":false,"is_disabled":false,"rental_uris":{"android":"levelo://app?vid=af757c1b-a0cd-42a7-b400-8982e931e188","ios":"levelo://app?vid=af757c1b-a0cd-42a7-b400-8982e931e188"},"vehicle_type_id":"4","last_reported":1744607458,"current_range_meters":20000,"station_id":"ce4bgqh2rcd13ifvqc5g","pricing_plan_id":"cebpf4jnsgd1na2vs0mg"},{"bike_id":"205a676e-388e-4b5d-b5d4-92bca6b76c07","system_id":"levelo_inurba_marseille","lat":43.31155,"lon":5.38016,"is_reserved":false,"is_disabled":false,"rental_uris":{"android":"levelo://app?vid=205a676e-388e-4b5d-b5d4-92bca6b76c07","ios":"levelo://app?vid=205a676e-388e-4b5d-b5d4-92bca6b76c07"},"vehicle_type_id":"4","last_reported":1744607458,"current_range_meters":20000,"station_id":"","pricing_plan_id":"cebpf4jnsgd1na2vs0mg"},{"bike_id":"469cac9e-0c72-4c46-a796-98a152ab1135","system_id":"levelo_inurba_marseille","lat":43.235176,"lon":5.413569,"is_reserved":false,"is_disabled":false,"rental_uris":{"android":"levelo://app?vid=469cac9e-0c72-4c46-a796-98a152ab1135","ios":"levelo://app?vid=469cac9e-0c72-4c46-a796-98a152ab1135"},"vehicle_type_id":"4","last_reported":1744607458,"current_range_meters":20400,"station_id":"","pricing_plan_id":"cebpf4jnsgd1na2vs0mg"},{"bike_id":"c0ffe76e-b668-4d21-b25f-70d22747b3e4","system_id":"levelo_inurba_marseille","lat":43.25715,"lon":5.41117,"is_reserved":false,"is_disabled":false,"rental_uris":{"android":"levelo://app?vid=c0ffe76e-b668-4d21-b25f-70d22747b3e4","ios":"levelo://app?vid=c0ffe76e-b668-4d21-b25f-70d22747b3e4"},"vehicle_type_id":"4","last_reported":1744607458,"current_range_meters":20400,"station_id":"ce4bhkp2rcd13ifvqgd0","pricing_plan_id":"cebpf4jnsgd1na2vs0mg"},{"bike_id":"210be4f5-eff8-4587-a03a-d7c18e2294e0","system_id":"levelo_inurba_marseille","lat":43.25115,"lon":5.40324,"is_reserved":false,"is_disabled":false,"rental_uris":{"android":"levelo://app?vid=210be4f5-eff8-4587-a03a-d7c18e2294e0","ios":"levelo://app?vid=210be4f5-eff8-4587-a03a-d7c18e2294e0"},"vehicle_type_id":"4","last_reported":1744607458,"current_range_meters":20400,"station_id":"ce4bhlh2rcd13ifvqgig","pricing_plan_id":"cebpf4jnsgd1na2vs0mg"},{"bike_id":"8712c4fb-fd70-4efb-a2f3-0da4120a3f95","system_id":"levelo_inurba_marseille","lat":43.31183,"lon":5.38708,"is_reserved":false,"is_disabled":true,"rental_uris":{"android":"levelo://app?vid=8712c4fb-fd70-4efb-a2f3-0da4120a3f95","ios":"levelo://app?vid=8712c4fb-fd70-4efb-a2f3-0da4120a3f95"},"vehicle_type_id":"4","last_reported":1744607458,"current_range_meters":20400,"station_id":"ce4bgv12rcd13ifvqcp0","pricing_plan_id":"cebpf4jnsgd1na2vs0mg"},{"bike_id":"bbaf0c83-6bba-46e5-8e6f-9127105744be","system_id":"levelo_inurba_marseille","lat":43.26802,"lon":5.40242,"is_reserved":false,"is_disabled":false,"rental_uris":{"android":"levelo://app?vid=bbaf0c83-6bba-46e5-8e6f-9127105744be","ios":"levelo://app?vid=bbaf0c83-6bba-46e5-8e6f-9127105744be"},"vehicle_type_id":"4","last_reported":1744607458,"current_range_meters":20800,"station_id":"ce501612rcd8frsf0b60","pricing_plan_id":"cebpf4jnsgd1na2vs0mg"},{"bike_id":"b3ea20ce-5604-45b6-ace7-cad39f4f56d5","system_id":"levelo_inurba_marseille","lat":43.29689,"lon":5.36336,"is_reserved":false,"is_disabled":false,"rental_uris":{"android":"levelo://app?vid=b3ea20ce-5604-45b6-ace7-cad39f4f56d5","ios":"levelo://app?vid=b3ea20ce-5604-45b6-ace7-cad39f4f56d5"},"vehicle_type_id":"4","last_reported":1744607458,"current_range_meters":20800,"station_id":"","pricing_plan_id":"cebpf4jnsgd1na2vs0mg"},{"bike_id":"d2e7b202-c0a7-4bdc-b207-26c7ead4fb9c","system_id":"levelo_inurba_marseille","lat":43.265489,"lon":5.373125,"is_reserved":false,"is_disabled":true,"rental_uris":{"android":"levelo://app?vid=d2e7b202-c0a7-4bdc-b207-26c7ead4fb9c","ios":"levelo://app?vid=d2e7b202-c0a7-4bdc-b207-26c7ead4fb9c"},"vehicle_type_id":"4","last_reported":1744607458,"current_range_meters":20800,"station_id":"ce4bhg12rcd13ifvqf70","pricing_plan_id":"cebpf4jnsgd1na2vs0mg"},{"bike_id":"80f053ef-e33b-4a29-aa28-851a89dc91ac","system_id":"levelo_inurba_marseille","lat":43.28685,"lon":5.40003,"is_reserved":false,"is_disabled":false,"rental_uris":{"android":"levelo://app?vid=80f053ef-e33b-4a29-aa28-851a89dc91ac","ios":"levelo://app?vid=80f053ef-e33b-4a29-aa28-851a89dc91ac"},"vehicle_type_id":"4","last_reported":1744607458,"current_range_meters":20800,"station_id":"ce4bho92rcd13ifvqh3g","pricing_plan_id":"cebpf4jnsgd1na2vs0mg"},{"bike_id":"8ba444c2-d8e1-42ae-9dd8-6b48744e7629","system_id":"levelo_inurba_marseille","lat":43.309079,"lon":5.366819,"is_reserved":false,"is_disabled":true,"rental_uris":{"android":"levelo://app?vid=8ba444c2-d8e1-42ae-9dd8-6b48744e7629","ios":"levelo://app?vid=8ba444c2-d8e1-42ae-9dd8-6b48744e7629"},"vehicle_type_id":"4","last_reported":1744607458,"current_range_meters":21600,"station_id":"","pricing_plan_id":"cebpf4jnsgd1na2vs0mg"},{"bike_id":"40e32cee-9c94-4ec8-8cc1-dfc745c5629a","system_id":"levelo_inurba_marseille","lat":43.241708,"lon":5.364059,"is_reserved":false,"is_disabled":false,"rental_uris":{"android":"levelo://app?vid=40e32cee-9c94-4ec8-8cc1-dfc745c5629a","ios":"levelo://app?vid=40e32cee-9c94-4ec8-8cc1-dfc745c5629a"},"vehicle_type_id":"4","last_reported":1744607458,"current_range_meters":21600,"station_id":"cpo36qri1sfpv3e86is0","pricing_plan_id":"cebpf4jnsgd1na2vs0mg"},{"bike_id":"d3a6e040-4c66-4701-9487-0913f4157ba8","system_id":"levelo_inurba_marseille","lat":43.27515,"lon":5.42458,"is_reserved":false,"is_disabled":false,"rental_uris":{"android":"levelo://app?vid=d3a6e040-4c66-4701-9487-0913f4157ba8","ios":"levelo://app?vid=d3a6e040-4c66-4701-9487-0913f4157ba8"},"vehicle_type_id":"4","last_reported":1744607458,"current_range_meters":22000,"station_id":"ce4bhn92rcd13ifvqgrg","pricing_plan_id":"cebpf4jnsgd1na2vs0mg"},{"bike_id":"1bbf1fe4-cc43-4347-a86d-8e9b83aa164f","system_id":"levelo_inurba_marseille","lat":43.28712,"lon":5.37376,"is_reserved":false,"is_disabled":false,"rental_uris":{"android":"levelo://app?vid=1bbf1fe4-cc43-4347-a86d-8e9b83aa164f","ios":"levelo://app?vid=1bbf1fe4-cc43-4347-a86d-8e9b83aa164f"},"vehicle_type_id":"4","last_reported":1744607458,"current_range_meters":22000,"station_id":"ce4bh3p2rcd13ifvqdq0","pricing_plan_id":"cebpf4jnsgd1na2vs0mg"},{"bike_id":"eda67c80-ce7e-4d04-9da3-e0218af0fb5d","system_id":"levelo_inurba_marseille","lat":43.23188,"lon":5.399926,"is_reserved":false,"is_disabled":true,"rental_uris":{"android":"levelo://app?vid=eda67c80-ce7e-4d04-9da3-e0218af0fb5d","ios":"levelo://app?vid=eda67c80-ce7e-4d04-9da3-e0218af0fb5d"},"vehicle_type_id":"4","last_reported":1744607458,"current_range_meters":22400,"station_id":"ce4bhn12rcd13ifvqgqg","pricing_plan_id":"cebpf4jnsgd1na2vs0mg"},{"bike_id":"12fa8c2b-ae7c-4e8e-9096-066e0ad31116","system_id":"levelo_inurba_marseille","lat":43.2825,"lon":5.3506,"is_reserved":false,"is_disabled":false,"rental_uris":{"android":"levelo://app?vid=12fa8c2b-ae7c-4e8e-9096-066e0ad31116","ios":"levelo://app?vid=12fa8c2b-ae7c-4e8e-9096-066e0ad31116"},"vehicle_type_id":"4","last_reported":1744607458,"current_range_meters":22400,"station_id":"ce4bhbp2rcd13ifvqerg","pricing_plan_id":"cebpf4jnsgd1na2vs0mg"},{"bike_id":"6cf15e6f-3fea-4b9b-877e-f3ad3b3033e3","system_id":"levelo_inurba_marseille","lat":43.28703,"lon":5.40002,"is_reserved":false,"is_disabled":false,"rental_uris":{"android":"levelo://app?vid=6cf15e6f-3fea-4b9b-877e-f3ad3b3033e3","ios":"levelo://app?vid=6cf15e6f-3fea-4b9b-877e-f3ad3b3033e3"},"vehicle_type_id":"4","last_reported":1744607458,"current_range_meters":22400,"station_id":"ce4bho92rcd13ifvqh3g","pricing_plan_id":"cebpf4jnsgd1na2vs0mg"},{"bike_id":"42d1de0b-8ab3-460a-9c4e-a1adbfa578cc","system_id":"levelo_inurba_marseille","lat":43.28038,"lon":5.36935,"is_reserved":false,"is_disabled":true,"rental_uris":{"android":"levelo://app?vid=42d1de0b-8ab3-460a-9c4e-a1adbfa578cc","ios":"levelo://app?vid=42d1de0b-8ab3-460a-9c4e-a1adbfa578cc"},"vehicle_type_id":"4","last_reported":1744607458,"current_range_meters":22400,"station_id":"ce4bha12rcd13ifvqef0","pricing_plan_id":"cebpf4jnsgd1na2vs0mg"},{"bike_id":"33f29b75-f4e6-4e71-a299-29a3904a9b72","system_id":"levelo_inurba_marseille","lat":43.34134,"lon":5.40893,"is_reserved":false,"is_disabled":false,"rental_uris":{"android":"levelo://app?vid=33f29b75-f4e6-4e71-a299-29a3904a9b72","ios":"levelo://app?vid=33f29b75-f4e6-4e71-a299-29a3904a9b72"},"vehicle_type_id":"4","last_reported":1744607458,"current_range_meters":22400,"station_id":"ce4bhqh2rcd13ifvqhlg","pricing_plan_id":"cebpf4jnsgd1na2vs0mg"},{"bike_id":"43f58436-ed0c-4ef8-928b-e1986da84aa3","system_id":"levelo_inurba_marseille","lat":43.229224,"lon":5.353801,"is_reserved":false,"is_disabled":false,"rental_uris":{"android":"levelo://app?vid=43f58436-ed0c-4ef8-928b-e1986da84aa3","ios":"levelo://app?vid=43f58436-ed0c-4ef8-928b-e1986da84aa3"},"vehicle_type_id":"4","last_reported":1744607458,"current_range_meters":22400,"station_id":"cpo3532slgdg3j2ikp40","pricing_plan_id":"cebpf4jnsgd1na2vs0mg"},{"bike_id":"0dbb8451-6fbf-4474-9639-bd687b68c8c2","system_id":"levelo_inurba_marseille","lat":43.31554,"lon":5.37565,"is_reserved":false,"is_disabled":false,"rental_uris":{"android":"levelo://app?vid=0dbb8451-6fbf-4474-9639-bd687b68c8c2","ios":"levelo://app?vid=0dbb8451-6fbf-4474-9639-bd687b68c8c2"},"vehicle_type_id":"4","last_reported":1744607458,"current_range_meters":22400,"station_id":"","pricing_plan_id":"cebpf4jnsgd1na2vs0mg"},{"bike_id":"0dc05c3d-e964-42f6-aef2-d753c749006a","system_id":"levelo_inurba_marseille","lat":43.26934,"lon":5.40257,"is_reserved":false,"is_disabled":true,"rental_uris":{"android":"levelo://app?vid=0dc05c3d-e964-42f6-aef2-d753c749006a","ios":"levelo://app?vid=0dc05c3d-e964-42f6-aef2-d753c749006a"},"vehicle_type_id":"4","last_reported":1744607458,"current_range_meters":22400,"station_id":"ce4bh312rcd13ifvqdj0","pricing_plan_id":"cebpf4jnsgd1na2vs0mg"},{"bike_id":"8898e3fe-c2b6-40b0-a364-f06265fc78c4","system_id":"levelo_inurba_marseille","lat":43.28746,"lon":5.3787,"is_reserved":false,"is_disabled":true,"rental_uris":{"android":"levelo://app?vid=8898e3fe-c2b6-40b0-a364-f06265fc78c4","ios":"levelo://app?vid=8898e3fe-c2b6-40b0-a364-f06265fc78c4"},"vehicle_type_id":"4","last_reported":1744607458,"current_range_meters":22400,"station_id":"ce4bh9p2rcd13ifvqec0","pricing_plan_id":"cebpf4jnsgd1na2vs0mg"},{"bike_id":"36c8e20b-456c-4361-b715-596ebc53f83c","system_id":"levelo_inurba_marseille","lat":43.28618,"lon":5.40139,"is_reserved":false,"is_disabled":false,"rental_uris":{"android":"levelo://app?vid=36c8e20b-456c-4361-b715-596ebc53f83c","ios":"levelo://app?vid=36c8e20b-456c-4361-b715-596ebc53f83c"},"vehicle_type_id":"4","last_reported":1744607458,"current_range_meters":22400,"station_id":"ce4bho92rcd13ifvqh3g","pricing_plan_id":"cebpf4jnsgd1na2vs0mg"},{"bike_id":"5cf6443d-70ca-4ec8-b6e1-d64c9c6fb393","system_id":"levelo_inurba_marseille","lat":43.273784,"lon":5.362478,"is_reserved":false,"is_disabled":true,"rental_uris":{"android":"levelo://app?vid=5cf6443d-70ca-4ec8-b6e1-d64c9c6fb393","ios":"levelo://app?vid=5cf6443d-70ca-4ec8-b6e1-d64c9c6fb393"},"vehicle_type_id":"4","last_reported":1744607458,"current_range_meters":22400,"station_id":"ce4bhbh2rcd13ifvqeo0","pricing_plan_id":"cebpf4jnsgd1na2vs0mg"},{"bike_id":"f6375cd8-5ddf-4b3f-b398-501a93558e36","system_id":"levelo_inurba_marseille","lat":43.24158,"lon":5.36429,"is_reserved":false,"is_disabled":false,"rental_uris":{"android":"levelo://app?vid=f6375cd8-5ddf-4b3f-b398-501a93558e36","ios":"levelo://app?vid=f6375cd8-5ddf-4b3f-b398-501a93558e36"},"vehicle_type_id":"4","last_reported":1744607458,"current_range_meters":22400,"station_id":"cpo36qri1sfpv3e86is0","pricing_plan_id":"cebpf4jnsgd1na2vs0mg"},{"bike_id":"389d8d38-8613-422a-a25c-551d9c175038","system_id":"levelo_inurba_marseille","lat":43.30462,"lon":5.37913,"is_reserved":false,"is_disabled":false,"rental_uris":{"android":"levelo://app?vid=389d8d38-8613-422a-a25c-551d9c175038","ios":"levelo://app?vid=389d8d38-8613-422a-a25c-551d9c175038"},"vehicle_type_id":"4","last_reported":1744607458,"current_range_meters":22800,"station_id":"ce4bgup2rcd13ifvqcn0","pricing_plan_id":"cebpf4jnsgd1na2vs0mg"},{"bike_id":"388f8227-c186-4c88-8193-6a60351cd373","system_id":"levelo_inurba_marseille","lat":43.31122,"lon":5.37761,"is_reserved":false,"is_disabled":false,"rental_uris":{"android":"levelo://app?vid=388f8227-c186-4c88-8193-6a60351cd373","ios":"levelo://app?vid=388f8227-c186-4c88-8193-6a60351cd373"},"vehicle_type_id":"4","last_reported":1744607458,"current_range_meters":22800,"station_id":"ce4bgt92rcd13ifvqcg0","pricing_plan_id":"cebpf4jnsgd1na2vs0mg"},{"bike_id":"e2b5c1c3-8a61-4de4-a851-cf768b759e51","system_id":"levelo_inurba_marseille","lat":43.24157,"lon":5.39756,"is_reserved":false,"is_disabled":false,"rental_uris":{"android":"levelo://app?vid=e2b5c1c3-8a61-4de4-a851-cf768b759e51","ios":"levelo://app?vid=e2b5c1c3-8a61-4de4-a851-cf768b759e51"},"vehicle_type_id":"4","last_reported":1744607458,"current_range_meters":22800,"station_id":"ce4bhn12rcd13ifvqgpg","pricing_plan_id":"cebpf4jnsgd1na2vs0mg"},{"bike_id":"7b838b4d-905b-4dd5-87d5-0af03fdf5593","system_id":"levelo_inurba_marseille","lat":43.2707,"lon":5.42281,"is_reserved":false,"is_disabled":false,"rental_uris":{"android":"levelo://app?vid=7b838b4d-905b-4dd5-87d5-0af03fdf5593","ios":"levelo://app?vid=7b838b4d-905b-4dd5-87d5-0af03fdf5593"},"vehicle_type_id":"4","last_reported":1744607458,"current_range_meters":23200,"station_id":"ce4bhk92rcd13ifvqgb0","pricing_plan_id":"cebpf4jnsgd1na2vs0mg"},{"bike_id":"a5d11e62-4bda-4b84-9f77-85349d64f34e","system_id":"levelo_inurba_marseille","lat":43.27125,"lon":5.39396,"is_reserved":false,"is_disabled":false,"rental_uris":{"android":"levelo://app?vid=a5d11e62-4bda-4b84-9f77-85349d64f34e","ios":"levelo://app?vid=a5d11e62-4bda-4b84-9f77-85349d64f34e"},"vehicle_type_id":"4","last_reported":1744607458,"current_range_meters":22800,"station_id":"","pricing_plan_id":"cebpf4jnsgd1na2vs0mg"},{"bike_id":"29a8d9f3-5558-48a4-9ff1-3da0c713420b","system_id":"levelo_inurba_marseille","lat":43.27198,"lon":5.39194,"is_reserved":false,"is_disabled":false,"rental_uris":{"android":"levelo://app?vid=29a8d9f3-5558-48a4-9ff1-3da0c713420b","ios":"levelo://app?vid=29a8d9f3-5558-48a4-9ff1-3da0c713420b"},"vehicle_type_id":"4","last_reported":1744607458,"current_range_meters":22800,"station_id":"ce4bhhp2rcd13ifvqfm0","pricing_plan_id":"cebpf4jnsgd1na2vs0mg"},{"bike_id":"4d5f53c7-37a7-4e9c-adbc-852490a34e03","system_id":"levelo_inurba_marseille","lat":43.295748,"lon":5.399671,"is_reserved":false,"is_disabled":true,"rental_uris":{"android":"levelo://app?vid=4d5f53c7-37a7-4e9c-adbc-852490a34e03","ios":"levelo://app?vid=4d5f53c7-37a7-4e9c-adbc-852490a34e03"},"vehicle_type_id":"4","last_reported":1744607458,"current_range_meters":22800,"station_id":"ce4bh312rcd13ifvqdj0","pricing_plan_id":"cebpf4jnsgd1na2vs0mg"},{"bike_id":"95c65c4e-3136-49d0-8cbf-79273800a322","system_id":"levelo_inurba_marseille","lat":43.307825,"lon":5.376505,"is_reserved":false,"is_disabled":false,"rental_uris":{"android":"levelo://app?vid=95c65c4e-3136-49d0-8cbf-79273800a322","ios":"levelo://app?vid=95c65c4e-3136-49d0-8cbf-79273800a322"},"vehicle_type_id":"4","last_reported":1744607458,"current_range_meters":22800,"station_id":"ce4bgv92rcd13ifvqcq0","pricing_plan_id":"cebpf4jnsgd1na2vs0mg"},{"bike_id":"5024480a-8568-40d5-86c2-819dbdab970a","system_id":"levelo_inurba_marseille","lat":43.2976,"lon":5.38133,"is_reserved":false,"is_disabled":true,"rental_uris":{"android":"levelo://app?vid=5024480a-8568-40d5-86c2-819dbdab970a","ios":"levelo://app?vid=5024480a-8568-40d5-86c2-819dbdab970a"},"vehicle_type_id":"4","last_reported":1744607458,"current_range_meters":22800,"station_id":"ce4bgip2rcd13ifvqbb0","pricing_plan_id":"cebpf4jnsgd1na2vs0mg"},{"bike_id":"28a897e0-2c0f-4e59-be8d-506b230007e9","system_id":"levelo_inurba_marseille","lat":43.30461,"lon":5.37912,"is_reserved":false,"is_disabled":false,"rental_uris":{"android":"levelo://app?vid=28a897e0-2c0f-4e59-be8d-506b230007e9","ios":"levelo://app?vid=28a897e0-2c0f-4e59-be8d-506b230007e9"},"vehicle_type_id":"4","last_reported":1744607458,"current_range_meters":23200,"station_id":"ce4bgup2rcd13ifvqcn0","pricing_plan_id":"cebpf4jnsgd1na2vs0mg"},{"bike_id":"1777298c-cd5e-48d9-b75c-2f2323e7643c","system_id":"levelo_inurba_marseille","lat":43.287031,"lon":5.399818,"is_reserved":false,"is_disabled":false,"rental_uris":{"android":"levelo://app?vid=1777298c-cd5e-48d9-b75c-2f2323e7643c","ios":"levelo://app?vid=1777298c-cd5e-48d9-b75c-2f2323e7643c"},"vehicle_type_id":"4","last_reported":1744607458,"current_range_meters":23200,"station_id":"ce4bho92rcd13ifvqh3g","pricing_plan_id":"cebpf4jnsgd1na2vs0mg"},{"bike_id":"1832662d-d84f-402a-881c-e2fd1c31db3d","system_id":"levelo_inurba_marseille","lat":43.299327,"lon":5.413256,"is_reserved":false,"is_disabled":false,"rental_uris":{"android":"levelo://app?vid=1832662d-d84f-402a-881c-e2fd1c31db3d","ios":"levelo://app?vid=1832662d-d84f-402a-881c-e2fd1c31db3d"},"vehicle_type_id":"4","last_reported":1744607458,"current_range_meters":23200,"station_id":"ce4bhp12rcd13ifvqh9g","pricing_plan_id":"cebpf4jnsgd1na2vs0mg"},{"bike_id":"aa1ee5e1-0d0f-4792-acc4-9604db999f76","system_id":"levelo_inurba_marseille","lat":43.30313,"lon":5.40446,"is_reserved":false,"is_disabled":false,"rental_uris":{"android":"levelo://app?vid=aa1ee5e1-0d0f-4792-acc4-9604db999f76","ios":"levelo://app?vid=aa1ee5e1-0d0f-4792-acc4-9604db999f76"},"vehicle_type_id":"4","last_reported":1744607458,"current_range_meters":23200,"station_id":"ce4bh012rcd13ifvqd10","pricing_plan_id":"cebpf4jnsgd1na2vs0mg"},{"bike_id":"f1250c6f-f810-45f3-811a-cd42a6956118","system_id":"levelo_inurba_marseille","lat":43.231485,"lon":5.437225,"is_reserved":false,"is_disabled":false,"rental_uris":{"android":"levelo://app?vid=f1250c6f-f810-45f3-811a-cd42a6956118","ios":"levelo://app?vid=f1250c6f-f810-45f3-811a-cd42a6956118"},"vehicle_type_id":"4","last_reported":1744607458,"current_range_meters":23200,"station_id":"ce4bhmp2rcd13ifvqgog","pricing_plan_id":"cebpf4jnsgd1na2vs0mg"},{"bike_id":"1ac6cae9-5a5f-4765-b8d5-20772275ca89","system_id":"levelo_inurba_marseille","lat":43.23328,"lon":5.36137,"is_reserved":false,"is_disabled":false,"rental_uris":{"android":"levelo://app?vid=1ac6cae9-5a5f-4765-b8d5-20772275ca89","ios":"levelo://app?vid=1ac6cae9-5a5f-4765-b8d5-20772275ca89"},"vehicle_type_id":"4","last_reported":1744607458,"current_range_meters":23200,"station_id":"","pricing_plan_id":"cebpf4jnsgd1na2vs0mg"},{"bike_id":"0af312b2-a344-4e55-b954-3f496ddf996e","system_id":"levelo_inurba_marseille","lat":43.337444,"lon":5.374475,"is_reserved":false,"is_disabled":false,"rental_uris":{"android":"levelo://app?vid=0af312b2-a344-4e55-b954-3f496ddf996e","ios":"levelo://app?vid=0af312b2-a344-4e55-b954-3f496ddf996e"},"vehicle_type_id":"4","last_reported":1744607458,"current_range_meters":23200,"station_id":"","pricing_plan_id":"cebpf4jnsgd1na2vs0mg"},{"bike_id":"d647f220-b29b-47ef-aebf-121e9856e163","system_id":"levelo_inurba_marseille","lat":43.244,"lon":5.37054,"is_reserved":false,"is_disabled":false,"rental_uris":{"android":"levelo://app?vid=d647f220-b29b-47ef-aebf-121e9856e163","ios":"levelo://app?vid=d647f220-b29b-47ef-aebf-121e9856e163"},"vehicle_type_id":"4","last_reported":1744607458,"current_range_meters":23200,"station_id":"ce4bhhh2rcd13ifvqfk0","pricing_plan_id":"cebpf4jnsgd1na2vs0mg"},{"bike_id":"97eaab4d-1dff-49ff-86e5-23bd769ff75d","system_id":"levelo_inurba_marseille","lat":43.341386,"lon":5.409016,"is_reserved":false,"is_disabled":false,"rental_uris":{"android":"levelo://app?vid=97eaab4d-1dff-49ff-86e5-23bd769ff75d","ios":"levelo://app?vid=97eaab4d-1dff-49ff-86e5-23bd769ff75d"},"vehicle_type_id":"4","last_reported":1744607458,"current_range_meters":23200,"station_id":"ce4bhqh2rcd13ifvqhlg","pricing_plan_id":"cebpf4jnsgd1na2vs0mg"},{"bike_id":"536fca80-7460-47b0-b6c6-8fb9f442dbaf","system_id":"levelo_inurba_marseille","lat":43.27492,"lon":5.42476,"is_reserved":false,"is_disabled":false,"rental_uris":{"android":"levelo://app?vid=536fca80-7460-47b0-b6c6-8fb9f442dbaf","ios":"levelo://app?vid=536fca80-7460-47b0-b6c6-8fb9f442dbaf"},"vehicle_type_id":"4","last_reported":1744607458,"current_range_meters":23200,"station_id":"ce4bhn92rcd13ifvqgrg","pricing_plan_id":"cebpf4jnsgd1na2vs0mg"},{"bike_id":"05664e36-336b-404a-b8de-2ca42d4238f0","system_id":"levelo_inurba_marseille","lat":43.24998,"lon":5.38174,"is_reserved":false,"is_disabled":false,"rental_uris":{"android":"levelo://app?vid=05664e36-336b-404a-b8de-2ca42d4238f0","ios":"levelo://app?vid=05664e36-336b-404a-b8de-2ca42d4238f0"},"vehicle_type_id":"4","last_reported":1744607458,"current_range_meters":23200,"station_id":"","pricing_plan_id":"cebpf4jnsgd1na2vs0mg"},{"bike_id":"7c0ae596-019e-45d5-98ed-2ba379611286","system_id":"levelo_inurba_marseille","lat":43.24828,"lon":5.37456,"is_reserved":false,"is_disabled":true,"rental_uris":{"android":"levelo://app?vid=7c0ae596-019e-45d5-98ed-2ba379611286","ios":"levelo://app?vid=7c0ae596-019e-45d5-98ed-2ba379611286"},"vehicle_type_id":"4","last_reported":1744607458,"current_range_meters":24000,"station_id":"ce4bhgh2rcd13ifvqfb0","pricing_plan_id":"cebpf4jnsgd1na2vs0mg"},{"bike_id":"d567f3c2-8a23-4e72-8538-0baaed232157","system_id":"levelo_inurba_marseille","lat":43.301608,"lon":5.380378,"is_reserved":false,"is_disabled":false,"rental_uris":{"android":"levelo://app?vid=d567f3c2-8a23-4e72-8538-0baaed232157","ios":"levelo://app?vid=d567f3c2-8a23-4e72-8538-0baaed232157"},"vehicle_type_id":"4","last_reported":1744607458,"current_range_meters":24000,"station_id":"ce4bgjp2rcd13ifvqbh0","pricing_plan_id":"cebpf4jnsgd1na2vs0mg"},{"bike_id":"021fedc9-4d84-4e3a-b83f-f52b5c7d3f8a","system_id":"levelo_inurba_marseille","lat":43.28465,"lon":5.39148,"is_reserved":false,"is_disabled":false,"rental_uris":{"android":"levelo://app?vid=021fedc9-4d84-4e3a-b83f-f52b5c7d3f8a","ios":"levelo://app?vid=021fedc9-4d84-4e3a-b83f-f52b5c7d3f8a"},