{"last_updated":1701263412,"ttl":30,"version":"2.2","data":{"bikes":[{"bike_id":"e48ea13c-dadc-4dee-9444-184958984748","system_id":"levelo_inurba_marseille","lat":43.31341,"lon":5.367098,"is_reserved":false,"is_disabled":false,"rental_uris":{"android":"levelo://app?vid=e48ea13c-dadc-4dee-9444-184958984748","ios":"levelo://app?vid=e48ea13c-dadc-4dee-9444-184958984748"},"vehicle_type_id":"4","last_reported":1701263412,"current_range_meters":26800,"station_id":"ce4bgr92rcd13ifvqc6g","pricing_plan_id":"free"},{"bike_id":"7d332d6f-69cd-4fad-b0af-ea14e99cedcc","system_id":"levelo_inurba_marseille","lat":43.313391,"lon":5.36706,"is_reserved":false,"is_disabled":false,"rental_uris":{"android":"levelo://app?vid=7d332d6f-69cd-4fad-b0af-ea14e99cedcc","ios":"levelo://app?vid=7d332d6f-69cd-4fad-b0af-ea14e99cedcc"},"vehicle_type_id":"4","last_reported":1701263412,"current_range_meters":24800,"station_id":"ce4bgr92rcd13ifvqc6g","pricing_plan_id":"free"},{"bike_id":"9da95ed2-ede2-4159-b28b-f075cd64d316","system_id":"levelo_inurba_marseille","lat":43.31341,"lon":5.367098,"is_reserved":false,"is_disabled":false,"rental_uris":{"android":"levelo://app?vid=9da95ed2-ede2-4159-b28b-f075cd64d316","ios":"levelo://app?vid=9da95ed2-ede2-4159-b28b-f075cd64d316"},"vehicle_type_id":"4","last_reported":1701263412,"current_range_meters":22400,"station_id":"ce4bgr92rcd13ifvqc6g","pricing_plan_id":"free"},{"bike_id":"4ede3be8-ffbb-4fa7-8749-53300a12d77f","system_id":"levelo_inurba_marseille","lat":43.31341,"lon":5.367098,"is_reserved":false,"is_disabled":false,"rental_uris":{"android":"levelo://app?vid=4ede3be8-ffbb-4fa7-8749-53300a12d77f","ios":"levelo://app?vid=4ede3be8-ffbb-4fa7-8749-53300a12d77f"},"vehicle_type_id":"4","last_reported":1701263412,"current_range_meters":19200,"station_id":"ce4bgr92rcd13ifvqc6g","pricing_plan_id":"free"},{"bike_id":"34e66400-5e0d-4ac1-b8a5-b5faf609f39c","system_id":"levelo_inurba_marseille","lat":43.313391,"lon":5.36706,"is_reserved":false,"is_disabled":false,"rental_uris":{"android":"levelo://app?vid=34e66400-5e0d-4ac1-b8a5-b5faf609f39c","ios":"levelo://app?vid=34e66400-5e0d-4ac1-b8a5-b5faf609f39c"},"vehicle_type_id":"4","last_reported":1701263412,"current_range_meters":18400,"station_id":"ce4bgr92rcd13ifvqc6g","pricing_plan_id":"free"},{"bike_id":"2c841c49-17d0-4a7d-9443-e70dfffd7059","system_id":"levelo_inurba_marseille","lat":43.313391,"lon":5.36706,"is_reserved":false,"is_disabled":false,"rental_uris":{"android":"levelo://app?vid=2c841c49-17d0-4a7d-9443-e70dfffd7059","ios":"levelo://app?vid=2c841c49-17d0-4a7d-9443-e70dfffd7059"},"vehicle_type_id":"4","last_reported":1701263412,"current_range_meters":15600,"station_id":"ce4bgr92rcd13ifvqc6g","pricing_plan_id":"free"},{"bike_id":"53d2f5a1-cbc4-4ae7-bfe1-ed363bc6e9e3","system_id":"levelo_inurba_marseille","lat":43.313391,"lon":5.36706,"is_reserved":false,"is_disabled":false,"rental_uris":{"android":"levelo://app?vid=53d2f5a1-cbc4-4ae7-bfe1-ed363bc6e9e3","ios":"levelo://app?vid=53d2f5a1-cbc4-4ae7-bfe1-ed363bc6e9e3"},"vehicle_type_id":"4","last_reported":1701263412,"current_range_meters":24800,"station_id":"ce4bgr92rcd13ifvqc6g","pricing_plan_id":"free"},{"bike_id":"1d169248-bc59-4c5b-9958-cee9f8b1820d","system_id":"levelo_inurba_marseille","lat":43.312239,"lon":5.368562,"is_reserved":false,"is_disabled":false,"rental_uris":{"android":"levelo://app?vid=1d169248-bc59-4c5b-9958-cee9f8b1820d","ios":"levelo://app?vid=1d169248-bc59-4c5b-9958-cee9f8b1820d"},"vehicle_type_id":"4","last_reported":1701263412,"current_range_meters":26400,"station_id":"ce4bgl92rcd13ifvqbq0","pricing_plan_id":"free"},{"bike_id":"b9fa5d88-c7ed-41a0-abf1-9802788750f8","system_id":"levelo_inurba_marseille","lat":43.312239,"lon":5.368562,"is_reserved":false,"is_disabled":false,"rental_uris":{"android":"levelo://app?vid=b9fa5d88-c7ed-41a0-abf1-9802788750f8","ios":"levelo://app?vid=b9fa5d88-c7ed-41a0-abf1-9802788750f8"},"vehicle_type_id":"4","last_reported":1701263412,"current_range_meters":10400,"station_id":"ce4bgl92rcd13ifvqbq0","pricing_plan_id":"free"},{"bike_id":"93b07672-11f5-432c-a252-d5ab68630e2c","system_id":"levelo_inurba_marseille","lat":43.312239,"lon":5.368562,"is_reserved":false,"is_disabled":false,"rental_uris":{"android":"levelo://app?vid=93b07672-11f5-432c-a252-d5ab68630e2c","ios":"levelo://app?vid=93b07672-11f5-432c-a252-d5ab68630e2c"},"vehicle_type_id":"4","last_reported":1701263412,"current_range_meters":8800,"station_id":"ce4bgl92rcd13ifvqbq0","pricing_plan_id":"free"},{"bike_id":"00a6c1b1-e252-421e-9509-b4299287823c","system_id":"levelo_inurba_marseille","lat":43.312239,"lon":5.368562,"is_reserved":false,"is_disabled":false,"rental_uris":{"android":"levelo://app?vid=00a6c1b1-e252-421e-9509-b4299287823c","ios":"levelo://app?vid=00a6c1b1-e252-421e-9509-b4299287823c"},"vehicle_type_id":"4","last_reported":1701263412,"current_range_meters":30000,"station_id":"ce4bgl92rcd13ifvqbq0","pricing_plan_id":"free"},{"bike_id":"dc780252-aba2-4b44-a6ef-47e31b08c67a","system_id":"levelo_inurba_marseille","lat":43.312239,"lon":5.368562,"is_reserved":false,"is_disabled":false,"rental_uris":{"android":"levelo://app?vid=dc780252-aba2-4b44-a6ef-47e31b08c67a","ios":"levelo://app?vid=dc780252-aba2-4b44-a6ef-47e31b08c67a"},"vehicle_type_id":"4","last_reported":1701263412,"current_range_meters":29600,"station_id":"ce4bgl92rcd13ifvqbq0","pricing_plan_id":"free"},{"bike_id":"d4313171-ddca-492f-bdc7-0057cab65e25","system_id":"levelo_inurba_marseille","lat":43.312239,"lon":5.368562,"is_reserved":false,"is_disabled":false,"rental_uris":{"android":"levelo://app?vid=d4313171-ddca-492f-bdc7-0057cab65e25","ios":"levelo://app?vid=d4313171-ddca-492f-bdc7-0057cab65e25"},"vehicle_type_id":"4","last_reported":1701263412,"current_range_meters":21600,"station_id":"ce4bgl92rcd13ifvqbq0","pricing_plan_id":"free"},{"bike_id":"eae667f9-30f1-479b-957a-4aec64b0496a","system_id":"levelo_inurba_marseille","lat":43.312239,"lon":5.368562,"is_reserved":false,"is_disabled":false,"rental_uris":{"android":"levelo://app?vid=eae667f9-30f1-479b-957a-4aec64b0496a","ios":"levelo://app?vid=eae667f9-30f1-479b-957a-4aec64b0496a"},"vehicle_type_id":"4","last_reported":1701263412,"current_range_meters":0,"station_id":"ce4bgl92rcd13ifvqbq0","pricing_plan_id":"free"},{"bike_id":"d02955a9-1dcf-4ee6-b080-25e85e08dd4e","system_id":"levelo_inurba_marseille","lat":43.309076,"lon":5.368465,"is_reserved":false,"is_disabled":false,"rental_uris":{"android":"levelo://app?vid=d02955a9-1dcf-4ee6-b080-25e85e08dd4e","ios":"levelo://app?vid=d02955a9-1dcf-4ee6-b080-25e85e08dd4e"},"vehicle_type_id":"4","last_reported":1701263412,"current_range_meters":24000,"station_id":"ce4bgn92rcd13ifvqbvg","pricing_plan_id":"free"},{"bike_id":"96bd0d9c-38fe-42d6-8860-95318043972c","system_id":"levelo_inurba_marseille","lat":43.314811,"lon":5.373103,"is_reserved":false,"is_disabled":false,"rental_uris":{"android":"levelo://app?vid=96bd0d9c-38fe-42d6-8860-95318043972c","ios":"levelo://app?vid=96bd0d9c-38fe-42d6-8860-95318043972c"},"vehicle_type_id":"4","last_reported":1701263412,"current_range_meters":17600,"station_id":"ce4bgt12rcd13ifvqcd0","pricing_plan_id":"free"},{"bike_id":"9bd58770-3c55-4158-8305-7e429078cd1b","system_id":"levelo_inurba_marseille","lat":43.314811,"lon":5.373103,"is_reserved":false,"is_disabled":false,"rental_uris":{"android":"levelo://app?vid=9bd58770-3c55-4158-8305-7e429078cd1b","ios":"levelo://app?vid=9bd58770-3c55-4158-8305-7e429078cd1b"},"vehicle_type_id":"4","last_reported":1701263412,"current_range_meters":6800,"station_id":"ce4bgt12rcd13ifvqcd0","pricing_plan_id":"free"},{"bike_id":"10e85edc-7414-4a74-ba5d-60e3e2badaa2","system_id":"levelo_inurba_marseille","lat":43.314811,"lon":5.373103,"is_reserved":false,"is_disabled":false,"rental_uris":{"android":"levelo://app?vid=10e85edc-7414-4a74-ba5d-60e3e2badaa2","ios":"levelo://app?vid=10e85edc-7414-4a74-ba5d-60e3e2badaa2"},"vehicle_type_id":"4","last_reported":1701263412,"current_range_meters":22400,"station_id":"ce4bgt12rcd13ifvqcd0","pricing_plan_id":"free"},{"bike_id":"c11282b6-cfb3-4abf-9ad3-3c18541ce170","system_id":"levelo_inurba_marseille","lat":43.305368,"lon":5.367343,"is_reserved":false,"is_disabled":false,"rental_uris":{"android":"levelo://app?vid=c11282b6-cfb3-4abf-9ad3-3c18541ce170","ios":"levelo://app?vid=c11282b6-cfb3-4abf-9ad3-3c18541ce170"},"vehicle_type_id":"4","last_reported":1701263412,"current_range_meters":0,"station_id":"ce4bgrp2rcd13ifvqc9g","pricing_plan_id":"free"},{"bike_id":"d82de21a-161d-4522-b340-9c44963dc817","system_id":"levelo_inurba_marseille","lat":43.305989,"lon":5.37225,"is_reserved":false,"is_disabled":false,"rental_uris":{"android":"levelo://app?vid=d82de21a-161d-4522-b340-9c44963dc817","ios":"levelo://app?vid=d82de21a-161d-4522-b340-9c44963dc817"},"vehicle_type_id":"4","last_reported":1701263412,"current_range_meters":10400,"station_id":"ce4bgqh2rcd13ifvqc4g","pricing_plan_id":"free"},{"bike_id":"9b4e21b0-985b-47b5-8c79-ef969a2cac53","system_id":"levelo_inurba_marseille","lat":43.305989,"lon":5.37225,"is_reserved":false,"is_disabled":false,"rental_uris":{"android":"levelo://app?vid=9b4e21b0-985b-47b5-8c79-ef969a2cac53","ios":"levelo://app?vid=9b4e21b0-985b-47b5-8c79-ef969a2cac53"},"vehicle_type_id":"4","last_reported":1701263412,"current_range_meters":31600,"station_id":"ce4bgqh2rcd13ifvqc4g","pricing_plan_id":"free"},{"bike_id":"7db1d7a4-fe70-4b26-92c9-6eb8916c704a","system_id":"levelo_inurba_marseille","lat":43.305989,"lon":5.37225,"is_reserved":false,"is_disabled":false,"rental_uris":{"android":"levelo://app?vid=7db1d7a4-fe70-4b26-92c9-6eb8916c704a","ios":"levelo://app?vid=7db1d7a4-fe70-4b26-92c9-6eb8916c704a"},"vehicle_type_id":"4","last_reported":1701263412,"current_range_meters":26400,"station_id":"ce4bgqh2rcd13ifvqc4g","pricing_plan_id":"free"},{"bike_id":"663f4afb-fccd-433c-a911-1877ce94de6b","system_id":"levelo_inurba_marseille","lat":43.31115,"lon":5.3777,"is_reserved":false,"is_disabled":false,"rental_uris":{"android":"levelo://app?vid=663f4afb-fccd-433c-a911-1877ce94de6b","ios":"levelo://app?vid=663f4afb-fccd-433c-a911-1877ce94de6b"},"vehicle_type_id":"4","last_reported":1701263412,"current_range_meters":0,"station_id":"ce4bgt92rcd13ifvqcg0","pricing_plan_id":"free"},{"bike_id":"f427a2c3-6e4a-446b-ae2f-9be8aa7f4122","system_id":"levelo_inurba_marseille","lat":43.31719,"lon":5.376813,"is_reserved":false,"is_disabled":false,"rental_uris":{"android":"levelo://app?vid=f427a2c3-6e4a-446b-ae2f-9be8aa7f4122","ios":"levelo://app?vid=f427a2c3-6e4a-446b-ae2f-9be8aa7f4122"},"vehicle_type_id":"4","last_reported":1701263412,"current_range_meters":9600,"station_id":"ce4bgth2rcd13ifvqch0","pricing_plan_id":"free"},{"bike_id":"e913f328-1e31-4c22-bd87-f809ea246de4","system_id":"levelo_inurba_marseille","lat":43.317168,"lon":5.376883,"is_reserved":false,"is_disabled":false,"rental_uris":{"android":"levelo://app?vid=e913f328-1e31-4c22-bd87-f809ea246de4","ios":"levelo://app?vid=e913f328-1e31-4c22-bd87-f809ea246de4"},"vehicle_type_id":"4","last_reported":1701263412,"current_range_meters":12000,"station_id":"ce4bgth2rcd13ifvqch0","pricing_plan_id":"free"},{"bike_id":"b5129530-3639-47e5-92b6-d358b01a2cff","system_id":"levelo_inurba_marseille","lat":43.30815,"lon":5.37676,"is_reserved":false,"is_disabled":false,"rental_uris":{"android":"levelo://app?vid=b5129530-3639-47e5-92b6-d358b01a2cff","ios":"levelo://app?vid=b5129530-3639-47e5-92b6-d358b01a2cff"},"vehicle_type_id":"4","last_reported":1701263412,"current_range_meters":25200,"station_id":"ce4bgv92rcd13ifvqcq0","pricing_plan_id":"free"},{"bike_id":"1d1b784f-0359-4c5a-ada2-725ad82ebc69","system_id":"levelo_inurba_marseille","lat":43.307945,"lon":5.376487,"is_reserved":false,"is_disabled":false,"rental_uris":{"android":"levelo://app?vid=1d1b784f-0359-4c5a-ada2-725ad82ebc69","ios":"levelo://app?vid=1d1b784f-0359-4c5a-ada2-725ad82ebc69"},"vehicle_type_id":"4","last_reported":1701263412,"current_range_meters":30000,"station_id":"ce4bgv92rcd13ifvqcq0","pricing_plan_id":"free"},{"bike_id":"e37c3dd4-2cff-47f5-a8b0-265bdfe56f9f","system_id":"levelo_inurba_marseille","lat":43.317075,"lon":5.377367,"is_reserved":false,"is_disabled":false,"rental_uris":{"android":"levelo://app?vid=e37c3dd4-2cff-47f5-a8b0-265bdfe56f9f","ios":"levelo://app?vid=e37c3dd4-2cff-47f5-a8b0-265bdfe56f9f"},"vehicle_type_id":"4","last_reported":1701263412,"current_range_meters":2800,"station_id":"ce4bgth2rcd13ifvqch0","pricing_plan_id":"free"},{"bike_id":"88e06f13-cf50-4acc-8c2f-7f74fd28cee9","system_id":"levelo_inurba_marseille","lat":43.317075,"lon":5.377367,"is_reserved":false,"is_disabled":false,"rental_uris":{"android":"levelo://app?vid=88e06f13-cf50-4acc-8c2f-7f74fd28cee9","ios":"levelo://app?vid=88e06f13-cf50-4acc-8c2f-7f74fd28cee9"},"vehicle_type_id":"4","last_reported":1701263412,"current_range_meters":30400,"station_id":"ce4bgth2rcd13ifvqch0","pricing_plan_id":"free"},{"bike_id":"77621d6b-8990-4544-be4b-ead551752d29","system_id":"levelo_inurba_marseille","lat":43.31699,"lon":5.37838,"is_reserved":false,"is_disabled":false,"rental_uris":{"android":"levelo://app?vid=77621d6b-8990-4544-be4b-ead551752d29","ios":"levelo://app?vid=77621d6b-8990-4544-be4b-ead551752d29"},"vehicle_type_id":"4","last_reported":1701263412,"current_range_meters":22400,"station_id":"","pricing_plan_id":"free"},{"bike_id":"c7b5c06b-3b05-4a45-9cd0-47ab2b6f1e86","system_id":"levelo_inurba_marseille","lat":43.32052,"lon":5.37458,"is_reserved":false,"is_disabled":false,"rental_uris":{"android":"levelo://app?vid=c7b5c06b-3b05-4a45-9cd0-47ab2b6f1e86","ios":"levelo://app?vid=c7b5c06b-3b05-4a45-9cd0-47ab2b6f1e86"},"vehicle_type_id":"4","last_reported":1701263412,"current_range_meters":28400,"station_id":"","pricing_plan_id":"free"},{"bike_id":"58b9e72b-071a-4219-b673-ab32e8c01827","system_id":"levelo_inurba_marseille","lat":43.30315,"lon":5.36915,"is_reserved":false,"is_disabled":false,"rental_uris":{"android":"levelo://app?vid=58b9e72b-071a-4219-b673-ab32e8c01827","ios":"levelo://app?vid=58b9e72b-071a-4219-b673-ab32e8c01827"},"vehicle_type_id":"4","last_reported":1701263412,"current_range_meters":20400,"station_id":"ce4bgqh2rcd13ifvqc5g","pricing_plan_id":"free"},{"bike_id":"3e09080e-9db5-4c48-951f-c5f672a60264","system_id":"levelo_inurba_marseille","lat":43.321449,"lon":5.374731,"is_reserved":false,"is_disabled":false,"rental_uris":{"android":"levelo://app?vid=3e09080e-9db5-4c48-951f-c5f672a60264","ios":"levelo://app?vid=3e09080e-9db5-4c48-951f-c5f672a60264"},"vehicle_type_id":"4","last_reported":1701263412,"current_range_meters":8000,"station_id":"","pricing_plan_id":"free"},{"bike_id":"a73ce958-8a13-465c-a986-f48ea343227d","system_id":"levelo_inurba_marseille","lat":43.301939,"lon":5.366286,"is_reserved":false,"is_disabled":false,"rental_uris":{"android":"levelo://app?vid=a73ce958-8a13-465c-a986-f48ea343227d","ios":"levelo://app?vid=a73ce958-8a13-465c-a986-f48ea343227d"},"vehicle_type_id":"4","last_reported":1701263412,"current_range_meters":28400,"station_id":"ce4bgrh2rcd13ifvqc8g","pricing_plan_id":"free"},{"bike_id":"397488be-1399-4b51-95f9-50a7e5a15d12","system_id":"levelo_inurba_marseille","lat":43.312239,"lon":5.368562,"is_reserved":false,"is_disabled":false,"rental_uris":{"android":"levelo://app?vid=397488be-1399-4b51-95f9-50a7e5a15d12","ios":"levelo://app?vid=397488be-1399-4b51-95f9-50a7e5a15d12"},"vehicle_type_id":"4","last_reported":1701263412,"current_range_meters":6400,"station_id":"ce4bgl92rcd13ifvqbq0","pricing_plan_id":"free"},{"bike_id":"3f6f35c5-4b19-4a59-9709-3ef33414c110","system_id":"levelo_inurba_marseille","lat":43.304635,"lon":5.37905,"is_reserved":false,"is_disabled":false,"rental_uris":{"android":"levelo://app?vid=3f6f35c5-4b19-4a59-9709-3ef33414c110","ios":"levelo://app?vid=3f6f35c5-4b19-4a59-9709-3ef33414c110"},"vehicle_type_id":"4","last_reported":1701263412,"current_range_meters":12800,"station_id":"ce4bgup2rcd13ifvqcn0","pricing_plan_id":"free"},{"bike_id":"f50ae52e-0b7a-42e5-a738-aa2e2da2faa3","system_id":"levelo_inurba_marseille","lat":43.32472,"lon":5.36568,"is_reserved":false,"is_disabled":false,"rental_uris":{"android":"levelo://app?vid=f50ae52e-0b7a-42e5-a738-aa2e2da2faa3","ios":"levelo://app?vid=f50ae52e-0b7a-42e5-a738-aa2e2da2faa3"},"vehicle_type_id":"4","last_reported":1701263412,"current_range_meters":12000,"station_id":"ce4bhs12rcd13ifvqhvg","pricing_plan_id":"free"},{"bike_id":"7a7573f0-c539-4ade-ac9a-ea73e8d749e0","system_id":"levelo_inurba_marseille","lat":43.30143,"lon":5.37413,"is_reserved":false,"is_disabled":false,"rental_uris":{"android":"levelo://app?vid=7a7573f0-c539-4ade-ac9a-ea73e8d749e0","ios":"levelo://app?vid=7a7573f0-c539-4ade-ac9a-ea73e8d749e0"},"vehicle_type_id":"4","last_reported":1701263412,"current_range_meters":800,"station_id":"ce4bgs92rcd13ifvqcc0","pricing_plan_id":"free"},{"bike_id":"6c4ca9b3-27d9-4aa9-9d45-56235f03dac0","system_id":"levelo_inurba_marseille","lat":43.302784,"lon":5.377158,"is_reserved":false,"is_disabled":false,"rental_uris":{"android":"levelo://app?vid=6c4ca9b3-27d9-4aa9-9d45-56235f03dac0","ios":"levelo://app?vid=6c4ca9b3-27d9-4aa9-9d45-56235f03dac0"},"vehicle_type_id":"4","last_reported":1701263412,"current_range_meters":12400,"station_id":"ce4bguh2rcd13ifvqcj0","pricing_plan_id":"free"},{"bike_id":"46c444f6-6985-44f0-98dc-61b8f1aac133","system_id":"levelo_inurba_marseille","lat":43.301429,"lon":5.37413,"is_reserved":false,"is_disabled":false,"rental_uris":{"android":"levelo://app?vid=46c444f6-6985-44f0-98dc-61b8f1aac133","ios":"levelo://app?vid=46c444f6-6985-44f0-98dc-61b8f1aac133"},"vehicle_type_id":"4","last_reported":1701263412,"current_range_meters":3600,"station_id":"ce4bgs92rcd13ifvqcc0","pricing_plan_id":"free"},{"bike_id":"57e951f0-e0aa-4fc8-807b-77adac028039","system_id":"levelo_inurba_marseille","lat":43.302784,"lon":5.377158,"is_reserved":false,"is_disabled":false,"rental_uris":{"android":"levelo://app?vid=57e951f0-e0aa-4fc8-807b-77adac028039","ios":"levelo://app?vid=57e951f0-e0aa-4fc8-807b-77adac028039"},"vehicle_type_id":"4","last_reported":1701263412,"current_range_meters":13600,"station_id":"ce4bguh2rcd13ifvqcj0","pricing_plan_id":"free"},{"bike_id":"6742c193-b747-4ffd-8a15-6bca78ef9e3d","system_id":"levelo_inurba_marseille","lat":43.30143,"lon":5.37413,"is_reserved":false,"is_disabled":false,"rental_uris":{"android":"levelo://app?vid=6742c193-b747-4ffd-8a15-6bca78ef9e3d","ios":"levelo://app?vid=6742c193-b747-4ffd-8a15-6bca78ef9e3d"},"vehicle_type_id":"4","last_reported":1701263412,"current_range_meters":16800,"station_id":"ce4bgs92rcd13ifvqcc0","pricing_plan_id":"free"},{"bike_id":"e23adc07-ca84-402b-92c3-e665f6e29ab3","system_id":"levelo_inurba_marseille","lat":43.302784,"lon":5.377158,"is_reserved":false,"is_disabled":false,"rental_uris":{"android":"levelo://app?vid=e23adc07-ca84-402b-92c3-e665f6e29ab3","ios":"levelo://app?vid=e23adc07-ca84-402b-92c3-e665f6e29ab3"},"vehicle_type_id":"4","last_reported":1701263412,"current_range_meters":13200,"station_id":"ce4bguh2rcd13ifvqcj0","pricing_plan_id":"free"},{"bike_id":"a2b6c035-3b74-48fd-bef4-e38c4d248cf9","system_id":"levelo_inurba_marseille","lat":43.301429,"lon":5.37413,"is_reserved":false,"is_disabled":false,"rental_uris":{"android":"levelo://app?vid=a2b6c035-3b74-48fd-bef4-e38c4d248cf9","ios":"levelo://app?vid=a2b6c035-3b74-48fd-bef4-e38c4d248cf9"},"vehicle_type_id":"4","last_reported":1701263412,"current_range_meters":8400,"station_id":"ce4bgs92rcd13ifvqcc0","pricing_plan_id":"free"},{"bike_id":"2b2863d0-ac19-46cf-8ec8-acd5644cfb7f","system_id":"levelo_inurba_marseille","lat":43.30136,"lon":5.37412,"is_reserved":false,"is_disabled":false,"rental_uris":{"android":"levelo://app?vid=2b2863d0-ac19-46cf-8ec8-acd5644cfb7f","ios":"levelo://app?vid=2b2863d0-ac19-46cf-8ec8-acd5644cfb7f"},"vehicle_type_id":"4","last_reported":1701263412,"current_range_meters":20400,"station_id":"ce4bgs92rcd13ifvqcc0","pricing_plan_id":"free"},{"bike_id":"3c7e457f-a76e-4ae7-b814-0f9a1b0d83db","system_id":"levelo_inurba_marseille","lat":43.30138,"lon":5.37426,"is_reserved":false,"is_disabled":false,"rental_uris":{"android":"levelo://app?vid=3c7e457f-a76e-4ae7-b814-0f9a1b0d83db","ios":"levelo://app?vid=3c7e457f-a76e-4ae7-b814-0f9a1b0d83db"},"vehicle_type_id":"4","last_reported":1701263412,"current_range_meters":10800,"station_id":"ce4bgs92rcd13ifvqcc0","pricing_plan_id":"free"},{"bike_id":"2275aca5-3158-4c2c-8022-ca5d2714bc86","system_id":"levelo_inurba_marseille","lat":43.319997,"lon":5.381594,"is_reserved":false,"is_disabled":false,"rental_uris":{"android":"levelo://app?vid=2275aca5-3158-4c2c-8022-ca5d2714bc86","ios":"levelo://app?vid=2275aca5-3158-4c2c-8022-ca5d2714bc86"},"vehicle_type_id":"4","last_reported":1701263412,"current_range_meters":26800,"station_id":"ce4bhr12rcd13ifvqhpg","pricing_plan_id":"free"},{"bike_id":"874e2ae3-7de8-4a71-8f9e-f138c200e2a8","system_id":"levelo_inurba_marseille","lat":43.313571,"lon":5.384829,"is_reserved":false,"is_disabled":false,"rental_uris":{"android":"levelo://app?vid=874e2ae3-7de8-4a71-8f9e-f138c200e2a8","ios":"levelo://app?vid=874e2ae3-7de8-4a71-8f9e-f138c200e2a8"},"vehicle_type_id":"4","last_reported":1701263412,"current_range_meters":6000,"station_id":"ce4bgt92rcd13ifvqcf0","pricing_plan_id":"free"},{"bike_id":"dfdb593b-5623-4cfb-b86f-d3de6eda4d8b","system_id":"levelo_inurba_marseille","lat":43.299168,"lon":5.36554,"is_reserved":false,"is_disabled":false,"rental_uris":{"android":"levelo://app?vid=dfdb593b-5623-4cfb-b86f-d3de6eda4d8b","ios":"levelo://app?vid=dfdb593b-5623-4cfb-b86f-d3de6eda4d8b"},"vehicle_type_id":"4","last_reported":1701263412,"current_range_meters":25600,"station_id":"ce4bgm92rcd13ifvqbr0","pricing_plan_id":"free"},{"bike_id":"aebb5f1f-3a1e-4323-a4f0-ae83e0b78d14","system_id":"levelo_inurba_marseille","lat":43.298433,"lon":5.362774,"is_reserved":false,"is_disabled":false,"rental_uris":{"android":"levelo://app?vid=aebb5f1f-3a1e-4323-a4f0-ae83e0b78d14","ios":"levelo://app?vid=aebb5f1f-3a1e-4323-a4f0-ae83e0b78d14"},"vehicle_type_id":"4","last_reported":1701263412,"current_range_meters":29600,"station_id":"ce4bgpp2rcd13ifvqc3g","pricing_plan_id":"free"},{"bike_id":"b16dcf33-ebca-4901-ba6a-12d67f7f42bf","system_id":"levelo_inurba_marseille","lat":43.311975,"lon":5.38688,"is_reserved":false,"is_disabled":false,"rental_uris":{"android":"levelo://app?vid=b16dcf33-ebca-4901-ba6a-12d67f7f42bf","ios":"levelo://app?vid=b16dcf33-ebca-4901-ba6a-12d67f7f42bf"},"vehicle_type_id":"4","last_reported":1701263412,"current_range_meters":21600,"station_id":"","pricing_plan_id":"free"},{"bike_id":"261f5cab-340d-42b6-96fb-38b883086dff","system_id":"levelo_inurba_marseille","lat":43.298433,"lon":5.362774,"is_reserved":false,"is_disabled":false,"rental_uris":{"android":"levelo://app?vid=261f5cab-340d-42b6-96fb-38b883086dff","ios":"levelo://app?vid=261f5cab-340d-42b6-96fb-38b883086dff"},"vehicle_type_id":"4","last_reported":1701263412,"current_range_meters":20400,"station_id":"ce4bgpp2rcd13ifvqc3g","pricing_plan_id":"free"},{"bike_id":"fd2873fe-10fc-4293-b78f-812c31c67087","system_id":"levelo_inurba_marseille","lat":43.298433,"lon":5.362774,"is_reserved":false,"is_disabled":false,"rental_uris":{"android":"levelo://app?vid=fd2873fe-10fc-4293-b78f-812c31c67087","ios":"levelo://app?vid=fd2873fe-10fc-4293-b78f-812c31c67087"},"vehicle_type_id":"4","last_reported":1701263412,"current_range_meters":27200,"station_id":"ce4bgpp2rcd13ifvqc3g","pricing_plan_id":"free"},{"bike_id":"358558d7-7d60-44b1-858c-03d7c2203b4b","system_id":"levelo_inurba_marseille","lat":43.298433,"lon":5.362774,"is_reserved":false,"is_disabled":false,"rental_uris":{"android":"levelo://app?vid=358558d7-7d60-44b1-858c-03d7c2203b4b","ios":"levelo://app?vid=358558d7-7d60-44b1-858c-03d7c2203b4b"},"vehicle_type_id":"4","last_reported":1701263412,"current_range_meters":30000,"station_id":"ce4bgpp2rcd13ifvqc3g","pricing_plan_id":"free"},{"bike_id":"85ced5dd-aec1-4a4f-86a4-347880661ed1","system_id":"levelo_inurba_marseille","lat":43.298433,"lon":5.362774,"is_reserved":false,"is_disabled":false,"rental_uris":{"android":"levelo://app?vid=85ced5dd-aec1-4a4f-86a4-347880661ed1","ios":"levelo://app?vid=85ced5dd-aec1-4a4f-86a4-347880661ed1"},"vehicle_type_id":"4","last_reported":1701263412,"current_range_meters":5200,"station_id":"ce4bgpp2rcd13ifvqc3g","pricing_plan_id":"free"},{"bike_id":"23509bd6-5224-4f08-99a9-4e53510eec07","system_id":"levelo_inurba_marseille","lat":43.29841,"lon":5.36262,"is_reserved":false,"is_disabled":false,"rental_uris":{"android":"levelo://app?vid=23509bd6-5224-4f08-99a9-4e53510eec07","ios":"levelo://app?vid=23509bd6-5224-4f08-99a9-4e53510eec07"},"vehicle_type_id":"4","last_reported":1701263412,"current_range_meters":16400,"station_id":"ce4bgpp2rcd13ifvqc3g","pricing_plan_id":"free"},{"bike_id":"480023d4-9507-486f-8194-007e74651911","system_id":"levelo_inurba_marseille","lat":43.297163,"lon":5.365866,"is_reserved":false,"is_disabled":false,"rental_uris":{"android":"levelo://app?vid=480023d4-9507-486f-8194-007e74651911","ios":"levelo://app?vid=480023d4-9507-486f-8194-007e74651911"},"vehicle_type_id":"4","last_reported":1701263412,"current_range_meters":28000,"station_id":"ce4bgn12rcd13ifvqbt0","pricing_plan_id":"free"},{"bike_id":"36e95834-4bed-4cfa-9ead-23fa9f68bfde","system_id":"levelo_inurba_marseille","lat":43.2968,"lon":5.37291,"is_reserved":false,"is_disabled":false,"rental_uris":{"android":"levelo://app?vid=36e95834-4bed-4cfa-9ead-23fa9f68bfde","ios":"levelo://app?vid=36e95834-4bed-4cfa-9ead-23fa9f68bfde"},"vehicle_type_id":"4","last_reported":1701263412,"current_range_meters":22800,"station_id":"ce4bgk12rcd13ifvqbj0","pricing_plan_id":"free"},{"bike_id":"b46a7824-3f2f-455a-ba33-803bc434f69d","system_id":"levelo_inurba_marseille","lat":43.296131,"lon":5.370791,"is_reserved":false,"is_disabled":false,"rental_uris":{"android":"levelo://app?vid=b46a7824-3f2f-455a-ba33-803bc434f69d","ios":"levelo://app?vid=b46a7824-3f2f-455a-ba33-803bc434f69d"},"vehicle_type_id":"4","last_reported":1701263412,"current_range_meters":27200,"station_id":"ce4bgnh2rcd13ifvqc0g","pricing_plan_id":"free"},{"bike_id":"31b67432-db9c-4555-92a0-002895bbda52","system_id":"levelo_inurba_marseille","lat":43.29573,"lon":5.367355,"is_reserved":false,"is_disabled":false,"rental_uris":{"android":"levelo://app?vid=31b67432-db9c-4555-92a0-002895bbda52","ios":"levelo://app?vid=31b67432-db9c-4555-92a0-002895bbda52"},"vehicle_type_id":"4","last_reported":1701263412,"current_range_meters":30400,"station_id":"ce4bgph2rcd13ifvqc2g","pricing_plan_id":"free"},{"bike_id":"0b29e40f-f073-4e20-b087-861599903337","system_id":"levelo_inurba_marseille","lat":43.296129,"lon":5.370777,"is_reserved":false,"is_disabled":false,"rental_uris":{"android":"levelo://app?vid=0b29e40f-f073-4e20-b087-861599903337","ios":"levelo://app?vid=0b29e40f-f073-4e20-b087-861599903337"},"vehicle_type_id":"4","last_reported":1701263412,"current_range_meters":3200,"station_id":"ce4bgnh2rcd13ifvqc0g","pricing_plan_id":"free"},{"bike_id":"b6826001-a239-47f9-a2fa-23dbcaf02547","system_id":"levelo_inurba_marseille","lat":43.29573,"lon":5.367355,"is_reserved":false,"is_disabled":false,"rental_uris":{"android":"levelo://app?vid=b6826001-a239-47f9-a2fa-23dbcaf02547","ios":"levelo://app?vid=b6826001-a239-47f9-a2fa-23dbcaf02547"},"vehicle_type_id":"4","last_reported":1701263412,"current_range_meters":13200,"station_id":"ce4bgph2rcd13ifvqc2g","pricing_plan_id":"free"},{"bike_id":"9b36ab86-38ee-41b2-96fc-2fcaa45a266d","system_id":"levelo_inurba_marseille","lat":43.29573,"lon":5.367355,"is_reserved":false,"is_disabled":false,"rental_uris":{"android":"levelo://app?vid=9b36ab86-38ee-41b2-96fc-2fcaa45a266d","ios":"levelo://app?vid=9b36ab86-38ee-41b2-96fc-2fcaa45a266d"},"vehicle_type_id":"4","last_reported":1701263412,"current_range_meters":27200,"station_id":"ce4bgph2rcd13ifvqc2g","pricing_plan_id":"free"},{"bike_id":"17d3aa1e-7cf3-4701-bb70-0d1e76f6f814","system_id":"levelo_inurba_marseille","lat":43.296935,"lon":5.376544,"is_reserved":false,"is_disabled":false,"rental_uris":{"android":"levelo://app?vid=17d3aa1e-7cf3-4701-bb70-0d1e76f6f814","ios":"levelo://app?vid=17d3aa1e-7cf3-4701-bb70-0d1e76f6f814"},"vehicle_type_id":"4","last_reported":1701263412,"current_range_meters":6800,"station_id":"ce4bgkh2rcd13ifvqbl0","pricing_plan_id":"free"},{"bike_id":"2f064fab-60d7-4a55-a096-688579aec4bf","system_id":"levelo_inurba_marseille","lat":43.296935,"lon":5.376544,"is_reserved":false,"is_disabled":false,"rental_uris":{"android":"levelo://app?vid=2f064fab-60d7-4a55-a096-688579aec4bf","ios":"levelo://app?vid=2f064fab-60d7-4a55-a096-688579aec4bf"},"vehicle_type_id":"4","last_reported":1701263412,"current_range_meters":15600,"station_id":"ce4bgkh2rcd13ifvqbl0","pricing_plan_id":"free"},{"bike_id":"f2eb658d-7e01-4f75-8cb9-4b26c62e43e5","system_id":"levelo_inurba_marseille","lat":43.309462,"lon":5.390211,"is_reserved":false,"is_disabled":false,"rental_uris":{"android":"levelo://app?vid=f2eb658d-7e01-4f75-8cb9-4b26c62e43e5","ios":"levelo://app?vid=f2eb658d-7e01-4f75-8cb9-4b26c62e43e5"},"vehicle_type_id":"4","last_reported":1701263412,"current_range_meters":4400,"station_id":"","pricing_plan_id":"free"},{"bike_id":"fa3624b5-56b1-4f7b-91a4-8720fb80b3d0","system_id":"levelo_inurba_marseille","lat":43.299028,"lon":5.381509,"is_reserved":false,"is_disabled":false,"rental_uris":{"android":"levelo://app?vid=fa3624b5-56b1-4f7b-91a4-8720fb80b3d0","ios":"levelo://app?vid=fa3624b5-56b1-4f7b-91a4-8720fb80b3d0"},"vehicle_type_id":"4","last_reported":1701263412,"current_range_meters":4800,"station_id":"ce4bgj12rcd13ifvqbc0","pricing_plan_id":"free"},{"bike_id":"638d6f02-e31a-4f44-802d-340e1696e1a1","system_id":"levelo_inurba_marseille","lat":43.309465,"lon":5.390234,"is_reserved":false,"is_disabled":false,"rental_uris":{"android":"levelo://app?vid=638d6f02-e31a-4f44-802d-340e1696e1a1","ios":"levelo://app?vid=638d6f02-e31a-4f44-802d-340e1696e1a1"},"vehicle_type_id":"4","last_reported":1701263412,"current_range_meters":28000,"station_id":"ce4bgup2rcd13ifvqco0","pricing_plan_id":"free"},{"bike_id":"66da828b-33c2-41fa-9546-6afdcd70282d","system_id":"levelo_inurba_marseille","lat":43.296921,"lon":5.376579,"is_reserved":false,"is_disabled":false,"rental_uris":{"android":"levelo://app?vid=66da828b-33c2-41fa-9546-6afdcd70282d","ios":"levelo://app?vid=66da828b-33c2-41fa-9546-6afdcd70282d"},"vehicle_type_id":"4","last_reported":1701263412,"current_range_meters":21200,"station_id":"ce4bgkh2rcd13ifvqbl0","pricing_plan_id":"free"},{"bike_id":"09684ad6-4463-43ee-81a2-77c41c065845","system_id":"levelo_inurba_marseille","lat":43.317557,"lon":5.390173,"is_reserved":false,"is_disabled":false,"rental_uris":{"android":"levelo://app?vid=09684ad6-4463-43ee-81a2-77c41c065845","ios":"levelo://app?vid=09684ad6-4463-43ee-81a2-77c41c065845"},"vehicle_type_id":"4","last_reported":1701263412,"current_range_meters":23600,"station_id":"ce4bhqp2rcd13ifvqhng","pricing_plan_id":"free"},{"bike_id":"548dabff-08c2-4c3a-9b02-d77a479506a1","system_id":"levelo_inurba_marseille","lat":43.298037,"lon":5.381066,"is_reserved":false,"is_disabled":false,"rental_uris":{"android":"levelo://app?vid=548dabff-08c2-4c3a-9b02-d77a479506a1","ios":"levelo://app?vid=548dabff-08c2-4c3a-9b02-d77a479506a1"},"vehicle_type_id":"4","last_reported":1701263412,"current_range_meters":30000,"station_id":"ce4bgip2rcd13ifvqbb0","pricing_plan_id":"free"},{"bike_id":"9fd7c191-fc17-464d-8023-006d7a3c4b2b","system_id":"levelo_inurba_marseille","lat":43.298037,"lon":5.381066,"is_reserved":false,"is_disabled":false,"rental_uris":{"android":"levelo://app?vid=9fd7c191-fc17-464d-8023-006d7a3c4b2b","ios":"levelo://app?vid=9fd7c191-fc17-464d-8023-006d7a3c4b2b"},"vehicle_type_id":"4","last_reported":1701263412,"current_range_meters":13200,"station_id":"ce4bgip2rcd13ifvqbb0","pricing_plan_id":"free"},{"bike_id":"ec43b916-3ad0-4382-bffe-acaf02ae85e3","system_id":"levelo_inurba_marseille","lat":43.295748,"lon":5.37522,"is_reserved":false,"is_disabled":false,"rental_uris":{"android":"levelo://app?vid=ec43b916-3ad0-4382-bffe-acaf02ae85e3","ios":"levelo://app?vid=ec43b916-3ad0-4382-bffe-acaf02ae85e3"},"vehicle_type_id":"4","last_reported":1701263412,"current_range_meters":11600,"station_id":"ce4bgh92rcd13ifvqb50","pricing_plan_id":"free"},{"bike_id":"5081b044-cc24-4489-8ea9-e0b5af6023fe","system_id":"levelo_inurba_marseille","lat":43.295748,"lon":5.37522,"is_reserved":false,"is_disabled":false,"rental_uris":{"android":"levelo://app?vid=5081b044-cc24-4489-8ea9-e0b5af6023fe","ios":"levelo://app?vid=5081b044-cc24-4489-8ea9-e0b5af6023fe"},"vehicle_type_id":"4","last_reported":1701263412,"current_range_meters":12000,"station_id":"ce4bgh92rcd13ifvqb50","pricing_plan_id":"free"},{"bike_id":"740d569a-9b51-47b6-a333-8ab89214ff07","system_id":"levelo_inurba_marseille","lat":43.298037,"lon":5.381066,"is_reserved":false,"is_disabled":false,"rental_uris":{"android":"levelo://app?vid=740d569a-9b51-47b6-a333-8ab89214ff07","ios":"levelo://app?vid=740d569a-9b51-47b6-a333-8ab89214ff07"},"vehicle_type_id":"4","last_reported":1701263412,"current_range_meters":25600,"station_id":"ce4bgip2rcd13ifvqbb0","pricing_plan_id":"free"},{"bike_id":"cd21049d-50b0-4213-ac00-e3e72dc8708c","system_id":"levelo_inurba_marseille","lat":43.295748,"lon":5.37522,"is_reserved":false,"is_disabled":false,"rental_uris":{"android":"levelo://app?vid=cd21049d-50b0-4213-ac00-e3e72dc8708c","ios":"levelo://app?vid=cd21049d-50b0-4213-ac00-e3e72dc8708c"},"vehicle_type_id":"4","last_reported":1701263412,"current_range_meters":31200,"station_id":"ce4bgh92rcd13ifvqb50","pricing_plan_id":"free"},{"bike_id":"8c03ed6d-069b-4a0e-a0f0-7a7fd944ad71","system_id":"levelo_inurba_marseille","lat":43.296263,"lon":5.377094,"is_reserved":false,"is_disabled":false,"rental_uris":{"android":"levelo://app?vid=8c03ed6d-069b-4a0e-a0f0-7a7fd944ad71","ios":"levelo://app?vid=8c03ed6d-069b-4a0e-a0f0-7a7fd944ad71"},"vehicle_type_id":"4","last_reported":1701263412,"current_range_meters":4400,"station_id":"ce4bgi92rcd13ifvqb90","pricing_plan_id":"free"},{"bike_id":"7b3da36c-a1f2-4f11-a03f-10470fdc9b4e","system_id":"levelo_inurba_marseille","lat":43.304274,"lon":5.388873,"is_reserved":false,"is_disabled":false,"rental_uris":{"android":"levelo://app?vid=7b3da36c-a1f2-4f11-a03f-10470fdc9b4e","ios":"levelo://app?vid=7b3da36c-a1f2-4f11-a03f-10470fdc9b4e"},"vehicle_type_id":"4","last_reported":1701263412,"current_range_meters":17600,"station_id":"ce4bgk12rcd13ifvqbi0","pricing_plan_id":"free"},{"bike_id":"ee44e5b5-6e8d-4473-920e-2e222d2ea0f8","system_id":"levelo_inurba_marseille","lat":43.295748,"lon":5.37522,"is_reserved":false,"is_disabled":false,"rental_uris":{"android":"levelo://app?vid=ee44e5b5-6e8d-4473-920e-2e222d2ea0f8","ios":"levelo://app?vid=ee44e5b5-6e8d-4473-920e-2e222d2ea0f8"},"vehicle_type_id":"4","last_reported":1701263412,"current_range_meters":6000,"station_id":"ce4bgh92rcd13ifvqb50","pricing_plan_id":"free"},{"bike_id":"48bc5293-4844-4eef-aa33-da501e881069","system_id":"levelo_inurba_marseille","lat":43.294872,"lon":5.374338,"is_reserved":false,"is_disabled":false,"rental_uris":{"android":"levelo://app?vid=48bc5293-4844-4eef-aa33-da501e881069","ios":"levelo://app?vid=48bc5293-4844-4eef-aa33-da501e881069"},"vehicle_type_id":"4","last_reported":1701263412,"current_range_meters":6000,"station_id":"","pricing_plan_id":"free"},{"bike_id":"8be80cde-f5c3-4381-9d92-7ce41841e667","system_id":"levelo_inurba_marseille","lat":43.293662,"lon":5.378394,"is_reserved":false,"is_disabled":false,"rental_uris":{"android":"levelo://app?vid=8be80cde-f5c3-4381-9d92-7ce41841e667","ios":"levelo://app?vid=8be80cde-f5c3-4381-9d92-7ce41841e667"},"vehicle_type_id":"4","last_reported":1701263412,"current_range_meters":18800,"station_id":"","pricing_plan_id":"free"},{"bike_id":"393e447f-e5b7-48a4-9097-4c6cb9af4d55","system_id":"levelo_inurba_marseille","lat":43.295404,"lon":5.385516,"is_reserved":false,"is_disabled":false,"rental_uris":{"android":"levelo://app?vid=393e447f-e5b7-48a4-9097-4c6cb9af4d55","ios":"levelo://app?vid=393e447f-e5b7-48a4-9097-4c6cb9af4d55"},"vehicle_type_id":"4","last_reported":1701263412,"current_range_meters":0,"station_id":"ce4bgih2rcd13ifvqba0","pricing_plan_id":"free"},{"bike_id":"65d627ea-af7b-42fa-8626-ae079209013d","system_id":"levelo_inurba_marseille","lat":43.290631,"lon":5.359244,"is_reserved":false,"is_disabled":false,"rental_uris":{"android":"levelo://app?vid=65d627ea-af7b-42fa-8626-ae079209013d","ios":"levelo://app?vid=65d627ea-af7b-42fa-8626-ae079209013d"},"vehicle_type_id":"4","last_reported":1701263412,"current_range_meters":7200,"station_id":"ce4bha92rcd13ifvqeg0","pricing_plan_id":"free"},{"bike_id":"955bc2c7-8896-434a-bca5-47f3cbc17553","system_id":"levelo_inurba_marseille","lat":43.290327,"lon":5.375711,"is_reserved":false,"is_disabled":false,"rental_uris":{"android":"levelo://app?vid=955bc2c7-8896-434a-bca5-47f3cbc17553","ios":"levelo://app?vid=955bc2c7-8896-434a-bca5-47f3cbc17553"},"vehicle_type_id":"4","last_reported":1701263412,"current_range_meters":17600,"station_id":"ce4bh692rcd13ifvqe90","pricing_plan_id":"free"},{"bike_id":"eb66bf75-e5a5-43d1-ba51-98536d8a5d6e","system_id":"levelo_inurba_marseille","lat":43.294162,"lon":5.386292,"is_reserved":false,"is_disabled":false,"rental_uris":{"android":"levelo://app?vid=eb66bf75-e5a5-43d1-ba51-98536d8a5d6e","ios":"levelo://app?vid=eb66bf75-e5a5-43d1-ba51-98536d8a5d6e"},"vehicle_type_id":"4","last_reported":1701263412,"current_range_meters":6400,"station_id":"ce4bh2h2rcd13ifvqdh0","pricing_plan_id":"free"},{"bike_id":"75e84da9-0269-44e9-a002-6d099be63430","system_id":"levelo_inurba_marseille","lat":43.289184,"lon":5.366408,"is_reserved":false,"is_disabled":false,"rental_uris":{"android":"levelo://app?vid=75e84da9-0269-44e9-a002-6d099be63430","ios":"levelo://app?vid=75e84da9-0269-44e9-a002-6d099be63430"},"vehicle_type_id":"4","last_reported":1701263412,"current_range_meters":4800,"station_id":"ce4bhap2rcd13ifvqek0","pricing_plan_id":"free"},{"bike_id":"1121ed2f-8095-46ea-b68f-649fa2f99b68","system_id":"levelo_inurba_marseille","lat":43.289184,"lon":5.366408,"is_reserved":false,"is_disabled":false,"rental_uris":{"android":"levelo://app?vid=1121ed2f-8095-46ea-b68f-649fa2f99b68","ios":"levelo://app?vid=1121ed2f-8095-46ea-b68f-649fa2f99b68"},"vehicle_type_id":"4","last_reported":1701263412,"current_range_meters":18000,"station_id":"ce4bhap2rcd13ifvqek0","pricing_plan_id":"free"},{"bike_id":"9381a434-ee18-4c3d-a878-3674a58e83d5","system_id":"levelo_inurba_marseille","lat":43.289184,"lon":5.366408,"is_reserved":false,"is_disabled":false,"rental_uris":{"android":"levelo://app?vid=9381a434-ee18-4c3d-a878-3674a58e83d5","ios":"levelo://app?vid=9381a434-ee18-4c3d-a878-3674a58e83d5"},"vehicle_type_id":"4","last_reported":1701263412,"current_range_meters":25200,"station_id":"ce4bhap2rcd13ifvqek0","pricing_plan_id":"free"},{"bike_id":"a7ef44cd-73e5-4ead-9c96-07b31df4cf57","system_id":"levelo_inurba_marseille","lat":43.289184,"lon":5.366408,"is_reserved":false,"is_disabled":false,"rental_uris":{"android":"levelo://app?vid=a7ef44cd-73e5-4ead-9c96-07b31df4cf57","ios":"levelo://app?vid=a7ef44cd-73e5-4ead-9c96-07b31df4cf57"},"vehicle_type_id":"4","last_reported":1701263412,"current_range_meters":22000,"station_id":"ce4bhap2rcd13ifvqek0","pricing_plan_id":"free"},{"bike_id":"7f051ba4-26fb-47b8-a30e-7818119eaa64","system_id":"levelo_inurba_marseille","lat":43.289184,"lon":5.366408,"is_reserved":false,"is_disabled":false,"rental_uris":{"android":"levelo://app?vid=7f051ba4-26fb-47b8-a30e-7818119eaa64","ios":"levelo://app?vid=7f051ba4-26fb-47b8-a30e-7818119eaa64"},"vehicle_type_id":"4","last_reported":1701263412,"current_range_meters":26400,"station_id":"ce4bhap2rcd13ifvqek0","pricing_plan_id":"free"},{"bike_id":"07defdcf-5ca1-4dc9-b420-68a4ce1a1810","system_id":"levelo_inurba_marseille","lat":43.28941,"lon":5.3639,"is_reserved":false,"is_disabled":false,"rental_uris":{"android":"levelo://app?vid=07defdcf-5ca1-4dc9-b420-68a4ce1a1810","ios":"levelo://app?vid=07defdcf-5ca1-4dc9-b420-68a4ce1a1810"},"vehicle_type_id":"4","last_reported":1701263412,"current_range_meters":6000,"station_id":"ce4bhc92rcd13ifvqetg","pricing_plan_id":"free"},{"bike_id":"be1aa488-a708-447c-bffe-076eb32636ad","system_id":"levelo_inurba_marseille","lat":43.2894,"lon":5.36394,"is_reserved":false,"is_disabled":false,"rental_uris":{"android":"levelo://app?vid=be1aa488-a708-447c-bffe-076eb32636ad","ios":"levelo://app?vid=be1aa488-a708-447c-bffe-076eb32636ad"},"vehicle_type_id":"4","last_reported":1701263412,"current_range_meters":0,"station_id":"ce4bhc92rcd13ifvqetg","pricing_plan_id":"free"},{"bike_id":"752eedf6-72c6-42b3-a237-cf64f791f6b7","system_id":"levelo_inurba_marseille","lat":43.28936,"lon":5.36387,"is_reserved":false,"is_disabled":false,"rental_uris":{"android":"levelo://app?vid=752eedf6-72c6-42b3-a237-cf64f791f6b7","ios":"levelo://app?vid=752eedf6-72c6-42b3-a237-cf64f791f6b7"},"vehicle_type_id":"4","last_reported":1701263412,"current_range_meters":20400,"station_id":"ce4bhc92rcd13ifvqetg","pricing_plan_id":"free"},{"bike_id":"fc2ce203-7507-4429-8434-de90408638c3","system_id":"levelo_inurba_marseille","lat":43.289345,"lon":5.36408,"is_reserved":false,"is_disabled":false,"rental_uris":{"android":"levelo://app?vid=fc2ce203-7507-4429-8434-de90408638c3","ios":"levelo://app?vid=fc2ce203-7507-4429-8434-de90408638c3"},"vehicle_type_id":"4","last_reported":1701263412,"current_range_meters":21200,"station_id":"ce4bhc92rcd13ifvqetg","pricing_plan_id":"free"},{"bike_id":"b0cf9b21-36d0-406c-8810-4d535ffc14d3","system_id":"levelo_inurba_marseille","lat":43.290103,"lon":5.356114,"is_reserved":false,"is_disabled":false,"rental_uris":{"android":"levelo://app?vid=b0cf9b21-36d0-406c-8810-4d535ffc14d3","ios":"levelo://app?vid=b0cf9b21-36d0-406c-8810-4d535ffc14d3"},"vehicle_type_id":"4","last_reported":1701263412,"current_range_meters":20400,"station_id":"ce4bhb92rcd13ifvqen0","pricing_plan_id":"free"},{"bike_id":"0f05fcb9-a839-4bc2-a527-d58ef662c10e","system_id":"levelo_inurba_marseille","lat":43.2978,"lon":5.39347,"is_reserved":false,"is_disabled":false,"rental_uris":{"android":"levelo://app?vid=0f05fcb9-a839-4bc2-a527-d58ef662c10e","ios":"levelo://app?vid=0f05fcb9-a839-4bc2-a527-d58ef662c10e"},"vehicle_type_id":"4","last_reported":1701263412,"current_range_meters":12000,"station_id":"chh1huq6cuj3fo74tm60","pricing_plan_id":"free"},{"bike_id":"0e5ffb36-1095-4a05-a7f6-28a0f8b0fe72","system_id":"levelo_inurba_marseille","lat":43.312609,"lon":5.401662,"is_reserved":false,"is_disabled":false,"rental_uris":{"android":"levelo://app?vid=0e5ffb36-1095-4a05-a7f6-28a0f8b0fe72","ios":"levelo://app?vid=0e5ffb36-1095-4a05-a7f6-28a0f8b0fe72"},"vehicle_type_id":"4","last_reported":1701263412,"current_range_meters":1200,"station_id":"ce4bh092rcd13ifvqd30","pricing_plan_id":"free"},{"bike_id":"6370a8d0-b7a4-4d2a-9d7b-53a04bd50e54","system_id":"levelo_inurba_marseille","lat":43.309304,"lon":5.401357,"is_reserved":false,"is_disabled":false,"rental_uris":{"android":"levelo://app?vid=6370a8d0-b7a4-4d2a-9d7b-53a04bd50e54","ios":"levelo://app?vid=6370a8d0-b7a4-4d2a-9d7b-53a04bd50e54"},"vehicle_type_id":"4","last_reported":1701263412,"current_range_meters":27600,"station_id":"","pricing_plan_id":"free"},{"bike_id":"542bebe5-f284-4422-8eca-36d8aa2f939b","system_id":"levelo_inurba_marseille","lat":43.30936,"lon":5.40145,"is_reserved":false,"is_disabled":false,"rental_uris":{"android":"levelo://app?vid=542bebe5-f284-4422-8eca-36d8aa2f939b","ios":"levelo://app?vid=542bebe5-f284-4422-8eca-36d8aa2f939b"},"vehicle_type_id":"4","last_reported":1701263412,"current_range_meters":12800,"station_id":"ce4bgvp2rcd13ifvqct0","pricing_plan_id":"free"},{"bike_id":"b29d755e-5d04-4658-8e6f-e9b71f87f5aa","system_id":"levelo_inurba_marseille","lat":43.30935,"lon":5.40147,"is_reserved":false,"is_disabled":false,"rental_uris":{"android":"levelo://app?vid=b29d755e-5d04-4658-8e6f-e9b71f87f5aa","ios":"levelo://app?vid=b29d755e-5d04-4658-8e6f-e9b71f87f5aa"},"vehicle_type_id":"4","last_reported":1701263412,"current_range_meters":10000,"station_id":"ce4bgvp2rcd13ifvqct0","pricing_plan_id":"free"},{"bike_id":"ba4163a3-b3a6-4cbf-a1ba-da35b393181d","system_id":"levelo_inurba_marseille","lat":43.309371,"lon":5.401449,"is_reserved":false,"is_disabled":false,"rental_uris":{"android":"levelo://app?vid=ba4163a3-b3a6-4cbf-a1ba-da35b393181d","ios":"levelo://app?vid=ba4163a3-b3a6-4cbf-a1ba-da35b393181d"},"vehicle_type_id":"4","last_reported":1701263412,"current_range_meters":13600,"station_id":"ce4bgvp2rcd13ifvqct0","pricing_plan_id":"free"},{"bike_id":"9ee44848-9d0d-40c0-b124-64b8d374f3dd","system_id":"levelo_inurba_marseille","lat":43.33759,"lon":5.3748,"is_reserved":false,"is_disabled":false,"rental_uris":{"android":"levelo://app?vid=9ee44848-9d0d-40c0-b124-64b8d374f3dd","ios":"levelo://app?vid=9ee44848-9d0d-40c0-b124-64b8d374f3dd"},"vehicle_type_id":"4","last_reported":1701263412,"current_range_meters":22800,"station_id":"","pricing_plan_id":"free"},{"bike_id":"46a0e7e4-75c2-4900-99ca-04287ccfc4ba","system_id":"levelo_inurba_marseille","lat":43.337755,"lon":5.374393,"is_reserved":false,"is_disabled":false,"rental_uris":{"android":"levelo://app?vid=46a0e7e4-75c2-4900-99ca-04287ccfc4ba","ios":"levelo://app?vid=46a0e7e4-75c2-4900-99ca-04287ccfc4ba"},"vehicle_type_id":"4","last_reported":1701263412,"current_range_meters":28800,"station_id":"","pricing_plan_id":"free"},{"bike_id":"25ede7b6-cbf4-43a5-9a1e-96da0f3ca1c2","system_id":"levelo_inurba_marseille","lat":43.301117,"lon":5.398795,"is_reserved":false,"is_disabled":false,"rental_uris":{"android":"levelo://app?vid=25ede7b6-cbf4-43a5-9a1e-96da0f3ca1c2","ios":"levelo://app?vid=25ede7b6-cbf4-43a5-9a1e-96da0f3ca1c2"},"vehicle_type_id":"4","last_reported":1701263412,"current_range_meters":15600,"station_id":"ce4bh0h2rcd13ifvqd40","pricing_plan_id":"free"},{"bike_id":"d15d19ca-2c7b-4405-8e09-9d7b37dfdcaf","system_id":"levelo_inurba_marseille","lat":43.28727,"lon":5.36078,"is_reserved":false,"is_disabled":false,"rental_uris":{"android":"levelo://app?vid=d15d19ca-2c7b-4405-8e09-9d7b37dfdcaf","ios":"levelo://app?vid=d15d19ca-2c7b-4405-8e09-9d7b37dfdcaf"},"vehicle_type_id":"4","last_reported":1701263412,"current_range_meters":22800,"station_id":"cki0cbj6b192h4jlfktg","pricing_plan_id":"free"},{"bike_id":"f1344bfb-25f3-4c28-a7d7-fd7096973e4d","system_id":"levelo_inurba_marseille","lat":43.286591,"lon":5.363346,"is_reserved":false,"is_disabled":false,"rental_uris":{"android":"levelo://app?vid=f1344bfb-25f3-4c28-a7d7-fd7096973e4d","ios":"levelo://app?vid=f1344bfb-25f3-4c28-a7d7-fd7096973e4d"},"vehicle_type_id":"4","last_reported":1701263412,"current_range_meters":26400,"station_id":"ce4bhah2rcd13ifvqej0","pricing_plan_id":"free"},{"bike_id":"d68bbf00-f90a-4c62-9cee-6cf9a2490e59","system_id":"levelo_inurba_marseille","lat":43.286593,"lon":5.363346,"is_reserved":false,"is_disabled":false,"rental_uris":{"android":"levelo://app?vid=d68bbf00-f90a-4c62-9cee-6cf9a2490e59","ios":"levelo://app?vid=d68bbf00-f90a-4c62-9cee-6cf9a2490e59"},"vehicle_type_id":"4","last_reported":1701263412,"current_range_meters":16800,"station_id":"ce4bhah2rcd13ifvqej0","pricing_plan_id":"free"},{"bike_id":"b61b699b-ee0e-44a0-b504-0c8dd98bc42d","system_id":"levelo_inurba_marseille","lat":43.286593,"lon":5.363346,"is_reserved":false,"is_disabled":false,"rental_uris":{"android":"levelo://app?vid=b61b699b-ee0e-44a0-b504-0c8dd98bc42d","ios":"levelo://app?vid=b61b699b-ee0e-44a0-b504-0c8dd98bc42d"},"vehicle_type_id":"4","last_reported":1701263412,"current_range_meters":29600,"station_id":"ce4bhah2rcd13ifvqej0","pricing_plan_id":"free"},{"bike_id":"f265f57f-bc92-4dfc-8e4b-3949fdd9e8aa","system_id":"levelo_inurba_marseille","lat":43.28699,"lon":5.37394,"is_reserved":false,"is_disabled":false,"rental_uris":{"android":"levelo://app?vid=f265f57f-bc92-4dfc-8e4b-3949fdd9e8aa","ios":"levelo://app?vid=f265f57f-bc92-4dfc-8e4b-3949fdd9e8aa"},"vehicle_type_id":"4","last_reported":1701263412,"current_range_meters":5200,"station_id":"ce4bh3p2rcd13ifvqdq0","pricing_plan_id":"free"},{"bike_id":"22ce31a2-d058-44ec-85db-7bbad0278ecd","system_id":"levelo_inurba_marseille","lat":43.28691,"lon":5.37404,"is_reserved":false,"is_disabled":false,"rental_uris":{"android":"levelo://app?vid=22ce31a2-d058-44ec-85db-7bbad0278ecd","ios":"levelo://app?vid=22ce31a2-d058-44ec-85db-7bbad0278ecd"},"vehicle_type_id":"4","last_reported":1701263412,"current_range_meters":22800,"station_id":"ce4bh3p2rcd13ifvqdq0","pricing_plan_id":"free"},{"bike_id":"0f667e7a-4dc4-4648-a37a-7e7b45efb183","system_id":"levelo_inurba_marseille","lat":43.302759,"lon":5.400793,"is_reserved":false,"is_disabled":false,"rental_uris":{"android":"levelo://app?vid=0f667e7a-4dc4-4648-a37a-7e7b45efb183","ios":"levelo://app?vid=0f667e7a-4dc4-4648-a37a-7e7b45efb183"},"vehicle_type_id":"4","last_reported":1701263412,"current_range_meters":5200,"station_id":"ce4bgvh2rcd13ifvqcs0","pricing_plan_id":"free"},{"bike_id":"df081536-75d3-4605-b138-fc66a8e5ce11","system_id":"levelo_inurba_marseille","lat":43.286039,"lon":5.370679,"is_reserved":false,"is_disabled":false,"rental_uris":{"android":"levelo://app?vid=df081536-75d3-4605-b138-fc66a8e5ce11","ios":"levelo://app?vid=df081536-75d3-4605-b138-fc66a8e5ce11"},"vehicle_type_id":"4","last_reported":1701263412,"current_range_meters":23200,"station_id":"ce4bht12rcd13ifvqi60","pricing_plan_id":"free"},{"bike_id":"bcc8a70d-4da2-4a6b-be4a-ca6147a3b0f1","system_id":"levelo_inurba_marseille","lat":43.286039,"lon":5.370681,"is_reserved":false,"is_disabled":false,"rental_uris":{"android":"levelo://app?vid=bcc8a70d-4da2-4a6b-be4a-ca6147a3b0f1","ios":"levelo://app?vid=bcc8a70d-4da2-4a6b-be4a-ca6147a3b0f1"},"vehicle_type_id":"4","last_reported":1701263412,"current_range_meters":10800,"station_id":"ce4bht12rcd13ifvqi60","pricing_plan_id":"free"},{"bike_id":"ef931019-4c2d-4108-b7f6-e4a8b6a57ef3","system_id":"levelo_inurba_marseille","lat":43.286039,"lon":5.370681,"is_reserved":false,"is_disabled":false,"rental_uris":{"android":"levelo://app?vid=ef931019-4c2d-4108-b7f6-e4a8b6a57ef3","ios":"levelo://app?vid=ef931019-4c2d-4108-b7f6-e4a8b6a57ef3"},"vehicle_type_id":"4","last_reported":1701263412,"current_range_meters":22000,"station_id":"ce4bht12rcd13ifvqi60","pricing_plan_id":"free"},{"bike_id":"8f41a0f6-8a77-44d0-8c9f-d6ac0c73dc29","system_id":"levelo_inurba_marseille","lat":43.316517,"lon":5.404375,"is_reserved":false,"is_disabled":false,"rental_uris":{"android":"levelo://app?vid=8f41a0f6-8a77-44d0-8c9f-d6ac0c73dc29","ios":"levelo://app?vid=8f41a0f6-8a77-44d0-8c9f-d6ac0c73dc29"},"vehicle_type_id":"4","last_reported":1701263412,"current_range_meters":19200,"station_id":"ce4bh012rcd13ifvqd00","pricing_plan_id":"free"},{"bike_id":"5ae8080c-968f-4612-a257-5065940b45ab","system_id":"levelo_inurba_marseille","lat":43.31649,"lon":5.40442,"is_reserved":false,"is_disabled":false,"rental_uris":{"android":"levelo://app?vid=5ae8080c-968f-4612-a257-5065940b45ab","ios":"levelo://app?vid=5ae8080c-968f-4612-a257-5065940b45ab"},"vehicle_type_id":"4","last_reported":1701263412,"current_range_meters":21200,"station_id":"ce4bh012rcd13ifvqd00","pricing_plan_id":"free"},{"bike_id":"1c6eee44-3397-4b25-9a30-d81f844da410","system_id":"levelo_inurba_marseille","lat":43.291994,"lon":5.392907,"is_reserved":false,"is_disabled":false,"rental_uris":{"android":"levelo://app?vid=1c6eee44-3397-4b25-9a30-d81f844da410","ios":"levelo://app?vid=1c6eee44-3397-4b25-9a30-d81f844da410"},"vehicle_type_id":"4","last_reported":1701263412,"current_range_meters":7200,"station_id":"ce4bh192rcd13ifvqdd0","pricing_plan_id":"free"},{"bike_id":"265bbecf-0eeb-4d34-b57a-963df4be7a4c","system_id":"levelo_inurba_marseille","lat":43.284538,"lon":5.358657,"is_reserved":false,"is_disabled":false,"rental_uris":{"android":"levelo://app?vid=265bbecf-0eeb-4d34-b57a-963df4be7a4c","ios":"levelo://app?vid=265bbecf-0eeb-4d34-b57a-963df4be7a4c"},"vehicle_type_id":"4","last_reported":1701263412,"current_range_meters":28000,"station_id":"ce4bhah2rcd13ifvqei0","pricing_plan_id":"free"},{"bike_id":"1f77ff41-0e29-45bc-816c-2ca8a34c337b","system_id":"levelo_inurba_marseille","lat":43.284538,"lon":5.358657,"is_reserved":false,"is_disabled":false,"rental_uris":{"android":"levelo://app?vid=1f77ff41-0e29-45bc-816c-2ca8a34c337b","ios":"levelo://app?vid=1f77ff41-0e29-45bc-816c-2ca8a34c337b"},"vehicle_type_id":"4","last_reported":1701263412,"current_range_meters":30000,"station_id":"ce4bhah2rcd13ifvqei0","pricing_plan_id":"free"},{"bike_id":"b9248349-d85e-46c5-9b9f-3d47ec3646fd","system_id":"levelo_inurba_marseille","lat":43.28452,"lon":5.3589,"is_reserved":false,"is_disabled":false,"rental_uris":{"android":"levelo://app?vid=b9248349-d85e-46c5-9b9f-3d47ec3646fd","ios":"levelo://app?vid=b9248349-d85e-46c5-9b9f-3d47ec3646fd"},"vehicle_type_id":"4","last_reported":1701263412,"current_range_meters":19200,"station_id":"ce4bhah2rcd13ifvqei0","pricing_plan_id":"free"},{"bike_id":"95b355a7-413b-435c-92ea-f984581f4127","system_id":"levelo_inurba_marseille","lat":43.28619,"lon":5.35109,"is_reserved":false,"is_disabled":false,"rental_uris":{"android":"levelo://app?vid=95b355a7-413b-435c-92ea-f984581f4127","ios":"levelo://app?vid=95b355a7-413b-435c-92ea-f984581f4127"},"vehicle_type_id":"4","last_reported":1701263412,"current_range_meters":2800,"station_id":"ce4bhch2rcd13ifvqeug","pricing_plan_id":"free"},{"bike_id":"797cba6d-74ec-4f6d-a0fa-34aed9d09b5a","system_id":"levelo_inurba_marseille","lat":43.283998,"lon":5.375062,"is_reserved":false,"is_disabled":false,"rental_uris":{"android":"levelo://app?vid=797cba6d-74ec-4f6d-a0fa-34aed9d09b5a","ios":"levelo://app?vid=797cba6d-74ec-4f6d-a0fa-34aed9d09b5a"},"vehicle_type_id":"4","last_reported":1701263412,"current_range_meters":2000,"station_id":"ce4bh412rcd13ifvqds0","pricing_plan_id":"free"},{"bike_id":"8811b33b-22a7-46e5-9595-43615566074f","system_id":"levelo_inurba_marseille","lat":43.283998,"lon":5.375062,"is_reserved":false,"is_disabled":false,"rental_uris":{"android":"levelo://app?vid=8811b33b-22a7-46e5-9595-43615566074f","ios":"levelo://app?vid=8811b33b-22a7-46e5-9595-43615566074f"},"vehicle_type_id":"4","last_reported":1701263412,"current_range_meters":24800,"station_id":"ce4bh412rcd13ifvqds0","pricing_plan_id":"free"},{"bike_id":"633faaf4-102c-4a7d-8bac-b7e23d192217","system_id":"levelo_inurba_marseille","lat":43.283998,"lon":5.375062,"is_reserved":false,"is_disabled":false,"rental_uris":{"android":"levelo://app?vid=633faaf4-102c-4a7d-8bac-b7e23d192217","ios":"levelo://app?vid=633faaf4-102c-4a7d-8bac-b7e23d192217"},"vehicle_type_id":"4","last_reported":1701263412,"current_range_meters":24800,"station_id":"ce4bh412rcd13ifvqds0","pricing_plan_id":"free"},{"bike_id":"5a835bf7-8357-426b-a261-d220a066b3e4","system_id":"levelo_inurba_marseille","lat":43.295713,"lon":5.399639,"is_reserved":false,"is_disabled":false,"rental_uris":{"android":"levelo://app?vid=5a835bf7-8357-426b-a261-d220a066b3e4","ios":"levelo://app?vid=5a835bf7-8357-426b-a261-d220a066b3e4"},"vehicle_type_id":"4","last_reported":1701263412,"current_range_meters":23200,"station_id":"ce4bh312rcd13ifvqdj0","pricing_plan_id":"free"},{"bike_id":"7dea4bdf-cb94-42ee-8ca6-4e50b8f0fba3","system_id":"levelo_inurba_marseille","lat":43.286595,"lon":5.386795,"is_reserved":false,"is_disabled":false,"rental_uris":{"android":"levelo://app?vid=7dea4bdf-cb94-42ee-8ca6-4e50b8f0fba3","ios":"levelo://app?vid=7dea4bdf-cb94-42ee-8ca6-4e50b8f0fba3"},"vehicle_type_id":"4","last_reported":1701263412,"current_range_meters":13600,"station_id":"ce4bh492rcd13ifvqdug","pricing_plan_id":"free"},{"bike_id":"b5a1a30c-c315-43ae-a934-0b75ab713e0e","system_id":"levelo_inurba_marseille","lat":43.286595,"lon":5.386795,"is_reserved":false,"is_disabled":false,"rental_uris":{"android":"levelo://app?vid=b5a1a30c-c315-43ae-a934-0b75ab713e0e","ios":"levelo://app?vid=b5a1a30c-c315-43ae-a934-0b75ab713e0e"},"vehicle_type_id":"4","last_reported":1701263412,"current_range_meters":26400,"station_id":"ce4bh492rcd13ifvqdug","pricing_plan_id":"free"},{"bike_id":"360fad51-4971-4093-8ea1-1aa73a34c360","system_id":"levelo_inurba_marseille","lat":43.284793,"lon":5.384113,"is_reserved":false,"is_disabled":false,"rental_uris":{"android":"levelo://app?vid=360fad51-4971-4093-8ea1-1aa73a34c360","ios":"levelo://app?vid=360fad51-4971-4093-8ea1-1aa73a34c360"},"vehicle_type_id":"4","last_reported":1701263412,"current_range_meters":8800,"station_id":"ce4bh512rcd13ifvqe3g","pricing_plan_id":"free"},{"bike_id":"52716aeb-0543-40e5-a916-e6e8c5b705d2","system_id":"levelo_inurba_marseille","lat":43.284787,"lon":5.384116,"is_reserved":false,"is_disabled":false,"rental_uris":{"android":"levelo://app?vid=52716aeb-0543-40e5-a916-e6e8c5b705d2","ios":"levelo://app?vid=52716aeb-0543-40e5-a916-e6e8c5b705d2"},"vehicle_type_id":"4","last_reported":1701263412,"current_range_meters":0,"station_id":"ce4bh512rcd13ifvqe3g","pricing_plan_id":"free"},{"bike_id":"af6f990a-0c92-4b30-bd11-f362bd2ec98a","system_id":"levelo_inurba_marseille","lat":43.289363,"lon":5.396322,"is_reserved":false,"is_disabled":false,"rental_uris":{"android":"levelo://app?vid=af6f990a-0c92-4b30-bd11-f362bd2ec98a","ios":"levelo://app?vid=af6f990a-0c92-4b30-bd11-f362bd2ec98a"},"vehicle_type_id":"4","last_reported":1701263412,"current_range_meters":5600,"station_id":"ce4bh3h2rcd13ifvqdn0","pricing_plan_id":"free"},{"bike_id":"3d52ee51-95e2-476a-9661-cb24f31721fa","system_id":"levelo_inurba_marseille","lat":43.292724,"lon":5.401131,"is_reserved":false,"is_disabled":false,"rental_uris":{"android":"levelo://app?vid=3d52ee51-95e2-476a-9661-cb24f31721fa","ios":"levelo://app?vid=3d52ee51-95e2-476a-9661-cb24f31721fa"},"vehicle_type_id":"4","last_reported":1701263412,"current_range_meters":19200,"station_id":"ce4bh312rcd13ifvqdk0","pricing_plan_id":"free"},{"bike_id":"f8e831fc-3786-4aa5-954f-e258ec7955ac","system_id":"levelo_inurba_marseille","lat":43.292724,"lon":5.401131,"is_reserved":false,"is_disabled":false,"rental_uris":{"android":"levelo://app?vid=f8e831fc-3786-4aa5-954f-e258ec7955ac","ios":"levelo://app?vid=f8e831fc-3786-4aa5-954f-e258ec7955ac"},"vehicle_type_id":"4","last_reported":1701263412,"current_range_meters":24400,"station_id":"ce4bh312rcd13ifvqdk0","pricing_plan_id":"free"},{"bike_id":"e387c5e0-1a36-45ee-ae18-10b4703fe5e1","system_id":"levelo_inurba_marseille","lat":43.283502,"lon":5.386471,"is_reserved":false,"is_disabled":false,"rental_uris":{"android":"levelo://app?vid=e387c5e0-1a36-45ee-ae18-10b4703fe5e1","ios":"levelo://app?vid=e387c5e0-1a36-45ee-ae18-10b4703fe5e1"},"vehicle_type_id":"4","last_reported":1701263412,"current_range_meters":400,"station_id":"ce4bh492rcd13ifvqdvg","pricing_plan_id":"free"},{"bike_id":"0352d8c9-2730-40fd-81ce-746e28d8cb83","system_id":"levelo_inurba_marseille","lat":43.28039,"lon":5.369297,"is_reserved":false,"is_disabled":false,"rental_uris":{"android":"levelo://app?vid=0352d8c9-2730-40fd-81ce-746e28d8cb83","ios":"levelo://app?vid=0352d8c9-2730-40fd-81ce-746e28d8cb83"},"vehicle_type_id":"4","last_reported":1701263412,"current_range_meters":25200,"station_id":"ce4bha12rcd13ifvqef0","pricing_plan_id":"free"},{"bike_id":"3f620b4f-6f6e-4f24-b1f9-ca4aed0795a2","system_id":"levelo_inurba_marseille","lat":43.28039,"lon":5.369297,"is_reserved":false,"is_disabled":false,"rental_uris":{"android":"levelo://app?vid=3f620b4f-6f6e-4f24-b1f9-ca4aed0795a2","ios":"levelo://app?vid=3f620b4f-6f6e-4f24-b1f9-ca4aed0795a2"},"vehicle_type_id":"4","last_reported":1701263412,"current_range_meters":20800,"station_id":"ce4bha12rcd13ifvqef0","pricing_plan_id":"free"},{"bike_id":"8defe715-1e4f-47b5-87b2-e7c83549225d","system_id":"levelo_inurba_marseille","lat":43.290412,"lon":5.399633,"is_reserved":false,"is_disabled":false,"rental_uris":{"android":"levelo://app?vid=8defe715-1e4f-47b5-87b2-e7c83549225d","ios":"levelo://app?vid=8defe715-1e4f-47b5-87b2-e7c83549225d"},"vehicle_type_id":"4","last_reported":1701263412,"current_range_meters":21600,"station_id":"ce4bh392rcd13ifvqdm0","pricing_plan_id":"free"},{"bike_id":"1c9596fd-20cd-42c5-96a1-4332a1b94894","system_id":"levelo_inurba_marseille","lat":43.29041,"lon":5.399634,"is_reserved":false,"is_disabled":false,"rental_uris":{"android":"levelo://app?vid=1c9596fd-20cd-42c5-96a1-4332a1b94894","ios":"levelo://app?vid=1c9596fd-20cd-42c5-96a1-4332a1b94894"},"vehicle_type_id":"4","last_reported":1701263412,"current_range_meters":6000,"station_id":"ce4bh392rcd13ifvqdm0","pricing_plan_id":"free"},{"bike_id":"806dccfd-f107-40f4-9524-48d21f28d1aa","system_id":"levelo_inurba_marseille","lat":43.290412,"lon":5.399633,"is_reserved":false,"is_disabled":false,"rental_uris":{"android":"levelo://app?vid=806dccfd-f107-40f4-9524-48d21f28d1aa","ios":"levelo://app?vid=806dccfd-f107-40f4-9524-48d21f28d1aa"},"vehicle_type_id":"4","last_reported":1701263412,"current_range_meters":3600,"station_id":"ce4bh392rcd13ifvqdm0","pricing_plan_id":"free"},{"bike_id":"8823b07a-aec1-455a-b9eb-9a657c8d0ddf","system_id":"levelo_inurba_marseille","lat":43.290412,"lon":5.399633,"is_reserved":false,"is_disabled":false,"rental_uris":{"android":"levelo://app?vid=8823b07a-aec1-455a-b9eb-9a657c8d0ddf","ios":"levelo://app?vid=8823b07a-aec1-455a-b9eb-9a657c8d0ddf"},"vehicle_type_id":"4","last_reported":1701263412,"current_range_meters":27600,"station_id":"ce4bh392rcd13ifvqdm0","pricing_plan_id":"free"},{"bike_id":"a4350088-aeb0-4e0d-ad1a-5d1311e71551","system_id":"levelo_inurba_marseille","lat":43.281044,"lon":5.378308,"is_reserved":false,"is_disabled":false,"rental_uris":{"android":"levelo://app?vid=a4350088-aeb0-4e0d-ad1a-5d1311e71551","ios":"levelo://app?vid=a4350088-aeb0-4e0d-ad1a-5d1311e71551"},"vehicle_type_id":"4","last_reported":1701263412,"current_range_meters":26400,"station_id":"ce4bha12rcd13ifvqee0","pricing_plan_id":"free"},{"bike_id":"c01c0183-69ed-4a1c-a8dd-54f73d3c56e3","system_id":"levelo_inurba_marseille","lat":43.28102,"lon":5.37834,"is_reserved":false,"is_disabled":false,"rental_uris":{"android":"levelo://app?vid=c01c0183-69ed-4a1c-a8dd-54f73d3c56e3","ios":"levelo://app?vid=c01c0183-69ed-4a1c-a8dd-54f73d3c56e3"},"vehicle_type_id":"4","last_reported":1701263412,"current_range_meters":22400,"station_id":"ce4bha12rcd13ifvqee0","pricing_plan_id":"free"},{"bike_id":"797b77a1-1c9f-4c4e-b273-acb4a0f34b19","system_id":"levelo_inurba_marseille","lat":43.284462,"lon":5.392121,"is_reserved":false,"is_disabled":false,"rental_uris":{"android":"levelo://app?vid=797b77a1-1c9f-4c4e-b273-acb4a0f34b19","ios":"levelo://app?vid=797b77a1-1c9f-4c4e-b273-acb4a0f34b19"},"vehicle_type_id":"4","last_reported":1701263412,"current_range_meters":27600,"station_id":"ce4bhoh2rcd13ifvqh5g","pricing_plan_id":"free"},{"bike_id":"9a087736-a765-45c6-a353-8c5593f58026","system_id":"levelo_inurba_marseille","lat":43.28564,"lon":5.39495,"is_reserved":false,"is_disabled":false,"rental_uris":{"android":"levelo://app?vid=9a087736-a765-45c6-a353-8c5593f58026","ios":"levelo://app?vid=9a087736-a765-45c6-a353-8c5593f58026"},"vehicle_type_id":"4","last_reported":1701263412,"current_range_meters":17200,"station_id":"ce4bh292rcd13ifvqdg0","pricing_plan_id":"free"},{"bike_id":"48130046-b8f6-4548-809b-8861ac391688","system_id":"levelo_inurba_marseille","lat":43.326605,"lon":5.409903,"is_reserved":false,"is_disabled":false,"rental_uris":{"android":"levelo://app?vid=48130046-b8f6-4548-809b-8861ac391688","ios":"levelo://app?vid=48130046-b8f6-4548-809b-8861ac391688"},"vehicle_type_id":"4","last_reported":1701263412,"current_range_meters":12400,"station_id":"ce4bhpp2rcd13ifvqhgg","pricing_plan_id":"free"},{"bike_id":"5b80a59c-2e99-4966-8888-4029d7a8bf02","system_id":"levelo_inurba_marseille","lat":43.304188,"lon":5.412904,"is_reserved":false,"is_disabled":false,"rental_uris":{"android":"levelo://app?vid=5b80a59c-2e99-4966-8888-4029d7a8bf02","ios":"levelo://app?vid=5b80a59c-2e99-4966-8888-4029d7a8bf02"},"vehicle_type_id":"4","last_reported":1701263412,"current_range_meters":27600,"station_id":"ce4bhop2rcd13ifvqh8g","pricing_plan_id":"free"},{"bike_id":"553703cc-a198-4b7c-b4f7-88e7d2d9a97c","system_id":"levelo_inurba_marseille","lat":43.299579,"lon":5.413255,"is_reserved":false,"is_disabled":false,"rental_uris":{"android":"levelo://app?vid=553703cc-a198-4b7c-b4f7-88e7d2d9a97c","ios":"levelo://app?vid=553703cc-a198-4b7c-b4f7-88e7d2d9a97c"},"vehicle_type_id":"4","last_reported":1701263412,"current_range_meters":26800,"station_id":"ce4bhp12rcd13ifvqh9g","pricing_plan_id":"free"},{"bike_id":"1306bb76-bd40-47fd-9bfd-01909369c8ec","system_id":"levelo_inurba_marseille","lat":43.279742,"lon":5.38744,"is_reserved":false,"is_disabled":false,"rental_uris":{"android":"levelo://app?vid=1306bb76-bd40-47fd-9bfd-01909369c8ec","ios":"levelo://app?vid=1306bb76-bd40-47fd-9bfd-01909369c8ec"},"vehicle_type_id":"4","last_reported":1701263412,"current_range_meters":22000,"station_id":"ce4bhg12rcd13ifvqf80","pricing_plan_id":"free"},{"bike_id":"45648e51-1739-49e9-8658-9def04e9e26a","system_id":"levelo_inurba_marseille","lat":43.320045,"lon":5.415048,"is_reserved":false,"is_disabled":false,"rental_uris":{"android":"levelo://app?vid=45648e51-1739-49e9-8658-9def04e9e26a","ios":"levelo://app?vid=45648e51-1739-49e9-8658-9def04e9e26a"},"vehicle_type_id":"4","last_reported":1701263412,"current_range_meters":25200,"station_id":"ce4bhq92rcd13ifvqhkg","pricing_plan_id":"free"},{"bike_id":"b3041be2-c12a-45fa-a8a6-867cec35c310","system_id":"levelo_inurba_marseille","lat":43.279742,"lon":5.38744,"is_reserved":false,"is_disabled":false,"rental_uris":{"android":"levelo://app?vid=b3041be2-c12a-45fa-a8a6-867cec35c310","ios":"levelo://app?vid=b3041be2-c12a-45fa-a8a6-867cec35c310"},"vehicle_type_id":"4","last_reported":1701263412,"current_range_meters":22400,"station_id":"ce4bhg12rcd13ifvqf80","pricing_plan_id":"free"},{"bike_id":"4002002c-34c5-445b-a935-8a0550845906","system_id":"levelo_inurba_marseille","lat":43.292571,"lon":5.409107,"is_reserved":false,"is_disabled":false,"rental_uris":{"android":"levelo://app?vid=4002002c-34c5-445b-a935-8a0550845906","ios":"levelo://app?vid=4002002c-34c5-445b-a935-8a0550845906"},"vehicle_type_id":"4","last_reported":1701263412,"current_range_meters":20000,"station_id":"ce4bh192rcd13ifvqdc0","pricing_plan_id":"free"},{"bike_id":"d90b8c0e-55a4-407b-9c16-0aeb10584c6c","system_id":"levelo_inurba_marseille","lat":43.325233,"lon":5.414318,"is_reserved":false,"is_disabled":false,"rental_uris":{"android":"levelo://app?vid=d90b8c0e-55a4-407b-9c16-0aeb10584c6c","ios":"levelo://app?vid=d90b8c0e-55a4-407b-9c16-0aeb10584c6c"},"vehicle_type_id":"4","last_reported":1701263412,"current_range_meters":29600,"station_id":"ce4bhq12rcd13ifvqhhg","pricing_plan_id":"free"},{"bike_id":"80bf517e-0c31-4bea-b136-70f10397cad2","system_id":"levelo_inurba_marseille","lat":43.292571,"lon":5.409107,"is_reserved":false,"is_disabled":false,"rental_uris":{"android":"levelo://app?vid=80bf517e-0c31-4bea-b136-70f10397cad2","ios":"levelo://app?vid=80bf517e-0c31-4bea-b136-70f10397cad2"},"vehicle_type_id":"4","last_reported":1701263412,"current_range_meters":2000,"station_id":"ce4bh192rcd13ifvqdc0","pricing_plan_id":"free"},{"bike_id":"b9fbdf56-3017-4c3d-88f0-d30853b85571","system_id":"levelo_inurba_marseille","lat":43.276207,"lon":5.361062,"is_reserved":false,"is_disabled":false,"rental_uris":{"android":"levelo://app?vid=b9fbdf56-3017-4c3d-88f0-d30853b85571","ios":"levelo://app?vid=b9fbdf56-3017-4c3d-88f0-d30853b85571"},"vehicle_type_id":"4","last_reported":1701263412,"current_range_meters":19200,"station_id":"ce4bgj92rcd13ifvqbe0","pricing_plan_id":"free"},{"bike_id":"ee2199ed-b6bf-418a-8b69-ec3ffe26b8d0","system_id":"levelo_inurba_marseille","lat":43.276179,"lon":5.361009,"is_reserved":false,"is_disabled":false,"rental_uris":{"android":"levelo://app?vid=ee2199ed-b6bf-418a-8b69-ec3ffe26b8d0","ios":"levelo://app?vid=ee2199ed-b6bf-418a-8b69-ec3ffe26b8d0"},"vehicle_type_id":"4","last_reported":1701263412,"current_range_meters":0,"station_id":"ce4bgj92rcd13ifvqbe0","pricing_plan_id":"free"},{"bike_id":"b213561b-9e96-4fd6-b389-22f20bc4f83e","system_id":"levelo_inurba_marseille","lat":43.280784,"lon":5.396622,"is_reserved":false,"is_disabled":false,"rental_uris":{"android":"levelo://app?vid=b213561b-9e96-4fd6-b389-22f20bc4f83e","ios":"levelo://app?vid=b213561b-9e96-4fd6-b389-22f20bc4f83e"},"vehicle_type_id":"4","last_reported":1701263412,"current_range_meters":28400,"station_id":"ce4bho12rcd13ifvqh2g","pricing_plan_id":"free"},{"bike_id":"a7f98728-4290-4643-8495-d54b1349c8e4","system_id":"levelo_inurba_marseille","lat":43.273613,"lon":5.362705,"is_reserved":false,"is_disabled":false,"rental_uris":{"android":"levelo://app?vid=a7f98728-4290-4643-8495-d54b1349c8e4","ios":"levelo://app?vid=a7f98728-4290-4643-8495-d54b1349c8e4"},"vehicle_type_id":"4","last_reported":1701263412,"current_range_meters":23200,"station_id":"ce4bhbh2rcd13ifvqeo0","pricing_plan_id":"free"},{"bike_id":"7d43759e-6596-45d2-87d1-a2a0f19c6f4e","system_id":"levelo_inurba_marseille","lat":43.27377,"lon":5.36248,"is_reserved":false,"is_disabled":false,"rental_uris":{"android":"levelo://app?vid=7d43759e-6596-45d2-87d1-a2a0f19c6f4e","ios":"levelo://app?vid=7d43759e-6596-45d2-87d1-a2a0f19c6f4e"},"vehicle_type_id":"4","last_reported":1701263412,"current_range_meters":3600,"station_id":"ce4bhbh2rcd13ifvqeo0","pricing_plan_id":"free"},{"bike_id":"0d8a7bb9-4dd5-4349-a170-2696da166f82","system_id":"levelo_inurba_marseille","lat":43.279952,"lon":5.400085,"is_reserved":false,"is_disabled":false,"rental_uris":{"android":"levelo://app?vid=0d8a7bb9-4dd5-4349-a170-2696da166f82","ios":"levelo://app?vid=0d8a7bb9-4dd5-4349-a170-2696da166f82"},"vehicle_type_id":"4","last_reported":1701263412,"current_range_meters":6800,"station_id":"ce4bho92rcd13ifvqh4g","pricing_plan_id":"free"},{"bike_id":"608ad970-d565-49ab-9391-72ebbe7f5cb6","system_id":"levelo_inurba_marseille","lat":43.279952,"lon":5.400085,"is_reserved":false,"is_disabled":false,"rental_uris":{"android":"levelo://app?vid=608ad970-d565-49ab-9391-72ebbe7f5cb6","ios":"levelo://app?vid=608ad970-d565-49ab-9391-72ebbe7f5cb6"},"vehicle_type_id":"4","last_reported":1701263412,"current_range_meters":15200,"station_id":"ce4bho92rcd13ifvqh4g","pricing_plan_id":"free"},{"bike_id":"70658e6e-38af-40b9-aed2-066c2d60e5bb","system_id":"levelo_inurba_marseille","lat":43.274923,"lon":5.389907,"is_reserved":false,"is_disabled":false,"rental_uris":{"android":"levelo://app?vid=70658e6e-38af-40b9-aed2-066c2d60e5bb","ios":"levelo://app?vid=70658e6e-38af-40b9-aed2-066c2d60e5bb"},"vehicle_type_id":"4","last_reported":1701263412,"current_range_meters":0,"station_id":"","pricing_plan_id":"free"},{"bike_id":"ef7ba327-e43f-42e0-a02d-cb83e9268f27","system_id":"levelo_inurba_marseille","lat":43.31083,"lon":5.424308,"is_reserved":false,"is_disabled":false,"rental_uris":{"android":"levelo://app?vid=ef7ba327-e43f-42e0-a02d-cb83e9268f27","ios":"levelo://app?vid=ef7ba327-e43f-42e0-a02d-cb83e9268f27"},"vehicle_type_id":"4","last_reported":1701263412,"current_range_meters":20800,"station_id":"ce4bhp92rcd13ifvqhag","pricing_plan_id":"free"},{"bike_id":"e587f493-e83c-4891-9f4c-b237f2180fae","system_id":"levelo_inurba_marseille","lat":43.274103,"lon":5.394016,"is_reserved":false,"is_disabled":false,"rental_uris":{"android":"levelo://app?vid=e587f493-e83c-4891-9f4c-b237f2180fae","ios":"levelo://app?vid=e587f493-e83c-4891-9f4c-b237f2180fae"},"vehicle_type_id":"4","last_reported":1701263412,"current_range_meters":6400,"station_id":"ce4bhdp2rcd13ifvqf20","pricing_plan_id":"free"},{"bike_id":"fc587436-4570-4bb0-a342-67c19310d16c","system_id":"levelo_inurba_marseille","lat":43.30411,"lon":5.42548,"is_reserved":false,"is_disabled":false,"rental_uris":{"android":"levelo://app?vid=fc587436-4570-4bb0-a342-67c19310d16c","ios":"levelo://app?vid=fc587436-4570-4bb0-a342-67c19310d16c"},"vehicle_type_id":"4","last_reported":1701263412,"current_range_meters":24000,"station_id":"ce4bhoh2rcd13ifvqh6g","pricing_plan_id":"free"},{"bike_id":"68a6f09c-d5fc-4673-80c8-59cba1be1bb9","system_id":"levelo_inurba_marseille","lat":43.295523,"lon":5.422926,"is_reserved":false,"is_disabled":false,"rental_uris":{"android":"levelo://app?vid=68a6f09c-d5fc-4673-80c8-59cba1be1bb9","ios":"levelo://app?vid=68a6f09c-d5fc-4673-80c8-59cba1be1bb9"},"vehicle_type_id":"4","last_reported":1701263412,"current_range_meters":27200,"station_id":"ce4bhph2rcd13ifvqhdg","pricing_plan_id":"free"},{"bike_id":"1d1727f4-230d-4945-b92f-0c95f84949dc","system_id":"levelo_inurba_marseille","lat":43.29526,"lon":5.42277,"is_reserved":false,"is_disabled":false,"rental_uris":{"android":"levelo://app?vid=1d1727f4-230d-4945-b92f-0c95f84949dc","ios":"levelo://app?vid=1d1727f4-230d-4945-b92f-0c95f84949dc"},"vehicle_type_id":"4","last_reported":1701263412,"current_range_meters":29600,"station_id":"ce4bhph2rcd13ifvqhdg","pricing_plan_id":"free"},{"bike_id":"0120dbbf-4353-4df3-96d2-747d00c5e0f6","system_id":"levelo_inurba_marseille","lat":43.2952,"lon":5.42276,"is_reserved":false,"is_disabled":false,"rental_uris":{"android":"levelo://app?vid=0120dbbf-4353-4df3-96d2-747d00c5e0f6","ios":"levelo://app?vid=0120dbbf-4353-4df3-96d2-747d00c5e0f6"},"vehicle_type_id":"4","last_reported":1701263412,"current_range_meters":24800,"station_id":"ce4bhph2rcd13ifvqhdg","pricing_plan_id":"free"},{"bike_id":"33455473-cdd8-4e87-a2ba-cdea52171fde","system_id":"levelo_inurba_marseille","lat":43.295511,"lon":5.422926,"is_reserved":false,"is_disabled":false,"rental_uris":{"android":"levelo://app?vid=33455473-cdd8-4e87-a2ba-cdea52171fde","ios":"levelo://app?vid=33455473-cdd8-4e87-a2ba-cdea52171fde"},"vehicle_type_id":"4","last_reported":1701263412,"current_range_meters":27600,"station_id":"ce4bhph2rcd13ifvqhdg","pricing_plan_id":"free"},{"bike_id":"0a8ff13c-874d-4a13-86a3-a46c12410080","system_id":"levelo_inurba_marseille","lat":43.272116,"lon":5.391763,"is_reserved":false,"is_disabled":false,"rental_uris":{"android":"levelo://app?vid=0a8ff13c-874d-4a13-86a3-a46c12410080","ios":"levelo://app?vid=0a8ff13c-874d-4a13-86a3-a46c12410080"},"vehicle_type_id":"4","last_reported":1701263412,"current_range_meters":18400,"station_id":"ce4bhhp2rcd13ifvqfm0","pricing_plan_id":"free"},{"bike_id":"9bc465d3-abca-40ff-8d9d-0ddd451c55b3","system_id":"levelo_inurba_marseille","lat":43.26951,"lon":5.3864,"is_reserved":false,"is_disabled":false,"rental_uris":{"android":"levelo://app?vid=9bc465d3-abca-40ff-8d9d-0ddd451c55b3","ios":"levelo://app?vid=9bc465d3-abca-40ff-8d9d-0ddd451c55b3"},"vehicle_type_id":"4","last_reported":1701263412,"current_range_meters":0,"station_id":"ce4bhh92rcd13ifvqfh0","pricing_plan_id":"free"},{"bike_id":"5f00180d-d10a-4d7e-902c-2f607d33f338","system_id":"levelo_inurba_marseille","lat":43.26681,"lon":5.382694,"is_reserved":false,"is_disabled":false,"rental_uris":{"android":"levelo://app?vid=5f00180d-d10a-4d7e-902c-2f607d33f338","ios":"levelo://app?vid=5f00180d-d10a-4d7e-902c-2f607d33f338"},"vehicle_type_id":"4","last_reported":1701263412,"current_range_meters":7600,"station_id":"ce4bhg92rcd13ifvqf90","pricing_plan_id":"free"},{"bike_id":"c96f7eb2-8efb-4fa8-95dd-a47ae6d01628","system_id":"levelo_inurba_marseille","lat":43.26558,"lon":5.37295,"is_reserved":false,"is_disabled":false,"rental_uris":{"android":"levelo://app?vid=c96f7eb2-8efb-4fa8-95dd-a47ae6d01628","ios":"levelo://app?vid=c96f7eb2-8efb-4fa8-95dd-a47ae6d01628"},"vehicle_type_id":"4","last_reported":1701263412,"current_range_meters":5600,"station_id":"ce4bhg12rcd13ifvqf70","pricing_plan_id":"free"},{"bike_id":"317c39bf-2be6-4b57-bfd7-024f451ccb35","system_id":"levelo_inurba_marseille","lat":43.26555,"lon":5.37288,"is_reserved":false,"is_disabled":false,"rental_uris":{"android":"levelo://app?vid=317c39bf-2be6-4b57-bfd7-024f451ccb35","ios":"levelo://app?vid=317c39bf-2be6-4b57-bfd7-024f451ccb35"},"vehicle_type_id":"4","last_reported":1701263412,"current_range_meters":15600,"station_id":"ce4bhg12rcd13ifvqf70","pricing_plan_id":"free"},{"bike_id":"5264ae7f-1a72-4d75-aa4c-ff078da676bb","system_id":"levelo_inurba_marseille","lat":43.26552,"lon":5.37285,"is_reserved":false,"is_disabled":false,"rental_uris":{"android":"levelo://app?vid=5264ae7f-1a72-4d75-aa4c-ff078da676bb","ios":"levelo://app?vid=5264ae7f-1a72-4d75-aa4c-ff078da676bb"},"vehicle_type_id":"4","last_reported":1701263412,"current_range_meters":0,"station_id":"ce4bhg12rcd13ifvqf70","pricing_plan_id":"free"},{"bike_id":"c6379d7f-c0c5-44e8-ad09-9ea54b728abb","system_id":"levelo_inurba_marseille","lat":43.308051,"lon":5.43527,"is_reserved":false,"is_disabled":false,"rental_uris":{"android":"levelo://app?vid=c6379d7f-c0c5-44e8-ad09-9ea54b728abb","ios":"levelo://app?vid=c6379d7f-c0c5-44e8-ad09-9ea54b728abb"},"vehicle_type_id":"4","last_reported":1701263412,"current_range_meters":25200,"station_id":"ce4bhph2rcd13ifvqheg","pricing_plan_id":"free"},{"bike_id":"cfb08a74-8aad-464d-8314-e1f5a313b9de","system_id":"levelo_inurba_marseille","lat":43.265569,"lon":5.390047,"is_reserved":false,"is_disabled":false,"rental_uris":{"android":"levelo://app?vid=cfb08a74-8aad-464d-8314-e1f5a313b9de","ios":"levelo://app?vid=cfb08a74-8aad-464d-8314-e1f5a313b9de"},"vehicle_type_id":"4","last_reported":1701263412,"current_range_meters":19600,"station_id":"ce4bhe12rcd13ifvqf30","pricing_plan_id":"free"},{"bike_id":"66419df0-080e-4b7f-9253-80234b16526e","system_id":"levelo_inurba_marseille","lat":43.26939,"lon":5.4025,"is_reserved":false,"is_disabled":false,"rental_uris":{"android":"levelo://app?vid=66419df0-080e-4b7f-9253-80234b16526e","ios":"levelo://app?vid=66419df0-080e-4b7f-9253-80234b16526e"},"vehicle_type_id":"4","last_reported":1701263412,"current_range_meters":20000,"station_id":"cjm6bp8fraef2m0cb0m0","pricing_plan_id":"free"},{"bike_id":"369c6b01-ed17-4129-93a4-9388491cecb9","system_id":"levelo_inurba_marseille","lat":43.26937,"lon":5.40249,"is_reserved":false,"is_disabled":false,"rental_uris":{"android":"levelo://app?vid=369c6b01-ed17-4129-93a4-9388491cecb9","ios":"levelo://app?vid=369c6b01-ed17-4129-93a4-9388491cecb9"},"vehicle_type_id":"4","last_reported":1701263412,"current_range_meters":23600,"station_id":"cjm6bp8fraef2m0cb0m0","pricing_plan_id":"free"},{"bike_id":"786e138e-9d6d-4e6e-811d-eecbce29b9d9","system_id":"levelo_inurba_marseille","lat":43.26935,"lon":5.40253,"is_reserved":false,"is_disabled":false,"rental_uris":{"android":"levelo://app?vid=786e138e-9d6d-4e6e-811d-eecbce29b9d9","ios":"levelo://app?vid=786e138e-9d6d-4e6e-811d-eecbce29b9d9"},"vehicle_type_id":"4","last_reported":1701263412,"current_range_meters":7600,"station_id":"cjm6bp8fraef2m0cb0m0","pricing_plan_id":"free"},{"bike_id":"5dd00fc2-584d-4cba-a238-bae6fef3392a","system_id":"levelo_inurba_marseille","lat":43.262012,"lon":5.379307,"is_reserved":false,"is_disabled":false,"rental_uris":{"android":"levelo://app?vid=5dd00fc2-584d-4cba-a238-bae6fef3392a","ios":"levelo://app?vid=5dd00fc2-584d-4cba-a238-bae6fef3392a"},"vehicle_type_id":"4","last_reported":1701263412,"current_range_meters":22800,"station_id":"ce4bhjp2rcd13ifvqg90","pricing_plan_id":"free"},{"bike_id":"5b0cd13e-dfbb-4e0c-87cc-c372138ad8ce","system_id":"levelo_inurba_marseille","lat":43.271368,"lon":5.40928,"is_reserved":false,"is_disabled":false,"rental_uris":{"android":"levelo://app?vid=5b0cd13e-dfbb-4e0c-87cc-c372138ad8ce","ios":"levelo://app?vid=5b0cd13e-dfbb-4e0c-87cc-c372138ad8ce"},"vehicle_type_id":"4","last_reported":1701263412,"current_range_meters":30000,"station_id":"ce4bhl12rcd13ifvqgf0","pricing_plan_id":"free"},{"bike_id":"c436bcd3-92e8-4708-8ee3-370c05cc2635","system_id":"levelo_inurba_marseille","lat":43.267959,"lon":5.402685,"is_reserved":false,"is_disabled":false,"rental_uris":{"android":"levelo://app?vid=c436bcd3-92e8-4708-8ee3-370c05cc2635","ios":"levelo://app?vid=c436bcd3-92e8-4708-8ee3-370c05cc2635"},"vehicle_type_id":"4","last_reported":1701263412,"current_range_meters":26400,"station_id":"ce501612rcd8frsf0b60","pricing_plan_id":"free"},{"bike_id":"f9535ffe-15a0-4733-a4c9-8bf76128a505","system_id":"levelo_inurba_marseille","lat":43.298768,"lon":5.43643,"is_reserved":false,"is_disabled":false,"rental_uris":{"android":"levelo://app?vid=f9535ffe-15a0-4733-a4c9-8bf76128a505","ios":"levelo://app?vid=f9535ffe-15a0-4733-a4c9-8bf76128a505"},"vehicle_type_id":"4","last_reported":1701263412,"current_range_meters":30400,"station_id":"ce4bhpp2rcd13ifvqhfg","pricing_plan_id":"free"},{"bike_id":"476121df-e2ed-4720-9095-df95c0d4ad51","system_id":"levelo_inurba_marseille","lat":43.281548,"lon":5.42643,"is_reserved":false,"is_disabled":false,"rental_uris":{"android":"levelo://app?vid=476121df-e2ed-4720-9095-df95c0d4ad51","ios":"levelo://app?vid=476121df-e2ed-4720-9095-df95c0d4ad51"},"vehicle_type_id":"4","last_reported":1701263412,"current_range_meters":18000,"station_id":"ce4bhnh2rcd13ifvqgug","pricing_plan_id":"free"},{"bike_id":"182542cf-7465-4fb3-97fb-3f1b693d1bac","system_id":"levelo_inurba_marseille","lat":43.281548,"lon":5.42643,"is_reserved":false,"is_disabled":false,"rental_uris":{"android":"levelo://app?vid=182542cf-7465-4fb3-97fb-3f1b693d1bac","ios":"levelo://app?vid=182542cf-7465-4fb3-97fb-3f1b693d1bac"},"vehicle_type_id":"4","last_reported":1701263412,"current_range_meters":26000,"station_id":"ce4bhnh2rcd13ifvqgug","pricing_plan_id":"free"},{"bike_id":"a45dc6bd-fe17-40d3-b2af-25b4dfba0fc3","system_id":"levelo_inurba_marseille","lat":43.26089,"lon":5.39766,"is_reserved":false,"is_disabled":false,"rental_uris":{"android":"levelo://app?vid=a45dc6bd-fe17-40d3-b2af-25b4dfba0fc3","ios":"levelo://app?vid=a45dc6bd-fe17-40d3-b2af-25b4dfba0fc3"},"vehicle_type_id":"4","last_reported":1701263412,"current_range_meters":1600,"station_id":"ce4bhi12rcd13ifvqfq0","pricing_plan_id":"free"},{"bike_id":"6bc55e2d-44a1-4800-8c9c-8dd124efcb03","system_id":"levelo_inurba_marseille","lat":43.25833,"lon":5.39437,"is_reserved":false,"is_disabled":false,"rental_uris":{"android":"levelo://app?vid=6bc55e2d-44a1-4800-8c9c-8dd124efcb03","ios":"levelo://app?vid=6bc55e2d-44a1-4800-8c9c-8dd124efcb03"},"vehicle_type_id":"4","last_reported":1701263412,"current_range_meters":10000,"station_id":"ce4bhip2rcd13ifvqft0","pricing_plan_id":"free"},{"bike_id":"73879ad1-e57a-493c-beed-ed1691dccfd2","system_id":"levelo_inurba_marseille","lat":43.2558,"lon":5.382317,"is_reserved":false,"is_disabled":false,"rental_uris":{"android":"levelo://app?vid=73879ad1-e57a-493c-beed-ed1691dccfd2","ios":"levelo://app?vid=73879ad1-e57a-493c-beed-ed1691dccfd2"},"vehicle_type_id":"4","last_reported":1701263412,"current_range_meters":18800,"station_id":"ce4bhih2rcd13ifvqfs0","pricing_plan_id":"free"},{"bike_id":"013f1b0c-7b7b-4429-81f3-efa4c17908fd","system_id":"levelo_inurba_marseille","lat":43.25496,"lon":5.37652,"is_reserved":false,"is_disabled":false,"rental_uris":{"android":"levelo://app?vid=013f1b0c-7b7b-4429-81f3-efa4c17908fd","ios":"levelo://app?vid=013f1b0c-7b7b-4429-81f3-efa4c17908fd"},"vehicle_type_id":"4","last_reported":1701263412,"current_range_meters":28800,"station_id":"ce4bhh12rcd13ifvqff0","pricing_plan_id":"free"},{"bike_id":"34e198e6-bcd0-4904-bb07-466caf5f6116","system_id":"levelo_inurba_marseille","lat":43.254947,"lon":5.376454,"is_reserved":false,"is_disabled":false,"rental_uris":{"android":"levelo://app?vid=34e198e6-bcd0-4904-bb07-466caf5f6116","ios":"levelo://app?vid=34e198e6-bcd0-4904-bb07-466caf5f6116"},"vehicle_type_id":"4","last_reported":1701263412,"current_range_meters":31200,"station_id":"ce4bhh12rcd13ifvqff0","pricing_plan_id":"free"},{"bike_id":"6cc10424-1724-4ed3-9b7c-5071cd523857","system_id":"levelo_inurba_marseille","lat":43.254947,"lon":5.376454,"is_reserved":false,"is_disabled":false,"rental_uris":{"android":"levelo://app?vid=6cc10424-1724-4ed3-9b7c-5071cd523857","ios":"levelo://app?vid=6cc10424-1724-4ed3-9b7c-5071cd523857"},"vehicle_type_id":"4","last_reported":1701263412,"current_range_meters":13200,"station_id":"ce4bhh12rcd13ifvqff0","pricing_plan_id":"free"},{"bike_id":"6524baa8-bd1e-4785-9127-803f1500a6a9","system_id":"levelo_inurba_marseille","lat":43.254947,"lon":5.376454,"is_reserved":false,"is_disabled":false,"rental_uris":{"android":"levelo://app?vid=6524baa8-bd1e-4785-9127-803f1500a6a9","ios":"levelo://app?vid=6524baa8-bd1e-4785-9127-803f1500a6a9"},"vehicle_type_id":"4","last_reported":1701263412,"current_range_meters":31200,"station_id":"ce4bhh12rcd13ifvqff0","pricing_plan_id":"free"},{"bike_id":"19029ed7-bf97-4f4d-a8c2-7d27e70ef7f7","system_id":"levelo_inurba_marseille","lat":43.270721,"lon":5.422764,"is_reserved":false,"is_disabled":false,"rental_uris":{"android":"levelo://app?vid=19029ed7-bf97-4f4d-a8c2-7d27e70ef7f7","ios":"levelo://app?vid=19029ed7-bf97-4f4d-a8c2-7d27e70ef7f7"},"vehicle_type_id":"4","last_reported":1701263412,"current_range_meters":20000,"station_id":"ce4bhk92rcd13ifvqgb0","pricing_plan_id":"free"},{"bike_id":"c7d78e9d-629e-4d09-8612-a76051bd8ebb","system_id":"levelo_inurba_marseille","lat":43.258648,"lon":5.399024,"is_reserved":false,"is_disabled":false,"rental_uris":{"android":"levelo://app?vid=c7d78e9d-629e-4d09-8612-a76051bd8ebb","ios":"levelo://app?vid=c7d78e9d-629e-4d09-8612-a76051bd8ebb"},"vehicle_type_id":"4","last_reported":1701263412,"current_range_meters":6000,"station_id":"ce4bhl92rcd13ifvqghg","pricing_plan_id":"free"},{"bike_id":"52d9dffa-ef5e-4061-a968-c3513bee93a7","system_id":"levelo_inurba_marseille","lat":43.259346,"lon":5.409061,"is_reserved":false,"is_disabled":false,"rental_uris":{"android":"levelo://app?vid=52d9dffa-ef5e-4061-a968-c3513bee93a7","ios":"levelo://app?vid=52d9dffa-ef5e-4061-a968-c3513bee93a7"},"vehicle_type_id":"4","last_reported":1701263412,"current_range_meters":17200,"station_id":"ce4bhm92rcd13ifvqglg","pricing_plan_id":"free"},{"bike_id":"e4eaa37b-5b2d-4481-8e72-ec16467bfebd","system_id":"levelo_inurba_marseille","lat":43.259013,"lon":5.409301,"is_reserved":false,"is_disabled":false,"rental_uris":{"android":"levelo://app?vid=e4eaa37b-5b2d-4481-8e72-ec16467bfebd","ios":"levelo://app?vid=e4eaa37b-5b2d-4481-8e72-ec16467bfebd"},"vehicle_type_id":"4","last_reported":1701263412,"current_range_meters":15200,"station_id":"ce4bhm92rcd13ifvqglg","pricing_plan_id":"free"},{"bike_id":"701dfc6c-2f0b-43a3-88d0-350b92ece9cc","system_id":"levelo_inurba_marseille","lat":43.259013,"lon":5.409301,"is_reserved":false,"is_disabled":false,"rental_uris":{"android":"levelo://app?vid=701dfc6c-2f0b-43a3-88d0-350b92ece9cc","ios":"levelo://app?vid=701dfc6c-2f0b-43a3-88d0-350b92ece9cc"},"vehicle_type_id":"4","last_reported":1701263412,"current_range_meters":24400,"station_id":"ce4bhm92rcd13ifvqglg","pricing_plan_id":"free"},{"bike_id":"d555e29f-1161-475c-9c68-0a440bd7139a","system_id":"levelo_inurba_marseille","lat":43.259013,"lon":5.409301,"is_reserved":false,"is_disabled":false,"rental_uris":{"android":"levelo://app?vid=d555e29f-1161-475c-9c68-0a440bd7139a","ios":"levelo://app?vid=d555e29f-1161-475c-9c68-0a440bd7139a"},"vehicle_type_id":"4","last_reported":1701263412,"current_range_meters":20800,"station_id":"ce4bhm92rcd13ifvqglg","pricing_plan_id":"free"},{"bike_id":"ec3ae71a-7855-4733-9a16-722c539f39c2","system_id":"levelo_inurba_marseille","lat":43.257079,"lon":5.411051,"is_reserved":false,"is_disabled":false,"rental_uris":{"android":"levelo://app?vid=ec3ae71a-7855-4733-9a16-722c539f39c2","ios":"levelo://app?vid=ec3ae71a-7855-4733-9a16-722c539f39c2"},"vehicle_type_id":"4","last_reported":1701263412,"current_range_meters":31200,"station_id":"ce4bhkp2rcd13ifvqgd0","pricing_plan_id":"free"},{"bike_id":"7117f338-555c-4dc9-858d-25eb6212c5be","system_id":"levelo_inurba_marseille","lat":43.250009,"lon":5.389195,"is_reserved":false,"is_disabled":false,"rental_uris":{"android":"levelo://app?vid=7117f338-555c-4dc9-858d-25eb6212c5be","ios":"levelo://app?vid=7117f338-555c-4dc9-858d-25eb6212c5be"},"vehicle_type_id":"4","last_reported":1701263412,"current_range_meters":29200,"station_id":"ce4bhgp2rcd13ifvqfd0","pricing_plan_id":"free"},{"bike_id":"d0263e54-8146-4705-b1e3-0449330dbff0","system_id":"levelo_inurba_marseille","lat":43.25004,"lon":5.38923,"is_reserved":false,"is_disabled":false,"rental_uris":{"android":"levelo://app?vid=d0263e54-8146-4705-b1e3-0449330dbff0","ios":"levelo://app?vid=d0263e54-8146-4705-b1e3-0449330dbff0"},"vehicle_type_id":"4","last_reported":1701263412,"current_range_meters":19200,"station_id":"ce4bhgp2rcd13ifvqfd0","pricing_plan_id":"free"},{"bike_id":"b9ff1d44-6a07-4417-b57e-36084b5d619c","system_id":"levelo_inurba_marseille","lat":43.25005,"lon":5.38937,"is_reserved":false,"is_disabled":false,"rental_uris":{"android":"levelo://app?vid=b9ff1d44-6a07-4417-b57e-36084b5d619c","ios":"levelo://app?vid=b9ff1d44-6a07-4417-b57e-36084b5d619c"},"vehicle_type_id":"4","last_reported":1701263412,"current_range_meters":27600,"station_id":"ce4bhgp2rcd13ifvqfd0","pricing_plan_id":"free"},{"bike_id":"99bbb538-bd78-41c6-96de-754558017f08","system_id":"levelo_inurba_marseille","lat":43.25001,"lon":5.38925,"is_reserved":false,"is_disabled":false,"rental_uris":{"android":"levelo://app?vid=99bbb538-bd78-41c6-96de-754558017f08","ios":"levelo://app?vid=99bbb538-bd78-41c6-96de-754558017f08"},"vehicle_type_id":"4","last_reported":1701263412,"current_range_meters":29200,"station_id":"ce4bhgp2rcd13ifvqfd0","pricing_plan_id":"free"},{"bike_id":"050cab4d-19de-424e-99b0-1e7e3b194f50","system_id":"levelo_inurba_marseille","lat":43.250023,"lon":5.38919,"is_reserved":false,"is_disabled":false,"rental_uris":{"android":"levelo://app?vid=050cab4d-19de-424e-99b0-1e7e3b194f50","ios":"levelo://app?vid=050cab4d-19de-424e-99b0-1e7e3b194f50"},"vehicle_type_id":"4","last_reported":1701263412,"current_range_meters":16800,"station_id":"ce4bhgp2rcd13ifvqfd0","pricing_plan_id":"free"},{"bike_id":"fb16d9e4-e15b-41b9-b039-629c0858a873","system_id":"levelo_inurba_marseille","lat":43.250023,"lon":5.38919,"is_reserved":false,"is_disabled":false,"rental_uris":{"android":"levelo://app?vid=fb16d9e4-e15b-41b9-b039-629c0858a873","ios":"levelo://app?vid=fb16d9e4-e15b-41b9-b039-629c0858a873"},"vehicle_type_id":"4","last_reported":1701263412,"current_range_meters":28400,"station_id":"ce4bhgp2rcd13ifvqfd0","pricing_plan_id":"free"},{"bike_id":"4c0c3118-7eaa-4ebd-8d87-d449bea3e021","system_id":"levelo_inurba_marseille","lat":43.250897,"lon":5.395161,"is_reserved":false,"is_disabled":false,"rental_uris":{"android":"levelo://app?vid=4c0c3118-7eaa-4ebd-8d87-d449bea3e021","ios":"levelo://app?vid=4c0c3118-7eaa-4ebd-8d87-d449bea3e021"},"vehicle_type_id":"4","last_reported":1701263412,"current_range_meters":12800,"station_id":"ce4bhm12rcd13ifvqgkg","pricing_plan_id":"free"},{"bike_id":"5c7655d9-038a-45c3-b484-329a14e5d7b3","system_id":"levelo_inurba_marseille","lat":43.24674,"lon":5.381727,"is_reserved":false,"is_disabled":false,"rental_uris":{"android":"levelo://app?vid=5c7655d9-038a-45c3-b484-329a14e5d7b3","ios":"levelo://app?vid=5c7655d9-038a-45c3-b484-329a14e5d7b3"},"vehicle_type_id":"4","last_reported":1701263412,"current_range_meters":29200,"station_id":"ce4bhih2rcd13ifvqfr0","pricing_plan_id":"free"},{"bike_id":"9a3f05bf-575e-49ab-b56a-5b8948c5220e","system_id":"levelo_inurba_marseille","lat":43.24693,"lon":5.382096,"is_reserved":false,"is_disabled":false,"rental_uris":{"android":"levelo://app?vid=9a3f05bf-575e-49ab-b56a-5b8948c5220e","ios":"levelo://app?vid=9a3f05bf-575e-49ab-b56a-5b8948c5220e"},"vehicle_type_id":"4","last_reported":1701263412,"current_range_meters":13200,"station_id":"ce4bhih2rcd13ifvqfr0","pricing_plan_id":"free"},{"bike_id":"ecb34c6a-f855-40f6-bca0-52627763e1b5","system_id":"levelo_inurba_marseille","lat":43.24693,"lon":5.382096,"is_reserved":false,"is_disabled":false,"rental_uris":{"android":"levelo://app?vid=ecb34c6a-f855-40f6-bca0-52627763e1b5","ios":"levelo://app?vid=ecb34c6a-f855-40f6-bca0-52627763e1b5"},"vehicle_type_id":"4","last_reported":1701263412,"current_range_meters":18800,"station_id":"ce4bhih2rcd13ifvqfr0","pricing_plan_id":"free"},{"bike_id":"10503e20-0a05-45e7-b288-65c21806d805","system_id":"levelo_inurba_marseille","lat":43.25102,"lon":5.403214,"is_reserved":false,"is_disabled":false,"rental_uris":{"android":"levelo://app?vid=10503e20-0a05-45e7-b288-65c21806d805","ios":"levelo://app?vid=10503e20-0a05-45e7-b288-65c21806d805"},"vehicle_type_id":"4","last_reported":1701263412,"current_range_meters":4800,"station_id":"ce4bhlh2rcd13ifvqgig","pricing_plan_id":"free"},{"bike_id":"1491d5b7-a583-4818-954d-03198cc6d4df","system_id":"levelo_inurba_marseille","lat":43.246461,"lon":5.389014,"is_reserved":false,"is_disabled":false,"rental_uris":{"android":"levelo://app?vid=1491d5b7-a583-4818-954d-03198cc6d4df","ios":"levelo://app?vid=1491d5b7-a583-4818-954d-03198cc6d4df"},"vehicle_type_id":"4","last_reported":1701263412,"current_range_meters":23600,"station_id":"ce4bhg12rcd13ifvqf60","pricing_plan_id":"free"},{"bike_id":"38e3847b-bba9-45c8-88f4-24d87b519d8c","system_id":"levelo_inurba_marseille","lat":43.246467,"lon":5.388984,"is_reserved":false,"is_disabled":false,"rental_uris":{"android":"levelo://app?vid=38e3847b-bba9-45c8-88f4-24d87b519d8c","ios":"levelo://app?vid=38e3847b-bba9-45c8-88f4-24d87b519d8c"},"vehicle_type_id":"4","last_reported":1701263412,"current_range_meters":23200,"station_id":"ce4bhg12rcd13ifvqf60","pricing_plan_id":"free"},{"bike_id":"871c002a-ed74-496c-800e-0719e2b8233e","system_id":"levelo_inurba_marseille","lat":43.246467,"lon":5.388984,"is_reserved":false,"is_disabled":false,"rental_uris":{"android":"levelo://app?vid=871c002a-ed74-496c-800e-0719e2b8233e","ios":"levelo://app?vid=871c002a-ed74-496c-800e-0719e2b8233e"},"vehicle_type_id":"4","last_reported":1701263412,"current_range_meters":12800,"station_id":"ce4bhg12rcd13ifvqf60","pricing_plan_id":"free"},{"bike_id":"3b8af71b-6042-4128-b1bb-287d36c0565e","system_id":"levelo_inurba_marseille","lat":43.246467,"lon":5.388984,"is_reserved":false,"is_disabled":false,"rental_uris":{"android":"levelo://app?vid=3b8af71b-6042-4128-b1bb-287d36c0565e","ios":"levelo://app?vid=3b8af71b-6042-4128-b1bb-287d36c0565e"},"vehicle_type_id":"4","last_reported":1701263412,"current_range_meters":26000,"station_id":"ce4bhg12rcd13ifvqf60","pricing_plan_id":"free"},{"bike_id":"fcc347b6-acc5-4c48-8226-7342031637d8","system_id":"levelo_inurba_marseille","lat":43.243884,"lon":5.370736,"is_reserved":false,"is_disabled":false,"rental_uris":{"android":"levelo://app?vid=fcc347b6-acc5-4c48-8226-7342031637d8","ios":"levelo://app?vid=fcc347b6-acc5-4c48-8226-7342031637d8"},"vehicle_type_id":"4","last_reported":1701263412,"current_range_meters":0,"station_id":"ce4bhhh2rcd13ifvqfk0","pricing_plan_id":"free"},{"bike_id":"8f346182-8935-4abe-8f96-eb34924cca19","system_id":"levelo_inurba_marseille","lat":43.245581,"lon":5.395069,"is_reserved":false,"is_disabled":false,"rental_uris":{"android":"levelo://app?vid=8f346182-8935-4abe-8f96-eb34924cca19","ios":"levelo://app?vid=8f346182-8935-4abe-8f96-eb34924cca19"},"vehicle_type_id":"4","last_reported":1701263412,"current_range_meters":17600,"station_id":"ce4bhlp2rcd13ifvqgjg","pricing_plan_id":"free"},{"bike_id":"327a8c79-406a-4e25-acf8-62cf39ea6337","system_id":"levelo_inurba_marseille","lat":43.240753,"lon":5.377543,"is_reserved":false,"is_disabled":false,"rental_uris":{"android":"levelo://app?vid=327a8c79-406a-4e25-acf8-62cf39ea6337","ios":"levelo://app?vid=327a8c79-406a-4e25-acf8-62cf39ea6337"},"vehicle_type_id":"4","last_reported":1701263412,"current_range_meters":30400,"station_id":"ce4bhnp2rcd13ifvqgvg","pricing_plan_id":"free"},{"bike_id":"960539f0-e814-4a0e-9d4d-352ece6876a0","system_id":"levelo_inurba_marseille","lat":43.240623,"lon":5.377642,"is_reserved":false,"is_disabled":false,"rental_uris":{"android":"levelo://app?vid=960539f0-e814-4a0e-9d4d-352ece6876a0","ios":"levelo://app?vid=960539f0-e814-4a0e-9d4d-352ece6876a0"},"vehicle_type_id":"4","last_reported":1701263412,"current_range_meters":30000,"station_id":"ce4bhnp2rcd13ifvqgvg","pricing_plan_id":"free"},{"bike_id":"4f595854-c313-4bac-a6a7-63a74ccf5f7f","system_id":"levelo_inurba_marseille","lat":43.24067,"lon":5.37759,"is_reserved":false,"is_disabled":false,"rental_uris":{"android":"levelo://app?vid=4f595854-c313-4bac-a6a7-63a74ccf5f7f","ios":"levelo://app?vid=4f595854-c313-4bac-a6a7-63a74ccf5f7f"},"vehicle_type_id":"4","last_reported":1701263412,"current_range_meters":31200,"station_id":"ce4bhnp2rcd13ifvqgvg","pricing_plan_id":"free"},{"bike_id":"2c324ca8-02dc-473b-8ed2-cdf464189492","system_id":"levelo_inurba_marseille","lat":43.240623,"lon":5.377642,"is_reserved":false,"is_disabled":false,"rental_uris":{"android":"levelo://app?vid=2c324ca8-02dc-473b-8ed2-cdf464189492","ios":"levelo://app?vid=2c324ca8-02dc-473b-8ed2-cdf464189492"},"vehicle_type_id":"4","last_reported":1701263412,"current_range_meters":29600,"station_id":"ce4bhnp2rcd13ifvqgvg","pricing_plan_id":"free"},{"bike_id":"f2f7391b-180e-4229-b67e-9eceff60ae63","system_id":"levelo_inurba_marseille","lat":43.240623,"lon":5.377642,"is_reserved":false,"is_disabled":false,"rental_uris":{"android":"levelo://app?vid=f2f7391b-180e-4229-b67e-9eceff60ae63","ios":"levelo://app?vid=f2f7391b-180e-4229-b67e-9eceff60ae63"},"vehicle_type_id":"4","last_reported":1701263412,"current_range_meters":30400,"station_id":"ce4bhnp2rcd13ifvqgvg","pricing_plan_id":"free"},{"bike_id":"976e36fa-42a1-49de-99da-394bf2bed3b7","system_id":"levelo_inurba_marseille","lat":43.241782,"lon":5.397261,"is_reserved":false,"is_disabled":false,"rental_uris":{"android":"levelo://app?vid=976e36fa-42a1-49de-99da-394bf2bed3b7","ios":"levelo://app?vid=976e36fa-42a1-49de-99da-394bf2bed3b7"},"vehicle_type_id":"4","last_reported":1701263412,"current_range_meters":27600,"station_id":"ce4bhn12rcd13ifvqgpg","pricing_plan_id":"free"},{"bike_id":"e7d38123-e943-43a2-9d8a-24c16e8ab5e2","system_id":"levelo_inurba_marseille","lat":43.241782,"lon":5.397261,"is_reserved":false,"is_disabled":false,"rental_uris":{"android":"levelo://app?vid=e7d38123-e943-43a2-9d8a-24c16e8ab5e2","ios":"levelo://app?vid=e7d38123-e943-43a2-9d8a-24c16e8ab5e2"},"vehicle_type_id":"4","last_reported":1701263412,"current_range_meters":0,"station_id":"ce4bhn12rcd13ifvqgpg","pricing_plan_id":"free"},{"bike_id":"df8c7d93-8f90-42bc-a235-3d6e14549c99","system_id":"levelo_inurba_marseille","lat":43.241782,"lon":5.397261,"is_reserved":false,"is_disabled":false,"rental_uris":{"android":"levelo://app?vid=df8c7d93-8f90-42bc-a235-3d6e14549c99","ios":"levelo://app?vid=df8c7d93-8f90-42bc-a235-3d6e14549c99"},"vehicle_type_id":"4","last_reported":1701263412,"current_range_meters":8800,"station_id":"ce4bhn12rcd13ifvqgpg","pricing_plan_id":"free"},{"bike_id":"b3c730c4-5614-4d9f-bc56-f10f610e1597","system_id":"levelo_inurba_marseille","lat":43.241782,"lon":5.397261,"is_reserved":false,"is_disabled":false,"rental_uris":{"android":"levelo://app?vid=b3c730c4-5614-4d9f-bc56-f10f610e1597","ios":"levelo://app?vid=b3c730c4-5614-4d9f-bc56-f10f610e1597"},"vehicle_type_id":"4","last_reported":1701263412,"current_range_meters":30000,"station_id":"ce4bhn12rcd13ifvqgpg","pricing_plan_id":"free"},{"bike_id":"3bbe1fd5-b7d2-484c-969b-f57a381950c3","system_id":"levelo_inurba_marseille","lat":43.231923,"lon":5.355545,"is_reserved":false,"is_disabled":false,"rental_uris":{"android":"levelo://app?vid=3bbe1fd5-b7d2-484c-969b-f57a381950c3","ios":"levelo://app?vid=3bbe1fd5-b7d2-484c-969b-f57a381950c3"},"vehicle_type_id":"4","last_reported":1701263412,"current_range_meters":15200,"station_id":"ce4bhu92rcd13ifvqi70","pricing_plan_id":"free"},{"bike_id":"97acb7ff-7df1-427e-b8c1-e1ab73eefbab","system_id":"levelo_inurba_marseille","lat":43.231919,"lon":5.355532,"is_reserved":false,"is_disabled":false,"rental_uris":{"android":"levelo://app?vid=97acb7ff-7df1-427e-b8c1-e1ab73eefbab","ios":"levelo://app?vid=97acb7ff-7df1-427e-b8c1-e1ab73eefbab"},"vehicle_type_id":"4","last_reported":1701263412,"current_range_meters":30400,"station_id":"ce4bhu92rcd13ifvqi70","pricing_plan_id":"free"},