{"last_updated":1753438361,"ttl":60,"version":"2.2","data":{"bikes":[{"bike_id":"a9a9e835-d2ec-4844-94ef-fc063e72cae0","system_id":"levelo_inurba_marseille","lat":43.27324,"lon":5.39078,"is_reserved":false,"is_disabled":false,"rental_uris":{"android":"levelo://app?vid=a9a9e835-d2ec-4844-94ef-fc063e72cae0","ios":"levelo://app?vid=a9a9e835-d2ec-4844-94ef-fc063e72cae0"},"vehicle_type_id":"4","last_reported":1753438361,"current_range_meters":2000,"station_id":"ce4bhgp2rcd13ifvqfe0","pricing_plan_id":"cebpf4jnsgd1na2vs0mg"},{"bike_id":"7e5a3775-40db-40bd-b06f-8ad762907887","system_id":"levelo_inurba_marseille","lat":43.27318,"lon":5.39072,"is_reserved":false,"is_disabled":false,"rental_uris":{"android":"levelo://app?vid=7e5a3775-40db-40bd-b06f-8ad762907887","ios":"levelo://app?vid=7e5a3775-40db-40bd-b06f-8ad762907887"},"vehicle_type_id":"4","last_reported":1753438361,"current_range_meters":3200,"station_id":"ce4bhgp2rcd13ifvqfe0","pricing_plan_id":"cebpf4jnsgd1na2vs0mg"},{"bike_id":"803156e4-7a19-4009-bef0-7397033f71f3","system_id":"levelo_inurba_marseille","lat":43.2846,"lon":5.35878,"is_reserved":false,"is_disabled":false,"rental_uris":{"android":"levelo://app?vid=803156e4-7a19-4009-bef0-7397033f71f3","ios":"levelo://app?vid=803156e4-7a19-4009-bef0-7397033f71f3"},"vehicle_type_id":"4","last_reported":1753438361,"current_range_meters":3200,"station_id":"ce4bhah2rcd13ifvqei0","pricing_plan_id":"cebpf4jnsgd1na2vs0mg"},{"bike_id":"21d2f9e2-2b92-4206-98b6-84740dd3ad88","system_id":"levelo_inurba_marseille","lat":43.28461,"lon":5.38449,"is_reserved":false,"is_disabled":false,"rental_uris":{"android":"levelo://app?vid=21d2f9e2-2b92-4206-98b6-84740dd3ad88","ios":"levelo://app?vid=21d2f9e2-2b92-4206-98b6-84740dd3ad88"},"vehicle_type_id":"4","last_reported":1753438361,"current_range_meters":5600,"station_id":"ce4bh512rcd13ifvqe3g","pricing_plan_id":"cebpf4jnsgd1na2vs0mg"},{"bike_id":"651122c7-f5dd-4348-8ef1-25f1d031080b","system_id":"levelo_inurba_marseille","lat":43.30584,"lon":5.39369,"is_reserved":false,"is_disabled":false,"rental_uris":{"android":"levelo://app?vid=651122c7-f5dd-4348-8ef1-25f1d031080b","ios":"levelo://app?vid=651122c7-f5dd-4348-8ef1-25f1d031080b"},"vehicle_type_id":"4","last_reported":1753438361,"current_range_meters":3600,"station_id":"ce4bh0p2rcd13ifvqd80","pricing_plan_id":"cebpf4jnsgd1na2vs0mg"},{"bike_id":"c9f1fdfc-0457-4119-b76a-b17e259b45e2","system_id":"levelo_inurba_marseille","lat":43.278117,"lon":5.407057,"is_reserved":false,"is_disabled":false,"rental_uris":{"android":"levelo://app?vid=c9f1fdfc-0457-4119-b76a-b17e259b45e2","ios":"levelo://app?vid=c9f1fdfc-0457-4119-b76a-b17e259b45e2"},"vehicle_type_id":"4","last_reported":1753438361,"current_range_meters":3600,"station_id":"ce4bhnh2rcd13ifvqgtg","pricing_plan_id":"cebpf4jnsgd1na2vs0mg"},{"bike_id":"b593b3ec-8b83-46b3-9dec-0dd78c2f14d3","system_id":"levelo_inurba_marseille","lat":43.297752,"lon":5.371104,"is_reserved":false,"is_disabled":false,"rental_uris":{"android":"levelo://app?vid=b593b3ec-8b83-46b3-9dec-0dd78c2f14d3","ios":"levelo://app?vid=b593b3ec-8b83-46b3-9dec-0dd78c2f14d3"},"vehicle_type_id":"4","last_reported":1753438361,"current_range_meters":4000,"station_id":"","pricing_plan_id":"cebpf4jnsgd1na2vs0mg"},{"bike_id":"6c62ab87-c76f-4c9a-8eb7-f9aa5304ff76","system_id":"levelo_inurba_marseille","lat":43.27058,"lon":5.40266,"is_reserved":false,"is_disabled":false,"rental_uris":{"android":"levelo://app?vid=6c62ab87-c76f-4c9a-8eb7-f9aa5304ff76","ios":"levelo://app?vid=6c62ab87-c76f-4c9a-8eb7-f9aa5304ff76"},"vehicle_type_id":"4","last_reported":1753438361,"current_range_meters":4400,"station_id":"ce4bhk92rcd13ifvqgc0","pricing_plan_id":"cebpf4jnsgd1na2vs0mg"},{"bike_id":"87d9cc9e-fb09-41d9-ab2e-0f924589aaeb","system_id":"levelo_inurba_marseille","lat":43.312627,"lon":5.368793,"is_reserved":false,"is_disabled":false,"rental_uris":{"android":"levelo://app?vid=87d9cc9e-fb09-41d9-ab2e-0f924589aaeb","ios":"levelo://app?vid=87d9cc9e-fb09-41d9-ab2e-0f924589aaeb"},"vehicle_type_id":"4","last_reported":1753438361,"current_range_meters":4800,"station_id":"ce4bgl92rcd13ifvqbq0","pricing_plan_id":"cebpf4jnsgd1na2vs0mg"},{"bike_id":"da053e6a-15f2-492e-8bc1-42b1d66cc329","system_id":"levelo_inurba_marseille","lat":43.28348,"lon":5.43263,"is_reserved":false,"is_disabled":false,"rental_uris":{"android":"levelo://app?vid=da053e6a-15f2-492e-8bc1-42b1d66cc329","ios":"levelo://app?vid=da053e6a-15f2-492e-8bc1-42b1d66cc329"},"vehicle_type_id":"4","last_reported":1753438361,"current_range_meters":5600,"station_id":"","pricing_plan_id":"cebpf4jnsgd1na2vs0mg"},{"bike_id":"249fadae-7d6d-490e-8e66-f1ac5e8fd8e6","system_id":"levelo_inurba_marseille","lat":43.26778,"lon":5.39417,"is_reserved":false,"is_disabled":false,"rental_uris":{"android":"levelo://app?vid=249fadae-7d6d-490e-8e66-f1ac5e8fd8e6","ios":"levelo://app?vid=249fadae-7d6d-490e-8e66-f1ac5e8fd8e6"},"vehicle_type_id":"4","last_reported":1753438361,"current_range_meters":6000,"station_id":"ce4bhh12rcd13ifvqfg0","pricing_plan_id":"cebpf4jnsgd1na2vs0mg"},{"bike_id":"bb0b5350-397b-4105-ada5-2d2bbe09db7d","system_id":"levelo_inurba_marseille","lat":43.27206,"lon":5.39182,"is_reserved":false,"is_disabled":false,"rental_uris":{"android":"levelo://app?vid=bb0b5350-397b-4105-ada5-2d2bbe09db7d","ios":"levelo://app?vid=bb0b5350-397b-4105-ada5-2d2bbe09db7d"},"vehicle_type_id":"4","last_reported":1753438361,"current_range_meters":6400,"station_id":"ce4bhhp2rcd13ifvqfm0","pricing_plan_id":"cebpf4jnsgd1na2vs0mg"},{"bike_id":"5a16fba4-3abf-4fb7-9e10-2d9dfa804ced","system_id":"levelo_inurba_marseille","lat":43.29036,"lon":5.39967,"is_reserved":false,"is_disabled":false,"rental_uris":{"android":"levelo://app?vid=5a16fba4-3abf-4fb7-9e10-2d9dfa804ced","ios":"levelo://app?vid=5a16fba4-3abf-4fb7-9e10-2d9dfa804ced"},"vehicle_type_id":"4","last_reported":1753438361,"current_range_meters":6800,"station_id":"ce4bh392rcd13ifvqdm0","pricing_plan_id":"cebpf4jnsgd1na2vs0mg"},{"bike_id":"7250624a-63df-4e44-9e5a-1056e5f8a90f","system_id":"levelo_inurba_marseille","lat":43.29183,"lon":5.40838,"is_reserved":false,"is_disabled":false,"rental_uris":{"android":"levelo://app?vid=7250624a-63df-4e44-9e5a-1056e5f8a90f","ios":"levelo://app?vid=7250624a-63df-4e44-9e5a-1056e5f8a90f"},"vehicle_type_id":"4","last_reported":1753438361,"current_range_meters":6800,"station_id":"","pricing_plan_id":"cebpf4jnsgd1na2vs0mg"},{"bike_id":"79159530-08b6-47bf-be7d-5b8e9aac9017","system_id":"levelo_inurba_marseille","lat":43.30075,"lon":5.39078,"is_reserved":false,"is_disabled":false,"rental_uris":{"android":"levelo://app?vid=79159530-08b6-47bf-be7d-5b8e9aac9017","ios":"levelo://app?vid=79159530-08b6-47bf-be7d-5b8e9aac9017"},"vehicle_type_id":"4","last_reported":1753438361,"current_range_meters":6400,"station_id":"ce4bh192rcd13ifvqdb0","pricing_plan_id":"cebpf4jnsgd1na2vs0mg"},{"bike_id":"2c0532cb-1689-423c-a224-e1ed84120a5c","system_id":"levelo_inurba_marseille","lat":43.32457,"lon":5.36578,"is_reserved":false,"is_disabled":false,"rental_uris":{"android":"levelo://app?vid=2c0532cb-1689-423c-a224-e1ed84120a5c","ios":"levelo://app?vid=2c0532cb-1689-423c-a224-e1ed84120a5c"},"vehicle_type_id":"4","last_reported":1753438361,"current_range_meters":7200,"station_id":"ce4bhs12rcd13ifvqhvg","pricing_plan_id":"cebpf4jnsgd1na2vs0mg"},{"bike_id":"2c304caa-867d-44f0-96b4-3c1eec387516","system_id":"levelo_inurba_marseille","lat":43.27208,"lon":5.40962,"is_reserved":false,"is_disabled":false,"rental_uris":{"android":"levelo://app?vid=2c304caa-867d-44f0-96b4-3c1eec387516","ios":"levelo://app?vid=2c304caa-867d-44f0-96b4-3c1eec387516"},"vehicle_type_id":"4","last_reported":1753438361,"current_range_meters":8000,"station_id":"ce4bhl12rcd13ifvqgf0","pricing_plan_id":"cebpf4jnsgd1na2vs0mg"},{"bike_id":"bbc2b271-396f-4875-9f1d-0fcc163d87b6","system_id":"levelo_inurba_marseille","lat":43.290619,"lon":5.398796,"is_reserved":false,"is_disabled":false,"rental_uris":{"android":"levelo://app?vid=bbc2b271-396f-4875-9f1d-0fcc163d87b6","ios":"levelo://app?vid=bbc2b271-396f-4875-9f1d-0fcc163d87b6"},"vehicle_type_id":"4","last_reported":1753438361,"current_range_meters":8000,"station_id":"","pricing_plan_id":"cebpf4jnsgd1na2vs0mg"},{"bike_id":"875c49d5-f38e-4d68-8f5f-0e5de0451e16","system_id":"levelo_inurba_marseille","lat":43.24184,"lon":5.3972,"is_reserved":false,"is_disabled":false,"rental_uris":{"android":"levelo://app?vid=875c49d5-f38e-4d68-8f5f-0e5de0451e16","ios":"levelo://app?vid=875c49d5-f38e-4d68-8f5f-0e5de0451e16"},"vehicle_type_id":"4","last_reported":1753438361,"current_range_meters":8000,"station_id":"ce4bhn12rcd13ifvqgpg","pricing_plan_id":"cebpf4jnsgd1na2vs0mg"},{"bike_id":"ae131367-d818-44a0-9e1d-4aa65dcdb16a","system_id":"levelo_inurba_marseille","lat":43.275238,"lon":5.396443,"is_reserved":false,"is_disabled":false,"rental_uris":{"android":"levelo://app?vid=ae131367-d818-44a0-9e1d-4aa65dcdb16a","ios":"levelo://app?vid=ae131367-d818-44a0-9e1d-4aa65dcdb16a"},"vehicle_type_id":"4","last_reported":1753438361,"current_range_meters":8000,"station_id":"","pricing_plan_id":"cebpf4jnsgd1na2vs0mg"},{"bike_id":"f9a0708c-367d-41c1-b4b9-c024f4f869ae","system_id":"levelo_inurba_marseille","lat":43.297964,"lon":5.404015,"is_reserved":false,"is_disabled":false,"rental_uris":{"android":"levelo://app?vid=f9a0708c-367d-41c1-b4b9-c024f4f869ae","ios":"levelo://app?vid=f9a0708c-367d-41c1-b4b9-c024f4f869ae"},"vehicle_type_id":"4","last_reported":1753438361,"current_range_meters":8000,"station_id":"ce4bh112rcd13ifvqd90","pricing_plan_id":"cebpf4jnsgd1na2vs0mg"},{"bike_id":"8fc40684-9b2f-4471-90f0-d80318962260","system_id":"levelo_inurba_marseille","lat":43.28561,"lon":5.37763,"is_reserved":false,"is_disabled":false,"rental_uris":{"android":"levelo://app?vid=8fc40684-9b2f-4471-90f0-d80318962260","ios":"levelo://app?vid=8fc40684-9b2f-4471-90f0-d80318962260"},"vehicle_type_id":"4","last_reported":1753438361,"current_range_meters":8000,"station_id":"","pricing_plan_id":"cebpf4jnsgd1na2vs0mg"},{"bike_id":"ad25e224-b15c-4949-92a3-53289b1bd1fb","system_id":"levelo_inurba_marseille","lat":43.28771,"lon":5.38524,"is_reserved":false,"is_disabled":false,"rental_uris":{"android":"levelo://app?vid=ad25e224-b15c-4949-92a3-53289b1bd1fb","ios":"levelo://app?vid=ad25e224-b15c-4949-92a3-53289b1bd1fb"},"vehicle_type_id":"4","last_reported":1753438361,"current_range_meters":8000,"station_id":"","pricing_plan_id":"cebpf4jnsgd1na2vs0mg"},{"bike_id":"d24e7110-dd46-4e4a-bf8c-1909d68695d6","system_id":"levelo_inurba_marseille","lat":43.32475,"lon":5.36584,"is_reserved":false,"is_disabled":false,"rental_uris":{"android":"levelo://app?vid=d24e7110-dd46-4e4a-bf8c-1909d68695d6","ios":"levelo://app?vid=d24e7110-dd46-4e4a-bf8c-1909d68695d6"},"vehicle_type_id":"4","last_reported":1753438361,"current_range_meters":8400,"station_id":"ce4bhs12rcd13ifvqhvg","pricing_plan_id":"cebpf4jnsgd1na2vs0mg"},{"bike_id":"75f25678-4f95-4cf8-b49f-5c2ee15562d4","system_id":"levelo_inurba_marseille","lat":43.24393,"lon":5.3706,"is_reserved":false,"is_disabled":false,"rental_uris":{"android":"levelo://app?vid=75f25678-4f95-4cf8-b49f-5c2ee15562d4","ios":"levelo://app?vid=75f25678-4f95-4cf8-b49f-5c2ee15562d4"},"vehicle_type_id":"4","last_reported":1753438361,"current_range_meters":8400,"station_id":"ce4bhhh2rcd13ifvqfk0","pricing_plan_id":"cebpf4jnsgd1na2vs0mg"},{"bike_id":"df135137-de1c-47d3-9fc3-0fffb7cd8d05","system_id":"levelo_inurba_marseille","lat":43.306323,"lon":5.400755,"is_reserved":false,"is_disabled":false,"rental_uris":{"android":"levelo://app?vid=df135137-de1c-47d3-9fc3-0fffb7cd8d05","ios":"levelo://app?vid=df135137-de1c-47d3-9fc3-0fffb7cd8d05"},"vehicle_type_id":"4","last_reported":1753438361,"current_range_meters":8400,"station_id":"ce4bh112rcd13ifvqda0","pricing_plan_id":"cebpf4jnsgd1na2vs0mg"},{"bike_id":"d11685a1-0abc-44a3-b2d5-bfd6df1dd308","system_id":"levelo_inurba_marseille","lat":43.281107,"lon":5.441123,"is_reserved":false,"is_disabled":false,"rental_uris":{"android":"levelo://app?vid=d11685a1-0abc-44a3-b2d5-bfd6df1dd308","ios":"levelo://app?vid=d11685a1-0abc-44a3-b2d5-bfd6df1dd308"},"vehicle_type_id":"4","last_reported":1753438361,"current_range_meters":8400,"station_id":"","pricing_plan_id":"cebpf4jnsgd1na2vs0mg"},{"bike_id":"b5ce8d93-17c0-45a5-b2b1-eefce45c2d79","system_id":"levelo_inurba_marseille","lat":43.29269,"lon":5.44591,"is_reserved":false,"is_disabled":false,"rental_uris":{"android":"levelo://app?vid=b5ce8d93-17c0-45a5-b2b1-eefce45c2d79","ios":"levelo://app?vid=b5ce8d93-17c0-45a5-b2b1-eefce45c2d79"},"vehicle_type_id":"4","last_reported":1753438361,"current_range_meters":8800,"station_id":"","pricing_plan_id":"cebpf4jnsgd1na2vs0mg"},{"bike_id":"ab249d16-8064-42a9-8d25-789aca3c5e74","system_id":"levelo_inurba_marseille","lat":43.22501,"lon":5.34769,"is_reserved":false,"is_disabled":false,"rental_uris":{"android":"levelo://app?vid=ab249d16-8064-42a9-8d25-789aca3c5e74","ios":"levelo://app?vid=ab249d16-8064-42a9-8d25-789aca3c5e74"},"vehicle_type_id":"4","last_reported":1753438361,"current_range_meters":8800,"station_id":"st_cvj5dfep6f1abm77gieg","pricing_plan_id":"cebpf4jnsgd1na2vs0mg"},{"bike_id":"3cbb97c5-1f06-4add-ac6d-a120022e686c","system_id":"levelo_inurba_marseille","lat":43.29896,"lon":5.37586,"is_reserved":false,"is_disabled":false,"rental_uris":{"android":"levelo://app?vid=3cbb97c5-1f06-4add-ac6d-a120022e686c","ios":"levelo://app?vid=3cbb97c5-1f06-4add-ac6d-a120022e686c"},"vehicle_type_id":"4","last_reported":1753438361,"current_range_meters":8800,"station_id":"","pricing_plan_id":"cebpf4jnsgd1na2vs0mg"},{"bike_id":"ce3b4bc4-073f-41d6-bdd4-b48f5b16cb4d","system_id":"levelo_inurba_marseille","lat":43.2978,"lon":5.37698,"is_reserved":false,"is_disabled":true,"rental_uris":{"android":"levelo://app?vid=ce3b4bc4-073f-41d6-bdd4-b48f5b16cb4d","ios":"levelo://app?vid=ce3b4bc4-073f-41d6-bdd4-b48f5b16cb4d"},"vehicle_type_id":"4","last_reported":1753438361,"current_range_meters":8800,"station_id":"","pricing_plan_id":"cebpf4jnsgd1na2vs0mg"},{"bike_id":"07add222-0b50-41f8-baa6-08fddddfffe2","system_id":"levelo_inurba_marseille","lat":43.27945,"lon":5.41062,"is_reserved":false,"is_disabled":false,"rental_uris":{"android":"levelo://app?vid=07add222-0b50-41f8-baa6-08fddddfffe2","ios":"levelo://app?vid=07add222-0b50-41f8-baa6-08fddddfffe2"},"vehicle_type_id":"4","last_reported":1753438361,"current_range_meters":8800,"station_id":"ce4bhnp2rcd13ifvqh0g","pricing_plan_id":"cebpf4jnsgd1na2vs0mg"},{"bike_id":"5ac85406-65d0-4336-aa89-4b04b2e6689e","system_id":"levelo_inurba_marseille","lat":43.3326,"lon":5.41976,"is_reserved":false,"is_disabled":false,"rental_uris":{"android":"levelo://app?vid=5ac85406-65d0-4336-aa89-4b04b2e6689e","ios":"levelo://app?vid=5ac85406-65d0-4336-aa89-4b04b2e6689e"},"vehicle_type_id":"4","last_reported":1753438361,"current_range_meters":9200,"station_id":"","pricing_plan_id":"cebpf4jnsgd1na2vs0mg"},{"bike_id":"6bb1f31c-9335-4f39-9585-31374a4775f9","system_id":"levelo_inurba_marseille","lat":43.325583,"lon":5.379059,"is_reserved":false,"is_disabled":false,"rental_uris":{"android":"levelo://app?vid=6bb1f31c-9335-4f39-9585-31374a4775f9","ios":"levelo://app?vid=6bb1f31c-9335-4f39-9585-31374a4775f9"},"vehicle_type_id":"4","last_reported":1753438361,"current_range_meters":9200,"station_id":"","pricing_plan_id":"cebpf4jnsgd1na2vs0mg"},{"bike_id":"2006d6ab-c619-4a15-b9f3-97c1160843f0","system_id":"levelo_inurba_marseille","lat":43.281598,"lon":5.36107,"is_reserved":false,"is_disabled":false,"rental_uris":{"android":"levelo://app?vid=2006d6ab-c619-4a15-b9f3-97c1160843f0","ios":"levelo://app?vid=2006d6ab-c619-4a15-b9f3-97c1160843f0"},"vehicle_type_id":"4","last_reported":1753438361,"current_range_meters":9200,"station_id":"","pricing_plan_id":"cebpf4jnsgd1na2vs0mg"},{"bike_id":"97468370-9da2-414c-bbc1-c465373893ef","system_id":"levelo_inurba_marseille","lat":43.29846,"lon":5.36267,"is_reserved":false,"is_disabled":false,"rental_uris":{"android":"levelo://app?vid=97468370-9da2-414c-bbc1-c465373893ef","ios":"levelo://app?vid=97468370-9da2-414c-bbc1-c465373893ef"},"vehicle_type_id":"4","last_reported":1753438361,"current_range_meters":9600,"station_id":"ce4bgpp2rcd13ifvqc3g","pricing_plan_id":"cebpf4jnsgd1na2vs0mg"},{"bike_id":"2ae83899-90fd-4b59-b691-4169c75aef1a","system_id":"levelo_inurba_marseille","lat":43.33757,"lon":5.37449,"is_reserved":false,"is_disabled":false,"rental_uris":{"android":"levelo://app?vid=2ae83899-90fd-4b59-b691-4169c75aef1a","ios":"levelo://app?vid=2ae83899-90fd-4b59-b691-4169c75aef1a"},"vehicle_type_id":"4","last_reported":1753438361,"current_range_meters":9600,"station_id":"","pricing_plan_id":"cebpf4jnsgd1na2vs0mg"},{"bike_id":"5d616fb0-1c0f-45f5-a0c3-13eba760dad4","system_id":"levelo_inurba_marseille","lat":43.30585,"lon":5.37256,"is_reserved":false,"is_disabled":false,"rental_uris":{"android":"levelo://app?vid=5d616fb0-1c0f-45f5-a0c3-13eba760dad4","ios":"levelo://app?vid=5d616fb0-1c0f-45f5-a0c3-13eba760dad4"},"vehicle_type_id":"4","last_reported":1753438361,"current_range_meters":10000,"station_id":"ce4bgqh2rcd13ifvqc4g","pricing_plan_id":"cebpf4jnsgd1na2vs0mg"},{"bike_id":"99fbc083-595d-4d46-9836-7c75a6222fc7","system_id":"levelo_inurba_marseille","lat":43.32342,"lon":5.40623,"is_reserved":false,"is_disabled":false,"rental_uris":{"android":"levelo://app?vid=99fbc083-595d-4d46-9836-7c75a6222fc7","ios":"levelo://app?vid=99fbc083-595d-4d46-9836-7c75a6222fc7"},"vehicle_type_id":"4","last_reported":1753438361,"current_range_meters":10000,"station_id":"ce4bhq92rcd13ifvqhjg","pricing_plan_id":"cebpf4jnsgd1na2vs0mg"},{"bike_id":"565d501c-84c9-4b9b-9502-cfddc0c39f93","system_id":"levelo_inurba_marseille","lat":43.30553,"lon":5.365665,"is_reserved":false,"is_disabled":false,"rental_uris":{"android":"levelo://app?vid=565d501c-84c9-4b9b-9502-cfddc0c39f93","ios":"levelo://app?vid=565d501c-84c9-4b9b-9502-cfddc0c39f93"},"vehicle_type_id":"4","last_reported":1753438361,"current_range_meters":10800,"station_id":"ce4bgs12rcd13ifvqcag","pricing_plan_id":"cebpf4jnsgd1na2vs0mg"},{"bike_id":"1db1809e-05bc-42ac-b80e-2e37f8809d7e","system_id":"levelo_inurba_marseille","lat":43.30531,"lon":5.36718,"is_reserved":false,"is_disabled":false,"rental_uris":{"android":"levelo://app?vid=1db1809e-05bc-42ac-b80e-2e37f8809d7e","ios":"levelo://app?vid=1db1809e-05bc-42ac-b80e-2e37f8809d7e"},"vehicle_type_id":"4","last_reported":1753438361,"current_range_meters":10800,"station_id":"ce4bgrp2rcd13ifvqc9g","pricing_plan_id":"cebpf4jnsgd1na2vs0mg"},{"bike_id":"e3c9342c-bb6d-4718-bcc5-8fe52f1f8f7c","system_id":"levelo_inurba_marseille","lat":43.29704,"lon":5.36615,"is_reserved":false,"is_disabled":false,"rental_uris":{"android":"levelo://app?vid=e3c9342c-bb6d-4718-bcc5-8fe52f1f8f7c","ios":"levelo://app?vid=e3c9342c-bb6d-4718-bcc5-8fe52f1f8f7c"},"vehicle_type_id":"4","last_reported":1753438361,"current_range_meters":10800,"station_id":"ce4bgn12rcd13ifvqbt0","pricing_plan_id":"cebpf4jnsgd1na2vs0mg"},{"bike_id":"e39e1901-85bb-48d1-9a60-8dfa814928d2","system_id":"levelo_inurba_marseille","lat":43.29582,"lon":5.36737,"is_reserved":false,"is_disabled":false,"rental_uris":{"android":"levelo://app?vid=e39e1901-85bb-48d1-9a60-8dfa814928d2","ios":"levelo://app?vid=e39e1901-85bb-48d1-9a60-8dfa814928d2"},"vehicle_type_id":"4","last_reported":1753438361,"current_range_meters":12800,"station_id":"ce4bgph2rcd13ifvqc2g","pricing_plan_id":"cebpf4jnsgd1na2vs0mg"},{"bike_id":"fbda76a5-068e-4d90-b9ba-25721acd9298","system_id":"levelo_inurba_marseille","lat":43.29047,"lon":5.4397,"is_reserved":false,"is_disabled":false,"rental_uris":{"android":"levelo://app?vid=fbda76a5-068e-4d90-b9ba-25721acd9298","ios":"levelo://app?vid=fbda76a5-068e-4d90-b9ba-25721acd9298"},"vehicle_type_id":"4","last_reported":1753438361,"current_range_meters":11200,"station_id":"","pricing_plan_id":"cebpf4jnsgd1na2vs0mg"},{"bike_id":"77a4ecdf-2983-465c-98e3-0483ef614004","system_id":"levelo_inurba_marseille","lat":43.27377,"lon":5.36258,"is_reserved":false,"is_disabled":false,"rental_uris":{"android":"levelo://app?vid=77a4ecdf-2983-465c-98e3-0483ef614004","ios":"levelo://app?vid=77a4ecdf-2983-465c-98e3-0483ef614004"},"vehicle_type_id":"4","last_reported":1753438361,"current_range_meters":11200,"station_id":"ce4bhbh2rcd13ifvqeo0","pricing_plan_id":"cebpf4jnsgd1na2vs0mg"},{"bike_id":"b969dc81-baeb-47cd-a4dc-c1286f3b67e6","system_id":"levelo_inurba_marseille","lat":43.29741,"lon":5.37725,"is_reserved":false,"is_disabled":false,"rental_uris":{"android":"levelo://app?vid=b969dc81-baeb-47cd-a4dc-c1286f3b67e6","ios":"levelo://app?vid=b969dc81-baeb-47cd-a4dc-c1286f3b67e6"},"vehicle_type_id":"4","last_reported":1753438361,"current_range_meters":10800,"station_id":"ce4bgkh2rcd13ifvqbl0","pricing_plan_id":"cebpf4jnsgd1na2vs0mg"},{"bike_id":"e6b76a25-242d-4950-898e-36ee3c925a3f","system_id":"levelo_inurba_marseille","lat":43.28255,"lon":5.35092,"is_reserved":false,"is_disabled":false,"rental_uris":{"android":"levelo://app?vid=e6b76a25-242d-4950-898e-36ee3c925a3f","ios":"levelo://app?vid=e6b76a25-242d-4950-898e-36ee3c925a3f"},"vehicle_type_id":"4","last_reported":1753438361,"current_range_meters":11600,"station_id":"ce4bhbp2rcd13ifvqerg","pricing_plan_id":"cebpf4jnsgd1na2vs0mg"},{"bike_id":"fd1aa88d-23cd-4fe0-88c7-395bbf8b71de","system_id":"levelo_inurba_marseille","lat":43.297123,"lon":5.37696,"is_reserved":false,"is_disabled":false,"rental_uris":{"android":"levelo://app?vid=fd1aa88d-23cd-4fe0-88c7-395bbf8b71de","ios":"levelo://app?vid=fd1aa88d-23cd-4fe0-88c7-395bbf8b71de"},"vehicle_type_id":"4","last_reported":1753438361,"current_range_meters":11600,"station_id":"ce4bgkh2rcd13ifvqbl0","pricing_plan_id":"cebpf4jnsgd1na2vs0mg"},{"bike_id":"9353d228-8680-4d7c-b6dd-c80a6ca3c031","system_id":"levelo_inurba_marseille","lat":43.30386,"lon":5.42478,"is_reserved":false,"is_disabled":false,"rental_uris":{"android":"levelo://app?vid=9353d228-8680-4d7c-b6dd-c80a6ca3c031","ios":"levelo://app?vid=9353d228-8680-4d7c-b6dd-c80a6ca3c031"},"vehicle_type_id":"4","last_reported":1753438361,"current_range_meters":11600,"station_id":"ce4bhoh2rcd13ifvqh6g","pricing_plan_id":"cebpf4jnsgd1na2vs0mg"},{"bike_id":"f37cfaf1-9823-434f-b0df-129f3f7d997f","system_id":"levelo_inurba_marseille","lat":43.25581,"lon":5.38232,"is_reserved":false,"is_disabled":false,"rental_uris":{"android":"levelo://app?vid=f37cfaf1-9823-434f-b0df-129f3f7d997f","ios":"levelo://app?vid=f37cfaf1-9823-434f-b0df-129f3f7d997f"},"vehicle_type_id":"4","last_reported":1753438361,"current_range_meters":11600,"station_id":"ce4bhih2rcd13ifvqfs0","pricing_plan_id":"cebpf4jnsgd1na2vs0mg"},{"bike_id":"eaea15aa-98ae-4f78-b37a-80e2e4524837","system_id":"levelo_inurba_marseille","lat":43.297916,"lon":5.381026,"is_reserved":false,"is_disabled":false,"rental_uris":{"android":"levelo://app?vid=eaea15aa-98ae-4f78-b37a-80e2e4524837","ios":"levelo://app?vid=eaea15aa-98ae-4f78-b37a-80e2e4524837"},"vehicle_type_id":"4","last_reported":1753438361,"current_range_meters":11600,"station_id":"","pricing_plan_id":"cebpf4jnsgd1na2vs0mg"},{"bike_id":"e1bc300b-324d-4861-932c-1dcfecdcd0e9","system_id":"levelo_inurba_marseille","lat":43.30526,"lon":5.36729,"is_reserved":false,"is_disabled":false,"rental_uris":{"android":"levelo://app?vid=e1bc300b-324d-4861-932c-1dcfecdcd0e9","ios":"levelo://app?vid=e1bc300b-324d-4861-932c-1dcfecdcd0e9"},"vehicle_type_id":"4","last_reported":1753438361,"current_range_meters":11600,"station_id":"ce4bgrp2rcd13ifvqc9g","pricing_plan_id":"cebpf4jnsgd1na2vs0mg"},{"bike_id":"0aa2d153-96d1-4d69-83b8-d39119aa9dd5","system_id":"levelo_inurba_marseille","lat":43.3354,"lon":5.36213,"is_reserved":false,"is_disabled":false,"rental_uris":{"android":"levelo://app?vid=0aa2d153-96d1-4d69-83b8-d39119aa9dd5","ios":"levelo://app?vid=0aa2d153-96d1-4d69-83b8-d39119aa9dd5"},"vehicle_type_id":"4","last_reported":1753438361,"current_range_meters":11600,"station_id":"","pricing_plan_id":"cebpf4jnsgd1na2vs0mg"},{"bike_id":"55365956-484a-4aa8-b3c6-129baef25f56","system_id":"levelo_inurba_marseille","lat":43.27813,"lon":5.40713,"is_reserved":false,"is_disabled":false,"rental_uris":{"android":"levelo://app?vid=55365956-484a-4aa8-b3c6-129baef25f56","ios":"levelo://app?vid=55365956-484a-4aa8-b3c6-129baef25f56"},"vehicle_type_id":"4","last_reported":1753438361,"current_range_meters":12000,"station_id":"ce4bhnh2rcd13ifvqgtg","pricing_plan_id":"cebpf4jnsgd1na2vs0mg"},{"bike_id":"032f66d0-c387-41c5-9af4-1ad9711f505c","system_id":"levelo_inurba_marseille","lat":43.316961,"lon":5.404684,"is_reserved":false,"is_disabled":false,"rental_uris":{"android":"levelo://app?vid=032f66d0-c387-41c5-9af4-1ad9711f505c","ios":"levelo://app?vid=032f66d0-c387-41c5-9af4-1ad9711f505c"},"vehicle_type_id":"4","last_reported":1753438361,"current_range_meters":12000,"station_id":"ce4bh012rcd13ifvqd00","pricing_plan_id":"cebpf4jnsgd1na2vs0mg"},{"bike_id":"9bb7bf6e-d696-4836-a041-06a2876b08f1","system_id":"levelo_inurba_marseille","lat":43.30609,"lon":5.38519,"is_reserved":false,"is_disabled":false,"rental_uris":{"android":"levelo://app?vid=9bb7bf6e-d696-4836-a041-06a2876b08f1","ios":"levelo://app?vid=9bb7bf6e-d696-4836-a041-06a2876b08f1"},"vehicle_type_id":"4","last_reported":1753438361,"current_range_meters":12000,"station_id":"","pricing_plan_id":"cebpf4jnsgd1na2vs0mg"},{"bike_id":"6016bd46-c938-488b-ab2b-4899289a9e4e","system_id":"levelo_inurba_marseille","lat":43.305585,"lon":5.383627,"is_reserved":false,"is_disabled":false,"rental_uris":{"android":"levelo://app?vid=6016bd46-c938-488b-ab2b-4899289a9e4e","ios":"levelo://app?vid=6016bd46-c938-488b-ab2b-4899289a9e4e"},"vehicle_type_id":"4","last_reported":1753438361,"current_range_meters":12000,"station_id":"ce4bgg92rcd13ifvqb30","pricing_plan_id":"cebpf4jnsgd1na2vs0mg"},{"bike_id":"77fa6c16-08a5-45b0-a3fd-cb21dcce5464","system_id":"levelo_inurba_marseille","lat":43.29037,"lon":5.38148,"is_reserved":false,"is_disabled":false,"rental_uris":{"android":"levelo://app?vid=77fa6c16-08a5-45b0-a3fd-cb21dcce5464","ios":"levelo://app?vid=77fa6c16-08a5-45b0-a3fd-cb21dcce5464"},"vehicle_type_id":"4","last_reported":1753438361,"current_range_meters":12000,"station_id":"ce4bh4p2rcd13ifvqe1g","pricing_plan_id":"cebpf4jnsgd1na2vs0mg"},{"bike_id":"1f39eb17-34c7-4235-9069-0f68f613789c","system_id":"levelo_inurba_marseille","lat":43.26886,"lon":5.36871,"is_reserved":false,"is_disabled":false,"rental_uris":{"android":"levelo://app?vid=1f39eb17-34c7-4235-9069-0f68f613789c","ios":"levelo://app?vid=1f39eb17-34c7-4235-9069-0f68f613789c"},"vehicle_type_id":"4","last_reported":1753438361,"current_range_meters":12400,"station_id":"","pricing_plan_id":"cebpf4jnsgd1na2vs0mg"},{"bike_id":"9c9b3eff-9ed7-4f7c-b473-392389b0634c","system_id":"levelo_inurba_marseille","lat":43.31332,"lon":5.36753,"is_reserved":false,"is_disabled":false,"rental_uris":{"android":"levelo://app?vid=9c9b3eff-9ed7-4f7c-b473-392389b0634c","ios":"levelo://app?vid=9c9b3eff-9ed7-4f7c-b473-392389b0634c"},"vehicle_type_id":"4","last_reported":1753438361,"current_range_meters":12400,"station_id":"ce4bgr92rcd13ifvqc6g","pricing_plan_id":"cebpf4jnsgd1na2vs0mg"},{"bike_id":"4a6fb142-606d-4e08-8a02-81bbf16a3162","system_id":"levelo_inurba_marseille","lat":43.26959,"lon":5.38645,"is_reserved":false,"is_disabled":false,"rental_uris":{"android":"levelo://app?vid=4a6fb142-606d-4e08-8a02-81bbf16a3162","ios":"levelo://app?vid=4a6fb142-606d-4e08-8a02-81bbf16a3162"},"vehicle_type_id":"4","last_reported":1753438361,"current_range_meters":11600,"station_id":"ce4bhh92rcd13ifvqfh0","pricing_plan_id":"cebpf4jnsgd1na2vs0mg"},{"bike_id":"73579f03-2624-4085-866e-5b1a0feb4b10","system_id":"levelo_inurba_marseille","lat":43.32361,"lon":5.36754,"is_reserved":false,"is_disabled":false,"rental_uris":{"android":"levelo://app?vid=73579f03-2624-4085-866e-5b1a0feb4b10","ios":"levelo://app?vid=73579f03-2624-4085-866e-5b1a0feb4b10"},"vehicle_type_id":"4","last_reported":1753438361,"current_range_meters":12400,"station_id":"ce4bhsh2rcd13ifvqi2g","pricing_plan_id":"cebpf4jnsgd1na2vs0mg"},{"bike_id":"1e9cf983-3afc-4620-a4d4-2dd094704fd1","system_id":"levelo_inurba_marseille","lat":43.22511,"lon":5.34772,"is_reserved":false,"is_disabled":false,"rental_uris":{"android":"levelo://app?vid=1e9cf983-3afc-4620-a4d4-2dd094704fd1","ios":"levelo://app?vid=1e9cf983-3afc-4620-a4d4-2dd094704fd1"},"vehicle_type_id":"4","last_reported":1753438361,"current_range_meters":12400,"station_id":"","pricing_plan_id":"cebpf4jnsgd1na2vs0mg"},{"bike_id":"1bad41f4-2220-48a2-9d56-f732121985af","system_id":"levelo_inurba_marseille","lat":43.31301,"lon":5.43116,"is_reserved":false,"is_disabled":false,"rental_uris":{"android":"levelo://app?vid=1bad41f4-2220-48a2-9d56-f732121985af","ios":"levelo://app?vid=1bad41f4-2220-48a2-9d56-f732121985af"},"vehicle_type_id":"4","last_reported":1753438361,"current_range_meters":12400,"station_id":"","pricing_plan_id":"cebpf4jnsgd1na2vs0mg"},{"bike_id":"a7fb77ed-6a7c-4720-9562-87380eb23df6","system_id":"levelo_inurba_marseille","lat":43.33521,"lon":5.40854,"is_reserved":false,"is_disabled":false,"rental_uris":{"android":"levelo://app?vid=a7fb77ed-6a7c-4720-9562-87380eb23df6","ios":"levelo://app?vid=a7fb77ed-6a7c-4720-9562-87380eb23df6"},"vehicle_type_id":"4","last_reported":1753438361,"current_range_meters":12800,"station_id":"","pricing_plan_id":"cebpf4jnsgd1na2vs0mg"},{"bike_id":"e567ee9c-3f52-4a9b-8442-5210d9fe868b","system_id":"levelo_inurba_marseille","lat":43.24667,"lon":5.38176,"is_reserved":false,"is_disabled":false,"rental_uris":{"android":"levelo://app?vid=e567ee9c-3f52-4a9b-8442-5210d9fe868b","ios":"levelo://app?vid=e567ee9c-3f52-4a9b-8442-5210d9fe868b"},"vehicle_type_id":"4","last_reported":1753438361,"current_range_meters":12400,"station_id":"ce4bhih2rcd13ifvqfr0","pricing_plan_id":"cebpf4jnsgd1na2vs0mg"},{"bike_id":"401411fd-1afa-4328-9dc9-c5f879be4c58","system_id":"levelo_inurba_marseille","lat":43.29374,"lon":5.37836,"is_reserved":false,"is_disabled":false,"rental_uris":{"android":"levelo://app?vid=401411fd-1afa-4328-9dc9-c5f879be4c58","ios":"levelo://app?vid=401411fd-1afa-4328-9dc9-c5f879be4c58"},"vehicle_type_id":"4","last_reported":1753438361,"current_range_meters":13600,"station_id":"ce4bgjh2rcd13ifvqbf0","pricing_plan_id":"cebpf4jnsgd1na2vs0mg"},{"bike_id":"66998947-53bd-4d79-be99-2f479b7e0487","system_id":"levelo_inurba_marseille","lat":43.22507,"lon":5.34783,"is_reserved":false,"is_disabled":false,"rental_uris":{"android":"levelo://app?vid=66998947-53bd-4d79-be99-2f479b7e0487","ios":"levelo://app?vid=66998947-53bd-4d79-be99-2f479b7e0487"},"vehicle_type_id":"4","last_reported":1753438361,"current_range_meters":13600,"station_id":"st_cvj5dfep6f1abm77gieg","pricing_plan_id":"cebpf4jnsgd1na2vs0mg"},{"bike_id":"1a4f1517-8d48-437b-83f1-61077604ff6c","system_id":"levelo_inurba_marseille","lat":43.29623,"lon":5.40598,"is_reserved":false,"is_disabled":false,"rental_uris":{"android":"levelo://app?vid=1a4f1517-8d48-437b-83f1-61077604ff6c","ios":"levelo://app?vid=1a4f1517-8d48-437b-83f1-61077604ff6c"},"vehicle_type_id":"4","last_reported":1753438361,"current_range_meters":13600,"station_id":"ce4bh0h2rcd13ifvqd60","pricing_plan_id":"cebpf4jnsgd1na2vs0mg"},{"bike_id":"481351de-e3d5-4a6f-aa67-c1762e7ed223","system_id":"levelo_inurba_marseille","lat":43.27078,"lon":5.42281,"is_reserved":false,"is_disabled":false,"rental_uris":{"android":"levelo://app?vid=481351de-e3d5-4a6f-aa67-c1762e7ed223","ios":"levelo://app?vid=481351de-e3d5-4a6f-aa67-c1762e7ed223"},"vehicle_type_id":"4","last_reported":1753438361,"current_range_meters":13600,"station_id":"ce4bhk92rcd13ifvqgb0","pricing_plan_id":"cebpf4jnsgd1na2vs0mg"},{"bike_id":"ca94119b-493d-4ee5-a707-69bce19ddb50","system_id":"levelo_inurba_marseille","lat":43.305501,"lon":5.367404,"is_reserved":false,"is_disabled":false,"rental_uris":{"android":"levelo://app?vid=ca94119b-493d-4ee5-a707-69bce19ddb50","ios":"levelo://app?vid=ca94119b-493d-4ee5-a707-69bce19ddb50"},"vehicle_type_id":"4","last_reported":1753438361,"current_range_meters":14000,"station_id":"ce4bgrp2rcd13ifvqc9g","pricing_plan_id":"cebpf4jnsgd1na2vs0mg"},{"bike_id":"c7ae93f6-7a57-4432-b3c1-a543f37f9912","system_id":"levelo_inurba_marseille","lat":43.267854,"lon":5.394133,"is_reserved":false,"is_disabled":false,"rental_uris":{"android":"levelo://app?vid=c7ae93f6-7a57-4432-b3c1-a543f37f9912","ios":"levelo://app?vid=c7ae93f6-7a57-4432-b3c1-a543f37f9912"},"vehicle_type_id":"4","last_reported":1753438361,"current_range_meters":14000,"station_id":"ce4bhh12rcd13ifvqfg0","pricing_plan_id":"cebpf4jnsgd1na2vs0mg"},{"bike_id":"3f947606-5aaa-4500-8084-bd1f98e6a611","system_id":"levelo_inurba_marseille","lat":43.316934,"lon":5.404651,"is_reserved":false,"is_disabled":false,"rental_uris":{"android":"levelo://app?vid=3f947606-5aaa-4500-8084-bd1f98e6a611","ios":"levelo://app?vid=3f947606-5aaa-4500-8084-bd1f98e6a611"},"vehicle_type_id":"4","last_reported":1753438361,"current_range_meters":14000,"station_id":"ce4bh012rcd13ifvqd00","pricing_plan_id":"cebpf4jnsgd1na2vs0mg"},{"bike_id":"ad7f924d-5443-4b14-80c3-fdbe71f8752e","system_id":"levelo_inurba_marseille","lat":43.26085,"lon":5.37307,"is_reserved":false,"is_disabled":false,"rental_uris":{"android":"levelo://app?vid=ad7f924d-5443-4b14-80c3-fdbe71f8752e","ios":"levelo://app?vid=ad7f924d-5443-4b14-80c3-fdbe71f8752e"},"vehicle_type_id":"4","last_reported":1753438361,"current_range_meters":14000,"station_id":"","pricing_plan_id":"cebpf4jnsgd1na2vs0mg"},{"bike_id":"09ba2926-92d2-4c4d-a6be-e908866b9b1c","system_id":"levelo_inurba_marseille","lat":43.27618,"lon":5.36103,"is_reserved":false,"is_disabled":false,"rental_uris":{"android":"levelo://app?vid=09ba2926-92d2-4c4d-a6be-e908866b9b1c","ios":"levelo://app?vid=09ba2926-92d2-4c4d-a6be-e908866b9b1c"},"vehicle_type_id":"4","last_reported":1753438361,"current_range_meters":14400,"station_id":"ce4bgj92rcd13ifvqbe0","pricing_plan_id":"cebpf4jnsgd1na2vs0mg"},{"bike_id":"21bb3fef-81ef-46bb-a48d-d85402757c94","system_id":"levelo_inurba_marseille","lat":43.25451,"lon":5.37995,"is_reserved":false,"is_disabled":false,"rental_uris":{"android":"levelo://app?vid=21bb3fef-81ef-46bb-a48d-d85402757c94","ios":"levelo://app?vid=21bb3fef-81ef-46bb-a48d-d85402757c94"},"vehicle_type_id":"4","last_reported":1753438361,"current_range_meters":14400,"station_id":"","pricing_plan_id":"cebpf4jnsgd1na2vs0mg"},{"bike_id":"261d4bb0-7bb9-4c80-93f3-cd6f68b7285e","system_id":"levelo_inurba_marseille","lat":43.31486,"lon":5.36971,"is_reserved":false,"is_disabled":false,"rental_uris":{"android":"levelo://app?vid=261d4bb0-7bb9-4c80-93f3-cd6f68b7285e","ios":"levelo://app?vid=261d4bb0-7bb9-4c80-93f3-cd6f68b7285e"},"vehicle_type_id":"4","last_reported":1753438361,"current_range_meters":14400,"station_id":"","pricing_plan_id":"cebpf4jnsgd1na2vs0mg"},{"bike_id":"765e51c1-951d-44b6-ac71-905cb33a1876","system_id":"levelo_inurba_marseille","lat":43.286708,"lon":5.363547,"is_reserved":false,"is_disabled":false,"rental_uris":{"android":"levelo://app?vid=765e51c1-951d-44b6-ac71-905cb33a1876","ios":"levelo://app?vid=765e51c1-951d-44b6-ac71-905cb33a1876"},"vehicle_type_id":"4","last_reported":1753438361,"current_range_meters":11200,"station_id":"ce4bhah2rcd13ifvqej0","pricing_plan_id":"cebpf4jnsgd1na2vs0mg"},{"bike_id":"b0b3ba77-7ce6-4dca-86c4-ec849fb94028","system_id":"levelo_inurba_marseille","lat":43.30924,"lon":5.36858,"is_reserved":false,"is_disabled":false,"rental_uris":{"android":"levelo://app?vid=b0b3ba77-7ce6-4dca-86c4-ec849fb94028","ios":"levelo://app?vid=b0b3ba77-7ce6-4dca-86c4-ec849fb94028"},"vehicle_type_id":"4","last_reported":1753438361,"current_range_meters":14400,"station_id":"ce4bgn92rcd13ifvqbvg","pricing_plan_id":"cebpf4jnsgd1na2vs0mg"},{"bike_id":"dddbef83-b47e-460f-a4ac-beade05833f1","system_id":"levelo_inurba_marseille","lat":43.22929,"lon":5.35375,"is_reserved":false,"is_disabled":false,"rental_uris":{"android":"levelo://app?vid=dddbef83-b47e-460f-a4ac-beade05833f1","ios":"levelo://app?vid=dddbef83-b47e-460f-a4ac-beade05833f1"},"vehicle_type_id":"4","last_reported":1753438361,"current_range_meters":14800,"station_id":"cpo3532slgdg3j2ikp40","pricing_plan_id":"cebpf4jnsgd1na2vs0mg"},{"bike_id":"5de7867a-387c-407e-a78f-8d9a8ba15ef9","system_id":"levelo_inurba_marseille","lat":43.28621,"lon":5.35112,"is_reserved":false,"is_disabled":false,"rental_uris":{"android":"levelo://app?vid=5de7867a-387c-407e-a78f-8d9a8ba15ef9","ios":"levelo://app?vid=5de7867a-387c-407e-a78f-8d9a8ba15ef9"},"vehicle_type_id":"4","last_reported":1753438361,"current_range_meters":15200,"station_id":"ce4bhch2rcd13ifvqeug","pricing_plan_id":"cebpf4jnsgd1na2vs0mg"},{"bike_id":"23d2904d-9502-41eb-befc-d3e5ae26f4ff","system_id":"levelo_inurba_marseille","lat":43.31279,"lon":5.4017,"is_reserved":false,"is_disabled":false,"rental_uris":{"android":"levelo://app?vid=23d2904d-9502-41eb-befc-d3e5ae26f4ff","ios":"levelo://app?vid=23d2904d-9502-41eb-befc-d3e5ae26f4ff"},"vehicle_type_id":"4","last_reported":1753438361,"current_range_meters":15200,"station_id":"ce4bh092rcd13ifvqd30","pricing_plan_id":"cebpf4jnsgd1na2vs0mg"},{"bike_id":"c33c3321-c05d-49ee-bc03-f9e523692cd1","system_id":"levelo_inurba_marseille","lat":43.29732,"lon":5.37701,"is_reserved":false,"is_disabled":false,"rental_uris":{"android":"levelo://app?vid=c33c3321-c05d-49ee-bc03-f9e523692cd1","ios":"levelo://app?vid=c33c3321-c05d-49ee-bc03-f9e523692cd1"},"vehicle_type_id":"4","last_reported":1753438361,"current_range_meters":10800,"station_id":"ce4bgkh2rcd13ifvqbl0","pricing_plan_id":"cebpf4jnsgd1na2vs0mg"},{"bike_id":"a4259810-e5ab-4b2f-a4f3-ae6092a1e530","system_id":"levelo_inurba_marseille","lat":43.2829,"lon":5.35062,"is_reserved":false,"is_disabled":false,"rental_uris":{"android":"levelo://app?vid=a4259810-e5ab-4b2f-a4f3-ae6092a1e530","ios":"levelo://app?vid=a4259810-e5ab-4b2f-a4f3-ae6092a1e530"},"vehicle_type_id":"4","last_reported":1753438361,"current_range_meters":15200,"station_id":"ce4bhbp2rcd13ifvqerg","pricing_plan_id":"cebpf4jnsgd1na2vs0mg"},{"bike_id":"71b44c32-1ec1-479f-8f9e-a464e1647579","system_id":"levelo_inurba_marseille","lat":43.232875,"lon":5.361155,"is_reserved":false,"is_disabled":false,"rental_uris":{"android":"levelo://app?vid=71b44c32-1ec1-479f-8f9e-a464e1647579","ios":"levelo://app?vid=71b44c32-1ec1-479f-8f9e-a464e1647579"},"vehicle_type_id":"4","last_reported":1753438361,"current_range_meters":15200,"station_id":"","pricing_plan_id":"cebpf4jnsgd1na2vs0mg"},{"bike_id":"d2c1d56d-6a3a-4ae3-b7ab-84022ad7ad84","system_id":"levelo_inurba_marseille","lat":43.29741,"lon":5.37632,"is_reserved":false,"is_disabled":false,"rental_uris":{"android":"levelo://app?vid=d2c1d56d-6a3a-4ae3-b7ab-84022ad7ad84","ios":"levelo://app?vid=d2c1d56d-6a3a-4ae3-b7ab-84022ad7ad84"},"vehicle_type_id":"4","last_reported":1753438361,"current_range_meters":15200,"station_id":"","pricing_plan_id":"cebpf4jnsgd1na2vs0mg"},{"bike_id":"d8a9de9c-ab66-4134-9e79-403b0a191491","system_id":"levelo_inurba_marseille","lat":43.29014,"lon":5.38135,"is_reserved":false,"is_disabled":false,"rental_uris":{"android":"levelo://app?vid=d8a9de9c-ab66-4134-9e79-403b0a191491","ios":"levelo://app?vid=d8a9de9c-ab66-4134-9e79-403b0a191491"},"vehicle_type_id":"4","last_reported":1753438361,"current_range_meters":15200,"station_id":"ce4bh4p2rcd13ifvqe1g","pricing_plan_id":"cebpf4jnsgd1na2vs0mg"},{"bike_id":"7e6c46f6-e995-4895-8b41-8b7a0a47d4fd","system_id":"levelo_inurba_marseille","lat":43.30537,"lon":5.36711,"is_reserved":false,"is_disabled":false,"rental_uris":{"android":"levelo://app?vid=7e6c46f6-e995-4895-8b41-8b7a0a47d4fd","ios":"levelo://app?vid=7e6c46f6-e995-4895-8b41-8b7a0a47d4fd"},"vehicle_type_id":"4","last_reported":1753438361,"current_range_meters":15200,"station_id":"ce4bgrp2rcd13ifvqc9g","pricing_plan_id":"cebpf4jnsgd1na2vs0mg"},{"bike_id":"6ffe1fc6-b2db-4c82-b6cf-729570bd0fe8","system_id":"levelo_inurba_marseille","lat":43.336043,"lon":5.410302,"is_reserved":false,"is_disabled":false,"rental_uris":{"android":"levelo://app?vid=6ffe1fc6-b2db-4c82-b6cf-729570bd0fe8","ios":"levelo://app?vid=6ffe1fc6-b2db-4c82-b6cf-729570bd0fe8"},"vehicle_type_id":"4","last_reported":1753438361,"current_range_meters":16000,"station_id":"ce4bhqh2rcd13ifvqhmg","pricing_plan_id":"cebpf4jnsgd1na2vs0mg"},{"bike_id":"f40436ff-581d-45b0-9a34-6230bbde6d66","system_id":"levelo_inurba_marseille","lat":43.26223,"lon":5.37418,"is_reserved":false,"is_disabled":false,"rental_uris":{"android":"levelo://app?vid=f40436ff-581d-45b0-9a34-6230bbde6d66","ios":"levelo://app?vid=f40436ff-581d-45b0-9a34-6230bbde6d66"},"vehicle_type_id":"4","last_reported":1753438361,"current_range_meters":16400,"station_id":"ce4bhgp2rcd13ifvqfc0","pricing_plan_id":"cebpf4jnsgd1na2vs0mg"},{"bike_id":"fd13a871-6a7c-45ab-8193-0aedb29a36fc","system_id":"levelo_inurba_marseille","lat":43.26554,"lon":5.37314,"is_reserved":false,"is_disabled":false,"rental_uris":{"android":"levelo://app?vid=fd13a871-6a7c-45ab-8193-0aedb29a36fc","ios":"levelo://app?vid=fd13a871-6a7c-45ab-8193-0aedb29a36fc"},"vehicle_type_id":"4","last_reported":1753438361,"current_range_meters":16400,"station_id":"ce4bhg12rcd13ifvqf70","pricing_plan_id":"cebpf4jnsgd1na2vs0mg"},{"bike_id":"f4e4619c-7d67-481c-847f-222660050473","system_id":"levelo_inurba_marseille","lat":43.27821,"lon":5.40706,"is_reserved":false,"is_disabled":false,"rental_uris":{"android":"levelo://app?vid=f4e4619c-7d67-481c-847f-222660050473","ios":"levelo://app?vid=f4e4619c-7d67-481c-847f-222660050473"},"vehicle_type_id":"4","last_reported":1753438361,"current_range_meters":16400,"station_id":"ce4bhnh2rcd13ifvqgtg","pricing_plan_id":"cebpf4jnsgd1na2vs0mg"},{"bike_id":"2c819f11-c38c-4c43-bd6c-a8ac314dd8cc","system_id":"levelo_inurba_marseille","lat":43.28422,"lon":5.37517,"is_reserved":false,"is_disabled":false,"rental_uris":{"android":"levelo://app?vid=2c819f11-c38c-4c43-bd6c-a8ac314dd8cc","ios":"levelo://app?vid=2c819f11-c38c-4c43-bd6c-a8ac314dd8cc"},"vehicle_type_id":"4","last_reported":1753438361,"current_range_meters":16400,"station_id":"ce4bh412rcd13ifvqds0","pricing_plan_id":"cebpf4jnsgd1na2vs0mg"},{"bike_id":"ddbd1820-4b6e-40f0-9c87-e7396fcd379d","system_id":"levelo_inurba_marseille","lat":43.32663,"lon":5.4099,"is_reserved":false,"is_disabled":false,"rental_uris":{"android":"levelo://app?vid=ddbd1820-4b6e-40f0-9c87-e7396fcd379d","ios":"levelo://app?vid=ddbd1820-4b6e-40f0-9c87-e7396fcd379d"},"vehicle_type_id":"4","last_reported":1753438361,"current_range_meters":16400,"station_id":"ce4bhpp2rcd13ifvqhgg","pricing_plan_id":"cebpf4jnsgd1na2vs0mg"},{"bike_id":"d169f59a-573b-41a1-aa8a-afcc4bfc30b5","system_id":"levelo_inurba_marseille","lat":43.279972,"lon":5.400056,"is_reserved":false,"is_disabled":false,"rental_uris":{"android":"levelo://app?vid=d169f59a-573b-41a1-aa8a-afcc4bfc30b5","ios":"levelo://app?vid=d169f59a-573b-41a1-aa8a-afcc4bfc30b5"},"vehicle_type_id":"4","last_reported":1753438361,"current_range_meters":16400,"station_id":"ce4bho92rcd13ifvqh4g","pricing_plan_id":"cebpf4jnsgd1na2vs0mg"},{"bike_id":"64c68d0a-b9b0-424b-b207-854aebfe3561","system_id":"levelo_inurba_marseille","lat":43.32439,"lon":5.36616,"is_reserved":false,"is_disabled":false,"rental_uris":{"android":"levelo://app?vid=64c68d0a-b9b0-424b-b207-854aebfe3561","ios":"levelo://app?vid=64c68d0a-b9b0-424b-b207-854aebfe3561"},"vehicle_type_id":"4","last_reported":1753438361,"current_range_meters":16400,"station_id":"","pricing_plan_id":"cebpf4jnsgd1na2vs0mg"},{"bike_id":"351922fc-d47d-47a1-993e-f2d3115d1a09","system_id":"levelo_inurba_marseille","lat":43.29431,"lon":5.39734,"is_reserved":false,"is_disabled":false,"rental_uris":{"android":"levelo://app?vid=351922fc-d47d-47a1-993e-f2d3115d1a09","ios":"levelo://app?vid=351922fc-d47d-47a1-993e-f2d3115d1a09"},"vehicle_type_id":"4","last_reported":1753438361,"current_range_meters":16000,"station_id":"ce4bh3h2rcd13ifvqdo0","pricing_plan_id":"cebpf4jnsgd1na2vs0mg"},{"bike_id":"a7c0e30a-3006-43ba-afe7-834203ba0328","system_id":"levelo_inurba_marseille","lat":43.24167,"lon":5.36417,"is_reserved":false,"is_disabled":false,"rental_uris":{"android":"levelo://app?vid=a7c0e30a-3006-43ba-afe7-834203ba0328","ios":"levelo://app?vid=a7c0e30a-3006-43ba-afe7-834203ba0328"},"vehicle_type_id":"4","last_reported":1753438361,"current_range_meters":16800,"station_id":"cpo36qri1sfpv3e86is0","pricing_plan_id":"cebpf4jnsgd1na2vs0mg"},{"bike_id":"bdf8bcb9-51f6-4a65-8181-f600f5b30780","system_id":"levelo_inurba_marseille","lat":43.27473,"lon":5.396,"is_reserved":false,"is_disabled":false,"rental_uris":{"android":"levelo://app?vid=bdf8bcb9-51f6-4a65-8181-f600f5b30780","ios":"levelo://app?vid=bdf8bcb9-51f6-4a65-8181-f600f5b30780"},"vehicle_type_id":"4","last_reported":1753438361,"current_range_meters":16800,"station_id":"","pricing_plan_id":"cebpf4jnsgd1na2vs0mg"},{"bike_id":"aa3a6420-eb4d-4632-8b68-f541c086db55","system_id":"levelo_inurba_marseille","lat":43.225009,"lon":5.347774,"is_reserved":false,"is_disabled":false,"rental_uris":{"android":"levelo://app?vid=aa3a6420-eb4d-4632-8b68-f541c086db55","ios":"levelo://app?vid=aa3a6420-eb4d-4632-8b68-f541c086db55"},"vehicle_type_id":"4","last_reported":1753438361,"current_range_meters":16800,"station_id":"","pricing_plan_id":"cebpf4jnsgd1na2vs0mg"},{"bike_id":"cf5577ea-8085-442d-b092-8cf7a9d9102b","system_id":"levelo_inurba_marseille","lat":43.32349,"lon":5.36751,"is_reserved":false,"is_disabled":false,"rental_uris":{"android":"levelo://app?vid=cf5577ea-8085-442d-b092-8cf7a9d9102b","ios":"levelo://app?vid=cf5577ea-8085-442d-b092-8cf7a9d9102b"},"vehicle_type_id":"4","last_reported":1753438361,"current_range_meters":16800,"station_id":"ce4bhsh2rcd13ifvqi2g","pricing_plan_id":"cebpf4jnsgd1na2vs0mg"},{"bike_id":"50b905ef-953a-4765-9f9b-7165906869d7","system_id":"levelo_inurba_marseille","lat":43.230524,"lon":5.354948,"is_reserved":false,"is_disabled":false,"rental_uris":{"android":"levelo://app?vid=50b905ef-953a-4765-9f9b-7165906869d7","ios":"levelo://app?vid=50b905ef-953a-4765-9f9b-7165906869d7"},"vehicle_type_id":"4","last_reported":1753438361,"current_range_meters":16800,"station_id":"cpo3342slgdg3j2ifvpg","pricing_plan_id":"cebpf4jnsgd1na2vs0mg"},{"bike_id":"f501e071-4716-432d-bf77-298092cf3c7e","system_id":"levelo_inurba_marseille","lat":43.30074,"lon":5.38719,"is_reserved":false,"is_disabled":false,"rental_uris":{"android":"levelo://app?vid=f501e071-4716-432d-bf77-298092cf3c7e","ios":"levelo://app?vid=f501e071-4716-432d-bf77-298092cf3c7e"},"vehicle_type_id":"4","last_reported":1753438361,"current_range_meters":16800,"station_id":"","pricing_plan_id":"cebpf4jnsgd1na2vs0mg"},{"bike_id":"605b2aca-e75d-41fd-8f25-354b8d3a734c","system_id":"levelo_inurba_marseille","lat":43.29021,"lon":5.40003,"is_reserved":false,"is_disabled":false,"rental_uris":{"android":"levelo://app?vid=605b2aca-e75d-41fd-8f25-354b8d3a734c","ios":"levelo://app?vid=605b2aca-e75d-41fd-8f25-354b8d3a734c"},"vehicle_type_id":"4","last_reported":1753438361,"current_range_meters":16800,"station_id":"ce4bh392rcd13ifvqdm0","pricing_plan_id":"cebpf4jnsgd1na2vs0mg"},{"bike_id":"d3eea4a0-76ba-4059-ba6b-c1ecd6270925","system_id":"levelo_inurba_marseille","lat":43.21742,"lon":5.345965,"is_reserved":false,"is_disabled":false,"rental_uris":{"android":"levelo://app?vid=d3eea4a0-76ba-4059-ba6b-c1ecd6270925","ios":"levelo://app?vid=d3eea4a0-76ba-4059-ba6b-c1ecd6270925"},"vehicle_type_id":"4","last_reported":1753438361,"current_range_meters":17200,"station_id":"st_cvj6r9ubvosntc0bgbag","pricing_plan_id":"cebpf4jnsgd1na2vs0mg"},{"bike_id":"fc67e00b-8f67-4907-900b-c35bdab7997e","system_id":"levelo_inurba_marseille","lat":43.28272,"lon":5.35075,"is_reserved":false,"is_disabled":false,"rental_uris":{"android":"levelo://app?vid=fc67e00b-8f67-4907-900b-c35bdab7997e","ios":"levelo://app?vid=fc67e00b-8f67-4907-900b-c35bdab7997e"},"vehicle_type_id":"4","last_reported":1753438361,"current_range_meters":17200,"station_id":"ce4bhbp2rcd13ifvqerg","pricing_plan_id":"cebpf4jnsgd1na2vs0mg"},{"bike_id":"fb334f39-9a8c-4150-984b-ed7387a19c7c","system_id":"levelo_inurba_marseille","lat":43.33762,"lon":5.37431,"is_reserved":false,"is_disabled":false,"rental_uris":{"android":"levelo://app?vid=fb334f39-9a8c-4150-984b-ed7387a19c7c","ios":"levelo://app?vid=fb334f39-9a8c-4150-984b-ed7387a19c7c"},"vehicle_type_id":"4","last_reported":1753438361,"current_range_meters":17200,"station_id":"","pricing_plan_id":"cebpf4jnsgd1na2vs0mg"},{"bike_id":"266198a5-1fdd-4903-a22e-685ee660fe16","system_id":"levelo_inurba_marseille","lat":43.22524,"lon":5.34813,"is_reserved":false,"is_disabled":false,"rental_uris":{"android":"levelo://app?vid=266198a5-1fdd-4903-a22e-685ee660fe16","ios":"levelo://app?vid=266198a5-1fdd-4903-a22e-685ee660fe16"},"vehicle_type_id":"4","last_reported":1753438361,"current_range_meters":17200,"station_id":"st_cvj5dfep6f1abm77gieg","pricing_plan_id":"cebpf4jnsgd1na2vs0mg"},{"bike_id":"a1ec26cb-9d4a-4dd4-ad23-fecbc49f2a3d","system_id":"levelo_inurba_marseille","lat":43.25467,"lon":5.37687,"is_reserved":false,"is_disabled":false,"rental_uris":{"android":"levelo://app?vid=a1ec26cb-9d4a-4dd4-ad23-fecbc49f2a3d","ios":"levelo://app?vid=a1ec26cb-9d4a-4dd4-ad23-fecbc49f2a3d"},"vehicle_type_id":"4","last_reported":1753438361,"current_range_meters":17200,"station_id":"","pricing_plan_id":"cebpf4jnsgd1na2vs0mg"},{"bike_id":"9bb03dc8-1285-4dc3-82e4-cbcb16687686","system_id":"levelo_inurba_marseille","lat":43.22931,"lon":5.35392,"is_reserved":false,"is_disabled":false,"rental_uris":{"android":"levelo://app?vid=9bb03dc8-1285-4dc3-82e4-cbcb16687686","ios":"levelo://app?vid=9bb03dc8-1285-4dc3-82e4-cbcb16687686"},"vehicle_type_id":"4","last_reported":1753438361,"current_range_meters":17200,"station_id":"cpo3532slgdg3j2ikp40","pricing_plan_id":"cebpf4jnsgd1na2vs0mg"},{"bike_id":"7604c613-ad6b-491b-a07a-848aca638f0e","system_id":"levelo_inurba_marseille","lat":43.26215,"lon":5.3744,"is_reserved":false,"is_disabled":false,"rental_uris":{"android":"levelo://app?vid=7604c613-ad6b-491b-a07a-848aca638f0e","ios":"levelo://app?vid=7604c613-ad6b-491b-a07a-848aca638f0e"},"vehicle_type_id":"4","last_reported":1753438361,"current_range_meters":17200,"station_id":"ce4bhgp2rcd13ifvqfc0","pricing_plan_id":"cebpf4jnsgd1na2vs0mg"},{"bike_id":"3c39485b-1acb-4b40-ad35-239b1bb6bd08","system_id":"levelo_inurba_marseille","lat":43.28429,"lon":5.39223,"is_reserved":false,"is_disabled":false,"rental_uris":{"android":"levelo://app?vid=3c39485b-1acb-4b40-ad35-239b1bb6bd08","ios":"levelo://app?vid=3c39485b-1acb-4b40-ad35-239b1bb6bd08"},"vehicle_type_id":"4","last_reported":1753438361,"current_range_meters":17200,"station_id":"ce4bhoh2rcd13ifvqh5g","pricing_plan_id":"cebpf4jnsgd1na2vs0mg"},{"bike_id":"635d529b-81db-4d95-967c-681543329cb0","system_id":"levelo_inurba_marseille","lat":43.29907,"lon":5.43669,"is_reserved":false,"is_disabled":false,"rental_uris":{"android":"levelo://app?vid=635d529b-81db-4d95-967c-681543329cb0","ios":"levelo://app?vid=635d529b-81db-4d95-967c-681543329cb0"},"vehicle_type_id":"4","last_reported":1753438361,"current_range_meters":17200,"station_id":"ce4bhpp2rcd13ifvqhfg","pricing_plan_id":"cebpf4jnsgd1na2vs0mg"},{"bike_id":"d76399ae-47f0-40b6-b8a4-6675c7b8e6a0","system_id":"levelo_inurba_marseille","lat":43.239644,"lon":5.366296,"is_reserved":false,"is_disabled":false,"rental_uris":{"android":"levelo://app?vid=d76399ae-47f0-40b6-b8a4-6675c7b8e6a0","ios":"levelo://app?vid=d76399ae-47f0-40b6-b8a4-6675c7b8e6a0"},"vehicle_type_id":"4","last_reported":1753438361,"current_range_meters":17200,"station_id":"ce4bhi12rcd13ifvqfp0","pricing_plan_id":"cebpf4jnsgd1na2vs0mg"},{"bike_id":"7a728a3e-ae5a-416b-ab98-c609bdc15d67","system_id":"levelo_inurba_marseille","lat":43.262054,"lon":5.374491,"is_reserved":false,"is_disabled":false,"rental_uris":{"android":"levelo://app?vid=7a728a3e-ae5a-416b-ab98-c609bdc15d67","ios":"levelo://app?vid=7a728a3e-ae5a-416b-ab98-c609bdc15d67"},"vehicle_type_id":"4","last_reported":1753438361,"current_range_meters":17200,"station_id":"","pricing_plan_id":"cebpf4jnsgd1na2vs0mg"},{"bike_id":"9b48df8b-ea7e-459f-8e01-2d190c8cfb82","system_id":"levelo_inurba_marseille","lat":43.26216,"lon":5.37445,"is_reserved":false,"is_disabled":false,"rental_uris":{"android":"levelo://app?vid=9b48df8b-ea7e-459f-8e01-2d190c8cfb82","ios":"levelo://app?vid=9b48df8b-ea7e-459f-8e01-2d190c8cfb82"},"vehicle_type_id":"4","last_reported":1753438361,"current_range_meters":17600,"station_id":"ce4bhgp2rcd13ifvqfc0","pricing_plan_id":"cebpf4jnsgd1na2vs0mg"},{"bike_id":"c8e02a19-b856-420d-bf9d-a6e6b78bd182","system_id":"levelo_inurba_marseille","lat":43.265567,"lon":5.372965,"is_reserved":false,"is_disabled":false,"rental_uris":{"android":"levelo://app?vid=c8e02a19-b856-420d-bf9d-a6e6b78bd182","ios":"levelo://app?vid=c8e02a19-b856-420d-bf9d-a6e6b78bd182"},"vehicle_type_id":"4","last_reported":1753438361,"current_range_meters":17600,"station_id":"ce4bhg12rcd13ifvqf70","pricing_plan_id":"cebpf4jnsgd1na2vs0mg"},{"bike_id":"cf75fdd5-eea5-45ba-a75c-2d3f5e3ecf00","system_id":"levelo_inurba_marseille","lat":43.229344,"lon":5.353788,"is_reserved":false,"is_disabled":false,"rental_uris":{"android":"levelo://app?vid=cf75fdd5-eea5-45ba-a75c-2d3f5e3ecf00","ios":"levelo://app?vid=cf75fdd5-eea5-45ba-a75c-2d3f5e3ecf00"},"vehicle_type_id":"4","last_reported":1753438361,"current_range_meters":17600,"station_id":"cpo3532slgdg3j2ikp40","pricing_plan_id":"cebpf4jnsgd1na2vs0mg"},{"bike_id":"0a7e2862-d8ec-4c77-89d9-cfcdd51f8d75","system_id":"levelo_inurba_marseille","lat":43.31872,"lon":5.37373,"is_reserved":false,"is_disabled":false,"rental_uris":{"android":"levelo://app?vid=0a7e2862-d8ec-4c77-89d9-cfcdd51f8d75","ios":"levelo://app?vid=0a7e2862-d8ec-4c77-89d9-cfcdd51f8d75"},"vehicle_type_id":"4","last_reported":1753438361,"current_range_meters":17600,"station_id":"","pricing_plan_id":"cebpf4jnsgd1na2vs0mg"},{"bike_id":"7e59e9ce-3c88-43d0-8858-555d810c6712","system_id":"levelo_inurba_marseille","lat":43.30558,"lon":5.36722,"is_reserved":false,"is_disabled":false,"rental_uris":{"android":"levelo://app?vid=7e59e9ce-3c88-43d0-8858-555d810c6712","ios":"levelo://app?vid=7e59e9ce-3c88-43d0-8858-555d810c6712"},"vehicle_type_id":"4","last_reported":1753438361,"current_range_meters":18000,"station_id":"ce4bgrp2rcd13ifvqc9g","pricing_plan_id":"cebpf4jnsgd1na2vs0mg"},{"bike_id":"822af0af-e7e4-4b34-8e90-24a184d8d1ac","system_id":"levelo_inurba_marseille","lat":43.21745,"lon":5.34604,"is_reserved":false,"is_disabled":false,"rental_uris":{"android":"levelo://app?vid=822af0af-e7e4-4b34-8e90-24a184d8d1ac","ios":"levelo://app?vid=822af0af-e7e4-4b34-8e90-24a184d8d1ac"},"vehicle_type_id":"4","last_reported":1753438361,"current_range_meters":18000,"station_id":"","pricing_plan_id":"cebpf4jnsgd1na2vs0mg"},{"bike_id":"fcea11e1-dd1f-4534-977e-d239c4d39f72","system_id":"levelo_inurba_marseille","lat":43.27374,"lon":5.36255,"is_reserved":false,"is_disabled":false,"rental_uris":{"android":"levelo://app?vid=fcea11e1-dd1f-4534-977e-d239c4d39f72","ios":"levelo://app?vid=fcea11e1-dd1f-4534-977e-d239c4d39f72"},"vehicle_type_id":"4","last_reported":1753438361,"current_range_meters":18000,"station_id":"ce4bhbh2rcd13ifvqeo0","pricing_plan_id":"cebpf4jnsgd1na2vs0mg"},{"bike_id":"6f9c5fc7-0a95-4593-b71f-0b9d9a8caaf5","system_id":"levelo_inurba_marseille","lat":43.22495,"lon":5.34802,"is_reserved":false,"is_disabled":false,"rental_uris":{"android":"levelo://app?vid=6f9c5fc7-0a95-4593-b71f-0b9d9a8caaf5","ios":"levelo://app?vid=6f9c5fc7-0a95-4593-b71f-0b9d9a8caaf5"},"vehicle_type_id":"4","last_reported":1753438361,"current_range_meters":18000,"station_id":"st_cvj5dfep6f1abm77gieg","pricing_plan_id":"cebpf4jnsgd1na2vs0mg"},{"bike_id":"425fe799-b8aa-4bc2-84d0-38078e4882ef","system_id":"levelo_inurba_marseille","lat":43.22505,"lon":5.34782,"is_reserved":false,"is_disabled":false,"rental_uris":{"android":"levelo://app?vid=425fe799-b8aa-4bc2-84d0-38078e4882ef","ios":"levelo://app?vid=425fe799-b8aa-4bc2-84d0-38078e4882ef"},"vehicle_type_id":"4","last_reported":1753438361,"current_range_meters":18000,"station_id":"st_cvj5dfep6f1abm77gieg","pricing_plan_id":"cebpf4jnsgd1na2vs0mg"},{"bike_id":"1dead8dc-fdb6-4c34-b5a6-09bf895e76a6","system_id":"levelo_inurba_marseille","lat":43.229398,"lon":5.353721,"is_reserved":false,"is_disabled":false,"rental_uris":{"android":"levelo://app?vid=1dead8dc-fdb6-4c34-b5a6-09bf895e76a6","ios":"levelo://app?vid=1dead8dc-fdb6-4c34-b5a6-09bf895e76a6"},"vehicle_type_id":"4","last_reported":1753438361,"current_range_meters":18000,"station_id":"cpo3532slgdg3j2ikp40","pricing_plan_id":"cebpf4jnsgd1na2vs0mg"},{"bike_id":"4415955a-bebf-461a-93bc-0195395d6561","system_id":"levelo_inurba_marseille","lat":43.305353,"lon":5.365541,"is_reserved":false,"is_disabled":false,"rental_uris":{"android":"levelo://app?vid=4415955a-bebf-461a-93bc-0195395d6561","ios":"levelo://app?vid=4415955a-bebf-461a-93bc-0195395d6561"},"vehicle_type_id":"4","last_reported":1753438361,"current_range_meters":18000,"station_id":"ce4bgs12rcd13ifvqcag","pricing_plan_id":"cebpf4jnsgd1na2vs0mg"},{"bike_id":"16c459f7-5bf6-4993-904b-93e34528b006","system_id":"levelo_inurba_marseille","lat":43.26954,"lon":5.38624,"is_reserved":false,"is_disabled":false,"rental_uris":{"android":"levelo://app?vid=16c459f7-5bf6-4993-904b-93e34528b006","ios":"levelo://app?vid=16c459f7-5bf6-4993-904b-93e34528b006"},"vehicle_type_id":"4","last_reported":1753438361,"current_range_meters":17600,"station_id":"ce4bhh92rcd13ifvqfh0","pricing_plan_id":"cebpf4jnsgd1na2vs0mg"},{"bike_id":"918062da-54dd-4d69-939b-4a965f6fa7f2","system_id":"levelo_inurba_marseille","lat":43.292789,"lon":5.36837,"is_reserved":false,"is_disabled":false,"rental_uris":{"android":"levelo://app?vid=918062da-54dd-4d69-939b-4a965f6fa7f2","ios":"levelo://app?vid=918062da-54dd-4d69-939b-4a965f6fa7f2"},"vehicle_type_id":"4","last_reported":1753438361,"current_range_meters":18000,"station_id":"","pricing_plan_id":"cebpf4jnsgd1na2vs0mg"},{"bike_id":"cb88f793-1f55-4bea-882c-59b0c933e84d","system_id":"levelo_inurba_marseille","lat":43.29531,"lon":5.39407,"is_reserved":false,"is_disabled":false,"rental_uris":{"android":"levelo://app?vid=cb88f793-1f55-4bea-882c-59b0c933e84d","ios":"levelo://app?vid=cb88f793-1f55-4bea-882c-59b0c933e84d"},"vehicle_type_id":"4","last_reported":1753438361,"current_range_meters":18800,"station_id":"ce4bh292rcd13ifvqdf0","pricing_plan_id":"cebpf4jnsgd1na2vs0mg"},{"bike_id":"00e7ba2a-2ff9-40ca-8f90-b333d0881451","system_id":"levelo_inurba_marseille","lat":43.28616,"lon":5.37062,"is_reserved":false,"is_disabled":false,"rental_uris":{"android":"levelo://app?vid=00e7ba2a-2ff9-40ca-8f90-b333d0881451","ios":"levelo://app?vid=00e7ba2a-2ff9-40ca-8f90-b333d0881451"},"vehicle_type_id":"4","last_reported":1753438361,"current_range_meters":18800,"station_id":"ce4bht12rcd13ifvqi60","pricing_plan_id":"cebpf4jnsgd1na2vs0mg"},{"bike_id":"63196e63-eea9-455a-b947-ee2a8b901e38","system_id":"levelo_inurba_marseille","lat":43.3375,"lon":5.37456,"is_reserved":false,"is_disabled":false,"rental_uris":{"android":"levelo://app?vid=63196e63-eea9-455a-b947-ee2a8b901e38","ios":"levelo://app?vid=63196e63-eea9-455a-b947-ee2a8b901e38"},"vehicle_type_id":"4","last_reported":1753438361,"current_range_meters":18800,"station_id":"","pricing_plan_id":"cebpf4jnsgd1na2vs0mg"},{"bike_id":"cbd29efb-dda7-4d15-b2c1-7a636d44d6f9","system_id":"levelo_inurba_marseille","lat":43.30141,"lon":5.38092,"is_reserved":false,"is_disabled":false,"rental_uris":{"android":"levelo://app?vid=cbd29efb-dda7-4d15-b2c1-7a636d44d6f9","ios":"levelo://app?vid=cbd29efb-dda7-4d15-b2c1-7a636d44d6f9"},"vehicle_type_id":"4","last_reported":1753438361,"current_range_meters":18800,"station_id":"ce4bgjp2rcd13ifvqbh0","pricing_plan_id":"cebpf4jnsgd1na2vs0mg"},{"bike_id":"061d0452-3f53-47dd-a473-21d7903b0ed0","system_id":"levelo_inurba_marseille","lat":43.21739,"lon":5.34619,"is_reserved":false,"is_disabled":false,"rental_uris":{"android":"levelo://app?vid=061d0452-3f53-47dd-a473-21d7903b0ed0","ios":"levelo://app?vid=061d0452-3f53-47dd-a473-21d7903b0ed0"},"vehicle_type_id":"4","last_reported":1753438361,"current_range_meters":18800,"station_id":"","pricing_plan_id":"cebpf4jnsgd1na2vs0mg"},{"bike_id":"f5449828-dfeb-44a0-8352-abea387f03de","system_id":"levelo_inurba_marseille","lat":43.28154,"lon":5.42649,"is_reserved":false,"is_disabled":false,"rental_uris":{"android":"levelo://app?vid=f5449828-dfeb-44a0-8352-abea387f03de","ios":"levelo://app?vid=f5449828-dfeb-44a0-8352-abea387f03de"},"vehicle_type_id":"4","last_reported":1753438361,"current_range_meters":18800,"station_id":"ce4bhnh2rcd13ifvqgug","pricing_plan_id":"cebpf4jnsgd1na2vs0mg"},{"bike_id":"7964b0da-5cca-4760-b8c6-49973f2f1ce5","system_id":"levelo_inurba_marseille","lat":43.249965,"lon":5.38934,"is_reserved":false,"is_disabled":false,"rental_uris":{"android":"levelo://app?vid=7964b0da-5cca-4760-b8c6-49973f2f1ce5","ios":"levelo://app?vid=7964b0da-5cca-4760-b8c6-49973f2f1ce5"},"vehicle_type_id":"4","last_reported":1753438361,"current_range_meters":18800,"station_id":"ce4bhgp2rcd13ifvqfd0","pricing_plan_id":"cebpf4jnsgd1na2vs0mg"},{"bike_id":"429cf72a-e878-4d09-b5d9-5141ef69da9c","system_id":"levelo_inurba_marseille","lat":43.23195,"lon":5.35554,"is_reserved":false,"is_disabled":false,"rental_uris":{"android":"levelo://app?vid=429cf72a-e878-4d09-b5d9-5141ef69da9c","ios":"levelo://app?vid=429cf72a-e878-4d09-b5d9-5141ef69da9c"},"vehicle_type_id":"4","last_reported":1753438361,"current_range_meters":18800,"station_id":"ce4bhu92rcd13ifvqi70","pricing_plan_id":"cebpf4jnsgd1na2vs0mg"},{"bike_id":"23bfa5d8-b002-4db1-9ce1-f6436a20703e","system_id":"levelo_inurba_marseille","lat":43.292784,"lon":5.368482,"is_reserved":false,"is_disabled":false,"rental_uris":{"android":"levelo://app?vid=23bfa5d8-b002-4db1-9ce1-f6436a20703e","ios":"levelo://app?vid=23bfa5d8-b002-4db1-9ce1-f6436a20703e"},"vehicle_type_id":"4","last_reported":1753438361,"current_range_meters":18800,"station_id":"ce4bhbp2rcd13ifvqesg","pricing_plan_id":"cebpf4jnsgd1na2vs0mg"},{"bike_id":"82f1c0b8-bb78-41f7-9523-69119cd9a558","system_id":"levelo_inurba_marseille","lat":43.24175,"lon":5.36402,"is_reserved":false,"is_disabled":false,"rental_uris":{"android":"levelo://app?vid=82f1c0b8-bb78-41f7-9523-69119cd9a558","ios":"levelo://app?vid=82f1c0b8-bb78-41f7-9523-69119cd9a558"},"vehicle_type_id":"4","last_reported":1753438361,"current_range_meters":18800,"station_id":"cpo36qri1sfpv3e86is0","pricing_plan_id":"cebpf4jnsgd1na2vs0mg"},{"bike_id":"e960d729-c1cc-459a-ae99-59e3377514e5","system_id":"levelo_inurba_marseille","lat":43.23963,"lon":5.36634,"is_reserved":false,"is_disabled":false,"rental_uris":{"android":"levelo://app?vid=e960d729-c1cc-459a-ae99-59e3377514e5","ios":"levelo://app?vid=e960d729-c1cc-459a-ae99-59e3377514e5"},"vehicle_type_id":"4","last_reported":1753438361,"current_range_meters":19200,"station_id":"ce4bhi12rcd13ifvqfp0","pricing_plan_id":"cebpf4jnsgd1na2vs0mg"},{"bike_id":"569b4b68-3a0c-426d-aaf2-7efe70bf8b93","system_id":"levelo_inurba_marseille","lat":43.29856,"lon":5.36285,"is_reserved":false,"is_disabled":false,"rental_uris":{"android":"levelo://app?vid=569b4b68-3a0c-426d-aaf2-7efe70bf8b93","ios":"levelo://app?vid=569b4b68-3a0c-426d-aaf2-7efe70bf8b93"},"vehicle_type_id":"4","last_reported":1753438361,"current_range_meters":19200,"station_id":"ce4bgpp2rcd13ifvqc3g","pricing_plan_id":"cebpf4jnsgd1na2vs0mg"},{"bike_id":"2b56932b-bf7f-49d4-8b73-a3c5512b95aa","system_id":"levelo_inurba_marseille","lat":43.22936,"lon":5.35394,"is_reserved":false,"is_disabled":false,"rental_uris":{"android":"levelo://app?vid=2b56932b-bf7f-49d4-8b73-a3c5512b95aa","ios":"levelo://app?vid=2b56932b-bf7f-49d4-8b73-a3c5512b95aa"},"vehicle_type_id":"4","last_reported":1753438361,"current_range_meters":19200,"station_id":"cpo3532slgdg3j2ikp40","pricing_plan_id":"cebpf4jnsgd1na2vs0mg"},{"bike_id":"44e3a050-3e51-4b58-91a1-cee4aa24b8b6","system_id":"levelo_inurba_marseille","lat":43.29582,"lon":5.37526,"is_reserved":false,"is_disabled":false,"rental_uris":{"android":"levelo://app?vid=44e3a050-3e51-4b58-91a1-cee4aa24b8b6","ios":"levelo://app?vid=44e3a050-3e51-4b58-91a1-cee4aa24b8b6"},"vehicle_type_id":"4","last_reported":1753438361,"current_range_meters":19200,"station_id":"ce4bgh92rcd13ifvqb50","pricing_plan_id":"cebpf4jnsgd1na2vs0mg"},{"bike_id":"d224e660-ee59-4eb2-ac4f-58e9e006b117","system_id":"levelo_inurba_marseille","lat":43.26549,"lon":5.37304,"is_reserved":false,"is_disabled":false,"rental_uris":{"android":"levelo://app?vid=d224e660-ee59-4eb2-ac4f-58e9e006b117","ios":"levelo://app?vid=d224e660-ee59-4eb2-ac4f-58e9e006b117"},"vehicle_type_id":"4","last_reported":1753438361,"current_range_meters":19200,"station_id":"ce4bhg12rcd13ifvqf70","pricing_plan_id":"cebpf4jnsgd1na2vs0mg"},{"bike_id":"5a25e342-b586-4cf6-881f-06124d774753","system_id":"levelo_inurba_marseille","lat":43.32467,"lon":5.36597,"is_reserved":false,"is_disabled":false,"rental_uris":{"android":"levelo://app?vid=5a25e342-b586-4cf6-881f-06124d774753","ios":"levelo://app?vid=5a25e342-b586-4cf6-881f-06124d774753"},"vehicle_type_id":"4","last_reported":1753438361,"current_range_meters":19200,"station_id":"ce4bhs12rcd13ifvqhvg","pricing_plan_id":"cebpf4jnsgd1na2vs0mg"},{"bike_id":"738802f3-16ac-4de5-8486-b12fcdcb1206","system_id":"levelo_inurba_marseille","lat":43.28447,"lon":5.39205,"is_reserved":false,"is_disabled":false,"rental_uris":{"android":"levelo://app?vid=738802f3-16ac-4de5-8486-b12fcdcb1206","ios":"levelo://app?vid=738802f3-16ac-4de5-8486-b12fcdcb1206"},"vehicle_type_id":"4","last_reported":1753438361,"current_range_meters":19200,"station_id":"ce4bhoh2rcd13ifvqh5g","pricing_plan_id":"cebpf4jnsgd1na2vs0mg"},{"bike_id":"e16dbe7d-f2c0-4679-9e71-9129db800a8d","system_id":"levelo_inurba_marseille","lat":43.250176,"lon":5.40464,"is_reserved":false,"is_disabled":false,"rental_uris":{"android":"levelo://app?vid=e16dbe7d-f2c0-4679-9e71-9129db800a8d","ios":"levelo://app?vid=e16dbe7d-f2c0-4679-9e71-9129db800a8d"},"vehicle_type_id":"4","last_reported":1753438361,"current_range_meters":19200,"station_id":"","pricing_plan_id":"cebpf4jnsgd1na2vs0mg"},{"bike_id":"764975b0-03a2-4053-92d5-6f31f04e03c0","system_id":"levelo_inurba_marseille","lat":43.31267,"lon":5.36792,"is_reserved":false,"is_disabled":false,"rental_uris":{"android":"levelo://app?vid=764975b0-03a2-4053-92d5-6f31f04e03c0","ios":"levelo://app?vid=764975b0-03a2-4053-92d5-6f31f04e03c0"},"vehicle_type_id":"4","last_reported":1753438361,"current_range_meters":19600,"station_id":"","pricing_plan_id":"cebpf4jnsgd1na2vs0mg"},{"bike_id":"db37ec1c-e4d2-4378-97fb-1e77e0c1352f","system_id":"levelo_inurba_marseille","lat":43.32332,"lon":5.40626,"is_reserved":false,"is_disabled":false,"rental_uris":{"android":"levelo://app?vid=db37ec1c-e4d2-4378-97fb-1e77e0c1352f","ios":"levelo://app?vid=db37ec1c-e4d2-4378-97fb-1e77e0c1352f"},"vehicle_type_id":"4","last_reported":1753438361,"current_range_meters":19600,"station_id":"ce4bhq92rcd13ifvqhjg","pricing_plan_id":"cebpf4jnsgd1na2vs0mg"},{"bike_id":"bd120089-590e-496c-9c90-6d1a02982638","system_id":"levelo_inurba_marseille","lat":43.292236,"lon":5.360521,"is_reserved":false,"is_disabled":true,"rental_uris":{"android":"levelo://app?vid=bd120089-590e-496c-9c90-6d1a02982638","ios":"levelo://app?vid=bd120089-590e-496c-9c90-6d1a02982638"},"vehicle_type_id":"4","last_reported":1753438361,"current_range_meters":19600,"station_id":"ce4bhbh2rcd13ifvqeqg","pricing_plan_id":"cebpf4jnsgd1na2vs0mg"},{"bike_id":"09636254-008c-4755-b342-9d6e4173b419","system_id":"levelo_inurba_marseille","lat":43.28262,"lon":5.35063,"is_reserved":false,"is_disabled":false,"rental_uris":{"android":"levelo://app?vid=09636254-008c-4755-b342-9d6e4173b419","ios":"levelo://app?vid=09636254-008c-4755-b342-9d6e4173b419"},"vehicle_type_id":"4","last_reported":1753438361,"current_range_meters":19600,"station_id":"ce4bhbp2rcd13ifvqerg","pricing_plan_id":"cebpf4jnsgd1na2vs0mg"},{"bike_id":"0e39aa17-6d3e-46fd-85fe-e8bafbf04244","system_id":"levelo_inurba_marseille","lat":43.21175,"lon":5.35093,"is_reserved":false,"is_disabled":false,"rental_uris":{"android":"levelo://app?vid=0e39aa17-6d3e-46fd-85fe-e8bafbf04244","ios":"levelo://app?vid=0e39aa17-6d3e-46fd-85fe-e8bafbf04244"},"vehicle_type_id":"4","last_reported":1753438361,"current_range_meters":19600,"station_id":"st_cvj6sg6p6f1abm77japg","pricing_plan_id":"cebpf4jnsgd1na2vs0mg"},{"bike_id":"7bff126f-f3bc-4b13-916e-5ae78046ad08","system_id":"levelo_inurba_marseille","lat":43.25118,"lon":5.40323,"is_reserved":false,"is_disabled":false,"rental_uris":{"android":"levelo://app?vid=7bff126f-f3bc-4b13-916e-5ae78046ad08","ios":"levelo://app?vid=7bff126f-f3bc-4b13-916e-5ae78046ad08"},"vehicle_type_id":"4","last_reported":1753438361,"current_range_meters":19600,"station_id":"ce4bhlh2rcd13ifvqgig","pricing_plan_id":"cebpf4jnsgd1na2vs0mg"},{"bike_id":"16f882cf-48e3-4904-9b53-00fd65501801","system_id":"levelo_inurba_marseille","lat":43.29895,"lon":5.4367,"is_reserved":false,"is_disabled":false,"rental_uris":{"android":"levelo://app?vid=16f882cf-48e3-4904-9b53-00fd65501801","ios":"levelo://app?vid=16f882cf-48e3-4904-9b53-00fd65501801"},"vehicle_type_id":"4","last_reported":1753438361,"current_range_meters":19600,"station_id":"ce4bhpp2rcd13ifvqhfg","pricing_plan_id":"cebpf4jnsgd1na2vs0mg"},{"bike_id":"61d819e1-77b0-40f4-8046-f147b50f61fb","system_id":"levelo_inurba_marseille","lat":43.30562,"lon":5.36512,"is_reserved":false,"is_disabled":false,"rental_uris":{"android":"levelo://app?vid=61d819e1-77b0-40f4-8046-f147b50f61fb","ios":"levelo://app?vid=61d819e1-77b0-40f4-8046-f147b50f61fb"},"vehicle_type_id":"4","last_reported":1753438361,"current_range_meters":19600,"station_id":"ce4bgs12rcd13ifvqcag","pricing_plan_id":"cebpf4jnsgd1na2vs0mg"},{"bike_id":"c226561b-5084-4c10-9cf7-8800d9429b15","system_id":"levelo_inurba_marseille","lat":43.29583,"lon":5.36742,"is_reserved":false,"is_disabled":false,"rental_uris":{"android":"levelo://app?vid=c226561b-5084-4c10-9cf7-8800d9429b15","ios":"levelo://app?vid=c226561b-5084-4c10-9cf7-8800d9429b15"},"vehicle_type_id":"4","last_reported":1753438361,"current_range_meters":19600,"station_id":"ce4bgph2rcd13ifvqc2g","pricing_plan_id":"cebpf4jnsgd1na2vs0mg"},{"bike_id":"4e6dd435-dcdc-4c6d-be23-774e5b68e116","system_id":"levelo_inurba_marseille","lat":43.28621,"lon":5.35103,"is_reserved":false,"is_disabled":false,"rental_uris":{"android":"levelo://app?vid=4e6dd435-dcdc-4c6d-be23-774e5b68e116","ios":"levelo://app?vid=4e6dd435-dcdc-4c6d-be23-774e5b68e116"},"vehicle_type_id":"4","last_reported":1753438361,"current_range_meters":19600,"station_id":"ce4bhch2rcd13ifvqeug","pricing_plan_id":"cebpf4jnsgd1na2vs0mg"},{"bike_id":"a5f25ccf-59b9-456c-a4e7-39ee65d91d0f","system_id":"levelo_inurba_marseille","lat":43.334908,"lon":5.391415,"is_reserved":false,"is_disabled":false,"rental_uris":{"android":"levelo://app?vid=a5f25ccf-59b9-456c-a4e7-39ee65d91d0f","ios":"levelo://app?vid=a5f25ccf-59b9-456c-a4e7-39ee65d91d0f"},"vehicle_type_id":"4","last_reported":1753438361,"current_range_meters":19600,"station_id":"","pricing_plan_id":"cebpf4jnsgd1na2vs0mg"},{"bike_id":"79fc11ae-347d-4fdb-b345-d9791ff4510d","system_id":"levelo_inurba_marseille","lat":43.260626,"lon":5.393814,"is_reserved":false,"is_disabled":false,"rental_uris":{"android":"levelo://app?vid=79fc11ae-347d-4fdb-b345-d9791ff4510d","ios":"levelo://app?vid=79fc11ae-347d-4fdb-b345-d9791ff4510d"},"vehicle_type_id":"4","last_reported":1753438361,"current_range_meters":19600,"station_id":"ce4bhh92rcd13ifvqfj0","pricing_plan_id":"cebpf4jnsgd1na2vs0mg"},{"bike_id":"6b084b3f-c058-4c85-b5d3-c45727a0a64a","system_id":"levelo_inurba_marseille","lat":43.31214,"lon":5.37327,"is_reserved":false,"is_disabled":false,"rental_uris":{"android":"levelo://app?vid=6b084b3f-c058-4c85-b5d3-c45727a0a64a","ios":"levelo://app?vid=6b084b3f-c058-4c85-b5d3-c45727a0a64a"},"vehicle_type_id":"4","last_reported":1753438361,"current_range_meters":19600,"station_id":"","pricing_plan_id":"cebpf4jnsgd1na2vs0mg"},{"bike_id":"0e35c762-e8f7-48ce-b46c-40ec54e7ab8d","system_id":"levelo_inurba_marseille","lat":43.24995,"lon":5.38931,"is_reserved":false,"is_disabled":false,"rental_uris":{"android":"levelo://app?vid=0e35c762-e8f7-48ce-b46c-40ec54e7ab8d","ios":"levelo://app?vid=0e35c762-e8f7-48ce-b46c-40ec54e7ab8d"},"vehicle_type_id":"4","last_reported":1753438361,"current_range_meters":19600,"station_id":"ce4bhgp2rcd13ifvqfd0","pricing_plan_id":"cebpf4jnsgd1na2vs0mg"},{"bike_id":"fac612d1-16e2-45d9-ab10-11b7935fddc0","system_id":"levelo_inurba_marseille","lat":43.27378,"lon":5.36248,"is_reserved":false,"is_disabled":false,"rental_uris":{"android":"levelo://app?vid=fac612d1-16e2-45d9-ab10-11b7935fddc0","ios":"levelo://app?vid=fac612d1-16e2-45d9-ab10-11b7935fddc0"},"vehicle_type_id":"4","last_reported":1753438361,"current_range_meters":19600,"station_id":"ce4bhbh2rcd13ifvqeo0","pricing_plan_id":"cebpf4jnsgd1na2vs0mg"},{"bike_id":"a1e9e67f-55d1-49e5-a2c3-e87f3c41fb76","system_id":"levelo_inurba_marseille","lat":43.23049,"lon":5.35504,"is_reserved":false,"is_disabled":false,"rental_uris":{"android":"levelo://app?vid=a1e9e67f-55d1-49e5-a2c3-e87f3c41fb76","ios":"levelo://app?vid=a1e9e67f-55d1-49e5-a2c3-e87f3c41fb76"},"vehicle_type_id":"4","last_reported":1753438361,"current_range_meters":20000,"station_id":"cpo3342slgdg3j2ifvpg","pricing_plan_id":"cebpf4jnsgd1na2vs0mg"},{"bike_id":"debf78b2-91b1-44f6-b170-c1652b8ef959","system_id":"levelo_inurba_marseille","lat":43.30168,"lon":5.366134,"is_reserved":false,"is_disabled":false,"rental_uris":{"android":"levelo://app?vid=debf78b2-91b1-44f6-b170-c1652b8ef959","ios":"levelo://app?vid=debf78b2-91b1-44f6-b170-c1652b8ef959"},"vehicle_type_id":"4","last_reported":1753438361,"current_range_meters":20000,"station_id":"ce4bgrh2rcd13ifvqc8g","pricing_plan_id":"cebpf4jnsgd1na2vs0mg"},{"bike_id":"afe0ec83-6787-4c6b-87e0-5101674b0a40","system_id":"levelo_inurba_marseille","lat":43.31383,"lon":5.367,"is_reserved":false,"is_disabled":false,"rental_uris":{"android":"levelo://app?vid=afe0ec83-6787-4c6b-87e0-5101674b0a40","ios":"levelo://app?vid=afe0ec83-6787-4c6b-87e0-5101674b0a40"},"vehicle_type_id":"4","last_reported":1753438361,"current_range_meters":20000,"station_id":"ce4bgr92rcd13ifvqc6g","pricing_plan_id":"cebpf4jnsgd1na2vs0mg"},{"bike_id":"f356c534-eddd-4a85-870d-3fb8542a6501","system_id":"levelo_inurba_marseille","lat":43.30535,"lon":5.38445,"is_reserved":false,"is_disabled":false,"rental_uris":{"android":"levelo://app?vid=f356c534-eddd-4a85-870d-3fb8542a6501","ios":"levelo://app?vid=f356c534-eddd-4a85-870d-3fb8542a6501"},"vehicle_type_id":"4","last_reported":1753438361,"current_range_meters":20000,"station_id":"ce4bgg92rcd13ifvqb30","pricing_plan_id":"cebpf4jnsgd1na2vs0mg"},{"bike_id":"c1ebe0ee-53c4-41c3-9a80-7b9947ead5d6","system_id":"levelo_inurba_marseille","lat":43.30165,"lon":5.38071,"is_reserved":false,"is_disabled":false,"rental_uris":{"android":"levelo://app?vid=c1ebe0ee-53c4-41c3-9a80-7b9947ead5d6","ios":"levelo://app?vid=c1ebe0ee-53c4-41c3-9a80-7b9947ead5d6"},"vehicle_type_id":"4","last_reported":1753438361,"current_range_meters":20000,"station_id":"ce4bgjp2rcd13ifvqbh0","pricing_plan_id":"cebpf4jnsgd1na2vs0mg"},{"bike_id":"97c24b18-b891-4c53-91fc-2ac47bcfce05","system_id":"levelo_inurba_marseille","lat":43.28605,"lon":5.3508,"is_reserved":false,"is_disabled":true,"rental_uris":{"android":"levelo://app?vid=97c24b18-b891-4c53-91fc-2ac47bcfce05","ios":"levelo://app?vid=97c24b18-b891-4c53-91fc-2ac47bcfce05"},"vehicle_type_id":"4","last_reported":1753438361,"current_range_meters":20000,"station_id":"ce4bhch2rcd13ifvqeug","pricing_plan_id":"cebpf4jnsgd1na2vs0mg"},{"bike_id":"e0078abb-7b43-4c38-915f-de87a510c9f5","system_id":"levelo_inurba_marseille","lat":43.280011,"lon":5.400106,"is_reserved":false,"is_disabled":false,"rental_uris":{"android":"levelo://app?vid=e0078abb-7b43-4c38-915f-de87a510c9f5","ios":"levelo://app?vid=e0078abb-7b43-4c38-915f-de87a510c9f5"},"vehicle_type_id":"4","last_reported":1753438361,"current_range_meters":20000,"station_id":"ce4bho92rcd13ifvqh4g","pricing_plan_id":"cebpf4jnsgd1na2vs0mg"},{"bike_id":"e2719639-5303-4b93-ac65-7f01c2259f41","system_id":"levelo_inurba_marseille","lat":43.3022,"lon":5.38194,"is_reserved":false,"is_disabled":false,"rental_uris":{"android":"levelo://app?vid=e2719639-5303-4b93-ac65-7f01c2259f41","ios":"levelo://app?vid=e2719639-5303-4b93-ac65-7f01c2259f41"},"vehicle_type_id":"4","last_reported":1753438361,"current_range_meters":20000,"station_id":"","pricing_plan_id":"cebpf4jnsgd1na2vs0mg"},{"bike_id":"c4024be5-57e2-4ceb-93d9-f3508225560a","system_id":"levelo_inurba_marseille","lat":43.29301,"lon":5.37468,"is_reserved":false,"is_disabled":false,"rental_uris":{"android":"levelo://app?vid=c4024be5-57e2-4ceb-93d9-f3508225560a","ios":"levelo://app?vid=c4024be5-57e2-4ceb-93d9-f3508225560a"},"vehicle_type_id":"4","last_reported":1753438361,"current_range_meters":20000,"station_id":"ce4bgi12rcd13ifvqb70","pricing_plan_id":"cebpf4jnsgd1na2vs0mg"},{"bike_id":"d668fe0c-1d26-4b90-95a0-15bfd0b8b2fb","system_id":"levelo_inurba_marseille","lat":43.28415,"lon":5.34993,"is_reserved":false,"is_disabled":false,"rental_uris":{"android":"levelo://app?vid=d668fe0c-1d26-4b90-95a0-15bfd0b8b2fb","ios":"levelo://app?vid=d668fe0c-1d26-4b90-95a0-15bfd0b8b2fb"},"vehicle_type_id":"4","last_reported":1753438361,"current_range_meters":20000,"station_id":"ce4bhbh2rcd13ifvqepg","pricing_plan_id":"cebpf4jnsgd1na2vs0mg"},{"bike_id":"6b223f43-fa86-47e7-9f96-72af1973bbcc","system_id":"levelo_inurba_marseille","lat":43.29744,"lon":5.38031,"is_reserved":false,"is_disabled":false,"rental_uris":{"android":"levelo://app?vid=6b223f43-fa86-47e7-9f96-72af1973bbcc","ios":"levelo://app?vid=6b223f43-fa86-47e7-9f96-72af1973bbcc"},"vehicle_type_id":"4","last_reported":1753438361,"current_range_meters":20000,"station_id":"ce4bgi92rcd13ifvqb90","pricing_plan_id":"cebpf4jnsgd1na2vs0mg"},{"bike_id":"d1e7c841-c321-4e06-98fa-6e4c72256ed7","system_id":"levelo_inurba_marseille","lat":43.26558,"lon":5.37286,"is_reserved":false,"is_disabled":false,"rental_uris":{"android":"levelo://app?vid=d1e7c841-c321-4e06-98fa-6e4c72256ed7","ios":"levelo://app?vid=d1e7c841-c321-4e06-98fa-6e4c72256ed7"},"vehicle_type_id":"4","last_reported":1753438361,"current_range_meters":20000,"station_id":"ce4bhg12rcd13ifvqf70","pricing_plan_id":"cebpf4jnsgd1na2vs0mg"},{"bike_id":"53f123a6-42d2-442d-85cb-e18b0b95060a","system_id":"levelo_inurba_marseille","lat":43.2621,"lon":5.37445,"is_reserved":false,"is_disabled":false,"rental_uris":{"android":"levelo://app?vid=53f123a6-42d2-442d-85cb-e18b0b95060a","ios":"levelo://app?vid=53f123a6-42d2-442d-85cb-e18b0b95060a"},"vehicle_type_id":"4","last_reported":1753438361,"current_range_meters":20000,"station_id":"ce4bhgp2rcd13ifvqfc0","pricing_plan_id":"cebpf4jnsgd1na2vs0mg"},{"bike_id":"1699da3b-157a-4d07-ba4d-8fe9df7d93c7","system_id":"levelo_inurba_marseille","lat":43.33156,"lon":5.35975,"is_reserved":false,"is_disabled":false,"rental_uris":{"android":"levelo://app?vid=1699da3b-157a-4d07-ba4d-8fe9df7d93c7","ios":"levelo://app?vid=1699da3b-157a-4d07-ba4d-8fe9df7d93c7"},"vehicle_type_id":"4","last_reported":1753438361,"current_range_meters":20400,"station_id":"","pricing_plan_id":"cebpf4jnsgd1na2vs0mg"},{"bike_id":"781a7546-3aaa-4cf6-afe7-08c80cb70914","system_id":"levelo_inurba_marseille","lat":43.32109,"lon":5.36793,"is_reserved":false,"is_disabled":false,"rental_uris":{"android":"levelo://app?vid=781a7546-3aaa-4cf6-afe7-08c80cb70914","ios":"levelo://app?vid=781a7546-3aaa-4cf6-afe7-08c80cb70914"},"vehicle_type_id":"4","last_reported":1753438361,"current_range_meters":20400,"station_id":"ce4bhrh2rcd13ifvqhug","pricing_plan_id":"cebpf4jnsgd1na2vs0mg"},{"bike_id":"408972bf-28c1-4aef-bd8d-28cfa60c57e9","system_id":"levelo_inurba_marseille","lat":43.24168,"lon":5.36396,"is_reserved":false,"is_disabled":false,"rental_uris":{"android":"levelo://app?vid=408972bf-28c1-4aef-bd8d-28cfa60c57e9","ios":"levelo://app?vid=408972bf-28c1-4aef-bd8d-28cfa60c57e9"},"vehicle_type_id":"4","last_reported":1753438361,"current_range_meters":20400,"station_id":"cpo36qri1sfpv3e86is0","pricing_plan_id":"cebpf4jnsgd1na2vs0mg"},{"bike_id":"11061ba7-7c09-48c6-8440-b53b0bd5117e","system_id":"levelo_inurba_marseille","lat":43.287164,"lon":5.37944,"is_reserved":false,"is_disabled":false,"rental_uris":{"android":"levelo://app?vid=11061ba7-7c09-48c6-8440-b53b0bd5117e","ios":"levelo://app?vid=11061ba7-7c09-48c6-8440-b53b0bd5117e"},"vehicle_type_id":"4","last_reported":1753438361,"current_range_meters":20400,"station_id":"ce4bh9p2rcd13ifvqec0","pricing_plan_id":"cebpf4jnsgd1na2vs0mg"},{"bike_id":"50a95c56-19f5-40cd-bc70-e373c1f816fa","system_id":"levelo_inurba_marseille","lat":43.22937,"lon":5.3541,"is_reserved":false,"is_disabled":false,"rental_uris":{"android":"levelo://app?vid=50a95c56-19f5-40cd-bc70-e373c1f816fa","ios":"levelo://app?vid=50a95c56-19f5-40cd-bc70-e373c1f816fa"},"vehicle_type_id":"4","last_reported":1753438361,"current_range_meters":20400,"station_id":"cpo3532slgdg3j2ikp40","pricing_plan_id":"cebpf4jnsgd1na2vs0mg"},{"bike_id":"664f4519-3640-4cd1-867c-21bfe46b654c","system_id":"levelo_inurba_marseille","lat":43.29264,"lon":5.38442,"is_reserved":false,"is_disabled":false,"rental_uris":{"android":"levelo://app?vid=664f4519-3640-4cd1-867c-21bfe46b654c","ios":"levelo://app?vid=664f4519-3640-4cd1-867c-21bfe46b654c"},"vehicle_type_id":"4","last_reported":1753438361,"current_range_meters":20400,"station_id":"ce4bh692rcd13ifvqea0","pricing_plan_id":"cebpf4jnsgd1na2vs0mg"},{"bike_id":"c644fc77-e990-45d6-ac68-131d7256554c","system_id":"levelo_inurba_marseille","lat":43.29027,"lon":5.38131,"is_reserved":false,"is_disabled":false,"rental_uris":{"android":"levelo://app?vid=c644fc77-e990-45d6-ac68-131d7256554c","ios":"levelo://app?vid=c644fc77-e990-45d6-ac68-131d7256554c"},"vehicle_type_id":"4","last_reported":1753438361,"current_range_meters":20400,"station_id":"ce4bh4p2rcd13ifvqe1g","pricing_plan_id":"cebpf4jnsgd1na2vs0mg"},{"bike_id":"053ae050-0c5d-4be7-b64c-4612852e2def","system_id":"levelo_inurba_marseille","lat":43.33468,"lon":5.40019,"is_reserved":false,"is_disabled":false,"rental_uris":{"android":"levelo://app?vid=053ae050-0c5d-4be7-b64c-4612852e2def","ios":"levelo://app?vid=053ae050-0c5d-4be7-b64c-4612852e2def"},"vehicle_type_id":"4","last_reported":1753438361,"current_range_meters":20400,"station_id":"","pricing_plan_id":"cebpf4jnsgd1na2vs0mg"},{"bike_id":"f430b5fe-6b85-482d-9ed6-5939b314b660","system_id":"levelo_inurba_marseille","lat":43.28126,"lon":5.42634,"is_reserved":false,"is_disabled":false,"rental_uris":{"android":"levelo://app?vid=f430b5fe-6b85-482d-9ed6-5939b314b660","ios":"levelo://app?vid=f430b5fe-6b85-482d-9ed6-5939b314b660"},"vehicle_type_id":"4","last_reported":1753438361,"current_range_meters":20800,"station_id":"ce4bhnh2rcd13ifvqgug","pricing_plan_id":"cebpf4jnsgd1na2vs0mg"},{"bike_id":"ffd85f79-4c19-4215-a0b4-c8ba79d99fc6","system_id":"levelo_inurba_marseille","lat":43.30149,"lon":5.38067,"is_reserved":false,"is_disabled":false,"rental_uris":{"android":"levelo://app?vid=ffd85f79-4c19-4215-a0b4-c8ba79d99fc6","ios":"levelo://app?vid=ffd85f79-4c19-4215-a0b4-c8ba79d99fc6"},"vehicle_type_id":"4","last_reported":1753438361,"current_range_meters":20800,"station_id":"ce4bgjp2rcd13ifvqbh0","pricing_plan_id":"cebpf4jnsgd1na2vs0mg"},{"bike_id":"838034d6-f49b-403a-b543-496171c54d1d","system_id":"levelo_inurba_marseille","lat":43.29233,"lon":5.36991,"is_reserved":false,"is_disabled":false,"rental_uris":{"android":"levelo://app?vid=838034d6-f49b-403a-b543-496171c54d1d","ios":"levelo://app?vid=838034d6-f49b-403a-b543-496171c54d1d"},"vehicle_type_id":"4","last_reported":1753438361,"current_range_meters":20800,"station_id":"","pricing_plan_id":"cebpf4jnsgd1na2vs0mg"},{"bike_id":"458ebdd3-6b00-4340-be1c-08ca3954f99e","system_id":"levelo_inurba_marseille","lat":43.29538,"lon":5.37496,"is_reserved":false,"is_disabled":false,"rental_uris":{"android":"levelo://app?vid=458ebdd3-6b00-4340-be1c-08ca3954f99e","ios":"levelo://app?vid=458ebdd3-6b00-4340-be1c-08ca3954f99e"},"vehicle_type_id":"4","last_reported":1753438361,"current_range_meters":20400,"station_id":"ce4bgkp2rcd13ifvqbmg","pricing_plan_id":"cebpf4jnsgd1na2vs0mg"},{"bike_id":"85cba519-a54c-4d7a-96f9-2c056eaadace","system_id":"levelo_inurba_marseille","lat":43.274945,"lon":5.424456,"is_reserved":false,"is_disabled":false,"rental_uris":{"android":"levelo://app?vid=85cba519-a54c-4d7a-96f9-2c056eaadace","ios":"levelo://app?vid=85cba519-a54c-4d7a-96f9-2c056eaadace"},"vehicle_type_id":"4","last_reported":1753438361,"current_range_meters":20800,"station_id":"ce4bhn92rcd13ifvqgrg","pricing_plan_id":"cebpf4jnsgd1na2vs0mg"},{"bike_id":"24b47be6-2848-4173-ad9d-e13b80a4d9a0","system_id":"levelo_inurba_marseille","lat":43.261977,"lon":5.374422,"is_reserved":false,"is_disabled":true,"rental_uris":{"android":"levelo://app?vid=24b47be6-2848-4173-ad9d-e13b80a4d9a0","ios":"levelo://app?vid=24b47be6-2848-4173-ad9d-e13b80a4d9a0"},"vehicle_type_id":"4","last_reported":1753438361,"current_range_meters":20800,"station_id":"ce4bhgp2rcd13ifvqfc0","pricing_plan_id":"cebpf4jnsgd1na2vs0mg"},{"bike_id":"24575471-5b4e-4759-aaab-dcc88286d376","system_id":"levelo_inurba_marseille","lat":43.30175,"lon":5.38037,"is_reserved":false,"is_disabled":false,"rental_uris":{"android":"levelo://app?vid=24575471-5b4e-4759-aaab-dcc88286d376","ios":"levelo://app?vid=24575471-5b4e-4759-aaab-dcc88286d376"},"vehicle_type_id":"4","last_reported":1753438361,"current_range_meters":20800,"station_id":"ce4bgjp2rcd13ifvqbh0","pricing_plan_id":"cebpf4jnsgd1na2vs0mg"},{"bike_id":"f0a5a6c8-8f91-4866-9615-37642bfa4177","system_id":"levelo_inurba_marseille","lat":43.314919,"lon":5.373082,"is_reserved":false,"is_disabled":false,"rental_uris":{"android":"levelo://app?vid=f0a5a6c8-8f91-4866-9615-37642bfa4177","ios":"levelo://app?vid=f0a5a6c8-8f91-4866-9615-37642bfa4177"},"vehicle_type_id":"4","last_reported":1753438361,"current_range_meters":20800,"station_id":"","pricing_plan_id":"cebpf4jnsgd1na2vs0mg"},{"bike_id":"3c6ec051-0a31-4f91-8968-0915a102c9b9","system_id":"levelo_inurba_marseille","lat":43.305597,"lon":5.37025,"is_reserved":false,"is_disabled":false,"rental_uris":{"android":"levelo://app?vid=3c6ec051-0a31-4f91-8968-0915a102c9b9","ios":"levelo://app?vid=3c6ec051-0a31-4f91-8968-0915a102c9b9"},"vehicle_type_id":"4","last_reported":1753438361,"current_range_meters":20800,"station_id":"","pricing_plan_id":"cebpf4jnsgd1na2vs0mg"},{"bike_id":"69a78400-a47a-4b16-9b5f-ec82fc40f629","system_id":"levelo_inurba_marseille","lat":43.30993,"lon":5.37948,"is_reserved":false,"is_disabled":false,"rental_uris":{"android":"levelo://app?vid=69a78400-a47a-4b16-9b5f-ec82fc40f629","ios":"levelo://app?vid=69a78400-a47a-4b16-9b5f-ec82fc40f629"},"vehicle_type_id":"4","last_reported":1753438361,"current_range_meters":20800,"station_id":"","pricing_plan_id":"cebpf4jnsgd1na2vs0mg"},{"bike_id":"32c4690d-216b-4cc6-997b-c5b5a9c75c54","system_id":"levelo_inurba_marseille","lat":43.30607,"lon":5.37248,"is_reserved":false,"is_disabled":false,"rental_uris":{"android":"levelo://app?vid=32c4690d-216b-4cc6-997b-c5b5a9c75c54","ios":"levelo://app?vid=32c4690d-216b-4cc6-997b-c5b5a9c75c54"},"vehicle_type_id":"4","last_reported":1753438361,"current_range_meters":17600,"station_id":"ce4bgqh2rcd13ifvqc4g","pricing_plan_id":"cebpf4jnsgd1na2vs0mg"},{"bike_id":"fd1f6c14-1fab-4d7d-bc1c-68f9146aa061","system_id":"levelo_inurba_marseille","lat":43.21758,"lon":5.34596,"is_reserved":false,"is_disabled":false,"rental_uris":{"android":"levelo://app?vid=fd1f6c14-1fab-4d7d-bc1c-68f9146aa061","ios":"levelo://app?vid=fd1f6c14-1fab-4d7d-bc1c-68f9146aa061"},"vehicle_type_id":"4","last_reported":1753438361,"current_range_meters":20800,"station_id":"st_cvj6r9ubvosntc0bgbag","pricing_plan_id":"cebpf4jnsgd1na2vs0mg"},{"bike_id":"bdbfc9e7-67b6-4f8d-82d4-16abe6177d2f","system_id":"levelo_inurba_marseille","lat":43.30142,"lon":5.39878,"is_reserved":false,"is_disabled":false,"rental_uris":{"android":"levelo://app?vid=bdbfc9e7-67b6-4f8d-82d4-16abe6177d2f","ios":"levelo://app?vid=bdbfc9e7-67b6-4f8d-82d4-16abe6177d2f"},"vehicle_type_id":"4","last_reported":1753438361,"current_range_meters":20400,"station_id":"ce4bh0h2rcd13ifvqd40","pricing_plan_id":"cebpf4jnsgd1na2vs0mg"},{"bike_id":"75b4ada1-fa6a-4cb3-8cb4-05dc86608fad","system_id":"levelo_inurba_marseille","lat":43.25028,"lon":5.38899,"is_reserved":false,"is_disabled":false,"rental_uris":{"android":"levelo://app?vid=75b4ada1-fa6a-4cb3-8cb4-05dc86608fad","ios":"levelo://app?vid=75b4ada1-fa6a-4cb3-8cb4-05dc86608fad"},"vehicle_type_id":"4","last_reported":1753438361,"current_range_meters":20800,"station_id":"ce4bhgp2rcd13ifvqfd0","pricing_plan_id":"cebpf4jnsgd1na2vs0mg"},{"bike_id":"11a97308-95f2-4bcc-9cdd-15ff5b7c0a0d","system_id":"levelo_inurba_marseille","lat":43.25496,"lon":5.37648,"is_reserved":false,"is_disabled":false,"rental_uris":{"android":"levelo://app?vid=11a97308-95f2-4bcc-9cdd-15ff5b7c0a0d","ios":"levelo://app?vid=11a97308-95f2-4bcc-9cdd-15ff5b7c0a0d"},"vehicle_type_id":"4","last_reported":1753438361,"current_range_meters":21600,"station_id":"ce4bhh12rcd13ifvqff0","pricing_plan_id":"cebpf4jnsgd1na2vs0mg"},{"bike_id":"62c40355-393f-4211-b0dd-b442de994592","system_id":"levelo_inurba_marseille","lat":43.255017,"lon":5.376427,"is_reserved":false,"is_disabled":false,"rental_uris":{"android":"levelo://app?vid=62c40355-393f-4211-b0dd-b442de994592","ios":"levelo://app?vid=62c40355-393f-4211-b0dd-b442de994592"},"vehicle_type_id":"4","last_reported":1753438361,"current_range_meters":21600,"station_id":"ce4bhh12rcd13ifvqff0","pricing_plan_id":"cebpf4jnsgd1na2vs0mg"},{"bike_id":"214322fb-8746-413a-bd9d-01b3d875de00","system_id":"levelo_inurba_marseille","lat":43.30146,"lon":5.37962,"is_reserved":false,"is_disabled":false,"rental_uris":{"android":"levelo://app?vid=214322fb-8746-413a-bd9d-01b3d875de00","ios":"levelo://app?vid=214322fb-8746-413a-bd9d-01b3d875de00"},"vehicle_type_id":"4","last_reported":1753438361,"current_range_meters":21600,"station_id":"","pricing_plan_id":"cebpf4jnsgd1na2vs0mg"},{"bike_id":"c0bd1545-61c7-42f7-8fab-7449878ac616","system_id":"levelo_inurba_marseille","lat":43.301271,"lon":5.398552,"is_reserved":false,"is_disabled":false,"rental_uris":{"android":"levelo://app?vid=c0bd1545-61c7-42f7-8fab-7449878ac616","ios":"levelo://app?vid=c0bd1545-61c7-42f7-8fab-7449878ac616"},"vehicle_type_id":"4","last_reported":1753438361,"current_range_meters":21600,"station_id":"ce4bh0h2rcd13ifvqd40","pricing_plan_id":"cebpf4jnsgd1na2vs0mg"},{"bike_id":"92e0c800-0183-4d39-a513-5899e6716d7c","system_id":"levelo_inurba_marseille","lat":43.224956,"lon":5.347884,"is_reserved":false,"is_disabled":false,"rental_uris":{"android":"levelo://app?vid=92e0c800-0183-4d39-a513-5899e6716d7c","ios":"levelo://app?vid=92e0c800-0183-4d39-a513-5899e6716d7c"},"vehicle_type_id":"4","last_reported":1753438361,"current_range_meters":21600,"station_id":"st_cvj5dfep6f1abm77gieg","pricing_plan_id":"cebpf4jnsgd1na2vs0mg"},{"bike_id":"4c056efb-4d7b-46b3-b496-89e98459bca1","system_id":"levelo_inurba_marseille","lat":43.31289,"lon":5.37159,"is_reserved":false,"is_disabled":false,"rental_uris":{"android":"levelo://app?vid=4c056efb-4d7b-46b3-b496-89e98459bca1","ios":"levelo://app?vid=4c056efb-4d7b-46b3-b496-89e98459bca1"},"vehicle_type_id":"4","last_reported":1753438361,"current_range_meters":21600,"station_id":"","pricing_plan_id":"cebpf4jnsgd1na2vs0mg"},{"bike_id":"c838d06d-4344-4969-9745-45fc9204f8b7","system_id":"levelo_inurba_marseille","lat":43.30354,"lon":5.41874,"is_reserved":false,"is_disabled":false,"rental_uris":{"android":"levelo://app?vid=c838d06d-4344-4969-9745-45fc9204f8b7","ios":"levelo://app?vid=c838d06d-4344-4969-9745-45fc9204f8b7"},"vehicle_type_id":"4","last_reported":1753438361,"current_range_meters":22000,"station_id":"ce4bhop2rcd13ifvqh7g","pricing_plan_id":"cebpf4jnsgd1na2vs0mg"},{"bike_id":"90cc27fa-eb3f-4993-937d-60668b62854c","system_id":"levelo_inurba_marseille","lat":43.295625,"lon":5.375288,"is_reserved":false,"is_disabled":false,"rental_uris":{"android":"levelo://app?vid=90cc27fa-eb3f-4993-937d-60668b62854c","ios":"levelo://app?vid=90cc27fa-eb3f-4993-937d-60668b62854c"},"vehicle_type_id":"4","last_reported":1753438361,"current_range_meters":22000,"station_id":"ce4bgh92rcd13ifvqb50","pricing_plan_id":"cebpf4jnsgd1na2vs0mg"},{"bike_id":"1606237e-75c1-4350-a468-5b5b9c5efc47","system_id":"levelo_inurba_marseille","lat":43.30543,"lon":5.36708,"is_reserved":false,"is_disabled":false,"rental_uris":{"android":"levelo://app?vid=1606237e-75c1-4350-a468-5b5b9c5efc47","ios":"levelo://app?vid=1606237e-75c1-4350-a468-5b5b9c5efc47"},"vehicle_type_id":"4","last_reported":1753438361,"current_range_meters":22000,"station_id":"ce4bgrp2rcd13ifvqc9g","pricing_plan_id":"cebpf4jnsgd1na2vs0mg"},{"bike_id":"f7327ce1-fbae-442e-b3c9-31db66369097","system_id":"levelo_inurba_marseille","lat":43.316861,"lon":5.40476,"is_reserved":false,"is_disabled":false,"rental_uris":{"android":"levelo://app?vid=f7327ce1-fbae-442e-b3c9-31db66369097","ios":"levelo://app?vid=f7327ce1-fbae-442e-b3c9-31db66369097"},"vehicle_type_id":"4","last_reported":1753438361,"current_range_meters":22000,"station_id":"ce4bh012rcd13ifvqd00","pricing_plan_id":"cebpf4jnsgd1na2vs0mg"},{"bike_id":"bb037f98-f258-4f01-a0e5-6a5784a24cde","system_id":"levelo_inurba_marseille","lat":43.29567,"lon":5.3746,"is_reserved":false,"is_disabled":false,"rental_uris":{"android":"levelo://app?vid=bb037f98-f258-4f01-a0e5-6a5784a24cde","ios":"levelo://app?vid=bb037f98-f258-4f01-a0e5-6a5784a24cde"},"vehicle_type_id":"4","last_reported":1753438361,"current_range_meters":22000,"station_id":"","pricing_plan_id":"cebpf4jnsgd1na2vs0mg"},{"bike_id":"5c041ef4-af19-4e04-be25-0c10db967e35","system_id":"levelo_inurba_marseille","lat":43.27375,"lon":5.36253,"is_reserved":false,"is_disabled":false,"rental_uris":{"android":"levelo://app?vid=5c041ef4-af19-4e04-be25-0c10db967e35","ios":"levelo://app?vid=5c041ef4-af19-4e04-be25-0c10db967e35"},"vehicle_type_id":"4","last_reported":1753438361,"current_range_meters":22000,"station_id":"ce4bhbh2rcd13ifvqeo0","pricing_plan_id":"cebpf4jnsgd1na2vs0mg"},{"bike_id":"9a2f560c-beea-47d7-90e7-f7958c06bcad","system_id":"levelo_inurba_marseille","lat":43.32494,"lon":5.3657,"is_reserved":false,"is_disabled":false,"rental_uris":{"android":"levelo://app?vid=9a2f560c-beea-47d7-90e7-f7958c06bcad","ios":"levelo://app?vid=9a2f560c-beea-47d7-90e7-f7958c06bcad"},"vehicle_type_id":"4","last_reported":1753438361,"current_range_meters":22000,"station_id":"ce4bhs12rcd13ifvqhvg","pricing_plan_id":"cebpf4jnsgd1na2vs0mg"},{"bike_id":"bc8fc686-54e9-48e2-beef-4f74f12c6a71","system_id":"levelo_inurba_marseille","lat":43.302136,"lon":5.39462,"is_reserved":false,"is_disabled":true,"rental_uris":{"android":"levelo://app?vid=bc8fc686-54e9-48e2-beef-4f74f12c6a71","ios":"levelo://app?vid=bc8fc686-54e9-48e2-beef-4f74f12c6a71"},"vehicle_type_id":"4","last_reported":1753438361,"current_range_meters":22000,"station_id":"ce4bh0p2rcd13ifvqd70","pricing_plan_id":"cebpf4jnsgd1na2vs0mg"},{"bike_id":"8b6492f4-8f65-4b5c-9fc8-4d63e230eb42","system_id":"levelo_inurba_marseille","lat":43.250847,"lon":5.395285,"is_reserved":false,"is_disabled":false,"rental_uris":{"android":"levelo://app?vid=8b6492f4-8f65-4b5c-9fc8-4d63e230eb42","ios":"levelo://app?vid=8b6492f4-8f65-4b5c-9fc8-4d63e230eb42"},"vehicle_type_id":"4","last_reported":1753438361,"current_range_meters":22400,"station_id":"ce4bhm12rcd13ifvqgkg","pricing_plan_id":"cebpf4jnsgd1na2vs0mg"},{"bike_id":"daf82811-0ae5-497c-86b7-92939900c64e","system_id":"levelo_inurba_marseille","lat":43.30144,"lon":5.37416,"is_reserved":false,"is_disabled":false,"rental_uris":{"android":"levelo://app?vid=daf82811-0ae5-497c-86b7-92939900c64e","ios":"levelo://app?vid=daf82811-0ae5-497c-86b7-92939900c64e"},"vehicle_type_id":"4","last_reported":1753438361,"current_range_meters":22000,"station_id":"ce4bgs92rcd13ifvqcc0","pricing_plan_id":"cebpf4jnsgd1na2vs0mg"},{"bike_id":"6f8b9720-d7ac-40dd-bb65-da0c39091a6c","system_id":"levelo_inurba_marseille","lat":43.29529,"lon":5.394,"is_reserved":false,"is_disabled":false,"rental_uris":{"android":"levelo://app?vid=6f8b9720-d7ac-40dd-bb65-da0c39091a6c","ios":"levelo://app?vid=6f8b9720-d7ac-40dd-bb65-da0c39091a6c"},"vehicle_type_id":"4","last_reported":1753438361,"current_range_meters":22400,"station_id":"ce4bh292rcd13ifvqdf0","pricing_plan_id":"cebpf4jnsgd1na2vs0mg"},{"bike_id":"dc6162b9-8c20-49e7-ba5d-b1811b5e9bc3","system_id":"levelo_inurba_marseille","lat":43.25577,"lon":5.38226,"is_reserved":false,"is_disabled":true,"rental_uris":{"android":"levelo://app?vid=dc6162b9-8c20-49e7-ba5d-b1811b5e9bc3","ios":"levelo://app?vid=dc6162b9-8c20-49e7-ba5d-b1811b5e9bc3"},"vehicle_type_id":"4","last_reported":1753438361,"current_range_meters":22400,"station_id":"ce4bhih2rcd13ifvqfs0","pricing_plan_id":"cebpf4jnsgd1na2vs0mg"},{"bike_id":"93c1ae20-7cdb-4ac6-927a-63f56252a59b","system_id":"levelo_inurba_marseille","lat":43.301229,"lon":5.398569,"is_reserved":false,"is_disabled":false,"rental_uris":{"android":"levelo://app?vid=93c1ae20-7cdb-4ac6-927a-63f56252a59b","ios":"levelo://app?vid=93c1ae20-7cdb-4ac6-927a-63f56252a59b"},"vehicle_type_id":"4","last_reported":1753438361,"current_range_meters":20400,"station_id":"ce4bh0h2rcd13ifvqd40","pricing_plan_id":"cebpf4jnsgd1na2vs0mg"},{"bike_id":"5f485be1-4c79-413a-b975-f4b4e108908c","system_id":"levelo_inurba_marseille","lat":43.28151,"lon":5.42643,"is_reserved":false,"is_disabled":false,"rental_uris":{"android":"levelo://app?vid=5f485be1-4c79-413a-b975-f4b4e108908c","ios":"levelo://app?vid=5f485be1-4c79-413a-b975-f4b4e108908c"},"vehicle_type_id":"4","last_reported":1753438361,"current_range_meters":22800,"station_id":"ce4bhnh2rcd13ifvqgug","pricing_plan_id":"cebpf4jnsgd1na2vs0mg"},{"bike_id":"c0c34fb5-7f99-4d0d-b954-61c5f505af1e","system_id":"levelo_inurba_marseille","lat":43.29852,"lon":5.38614,"is_reserved":false,"is_disabled":false,"rental_uris":{"android":"levelo://app?vid=c0c34fb5-7f99-4d0d-b954-61c5f505af1e","ios":"levelo://app?vid=c0c34fb5-7f99-4d0d-b954-61c5f505af1e"},"vehicle_type_id":"4","last_reported":1753438361,"current_range_meters":22800,"station_id":"","pricing_plan_id":"cebpf4jnsgd1na2vs0mg"},{"bike_id":"b3612882-d3a8-4492-b9b4-bcacd02c6197","system_id":"levelo_inurba_marseille","lat":43.28113,"lon":5.37859,"is_reserved":false,"is_disabled":false,"rental_uris":{"android":"levelo://app?vid=b3612882-d3a8-4492-b9b4-bcacd02c6197","ios":"levelo://app?vid=b3612882-d3a8-4492-b9b4-bcacd02c6197"},"vehicle_type_id":"4","last_reported":1753438361,"current_range_meters":22800,"station_id":"ce4bha12rcd13ifvqee0","pricing_plan_id":"cebpf4jnsgd1na2vs0mg"},{"bike_id":"a6f3c14b-68d3-43d5-9201-2c64755449f5","system_id":"levelo_inurba_marseille","lat":43.275237,"lon":5.424182,"is_reserved":false,"is_disabled":false,"rental_uris":{"android":"levelo://app?vid=a6f3c14b-68d3-43d5-9201-2c64755449f5","ios":"levelo://app?vid=a6f3c14b-68d3-43d5-9201-2c64755449f5"},"vehicle_type_id":"4","last_reported":1753438361,"current_range_meters":22800,"station_id":"ce4bhn92rcd13ifvqgrg","pricing_plan_id":"cebpf4jnsgd1na2vs0mg"},{"bike_id":"91aeb556-cf24-45f7-800f-ca36a60777bb","system_id":"levelo_inurba_marseille","lat":43.27549,"lon":5.3844,"is_reserved":false,"is_disabled":false,"rental_uris":{"android":"levelo://app?vid=91aeb556-cf24-45f7-800f-ca36a60777bb","ios":"levelo://app?vid=91aeb556-cf24-45f7-800f-ca36a60777bb"},"vehicle_type_id":"4","last_reported":1753438361,"current_range_meters":22800,"station_id":"ce4bhh92rcd13ifvqfi0","pricing_plan_id":"cebpf4jnsgd1na2vs0mg"},{"bike_id":"80718da9-0e7b-448c-8088-ae22a79ccac6","system_id":"levelo_inurba_marseille","lat":43.24169,"lon":5.36392,"is_reserved":false,"is_disabled":false,"rental_uris":{"android":"levelo://app?vid=80718da9-0e7b-448c-8088-ae22a79ccac6","ios":"levelo://app?vid=80718da9-0e7b-448c-8088-ae22a79ccac6"},