{"last_updated":1727647667,"ttl":60,"version":"2.2","data":{"bikes":[{"bike_id":"fc63f147-84a5-415c-bb98-25ba16874896","system_id":"levelo_inurba_marseille","lat":43.23193,"lon":5.35556,"is_reserved":false,"is_disabled":false,"rental_uris":{"android":"levelo://app?vid=fc63f147-84a5-415c-bb98-25ba16874896","ios":"levelo://app?vid=fc63f147-84a5-415c-bb98-25ba16874896"},"vehicle_type_id":"4","last_reported":1727647668,"current_range_meters":38800,"station_id":"ce4bhu92rcd13ifvqi70","pricing_plan_id":"cebpf4jnsgd1na2vs0mg"},{"bike_id":"553c1614-21ff-498e-a02c-4cdee8b1e7ce","system_id":"levelo_inurba_marseille","lat":43.32638,"lon":5.40991,"is_reserved":false,"is_disabled":false,"rental_uris":{"android":"levelo://app?vid=553c1614-21ff-498e-a02c-4cdee8b1e7ce","ios":"levelo://app?vid=553c1614-21ff-498e-a02c-4cdee8b1e7ce"},"vehicle_type_id":"4","last_reported":1727647668,"current_range_meters":38000,"station_id":"ce4bhpp2rcd13ifvqhgg","pricing_plan_id":"cebpf4jnsgd1na2vs0mg"},{"bike_id":"a78ef135-8636-4c7f-8ea0-04e46d0f96bc","system_id":"levelo_inurba_marseille","lat":43.27559,"lon":5.38423,"is_reserved":false,"is_disabled":false,"rental_uris":{"android":"levelo://app?vid=a78ef135-8636-4c7f-8ea0-04e46d0f96bc","ios":"levelo://app?vid=a78ef135-8636-4c7f-8ea0-04e46d0f96bc"},"vehicle_type_id":"4","last_reported":1727647668,"current_range_meters":30400,"station_id":"ce4bhh92rcd13ifvqfi0","pricing_plan_id":"cebpf4jnsgd1na2vs0mg"},{"bike_id":"f811606a-b2c6-4ddd-ae20-d2e017211649","system_id":"levelo_inurba_marseille","lat":43.3043,"lon":5.41284,"is_reserved":false,"is_disabled":false,"rental_uris":{"android":"levelo://app?vid=f811606a-b2c6-4ddd-ae20-d2e017211649","ios":"levelo://app?vid=f811606a-b2c6-4ddd-ae20-d2e017211649"},"vehicle_type_id":"4","last_reported":1727647668,"current_range_meters":38800,"station_id":"ce4bhop2rcd13ifvqh8g","pricing_plan_id":"cebpf4jnsgd1na2vs0mg"},{"bike_id":"fdf807c8-7130-4469-8b3f-4244b9738bae","system_id":"levelo_inurba_marseille","lat":43.28363,"lon":5.38096,"is_reserved":false,"is_disabled":false,"rental_uris":{"android":"levelo://app?vid=fdf807c8-7130-4469-8b3f-4244b9738bae","ios":"levelo://app?vid=fdf807c8-7130-4469-8b3f-4244b9738bae"},"vehicle_type_id":"4","last_reported":1727647668,"current_range_meters":38000,"station_id":"ce4bh412rcd13ifvqdr0","pricing_plan_id":"cebpf4jnsgd1na2vs0mg"},{"bike_id":"8562cd15-7506-468b-a632-ab9fcc5455fe","system_id":"levelo_inurba_marseille","lat":43.30449,"lon":5.38881,"is_reserved":false,"is_disabled":false,"rental_uris":{"android":"levelo://app?vid=8562cd15-7506-468b-a632-ab9fcc5455fe","ios":"levelo://app?vid=8562cd15-7506-468b-a632-ab9fcc5455fe"},"vehicle_type_id":"4","last_reported":1727647668,"current_range_meters":6800,"station_id":"ce4bgk12rcd13ifvqbi0","pricing_plan_id":"cebpf4jnsgd1na2vs0mg"},{"bike_id":"9083a365-5b13-496f-88c7-3d155c1c89ba","system_id":"levelo_inurba_marseille","lat":43.29873,"lon":5.39728,"is_reserved":false,"is_disabled":false,"rental_uris":{"android":"levelo://app?vid=9083a365-5b13-496f-88c7-3d155c1c89ba","ios":"levelo://app?vid=9083a365-5b13-496f-88c7-3d155c1c89ba"},"vehicle_type_id":"4","last_reported":1727647668,"current_range_meters":38800,"station_id":"ce4bh0h2rcd13ifvqd50","pricing_plan_id":"cebpf4jnsgd1na2vs0mg"},{"bike_id":"dc24d4c3-9cb1-4022-b2a3-0568500844b7","system_id":"levelo_inurba_marseille","lat":43.28465,"lon":5.35875,"is_reserved":false,"is_disabled":false,"rental_uris":{"android":"levelo://app?vid=dc24d4c3-9cb1-4022-b2a3-0568500844b7","ios":"levelo://app?vid=dc24d4c3-9cb1-4022-b2a3-0568500844b7"},"vehicle_type_id":"4","last_reported":1727647668,"current_range_meters":20000,"station_id":"ce4bhah2rcd13ifvqei0","pricing_plan_id":"cebpf4jnsgd1na2vs0mg"},{"bike_id":"0ea9e4c4-cc08-41d9-862d-a80f7d54740c","system_id":"levelo_inurba_marseille","lat":43.3268,"lon":5.37494,"is_reserved":false,"is_disabled":false,"rental_uris":{"android":"levelo://app?vid=0ea9e4c4-cc08-41d9-862d-a80f7d54740c","ios":"levelo://app?vid=0ea9e4c4-cc08-41d9-862d-a80f7d54740c"},"vehicle_type_id":"4","last_reported":1727647668,"current_range_meters":35200,"station_id":"","pricing_plan_id":"cebpf4jnsgd1na2vs0mg"},{"bike_id":"4c916341-3683-414d-9c10-1d32039755c0","system_id":"levelo_inurba_marseille","lat":43.2845,"lon":5.391943,"is_reserved":false,"is_disabled":false,"rental_uris":{"android":"levelo://app?vid=4c916341-3683-414d-9c10-1d32039755c0","ios":"levelo://app?vid=4c916341-3683-414d-9c10-1d32039755c0"},"vehicle_type_id":"4","last_reported":1727647668,"current_range_meters":15200,"station_id":"ce4bhoh2rcd13ifvqh5g","pricing_plan_id":"cebpf4jnsgd1na2vs0mg"},{"bike_id":"66199279-4f65-44e6-9eaf-44a55c28ea16","system_id":"levelo_inurba_marseille","lat":43.28105,"lon":5.37839,"is_reserved":false,"is_disabled":false,"rental_uris":{"android":"levelo://app?vid=66199279-4f65-44e6-9eaf-44a55c28ea16","ios":"levelo://app?vid=66199279-4f65-44e6-9eaf-44a55c28ea16"},"vehicle_type_id":"4","last_reported":1727647668,"current_range_meters":36400,"station_id":"ce4bha12rcd13ifvqee0","pricing_plan_id":"cebpf4jnsgd1na2vs0mg"},{"bike_id":"431acd76-2fda-479a-af23-895917a7252a","system_id":"levelo_inurba_marseille","lat":43.321929,"lon":5.387404,"is_reserved":false,"is_disabled":false,"rental_uris":{"android":"levelo://app?vid=431acd76-2fda-479a-af23-895917a7252a","ios":"levelo://app?vid=431acd76-2fda-479a-af23-895917a7252a"},"vehicle_type_id":"4","last_reported":1727647668,"current_range_meters":22000,"station_id":"","pricing_plan_id":"cebpf4jnsgd1na2vs0mg"},{"bike_id":"5816cec8-8917-4734-9ca3-2441e17f7ba1","system_id":"levelo_inurba_marseille","lat":43.24169,"lon":5.36402,"is_reserved":false,"is_disabled":false,"rental_uris":{"android":"levelo://app?vid=5816cec8-8917-4734-9ca3-2441e17f7ba1","ios":"levelo://app?vid=5816cec8-8917-4734-9ca3-2441e17f7ba1"},"vehicle_type_id":"4","last_reported":1727647668,"current_range_meters":24000,"station_id":"cpo36qri1sfpv3e86is0","pricing_plan_id":"cebpf4jnsgd1na2vs0mg"},{"bike_id":"d4c74265-2442-4454-aa29-65e3cce400cc","system_id":"levelo_inurba_marseille","lat":43.32303,"lon":5.3866,"is_reserved":false,"is_disabled":false,"rental_uris":{"android":"levelo://app?vid=d4c74265-2442-4454-aa29-65e3cce400cc","ios":"levelo://app?vid=d4c74265-2442-4454-aa29-65e3cce400cc"},"vehicle_type_id":"4","last_reported":1727647668,"current_range_meters":36400,"station_id":"","pricing_plan_id":"cebpf4jnsgd1na2vs0mg"},{"bike_id":"3701e278-db4f-496c-8858-723875cbdd20","system_id":"levelo_inurba_marseille","lat":43.28406,"lon":5.37516,"is_reserved":false,"is_disabled":false,"rental_uris":{"android":"levelo://app?vid=3701e278-db4f-496c-8858-723875cbdd20","ios":"levelo://app?vid=3701e278-db4f-496c-8858-723875cbdd20"},"vehicle_type_id":"4","last_reported":1727647668,"current_range_meters":34800,"station_id":"ce4bh412rcd13ifvqds0","pricing_plan_id":"cebpf4jnsgd1na2vs0mg"},{"bike_id":"9a47dcb1-61bb-411f-affb-55731480b4cc","system_id":"levelo_inurba_marseille","lat":43.23961,"lon":5.36628,"is_reserved":false,"is_disabled":false,"rental_uris":{"android":"levelo://app?vid=9a47dcb1-61bb-411f-affb-55731480b4cc","ios":"levelo://app?vid=9a47dcb1-61bb-411f-affb-55731480b4cc"},"vehicle_type_id":"4","last_reported":1727647668,"current_range_meters":36000,"station_id":"ce4bhi12rcd13ifvqfp0","pricing_plan_id":"cebpf4jnsgd1na2vs0mg"},{"bike_id":"eaad5887-be8f-44ad-901f-8e88f39a4594","system_id":"levelo_inurba_marseille","lat":43.27543,"lon":5.3842,"is_reserved":false,"is_disabled":false,"rental_uris":{"android":"levelo://app?vid=eaad5887-be8f-44ad-901f-8e88f39a4594","ios":"levelo://app?vid=eaad5887-be8f-44ad-901f-8e88f39a4594"},"vehicle_type_id":"4","last_reported":1727647668,"current_range_meters":38800,"station_id":"ce4bhh92rcd13ifvqfi0","pricing_plan_id":"cebpf4jnsgd1na2vs0mg"},{"bike_id":"c74ce1f8-eba2-44ef-ba2a-4a0bf0f62595","system_id":"levelo_inurba_marseille","lat":43.30883,"lon":5.37184,"is_reserved":false,"is_disabled":false,"rental_uris":{"android":"levelo://app?vid=c74ce1f8-eba2-44ef-ba2a-4a0bf0f62595","ios":"levelo://app?vid=c74ce1f8-eba2-44ef-ba2a-4a0bf0f62595"},"vehicle_type_id":"4","last_reported":1727647668,"current_range_meters":16800,"station_id":"ce4bguh2rcd13ifvqckg","pricing_plan_id":"cebpf4jnsgd1na2vs0mg"},{"bike_id":"76e6ba9f-8f24-47d5-a6ef-9536a1d68289","system_id":"levelo_inurba_marseille","lat":43.28698,"lon":5.37366,"is_reserved":false,"is_disabled":false,"rental_uris":{"android":"levelo://app?vid=76e6ba9f-8f24-47d5-a6ef-9536a1d68289","ios":"levelo://app?vid=76e6ba9f-8f24-47d5-a6ef-9536a1d68289"},"vehicle_type_id":"4","last_reported":1727647668,"current_range_meters":38400,"station_id":"ce4bh3p2rcd13ifvqdq0","pricing_plan_id":"cebpf4jnsgd1na2vs0mg"},{"bike_id":"b567e0c3-b011-46f7-bf79-fd470074ac49","system_id":"levelo_inurba_marseille","lat":43.31889,"lon":5.40743,"is_reserved":false,"is_disabled":false,"rental_uris":{"android":"levelo://app?vid=b567e0c3-b011-46f7-bf79-fd470074ac49","ios":"levelo://app?vid=b567e0c3-b011-46f7-bf79-fd470074ac49"},"vehicle_type_id":"4","last_reported":1727647668,"current_range_meters":25600,"station_id":"ce4bhq12rcd13ifvqhig","pricing_plan_id":"cebpf4jnsgd1na2vs0mg"},{"bike_id":"0c83b881-2104-4096-b03b-bb90e8cfa37c","system_id":"levelo_inurba_marseille","lat":43.28419,"lon":5.37516,"is_reserved":false,"is_disabled":false,"rental_uris":{"android":"levelo://app?vid=0c83b881-2104-4096-b03b-bb90e8cfa37c","ios":"levelo://app?vid=0c83b881-2104-4096-b03b-bb90e8cfa37c"},"vehicle_type_id":"4","last_reported":1727647668,"current_range_meters":38800,"station_id":"ce4bh412rcd13ifvqds0","pricing_plan_id":"cebpf4jnsgd1na2vs0mg"},{"bike_id":"774fb271-ce7e-434d-a9d4-c38b1218490c","system_id":"levelo_inurba_marseille","lat":43.24654,"lon":5.38892,"is_reserved":false,"is_disabled":false,"rental_uris":{"android":"levelo://app?vid=774fb271-ce7e-434d-a9d4-c38b1218490c","ios":"levelo://app?vid=774fb271-ce7e-434d-a9d4-c38b1218490c"},"vehicle_type_id":"4","last_reported":1727647668,"current_range_meters":10800,"station_id":"ce4bhg12rcd13ifvqf60","pricing_plan_id":"cebpf4jnsgd1na2vs0mg"},{"bike_id":"ad39acce-a3c1-44d4-971b-ebc578fc76ab","system_id":"levelo_inurba_marseille","lat":43.28149,"lon":5.42638,"is_reserved":false,"is_disabled":false,"rental_uris":{"android":"levelo://app?vid=ad39acce-a3c1-44d4-971b-ebc578fc76ab","ios":"levelo://app?vid=ad39acce-a3c1-44d4-971b-ebc578fc76ab"},"vehicle_type_id":"4","last_reported":1727647668,"current_range_meters":31200,"station_id":"ce4bhnh2rcd13ifvqgug","pricing_plan_id":"cebpf4jnsgd1na2vs0mg"},{"bike_id":"4c4d2c5f-5f49-42be-9e75-2a37d1d48435","system_id":"levelo_inurba_marseille","lat":43.31175,"lon":5.38705,"is_reserved":false,"is_disabled":false,"rental_uris":{"android":"levelo://app?vid=4c4d2c5f-5f49-42be-9e75-2a37d1d48435","ios":"levelo://app?vid=4c4d2c5f-5f49-42be-9e75-2a37d1d48435"},"vehicle_type_id":"4","last_reported":1727647668,"current_range_meters":32400,"station_id":"ce4bgv12rcd13ifvqcp0","pricing_plan_id":"cebpf4jnsgd1na2vs0mg"},{"bike_id":"0234082f-c00c-45ec-a164-58c109919eae","system_id":"levelo_inurba_marseille","lat":43.2511,"lon":5.40325,"is_reserved":false,"is_disabled":false,"rental_uris":{"android":"levelo://app?vid=0234082f-c00c-45ec-a164-58c109919eae","ios":"levelo://app?vid=0234082f-c00c-45ec-a164-58c109919eae"},"vehicle_type_id":"4","last_reported":1727647668,"current_range_meters":38800,"station_id":"ce4bhlh2rcd13ifvqgig","pricing_plan_id":"cebpf4jnsgd1na2vs0mg"},{"bike_id":"a7f9067a-1b54-4cc7-955d-3bd52b65355a","system_id":"levelo_inurba_marseille","lat":43.301429,"lon":5.374273,"is_reserved":false,"is_disabled":false,"rental_uris":{"android":"levelo://app?vid=a7f9067a-1b54-4cc7-955d-3bd52b65355a","ios":"levelo://app?vid=a7f9067a-1b54-4cc7-955d-3bd52b65355a"},"vehicle_type_id":"4","last_reported":1727647668,"current_range_meters":8000,"station_id":"ce4bh112rcd13ifvqda0","pricing_plan_id":"cebpf4jnsgd1na2vs0mg"},{"bike_id":"0521cc37-3a0f-4bc8-964a-96f026706e98","system_id":"levelo_inurba_marseille","lat":43.28024,"lon":5.360845,"is_reserved":false,"is_disabled":false,"rental_uris":{"android":"levelo://app?vid=0521cc37-3a0f-4bc8-964a-96f026706e98","ios":"levelo://app?vid=0521cc37-3a0f-4bc8-964a-96f026706e98"},"vehicle_type_id":"4","last_reported":1727647668,"current_range_meters":22800,"station_id":"","pricing_plan_id":"cebpf4jnsgd1na2vs0mg"},{"bike_id":"b7e783cf-2e99-47af-aa70-59c0709d4797","system_id":"levelo_inurba_marseille","lat":43.31702,"lon":5.37748,"is_reserved":false,"is_disabled":false,"rental_uris":{"android":"levelo://app?vid=b7e783cf-2e99-47af-aa70-59c0709d4797","ios":"levelo://app?vid=b7e783cf-2e99-47af-aa70-59c0709d4797"},"vehicle_type_id":"4","last_reported":1727647668,"current_range_meters":38800,"station_id":"ce4bgth2rcd13ifvqch0","pricing_plan_id":"cebpf4jnsgd1na2vs0mg"},{"bike_id":"2fa06bcd-27f4-4466-a001-ff3ebecd62a2","system_id":"levelo_inurba_marseille","lat":43.28937,"lon":5.39621,"is_reserved":false,"is_disabled":false,"rental_uris":{"android":"levelo://app?vid=2fa06bcd-27f4-4466-a001-ff3ebecd62a2","ios":"levelo://app?vid=2fa06bcd-27f4-4466-a001-ff3ebecd62a2"},"vehicle_type_id":"4","last_reported":1727647668,"current_range_meters":38400,"station_id":"ce4bh3h2rcd13ifvqdn0","pricing_plan_id":"cebpf4jnsgd1na2vs0mg"},{"bike_id":"0040b39a-a047-4725-a4ce-a062b24cc79f","system_id":"levelo_inurba_marseille","lat":43.25819,"lon":5.39423,"is_reserved":false,"is_disabled":false,"rental_uris":{"android":"levelo://app?vid=0040b39a-a047-4725-a4ce-a062b24cc79f","ios":"levelo://app?vid=0040b39a-a047-4725-a4ce-a062b24cc79f"},"vehicle_type_id":"4","last_reported":1727647668,"current_range_meters":38800,"station_id":"ce4bhip2rcd13ifvqft0","pricing_plan_id":"cebpf4jnsgd1na2vs0mg"},{"bike_id":"45273442-0258-4613-8edf-b25bf26f941c","system_id":"levelo_inurba_marseille","lat":43.29522,"lon":5.39034,"is_reserved":false,"is_disabled":false,"rental_uris":{"android":"levelo://app?vid=45273442-0258-4613-8edf-b25bf26f941c","ios":"levelo://app?vid=45273442-0258-4613-8edf-b25bf26f941c"},"vehicle_type_id":"4","last_reported":1727647668,"current_range_meters":38800,"station_id":"ce4bh3p2rcd13ifvqdp0","pricing_plan_id":"cebpf4jnsgd1na2vs0mg"},{"bike_id":"2ec78b01-d2c8-4577-ace2-fa6a643f8218","system_id":"levelo_inurba_marseille","lat":43.31357,"lon":5.38492,"is_reserved":false,"is_disabled":false,"rental_uris":{"android":"levelo://app?vid=2ec78b01-d2c8-4577-ace2-fa6a643f8218","ios":"levelo://app?vid=2ec78b01-d2c8-4577-ace2-fa6a643f8218"},"vehicle_type_id":"4","last_reported":1727647668,"current_range_meters":22400,"station_id":"ce4bgt92rcd13ifvqcf0","pricing_plan_id":"cebpf4jnsgd1na2vs0mg"},{"bike_id":"1ce7c25b-6bd2-4b64-b4ae-543ea784fc5d","system_id":"levelo_inurba_marseille","lat":43.337444,"lon":5.374475,"is_reserved":false,"is_disabled":false,"rental_uris":{"android":"levelo://app?vid=1ce7c25b-6bd2-4b64-b4ae-543ea784fc5d","ios":"levelo://app?vid=1ce7c25b-6bd2-4b64-b4ae-543ea784fc5d"},"vehicle_type_id":"4","last_reported":1727647668,"current_range_meters":30800,"station_id":"","pricing_plan_id":"cebpf4jnsgd1na2vs0mg"},{"bike_id":"dda2bca1-17aa-4dee-93b7-7c752c09dbea","system_id":"levelo_inurba_marseille","lat":43.27195,"lon":5.40995,"is_reserved":false,"is_disabled":false,"rental_uris":{"android":"levelo://app?vid=dda2bca1-17aa-4dee-93b7-7c752c09dbea","ios":"levelo://app?vid=dda2bca1-17aa-4dee-93b7-7c752c09dbea"},"vehicle_type_id":"4","last_reported":1727647668,"current_range_meters":24400,"station_id":"ce4bhl12rcd13ifvqgf0","pricing_plan_id":"cebpf4jnsgd1na2vs0mg"},{"bike_id":"32b43324-9ed6-4060-888a-67bc6559de67","system_id":"levelo_inurba_marseille","lat":43.29209,"lon":5.39312,"is_reserved":false,"is_disabled":false,"rental_uris":{"android":"levelo://app?vid=32b43324-9ed6-4060-888a-67bc6559de67","ios":"levelo://app?vid=32b43324-9ed6-4060-888a-67bc6559de67"},"vehicle_type_id":"4","last_reported":1727647668,"current_range_meters":35200,"station_id":"ce4bh192rcd13ifvqdd0","pricing_plan_id":"cebpf4jnsgd1na2vs0mg"},{"bike_id":"eeb4b54b-284a-4a51-af38-bfe005d55c3e","system_id":"levelo_inurba_marseille","lat":43.24807,"lon":5.37459,"is_reserved":false,"is_disabled":false,"rental_uris":{"android":"levelo://app?vid=eeb4b54b-284a-4a51-af38-bfe005d55c3e","ios":"levelo://app?vid=eeb4b54b-284a-4a51-af38-bfe005d55c3e"},"vehicle_type_id":"4","last_reported":1727647668,"current_range_meters":38000,"station_id":"ce4bhgh2rcd13ifvqfb0","pricing_plan_id":"cebpf4jnsgd1na2vs0mg"},{"bike_id":"171668e3-af13-4732-95b9-538544a95691","system_id":"levelo_inurba_marseille","lat":43.285072,"lon":5.385725,"is_reserved":false,"is_disabled":false,"rental_uris":{"android":"levelo://app?vid=171668e3-af13-4732-95b9-538544a95691","ios":"levelo://app?vid=171668e3-af13-4732-95b9-538544a95691"},"vehicle_type_id":"4","last_reported":1727647668,"current_range_meters":7200,"station_id":"ce4bgi12rcd13ifvqb70","pricing_plan_id":"cebpf4jnsgd1na2vs0mg"},{"bike_id":"5be4968d-90fd-4a13-9c95-04449a1bec02","system_id":"levelo_inurba_marseille","lat":43.28813,"lon":5.40029,"is_reserved":false,"is_disabled":false,"rental_uris":{"android":"levelo://app?vid=5be4968d-90fd-4a13-9c95-04449a1bec02","ios":"levelo://app?vid=5be4968d-90fd-4a13-9c95-04449a1bec02"},"vehicle_type_id":"4","last_reported":1727647668,"current_range_meters":33600,"station_id":"","pricing_plan_id":"cebpf4jnsgd1na2vs0mg"},{"bike_id":"0c6a3edd-0259-43fd-a8d1-3d4bb6023605","system_id":"levelo_inurba_marseille","lat":43.2439,"lon":5.37053,"is_reserved":false,"is_disabled":false,"rental_uris":{"android":"levelo://app?vid=0c6a3edd-0259-43fd-a8d1-3d4bb6023605","ios":"levelo://app?vid=0c6a3edd-0259-43fd-a8d1-3d4bb6023605"},"vehicle_type_id":"4","last_reported":1727647668,"current_range_meters":38800,"station_id":"ce4bhhh2rcd13ifvqfk0","pricing_plan_id":"cebpf4jnsgd1na2vs0mg"},{"bike_id":"fac2a876-c1ca-45d8-9292-8e7874d4b8de","system_id":"levelo_inurba_marseille","lat":43.31177,"lon":5.38708,"is_reserved":false,"is_disabled":false,"rental_uris":{"android":"levelo://app?vid=fac2a876-c1ca-45d8-9292-8e7874d4b8de","ios":"levelo://app?vid=fac2a876-c1ca-45d8-9292-8e7874d4b8de"},"vehicle_type_id":"4","last_reported":1727647668,"current_range_meters":35600,"station_id":"ce4bgv12rcd13ifvqcp0","pricing_plan_id":"cebpf4jnsgd1na2vs0mg"},{"bike_id":"2984e241-0d85-429f-b743-7e3cc710001b","system_id":"levelo_inurba_marseille","lat":43.2481,"lon":5.3746,"is_reserved":false,"is_disabled":false,"rental_uris":{"android":"levelo://app?vid=2984e241-0d85-429f-b743-7e3cc710001b","ios":"levelo://app?vid=2984e241-0d85-429f-b743-7e3cc710001b"},"vehicle_type_id":"4","last_reported":1727647668,"current_range_meters":20400,"station_id":"ce4bhgh2rcd13ifvqfb0","pricing_plan_id":"cebpf4jnsgd1na2vs0mg"},{"bike_id":"d2e1be36-7c5e-44b0-8899-49fb5f54f6ea","system_id":"levelo_inurba_marseille","lat":43.30861,"lon":5.37137,"is_reserved":false,"is_disabled":false,"rental_uris":{"android":"levelo://app?vid=d2e1be36-7c5e-44b0-8899-49fb5f54f6ea","ios":"levelo://app?vid=d2e1be36-7c5e-44b0-8899-49fb5f54f6ea"},"vehicle_type_id":"4","last_reported":1727647668,"current_range_meters":39200,"station_id":"ce4bguh2rcd13ifvqckg","pricing_plan_id":"cebpf4jnsgd1na2vs0mg"},{"bike_id":"c6cdd776-a8f9-4bfe-af70-cd3b412fbeb3","system_id":"levelo_inurba_marseille","lat":43.25109,"lon":5.40319,"is_reserved":false,"is_disabled":false,"rental_uris":{"android":"levelo://app?vid=c6cdd776-a8f9-4bfe-af70-cd3b412fbeb3","ios":"levelo://app?vid=c6cdd776-a8f9-4bfe-af70-cd3b412fbeb3"},"vehicle_type_id":"4","last_reported":1727647668,"current_range_meters":31200,"station_id":"ce4bhlh2rcd13ifvqgig","pricing_plan_id":"cebpf4jnsgd1na2vs0mg"},{"bike_id":"cf3d3117-7367-4299-a0d1-3e4137ac8fcb","system_id":"levelo_inurba_marseille","lat":43.306135,"lon":5.382987,"is_reserved":false,"is_disabled":false,"rental_uris":{"android":"levelo://app?vid=cf3d3117-7367-4299-a0d1-3e4137ac8fcb","ios":"levelo://app?vid=cf3d3117-7367-4299-a0d1-3e4137ac8fcb"},"vehicle_type_id":"4","last_reported":1727647668,"current_range_meters":32400,"station_id":"ce4bgt12rcd13ifvqce0","pricing_plan_id":"cebpf4jnsgd1na2vs0mg"},{"bike_id":"ce46a156-d0b3-42ea-a724-f29a983e40e7","system_id":"levelo_inurba_marseille","lat":43.28464,"lon":5.35885,"is_reserved":false,"is_disabled":false,"rental_uris":{"android":"levelo://app?vid=ce46a156-d0b3-42ea-a724-f29a983e40e7","ios":"levelo://app?vid=ce46a156-d0b3-42ea-a724-f29a983e40e7"},"vehicle_type_id":"4","last_reported":1727647668,"current_range_meters":28800,"station_id":"ce4bhah2rcd13ifvqei0","pricing_plan_id":"cebpf4jnsgd1na2vs0mg"},{"bike_id":"6a52f468-9bf5-46c2-819d-2c732c18128e","system_id":"levelo_inurba_marseille","lat":43.23965,"lon":5.36616,"is_reserved":false,"is_disabled":false,"rental_uris":{"android":"levelo://app?vid=6a52f468-9bf5-46c2-819d-2c732c18128e","ios":"levelo://app?vid=6a52f468-9bf5-46c2-819d-2c732c18128e"},"vehicle_type_id":"4","last_reported":1727647668,"current_range_meters":33200,"station_id":"ce4bhi12rcd13ifvqfp0","pricing_plan_id":"cebpf4jnsgd1na2vs0mg"},{"bike_id":"c2e4e91c-22c9-44ca-af85-4b0d4deb4a68","system_id":"levelo_inurba_marseille","lat":43.23179,"lon":5.39981,"is_reserved":false,"is_disabled":false,"rental_uris":{"android":"levelo://app?vid=c2e4e91c-22c9-44ca-af85-4b0d4deb4a68","ios":"levelo://app?vid=c2e4e91c-22c9-44ca-af85-4b0d4deb4a68"},"vehicle_type_id":"4","last_reported":1727647668,"current_range_meters":38800,"station_id":"ce4bhn12rcd13ifvqgqg","pricing_plan_id":"cebpf4jnsgd1na2vs0mg"},{"bike_id":"d2084bc9-c4ff-4f4a-9690-b66bb8b978c2","system_id":"levelo_inurba_marseille","lat":43.30141,"lon":5.374,"is_reserved":false,"is_disabled":false,"rental_uris":{"android":"levelo://app?vid=d2084bc9-c4ff-4f4a-9690-b66bb8b978c2","ios":"levelo://app?vid=d2084bc9-c4ff-4f4a-9690-b66bb8b978c2"},"vehicle_type_id":"4","last_reported":1727647668,"current_range_meters":10800,"station_id":"ce4bgs92rcd13ifvqcc0","pricing_plan_id":"cebpf4jnsgd1na2vs0mg"},{"bike_id":"d9614a14-f95d-40a5-beaa-7cd0675a0b19","system_id":"levelo_inurba_marseille","lat":43.30646,"lon":5.40074,"is_reserved":false,"is_disabled":false,"rental_uris":{"android":"levelo://app?vid=d9614a14-f95d-40a5-beaa-7cd0675a0b19","ios":"levelo://app?vid=d9614a14-f95d-40a5-beaa-7cd0675a0b19"},"vehicle_type_id":"4","last_reported":1727647668,"current_range_meters":35200,"station_id":"ce4bh112rcd13ifvqda0","pricing_plan_id":"cebpf4jnsgd1na2vs0mg"},{"bike_id":"8e9ee29d-b361-4f31-a242-a9656a46109c","system_id":"levelo_inurba_marseille","lat":43.31259,"lon":5.40183,"is_reserved":false,"is_disabled":false,"rental_uris":{"android":"levelo://app?vid=8e9ee29d-b361-4f31-a242-a9656a46109c","ios":"levelo://app?vid=8e9ee29d-b361-4f31-a242-a9656a46109c"},"vehicle_type_id":"4","last_reported":1727647668,"current_range_meters":17200,"station_id":"ce4bh092rcd13ifvqd30","pricing_plan_id":"cebpf4jnsgd1na2vs0mg"},{"bike_id":"02ff239a-a163-4944-a8bd-470b8c379b68","system_id":"levelo_inurba_marseille","lat":43.23956,"lon":5.36636,"is_reserved":false,"is_disabled":false,"rental_uris":{"android":"levelo://app?vid=02ff239a-a163-4944-a8bd-470b8c379b68","ios":"levelo://app?vid=02ff239a-a163-4944-a8bd-470b8c379b68"},"vehicle_type_id":"4","last_reported":1727647668,"current_range_meters":38800,"station_id":"ce4bhi12rcd13ifvqfp0","pricing_plan_id":"cebpf4jnsgd1na2vs0mg"},{"bike_id":"015d58c6-d6ac-4661-aca9-2b1f17db591c","system_id":"levelo_inurba_marseille","lat":43.286763,"lon":5.386888,"is_reserved":false,"is_disabled":false,"rental_uris":{"android":"levelo://app?vid=015d58c6-d6ac-4661-aca9-2b1f17db591c","ios":"levelo://app?vid=015d58c6-d6ac-4661-aca9-2b1f17db591c"},"vehicle_type_id":"4","last_reported":1727647668,"current_range_meters":30800,"station_id":"","pricing_plan_id":"cebpf4jnsgd1na2vs0mg"},{"bike_id":"108037a8-4c83-4800-bc90-6ac1fc11325b","system_id":"levelo_inurba_marseille","lat":43.30311,"lon":5.36892,"is_reserved":false,"is_disabled":false,"rental_uris":{"android":"levelo://app?vid=108037a8-4c83-4800-bc90-6ac1fc11325b","ios":"levelo://app?vid=108037a8-4c83-4800-bc90-6ac1fc11325b"},"vehicle_type_id":"4","last_reported":1727647668,"current_range_meters":30400,"station_id":"ce4bgqh2rcd13ifvqc5g","pricing_plan_id":"cebpf4jnsgd1na2vs0mg"},{"bike_id":"9cab4b77-e73b-485b-9196-05681379298d","system_id":"levelo_inurba_marseille","lat":43.32318,"lon":5.38286,"is_reserved":false,"is_disabled":false,"rental_uris":{"android":"levelo://app?vid=9cab4b77-e73b-485b-9196-05681379298d","ios":"levelo://app?vid=9cab4b77-e73b-485b-9196-05681379298d"},"vehicle_type_id":"4","last_reported":1727647668,"current_range_meters":36400,"station_id":"ce4bhr12rcd13ifvqhqg","pricing_plan_id":"cebpf4jnsgd1na2vs0mg"},{"bike_id":"806088eb-7645-4189-b537-b59c2ddf8129","system_id":"levelo_inurba_marseille","lat":43.29873,"lon":5.38902,"is_reserved":false,"is_disabled":false,"rental_uris":{"android":"levelo://app?vid=806088eb-7645-4189-b537-b59c2ddf8129","ios":"levelo://app?vid=806088eb-7645-4189-b537-b59c2ddf8129"},"vehicle_type_id":"4","last_reported":1727647668,"current_range_meters":38800,"station_id":"ce4bh392rcd13ifvqdl0","pricing_plan_id":"cebpf4jnsgd1na2vs0mg"},{"bike_id":"691cc2ed-9094-472f-8b35-466f1924ad13","system_id":"levelo_inurba_marseille","lat":43.31378,"lon":5.38497,"is_reserved":false,"is_disabled":false,"rental_uris":{"android":"levelo://app?vid=691cc2ed-9094-472f-8b35-466f1924ad13","ios":"levelo://app?vid=691cc2ed-9094-472f-8b35-466f1924ad13"},"vehicle_type_id":"4","last_reported":1727647668,"current_range_meters":24800,"station_id":"ce4bgt92rcd13ifvqcf0","pricing_plan_id":"cebpf4jnsgd1na2vs0mg"},{"bike_id":"395bd0c2-16cc-436d-af25-16bfafd3d0ef","system_id":"levelo_inurba_marseille","lat":43.30961,"lon":5.3904,"is_reserved":false,"is_disabled":false,"rental_uris":{"android":"levelo://app?vid=395bd0c2-16cc-436d-af25-16bfafd3d0ef","ios":"levelo://app?vid=395bd0c2-16cc-436d-af25-16bfafd3d0ef"},"vehicle_type_id":"4","last_reported":1727647668,"current_range_meters":15200,"station_id":"ce4bgup2rcd13ifvqco0","pricing_plan_id":"cebpf4jnsgd1na2vs0mg"},{"bike_id":"b60dce8c-09c4-4c52-8770-95d209f08890","system_id":"levelo_inurba_marseille","lat":43.29871,"lon":5.39735,"is_reserved":false,"is_disabled":false,"rental_uris":{"android":"levelo://app?vid=b60dce8c-09c4-4c52-8770-95d209f08890","ios":"levelo://app?vid=b60dce8c-09c4-4c52-8770-95d209f08890"},"vehicle_type_id":"4","last_reported":1727647668,"current_range_meters":38800,"station_id":"ce4bh0h2rcd13ifvqd50","pricing_plan_id":"cebpf4jnsgd1na2vs0mg"},{"bike_id":"f45711f0-e8e8-402d-9f64-2758c05d0296","system_id":"levelo_inurba_marseille","lat":43.25581,"lon":5.38241,"is_reserved":false,"is_disabled":false,"rental_uris":{"android":"levelo://app?vid=f45711f0-e8e8-402d-9f64-2758c05d0296","ios":"levelo://app?vid=f45711f0-e8e8-402d-9f64-2758c05d0296"},"vehicle_type_id":"4","last_reported":1727647668,"current_range_meters":28400,"station_id":"ce4bhih2rcd13ifvqfs0","pricing_plan_id":"cebpf4jnsgd1na2vs0mg"},{"bike_id":"5b4a633f-0b63-474b-abd4-9003a7b86eed","system_id":"levelo_inurba_marseille","lat":43.32335,"lon":5.40618,"is_reserved":false,"is_disabled":false,"rental_uris":{"android":"levelo://app?vid=5b4a633f-0b63-474b-abd4-9003a7b86eed","ios":"levelo://app?vid=5b4a633f-0b63-474b-abd4-9003a7b86eed"},"vehicle_type_id":"4","last_reported":1727647668,"current_range_meters":39200,"station_id":"ce4bhq92rcd13ifvqhjg","pricing_plan_id":"cebpf4jnsgd1na2vs0mg"},{"bike_id":"f317aa86-5363-4257-8ca7-06b8ea9f26bb","system_id":"levelo_inurba_marseille","lat":43.31533,"lon":5.38025,"is_reserved":false,"is_disabled":false,"rental_uris":{"android":"levelo://app?vid=f317aa86-5363-4257-8ca7-06b8ea9f26bb","ios":"levelo://app?vid=f317aa86-5363-4257-8ca7-06b8ea9f26bb"},"vehicle_type_id":"4","last_reported":1727647668,"current_range_meters":30800,"station_id":"ce4bhsp2rcd13ifvqi50","pricing_plan_id":"cebpf4jnsgd1na2vs0mg"},{"bike_id":"38ee35b9-0713-42c5-8f9b-101cceaa88a9","system_id":"levelo_inurba_marseille","lat":43.24663,"lon":5.38166,"is_reserved":false,"is_disabled":false,"rental_uris":{"android":"levelo://app?vid=38ee35b9-0713-42c5-8f9b-101cceaa88a9","ios":"levelo://app?vid=38ee35b9-0713-42c5-8f9b-101cceaa88a9"},"vehicle_type_id":"4","last_reported":1727647668,"current_range_meters":10000,"station_id":"ce4bhih2rcd13ifvqfr0","pricing_plan_id":"cebpf4jnsgd1na2vs0mg"},{"bike_id":"e150718b-3b11-4746-aaf5-ed9fe54bd243","system_id":"levelo_inurba_marseille","lat":43.24078,"lon":5.37745,"is_reserved":false,"is_disabled":false,"rental_uris":{"android":"levelo://app?vid=e150718b-3b11-4746-aaf5-ed9fe54bd243","ios":"levelo://app?vid=e150718b-3b11-4746-aaf5-ed9fe54bd243"},"vehicle_type_id":"4","last_reported":1727647668,"current_range_meters":15200,"station_id":"ce4bhnp2rcd13ifvqgvg","pricing_plan_id":"cebpf4jnsgd1na2vs0mg"},{"bike_id":"5346e7a2-e1c2-46db-bb9f-77125f9b3250","system_id":"levelo_inurba_marseille","lat":43.28709,"lon":5.37926,"is_reserved":false,"is_disabled":false,"rental_uris":{"android":"levelo://app?vid=5346e7a2-e1c2-46db-bb9f-77125f9b3250","ios":"levelo://app?vid=5346e7a2-e1c2-46db-bb9f-77125f9b3250"},"vehicle_type_id":"4","last_reported":1727647668,"current_range_meters":29600,"station_id":"ce4bh9p2rcd13ifvqec0","pricing_plan_id":"cebpf4jnsgd1na2vs0mg"},{"bike_id":"73bc85b9-959b-4487-b86b-75e0a4fe28a2","system_id":"levelo_inurba_marseille","lat":43.27064,"lon":5.42281,"is_reserved":false,"is_disabled":false,"rental_uris":{"android":"levelo://app?vid=73bc85b9-959b-4487-b86b-75e0a4fe28a2","ios":"levelo://app?vid=73bc85b9-959b-4487-b86b-75e0a4fe28a2"},"vehicle_type_id":"4","last_reported":1727647668,"current_range_meters":28000,"station_id":"ce4bhk92rcd13ifvqgb0","pricing_plan_id":"cebpf4jnsgd1na2vs0mg"},{"bike_id":"883dbd06-c2fc-4488-9b5e-ef4f05339f9b","system_id":"levelo_inurba_marseille","lat":43.30213,"lon":5.36624,"is_reserved":false,"is_disabled":false,"rental_uris":{"android":"levelo://app?vid=883dbd06-c2fc-4488-9b5e-ef4f05339f9b","ios":"levelo://app?vid=883dbd06-c2fc-4488-9b5e-ef4f05339f9b"},"vehicle_type_id":"4","last_reported":1727647668,"current_range_meters":28000,"station_id":"ce4bgrh2rcd13ifvqc8g","pricing_plan_id":"cebpf4jnsgd1na2vs0mg"},{"bike_id":"6c8b138c-21e2-45bf-a989-ce45493ac988","system_id":"levelo_inurba_marseille","lat":43.23201,"lon":5.35543,"is_reserved":false,"is_disabled":false,"rental_uris":{"android":"levelo://app?vid=6c8b138c-21e2-45bf-a989-ce45493ac988","ios":"levelo://app?vid=6c8b138c-21e2-45bf-a989-ce45493ac988"},"vehicle_type_id":"4","last_reported":1727647668,"current_range_meters":38400,"station_id":"ce4bhu92rcd13ifvqi70","pricing_plan_id":"cebpf4jnsgd1na2vs0mg"},{"bike_id":"61b80206-8211-4df0-b90b-eee6dba44a64","system_id":"levelo_inurba_marseille","lat":43.27546,"lon":5.38427,"is_reserved":false,"is_disabled":false,"rental_uris":{"android":"levelo://app?vid=61b80206-8211-4df0-b90b-eee6dba44a64","ios":"levelo://app?vid=61b80206-8211-4df0-b90b-eee6dba44a64"},"vehicle_type_id":"4","last_reported":1727647668,"current_range_meters":22800,"station_id":"ce4bhh92rcd13ifvqfi0","pricing_plan_id":"cebpf4jnsgd1na2vs0mg"},{"bike_id":"cf2a99f0-171d-46e2-b5f9-b8e518581e33","system_id":"levelo_inurba_marseille","lat":43.23966,"lon":5.36624,"is_reserved":false,"is_disabled":false,"rental_uris":{"android":"levelo://app?vid=cf2a99f0-171d-46e2-b5f9-b8e518581e33","ios":"levelo://app?vid=cf2a99f0-171d-46e2-b5f9-b8e518581e33"},"vehicle_type_id":"4","last_reported":1727647668,"current_range_meters":30800,"station_id":"ce4bhi12rcd13ifvqfp0","pricing_plan_id":"cebpf4jnsgd1na2vs0mg"},{"bike_id":"06b0b27b-bc9b-42ef-b165-9c5e2046e3e4","system_id":"levelo_inurba_marseille","lat":43.26799,"lon":5.40263,"is_reserved":false,"is_disabled":false,"rental_uris":{"android":"levelo://app?vid=06b0b27b-bc9b-42ef-b165-9c5e2046e3e4","ios":"levelo://app?vid=06b0b27b-bc9b-42ef-b165-9c5e2046e3e4"},"vehicle_type_id":"4","last_reported":1727647668,"current_range_meters":39200,"station_id":"ce501612rcd8frsf0b60","pricing_plan_id":"cebpf4jnsgd1na2vs0mg"},{"bike_id":"9e50a152-d512-4233-b1a7-4e973aac645b","system_id":"levelo_inurba_marseille","lat":43.29786,"lon":5.39345,"is_reserved":false,"is_disabled":false,"rental_uris":{"android":"levelo://app?vid=9e50a152-d512-4233-b1a7-4e973aac645b","ios":"levelo://app?vid=9e50a152-d512-4233-b1a7-4e973aac645b"},"vehicle_type_id":"4","last_reported":1727647668,"current_range_meters":20800,"station_id":"chh1huq6cuj3fo74tm60","pricing_plan_id":"cebpf4jnsgd1na2vs0mg"},{"bike_id":"6427a805-0f66-4346-96b4-4be0ebb43bb5","system_id":"levelo_inurba_marseille","lat":43.32365,"lon":5.38885,"is_reserved":false,"is_disabled":false,"rental_uris":{"android":"levelo://app?vid=6427a805-0f66-4346-96b4-4be0ebb43bb5","ios":"levelo://app?vid=6427a805-0f66-4346-96b4-4be0ebb43bb5"},"vehicle_type_id":"4","last_reported":1727647668,"current_range_meters":26800,"station_id":"ce4bhqp2rcd13ifvqhog","pricing_plan_id":"cebpf4jnsgd1na2vs0mg"},{"bike_id":"2a4d60ed-0036-4d0a-9a2c-e92d5d5104d0","system_id":"levelo_inurba_marseille","lat":43.292743,"lon":5.384482,"is_reserved":false,"is_disabled":false,"rental_uris":{"android":"levelo://app?vid=2a4d60ed-0036-4d0a-9a2c-e92d5d5104d0","ios":"levelo://app?vid=2a4d60ed-0036-4d0a-9a2c-e92d5d5104d0"},"vehicle_type_id":"4","last_reported":1727647668,"current_range_meters":34800,"station_id":"ce4bh692rcd13ifvqea0","pricing_plan_id":"cebpf4jnsgd1na2vs0mg"},{"bike_id":"bcb5ef74-cf8a-40af-9e9f-d416925dc622","system_id":"levelo_inurba_marseille","lat":43.2952,"lon":5.39035,"is_reserved":false,"is_disabled":false,"rental_uris":{"android":"levelo://app?vid=bcb5ef74-cf8a-40af-9e9f-d416925dc622","ios":"levelo://app?vid=bcb5ef74-cf8a-40af-9e9f-d416925dc622"},"vehicle_type_id":"4","last_reported":1727647668,"current_range_meters":26000,"station_id":"ce4bh3p2rcd13ifvqdp0","pricing_plan_id":"cebpf4jnsgd1na2vs0mg"},{"bike_id":"52f17877-110a-422d-89ae-fdeda162e6f3","system_id":"levelo_inurba_marseille","lat":43.23959,"lon":5.36631,"is_reserved":false,"is_disabled":false,"rental_uris":{"android":"levelo://app?vid=52f17877-110a-422d-89ae-fdeda162e6f3","ios":"levelo://app?vid=52f17877-110a-422d-89ae-fdeda162e6f3"},"vehicle_type_id":"4","last_reported":1727647668,"current_range_meters":4800,"station_id":"ce4bhi12rcd13ifvqfp0","pricing_plan_id":"cebpf4jnsgd1na2vs0mg"},{"bike_id":"306b57b5-0aa3-40e2-a129-4df713bbc6fc","system_id":"levelo_inurba_marseille","lat":43.28703,"lon":5.39986,"is_reserved":false,"is_disabled":false,"rental_uris":{"android":"levelo://app?vid=306b57b5-0aa3-40e2-a129-4df713bbc6fc","ios":"levelo://app?vid=306b57b5-0aa3-40e2-a129-4df713bbc6fc"},"vehicle_type_id":"4","last_reported":1727647668,"current_range_meters":35600,"station_id":"ce4bho92rcd13ifvqh3g","pricing_plan_id":"cebpf4jnsgd1na2vs0mg"},{"bike_id":"e9c9a824-77dd-4a8d-b5f7-16a11637475b","system_id":"levelo_inurba_marseille","lat":43.32548,"lon":5.41439,"is_reserved":false,"is_disabled":false,"rental_uris":{"android":"levelo://app?vid=e9c9a824-77dd-4a8d-b5f7-16a11637475b","ios":"levelo://app?vid=e9c9a824-77dd-4a8d-b5f7-16a11637475b"},"vehicle_type_id":"4","last_reported":1727647668,"current_range_meters":39200,"station_id":"ce4bhq12rcd13ifvqhhg","pricing_plan_id":"cebpf4jnsgd1na2vs0mg"},{"bike_id":"f8b18255-c3e2-4e84-b3b5-d53a069d9e0c","system_id":"levelo_inurba_marseille","lat":43.23963,"lon":5.36635,"is_reserved":false,"is_disabled":false,"rental_uris":{"android":"levelo://app?vid=f8b18255-c3e2-4e84-b3b5-d53a069d9e0c","ios":"levelo://app?vid=f8b18255-c3e2-4e84-b3b5-d53a069d9e0c"},"vehicle_type_id":"4","last_reported":1727647668,"current_range_meters":4800,"station_id":"ce4bhi12rcd13ifvqfp0","pricing_plan_id":"cebpf4jnsgd1na2vs0mg"},{"bike_id":"d87af6af-7ad4-4bce-96ae-080c876cc48c","system_id":"levelo_inurba_marseille","lat":43.24392,"lon":5.37061,"is_reserved":false,"is_disabled":false,"rental_uris":{"android":"levelo://app?vid=d87af6af-7ad4-4bce-96ae-080c876cc48c","ios":"levelo://app?vid=d87af6af-7ad4-4bce-96ae-080c876cc48c"},"vehicle_type_id":"4","last_reported":1727647668,"current_range_meters":38800,"station_id":"ce4bhhh2rcd13ifvqfk0","pricing_plan_id":"cebpf4jnsgd1na2vs0mg"},{"bike_id":"124cc49e-bc3f-4ee2-96b6-78f4c29aba27","system_id":"levelo_inurba_marseille","lat":43.25001,"lon":5.3892,"is_reserved":false,"is_disabled":false,"rental_uris":{"android":"levelo://app?vid=124cc49e-bc3f-4ee2-96b6-78f4c29aba27","ios":"levelo://app?vid=124cc49e-bc3f-4ee2-96b6-78f4c29aba27"},"vehicle_type_id":"4","last_reported":1727647668,"current_range_meters":20800,"station_id":"ce4bhgp2rcd13ifvqfd0","pricing_plan_id":"cebpf4jnsgd1na2vs0mg"},{"bike_id":"fd14ba81-3f44-4ac1-b066-8941269a20c6","system_id":"levelo_inurba_marseille","lat":43.29244,"lon":5.42682,"is_reserved":false,"is_disabled":false,"rental_uris":{"android":"levelo://app?vid=fd14ba81-3f44-4ac1-b066-8941269a20c6","ios":"levelo://app?vid=fd14ba81-3f44-4ac1-b066-8941269a20c6"},"vehicle_type_id":"4","last_reported":1727647668,"current_range_meters":16800,"station_id":"ce4bhnh2rcd13ifvqgug","pricing_plan_id":"cebpf4jnsgd1na2vs0mg"},{"bike_id":"d68626d3-b38e-4eab-bcdd-30642681f59d","system_id":"levelo_inurba_marseille","lat":43.30884,"lon":5.39632,"is_reserved":false,"is_disabled":false,"rental_uris":{"android":"levelo://app?vid=d68626d3-b38e-4eab-bcdd-30642681f59d","ios":"levelo://app?vid=d68626d3-b38e-4eab-bcdd-30642681f59d"},"vehicle_type_id":"4","last_reported":1727647668,"current_range_meters":4000,"station_id":"ce4bh012rcd13ifvqcv0","pricing_plan_id":"cebpf4jnsgd1na2vs0mg"},{"bike_id":"f8a61521-df5a-4c6b-ba30-9a18625134fc","system_id":"levelo_inurba_marseille","lat":43.26685,"lon":5.38267,"is_reserved":false,"is_disabled":false,"rental_uris":{"android":"levelo://app?vid=f8a61521-df5a-4c6b-ba30-9a18625134fc","ios":"levelo://app?vid=f8a61521-df5a-4c6b-ba30-9a18625134fc"},"vehicle_type_id":"4","last_reported":1727647668,"current_range_meters":38800,"station_id":"ce4bhg92rcd13ifvqf90","pricing_plan_id":"cebpf4jnsgd1na2vs0mg"},{"bike_id":"bd361e97-30d0-4702-9649-73d68261767f","system_id":"levelo_inurba_marseille","lat":43.29036,"lon":5.3997,"is_reserved":false,"is_disabled":false,"rental_uris":{"android":"levelo://app?vid=bd361e97-30d0-4702-9649-73d68261767f","ios":"levelo://app?vid=bd361e97-30d0-4702-9649-73d68261767f"},"vehicle_type_id":"4","last_reported":1727647668,"current_range_meters":6400,"station_id":"ce4bh392rcd13ifvqdm0","pricing_plan_id":"cebpf4jnsgd1na2vs0mg"},{"bike_id":"a778effa-363a-460e-bdcc-b870adfe3751","system_id":"levelo_inurba_marseille","lat":43.297,"lon":5.3659,"is_reserved":false,"is_disabled":false,"rental_uris":{"android":"levelo://app?vid=a778effa-363a-460e-bdcc-b870adfe3751","ios":"levelo://app?vid=a778effa-363a-460e-bdcc-b870adfe3751"},"vehicle_type_id":"4","last_reported":1727647668,"current_range_meters":10000,"station_id":"ce4bgn12rcd13ifvqbt0","pricing_plan_id":"cebpf4jnsgd1na2vs0mg"},{"bike_id":"ded7c34d-2345-47c9-835d-dc3c344079ef","system_id":"levelo_inurba_marseille","lat":43.29557,"lon":5.42274,"is_reserved":false,"is_disabled":false,"rental_uris":{"android":"levelo://app?vid=ded7c34d-2345-47c9-835d-dc3c344079ef","ios":"levelo://app?vid=ded7c34d-2345-47c9-835d-dc3c344079ef"},"vehicle_type_id":"4","last_reported":1727647668,"current_range_meters":29600,"station_id":"ce4bhph2rcd13ifvqhdg","pricing_plan_id":"cebpf4jnsgd1na2vs0mg"},{"bike_id":"e1a95736-b2e1-4fb6-93af-8f2be10af632","system_id":"levelo_inurba_marseille","lat":43.25108,"lon":5.40329,"is_reserved":false,"is_disabled":false,"rental_uris":{"android":"levelo://app?vid=e1a95736-b2e1-4fb6-93af-8f2be10af632","ios":"levelo://app?vid=e1a95736-b2e1-4fb6-93af-8f2be10af632"},"vehicle_type_id":"4","last_reported":1727647668,"current_range_meters":38800,"station_id":"ce4bhlh2rcd13ifvqgig","pricing_plan_id":"cebpf4jnsgd1na2vs0mg"},{"bike_id":"a19575a6-df26-4cef-9c23-66c2680d0499","system_id":"levelo_inurba_marseille","lat":43.29203,"lon":5.3934,"is_reserved":false,"is_disabled":false,"rental_uris":{"android":"levelo://app?vid=a19575a6-df26-4cef-9c23-66c2680d0499","ios":"levelo://app?vid=a19575a6-df26-4cef-9c23-66c2680d0499"},"vehicle_type_id":"4","last_reported":1727647668,"current_range_meters":35200,"station_id":"ce4bh192rcd13ifvqdd0","pricing_plan_id":"cebpf4jnsgd1na2vs0mg"},{"bike_id":"7783cbb7-0ab7-4f4c-9612-9e4f22942bc7","system_id":"levelo_inurba_marseille","lat":43.27054,"lon":5.40262,"is_reserved":false,"is_disabled":false,"rental_uris":{"android":"levelo://app?vid=7783cbb7-0ab7-4f4c-9612-9e4f22942bc7","ios":"levelo://app?vid=7783cbb7-0ab7-4f4c-9612-9e4f22942bc7"},"vehicle_type_id":"4","last_reported":1727647668,"current_range_meters":24400,"station_id":"ce4bhk92rcd13ifvqgc0","pricing_plan_id":"cebpf4jnsgd1na2vs0mg"},{"bike_id":"c464bef0-fd18-414e-a883-ea989398668d","system_id":"levelo_inurba_marseille","lat":43.25108,"lon":5.40324,"is_reserved":false,"is_disabled":false,"rental_uris":{"android":"levelo://app?vid=c464bef0-fd18-414e-a883-ea989398668d","ios":"levelo://app?vid=c464bef0-fd18-414e-a883-ea989398668d"},"vehicle_type_id":"4","last_reported":1727647668,"current_range_meters":34800,"station_id":"ce4bhlh2rcd13ifvqgig","pricing_plan_id":"cebpf4jnsgd1na2vs0mg"},{"bike_id":"85a7ce6d-c78a-4356-8d69-4e768e529bde","system_id":"levelo_inurba_marseille","lat":43.32263,"lon":5.40649,"is_reserved":false,"is_disabled":false,"rental_uris":{"android":"levelo://app?vid=85a7ce6d-c78a-4356-8d69-4e768e529bde","ios":"levelo://app?vid=85a7ce6d-c78a-4356-8d69-4e768e529bde"},"vehicle_type_id":"4","last_reported":1727647668,"current_range_meters":28400,"station_id":"","pricing_plan_id":"cebpf4jnsgd1na2vs0mg"},{"bike_id":"18b188e6-aa6a-4bd7-ad05-6ca16854b93f","system_id":"levelo_inurba_marseille","lat":43.27067,"lon":5.42281,"is_reserved":false,"is_disabled":false,"rental_uris":{"android":"levelo://app?vid=18b188e6-aa6a-4bd7-ad05-6ca16854b93f","ios":"levelo://app?vid=18b188e6-aa6a-4bd7-ad05-6ca16854b93f"},"vehicle_type_id":"4","last_reported":1727647668,"current_range_meters":38800,"station_id":"ce4bhk92rcd13ifvqgb0","pricing_plan_id":"cebpf4jnsgd1na2vs0mg"},{"bike_id":"408d9401-5194-45b1-948e-a2c15040c41f","system_id":"levelo_inurba_marseille","lat":43.2319,"lon":5.35545,"is_reserved":false,"is_disabled":false,"rental_uris":{"android":"levelo://app?vid=408d9401-5194-45b1-948e-a2c15040c41f","ios":"levelo://app?vid=408d9401-5194-45b1-948e-a2c15040c41f"},"vehicle_type_id":"4","last_reported":1727647668,"current_range_meters":14000,"station_id":"ce4bhu92rcd13ifvqi70","pricing_plan_id":"cebpf4jnsgd1na2vs0mg"},{"bike_id":"94fdfe10-8c09-41e0-b800-38c859b3f321","system_id":"levelo_inurba_marseille","lat":43.32903,"lon":5.39066,"is_reserved":false,"is_disabled":false,"rental_uris":{"android":"levelo://app?vid=94fdfe10-8c09-41e0-b800-38c859b3f321","ios":"levelo://app?vid=94fdfe10-8c09-41e0-b800-38c859b3f321"},"vehicle_type_id":"4","last_reported":1727647668,"current_range_meters":36400,"station_id":"","pricing_plan_id":"cebpf4jnsgd1na2vs0mg"},{"bike_id":"408a7762-e992-4738-9665-4e6b4d5116b5","system_id":"levelo_inurba_marseille","lat":43.28656,"lon":5.35145,"is_reserved":false,"is_disabled":false,"rental_uris":{"android":"levelo://app?vid=408a7762-e992-4738-9665-4e6b4d5116b5","ios":"levelo://app?vid=408a7762-e992-4738-9665-4e6b4d5116b5"},"vehicle_type_id":"4","last_reported":1727647668,"current_range_meters":36000,"station_id":"ce4bh3p2rcd13ifvqdq0","pricing_plan_id":"cebpf4jnsgd1na2vs0mg"},{"bike_id":"aea063c5-9cf8-460f-bb4d-076d17831be1","system_id":"levelo_inurba_marseille","lat":43.28919,"lon":5.38384,"is_reserved":false,"is_disabled":false,"rental_uris":{"android":"levelo://app?vid=aea063c5-9cf8-460f-bb4d-076d17831be1","ios":"levelo://app?vid=aea063c5-9cf8-460f-bb4d-076d17831be1"},"vehicle_type_id":"4","last_reported":1727647668,"current_range_meters":36000,"station_id":"ce4bh612rcd13ifvqe6g","pricing_plan_id":"cebpf4jnsgd1na2vs0mg"},{"bike_id":"9276d8e2-37c1-4220-935d-fa18aca66389","system_id":"levelo_inurba_marseille","lat":43.291874,"lon":5.393115,"is_reserved":false,"is_disabled":false,"rental_uris":{"android":"levelo://app?vid=9276d8e2-37c1-4220-935d-fa18aca66389","ios":"levelo://app?vid=9276d8e2-37c1-4220-935d-fa18aca66389"},"vehicle_type_id":"4","last_reported":1727647668,"current_range_meters":36800,"station_id":"ce4bh192rcd13ifvqdd0","pricing_plan_id":"cebpf4jnsgd1na2vs0mg"},{"bike_id":"078024eb-8d93-49e8-aa9b-94cdb7e0550d","system_id":"levelo_inurba_marseille","lat":43.301,"lon":5.39067,"is_reserved":false,"is_disabled":false,"rental_uris":{"android":"levelo://app?vid=078024eb-8d93-49e8-aa9b-94cdb7e0550d","ios":"levelo://app?vid=078024eb-8d93-49e8-aa9b-94cdb7e0550d"},"vehicle_type_id":"4","last_reported":1727647668,"current_range_meters":17600,"station_id":"ce4bh192rcd13ifvqdb0","pricing_plan_id":"cebpf4jnsgd1na2vs0mg"},{"bike_id":"6c1daff6-f54d-4648-b1a6-371a827d8209","system_id":"levelo_inurba_marseille","lat":43.33021,"lon":5.39043,"is_reserved":false,"is_disabled":false,"rental_uris":{"android":"levelo://app?vid=6c1daff6-f54d-4648-b1a6-371a827d8209","ios":"levelo://app?vid=6c1daff6-f54d-4648-b1a6-371a827d8209"},"vehicle_type_id":"4","last_reported":1727647668,"current_range_meters":38800,"station_id":"ce4bhr92rcd13ifvqhrg","pricing_plan_id":"cebpf4jnsgd1na2vs0mg"},{"bike_id":"40af7eb4-6cd7-462c-b9fb-34273e78aa71","system_id":"levelo_inurba_marseille","lat":43.24075,"lon":5.37759,"is_reserved":false,"is_disabled":false,"rental_uris":{"android":"levelo://app?vid=40af7eb4-6cd7-462c-b9fb-34273e78aa71","ios":"levelo://app?vid=40af7eb4-6cd7-462c-b9fb-34273e78aa71"},"vehicle_type_id":"4","last_reported":1727647668,"current_range_meters":9200,"station_id":"ce4bhnp2rcd13ifvqgvg","pricing_plan_id":"cebpf4jnsgd1na2vs0mg"},{"bike_id":"55b9e4b2-af8b-41a1-93e5-6004b819fac8","system_id":"levelo_inurba_marseille","lat":43.28462,"lon":5.35894,"is_reserved":false,"is_disabled":false,"rental_uris":{"android":"levelo://app?vid=55b9e4b2-af8b-41a1-93e5-6004b819fac8","ios":"levelo://app?vid=55b9e4b2-af8b-41a1-93e5-6004b819fac8"},"vehicle_type_id":"4","last_reported":1727647668,"current_range_meters":10800,"station_id":"ce4bhah2rcd13ifvqei0","pricing_plan_id":"cebpf4jnsgd1na2vs0mg"},{"bike_id":"a63d4449-4f5a-4f1c-9a3c-27c8d74bd2a3","system_id":"levelo_inurba_marseille","lat":43.24395,"lon":5.37063,"is_reserved":false,"is_disabled":false,"rental_uris":{"android":"levelo://app?vid=a63d4449-4f5a-4f1c-9a3c-27c8d74bd2a3","ios":"levelo://app?vid=a63d4449-4f5a-4f1c-9a3c-27c8d74bd2a3"},"vehicle_type_id":"4","last_reported":1727647668,"current_range_meters":8400,"station_id":"ce4bhhh2rcd13ifvqfk0","pricing_plan_id":"cebpf4jnsgd1na2vs0mg"},{"bike_id":"f0d756a4-9211-4b22-83eb-7505e550378a","system_id":"levelo_inurba_marseille","lat":43.28426,"lon":5.34983,"is_reserved":false,"is_disabled":false,"rental_uris":{"android":"levelo://app?vid=f0d756a4-9211-4b22-83eb-7505e550378a","ios":"levelo://app?vid=f0d756a4-9211-4b22-83eb-7505e550378a"},"vehicle_type_id":"4","last_reported":1727647668,"current_range_meters":33200,"station_id":"ce4bhbh2rcd13ifvqepg","pricing_plan_id":"cebpf4jnsgd1na2vs0mg"},{"bike_id":"029c5ad5-e943-4c73-a9a6-69f56245669d","system_id":"levelo_inurba_marseille","lat":43.23963,"lon":5.36622,"is_reserved":false,"is_disabled":false,"rental_uris":{"android":"levelo://app?vid=029c5ad5-e943-4c73-a9a6-69f56245669d","ios":"levelo://app?vid=029c5ad5-e943-4c73-a9a6-69f56245669d"},"vehicle_type_id":"4","last_reported":1727647668,"current_range_meters":38800,"station_id":"ce4bhi12rcd13ifvqfp0","pricing_plan_id":"cebpf4jnsgd1na2vs0mg"},{"bike_id":"7eda30fe-d024-4258-b0e3-cac7d23be01b","system_id":"levelo_inurba_marseille","lat":43.24809,"lon":5.37456,"is_reserved":false,"is_disabled":false,"rental_uris":{"android":"levelo://app?vid=7eda30fe-d024-4258-b0e3-cac7d23be01b","ios":"levelo://app?vid=7eda30fe-d024-4258-b0e3-cac7d23be01b"},"vehicle_type_id":"4","last_reported":1727647668,"current_range_meters":22400,"station_id":"ce4bhgh2rcd13ifvqfb0","pricing_plan_id":"cebpf4jnsgd1na2vs0mg"},{"bike_id":"4dcb809b-3292-4776-8893-7eaa35d8ecd3","system_id":"levelo_inurba_marseille","lat":43.2987,"lon":5.39735,"is_reserved":false,"is_disabled":false,"rental_uris":{"android":"levelo://app?vid=4dcb809b-3292-4776-8893-7eaa35d8ecd3","ios":"levelo://app?vid=4dcb809b-3292-4776-8893-7eaa35d8ecd3"},"vehicle_type_id":"4","last_reported":1727647668,"current_range_meters":20000,"station_id":"ce4bh0h2rcd13ifvqd50","pricing_plan_id":"cebpf4jnsgd1na2vs0mg"},{"bike_id":"9b5c8671-60f5-4270-a7f1-4b1f61657b16","system_id":"levelo_inurba_marseille","lat":43.25114,"lon":5.40318,"is_reserved":false,"is_disabled":false,"rental_uris":{"android":"levelo://app?vid=9b5c8671-60f5-4270-a7f1-4b1f61657b16","ios":"levelo://app?vid=9b5c8671-60f5-4270-a7f1-4b1f61657b16"},"vehicle_type_id":"4","last_reported":1727647668,"current_range_meters":38800,"station_id":"ce4bhlh2rcd13ifvqgig","pricing_plan_id":"cebpf4jnsgd1na2vs0mg"},{"bike_id":"aed00bc5-cb73-4d97-b65f-9d72ac1bbcc0","system_id":"levelo_inurba_marseille","lat":43.30373,"lon":5.39302,"is_reserved":false,"is_disabled":false,"rental_uris":{"android":"levelo://app?vid=aed00bc5-cb73-4d97-b65f-9d72ac1bbcc0","ios":"levelo://app?vid=aed00bc5-cb73-4d97-b65f-9d72ac1bbcc0"},"vehicle_type_id":"4","last_reported":1727647668,"current_range_meters":24400,"station_id":"","pricing_plan_id":"cebpf4jnsgd1na2vs0mg"},{"bike_id":"8bd4d1bb-8d78-40d5-b4f7-984df59cf0ce","system_id":"levelo_inurba_marseille","lat":43.31062,"lon":5.38346,"is_reserved":false,"is_disabled":false,"rental_uris":{"android":"levelo://app?vid=8bd4d1bb-8d78-40d5-b4f7-984df59cf0ce","ios":"levelo://app?vid=8bd4d1bb-8d78-40d5-b4f7-984df59cf0ce"},"vehicle_type_id":"4","last_reported":1727647668,"current_range_meters":9600,"station_id":"ce4bgv92rcd13ifvqcr0","pricing_plan_id":"cebpf4jnsgd1na2vs0mg"},{"bike_id":"11fd99af-1ad0-4cd3-9609-5f9d6cd88aee","system_id":"levelo_inurba_marseille","lat":43.30954,"lon":5.39036,"is_reserved":false,"is_disabled":false,"rental_uris":{"android":"levelo://app?vid=11fd99af-1ad0-4cd3-9609-5f9d6cd88aee","ios":"levelo://app?vid=11fd99af-1ad0-4cd3-9609-5f9d6cd88aee"},"vehicle_type_id":"4","last_reported":1727647668,"current_range_meters":31200,"station_id":"ce4bgup2rcd13ifvqco0","pricing_plan_id":"cebpf4jnsgd1na2vs0mg"},{"bike_id":"007b7d32-944c-4503-914a-33cee824c269","system_id":"levelo_inurba_marseille","lat":43.3065,"lon":5.40073,"is_reserved":false,"is_disabled":false,"rental_uris":{"android":"levelo://app?vid=007b7d32-944c-4503-914a-33cee824c269","ios":"levelo://app?vid=007b7d32-944c-4503-914a-33cee824c269"},"vehicle_type_id":"4","last_reported":1727647668,"current_range_meters":4800,"station_id":"ce4bh112rcd13ifvqda0","pricing_plan_id":"cebpf4jnsgd1na2vs0mg"},{"bike_id":"2d2afea1-d874-4ff7-9bc4-e52245f98677","system_id":"levelo_inurba_marseille","lat":43.28704,"lon":5.37376,"is_reserved":false,"is_disabled":false,"rental_uris":{"android":"levelo://app?vid=2d2afea1-d874-4ff7-9bc4-e52245f98677","ios":"levelo://app?vid=2d2afea1-d874-4ff7-9bc4-e52245f98677"},"vehicle_type_id":"4","last_reported":1727647668,"current_range_meters":28400,"station_id":"ce4bh3p2rcd13ifvqdq0","pricing_plan_id":"cebpf4jnsgd1na2vs0mg"},{"bike_id":"fd81dd9e-41a0-48cb-80a2-481a81723d32","system_id":"levelo_inurba_marseille","lat":43.25107,"lon":5.40324,"is_reserved":false,"is_disabled":false,"rental_uris":{"android":"levelo://app?vid=fd81dd9e-41a0-48cb-80a2-481a81723d32","ios":"levelo://app?vid=fd81dd9e-41a0-48cb-80a2-481a81723d32"},"vehicle_type_id":"4","last_reported":1727647668,"current_range_meters":38800,"station_id":"ce4bhlh2rcd13ifvqgig","pricing_plan_id":"cebpf4jnsgd1na2vs0mg"},{"bike_id":"d56908f3-eaf5-4e90-8c94-794e25aaa96b","system_id":"levelo_inurba_marseille","lat":43.28414,"lon":5.37527,"is_reserved":false,"is_disabled":false,"rental_uris":{"android":"levelo://app?vid=d56908f3-eaf5-4e90-8c94-794e25aaa96b","ios":"levelo://app?vid=d56908f3-eaf5-4e90-8c94-794e25aaa96b"},"vehicle_type_id":"4","last_reported":1727647668,"current_range_meters":11200,"station_id":"ce4bh412rcd13ifvqds0","pricing_plan_id":"cebpf4jnsgd1na2vs0mg"},{"bike_id":"796b2c36-e666-4c21-b06b-2df13e7fc282","system_id":"levelo_inurba_marseille","lat":43.29521,"lon":5.39404,"is_reserved":false,"is_disabled":false,"rental_uris":{"android":"levelo://app?vid=796b2c36-e666-4c21-b06b-2df13e7fc282","ios":"levelo://app?vid=796b2c36-e666-4c21-b06b-2df13e7fc282"},"vehicle_type_id":"4","last_reported":1727647668,"current_range_meters":20800,"station_id":"ce4bh292rcd13ifvqdf0","pricing_plan_id":"cebpf4jnsgd1na2vs0mg"},{"bike_id":"31846e81-3a87-468c-8781-a080b27e3357","system_id":"levelo_inurba_marseille","lat":43.24673,"lon":5.38171,"is_reserved":false,"is_disabled":false,"rental_uris":{"android":"levelo://app?vid=31846e81-3a87-468c-8781-a080b27e3357","ios":"levelo://app?vid=31846e81-3a87-468c-8781-a080b27e3357"},"vehicle_type_id":"4","last_reported":1727647668,"current_range_meters":24400,"station_id":"ce4bhih2rcd13ifvqfr0","pricing_plan_id":"cebpf4jnsgd1na2vs0mg"},{"bike_id":"338b3ddd-991b-4c0c-9321-e4b70b98ab6b","system_id":"levelo_inurba_marseille","lat":43.29527,"lon":5.39028,"is_reserved":false,"is_disabled":false,"rental_uris":{"android":"levelo://app?vid=338b3ddd-991b-4c0c-9321-e4b70b98ab6b","ios":"levelo://app?vid=338b3ddd-991b-4c0c-9321-e4b70b98ab6b"},"vehicle_type_id":"4","last_reported":1727647668,"current_range_meters":4400,"station_id":"ce4bh3p2rcd13ifvqdp0","pricing_plan_id":"cebpf4jnsgd1na2vs0mg"},{"bike_id":"5ad9d95a-37cc-4d8e-984e-bb34f64269ed","system_id":"levelo_inurba_marseille","lat":43.27991,"lon":5.4166,"is_reserved":false,"is_disabled":false,"rental_uris":{"android":"levelo://app?vid=5ad9d95a-37cc-4d8e-984e-bb34f64269ed","ios":"levelo://app?vid=5ad9d95a-37cc-4d8e-984e-bb34f64269ed"},"vehicle_type_id":"4","last_reported":1727647668,"current_range_meters":32400,"station_id":"ce4bho12rcd13ifvqh1g","pricing_plan_id":"cebpf4jnsgd1na2vs0mg"},{"bike_id":"b13a6c79-a3e0-462a-934d-41334957cdc8","system_id":"levelo_inurba_marseille","lat":43.32654,"lon":5.40979,"is_reserved":false,"is_disabled":false,"rental_uris":{"android":"levelo://app?vid=b13a6c79-a3e0-462a-934d-41334957cdc8","ios":"levelo://app?vid=b13a6c79-a3e0-462a-934d-41334957cdc8"},"vehicle_type_id":"4","last_reported":1727647668,"current_range_meters":38800,"station_id":"ce4bhpp2rcd13ifvqhgg","pricing_plan_id":"cebpf4jnsgd1na2vs0mg"},{"bike_id":"0cd47eef-ff06-4f7f-a905-0dee6fe6447c","system_id":"levelo_inurba_marseille","lat":43.24074,"lon":5.37757,"is_reserved":false,"is_disabled":false,"rental_uris":{"android":"levelo://app?vid=0cd47eef-ff06-4f7f-a905-0dee6fe6447c","ios":"levelo://app?vid=0cd47eef-ff06-4f7f-a905-0dee6fe6447c"},"vehicle_type_id":"4","last_reported":1727647668,"current_range_meters":32400,"station_id":"ce4bhnp2rcd13ifvqgvg","pricing_plan_id":"cebpf4jnsgd1na2vs0mg"},{"bike_id":"517bf19b-6722-45c0-bf8b-08925e1fbd62","system_id":"levelo_inurba_marseille","lat":43.28708,"lon":5.39975,"is_reserved":false,"is_disabled":false,"rental_uris":{"android":"levelo://app?vid=517bf19b-6722-45c0-bf8b-08925e1fbd62","ios":"levelo://app?vid=517bf19b-6722-45c0-bf8b-08925e1fbd62"},"vehicle_type_id":"4","last_reported":1727647668,"current_range_meters":37600,"station_id":"ce4bho92rcd13ifvqh3g","pricing_plan_id":"cebpf4jnsgd1na2vs0mg"},{"bike_id":"d10e4c18-d8ff-4085-a7ba-ec9faaa34e61","system_id":"levelo_inurba_marseille","lat":43.26058,"lon":5.39391,"is_reserved":false,"is_disabled":false,"rental_uris":{"android":"levelo://app?vid=d10e4c18-d8ff-4085-a7ba-ec9faaa34e61","ios":"levelo://app?vid=d10e4c18-d8ff-4085-a7ba-ec9faaa34e61"},"vehicle_type_id":"4","last_reported":1727647668,"current_range_meters":20400,"station_id":"ce4bhh92rcd13ifvqfj0","pricing_plan_id":"cebpf4jnsgd1na2vs0mg"},{"bike_id":"67e16eeb-d218-4638-ae97-82e780905b9a","system_id":"levelo_inurba_marseille","lat":43.27423,"lon":5.39415,"is_reserved":false,"is_disabled":false,"rental_uris":{"android":"levelo://app?vid=67e16eeb-d218-4638-ae97-82e780905b9a","ios":"levelo://app?vid=67e16eeb-d218-4638-ae97-82e780905b9a"},"vehicle_type_id":"4","last_reported":1727647668,"current_range_meters":22800,"station_id":"ce4bhdp2rcd13ifvqf20","pricing_plan_id":"cebpf4jnsgd1na2vs0mg"},{"bike_id":"66ca816c-c4fd-4e9c-80f5-51bc6f105d0f","system_id":"levelo_inurba_marseille","lat":43.30654,"lon":5.401,"is_reserved":false,"is_disabled":false,"rental_uris":{"android":"levelo://app?vid=66ca816c-c4fd-4e9c-80f5-51bc6f105d0f","ios":"levelo://app?vid=66ca816c-c4fd-4e9c-80f5-51bc6f105d0f"},"vehicle_type_id":"4","last_reported":1727647668,"current_range_meters":36800,"station_id":"ce4bh112rcd13ifvqda0","pricing_plan_id":"cebpf4jnsgd1na2vs0mg"},{"bike_id":"ebd94cba-8da0-47fb-874d-a3bfbeb5be79","system_id":"levelo_inurba_marseille","lat":43.26957,"lon":5.38625,"is_reserved":false,"is_disabled":false,"rental_uris":{"android":"levelo://app?vid=ebd94cba-8da0-47fb-874d-a3bfbeb5be79","ios":"levelo://app?vid=ebd94cba-8da0-47fb-874d-a3bfbeb5be79"},"vehicle_type_id":"4","last_reported":1727647668,"current_range_meters":26000,"station_id":"ce4bhh92rcd13ifvqfh0","pricing_plan_id":"cebpf4jnsgd1na2vs0mg"},{"bike_id":"29f38da5-2fff-4949-a290-5d4e17fc7555","system_id":"levelo_inurba_marseille","lat":43.24664,"lon":5.3817,"is_reserved":false,"is_disabled":false,"rental_uris":{"android":"levelo://app?vid=29f38da5-2fff-4949-a290-5d4e17fc7555","ios":"levelo://app?vid=29f38da5-2fff-4949-a290-5d4e17fc7555"},"vehicle_type_id":"4","last_reported":1727647668,"current_range_meters":27600,"station_id":"ce4bhih2rcd13ifvqfr0","pricing_plan_id":"cebpf4jnsgd1na2vs0mg"},{"bike_id":"7497ada0-4e52-442c-9aa1-86afe522b93f","system_id":"levelo_inurba_marseille","lat":43.29902,"lon":5.43665,"is_reserved":false,"is_disabled":false,"rental_uris":{"android":"levelo://app?vid=7497ada0-4e52-442c-9aa1-86afe522b93f","ios":"levelo://app?vid=7497ada0-4e52-442c-9aa1-86afe522b93f"},"vehicle_type_id":"4","last_reported":1727647668,"current_range_meters":23200,"station_id":"ce4bhpp2rcd13ifvqhfg","pricing_plan_id":"cebpf4jnsgd1na2vs0mg"},{"bike_id":"84e9591d-606f-4c30-9e05-5d246b3aad6f","system_id":"levelo_inurba_marseille","lat":43.295218,"lon":5.394048,"is_reserved":false,"is_disabled":false,"rental_uris":{"android":"levelo://app?vid=84e9591d-606f-4c30-9e05-5d246b3aad6f","ios":"levelo://app?vid=84e9591d-606f-4c30-9e05-5d246b3aad6f"},"vehicle_type_id":"4","last_reported":1727647668,"current_range_meters":16800,"station_id":"ce4bh292rcd13ifvqdf0","pricing_plan_id":"cebpf4jnsgd1na2vs0mg"},{"bike_id":"73ed0066-60e2-46d2-9e04-e03f1ec2fa61","system_id":"levelo_inurba_marseille","lat":43.30203,"lon":5.3946,"is_reserved":false,"is_disabled":false,"rental_uris":{"android":"levelo://app?vid=73ed0066-60e2-46d2-9e04-e03f1ec2fa61","ios":"levelo://app?vid=73ed0066-60e2-46d2-9e04-e03f1ec2fa61"},"vehicle_type_id":"4","last_reported":1727647668,"current_range_meters":12800,"station_id":"ce4bh0p2rcd13ifvqd70","pricing_plan_id":"cebpf4jnsgd1na2vs0mg"},{"bike_id":"cf536289-0b11-45bf-bd81-411c843c39f6","system_id":"levelo_inurba_marseille","lat":43.301403,"lon":5.39867,"is_reserved":false,"is_disabled":false,"rental_uris":{"android":"levelo://app?vid=cf536289-0b11-45bf-bd81-411c843c39f6","ios":"levelo://app?vid=cf536289-0b11-45bf-bd81-411c843c39f6"},"vehicle_type_id":"4","last_reported":1727647668,"current_range_meters":36000,"station_id":"ce4bh0h2rcd13ifvqd40","pricing_plan_id":"cebpf4jnsgd1na2vs0mg"},{"bike_id":"cb22e9b7-585c-4f42-9dd6-d94fa3677323","system_id":"levelo_inurba_marseille","lat":43.2582,"lon":5.39423,"is_reserved":false,"is_disabled":false,"rental_uris":{"android":"levelo://app?vid=cb22e9b7-585c-4f42-9dd6-d94fa3677323","ios":"levelo://app?vid=cb22e9b7-585c-4f42-9dd6-d94fa3677323"},"vehicle_type_id":"4","last_reported":1727647668,"current_range_meters":38800,"station_id":"ce4bhip2rcd13ifvqft0","pricing_plan_id":"cebpf4jnsgd1na2vs0mg"},{"bike_id":"e4c9d73e-d725-4772-997c-fbbb4235be0d","system_id":"levelo_inurba_marseille","lat":43.27615,"lon":5.36109,"is_reserved":false,"is_disabled":false,"rental_uris":{"android":"levelo://app?vid=e4c9d73e-d725-4772-997c-fbbb4235be0d","ios":"levelo://app?vid=e4c9d73e-d725-4772-997c-fbbb4235be0d"},"vehicle_type_id":"4","last_reported":1727647668,"current_range_meters":29600,"station_id":"ce4bgj92rcd13ifvqbe0","pricing_plan_id":"cebpf4jnsgd1na2vs0mg"},{"bike_id":"530ebee0-3821-4918-8f9b-3c2003125331","system_id":"levelo_inurba_marseille","lat":43.24076,"lon":5.37744,"is_reserved":false,"is_disabled":false,"rental_uris":{"android":"levelo://app?vid=530ebee0-3821-4918-8f9b-3c2003125331","ios":"levelo://app?vid=530ebee0-3821-4918-8f9b-3c2003125331"},"vehicle_type_id":"4","last_reported":1727647668,"current_range_meters":10000,"station_id":"ce4bhnp2rcd13ifvqgvg","pricing_plan_id":"cebpf4jnsgd1na2vs0mg"},{"bike_id":"b5d893ae-32cb-473c-bd44-04dc7cf9e501","system_id":"levelo_inurba_marseille","lat":43.29996,"lon":5.38079,"is_reserved":false,"is_disabled":false,"rental_uris":{"android":"levelo://app?vid=b5d893ae-32cb-473c-bd44-04dc7cf9e501","ios":"levelo://app?vid=b5d893ae-32cb-473c-bd44-04dc7cf9e501"},"vehicle_type_id":"4","last_reported":1727647668,"current_range_meters":35600,"station_id":"","pricing_plan_id":"cebpf4jnsgd1na2vs0mg"},{"bike_id":"900bb84c-0c4a-43e7-93e4-7b917e9de5e5","system_id":"levelo_inurba_marseille","lat":43.23184,"lon":5.39988,"is_reserved":false,"is_disabled":false,"rental_uris":{"android":"levelo://app?vid=900bb84c-0c4a-43e7-93e4-7b917e9de5e5","ios":"levelo://app?vid=900bb84c-0c4a-43e7-93e4-7b917e9de5e5"},"vehicle_type_id":"4","last_reported":1727647668,"current_range_meters":23200,"station_id":"ce4bhn12rcd13ifvqgqg","pricing_plan_id":"cebpf4jnsgd1na2vs0mg"},{"bike_id":"9f05bc58-98dc-4d91-89c9-625701f10a87","system_id":"levelo_inurba_marseille","lat":43.25111,"lon":5.4033,"is_reserved":false,"is_disabled":false,"rental_uris":{"android":"levelo://app?vid=9f05bc58-98dc-4d91-89c9-625701f10a87","ios":"levelo://app?vid=9f05bc58-98dc-4d91-89c9-625701f10a87"},"vehicle_type_id":"4","last_reported":1727647668,"current_range_meters":24800,"station_id":"ce4bhlh2rcd13ifvqgig","pricing_plan_id":"cebpf4jnsgd1na2vs0mg"},{"bike_id":"2339f218-edd1-4dd1-a1a9-f89fa2d778c1","system_id":"levelo_inurba_marseille","lat":43.28708,"lon":5.37403,"is_reserved":false,"is_disabled":false,"rental_uris":{"android":"levelo://app?vid=2339f218-edd1-4dd1-a1a9-f89fa2d778c1","ios":"levelo://app?vid=2339f218-edd1-4dd1-a1a9-f89fa2d778c1"},"vehicle_type_id":"4","last_reported":1727647668,"current_range_meters":30800,"station_id":"ce4bh3p2rcd13ifvqdq0","pricing_plan_id":"cebpf4jnsgd1na2vs0mg"},{"bike_id":"487875d6-25b0-49e7-84cf-47e6797f6636","system_id":"levelo_inurba_marseille","lat":43.267214,"lon":5.389599,"is_reserved":false,"is_disabled":false,"rental_uris":{"android":"levelo://app?vid=487875d6-25b0-49e7-84cf-47e6797f6636","ios":"levelo://app?vid=487875d6-25b0-49e7-84cf-47e6797f6636"},"vehicle_type_id":"4","last_reported":1727647668,"current_range_meters":32800,"station_id":"","pricing_plan_id":"cebpf4jnsgd1na2vs0mg"},{"bike_id":"22abd464-087a-45de-9910-cc41eb83d435","system_id":"levelo_inurba_marseille","lat":43.305969,"lon":5.372279,"is_reserved":false,"is_disabled":false,"rental_uris":{"android":"levelo://app?vid=22abd464-087a-45de-9910-cc41eb83d435","ios":"levelo://app?vid=22abd464-087a-45de-9910-cc41eb83d435"},"vehicle_type_id":"4","last_reported":1727647668,"current_range_meters":28000,"station_id":"ce4bh4p2rcd13ifvqe1g","pricing_plan_id":"cebpf4jnsgd1na2vs0mg"},{"bike_id":"777ff386-969c-451b-a09a-0b609184d1b7","system_id":"levelo_inurba_marseille","lat":43.293696,"lon":5.378479,"is_reserved":false,"is_disabled":false,"rental_uris":{"android":"levelo://app?vid=777ff386-969c-451b-a09a-0b609184d1b7","ios":"levelo://app?vid=777ff386-969c-451b-a09a-0b609184d1b7"},"vehicle_type_id":"4","last_reported":1727647668,"current_range_meters":19200,"station_id":"ce4bgjh2rcd13ifvqbf0","pricing_plan_id":"cebpf4jnsgd1na2vs0mg"},{"bike_id":"8f2bcad6-58f1-4bc3-a7a8-5151c9a3b8bd","system_id":"levelo_inurba_marseille","lat":43.28691,"lon":5.39972,"is_reserved":false,"is_disabled":false,"rental_uris":{"android":"levelo://app?vid=8f2bcad6-58f1-4bc3-a7a8-5151c9a3b8bd","ios":"levelo://app?vid=8f2bcad6-58f1-4bc3-a7a8-5151c9a3b8bd"},"vehicle_type_id":"4","last_reported":1727647668,"current_range_meters":12000,"station_id":"ce4bho92rcd13ifvqh3g","pricing_plan_id":"cebpf4jnsgd1na2vs0mg"},{"bike_id":"65b2f456-4440-45e9-b691-5d85d81e32a5","system_id":"levelo_inurba_marseille","lat":43.28076,"lon":5.39649,"is_reserved":false,"is_disabled":false,"rental_uris":{"android":"levelo://app?vid=65b2f456-4440-45e9-b691-5d85d81e32a5","ios":"levelo://app?vid=65b2f456-4440-45e9-b691-5d85d81e32a5"},"vehicle_type_id":"4","last_reported":1727647668,"current_range_meters":36800,"station_id":"ce4bho12rcd13ifvqh2g","pricing_plan_id":"cebpf4jnsgd1na2vs0mg"},{"bike_id":"1a252542-2f55-4f3b-b401-0eb6ff420176","system_id":"levelo_inurba_marseille","lat":43.29027,"lon":5.38138,"is_reserved":false,"is_disabled":false,"rental_uris":{"android":"levelo://app?vid=1a252542-2f55-4f3b-b401-0eb6ff420176","ios":"levelo://app?vid=1a252542-2f55-4f3b-b401-0eb6ff420176"},"vehicle_type_id":"4","last_reported":1727647668,"current_range_meters":38800,"station_id":"ce4bh4p2rcd13ifvqe1g","pricing_plan_id":"cebpf4jnsgd1na2vs0mg"},{"bike_id":"4bf17278-821c-44d9-9e1b-8440f028916f","system_id":"levelo_inurba_marseille","lat":43.2481,"lon":5.37457,"is_reserved":false,"is_disabled":false,"rental_uris":{"android":"levelo://app?vid=4bf17278-821c-44d9-9e1b-8440f028916f","ios":"levelo://app?vid=4bf17278-821c-44d9-9e1b-8440f028916f"},"vehicle_type_id":"4","last_reported":1727647668,"current_range_meters":9600,"station_id":"ce4bhgh2rcd13ifvqfb0","pricing_plan_id":"cebpf4jnsgd1na2vs0mg"},{"bike_id":"fffa2861-250b-4f0b-b251-bc4a93e6a064","system_id":"levelo_inurba_marseille","lat":43.25862,"lon":5.39902,"is_reserved":false,"is_disabled":false,"rental_uris":{"android":"levelo://app?vid=fffa2861-250b-4f0b-b251-bc4a93e6a064","ios":"levelo://app?vid=fffa2861-250b-4f0b-b251-bc4a93e6a064"},"vehicle_type_id":"4","last_reported":1727647668,"current_range_meters":39200,"station_id":"ce4bhl92rcd13ifvqghg","pricing_plan_id":"cebpf4jnsgd1na2vs0mg"},{"bike_id":"80052677-a184-47b6-b7ba-4401badcd8a9","system_id":"levelo_inurba_marseille","lat":43.32287,"lon":5.38269,"is_reserved":false,"is_disabled":false,"rental_uris":{"android":"levelo://app?vid=80052677-a184-47b6-b7ba-4401badcd8a9","ios":"levelo://app?vid=80052677-a184-47b6-b7ba-4401badcd8a9"},"vehicle_type_id":"4","last_reported":1727647668,"current_range_meters":39200,"station_id":"ce4bhr12rcd13ifvqhqg","pricing_plan_id":"cebpf4jnsgd1na2vs0mg"},{"bike_id":"9fbb39a0-1abd-4aad-8ee4-f65d831afc58","system_id":"levelo_inurba_marseille","lat":43.26569,"lon":5.390017,"is_reserved":false,"is_disabled":false,"rental_uris":{"android":"levelo://app?vid=9fbb39a0-1abd-4aad-8ee4-f65d831afc58","ios":"levelo://app?vid=9fbb39a0-1abd-4aad-8ee4-f65d831afc58"},"vehicle_type_id":"4","last_reported":1727647668,"current_range_meters":36000,"station_id":"ce4bhe12rcd13ifvqf30","pricing_plan_id":"cebpf4jnsgd1na2vs0mg"},{"bike_id":"a419103c-29ff-4e68-913e-124bd72643a7","system_id":"levelo_inurba_marseille","lat":43.288528,"lon":5.393207,"is_reserved":false,"is_disabled":false,"rental_uris":{"android":"levelo://app?vid=a419103c-29ff-4e68-913e-124bd72643a7","ios":"levelo://app?vid=a419103c-29ff-4e68-913e-124bd72643a7"},"vehicle_type_id":"4","last_reported":1727647668,"current_range_meters":16800,"station_id":"ce4bh2p2rcd13ifvqdi0","pricing_plan_id":"cebpf4jnsgd1na2vs0mg"},{"bike_id":"b8d288be-6fe2-4dc7-8d5b-56533e2dc1b3","system_id":"levelo_inurba_marseille","lat":43.28156,"lon":5.42646,"is_reserved":false,"is_disabled":false,"rental_uris":{"android":"levelo://app?vid=b8d288be-6fe2-4dc7-8d5b-56533e2dc1b3","ios":"levelo://app?vid=b8d288be-6fe2-4dc7-8d5b-56533e2dc1b3"},"vehicle_type_id":"4","last_reported":1727647668,"current_range_meters":28400,"station_id":"ce4bhnh2rcd13ifvqgug","pricing_plan_id":"cebpf4jnsgd1na2vs0mg"},{"bike_id":"c429f741-e09b-4c0e-8c65-ff71e1baa928","system_id":"levelo_inurba_marseille","lat":43.30145,"lon":5.40457,"is_reserved":false,"is_disabled":false,"rental_uris":{"android":"levelo://app?vid=c429f741-e09b-4c0e-8c65-ff71e1baa928","ios":"levelo://app?vid=c429f741-e09b-4c0e-8c65-ff71e1baa928"},"vehicle_type_id":"4","last_reported":1727647668,"current_range_meters":17200,"station_id":"","pricing_plan_id":"cebpf4jnsgd1na2vs0mg"},{"bike_id":"a974d009-942e-477b-b4db-19f84bd48313","system_id":"levelo_inurba_marseille","lat":43.32123,"lon":5.38705,"is_reserved":false,"is_disabled":false,"rental_uris":{"android":"levelo://app?vid=a974d009-942e-477b-b4db-19f84bd48313","ios":"levelo://app?vid=a974d009-942e-477b-b4db-19f84bd48313"},"vehicle_type_id":"4","last_reported":1727647668,"current_range_meters":38000,"station_id":"","pricing_plan_id":"cebpf4jnsgd1na2vs0mg"},{"bike_id":"0c3663dc-ab83-42b1-9694-955c3ceeb6f8","system_id":"levelo_inurba_marseille","lat":43.26789,"lon":5.39415,"is_reserved":false,"is_disabled":false,"rental_uris":{"android":"levelo://app?vid=0c3663dc-ab83-42b1-9694-955c3ceeb6f8","ios":"levelo://app?vid=0c3663dc-ab83-42b1-9694-955c3ceeb6f8"},"vehicle_type_id":"4","last_reported":1727647668,"current_range_meters":33200,"station_id":"ce4bhh12rcd13ifvqfg0","pricing_plan_id":"cebpf4jnsgd1na2vs0mg"},{"bike_id":"d5b6d137-cfcc-4db0-a7ae-275b00b75daf","system_id":"levelo_inurba_marseille","lat":43.29795,"lon":5.40403,"is_reserved":false,"is_disabled":false,"rental_uris":{"android":"levelo://app?vid=d5b6d137-cfcc-4db0-a7ae-275b00b75daf","ios":"levelo://app?vid=d5b6d137-cfcc-4db0-a7ae-275b00b75daf"},"vehicle_type_id":"4","last_reported":1727647668,"current_range_meters":36400,"station_id":"ce4bh112rcd13ifvqd90","pricing_plan_id":"cebpf4jnsgd1na2vs0mg"},{"bike_id":"8d0ad09d-941b-47c3-9c55-657fa073943b","system_id":"levelo_inurba_marseille","lat":43.2797,"lon":5.38736,"is_reserved":false,"is_disabled":false,"rental_uris":{"android":"levelo://app?vid=8d0ad09d-941b-47c3-9c55-657fa073943b","ios":"levelo://app?vid=8d0ad09d-941b-47c3-9c55-657fa073943b"},"vehicle_type_id":"4","last_reported":1727647668,"current_range_meters":15200,"station_id":"ce4bhg12rcd13ifvqf80","pricing_plan_id":"cebpf4jnsgd1na2vs0mg"},{"bike_id":"3ae16357-9b43-46d1-bbc8-483fcc70804b","system_id":"levelo_inurba_marseille","lat":43.25724,"lon":5.41113,"is_reserved":false,"is_disabled":false,"rental_uris":{"android":"levelo://app?vid=3ae16357-9b43-46d1-bbc8-483fcc70804b","ios":"levelo://app?vid=3ae16357-9b43-46d1-bbc8-483fcc70804b"},"vehicle_type_id":"4","last_reported":1727647668,"current_range_meters":27200,"station_id":"ce4bhkp2rcd13ifvqgd0","pricing_plan_id":"cebpf4jnsgd1na2vs0mg"},{"bike_id":"ecadd1d8-c333-48e3-a2c2-b7fd196b9ab8","system_id":"levelo_inurba_marseille","lat":43.27427,"lon":5.39413,"is_reserved":false,"is_disabled":false,"rental_uris":{"android":"levelo://app?vid=ecadd1d8-c333-48e3-a2c2-b7fd196b9ab8","ios":"levelo://app?vid=ecadd1d8-c333-48e3-a2c2-b7fd196b9ab8"},"vehicle_type_id":"4","last_reported":1727647668,"current_range_meters":37600,"station_id":"ce4bhdp2rcd13ifvqf20","pricing_plan_id":"cebpf4jnsgd1na2vs0mg"},{"bike_id":"6fa87e93-6693-4dbd-bd24-0bf4f166cbf9","system_id":"levelo_inurba_marseille","lat":43.29513,"lon":5.39033,"is_reserved":false,"is_disabled":false,"rental_uris":{"android":"levelo://app?vid=6fa87e93-6693-4dbd-bd24-0bf4f166cbf9","ios":"levelo://app?vid=6fa87e93-6693-4dbd-bd24-0bf4f166cbf9"},"vehicle_type_id":"4","last_reported":1727647668,"current_range_meters":38800,"station_id":"ce4bh3p2rcd13ifvqdp0","pricing_plan_id":"cebpf4jnsgd1na2vs0mg"},{"bike_id":"e0976dae-bcb8-43e8-bba6-c9ef6415841f","system_id":"levelo_inurba_marseille","lat":43.28718,"lon":5.37929,"is_reserved":false,"is_disabled":false,"rental_uris":{"android":"levelo://app?vid=e0976dae-bcb8-43e8-bba6-c9ef6415841f","ios":"levelo://app?vid=e0976dae-bcb8-43e8-bba6-c9ef6415841f"},"vehicle_type_id":"4","last_reported":1727647668,"current_range_meters":18800,"station_id":"ce4bh9p2rcd13ifvqec0","pricing_plan_id":"cebpf4jnsgd1na2vs0mg"},{"bike_id":"0701cf2a-674c-4c9d-af1e-6650acbaaf74","system_id":"levelo_inurba_marseille","lat":43.283789,"lon":5.373021,"is_reserved":false,"is_disabled":false,"rental_uris":{"android":"levelo://app?vid=0701cf2a-674c-4c9d-af1e-6650acbaaf74","ios":"levelo://app?vid=0701cf2a-674c-4c9d-af1e-6650acbaaf74"},"vehicle_type_id":"4","last_reported":1727647668,"current_range_meters":8400,"station_id":"","pricing_plan_id":"cebpf4jnsgd1na2vs0mg"},{"bike_id":"ca2820ea-9af8-4890-a9e2-9a2c711a4ed5","system_id":"levelo_inurba_marseille","lat":43.27544,"lon":5.38412,"is_reserved":false,"is_disabled":false,"rental_uris":{"android":"levelo://app?vid=ca2820ea-9af8-4890-a9e2-9a2c711a4ed5","ios":"levelo://app?vid=ca2820ea-9af8-4890-a9e2-9a2c711a4ed5"},"vehicle_type_id":"4","last_reported":1727647668,"current_range_meters":20800,"station_id":"ce4bhh92rcd13ifvqfi0","pricing_plan_id":"cebpf4jnsgd1na2vs0mg"},{"bike_id":"8ddee797-12d2-4112-b1c0-9f51c86fd63b","system_id":"levelo_inurba_marseille","lat":43.29879,"lon":5.38905,"is_reserved":false,"is_disabled":false,"rental_uris":{"android":"levelo://app?vid=8ddee797-12d2-4112-b1c0-9f51c86fd63b","ios":"levelo://app?vid=8ddee797-12d2-4112-b1c0-9f51c86fd63b"},"vehicle_type_id":"4","last_reported":1727647668,"current_range_meters":38000,"station_id":"ce4bh392rcd13ifvqdl0","pricing_plan_id":"cebpf4jnsgd1na2vs0mg"},{"bike_id":"a057292b-320e-4913-9865-6f90b330112d","system_id":"levelo_inurba_marseille","lat":43.2693,"lon":5.38915,"is_reserved":false,"is_disabled":false,"rental_uris":{"android":"levelo://app?vid=a057292b-320e-4913-9865-6f90b330112d","ios":"levelo://app?vid=a057292b-320e-4913-9865-6f90b330112d"},"vehicle_type_id":"4","last_reported":1727647668,"current_range_meters":38000,"station_id":"ce4bhhh2rcd13ifvqfl0","pricing_plan_id":"cebpf4jnsgd1na2vs0mg"},{"bike_id":"3950c017-b208-4a2f-a021-50aca1cd5294","system_id":"levelo_inurba_marseille","lat":43.28431,"lon":5.39181,"is_reserved":false,"is_disabled":false,"rental_uris":{"android":"levelo://app?vid=3950c017-b208-4a2f-a021-50aca1cd5294","ios":"levelo://app?vid=3950c017-b208-4a2f-a021-50aca1cd5294"},"vehicle_type_id":"4","last_reported":1727647668,"current_range_meters":38800,"station_id":"ce4bhoh2rcd13ifvqh5g","pricing_plan_id":"cebpf4jnsgd1na2vs0mg"},{"bike_id":"80a479a7-6b52-4502-9fa1-1e3c9c081d64","system_id":"levelo_inurba_marseille","lat":43.28493,"lon":5.38531,"is_reserved":false,"is_disabled":false,"rental_uris":{"android":"levelo://app?vid=80a479a7-6b52-4502-9fa1-1e3c9c081d64","ios":"levelo://app?vid=80a479a7-6b52-4502-9fa1-1e3c9c081d64"},"vehicle_type_id":"4","last_reported":1727647668,"current_range_meters":16800,"station_id":"ce4bh8p2rcd13ifvqeb0","pricing_plan_id":"cebpf4jnsgd1na2vs0mg"},{"bike_id":"7199a17f-8505-4d54-b9b6-2ec943c49cf2","system_id":"levelo_inurba_marseille","lat":43.33033,"lon":5.39383,"is_reserved":false,"is_disabled":false,"rental_uris":{"android":"levelo://app?vid=7199a17f-8505-4d54-b9b6-2ec943c49cf2","ios":"levelo://app?vid=7199a17f-8505-4d54-b9b6-2ec943c49cf2"},"vehicle_type_id":"4","last_reported":1727647668,"current_range_meters":38000,"station_id":"","pricing_plan_id":"cebpf4jnsgd1na2vs0mg"},{"bike_id":"9f4b8806-0737-4c36-bde4-6bc8c0d0630a","system_id":"levelo_inurba_marseille","lat":43.23953,"lon":5.36625,"is_reserved":false,"is_disabled":false,"rental_uris":{"android":"levelo://app?vid=9f4b8806-0737-4c36-bde4-6bc8c0d0630a","ios":"levelo://app?vid=9f4b8806-0737-4c36-bde4-6bc8c0d0630a"},"vehicle_type_id":"4","last_reported":1727647668,"current_range_meters":38800,"station_id":"ce4bhi12rcd13ifvqfp0","pricing_plan_id":"cebpf4jnsgd1na2vs0mg"},{"bike_id":"4d706b30-b324-49e3-84d2-6545a9f5eedc","system_id":"levelo_inurba_marseille","lat":43.290485,"lon":5.3995,"is_reserved":false,"is_disabled":false,"rental_uris":{"android":"levelo://app?vid=4d706b30-b324-49e3-84d2-6545a9f5eedc","ios":"levelo://app?vid=4d706b30-b324-49e3-84d2-6545a9f5eedc"},"vehicle_type_id":"4","last_reported":1727647668,"current_range_meters":9200,"station_id":"ce4bh392rcd13ifvqdm0","pricing_plan_id":"cebpf4jnsgd1na2vs0mg"},{"bike_id":"37f11421-886f-436d-9372-6c942f49cf40","system_id":"levelo_inurba_marseille","lat":43.29866,"lon":5.38891,"is_reserved":false,"is_disabled":false,"rental_uris":{"android":"levelo://app?vid=37f11421-886f-436d-9372-6c942f49cf40","ios":"levelo://app?vid=37f11421-886f-436d-9372-6c942f49cf40"},"vehicle_type_id":"4","last_reported":1727647668,"current_range_meters":24400,"station_id":"ce4bh392rcd13ifvqdl0","pricing_plan_id":"cebpf4jnsgd1na2vs0mg"},{"bike_id":"24942973-7c0b-4deb-b224-1f3f2512ab35","system_id":"levelo_inurba_marseille","lat":43.24665,"lon":5.38165,"is_reserved":false,"is_disabled":false,"rental_uris":{"android":"levelo://app?vid=24942973-7c0b-4deb-b224-1f3f2512ab35","ios":"levelo://app?vid=24942973-7c0b-4deb-b224-1f3f2512ab35"},"vehicle_type_id":"4","last_reported":1727647668,"current_range_meters":36800,"station_id":"ce4bhih2rcd13ifvqfr0","pricing_plan_id":"cebpf4jnsgd1na2vs0mg"},{"bike_id":"6cdca13d-24d1-4302-912a-54d18c748242","system_id":"levelo_inurba_marseille","lat":43.31083,"lon":5.40132,"is_reserved":false,"is_disabled":false,"rental_uris":{"android":"levelo://app?vid=6cdca13d-24d1-4302-912a-54d18c748242","ios":"levelo://app?vid=6cdca13d-24d1-4302-912a-54d18c748242"},"vehicle_type_id":"4","last_reported":1727647668,"current_range_meters":3200,"station_id":"","pricing_plan_id":"cebpf4jnsgd1na2vs0mg"},{"bike_id":"b579d32f-912e-4012-9ef9-43b48049b08b","system_id":"levelo_inurba_marseille","lat":43.30393,"lon":5.3889,"is_reserved":false,"is_disabled":false,"rental_uris":{"android":"levelo://app?vid=b579d32f-912e-4012-9ef9-43b48049b08b","ios":"levelo://app?vid=b579d32f-912e-4012-9ef9-43b48049b08b"},"vehicle_type_id":"4","last_reported":1727647668,"current_range_meters":37600,"station_id":"ce4bgk12rcd13ifvqbi0","pricing_plan_id":"cebpf4jnsgd1na2vs0mg"},{"bike_id":"8c639338-d1e2-4044-b8c8-76fe03ba67ae","system_id":"levelo_inurba_marseille","lat":43.29517,"lon":5.39396,"is_reserved":false,"is_disabled":false,"rental_uris":{"android":"levelo://app?vid=8c639338-d1e2-4044-b8c8-76fe03ba67ae","ios":"levelo://app?vid=8c639338-d1e2-4044-b8c8-76fe03ba67ae"},"vehicle_type_id":"4","last_reported":1727647668,"current_range_meters":19200,"station_id":"ce4bh292rcd13ifvqdf0","pricing_plan_id":"cebpf4jnsgd1na2vs0mg"},{"bike_id":"80c40c0b-c8c6-4e3d-a38c-d2ef4da13896","system_id":"levelo_inurba_marseille","lat":43.3096,"lon":5.39044,"is_reserved":false,"is_disabled":false,"rental_uris":{"android":"levelo://app?vid=80c40c0b-c8c6-4e3d-a38c-d2ef4da13896","ios":"levelo://app?vid=80c40c0b-c8c6-4e3d-a38c-d2ef4da13896"},"vehicle_type_id":"4","last_reported":1727647668,"current_range_meters":7200,"station_id":"ce4bgup2rcd13ifvqco0","pricing_plan_id":"cebpf4jnsgd1na2vs0mg"},{"bike_id":"87bcb155-2c64-48cf-a45a-91afda2f95f7","system_id":"levelo_inurba_marseille","lat":43.27997,"lon":5.4001,"is_reserved":false,"is_disabled":false,"rental_uris":{"android":"levelo://app?vid=87bcb155-2c64-48cf-a45a-91afda2f95f7","ios":"levelo://app?vid=87bcb155-2c64-48cf-a45a-91afda2f95f7"},"vehicle_type_id":"4","last_reported":1727647668,"current_range_meters":39200,"station_id":"ce4bho92rcd13ifvqh4g","pricing_plan_id":"cebpf4jnsgd1na2vs0mg"},{"bike_id":"40844c04-10a3-4b72-a8ef-7a099f37b384","system_id":"levelo_inurba_marseille","lat":43.27182,"lon":5.40995,"is_reserved":false,"is_disabled":false,"rental_uris":{"android":"levelo://app?vid=40844c04-10a3-4b72-a8ef-7a099f37b384","ios":"levelo://app?vid=40844c04-10a3-4b72-a8ef-7a099f37b384"},"vehicle_type_id":"4","last_reported":1727647668,"current_range_meters":36800,"station_id":"ce4bhl12rcd13ifvqgf0","pricing_plan_id":"cebpf4jnsgd1na2vs0mg"},{"bike_id":"d37af953-d682-43ed-9078-8dbbc62ce49a","system_id":"levelo_inurba_marseille","lat":43.24667,"lon":5.38163,"is_reserved":false,"is_disabled":false,"rental_uris":{"android":"levelo://app?vid=d37af953-d682-43ed-9078-8dbbc62ce49a","ios":"levelo://app?vid=d37af953-d682-43ed-9078-8dbbc62ce49a"},"vehicle_type_id":"4","last_reported":1727647668,"current_range_meters":38400,"station_id":"ce4bhih2rcd13ifvqfr0","pricing_plan_id":"cebpf4jnsgd1na2vs0mg"},{"bike_id":"6bbdf29d-e1b4-4eef-8609-f78d6cd6358e","system_id":"levelo_inurba_marseille","lat":43.31711,"lon":5.37757,"is_reserved":false,"is_disabled":false,"rental_uris":{"android":"levelo://app?vid=6bbdf29d-e1b4-4eef-8609-f78d6cd6358e","ios":"levelo://app?vid=6bbdf29d-e1b4-4eef-8609-f78d6cd6358e"},"vehicle_type_id":"4","last_reported":1727647668,"current_range_meters":29600,"station_id":"ce4bgth2rcd13ifvqch0","pricing_plan_id":"cebpf4jnsgd1na2vs0mg"},{"bike_id":"4bedc093-723a-47c7-9b5d-3ab22888fbf1","system_id":"levelo_inurba_marseille","lat":43.28707,"lon":5.39978,"is_reserved":false,"is_disabled":false,"rental_uris":{"android":"levelo://app?vid=4bedc093-723a-47c7-9b5d-3ab22888fbf1","ios":"levelo://app?vid=4bedc093-723a-47c7-9b5d-3ab22888fbf1"},"vehicle_type_id":"4","last_reported":1727647668,"current_range_meters":24400,"station_id":"ce4bho92rcd13ifvqh3g","pricing_plan_id":"cebpf4jnsgd1na2vs0mg"},{"bike_id":"58599ad2-c344-4896-9238-4e4da4feb744","system_id":"levelo_inurba_marseille","lat":43.27123,"lon":5.40895,"is_reserved":false,"is_disabled":false,"rental_uris":{"android":"levelo://app?vid=58599ad2-c344-4896-9238-4e4da4feb744","ios":"levelo://app?vid=58599ad2-c344-4896-9238-4e4da4feb744"},"vehicle_type_id":"4","last_reported":1727647668,"current_range_meters":33200,"station_id":"ce4bhl12rcd13ifvqgf0","pricing_plan_id":"cebpf4jnsgd1na2vs0mg"},{"bike_id":"2ab05bf8-eca7-437d-b897-4c5c531ec1af","system_id":"levelo_inurba_marseille","lat":43.31711,"lon":5.37749,"is_reserved":false,"is_disabled":false,"rental_uris":{"android":"levelo://app?vid=2ab05bf8-eca7-437d-b897-4c5c531ec1af","ios":"levelo://app?vid=2ab05bf8-eca7-437d-b897-4c5c531ec1af"},"vehicle_type_id":"4","last_reported":1727647668,"current_range_meters":7200,"station_id":"ce4bgth2rcd13ifvqch0","pricing_plan_id":"cebpf4jnsgd1na2vs0mg"},{"bike_id":"acf18a21-c944-4e59-b63d-489d756fe630","system_id":"levelo_inurba_marseille","lat":43.31327,"lon":5.39701,"is_reserved":false,"is_disabled":false,"rental_uris":{"android":"levelo://app?vid=acf18a21-c944-4e59-b63d-489d756fe630","ios":"levelo://app?vid=acf18a21-c944-4e59-b63d-489d756fe630"},"vehicle_type_id":"4","last_reported":1727647668,"current_range_meters":37600,"station_id":"ce4bgvp2rcd13ifvqcu0","pricing_plan_id":"cebpf4jnsgd1na2vs0mg"},{"bike_id":"fbf3741c-5282-4263-869b-0d40f3292f60","system_id":"levelo_inurba_marseille","lat":43.28458,"lon":5.35879,"is_reserved":false,"is_disabled":false,"rental_uris":{"android":"levelo://app?vid=fbf3741c-5282-4263-869b-0d40f3292f60","ios":"levelo://app?vid=fbf3741c-5282-4263-869b-0d40f3292f60"},"vehicle_type_id":"4","last_reported":1727647668,"current_range_meters":8400,"station_id":"ce4bhah2rcd13ifvqei0","pricing_plan_id":"cebpf4jnsgd1na2vs0mg"},{"bike_id":"991ed9e1-343c-423c-acd1-119ed8fe09d9","system_id":"levelo_inurba_marseille","lat":43.29272,"lon":5.36846,"is_reserved":false,"is_disabled":false,"rental_uris":{"android":"levelo://app?vid=991ed9e1-343c-423c-acd1-119ed8fe09d9","ios":"levelo://app?vid=991ed9e1-343c-423c-acd1-119ed8fe09d9"},"vehicle_type_id":"4","last_reported":1727647668,"current_range_meters":18000,"station_id":"ce4bhbp2rcd13ifvqesg","pricing_plan_id":"cebpf4jnsgd1na2vs0mg"},{"bike_id":"6b57b26e-3f5d-4a85-ad81-d06defb88518","system_id":"levelo_inurba_marseille","lat":43.33603,"lon":5.41034,"is_reserved":false,"is_disabled":false,"rental_uris":{"android":"levelo://app?vid=6b57b26e-3f5d-4a85-ad81-d06defb88518","ios":"levelo://app?vid=6b57b26e-3f5d-4a85-ad81-d06defb88518"},"vehicle_type_id":"4","last_reported":1727647668,"current_range_meters":22000,"station_id":"ce4bhqh2rcd13ifvqhmg","pricing_plan_id":"cebpf4jnsgd1na2vs0mg"},{"bike_id":"33a4579d-a125-4efa-8233-ee31afbe59e0","system_id":"levelo_inurba_marseille","lat":43.27309,"lon":5.39084,"is_reserved":false,"is_disabled":false,"rental_uris":{"android":"levelo://app?vid=33a4579d-a125-4efa-8233-ee31afbe59e0","ios":"levelo://app?vid=33a4579d-a125-4efa-8233-ee31afbe59e0"},"vehicle_type_id":"4","last_reported":1727647668,"current_range_meters":38800,"station_id":"ce4bhgp2rcd13ifvqfe0","pricing_plan_id":"cebpf4jnsgd1na2vs0mg"},{"bike_id":"16aef7bc-6e34-4da1-be38-669be00420e2","system_id":"levelo_inurba_marseille","lat":43.29892,"lon":5.43663,"is_reserved":false,"is_disabled":false,"rental_uris":{"android":"levelo://app?vid=16aef7bc-6e34-4da1-be38-669be00420e2","ios":"levelo://app?vid=16aef7bc-6e34-4da1-be38-669be00420e2"},"vehicle_type_id":"4","last_reported":1727647668,"current_range_meters":26800,"station_id":"ce4bhpp2rcd13ifvqhfg","pricing_plan_id":"cebpf4jnsgd1na2vs0mg"},{"bike_id":"a4a57129-960a-4063-956d-af7837f760de","system_id":"levelo_inurba_marseille","lat":43.30333,"lon":5.40435,"is_reserved":false,"is_disabled":false,"rental_uris":{"android":"levelo://app?vid=a4a57129-960a-4063-956d-af7837f760de","ios":"levelo://app?vid=a4a57129-960a-4063-956d-af7837f760de"},"vehicle_type_id":"4","last_reported":1727647668,"current_range_meters":31200,"station_id":"ce4bh012rcd13ifvqd10","pricing_plan_id":"cebpf4jnsgd1na2vs0mg"},{"bike_id":"2447a2cc-9c32-44c7-a331-e4b2f454ae72","system_id":"levelo_inurba_marseille","lat":43.28004,"lon":5.40011,"is_reserved":false,"is_disabled":false,"rental_uris":{"android":"levelo://app?vid=2447a2cc-9c32-44c7-a331-e4b2f454ae72","ios":"levelo://app?vid=2447a2cc-9c32-44c7-a331-e4b2f454ae72"},"vehicle_type_id":"4","last_reported":1727647668,"current_range_meters":37600,"station_id":"","pricing_plan_id":"cebpf4jnsgd1na2vs0mg"},{"bike_id":"f3eb5318-be75-4013-92e8-342d3c54666e","system_id":"levelo_inurba_marseille","lat":43.32543,"lon":5.41431,"is_reserved":false,"is_disabled":false,"rental_uris":{"android":"levelo://app?vid=f3eb5318-be75-4013-92e8-342d3c54666e","ios":"levelo://app?vid=f3eb5318-be75-4013-92e8-342d3c54666e"},"vehicle_type_id":"4","last_reported":1727647668,"current_range_meters":17600,"station_id":"ce4bhq12rcd13ifvqhhg","pricing_plan_id":"cebpf4jnsgd1na2vs0mg"},{"bike_id":"275b0a25-1a9f-498c-9202-be550b06c3de","system_id":"levelo_inurba_marseille","lat":43.32289,"lon":5.3828,"is_reserved":false,"is_disabled":false,"rental_uris":{"android":"levelo://app?vid=275b0a25-1a9f-498c-9202-be550b06c3de","ios":"levelo://app?vid=275b0a25-1a9f-498c-9202-be550b06c3de"},"vehicle_type_id":"4","last_reported":1727647668,"current_range_meters":38800,"station_id":"ce4bhr12rcd13ifvqhqg","pricing_plan_id":"cebpf4jnsgd1na2vs0mg"},{"bike_id":"7db7acf0-4167-4a62-b2c0-e0aaf43a8c18","system_id":"levelo_inurba_marseille","lat":43.29029,"lon":5.37553,"is_reserved":false,"is_disabled":false,"rental_uris":{"android":"levelo://app?vid=7db7acf0-4167-4a62-b2c0-e0aaf43a8c18","ios":"levelo://app?vid=7db7acf0-4167-4a62-b2c0-e0aaf43a8c18"},"vehicle_type_id":"4","last_reported":1727647668,"current_range_meters":38400,"station_id":"ce4bh692rcd13ifvqe90","pricing_plan_id":"cebpf4jnsgd1na2vs0mg"},{"bike_id":"d5298c24-3767-42cc-a3dc-622191cc7182","system_id":"levelo_inurba_marseille","lat":43.2318,"lon":5.39988,"is_reserved":false,"is_disabled":false,"rental_uris":{"android":"levelo://app?vid=d5298c24-3767-42cc-a3dc-622191cc7182","ios":"levelo://app?vid=d5298c24-3767-42cc-a3dc-622191cc7182"},"vehicle_type_id":"4","last_reported":1727647668,"current_range_meters":30800,"station_id":"ce4bhn12rcd13ifvqgqg","pricing_plan_id":"cebpf4jnsgd1na2vs0mg"},{"bike_id":"cdce5ed8-1437-41e2-b4e5-ad6337242012","system_id":"levelo_inurba_marseille","lat":43.31113,"lon":5.37763,"is_reserved":false,"is_disabled":false,"rental_uris":{"android":"levelo://app?vid=cdce5ed8-1437-41e2-b4e5-ad6337242012","ios":"levelo://app?vid=cdce5ed8-1437-41e2-b4e5-ad6337242012"},"vehicle_type_id":"4","last_reported":1727647668,"current_range_meters":38800,"station_id":"ce4bgt92rcd13ifvqcg0","pricing_plan_id":"cebpf4jnsgd1na2vs0mg"},{"bike_id":"0c3f0369-7cdf-4cba-a0db-09435ab8c8da","system_id":"levelo_inurba_marseille","lat":43.23184,"lon":5.40001,"is_reserved":false,"is_disabled":false,"rental_uris":{"android":"levelo://app?vid=0c3f0369-7cdf-4cba-a0db-09435ab8c8da","ios":"levelo://app?vid=0c3f0369-7cdf-4cba-a0db-09435ab8c8da"},"vehicle_type_id":"4","last_reported":1727647668,"current_range_meters":24400,"station_id":"ce4bhn12rcd13ifvqgqg","pricing_plan_id":"cebpf4jnsgd1na2vs0mg"},{"bike_id":"e058369b-45c2-4d7c-87fc-2ba5e979e52d","system_id":"levelo_inurba_marseille","lat":43.265585,"lon":5.39002,"is_reserved":false,"is_disabled":false,"rental_uris":{"android":"levelo://app?vid=e058369b-45c2-4d7c-87fc-2ba5e979e52d","ios":"levelo://app?vid=e058369b-45c2-4d7c-87fc-2ba5e979e52d"},"vehicle_type_id":"4","last_reported":1727647668,"current_range_meters":13600,"station_id":"ce4bhe12rcd13ifvqf30","pricing_plan_id":"cebpf4jnsgd1na2vs0mg"},{"bike_id":"9884cc31-b476-40cd-8167-3eb122f2d5db","system_id":"levelo_inurba_marseille","lat":43.28407,"lon":5.37507,"is_reserved":false,"is_disabled":false,"rental_uris":{"android":"levelo://app?vid=9884cc31-b476-40cd-8167-3eb122f2d5db","ios":"levelo://app?vid=9884cc31-b476-40cd-8167-3eb122f2d5db"},"vehicle_type_id":"4","last_reported":1727647668,"current_range_meters":28400,"station_id":"ce4bh412rcd13ifvqds0","pricing_plan_id":"cebpf4jnsgd1na2vs0mg"},{"bike_id":"23ef1aa6-2589-4a02-a24a-f5f3352e03cf","system_id":"levelo_inurba_marseille","lat":43.2926,"lon":5.40132,"is_reserved":false,"is_disabled":false,"rental_uris":{"android":"levelo://app?vid=23ef1aa6-2589-4a02-a24a-f5f3352e03cf","ios":"levelo://app?vid=23ef1aa6-2589-4a02-a24a-f5f3352e03cf"},"vehicle_type_id":"4","last_reported":1727647668,"current_range_meters":36400,"station_id":"ce4bh312rcd13ifvqdk0","pricing_plan_id":"cebpf4jnsgd1na2vs0mg"},{"bike_id":"4db49256-52da-4b24-bc91-56eb058f00e1","system_id":"levelo_inurba_marseille","lat":43.25717,"lon":5.41113,"is_reserved":false,"is_disabled":false,"rental_uris":{"android":"levelo://app?vid=4db49256-52da-4b24-bc91-56eb058f00e1","ios":"levelo://app?vid=4db49256-52da-4b24-bc91-56eb058f00e1"},"vehicle_type_id":"4","last_reported":1727647668,"current_range_meters":39200,"station_id":"ce4bhkp2rcd13ifvqgd0","pricing_plan_id":"cebpf4jnsgd1na2vs0mg"},{"bike_id":"eba852a4-747a-4587-beda-73a7707120c4","system_id":"levelo_inurba_marseille","lat":43.28431,"lon":5.39179,"is_reserved":false,"is_disabled":false,"rental_uris":{"android":"levelo://app?vid=eba852a4-747a-4587-beda-73a7707120c4","ios":"levelo://app?vid=eba852a4-747a-4587-beda-73a7707120c4"},"vehicle_type_id":"4","last_reported":1727647668,"current_range_meters":16000,"station_id":"ce4bhoh2rcd13ifvqh5g","pricing_plan_id":"cebpf4jnsgd1na2vs0mg"},{"bike_id":"859d1755-c959-4dff-af3d-04c4c7e283a1","system_id":"levelo_inurba_marseille","lat":43.25114,"lon":5.40324,"is_reserved":false,"is_disabled":false,"rental_uris":{"android":"levelo://app?vid=859d1755-c959-4dff-af3d-04c4c7e283a1","ios":"levelo://app?vid=859d1755-c959-4dff-af3d-04c4c7e283a1"},"vehicle_type_id":"4","last_reported":1727647668,"current_range_meters":38800,"station_id":"ce4bhlh2rcd13ifvqgig","pricing_plan_id":"cebpf4jnsgd1na2vs0mg"},{"bike_id":"7964b45b-3ebc-4f3c-ae66-bbcd94d8f929","system_id":"levelo_inurba_marseille","lat":43.30657,"lon":5.4008,"is_reserved":false,"is_disabled":false,"rental_uris":{"android":"levelo://app?vid=7964b45b-3ebc-4f3c-ae66-bbcd94d8f929","ios":"levelo://app?vid=7964b45b-3ebc-4f3c-ae66-bbcd94d8f929"},"vehicle_type_id":"4","last_reported":1727647668,"current_range_meters":38800,"station_id":"ce4bh112rcd13ifvqda0","pricing_plan_id":"cebpf4jnsgd1na2vs0mg"},{"bike_id":"e7de440b-45ed-46a8-99b6-cf20a42fade8","system_id":"levelo_inurba_marseille","lat":43.32294,"lon":5.38267,"is_reserved":false,"is_disabled":false,"rental_uris":{"android":"levelo://app?vid=e7de440b-45ed-46a8-99b6-cf20a42fade8","ios":"levelo://app?vid=e7de440b-45ed-46a8-99b6-cf20a42fade8"},"vehicle_type_id":"4","last_reported":1727647668,"current_range_meters":32400,"station_id":"ce4bhr12rcd13ifvqhqg","pricing_plan_id":"cebpf4jnsgd1na2vs0mg"},{"bike_id":"e4361fa2-90d9-45ff-9d8a-e7b112f4e011","system_id":"levelo_inurba_marseille","lat":43.28505,"lon":5.39115,"is_reserved":false,"is_disabled":false,"rental_uris":{"android":"levelo://app?vid=e4361fa2-90d9-45ff-9d8a-e7b112f4e011","ios":"levelo://app?vid=e4361fa2-90d9-45ff-9d8a-e7b112f4e011"},"vehicle_type_id":"4","last_reported":1727647668,"current_range_meters":26800,"station_id":"ce4bh3p2rcd13ifvqdp0","pricing_plan_id":"cebpf4jnsgd1na2vs0mg"},{"bike_id":"b1a8b05b-dd35-47af-849e-1fd8f1522a8b","system_id":"levelo_inurba_marseille","lat":43.30796,"lon":5.38152,"is_reserved":false,"is_disabled":false,"rental_uris":{"android":"levelo://app?vid=b1a8b05b-dd35-47af-849e-1fd8f1522a8b","ios":"levelo://app?vid=b1a8b05b-dd35-47af-849e-1fd8f1522a8b"},"vehicle_type_id":"4","last_reported":1727647668,"current_range_meters":39200,"station_id":"ce4bgt12rcd13ifvqce0","pricing_plan_id":"cebpf4jnsgd1na2vs0mg"},{"bike_id":"73bf95c5-2f92-4d3e-9faa-58d15b7b4474","system_id":"levelo_inurba_marseille","lat":43.295532,"lon":5.393914,"is_reserved":false,"is_disabled":false,"rental_uris":{"android":"levelo://app?vid=73bf95c5-2f92-4d3e-9faa-58d15b7b4474","ios":"levelo://app?vid=73bf95c5-2f92-4d3e-9faa-58d15b7b4474"},"vehicle_type_id":"4","last_reported":1727647668,"current_range_meters":20400,"station_id":"ce4bh292rcd13ifvqdf0","pricing_plan_id":"cebpf4jnsgd1na2vs0mg"},{"bike_id":"73dcb1e9-26e8-40ac-927a-4fc985af5057","system_id":"levelo_inurba_marseille","lat":43.28698,"lon":5.3738,"is_reserved":false,"is_disabled":false,"rental_uris":{"android":"levelo://app?vid=73dcb1e9-26e8-40ac-927a-4fc985af5057","ios":"levelo://app?vid=73dcb1e9-26e8-40ac-927a-4fc985af5057"},"vehicle_type_id":"4","last_reported":1727647668,"current_range_meters":38800,"station_id":"ce4bh3p2rcd13ifvqdq0","pricing_plan_id":"cebpf4jnsgd1na2vs0mg"},{"bike_id":"dacb2420-fc59-4941-bcda-bc25c99e7f43","system_id":"levelo_inurba_marseille","lat":43.31756,"lon":5.39023,"is_reserved":false,"is_disabled":false,"rental_uris":{"android":"levelo://app?vid=dacb2420-fc59-4941-bcda-bc25c99e7f43","ios":"levelo://app?vid=dacb2420-fc59-4941-bcda-bc25c99e7f43"},"vehicle_type_id":"4","last_reported":1727647668,"current_range_meters":36800,"station_id":"ce4bhqp2rcd13ifvqhng","pricing_plan_id":"cebpf4jnsgd1na2vs0mg"},{"bike_id":"9107b404-1a09-424d-9870-9a7be2221e81","system_id":"levelo_inurba_marseille","lat":43.24182,"lon":5.39721,"is_reserved":false,"is_disabled":false,"rental_uris":{"android":"levelo://app?vid=9107b404-1a09-424d-9870-9a7be2221e81","ios":"levelo://app?vid=9107b404-1a09-424d-9870-9a7be2221e81"},"vehicle_type_id":"4","last_reported":1727647668,"current_range_meters":14400,"station_id":"ce4bhn12rcd13ifvqgpg","pricing_plan_id":"cebpf4jnsgd1na2vs0mg"},{"bike_id":"6eff8d2d-61fa-4715-9388-b30a052d3e98","system_id":"levelo_inurba_marseille","lat":43.337444,"lon":5.374475,"is_reserved":false,"is_disabled":false,"rental_uris":{"android":"levelo://app?vid=6eff8d2d-61fa-4715-9388-b30a052d3e98","ios":"levelo://app?vid=6eff8d2d-61fa-4715-9388-b30a052d3e98"},"vehicle_type_id":"4","last_reported":1727647668,"current_range_meters":26800,"station_id":"","pricing_plan_id":"cebpf4jnsgd1na2vs0mg"},{"bike_id":"5561ba97-cc61-4a9c-bb93-36a893b9716f","system_id":"levelo_inurba_marseille","lat":43.28914,"lon":5.42425,"is_reserved":false,"is_disabled":false,"rental_uris":{"android":"levelo://app?vid=5561ba97-cc61-4a9c-bb93-36a893b9716f","ios":"levelo://app?vid=5561ba97-cc61-4a9c-bb93-36a893b9716f"},"vehicle_type_id":"4","last_reported":1727647668,"current_range_meters":32000,"station_id":"","pricing_plan_id":"cebpf4jnsgd1na2vs0mg"},{"bike_id":"70524e06-6152-4ea0-a184-eecadd87f150","system_id":"levelo_inurba_marseille","lat":43.30884,"lon":5.39625,"is_reserved":false,"is_disabled":false,"rental_uris":{"android":"levelo://app?vid=70524e06-6152-4ea0-a184-eecadd87f150","ios":"levelo://app?vid=70524e06-6152-4ea0-a184-eecadd87f150"},"vehicle_type_id":"4","last_reported":1727647668,"current_range_meters":5600,"station_id":"ce4bh012rcd13ifvqcv0","pricing_plan_id":"cebpf4jnsgd1na2vs0mg"},{"bike_id":"134f9003-160a-459b-bf1f-5a145ddf7eb2","system_id":"levelo_inurba_marseille","lat":43.31379,"lon":5.38504,"is_reserved":false,"is_disabled":false,"rental_uris":{"android":"levelo://app?vid=134f9003-160a-459b-bf1f-5a145ddf7eb2","ios":"levelo://app?vid=134f9003-160a-459b-bf1f-5a145ddf7eb2"},"vehicle_type_id":"4","last_reported":1727647668,"current_range_meters":16000,"station_id":"ce4bgt92rcd13ifvqcf0","pricing_plan_id":"cebpf4jnsgd1na2vs0mg"},{"bike_id":"8513c244-5dce-407d-9ac0-b3127525d896","system_id":"levelo_inurba_marseille","lat":43.32335,"lon":5.40625,"is_reserved":false,"is_disabled":false,"rental_uris":{"android":"levelo://app?vid=8513c244-5dce-407d-9ac0-b3127525d896","ios":"levelo://app?vid=8513c244-5dce-407d-9ac0-b3127525d896"},"vehicle_type_id":"4","last_reported":1727647668,"current_range_meters":38400,"station_id":"ce4bhq92rcd13ifvqhjg","pricing_plan_id":"cebpf4jnsgd1na2vs0mg"},{"bike_id":"49103c36-092f-43a6-a665-96ac4218adb8","system_id":"levelo_inurba_marseille","lat":43.32297,"lon":5.38269,"is_reserved":false,"is_disabled":false,"rental_uris":{"android":"levelo://app?vid=49103c36-092f-43a6-a665-96ac4218adb8","ios":"levelo://app?vid=49103c36-092f-43a6-a665-96ac4218adb8"},"vehicle_type_id":"4","last_reported":1727647668,"current_range_meters":39200,"station_id":"ce4bhr12rcd13ifvqhqg","pricing_plan_id":"cebpf4jnsgd1na2vs0mg"},{"bike_id":"2781c39f-676f-4002-aaca-fa2a82ec1bbb","system_id":"levelo_inurba_marseille","lat":43.27982,"lon":5.38737,"is_reserved":false,"is_disabled":false,"rental_uris":{"android":"levelo://app?vid=2781c39f-676f-4002-aaca-fa2a82ec1bbb","ios":"levelo://app?vid=2781c39f-676f-4002-aaca-fa2a82ec1bbb"},"vehicle_type_id":"4","last_reported":1727647668,"current_range_meters":28400,"station_id":"ce4bhg12rcd13ifvqf80","pricing_plan_id":"cebpf4jnsgd1na2vs0mg"},{"bike_id":"4b8ecbf4-7e50-45a7-b04a-2eefdb2000c9","system_id":"levelo_inurba_marseille","lat":43.32364,"lon":5.38879,"is_reserved":false,"is_disabled":false,"rental_uris":{"android":"levelo://app?vid=4b8ecbf4-7e50-45a7-b04a-2eefdb2000c9","ios":"levelo://app?vid=4b8ecbf4-7e50-45a7-b04a-2eefdb2000c9"},"vehicle_type_id":"4","last_reported":1727647668,"current_range_meters":24800,"station_id":"ce4bhqp2rcd13ifvqhog","pricing_plan_id":"cebpf4jnsgd1na2vs0mg"},{"bike_id":"fdf3c082-2712-499c-b4a6-a59e5556c473","system_id":"levelo_inurba_marseille","lat":43.30938,"lon":5.40151,"is_reserved":false,"is_disabled":false,"rental_uris":{"android":"levelo://app?vid=fdf3c082-2712-499c-b4a6-a59e5556c473","ios":"levelo://app?vid=fdf3c082-2712-499c-b4a6-a59e5556c473"},"vehicle_type_id":"4","last_reported":1727647668,"current_range_meters":17600,"station_id":"ce4bgvp2rcd13ifvqct0","pricing_plan_id":"cebpf4jnsgd1na2vs0mg"},{"bike_id":"6f0f9c32-de70-4574-9b89-cca29ab0554e","system_id":"levelo_inurba_marseille","lat":43.337444,"lon":5.374475,"is_reserved":false,"is_disabled":false,"rental_uris":{"android":"levelo://app?vid=6f0f9c32-de70-4574-9b89-cca29ab0554e","ios":"levelo://app?vid=6f0f9c32-de70-4574-9b89-cca29ab0554e"},"vehicle_type_id":"4","last_reported":1727647668,"current_range_meters":24400,"station_id":"","pricing_plan_id":"cebpf4jnsgd1na2vs0mg"},{"bike_id":"44ebb7f9-81e7-4737-8a9e-afd85c147f3d","system_id":"levelo_inurba_marseille","lat":43.312262,"lon":5.368495,"is_reserved":false,"is_disabled":false,"rental_uris":{"android":"levelo://app?vid=44ebb7f9-81e7-4737-8a9e-afd85c147f3d","ios":"levelo://app?vid=44ebb7f9-81e7-4737-8a9e-afd85c147f3d"},"vehicle_type_id":"4","last_reported":1727647668,"current_range_meters":36400,"station_id":"ce4bgl92rcd13ifvqbq0","pricing_plan_id":"cebpf4jnsgd1na2vs0mg"},