{"last_updated":1719086837,"ttl":30,"version":"2.2","data":{"bikes":[{"bike_id":"51e185f8-0242-45bf-8d42-5f88c148bc37","system_id":"levelo_inurba_marseille","lat":43.312239,"lon":5.368562,"is_reserved":false,"is_disabled":false,"rental_uris":{"android":"levelo://app?vid=51e185f8-0242-45bf-8d42-5f88c148bc37","ios":"levelo://app?vid=51e185f8-0242-45bf-8d42-5f88c148bc37"},"vehicle_type_id":"4","last_reported":1719086837,"current_range_meters":14000,"station_id":"ce4bgl92rcd13ifvqbq0","pricing_plan_id":"cebpf4jnsgd1na2vs0mg"},{"bike_id":"24d509b5-ef37-465b-b8cc-6a71986a5c4f","system_id":"levelo_inurba_marseille","lat":43.308663,"lon":5.368071,"is_reserved":false,"is_disabled":false,"rental_uris":{"android":"levelo://app?vid=24d509b5-ef37-465b-b8cc-6a71986a5c4f","ios":"levelo://app?vid=24d509b5-ef37-465b-b8cc-6a71986a5c4f"},"vehicle_type_id":"4","last_reported":1719086837,"current_range_meters":19600,"station_id":"","pricing_plan_id":"cebpf4jnsgd1na2vs0mg"},{"bike_id":"77460ccb-960a-4153-8783-e0a172f31a95","system_id":"levelo_inurba_marseille","lat":43.30856,"lon":5.36806,"is_reserved":false,"is_disabled":false,"rental_uris":{"android":"levelo://app?vid=77460ccb-960a-4153-8783-e0a172f31a95","ios":"levelo://app?vid=77460ccb-960a-4153-8783-e0a172f31a95"},"vehicle_type_id":"4","last_reported":1719086837,"current_range_meters":6800,"station_id":"","pricing_plan_id":"cebpf4jnsgd1na2vs0mg"},{"bike_id":"210f019d-a9f4-4daf-a691-b62b08938fbf","system_id":"levelo_inurba_marseille","lat":43.314811,"lon":5.373103,"is_reserved":false,"is_disabled":false,"rental_uris":{"android":"levelo://app?vid=210f019d-a9f4-4daf-a691-b62b08938fbf","ios":"levelo://app?vid=210f019d-a9f4-4daf-a691-b62b08938fbf"},"vehicle_type_id":"4","last_reported":1719086837,"current_range_meters":18000,"station_id":"ce4bgt12rcd13ifvqcd0","pricing_plan_id":"cebpf4jnsgd1na2vs0mg"},{"bike_id":"20f31c62-307b-4c16-93b6-6fcc5accd677","system_id":"levelo_inurba_marseille","lat":43.31458,"lon":5.373641,"is_reserved":false,"is_disabled":false,"rental_uris":{"android":"levelo://app?vid=20f31c62-307b-4c16-93b6-6fcc5accd677","ios":"levelo://app?vid=20f31c62-307b-4c16-93b6-6fcc5accd677"},"vehicle_type_id":"4","last_reported":1719086837,"current_range_meters":15200,"station_id":"","pricing_plan_id":"cebpf4jnsgd1na2vs0mg"},{"bike_id":"cc38f359-b66e-4594-b309-7c06f20cdeb6","system_id":"levelo_inurba_marseille","lat":43.309039,"lon":5.371797,"is_reserved":false,"is_disabled":false,"rental_uris":{"android":"levelo://app?vid=cc38f359-b66e-4594-b309-7c06f20cdeb6","ios":"levelo://app?vid=cc38f359-b66e-4594-b309-7c06f20cdeb6"},"vehicle_type_id":"4","last_reported":1719086837,"current_range_meters":14000,"station_id":"ce4bguh2rcd13ifvqckg","pricing_plan_id":"cebpf4jnsgd1na2vs0mg"},{"bike_id":"c2e0659d-7275-495d-8381-d2828d403ea9","system_id":"levelo_inurba_marseille","lat":43.314811,"lon":5.373103,"is_reserved":false,"is_disabled":false,"rental_uris":{"android":"levelo://app?vid=c2e0659d-7275-495d-8381-d2828d403ea9","ios":"levelo://app?vid=c2e0659d-7275-495d-8381-d2828d403ea9"},"vehicle_type_id":"4","last_reported":1719086837,"current_range_meters":6800,"station_id":"ce4bgt12rcd13ifvqcd0","pricing_plan_id":"cebpf4jnsgd1na2vs0mg"},{"bike_id":"a43e7e1e-e283-47ba-bb74-77104a25b45c","system_id":"levelo_inurba_marseille","lat":43.30532,"lon":5.36661,"is_reserved":false,"is_disabled":false,"rental_uris":{"android":"levelo://app?vid=a43e7e1e-e283-47ba-bb74-77104a25b45c","ios":"levelo://app?vid=a43e7e1e-e283-47ba-bb74-77104a25b45c"},"vehicle_type_id":"4","last_reported":1719086837,"current_range_meters":21200,"station_id":"","pricing_plan_id":"cebpf4jnsgd1na2vs0mg"},{"bike_id":"6ad1245d-1701-4181-a528-d6400c564fb9","system_id":"levelo_inurba_marseille","lat":43.305989,"lon":5.37225,"is_reserved":false,"is_disabled":false,"rental_uris":{"android":"levelo://app?vid=6ad1245d-1701-4181-a528-d6400c564fb9","ios":"levelo://app?vid=6ad1245d-1701-4181-a528-d6400c564fb9"},"vehicle_type_id":"4","last_reported":1719086837,"current_range_meters":26000,"station_id":"ce4bgqh2rcd13ifvqc4g","pricing_plan_id":"cebpf4jnsgd1na2vs0mg"},{"bike_id":"3eb4c039-b6f3-4b63-8ea0-c58c73735457","system_id":"levelo_inurba_marseille","lat":43.305989,"lon":5.37225,"is_reserved":false,"is_disabled":false,"rental_uris":{"android":"levelo://app?vid=3eb4c039-b6f3-4b63-8ea0-c58c73735457","ios":"levelo://app?vid=3eb4c039-b6f3-4b63-8ea0-c58c73735457"},"vehicle_type_id":"4","last_reported":1719086837,"current_range_meters":17600,"station_id":"ce4bgqh2rcd13ifvqc4g","pricing_plan_id":"cebpf4jnsgd1na2vs0mg"},{"bike_id":"16791005-3eb9-4b10-97e2-28858b95c8b7","system_id":"levelo_inurba_marseille","lat":43.311125,"lon":5.377624,"is_reserved":false,"is_disabled":false,"rental_uris":{"android":"levelo://app?vid=16791005-3eb9-4b10-97e2-28858b95c8b7","ios":"levelo://app?vid=16791005-3eb9-4b10-97e2-28858b95c8b7"},"vehicle_type_id":"4","last_reported":1719086837,"current_range_meters":10400,"station_id":"ce4bgt92rcd13ifvqcg0","pricing_plan_id":"cebpf4jnsgd1na2vs0mg"},{"bike_id":"d46ab9df-ade0-4f53-a8a7-d2f384f3f540","system_id":"levelo_inurba_marseille","lat":43.311171,"lon":5.377786,"is_reserved":false,"is_disabled":false,"rental_uris":{"android":"levelo://app?vid=d46ab9df-ade0-4f53-a8a7-d2f384f3f540","ios":"levelo://app?vid=d46ab9df-ade0-4f53-a8a7-d2f384f3f540"},"vehicle_type_id":"4","last_reported":1719086837,"current_range_meters":0,"station_id":"ce4bgt92rcd13ifvqcg0","pricing_plan_id":"cebpf4jnsgd1na2vs0mg"},{"bike_id":"0e1a6dba-f955-4f65-9a46-c225283dd3f6","system_id":"levelo_inurba_marseille","lat":43.307945,"lon":5.376487,"is_reserved":false,"is_disabled":false,"rental_uris":{"android":"levelo://app?vid=0e1a6dba-f955-4f65-9a46-c225283dd3f6","ios":"levelo://app?vid=0e1a6dba-f955-4f65-9a46-c225283dd3f6"},"vehicle_type_id":"4","last_reported":1719086837,"current_range_meters":30800,"station_id":"ce4bgv92rcd13ifvqcq0","pricing_plan_id":"cebpf4jnsgd1na2vs0mg"},{"bike_id":"8d974622-11ad-4574-a5ed-380f0e25b182","system_id":"levelo_inurba_marseille","lat":43.317075,"lon":5.377367,"is_reserved":false,"is_disabled":false,"rental_uris":{"android":"levelo://app?vid=8d974622-11ad-4574-a5ed-380f0e25b182","ios":"levelo://app?vid=8d974622-11ad-4574-a5ed-380f0e25b182"},"vehicle_type_id":"4","last_reported":1719086837,"current_range_meters":31200,"station_id":"ce4bgth2rcd13ifvqch0","pricing_plan_id":"cebpf4jnsgd1na2vs0mg"},{"bike_id":"aab79dad-a1ae-4339-8c96-06cf6a1df262","system_id":"levelo_inurba_marseille","lat":43.317075,"lon":5.377367,"is_reserved":false,"is_disabled":false,"rental_uris":{"android":"levelo://app?vid=aab79dad-a1ae-4339-8c96-06cf6a1df262","ios":"levelo://app?vid=aab79dad-a1ae-4339-8c96-06cf6a1df262"},"vehicle_type_id":"4","last_reported":1719086837,"current_range_meters":2800,"station_id":"ce4bgth2rcd13ifvqch0","pricing_plan_id":"cebpf4jnsgd1na2vs0mg"},{"bike_id":"b3cbeb85-32b2-4d2d-bb4a-f6f585be38d9","system_id":"levelo_inurba_marseille","lat":43.317075,"lon":5.377367,"is_reserved":false,"is_disabled":false,"rental_uris":{"android":"levelo://app?vid=b3cbeb85-32b2-4d2d-bb4a-f6f585be38d9","ios":"levelo://app?vid=b3cbeb85-32b2-4d2d-bb4a-f6f585be38d9"},"vehicle_type_id":"4","last_reported":1719086837,"current_range_meters":0,"station_id":"ce4bgth2rcd13ifvqch0","pricing_plan_id":"cebpf4jnsgd1na2vs0mg"},{"bike_id":"2cd51ec7-b6ca-4502-90f1-ee33eefb9b73","system_id":"levelo_inurba_marseille","lat":43.30882,"lon":5.37859,"is_reserved":false,"is_disabled":false,"rental_uris":{"android":"levelo://app?vid=2cd51ec7-b6ca-4502-90f1-ee33eefb9b73","ios":"levelo://app?vid=2cd51ec7-b6ca-4502-90f1-ee33eefb9b73"},"vehicle_type_id":"4","last_reported":1719086837,"current_range_meters":30800,"station_id":"","pricing_plan_id":"cebpf4jnsgd1na2vs0mg"},{"bike_id":"3e6229a9-daa1-4e8e-b7ec-60b28f97252f","system_id":"levelo_inurba_marseille","lat":43.30343,"lon":5.3684,"is_reserved":false,"is_disabled":false,"rental_uris":{"android":"levelo://app?vid=3e6229a9-daa1-4e8e-b7ec-60b28f97252f","ios":"levelo://app?vid=3e6229a9-daa1-4e8e-b7ec-60b28f97252f"},"vehicle_type_id":"4","last_reported":1719086837,"current_range_meters":2800,"station_id":"","pricing_plan_id":"cebpf4jnsgd1na2vs0mg"},{"bike_id":"84e1f569-287f-4a53-84dc-da77579a0d0f","system_id":"levelo_inurba_marseille","lat":43.315289,"lon":5.380349,"is_reserved":false,"is_disabled":false,"rental_uris":{"android":"levelo://app?vid=84e1f569-287f-4a53-84dc-da77579a0d0f","ios":"levelo://app?vid=84e1f569-287f-4a53-84dc-da77579a0d0f"},"vehicle_type_id":"4","last_reported":1719086837,"current_range_meters":4000,"station_id":"ce4bhsp2rcd13ifvqi50","pricing_plan_id":"cebpf4jnsgd1na2vs0mg"},{"bike_id":"5b8007bb-0dd8-4352-b213-d088b8c4b4e0","system_id":"levelo_inurba_marseille","lat":43.31556,"lon":5.3801,"is_reserved":false,"is_disabled":false,"rental_uris":{"android":"levelo://app?vid=5b8007bb-0dd8-4352-b213-d088b8c4b4e0","ios":"levelo://app?vid=5b8007bb-0dd8-4352-b213-d088b8c4b4e0"},"vehicle_type_id":"4","last_reported":1719086837,"current_range_meters":7200,"station_id":"ce4bhsp2rcd13ifvqi50","pricing_plan_id":"cebpf4jnsgd1na2vs0mg"},{"bike_id":"d7febebb-f126-4a6e-8aad-951d2fc0b7cd","system_id":"levelo_inurba_marseille","lat":43.31564,"lon":5.38008,"is_reserved":false,"is_disabled":false,"rental_uris":{"android":"levelo://app?vid=d7febebb-f126-4a6e-8aad-951d2fc0b7cd","ios":"levelo://app?vid=d7febebb-f126-4a6e-8aad-951d2fc0b7cd"},"vehicle_type_id":"4","last_reported":1719086837,"current_range_meters":400,"station_id":"ce4bhsp2rcd13ifvqi50","pricing_plan_id":"cebpf4jnsgd1na2vs0mg"},{"bike_id":"1aa9382d-bd55-4aff-8971-b23615fccdae","system_id":"levelo_inurba_marseille","lat":43.311,"lon":5.38145,"is_reserved":false,"is_disabled":false,"rental_uris":{"android":"levelo://app?vid=1aa9382d-bd55-4aff-8971-b23615fccdae","ios":"levelo://app?vid=1aa9382d-bd55-4aff-8971-b23615fccdae"},"vehicle_type_id":"4","last_reported":1719086837,"current_range_meters":4400,"station_id":"","pricing_plan_id":"cebpf4jnsgd1na2vs0mg"},{"bike_id":"13653933-1b92-4a37-9a60-a230560bd5c0","system_id":"levelo_inurba_marseille","lat":43.301939,"lon":5.366286,"is_reserved":false,"is_disabled":false,"rental_uris":{"android":"levelo://app?vid=13653933-1b92-4a37-9a60-a230560bd5c0","ios":"levelo://app?vid=13653933-1b92-4a37-9a60-a230560bd5c0"},"vehicle_type_id":"4","last_reported":1719086837,"current_range_meters":28800,"station_id":"ce4bgrh2rcd13ifvqc8g","pricing_plan_id":"cebpf4jnsgd1na2vs0mg"},{"bike_id":"c8d74784-cfa3-4dc0-a55e-c53d6b6b7590","system_id":"levelo_inurba_marseille","lat":43.31304,"lon":5.38178,"is_reserved":false,"is_disabled":false,"rental_uris":{"android":"levelo://app?vid=c8d74784-cfa3-4dc0-a55e-c53d6b6b7590","ios":"levelo://app?vid=c8d74784-cfa3-4dc0-a55e-c53d6b6b7590"},"vehicle_type_id":"4","last_reported":1719086837,"current_range_meters":16000,"station_id":"","pricing_plan_id":"cebpf4jnsgd1na2vs0mg"},{"bike_id":"c211cbb3-fb38-47b7-828f-0a0b4e7a837c","system_id":"levelo_inurba_marseille","lat":43.308012,"lon":5.381511,"is_reserved":false,"is_disabled":false,"rental_uris":{"android":"levelo://app?vid=c211cbb3-fb38-47b7-828f-0a0b4e7a837c","ios":"levelo://app?vid=c211cbb3-fb38-47b7-828f-0a0b4e7a837c"},"vehicle_type_id":"4","last_reported":1719086837,"current_range_meters":25200,"station_id":"ce4bgt12rcd13ifvqce0","pricing_plan_id":"cebpf4jnsgd1na2vs0mg"},{"bike_id":"a724626e-c376-4885-bb2c-c1605be9a37e","system_id":"levelo_inurba_marseille","lat":43.308012,"lon":5.381511,"is_reserved":false,"is_disabled":false,"rental_uris":{"android":"levelo://app?vid=a724626e-c376-4885-bb2c-c1605be9a37e","ios":"levelo://app?vid=a724626e-c376-4885-bb2c-c1605be9a37e"},"vehicle_type_id":"4","last_reported":1719086837,"current_range_meters":22400,"station_id":"ce4bgt12rcd13ifvqce0","pricing_plan_id":"cebpf4jnsgd1na2vs0mg"},{"bike_id":"e8a110ff-f559-417d-86a8-89be7b2b4abb","system_id":"levelo_inurba_marseille","lat":43.308012,"lon":5.381511,"is_reserved":false,"is_disabled":false,"rental_uris":{"android":"levelo://app?vid=e8a110ff-f559-417d-86a8-89be7b2b4abb","ios":"levelo://app?vid=e8a110ff-f559-417d-86a8-89be7b2b4abb"},"vehicle_type_id":"4","last_reported":1719086837,"current_range_meters":22000,"station_id":"ce4bgt12rcd13ifvqce0","pricing_plan_id":"cebpf4jnsgd1na2vs0mg"},{"bike_id":"08b38f81-a07f-4eac-b4f2-05b480ea867c","system_id":"levelo_inurba_marseille","lat":43.308012,"lon":5.381511,"is_reserved":false,"is_disabled":false,"rental_uris":{"android":"levelo://app?vid=08b38f81-a07f-4eac-b4f2-05b480ea867c","ios":"levelo://app?vid=08b38f81-a07f-4eac-b4f2-05b480ea867c"},"vehicle_type_id":"4","last_reported":1719086837,"current_range_meters":20000,"station_id":"ce4bgt12rcd13ifvqce0","pricing_plan_id":"cebpf4jnsgd1na2vs0mg"},{"bike_id":"244d5e99-758c-4771-818f-d86b197696af","system_id":"levelo_inurba_marseille","lat":43.308012,"lon":5.381511,"is_reserved":false,"is_disabled":false,"rental_uris":{"android":"levelo://app?vid=244d5e99-758c-4771-818f-d86b197696af","ios":"levelo://app?vid=244d5e99-758c-4771-818f-d86b197696af"},"vehicle_type_id":"4","last_reported":1719086837,"current_range_meters":22400,"station_id":"ce4bgt12rcd13ifvqce0","pricing_plan_id":"cebpf4jnsgd1na2vs0mg"},{"bike_id":"9a0b1071-955f-41a0-be70-cdf450179bbe","system_id":"levelo_inurba_marseille","lat":43.30143,"lon":5.37413,"is_reserved":false,"is_disabled":false,"rental_uris":{"android":"levelo://app?vid=9a0b1071-955f-41a0-be70-cdf450179bbe","ios":"levelo://app?vid=9a0b1071-955f-41a0-be70-cdf450179bbe"},"vehicle_type_id":"4","last_reported":1719086837,"current_range_meters":2400,"station_id":"ce4bgs92rcd13ifvqcc0","pricing_plan_id":"cebpf4jnsgd1na2vs0mg"},{"bike_id":"ed14ec74-1f1c-4cfd-8d26-59aa92fdca8a","system_id":"levelo_inurba_marseille","lat":43.30082,"lon":5.367207,"is_reserved":false,"is_disabled":false,"rental_uris":{"android":"levelo://app?vid=ed14ec74-1f1c-4cfd-8d26-59aa92fdca8a","ios":"levelo://app?vid=ed14ec74-1f1c-4cfd-8d26-59aa92fdca8a"},"vehicle_type_id":"4","last_reported":1719086837,"current_range_meters":24800,"station_id":"","pricing_plan_id":"cebpf4jnsgd1na2vs0mg"},{"bike_id":"b4bef7df-047a-429f-b746-b32d1ebe7639","system_id":"levelo_inurba_marseille","lat":43.309885,"lon":5.382867,"is_reserved":false,"is_disabled":false,"rental_uris":{"android":"levelo://app?vid=b4bef7df-047a-429f-b746-b32d1ebe7639","ios":"levelo://app?vid=b4bef7df-047a-429f-b746-b32d1ebe7639"},"vehicle_type_id":"4","last_reported":1719086837,"current_range_meters":0,"station_id":"","pricing_plan_id":"cebpf4jnsgd1na2vs0mg"},{"bike_id":"1a3b2049-3b40-43cc-805e-8cfb34f4287f","system_id":"levelo_inurba_marseille","lat":43.324771,"lon":5.36557,"is_reserved":false,"is_disabled":false,"rental_uris":{"android":"levelo://app?vid=1a3b2049-3b40-43cc-805e-8cfb34f4287f","ios":"levelo://app?vid=1a3b2049-3b40-43cc-805e-8cfb34f4287f"},"vehicle_type_id":"4","last_reported":1719086837,"current_range_meters":16400,"station_id":"ce4bhs12rcd13ifvqhvg","pricing_plan_id":"cebpf4jnsgd1na2vs0mg"},{"bike_id":"fa6a2e8c-4468-46a8-8ee4-11e01eb98e13","system_id":"levelo_inurba_marseille","lat":43.324771,"lon":5.36557,"is_reserved":false,"is_disabled":false,"rental_uris":{"android":"levelo://app?vid=fa6a2e8c-4468-46a8-8ee4-11e01eb98e13","ios":"levelo://app?vid=fa6a2e8c-4468-46a8-8ee4-11e01eb98e13"},"vehicle_type_id":"4","last_reported":1719086837,"current_range_meters":24400,"station_id":"ce4bhs12rcd13ifvqhvg","pricing_plan_id":"cebpf4jnsgd1na2vs0mg"},{"bike_id":"58454f76-190a-422d-b042-55262cfd6402","system_id":"levelo_inurba_marseille","lat":43.324771,"lon":5.36557,"is_reserved":false,"is_disabled":false,"rental_uris":{"android":"levelo://app?vid=58454f76-190a-422d-b042-55262cfd6402","ios":"levelo://app?vid=58454f76-190a-422d-b042-55262cfd6402"},"vehicle_type_id":"4","last_reported":1719086837,"current_range_meters":0,"station_id":"ce4bhs12rcd13ifvqhvg","pricing_plan_id":"cebpf4jnsgd1na2vs0mg"},{"bike_id":"05ec09e1-e4ed-4262-bae7-d0e78376b72c","system_id":"levelo_inurba_marseille","lat":43.324771,"lon":5.36557,"is_reserved":false,"is_disabled":false,"rental_uris":{"android":"levelo://app?vid=05ec09e1-e4ed-4262-bae7-d0e78376b72c","ios":"levelo://app?vid=05ec09e1-e4ed-4262-bae7-d0e78376b72c"},"vehicle_type_id":"4","last_reported":1719086837,"current_range_meters":22400,"station_id":"ce4bhs12rcd13ifvqhvg","pricing_plan_id":"cebpf4jnsgd1na2vs0mg"},{"bike_id":"cdbf83c5-51e3-44b2-b105-d08117c562ec","system_id":"levelo_inurba_marseille","lat":43.324771,"lon":5.36557,"is_reserved":false,"is_disabled":false,"rental_uris":{"android":"levelo://app?vid=cdbf83c5-51e3-44b2-b105-d08117c562ec","ios":"levelo://app?vid=cdbf83c5-51e3-44b2-b105-d08117c562ec"},"vehicle_type_id":"4","last_reported":1719086837,"current_range_meters":3200,"station_id":"ce4bhs12rcd13ifvqhvg","pricing_plan_id":"cebpf4jnsgd1na2vs0mg"},{"bike_id":"ad726aa4-6660-41a3-b91c-e6875decb13c","system_id":"levelo_inurba_marseille","lat":43.324771,"lon":5.36557,"is_reserved":false,"is_disabled":false,"rental_uris":{"android":"levelo://app?vid=ad726aa4-6660-41a3-b91c-e6875decb13c","ios":"levelo://app?vid=ad726aa4-6660-41a3-b91c-e6875decb13c"},"vehicle_type_id":"4","last_reported":1719086837,"current_range_meters":7200,"station_id":"ce4bhs12rcd13ifvqhvg","pricing_plan_id":"cebpf4jnsgd1na2vs0mg"},{"bike_id":"a181c2bd-cda8-4598-ac39-96d1771e05c7","system_id":"levelo_inurba_marseille","lat":43.310804,"lon":5.38359,"is_reserved":false,"is_disabled":false,"rental_uris":{"android":"levelo://app?vid=a181c2bd-cda8-4598-ac39-96d1771e05c7","ios":"levelo://app?vid=a181c2bd-cda8-4598-ac39-96d1771e05c7"},"vehicle_type_id":"4","last_reported":1719086837,"current_range_meters":4800,"station_id":"ce4bgv92rcd13ifvqcr0","pricing_plan_id":"cebpf4jnsgd1na2vs0mg"},{"bike_id":"85402e3f-5ec7-40d1-9fa5-19a2a83e90b5","system_id":"levelo_inurba_marseille","lat":43.310804,"lon":5.38359,"is_reserved":false,"is_disabled":false,"rental_uris":{"android":"levelo://app?vid=85402e3f-5ec7-40d1-9fa5-19a2a83e90b5","ios":"levelo://app?vid=85402e3f-5ec7-40d1-9fa5-19a2a83e90b5"},"vehicle_type_id":"4","last_reported":1719086837,"current_range_meters":4400,"station_id":"ce4bgv92rcd13ifvqcr0","pricing_plan_id":"cebpf4jnsgd1na2vs0mg"},{"bike_id":"1116170e-8e4e-43af-bcc0-ba311567b6cf","system_id":"levelo_inurba_marseille","lat":43.310804,"lon":5.38359,"is_reserved":false,"is_disabled":false,"rental_uris":{"android":"levelo://app?vid=1116170e-8e4e-43af-bcc0-ba311567b6cf","ios":"levelo://app?vid=1116170e-8e4e-43af-bcc0-ba311567b6cf"},"vehicle_type_id":"4","last_reported":1719086837,"current_range_meters":10800,"station_id":"ce4bgv92rcd13ifvqcr0","pricing_plan_id":"cebpf4jnsgd1na2vs0mg"},{"bike_id":"7b38ea2b-549b-410e-8a1b-b7b1c8714f66","system_id":"levelo_inurba_marseille","lat":43.302784,"lon":5.377158,"is_reserved":false,"is_disabled":false,"rental_uris":{"android":"levelo://app?vid=7b38ea2b-549b-410e-8a1b-b7b1c8714f66","ios":"levelo://app?vid=7b38ea2b-549b-410e-8a1b-b7b1c8714f66"},"vehicle_type_id":"4","last_reported":1719086837,"current_range_meters":30400,"station_id":"ce4bguh2rcd13ifvqcj0","pricing_plan_id":"cebpf4jnsgd1na2vs0mg"},{"bike_id":"7b11090a-a761-4404-a6c5-f48c8ffdb42d","system_id":"levelo_inurba_marseille","lat":43.30041,"lon":5.36915,"is_reserved":false,"is_disabled":false,"rental_uris":{"android":"levelo://app?vid=7b11090a-a761-4404-a6c5-f48c8ffdb42d","ios":"levelo://app?vid=7b11090a-a761-4404-a6c5-f48c8ffdb42d"},"vehicle_type_id":"4","last_reported":1719086837,"current_range_meters":0,"station_id":"","pricing_plan_id":"cebpf4jnsgd1na2vs0mg"},{"bike_id":"cefe9064-7d05-4b92-87b0-7b4484fc3c23","system_id":"levelo_inurba_marseille","lat":43.31994,"lon":5.38144,"is_reserved":false,"is_disabled":false,"rental_uris":{"android":"levelo://app?vid=cefe9064-7d05-4b92-87b0-7b4484fc3c23","ios":"levelo://app?vid=cefe9064-7d05-4b92-87b0-7b4484fc3c23"},"vehicle_type_id":"4","last_reported":1719086837,"current_range_meters":18000,"station_id":"ce4bhr12rcd13ifvqhpg","pricing_plan_id":"cebpf4jnsgd1na2vs0mg"},{"bike_id":"d3df22f5-4486-49d4-a52d-5da77ef13279","system_id":"levelo_inurba_marseille","lat":43.319935,"lon":5.381699,"is_reserved":false,"is_disabled":false,"rental_uris":{"android":"levelo://app?vid=d3df22f5-4486-49d4-a52d-5da77ef13279","ios":"levelo://app?vid=d3df22f5-4486-49d4-a52d-5da77ef13279"},"vehicle_type_id":"4","last_reported":1719086837,"current_range_meters":20400,"station_id":"ce4bhr12rcd13ifvqhpg","pricing_plan_id":"cebpf4jnsgd1na2vs0mg"},{"bike_id":"b31587ea-90e3-4300-82dc-c88d14281159","system_id":"levelo_inurba_marseille","lat":43.319935,"lon":5.381699,"is_reserved":false,"is_disabled":false,"rental_uris":{"android":"levelo://app?vid=b31587ea-90e3-4300-82dc-c88d14281159","ios":"levelo://app?vid=b31587ea-90e3-4300-82dc-c88d14281159"},"vehicle_type_id":"4","last_reported":1719086837,"current_range_meters":12400,"station_id":"ce4bhr12rcd13ifvqhpg","pricing_plan_id":"cebpf4jnsgd1na2vs0mg"},{"bike_id":"c152d780-14dc-4f59-9a51-5dd5449cdb29","system_id":"levelo_inurba_marseille","lat":43.31363,"lon":5.38484,"is_reserved":false,"is_disabled":false,"rental_uris":{"android":"levelo://app?vid=c152d780-14dc-4f59-9a51-5dd5449cdb29","ios":"levelo://app?vid=c152d780-14dc-4f59-9a51-5dd5449cdb29"},"vehicle_type_id":"4","last_reported":1719086837,"current_range_meters":4000,"station_id":"ce4bgt92rcd13ifvqcf0","pricing_plan_id":"cebpf4jnsgd1na2vs0mg"},{"bike_id":"55eb382a-1119-485f-a7a3-7c1c822107f2","system_id":"levelo_inurba_marseille","lat":43.313593,"lon":5.384857,"is_reserved":false,"is_disabled":false,"rental_uris":{"android":"levelo://app?vid=55eb382a-1119-485f-a7a3-7c1c822107f2","ios":"levelo://app?vid=55eb382a-1119-485f-a7a3-7c1c822107f2"},"vehicle_type_id":"4","last_reported":1719086837,"current_range_meters":6000,"station_id":"ce4bgt92rcd13ifvqcf0","pricing_plan_id":"cebpf4jnsgd1na2vs0mg"},{"bike_id":"9b2689c4-f07a-4667-a207-4a0c311efd02","system_id":"levelo_inurba_marseille","lat":43.313571,"lon":5.384829,"is_reserved":false,"is_disabled":false,"rental_uris":{"android":"levelo://app?vid=9b2689c4-f07a-4667-a207-4a0c311efd02","ios":"levelo://app?vid=9b2689c4-f07a-4667-a207-4a0c311efd02"},"vehicle_type_id":"4","last_reported":1719086837,"current_range_meters":21200,"station_id":"ce4bgt92rcd13ifvqcf0","pricing_plan_id":"cebpf4jnsgd1na2vs0mg"},{"bike_id":"4a7d91fc-f4ff-4bc4-be5e-c977bcfa0c11","system_id":"levelo_inurba_marseille","lat":43.313571,"lon":5.384829,"is_reserved":false,"is_disabled":false,"rental_uris":{"android":"levelo://app?vid=4a7d91fc-f4ff-4bc4-be5e-c977bcfa0c11","ios":"levelo://app?vid=4a7d91fc-f4ff-4bc4-be5e-c977bcfa0c11"},"vehicle_type_id":"4","last_reported":1719086837,"current_range_meters":800,"station_id":"ce4bgt92rcd13ifvqcf0","pricing_plan_id":"cebpf4jnsgd1na2vs0mg"},{"bike_id":"014ab7bf-0c23-4c99-a5a7-ecb3d1e9c784","system_id":"levelo_inurba_marseille","lat":43.31355,"lon":5.38493,"is_reserved":false,"is_disabled":false,"rental_uris":{"android":"levelo://app?vid=014ab7bf-0c23-4c99-a5a7-ecb3d1e9c784","ios":"levelo://app?vid=014ab7bf-0c23-4c99-a5a7-ecb3d1e9c784"},"vehicle_type_id":"4","last_reported":1719086837,"current_range_meters":25600,"station_id":"ce4bgt92rcd13ifvqcf0","pricing_plan_id":"cebpf4jnsgd1na2vs0mg"},{"bike_id":"9a199829-4657-445d-aa5f-f67a323f93d0","system_id":"levelo_inurba_marseille","lat":43.31364,"lon":5.38493,"is_reserved":false,"is_disabled":false,"rental_uris":{"android":"levelo://app?vid=9a199829-4657-445d-aa5f-f67a323f93d0","ios":"levelo://app?vid=9a199829-4657-445d-aa5f-f67a323f93d0"},"vehicle_type_id":"4","last_reported":1719086837,"current_range_meters":26400,"station_id":"ce4bgt92rcd13ifvqcf0","pricing_plan_id":"cebpf4jnsgd1na2vs0mg"},{"bike_id":"0d416a4d-f77a-4a8d-b0ee-2bc7afcb94d1","system_id":"levelo_inurba_marseille","lat":43.313676,"lon":5.384928,"is_reserved":false,"is_disabled":false,"rental_uris":{"android":"levelo://app?vid=0d416a4d-f77a-4a8d-b0ee-2bc7afcb94d1","ios":"levelo://app?vid=0d416a4d-f77a-4a8d-b0ee-2bc7afcb94d1"},"vehicle_type_id":"4","last_reported":1719086837,"current_range_meters":17600,"station_id":"ce4bgt92rcd13ifvqcf0","pricing_plan_id":"cebpf4jnsgd1na2vs0mg"},{"bike_id":"f9a3720a-68e2-42f5-9ab0-78f8c15d99a5","system_id":"levelo_inurba_marseille","lat":43.313571,"lon":5.384829,"is_reserved":false,"is_disabled":false,"rental_uris":{"android":"levelo://app?vid=f9a3720a-68e2-42f5-9ab0-78f8c15d99a5","ios":"levelo://app?vid=f9a3720a-68e2-42f5-9ab0-78f8c15d99a5"},"vehicle_type_id":"4","last_reported":1719086837,"current_range_meters":21600,"station_id":"ce4bgt92rcd13ifvqcf0","pricing_plan_id":"cebpf4jnsgd1na2vs0mg"},{"bike_id":"e01b87b4-2930-4911-b7f7-2f46abf48e78","system_id":"levelo_inurba_marseille","lat":43.313571,"lon":5.384829,"is_reserved":false,"is_disabled":false,"rental_uris":{"android":"levelo://app?vid=e01b87b4-2930-4911-b7f7-2f46abf48e78","ios":"levelo://app?vid=e01b87b4-2930-4911-b7f7-2f46abf48e78"},"vehicle_type_id":"4","last_reported":1719086837,"current_range_meters":4400,"station_id":"ce4bgt92rcd13ifvqcf0","pricing_plan_id":"cebpf4jnsgd1na2vs0mg"},{"bike_id":"1addd4d4-bc40-4880-a6f1-9b8dcf1b8abb","system_id":"levelo_inurba_marseille","lat":43.31358,"lon":5.38499,"is_reserved":false,"is_disabled":false,"rental_uris":{"android":"levelo://app?vid=1addd4d4-bc40-4880-a6f1-9b8dcf1b8abb","ios":"levelo://app?vid=1addd4d4-bc40-4880-a6f1-9b8dcf1b8abb"},"vehicle_type_id":"4","last_reported":1719086837,"current_range_meters":6800,"station_id":"ce4bgt92rcd13ifvqcf0","pricing_plan_id":"cebpf4jnsgd1na2vs0mg"},{"bike_id":"9124f624-8dcb-4856-8934-70a2c9aa0da8","system_id":"levelo_inurba_marseille","lat":43.29921,"lon":5.374107,"is_reserved":false,"is_disabled":false,"rental_uris":{"android":"levelo://app?vid=9124f624-8dcb-4856-8934-70a2c9aa0da8","ios":"levelo://app?vid=9124f624-8dcb-4856-8934-70a2c9aa0da8"},"vehicle_type_id":"4","last_reported":1719086837,"current_range_meters":31200,"station_id":"","pricing_plan_id":"cebpf4jnsgd1na2vs0mg"},{"bike_id":"e044535d-f78a-4230-81d7-0bc27c25399d","system_id":"levelo_inurba_marseille","lat":43.305364,"lon":5.384119,"is_reserved":false,"is_disabled":false,"rental_uris":{"android":"levelo://app?vid=e044535d-f78a-4230-81d7-0bc27c25399d","ios":"levelo://app?vid=e044535d-f78a-4230-81d7-0bc27c25399d"},"vehicle_type_id":"4","last_reported":1719086837,"current_range_meters":21600,"station_id":"ce4bgg92rcd13ifvqb30","pricing_plan_id":"cebpf4jnsgd1na2vs0mg"},{"bike_id":"98b6ecd9-f9a3-44d9-95ab-9b20a09ad628","system_id":"levelo_inurba_marseille","lat":43.299243,"lon":5.37481,"is_reserved":false,"is_disabled":false,"rental_uris":{"android":"levelo://app?vid=98b6ecd9-f9a3-44d9-95ab-9b20a09ad628","ios":"levelo://app?vid=98b6ecd9-f9a3-44d9-95ab-9b20a09ad628"},"vehicle_type_id":"4","last_reported":1719086837,"current_range_meters":27600,"station_id":"ce4bgjh2rcd13ifvqbg0","pricing_plan_id":"cebpf4jnsgd1na2vs0mg"},{"bike_id":"deabaf41-753e-4775-a734-17c0a32ef926","system_id":"levelo_inurba_marseille","lat":43.311722,"lon":5.387247,"is_reserved":false,"is_disabled":false,"rental_uris":{"android":"levelo://app?vid=deabaf41-753e-4775-a734-17c0a32ef926","ios":"levelo://app?vid=deabaf41-753e-4775-a734-17c0a32ef926"},"vehicle_type_id":"4","last_reported":1719086837,"current_range_meters":6800,"station_id":"ce4bgv12rcd13ifvqcp0","pricing_plan_id":"cebpf4jnsgd1na2vs0mg"},{"bike_id":"d52771ae-38a9-4fc0-a17b-319b553086bb","system_id":"levelo_inurba_marseille","lat":43.29785,"lon":5.37107,"is_reserved":false,"is_disabled":false,"rental_uris":{"android":"levelo://app?vid=d52771ae-38a9-4fc0-a17b-319b553086bb","ios":"levelo://app?vid=d52771ae-38a9-4fc0-a17b-319b553086bb"},"vehicle_type_id":"4","last_reported":1719086837,"current_range_meters":23200,"station_id":"ce4bgop2rcd13ifvqc1g","pricing_plan_id":"cebpf4jnsgd1na2vs0mg"},{"bike_id":"aeb405e4-9589-4ce3-a9df-84cfc75c2bf4","system_id":"levelo_inurba_marseille","lat":43.2968,"lon":5.37291,"is_reserved":false,"is_disabled":false,"rental_uris":{"android":"levelo://app?vid=aeb405e4-9589-4ce3-a9df-84cfc75c2bf4","ios":"levelo://app?vid=aeb405e4-9589-4ce3-a9df-84cfc75c2bf4"},"vehicle_type_id":"4","last_reported":1719086837,"current_range_meters":13200,"station_id":"ce4bgk12rcd13ifvqbj0","pricing_plan_id":"cebpf4jnsgd1na2vs0mg"},{"bike_id":"416e81a1-edc1-4614-88fe-b222da2fe502","system_id":"levelo_inurba_marseille","lat":43.296129,"lon":5.370777,"is_reserved":false,"is_disabled":false,"rental_uris":{"android":"levelo://app?vid=416e81a1-edc1-4614-88fe-b222da2fe502","ios":"levelo://app?vid=416e81a1-edc1-4614-88fe-b222da2fe502"},"vehicle_type_id":"4","last_reported":1719086837,"current_range_meters":24400,"station_id":"ce4bgnh2rcd13ifvqc0g","pricing_plan_id":"cebpf4jnsgd1na2vs0mg"},{"bike_id":"14c86fec-1431-4a29-84bf-b1671a2e9bce","system_id":"levelo_inurba_marseille","lat":43.296131,"lon":5.370791,"is_reserved":false,"is_disabled":false,"rental_uris":{"android":"levelo://app?vid=14c86fec-1431-4a29-84bf-b1671a2e9bce","ios":"levelo://app?vid=14c86fec-1431-4a29-84bf-b1671a2e9bce"},"vehicle_type_id":"4","last_reported":1719086837,"current_range_meters":28000,"station_id":"ce4bgnh2rcd13ifvqc0g","pricing_plan_id":"cebpf4jnsgd1na2vs0mg"},{"bike_id":"edcf8b8c-6393-4c9a-a7d5-c5da4c16ada4","system_id":"levelo_inurba_marseille","lat":43.29573,"lon":5.367355,"is_reserved":false,"is_disabled":false,"rental_uris":{"android":"levelo://app?vid=edcf8b8c-6393-4c9a-a7d5-c5da4c16ada4","ios":"levelo://app?vid=edcf8b8c-6393-4c9a-a7d5-c5da4c16ada4"},"vehicle_type_id":"4","last_reported":1719086837,"current_range_meters":16800,"station_id":"ce4bgph2rcd13ifvqc2g","pricing_plan_id":"cebpf4jnsgd1na2vs0mg"},{"bike_id":"2620f015-438a-4160-8e38-d84ea8300063","system_id":"levelo_inurba_marseille","lat":43.299028,"lon":5.381509,"is_reserved":false,"is_disabled":false,"rental_uris":{"android":"levelo://app?vid=2620f015-438a-4160-8e38-d84ea8300063","ios":"levelo://app?vid=2620f015-438a-4160-8e38-d84ea8300063"},"vehicle_type_id":"4","last_reported":1719086837,"current_range_meters":8400,"station_id":"ce4bgj12rcd13ifvqbc0","pricing_plan_id":"cebpf4jnsgd1na2vs0mg"},{"bike_id":"ce95196b-5b08-4d04-b7a6-39c37431954d","system_id":"levelo_inurba_marseille","lat":43.296935,"lon":5.376544,"is_reserved":false,"is_disabled":false,"rental_uris":{"android":"levelo://app?vid=ce95196b-5b08-4d04-b7a6-39c37431954d","ios":"levelo://app?vid=ce95196b-5b08-4d04-b7a6-39c37431954d"},"vehicle_type_id":"4","last_reported":1719086837,"current_range_meters":31200,"station_id":"ce4bgkh2rcd13ifvqbl0","pricing_plan_id":"cebpf4jnsgd1na2vs0mg"},{"bike_id":"65674b1b-f90e-4e18-9580-92eaf5be89d7","system_id":"levelo_inurba_marseille","lat":43.299028,"lon":5.381509,"is_reserved":false,"is_disabled":false,"rental_uris":{"android":"levelo://app?vid=65674b1b-f90e-4e18-9580-92eaf5be89d7","ios":"levelo://app?vid=65674b1b-f90e-4e18-9580-92eaf5be89d7"},"vehicle_type_id":"4","last_reported":1719086837,"current_range_meters":29600,"station_id":"ce4bgj12rcd13ifvqbc0","pricing_plan_id":"cebpf4jnsgd1na2vs0mg"},{"bike_id":"b2f8c189-9044-422e-b64d-4a088a546d2e","system_id":"levelo_inurba_marseille","lat":43.29575,"lon":5.36273,"is_reserved":false,"is_disabled":false,"rental_uris":{"android":"levelo://app?vid=b2f8c189-9044-422e-b64d-4a088a546d2e","ios":"levelo://app?vid=b2f8c189-9044-422e-b64d-4a088a546d2e"},"vehicle_type_id":"4","last_reported":1719086837,"current_range_meters":22000,"station_id":"","pricing_plan_id":"cebpf4jnsgd1na2vs0mg"},{"bike_id":"312b5156-1d46-428e-9a40-6ee3ca835047","system_id":"levelo_inurba_marseille","lat":43.29898,"lon":5.38125,"is_reserved":false,"is_disabled":false,"rental_uris":{"android":"levelo://app?vid=312b5156-1d46-428e-9a40-6ee3ca835047","ios":"levelo://app?vid=312b5156-1d46-428e-9a40-6ee3ca835047"},"vehicle_type_id":"4","last_reported":1719086837,"current_range_meters":16000,"station_id":"ce4bgj12rcd13ifvqbc0","pricing_plan_id":"cebpf4jnsgd1na2vs0mg"},{"bike_id":"ad583dbf-2cc5-4959-9d9c-4828f914d941","system_id":"levelo_inurba_marseille","lat":43.309589,"lon":5.390258,"is_reserved":false,"is_disabled":false,"rental_uris":{"android":"levelo://app?vid=ad583dbf-2cc5-4959-9d9c-4828f914d941","ios":"levelo://app?vid=ad583dbf-2cc5-4959-9d9c-4828f914d941"},"vehicle_type_id":"4","last_reported":1719086837,"current_range_meters":19200,"station_id":"ce4bgup2rcd13ifvqco0","pricing_plan_id":"cebpf4jnsgd1na2vs0mg"},{"bike_id":"85ba8d5d-9ad5-43a4-a18a-6375a22947b4","system_id":"levelo_inurba_marseille","lat":43.309589,"lon":5.390258,"is_reserved":false,"is_disabled":false,"rental_uris":{"android":"levelo://app?vid=85ba8d5d-9ad5-43a4-a18a-6375a22947b4","ios":"levelo://app?vid=85ba8d5d-9ad5-43a4-a18a-6375a22947b4"},"vehicle_type_id":"4","last_reported":1719086837,"current_range_meters":13200,"station_id":"ce4bgup2rcd13ifvqco0","pricing_plan_id":"cebpf4jnsgd1na2vs0mg"},{"bike_id":"773a5bb9-f550-464b-b19d-7162ec6615a4","system_id":"levelo_inurba_marseille","lat":43.30953,"lon":5.39029,"is_reserved":false,"is_disabled":false,"rental_uris":{"android":"levelo://app?vid=773a5bb9-f550-464b-b19d-7162ec6615a4","ios":"levelo://app?vid=773a5bb9-f550-464b-b19d-7162ec6615a4"},"vehicle_type_id":"4","last_reported":1719086837,"current_range_meters":0,"station_id":"ce4bgup2rcd13ifvqco0","pricing_plan_id":"cebpf4jnsgd1na2vs0mg"},{"bike_id":"fdd1f6ca-7850-4899-a357-8b7ecdc58382","system_id":"levelo_inurba_marseille","lat":43.309589,"lon":5.390258,"is_reserved":false,"is_disabled":false,"rental_uris":{"android":"levelo://app?vid=fdd1f6ca-7850-4899-a357-8b7ecdc58382","ios":"levelo://app?vid=fdd1f6ca-7850-4899-a357-8b7ecdc58382"},"vehicle_type_id":"4","last_reported":1719086837,"current_range_meters":0,"station_id":"ce4bgup2rcd13ifvqco0","pricing_plan_id":"cebpf4jnsgd1na2vs0mg"},{"bike_id":"b7a1e9d4-588c-408e-afe7-8a89e7cf0ab9","system_id":"levelo_inurba_marseille","lat":43.299028,"lon":5.381509,"is_reserved":false,"is_disabled":false,"rental_uris":{"android":"levelo://app?vid=b7a1e9d4-588c-408e-afe7-8a89e7cf0ab9","ios":"levelo://app?vid=b7a1e9d4-588c-408e-afe7-8a89e7cf0ab9"},"vehicle_type_id":"4","last_reported":1719086837,"current_range_meters":15600,"station_id":"ce4bgj12rcd13ifvqbc0","pricing_plan_id":"cebpf4jnsgd1na2vs0mg"},{"bike_id":"e2034b09-85dd-4123-8153-47c2e3bf671c","system_id":"levelo_inurba_marseille","lat":43.296921,"lon":5.376579,"is_reserved":false,"is_disabled":false,"rental_uris":{"android":"levelo://app?vid=e2034b09-85dd-4123-8153-47c2e3bf671c","ios":"levelo://app?vid=e2034b09-85dd-4123-8153-47c2e3bf671c"},"vehicle_type_id":"4","last_reported":1719086837,"current_range_meters":31200,"station_id":"ce4bgkh2rcd13ifvqbl0","pricing_plan_id":"cebpf4jnsgd1na2vs0mg"},{"bike_id":"1db6cf13-b3c6-4838-a7b3-91f14f5bb22f","system_id":"levelo_inurba_marseille","lat":43.299028,"lon":5.381509,"is_reserved":false,"is_disabled":false,"rental_uris":{"android":"levelo://app?vid=1db6cf13-b3c6-4838-a7b3-91f14f5bb22f","ios":"levelo://app?vid=1db6cf13-b3c6-4838-a7b3-91f14f5bb22f"},"vehicle_type_id":"4","last_reported":1719086837,"current_range_meters":21200,"station_id":"ce4bgj12rcd13ifvqbc0","pricing_plan_id":"cebpf4jnsgd1na2vs0mg"},{"bike_id":"c26880f9-cdf6-4cc5-ab38-9f7f8fce9283","system_id":"levelo_inurba_marseille","lat":43.30948,"lon":5.39041,"is_reserved":false,"is_disabled":false,"rental_uris":{"android":"levelo://app?vid=c26880f9-cdf6-4cc5-ab38-9f7f8fce9283","ios":"levelo://app?vid=c26880f9-cdf6-4cc5-ab38-9f7f8fce9283"},"vehicle_type_id":"4","last_reported":1719086837,"current_range_meters":0,"station_id":"ce4bgup2rcd13ifvqco0","pricing_plan_id":"cebpf4jnsgd1na2vs0mg"},{"bike_id":"08295462-61d2-4d7f-8a2b-1a21e29d1463","system_id":"levelo_inurba_marseille","lat":43.309477,"lon":5.39042,"is_reserved":false,"is_disabled":false,"rental_uris":{"android":"levelo://app?vid=08295462-61d2-4d7f-8a2b-1a21e29d1463","ios":"levelo://app?vid=08295462-61d2-4d7f-8a2b-1a21e29d1463"},"vehicle_type_id":"4","last_reported":1719086837,"current_range_meters":0,"station_id":"ce4bgup2rcd13ifvqco0","pricing_plan_id":"cebpf4jnsgd1na2vs0mg"},{"bike_id":"f8dfad42-db7d-47a0-8eee-a4fbe721f507","system_id":"levelo_inurba_marseille","lat":43.299028,"lon":5.381509,"is_reserved":false,"is_disabled":false,"rental_uris":{"android":"levelo://app?vid=f8dfad42-db7d-47a0-8eee-a4fbe721f507","ios":"levelo://app?vid=f8dfad42-db7d-47a0-8eee-a4fbe721f507"},"vehicle_type_id":"4","last_reported":1719086837,"current_range_meters":18400,"station_id":"ce4bgj12rcd13ifvqbc0","pricing_plan_id":"cebpf4jnsgd1na2vs0mg"},{"bike_id":"1d0c4229-ca91-4b1c-b486-45013dfba4bd","system_id":"levelo_inurba_marseille","lat":43.317557,"lon":5.390173,"is_reserved":false,"is_disabled":false,"rental_uris":{"android":"levelo://app?vid=1d0c4229-ca91-4b1c-b486-45013dfba4bd","ios":"levelo://app?vid=1d0c4229-ca91-4b1c-b486-45013dfba4bd"},"vehicle_type_id":"4","last_reported":1719086837,"current_range_meters":21200,"station_id":"ce4bhqp2rcd13ifvqhng","pricing_plan_id":"cebpf4jnsgd1na2vs0mg"},{"bike_id":"fe3bed7f-df19-458f-b38c-b2ab4ac32ada","system_id":"levelo_inurba_marseille","lat":43.298037,"lon":5.381066,"is_reserved":false,"is_disabled":false,"rental_uris":{"android":"levelo://app?vid=fe3bed7f-df19-458f-b38c-b2ab4ac32ada","ios":"levelo://app?vid=fe3bed7f-df19-458f-b38c-b2ab4ac32ada"},"vehicle_type_id":"4","last_reported":1719086837,"current_range_meters":28000,"station_id":"ce4bgip2rcd13ifvqbb0","pricing_plan_id":"cebpf4jnsgd1na2vs0mg"},{"bike_id":"d39e0582-ca3b-4952-9681-2b90be10e557","system_id":"levelo_inurba_marseille","lat":43.298037,"lon":5.381066,"is_reserved":false,"is_disabled":false,"rental_uris":{"android":"levelo://app?vid=d39e0582-ca3b-4952-9681-2b90be10e557","ios":"levelo://app?vid=d39e0582-ca3b-4952-9681-2b90be10e557"},"vehicle_type_id":"4","last_reported":1719086837,"current_range_meters":28800,"station_id":"ce4bgip2rcd13ifvqbb0","pricing_plan_id":"cebpf4jnsgd1na2vs0mg"},{"bike_id":"3a029cdc-05b8-4c9c-8722-12f58a5eb13f","system_id":"levelo_inurba_marseille","lat":43.295748,"lon":5.37522,"is_reserved":false,"is_disabled":false,"rental_uris":{"android":"levelo://app?vid=3a029cdc-05b8-4c9c-8722-12f58a5eb13f","ios":"levelo://app?vid=3a029cdc-05b8-4c9c-8722-12f58a5eb13f"},"vehicle_type_id":"4","last_reported":1719086837,"current_range_meters":23600,"station_id":"ce4bgh92rcd13ifvqb50","pricing_plan_id":"cebpf4jnsgd1na2vs0mg"},{"bike_id":"41c96f7b-ba14-4fa4-bd5e-3f441f3966f6","system_id":"levelo_inurba_marseille","lat":43.304274,"lon":5.388873,"is_reserved":false,"is_disabled":false,"rental_uris":{"android":"levelo://app?vid=41c96f7b-ba14-4fa4-bd5e-3f441f3966f6","ios":"levelo://app?vid=41c96f7b-ba14-4fa4-bd5e-3f441f3966f6"},"vehicle_type_id":"4","last_reported":1719086837,"current_range_meters":16000,"station_id":"ce4bgk12rcd13ifvqbi0","pricing_plan_id":"cebpf4jnsgd1na2vs0mg"},{"bike_id":"445f4792-6623-47a0-8958-db0d275b3a4b","system_id":"levelo_inurba_marseille","lat":43.298037,"lon":5.381066,"is_reserved":false,"is_disabled":false,"rental_uris":{"android":"levelo://app?vid=445f4792-6623-47a0-8958-db0d275b3a4b","ios":"levelo://app?vid=445f4792-6623-47a0-8958-db0d275b3a4b"},"vehicle_type_id":"4","last_reported":1719086837,"current_range_meters":18800,"station_id":"ce4bgip2rcd13ifvqbb0","pricing_plan_id":"cebpf4jnsgd1na2vs0mg"},{"bike_id":"a7664cc4-5d6b-45ab-8d1e-142ed3326459","system_id":"levelo_inurba_marseille","lat":43.304274,"lon":5.388873,"is_reserved":false,"is_disabled":false,"rental_uris":{"android":"levelo://app?vid=a7664cc4-5d6b-45ab-8d1e-142ed3326459","ios":"levelo://app?vid=a7664cc4-5d6b-45ab-8d1e-142ed3326459"},"vehicle_type_id":"4","last_reported":1719086837,"current_range_meters":20000,"station_id":"ce4bgk12rcd13ifvqbi0","pricing_plan_id":"cebpf4jnsgd1na2vs0mg"},{"bike_id":"9eee03b1-c858-4c9e-930f-c6891b14b6e3","system_id":"levelo_inurba_marseille","lat":43.298037,"lon":5.381066,"is_reserved":false,"is_disabled":false,"rental_uris":{"android":"levelo://app?vid=9eee03b1-c858-4c9e-930f-c6891b14b6e3","ios":"levelo://app?vid=9eee03b1-c858-4c9e-930f-c6891b14b6e3"},"vehicle_type_id":"4","last_reported":1719086837,"current_range_meters":6800,"station_id":"ce4bgip2rcd13ifvqbb0","pricing_plan_id":"cebpf4jnsgd1na2vs0mg"},{"bike_id":"2b1bb6c2-9b23-4539-ae80-768e1c863351","system_id":"levelo_inurba_marseille","lat":43.295748,"lon":5.37522,"is_reserved":false,"is_disabled":false,"rental_uris":{"android":"levelo://app?vid=2b1bb6c2-9b23-4539-ae80-768e1c863351","ios":"levelo://app?vid=2b1bb6c2-9b23-4539-ae80-768e1c863351"},"vehicle_type_id":"4","last_reported":1719086837,"current_range_meters":30800,"station_id":"ce4bgh92rcd13ifvqb50","pricing_plan_id":"cebpf4jnsgd1na2vs0mg"},{"bike_id":"eec9eca8-a572-4f40-8bec-680b7862be73","system_id":"levelo_inurba_marseille","lat":43.304274,"lon":5.388873,"is_reserved":false,"is_disabled":false,"rental_uris":{"android":"levelo://app?vid=eec9eca8-a572-4f40-8bec-680b7862be73","ios":"levelo://app?vid=eec9eca8-a572-4f40-8bec-680b7862be73"},"vehicle_type_id":"4","last_reported":1719086837,"current_range_meters":12800,"station_id":"ce4bgk12rcd13ifvqbi0","pricing_plan_id":"cebpf4jnsgd1na2vs0mg"},{"bike_id":"f21de03c-fc1c-49da-be2b-7e33a3a8056e","system_id":"levelo_inurba_marseille","lat":43.304278,"lon":5.388868,"is_reserved":false,"is_disabled":false,"rental_uris":{"android":"levelo://app?vid=f21de03c-fc1c-49da-be2b-7e33a3a8056e","ios":"levelo://app?vid=f21de03c-fc1c-49da-be2b-7e33a3a8056e"},"vehicle_type_id":"4","last_reported":1719086837,"current_range_meters":12000,"station_id":"ce4bgk12rcd13ifvqbi0","pricing_plan_id":"cebpf4jnsgd1na2vs0mg"},{"bike_id":"de828abe-b542-438f-a1ce-785fc19f902f","system_id":"levelo_inurba_marseille","lat":43.296263,"lon":5.377094,"is_reserved":false,"is_disabled":false,"rental_uris":{"android":"levelo://app?vid=de828abe-b542-438f-a1ce-785fc19f902f","ios":"levelo://app?vid=de828abe-b542-438f-a1ce-785fc19f902f"},"vehicle_type_id":"4","last_reported":1719086837,"current_range_meters":18000,"station_id":"ce4bgi92rcd13ifvqb90","pricing_plan_id":"cebpf4jnsgd1na2vs0mg"},{"bike_id":"37fa750e-34c7-42de-a579-ca8a3486369b","system_id":"levelo_inurba_marseille","lat":43.298037,"lon":5.381066,"is_reserved":false,"is_disabled":false,"rental_uris":{"android":"levelo://app?vid=37fa750e-34c7-42de-a579-ca8a3486369b","ios":"levelo://app?vid=37fa750e-34c7-42de-a579-ca8a3486369b"},"vehicle_type_id":"4","last_reported":1719086837,"current_range_meters":23600,"station_id":"ce4bgip2rcd13ifvqbb0","pricing_plan_id":"cebpf4jnsgd1na2vs0mg"},{"bike_id":"1453e58c-b7b6-4f75-b751-84fc2cfcfca4","system_id":"levelo_inurba_marseille","lat":43.304274,"lon":5.388873,"is_reserved":false,"is_disabled":false,"rental_uris":{"android":"levelo://app?vid=1453e58c-b7b6-4f75-b751-84fc2cfcfca4","ios":"levelo://app?vid=1453e58c-b7b6-4f75-b751-84fc2cfcfca4"},"vehicle_type_id":"4","last_reported":1719086837,"current_range_meters":9200,"station_id":"ce4bgk12rcd13ifvqbi0","pricing_plan_id":"cebpf4jnsgd1na2vs0mg"},{"bike_id":"3878c0a4-6938-40e5-9135-29630cb5bafa","system_id":"levelo_inurba_marseille","lat":43.296263,"lon":5.377094,"is_reserved":false,"is_disabled":false,"rental_uris":{"android":"levelo://app?vid=3878c0a4-6938-40e5-9135-29630cb5bafa","ios":"levelo://app?vid=3878c0a4-6938-40e5-9135-29630cb5bafa"},"vehicle_type_id":"4","last_reported":1719086837,"current_range_meters":25600,"station_id":"ce4bgi92rcd13ifvqb90","pricing_plan_id":"cebpf4jnsgd1na2vs0mg"},{"bike_id":"b9e4f4b3-2635-4e12-bed9-71f6ce715363","system_id":"levelo_inurba_marseille","lat":43.296263,"lon":5.377094,"is_reserved":false,"is_disabled":false,"rental_uris":{"android":"levelo://app?vid=b9e4f4b3-2635-4e12-bed9-71f6ce715363","ios":"levelo://app?vid=b9e4f4b3-2635-4e12-bed9-71f6ce715363"},"vehicle_type_id":"4","last_reported":1719086837,"current_range_meters":19600,"station_id":"ce4bgi92rcd13ifvqb90","pricing_plan_id":"cebpf4jnsgd1na2vs0mg"},{"bike_id":"9475d700-9651-4f1a-8d8f-b742cbbaa0f0","system_id":"levelo_inurba_marseille","lat":43.296263,"lon":5.377094,"is_reserved":false,"is_disabled":false,"rental_uris":{"android":"levelo://app?vid=9475d700-9651-4f1a-8d8f-b742cbbaa0f0","ios":"levelo://app?vid=9475d700-9651-4f1a-8d8f-b742cbbaa0f0"},"vehicle_type_id":"4","last_reported":1719086837,"current_range_meters":30800,"station_id":"ce4bgi92rcd13ifvqb90","pricing_plan_id":"cebpf4jnsgd1na2vs0mg"},{"bike_id":"27199601-9fc6-42a1-a584-5affc0311c5f","system_id":"levelo_inurba_marseille","lat":43.299707,"lon":5.384859,"is_reserved":false,"is_disabled":false,"rental_uris":{"android":"levelo://app?vid=27199601-9fc6-42a1-a584-5affc0311c5f","ios":"levelo://app?vid=27199601-9fc6-42a1-a584-5affc0311c5f"},"vehicle_type_id":"4","last_reported":1719086837,"current_range_meters":20800,"station_id":"ce4bgj92rcd13ifvqbd0","pricing_plan_id":"cebpf4jnsgd1na2vs0mg"},{"bike_id":"2ef00f3c-3227-41ea-915d-e7758578e91a","system_id":"levelo_inurba_marseille","lat":43.299707,"lon":5.384859,"is_reserved":false,"is_disabled":false,"rental_uris":{"android":"levelo://app?vid=2ef00f3c-3227-41ea-915d-e7758578e91a","ios":"levelo://app?vid=2ef00f3c-3227-41ea-915d-e7758578e91a"},"vehicle_type_id":"4","last_reported":1719086837,"current_range_meters":29200,"station_id":"ce4bgj92rcd13ifvqbd0","pricing_plan_id":"cebpf4jnsgd1na2vs0mg"},{"bike_id":"69f64a88-a0f4-4033-9486-4cc580e06634","system_id":"levelo_inurba_marseille","lat":43.299707,"lon":5.384859,"is_reserved":false,"is_disabled":false,"rental_uris":{"android":"levelo://app?vid=69f64a88-a0f4-4033-9486-4cc580e06634","ios":"levelo://app?vid=69f64a88-a0f4-4033-9486-4cc580e06634"},"vehicle_type_id":"4","last_reported":1719086837,"current_range_meters":16000,"station_id":"ce4bgj92rcd13ifvqbd0","pricing_plan_id":"cebpf4jnsgd1na2vs0mg"},{"bike_id":"39dd398a-d7b3-432f-bce8-7bf2410c0284","system_id":"levelo_inurba_marseille","lat":43.299724,"lon":5.384848,"is_reserved":false,"is_disabled":false,"rental_uris":{"android":"levelo://app?vid=39dd398a-d7b3-432f-bce8-7bf2410c0284","ios":"levelo://app?vid=39dd398a-d7b3-432f-bce8-7bf2410c0284"},"vehicle_type_id":"4","last_reported":1719086837,"current_range_meters":21600,"station_id":"ce4bgj92rcd13ifvqbd0","pricing_plan_id":"cebpf4jnsgd1na2vs0mg"},{"bike_id":"0f270e3a-07d6-43de-b3d0-68796684be69","system_id":"levelo_inurba_marseille","lat":43.295279,"lon":5.375048,"is_reserved":false,"is_disabled":false,"rental_uris":{"android":"levelo://app?vid=0f270e3a-07d6-43de-b3d0-68796684be69","ios":"levelo://app?vid=0f270e3a-07d6-43de-b3d0-68796684be69"},"vehicle_type_id":"4","last_reported":1719086837,"current_range_meters":25600,"station_id":"ce4bgkp2rcd13ifvqbmg","pricing_plan_id":"cebpf4jnsgd1na2vs0mg"},{"bike_id":"53a053f5-748a-47e9-90be-70ee0a219842","system_id":"levelo_inurba_marseille","lat":43.32367,"lon":5.388836,"is_reserved":false,"is_disabled":false,"rental_uris":{"android":"levelo://app?vid=53a053f5-748a-47e9-90be-70ee0a219842","ios":"levelo://app?vid=53a053f5-748a-47e9-90be-70ee0a219842"},"vehicle_type_id":"4","last_reported":1719086837,"current_range_meters":0,"station_id":"ce4bhqp2rcd13ifvqhog","pricing_plan_id":"cebpf4jnsgd1na2vs0mg"},{"bike_id":"5cee65c0-f7c4-4593-9c44-b827861a4f82","system_id":"levelo_inurba_marseille","lat":43.32367,"lon":5.388836,"is_reserved":false,"is_disabled":false,"rental_uris":{"android":"levelo://app?vid=5cee65c0-f7c4-4593-9c44-b827861a4f82","ios":"levelo://app?vid=5cee65c0-f7c4-4593-9c44-b827861a4f82"},"vehicle_type_id":"4","last_reported":1719086837,"current_range_meters":15200,"station_id":"ce4bhqp2rcd13ifvqhog","pricing_plan_id":"cebpf4jnsgd1na2vs0mg"},{"bike_id":"99f8e894-2a58-4c45-916b-745f01b320cf","system_id":"levelo_inurba_marseille","lat":43.32367,"lon":5.388836,"is_reserved":false,"is_disabled":false,"rental_uris":{"android":"levelo://app?vid=99f8e894-2a58-4c45-916b-745f01b320cf","ios":"levelo://app?vid=99f8e894-2a58-4c45-916b-745f01b320cf"},"vehicle_type_id":"4","last_reported":1719086837,"current_range_meters":25200,"station_id":"ce4bhqp2rcd13ifvqhog","pricing_plan_id":"cebpf4jnsgd1na2vs0mg"},{"bike_id":"f222e57a-4d34-471d-9fd2-9078bb6fe77c","system_id":"levelo_inurba_marseille","lat":43.32367,"lon":5.388836,"is_reserved":false,"is_disabled":false,"rental_uris":{"android":"levelo://app?vid=f222e57a-4d34-471d-9fd2-9078bb6fe77c","ios":"levelo://app?vid=f222e57a-4d34-471d-9fd2-9078bb6fe77c"},"vehicle_type_id":"4","last_reported":1719086837,"current_range_meters":16000,"station_id":"ce4bhqp2rcd13ifvqhog","pricing_plan_id":"cebpf4jnsgd1na2vs0mg"},{"bike_id":"f28b40cf-9f08-4af5-a76b-d2dc1fc21075","system_id":"levelo_inurba_marseille","lat":43.29368,"lon":5.37268,"is_reserved":false,"is_disabled":false,"rental_uris":{"android":"levelo://app?vid=f28b40cf-9f08-4af5-a76b-d2dc1fc21075","ios":"levelo://app?vid=f28b40cf-9f08-4af5-a76b-d2dc1fc21075"},"vehicle_type_id":"4","last_reported":1719086837,"current_range_meters":31200,"station_id":"","pricing_plan_id":"cebpf4jnsgd1na2vs0mg"},{"bike_id":"34c94df7-1c14-4f89-955c-1242b580f347","system_id":"levelo_inurba_marseille","lat":43.29602,"lon":5.381084,"is_reserved":false,"is_disabled":false,"rental_uris":{"android":"levelo://app?vid=34c94df7-1c14-4f89-955c-1242b580f347","ios":"levelo://app?vid=34c94df7-1c14-4f89-955c-1242b580f347"},"vehicle_type_id":"4","last_reported":1719086837,"current_range_meters":31200,"station_id":"ce4bgl12rcd13ifvqbo0","pricing_plan_id":"cebpf4jnsgd1na2vs0mg"},{"bike_id":"85ca67f0-3b7c-4a44-ab07-c1c2ad7f66be","system_id":"levelo_inurba_marseille","lat":43.29602,"lon":5.3809,"is_reserved":false,"is_disabled":false,"rental_uris":{"android":"levelo://app?vid=85ca67f0-3b7c-4a44-ab07-c1c2ad7f66be","ios":"levelo://app?vid=85ca67f0-3b7c-4a44-ab07-c1c2ad7f66be"},"vehicle_type_id":"4","last_reported":1719086837,"current_range_meters":11600,"station_id":"ce4bgl12rcd13ifvqbo0","pricing_plan_id":"cebpf4jnsgd1na2vs0mg"},{"bike_id":"c471535b-c753-4e41-a3a8-2a65f79512f0","system_id":"levelo_inurba_marseille","lat":43.29602,"lon":5.381084,"is_reserved":false,"is_disabled":false,"rental_uris":{"android":"levelo://app?vid=c471535b-c753-4e41-a3a8-2a65f79512f0","ios":"levelo://app?vid=c471535b-c753-4e41-a3a8-2a65f79512f0"},"vehicle_type_id":"4","last_reported":1719086837,"current_range_meters":16000,"station_id":"ce4bgl12rcd13ifvqbo0","pricing_plan_id":"cebpf4jnsgd1na2vs0mg"},{"bike_id":"cca41507-8cdf-4b65-bbe4-c46dce2fc710","system_id":"levelo_inurba_marseille","lat":43.29602,"lon":5.381084,"is_reserved":false,"is_disabled":false,"rental_uris":{"android":"levelo://app?vid=cca41507-8cdf-4b65-bbe4-c46dce2fc710","ios":"levelo://app?vid=cca41507-8cdf-4b65-bbe4-c46dce2fc710"},"vehicle_type_id":"4","last_reported":1719086837,"current_range_meters":11600,"station_id":"ce4bgl12rcd13ifvqbo0","pricing_plan_id":"cebpf4jnsgd1na2vs0mg"},{"bike_id":"b11e845c-1256-480a-8379-5366fa5a1ac3","system_id":"levelo_inurba_marseille","lat":43.29596,"lon":5.38101,"is_reserved":false,"is_disabled":false,"rental_uris":{"android":"levelo://app?vid=b11e845c-1256-480a-8379-5366fa5a1ac3","ios":"levelo://app?vid=b11e845c-1256-480a-8379-5366fa5a1ac3"},"vehicle_type_id":"4","last_reported":1719086837,"current_range_meters":22400,"station_id":"ce4bgl12rcd13ifvqbo0","pricing_plan_id":"cebpf4jnsgd1na2vs0mg"},{"bike_id":"276b21db-fe68-4cc8-be89-29f2ce42e379","system_id":"levelo_inurba_marseille","lat":43.29595,"lon":5.38101,"is_reserved":false,"is_disabled":false,"rental_uris":{"android":"levelo://app?vid=276b21db-fe68-4cc8-be89-29f2ce42e379","ios":"levelo://app?vid=276b21db-fe68-4cc8-be89-29f2ce42e379"},"vehicle_type_id":"4","last_reported":1719086837,"current_range_meters":10800,"station_id":"ce4bgl12rcd13ifvqbo0","pricing_plan_id":"cebpf4jnsgd1na2vs0mg"},{"bike_id":"e5c28e33-1742-4cda-a666-6657a2d5a6b7","system_id":"levelo_inurba_marseille","lat":43.29594,"lon":5.38106,"is_reserved":false,"is_disabled":false,"rental_uris":{"android":"levelo://app?vid=e5c28e33-1742-4cda-a666-6657a2d5a6b7","ios":"levelo://app?vid=e5c28e33-1742-4cda-a666-6657a2d5a6b7"},"vehicle_type_id":"4","last_reported":1719086837,"current_range_meters":5200,"station_id":"ce4bgl12rcd13ifvqbo0","pricing_plan_id":"cebpf4jnsgd1na2vs0mg"},{"bike_id":"a097e2f1-0b43-4c98-9658-d511f8f929e5","system_id":"levelo_inurba_marseille","lat":43.2938,"lon":5.37499,"is_reserved":false,"is_disabled":false,"rental_uris":{"android":"levelo://app?vid=a097e2f1-0b43-4c98-9658-d511f8f929e5","ios":"levelo://app?vid=a097e2f1-0b43-4c98-9658-d511f8f929e5"},"vehicle_type_id":"4","last_reported":1719086837,"current_range_meters":5200,"station_id":"","pricing_plan_id":"cebpf4jnsgd1na2vs0mg"},{"bike_id":"51706793-48f5-4a34-b49a-3e6c6f218f10","system_id":"levelo_inurba_marseille","lat":43.293259,"lon":5.371586,"is_reserved":false,"is_disabled":false,"rental_uris":{"android":"levelo://app?vid=51706793-48f5-4a34-b49a-3e6c6f218f10","ios":"levelo://app?vid=51706793-48f5-4a34-b49a-3e6c6f218f10"},"vehicle_type_id":"4","last_reported":1719086837,"current_range_meters":8800,"station_id":"ce4bgh92rcd13ifvqb40","pricing_plan_id":"cebpf4jnsgd1na2vs0mg"},{"bike_id":"670f54bb-c05a-43e1-8244-1470a53a9bb6","system_id":"levelo_inurba_marseille","lat":43.293259,"lon":5.371586,"is_reserved":false,"is_disabled":false,"rental_uris":{"android":"levelo://app?vid=670f54bb-c05a-43e1-8244-1470a53a9bb6","ios":"levelo://app?vid=670f54bb-c05a-43e1-8244-1470a53a9bb6"},"vehicle_type_id":"4","last_reported":1719086837,"current_range_meters":4400,"station_id":"ce4bgh92rcd13ifvqb40","pricing_plan_id":"cebpf4jnsgd1na2vs0mg"},{"bike_id":"08a57ce0-68e1-4baf-90f1-23fb76d88dd2","system_id":"levelo_inurba_marseille","lat":43.29265,"lon":5.3684,"is_reserved":false,"is_disabled":false,"rental_uris":{"android":"levelo://app?vid=08a57ce0-68e1-4baf-90f1-23fb76d88dd2","ios":"levelo://app?vid=08a57ce0-68e1-4baf-90f1-23fb76d88dd2"},"vehicle_type_id":"4","last_reported":1719086837,"current_range_meters":18000,"station_id":"ce4bhbp2rcd13ifvqesg","pricing_plan_id":"cebpf4jnsgd1na2vs0mg"},{"bike_id":"76dc8931-a724-4ae4-803a-ed964cfb94a5","system_id":"levelo_inurba_marseille","lat":43.293259,"lon":5.371586,"is_reserved":false,"is_disabled":false,"rental_uris":{"android":"levelo://app?vid=76dc8931-a724-4ae4-803a-ed964cfb94a5","ios":"levelo://app?vid=76dc8931-a724-4ae4-803a-ed964cfb94a5"},"vehicle_type_id":"4","last_reported":1719086837,"current_range_meters":24800,"station_id":"ce4bgh92rcd13ifvqb40","pricing_plan_id":"cebpf4jnsgd1na2vs0mg"},{"bike_id":"50ef9692-b4b2-4d64-90d3-06a571dc0797","system_id":"levelo_inurba_marseille","lat":43.29975,"lon":5.38846,"is_reserved":false,"is_disabled":false,"rental_uris":{"android":"levelo://app?vid=50ef9692-b4b2-4d64-90d3-06a571dc0797","ios":"levelo://app?vid=50ef9692-b4b2-4d64-90d3-06a571dc0797"},"vehicle_type_id":"4","last_reported":1719086837,"current_range_meters":22400,"station_id":"ce4bh012rcd13ifvqcv0","pricing_plan_id":"cebpf4jnsgd1na2vs0mg"},{"bike_id":"88177077-8b51-4cbb-8395-7077b79d09d6","system_id":"levelo_inurba_marseille","lat":43.305994,"lon":5.393687,"is_reserved":false,"is_disabled":false,"rental_uris":{"android":"levelo://app?vid=88177077-8b51-4cbb-8395-7077b79d09d6","ios":"levelo://app?vid=88177077-8b51-4cbb-8395-7077b79d09d6"},"vehicle_type_id":"4","last_reported":1719086837,"current_range_meters":26400,"station_id":"ce4bh0p2rcd13ifvqd80","pricing_plan_id":"cebpf4jnsgd1na2vs0mg"},{"bike_id":"fb03fe10-a996-49f0-9a5b-9caee0013b60","system_id":"levelo_inurba_marseille","lat":43.305994,"lon":5.393687,"is_reserved":false,"is_disabled":false,"rental_uris":{"android":"levelo://app?vid=fb03fe10-a996-49f0-9a5b-9caee0013b60","ios":"levelo://app?vid=fb03fe10-a996-49f0-9a5b-9caee0013b60"},"vehicle_type_id":"4","last_reported":1719086837,"current_range_meters":18800,"station_id":"ce4bh0p2rcd13ifvqd80","pricing_plan_id":"cebpf4jnsgd1na2vs0mg"},{"bike_id":"c8154fff-25ad-4a94-9246-efa115811686","system_id":"levelo_inurba_marseille","lat":43.305994,"lon":5.393687,"is_reserved":false,"is_disabled":false,"rental_uris":{"android":"levelo://app?vid=c8154fff-25ad-4a94-9246-efa115811686","ios":"levelo://app?vid=c8154fff-25ad-4a94-9246-efa115811686"},"vehicle_type_id":"4","last_reported":1719086837,"current_range_meters":21600,"station_id":"ce4bh0p2rcd13ifvqd80","pricing_plan_id":"cebpf4jnsgd1na2vs0mg"},{"bike_id":"51fc917f-14c1-406f-8743-553523e21542","system_id":"levelo_inurba_marseille","lat":43.305994,"lon":5.393687,"is_reserved":false,"is_disabled":false,"rental_uris":{"android":"levelo://app?vid=51fc917f-14c1-406f-8743-553523e21542","ios":"levelo://app?vid=51fc917f-14c1-406f-8743-553523e21542"},"vehicle_type_id":"4","last_reported":1719086837,"current_range_meters":24800,"station_id":"ce4bh0p2rcd13ifvqd80","pricing_plan_id":"cebpf4jnsgd1na2vs0mg"},{"bike_id":"85d24401-539c-4878-b300-cb10de4ccfec","system_id":"levelo_inurba_marseille","lat":43.305994,"lon":5.393687,"is_reserved":false,"is_disabled":false,"rental_uris":{"android":"levelo://app?vid=85d24401-539c-4878-b300-cb10de4ccfec","ios":"levelo://app?vid=85d24401-539c-4878-b300-cb10de4ccfec"},"vehicle_type_id":"4","last_reported":1719086837,"current_range_meters":1600,"station_id":"ce4bh0p2rcd13ifvqd80","pricing_plan_id":"cebpf4jnsgd1na2vs0mg"},{"bike_id":"2763b043-1832-489a-ab66-bbf302f58e1f","system_id":"levelo_inurba_marseille","lat":43.303002,"lon":5.392142,"is_reserved":false,"is_disabled":false,"rental_uris":{"android":"levelo://app?vid=2763b043-1832-489a-ab66-bbf302f58e1f","ios":"levelo://app?vid=2763b043-1832-489a-ab66-bbf302f58e1f"},"vehicle_type_id":"4","last_reported":1719086837,"current_range_meters":14400,"station_id":"ce4bgkh2rcd13ifvqbk0","pricing_plan_id":"cebpf4jnsgd1na2vs0mg"},{"bike_id":"1dea5dcc-34b6-487d-92fa-1300ffbd30bc","system_id":"levelo_inurba_marseille","lat":43.303002,"lon":5.392142,"is_reserved":false,"is_disabled":false,"rental_uris":{"android":"levelo://app?vid=1dea5dcc-34b6-487d-92fa-1300ffbd30bc","ios":"levelo://app?vid=1dea5dcc-34b6-487d-92fa-1300ffbd30bc"},"vehicle_type_id":"4","last_reported":1719086837,"current_range_meters":30400,"station_id":"ce4bgkh2rcd13ifvqbk0","pricing_plan_id":"cebpf4jnsgd1na2vs0mg"},{"bike_id":"b45f153e-057c-40ce-a2c4-9cab805c51a0","system_id":"levelo_inurba_marseille","lat":43.303002,"lon":5.392142,"is_reserved":false,"is_disabled":false,"rental_uris":{"android":"levelo://app?vid=b45f153e-057c-40ce-a2c4-9cab805c51a0","ios":"levelo://app?vid=b45f153e-057c-40ce-a2c4-9cab805c51a0"},"vehicle_type_id":"4","last_reported":1719086837,"current_range_meters":21600,"station_id":"ce4bgkh2rcd13ifvqbk0","pricing_plan_id":"cebpf4jnsgd1na2vs0mg"},{"bike_id":"2f36a039-b467-4436-a519-5d3bd2b3097d","system_id":"levelo_inurba_marseille","lat":43.303002,"lon":5.392142,"is_reserved":false,"is_disabled":false,"rental_uris":{"android":"levelo://app?vid=2f36a039-b467-4436-a519-5d3bd2b3097d","ios":"levelo://app?vid=2f36a039-b467-4436-a519-5d3bd2b3097d"},"vehicle_type_id":"4","last_reported":1719086837,"current_range_meters":31200,"station_id":"ce4bgkh2rcd13ifvqbk0","pricing_plan_id":"cebpf4jnsgd1na2vs0mg"},{"bike_id":"aa3e7ea3-cff3-4ca5-9bd4-fc77b36696ef","system_id":"levelo_inurba_marseille","lat":43.302992,"lon":5.392136,"is_reserved":false,"is_disabled":false,"rental_uris":{"android":"levelo://app?vid=aa3e7ea3-cff3-4ca5-9bd4-fc77b36696ef","ios":"levelo://app?vid=aa3e7ea3-cff3-4ca5-9bd4-fc77b36696ef"},"vehicle_type_id":"4","last_reported":1719086837,"current_range_meters":15600,"station_id":"ce4bgkh2rcd13ifvqbk0","pricing_plan_id":"cebpf4jnsgd1na2vs0mg"},{"bike_id":"3b7be713-6248-458d-9f0a-a03c54a96c7b","system_id":"levelo_inurba_marseille","lat":43.302992,"lon":5.392136,"is_reserved":false,"is_disabled":false,"rental_uris":{"android":"levelo://app?vid=3b7be713-6248-458d-9f0a-a03c54a96c7b","ios":"levelo://app?vid=3b7be713-6248-458d-9f0a-a03c54a96c7b"},"vehicle_type_id":"4","last_reported":1719086837,"current_range_meters":14400,"station_id":"ce4bgkh2rcd13ifvqbk0","pricing_plan_id":"cebpf4jnsgd1na2vs0mg"},{"bike_id":"6de1a23e-2205-4267-a225-1617ddc42088","system_id":"levelo_inurba_marseille","lat":43.302992,"lon":5.392136,"is_reserved":false,"is_disabled":false,"rental_uris":{"android":"levelo://app?vid=6de1a23e-2205-4267-a225-1617ddc42088","ios":"levelo://app?vid=6de1a23e-2205-4267-a225-1617ddc42088"},"vehicle_type_id":"4","last_reported":1719086837,"current_range_meters":30000,"station_id":"ce4bgkh2rcd13ifvqbk0","pricing_plan_id":"cebpf4jnsgd1na2vs0mg"},{"bike_id":"6fc19da0-9685-4fc3-8132-f0abd611feaa","system_id":"levelo_inurba_marseille","lat":43.302992,"lon":5.392136,"is_reserved":false,"is_disabled":false,"rental_uris":{"android":"levelo://app?vid=6fc19da0-9685-4fc3-8132-f0abd611feaa","ios":"levelo://app?vid=6fc19da0-9685-4fc3-8132-f0abd611feaa"},"vehicle_type_id":"4","last_reported":1719086837,"current_range_meters":20000,"station_id":"ce4bgkh2rcd13ifvqbk0","pricing_plan_id":"cebpf4jnsgd1na2vs0mg"},{"bike_id":"24e66e82-15c7-471c-a9eb-024140b20105","system_id":"levelo_inurba_marseille","lat":43.302992,"lon":5.392136,"is_reserved":false,"is_disabled":false,"rental_uris":{"android":"levelo://app?vid=24e66e82-15c7-471c-a9eb-024140b20105","ios":"levelo://app?vid=24e66e82-15c7-471c-a9eb-024140b20105"},"vehicle_type_id":"4","last_reported":1719086837,"current_range_meters":28800,"station_id":"ce4bgkh2rcd13ifvqbk0","pricing_plan_id":"cebpf4jnsgd1na2vs0mg"},{"bike_id":"8b3f99fa-da53-42c1-9aa0-32f2cc3bc012","system_id":"levelo_inurba_marseille","lat":43.302992,"lon":5.392136,"is_reserved":false,"is_disabled":false,"rental_uris":{"android":"levelo://app?vid=8b3f99fa-da53-42c1-9aa0-32f2cc3bc012","ios":"levelo://app?vid=8b3f99fa-da53-42c1-9aa0-32f2cc3bc012"},"vehicle_type_id":"4","last_reported":1719086837,"current_range_meters":12800,"station_id":"ce4bgkh2rcd13ifvqbk0","pricing_plan_id":"cebpf4jnsgd1na2vs0mg"},{"bike_id":"5468676c-7829-4069-8de8-0434b93706b5","system_id":"levelo_inurba_marseille","lat":43.303002,"lon":5.392142,"is_reserved":false,"is_disabled":false,"rental_uris":{"android":"levelo://app?vid=5468676c-7829-4069-8de8-0434b93706b5","ios":"levelo://app?vid=5468676c-7829-4069-8de8-0434b93706b5"},"vehicle_type_id":"4","last_reported":1719086837,"current_range_meters":24400,"station_id":"ce4bgkh2rcd13ifvqbk0","pricing_plan_id":"cebpf4jnsgd1na2vs0mg"},{"bike_id":"1610589e-1067-4a29-89a3-0b54c26366a0","system_id":"levelo_inurba_marseille","lat":43.2936,"lon":5.37835,"is_reserved":false,"is_disabled":false,"rental_uris":{"android":"levelo://app?vid=1610589e-1067-4a29-89a3-0b54c26366a0","ios":"levelo://app?vid=1610589e-1067-4a29-89a3-0b54c26366a0"},"vehicle_type_id":"4","last_reported":1719086837,"current_range_meters":23200,"station_id":"ce4bgjh2rcd13ifvqbf0","pricing_plan_id":"cebpf4jnsgd1na2vs0mg"},{"bike_id":"df0b3e62-e5c2-4241-b580-f305871ce845","system_id":"levelo_inurba_marseille","lat":43.2936,"lon":5.37835,"is_reserved":false,"is_disabled":false,"rental_uris":{"android":"levelo://app?vid=df0b3e62-e5c2-4241-b580-f305871ce845","ios":"levelo://app?vid=df0b3e62-e5c2-4241-b580-f305871ce845"},"vehicle_type_id":"4","last_reported":1719086837,"current_range_meters":4800,"station_id":"ce4bgjh2rcd13ifvqbf0","pricing_plan_id":"cebpf4jnsgd1na2vs0mg"},{"bike_id":"a5402d66-5ed4-48cd-aee4-9837243581a4","system_id":"levelo_inurba_marseille","lat":43.293675,"lon":5.378405,"is_reserved":false,"is_disabled":false,"rental_uris":{"android":"levelo://app?vid=a5402d66-5ed4-48cd-aee4-9837243581a4","ios":"levelo://app?vid=a5402d66-5ed4-48cd-aee4-9837243581a4"},"vehicle_type_id":"4","last_reported":1719086837,"current_range_meters":0,"station_id":"ce4bgjh2rcd13ifvqbf0","pricing_plan_id":"cebpf4jnsgd1na2vs0mg"},{"bike_id":"55a77ce5-31a7-479e-b69c-c7e060ebdc9e","system_id":"levelo_inurba_marseille","lat":43.29368,"lon":5.37844,"is_reserved":false,"is_disabled":false,"rental_uris":{"android":"levelo://app?vid=55a77ce5-31a7-479e-b69c-c7e060ebdc9e","ios":"levelo://app?vid=55a77ce5-31a7-479e-b69c-c7e060ebdc9e"},"vehicle_type_id":"4","last_reported":1719086837,"current_range_meters":10800,"station_id":"ce4bgjh2rcd13ifvqbf0","pricing_plan_id":"cebpf4jnsgd1na2vs0mg"},{"bike_id":"5a3a959d-ee8e-4920-b897-756273add19b","system_id":"levelo_inurba_marseille","lat":43.2936,"lon":5.37835,"is_reserved":false,"is_disabled":false,"rental_uris":{"android":"levelo://app?vid=5a3a959d-ee8e-4920-b897-756273add19b","ios":"levelo://app?vid=5a3a959d-ee8e-4920-b897-756273add19b"},"vehicle_type_id":"4","last_reported":1719086837,"current_range_meters":18000,"station_id":"ce4bgjh2rcd13ifvqbf0","pricing_plan_id":"cebpf4jnsgd1na2vs0mg"},{"bike_id":"e7173e79-2af9-4eea-b385-675cc2a00e53","system_id":"levelo_inurba_marseille","lat":43.2936,"lon":5.37835,"is_reserved":false,"is_disabled":false,"rental_uris":{"android":"levelo://app?vid=e7173e79-2af9-4eea-b385-675cc2a00e53","ios":"levelo://app?vid=e7173e79-2af9-4eea-b385-675cc2a00e53"},"vehicle_type_id":"4","last_reported":1719086837,"current_range_meters":7600,"station_id":"ce4bgjh2rcd13ifvqbf0","pricing_plan_id":"cebpf4jnsgd1na2vs0mg"},{"bike_id":"821fa066-909b-4fb6-b934-3abfb723f13b","system_id":"levelo_inurba_marseille","lat":43.2936,"lon":5.37835,"is_reserved":false,"is_disabled":false,"rental_uris":{"android":"levelo://app?vid=821fa066-909b-4fb6-b934-3abfb723f13b","ios":"levelo://app?vid=821fa066-909b-4fb6-b934-3abfb723f13b"},"vehicle_type_id":"4","last_reported":1719086837,"current_range_meters":24800,"station_id":"ce4bgjh2rcd13ifvqbf0","pricing_plan_id":"cebpf4jnsgd1na2vs0mg"},{"bike_id":"02d35c00-2ad5-4702-adce-7c403d48fe35","system_id":"levelo_inurba_marseille","lat":43.292311,"lon":5.360731,"is_reserved":false,"is_disabled":false,"rental_uris":{"android":"levelo://app?vid=02d35c00-2ad5-4702-adce-7c403d48fe35","ios":"levelo://app?vid=02d35c00-2ad5-4702-adce-7c403d48fe35"},"vehicle_type_id":"4","last_reported":1719086837,"current_range_meters":31600,"station_id":"ce4bhbh2rcd13ifvqeqg","pricing_plan_id":"cebpf4jnsgd1na2vs0mg"},{"bike_id":"3344f9e8-626f-4f4b-923d-a7ef95e170fd","system_id":"levelo_inurba_marseille","lat":43.292311,"lon":5.360731,"is_reserved":false,"is_disabled":false,"rental_uris":{"android":"levelo://app?vid=3344f9e8-626f-4f4b-923d-a7ef95e170fd","ios":"levelo://app?vid=3344f9e8-626f-4f4b-923d-a7ef95e170fd"},"vehicle_type_id":"4","last_reported":1719086837,"current_range_meters":6000,"station_id":"ce4bhbh2rcd13ifvqeqg","pricing_plan_id":"cebpf4jnsgd1na2vs0mg"},{"bike_id":"cbad1d15-0601-47a4-bdb7-c1b671afe4c2","system_id":"levelo_inurba_marseille","lat":43.292311,"lon":5.360731,"is_reserved":false,"is_disabled":false,"rental_uris":{"android":"levelo://app?vid=cbad1d15-0601-47a4-bdb7-c1b671afe4c2","ios":"levelo://app?vid=cbad1d15-0601-47a4-bdb7-c1b671afe4c2"},"vehicle_type_id":"4","last_reported":1719086837,"current_range_meters":12400,"station_id":"ce4bhbh2rcd13ifvqeqg","pricing_plan_id":"cebpf4jnsgd1na2vs0mg"},{"bike_id":"8d5bac02-fe43-4a5a-955a-b88f5a6a9a05","system_id":"levelo_inurba_marseille","lat":43.30085,"lon":5.390856,"is_reserved":false,"is_disabled":false,"rental_uris":{"android":"levelo://app?vid=8d5bac02-fe43-4a5a-955a-b88f5a6a9a05","ios":"levelo://app?vid=8d5bac02-fe43-4a5a-955a-b88f5a6a9a05"},"vehicle_type_id":"4","last_reported":1719086837,"current_range_meters":30400,"station_id":"ce4bh192rcd13ifvqdb0","pricing_plan_id":"cebpf4jnsgd1na2vs0mg"},{"bike_id":"ca9dd0a8-69e3-4b6f-9f8f-665da0666468","system_id":"levelo_inurba_marseille","lat":43.298764,"lon":5.388973,"is_reserved":false,"is_disabled":false,"rental_uris":{"android":"levelo://app?vid=ca9dd0a8-69e3-4b6f-9f8f-665da0666468","ios":"levelo://app?vid=ca9dd0a8-69e3-4b6f-9f8f-665da0666468"},"vehicle_type_id":"4","last_reported":1719086837,"current_range_meters":21200,"station_id":"ce4bh392rcd13ifvqdl0","pricing_plan_id":"cebpf4jnsgd1na2vs0mg"},{"bike_id":"859d6190-bba4-41d9-b196-f108a9f77736","system_id":"levelo_inurba_marseille","lat":43.291675,"lon":5.371583,"is_reserved":false,"is_disabled":false,"rental_uris":{"android":"levelo://app?vid=859d6190-bba4-41d9-b196-f108a9f77736","ios":"levelo://app?vid=859d6190-bba4-41d9-b196-f108a9f77736"},"vehicle_type_id":"4","last_reported":1719086837,"current_range_meters":9200,"station_id":"ce4bha92rcd13ifvqeh0","pricing_plan_id":"cebpf4jnsgd1na2vs0mg"},{"bike_id":"9d8833f7-d0d8-4f71-9659-aff481af1d5a","system_id":"levelo_inurba_marseille","lat":43.291671,"lon":5.371575,"is_reserved":false,"is_disabled":false,"rental_uris":{"android":"levelo://app?vid=9d8833f7-d0d8-4f71-9659-aff481af1d5a","ios":"levelo://app?vid=9d8833f7-d0d8-4f71-9659-aff481af1d5a"},"vehicle_type_id":"4","last_reported":1719086837,"current_range_meters":3600,"station_id":"ce4bha92rcd13ifvqeh0","pricing_plan_id":"cebpf4jnsgd1na2vs0mg"},{"bike_id":"6cd2bf9b-a5d8-4be5-b088-f9b32d14ac7c","system_id":"levelo_inurba_marseille","lat":43.298764,"lon":5.388973,"is_reserved":false,"is_disabled":false,"rental_uris":{"android":"levelo://app?vid=6cd2bf9b-a5d8-4be5-b088-f9b32d14ac7c","ios":"levelo://app?vid=6cd2bf9b-a5d8-4be5-b088-f9b32d14ac7c"},"vehicle_type_id":"4","last_reported":1719086837,"current_range_meters":18000,"station_id":"ce4bh392rcd13ifvqdl0","pricing_plan_id":"cebpf4jnsgd1na2vs0mg"},{"bike_id":"9490ccb2-54c6-4ba5-8b79-cea3f1946262","system_id":"levelo_inurba_marseille","lat":43.309047,"lon":5.396551,"is_reserved":false,"is_disabled":false,"rental_uris":{"android":"levelo://app?vid=9490ccb2-54c6-4ba5-8b79-cea3f1946262","ios":"levelo://app?vid=9490ccb2-54c6-4ba5-8b79-cea3f1946262"},"vehicle_type_id":"4","last_reported":1719086837,"current_range_meters":30400,"station_id":"ce4bh012rcd13ifvqcv0","pricing_plan_id":"cebpf4jnsgd1na2vs0mg"},{"bike_id":"d655d8c5-63d3-4bf2-9e55-cd747c737254","system_id":"levelo_inurba_marseille","lat":43.30888,"lon":5.39632,"is_reserved":false,"is_disabled":false,"rental_uris":{"android":"levelo://app?vid=d655d8c5-63d3-4bf2-9e55-cd747c737254","ios":"levelo://app?vid=d655d8c5-63d3-4bf2-9e55-cd747c737254"},"vehicle_type_id":"4","last_reported":1719086837,"current_range_meters":0,"station_id":"ce4bh012rcd13ifvqcv0","pricing_plan_id":"cebpf4jnsgd1na2vs0mg"},{"bike_id":"49667a19-6508-4358-a708-b2a4daa94938","system_id":"levelo_inurba_marseille","lat":43.309038,"lon":5.396546,"is_reserved":false,"is_disabled":false,"rental_uris":{"android":"levelo://app?vid=49667a19-6508-4358-a708-b2a4daa94938","ios":"levelo://app?vid=49667a19-6508-4358-a708-b2a4daa94938"},"vehicle_type_id":"4","last_reported":1719086837,"current_range_meters":0,"station_id":"ce4bh012rcd13ifvqcv0","pricing_plan_id":"cebpf4jnsgd1na2vs0mg"},{"bike_id":"7182d483-6c12-4229-a363-0d1343847009","system_id":"levelo_inurba_marseille","lat":43.309047,"lon":5.396551,"is_reserved":false,"is_disabled":false,"rental_uris":{"android":"levelo://app?vid=7182d483-6c12-4229-a363-0d1343847009","ios":"levelo://app?vid=7182d483-6c12-4229-a363-0d1343847009"},"vehicle_type_id":"4","last_reported":1719086837,"current_range_meters":27600,"station_id":"ce4bh012rcd13ifvqcv0","pricing_plan_id":"cebpf4jnsgd1na2vs0mg"},{"bike_id":"2ccf7bc0-b87e-4dd1-9fa1-128dda632b9a","system_id":"levelo_inurba_marseille","lat":43.309038,"lon":5.396546,"is_reserved":false,"is_disabled":false,"rental_uris":{"android":"levelo://app?vid=2ccf7bc0-b87e-4dd1-9fa1-128dda632b9a","ios":"levelo://app?vid=2ccf7bc0-b87e-4dd1-9fa1-128dda632b9a"},"vehicle_type_id":"4","last_reported":1719086837,"current_range_meters":24800,"station_id":"ce4bh012rcd13ifvqcv0","pricing_plan_id":"cebpf4jnsgd1na2vs0mg"},{"bike_id":"3e5d453b-9b7a-4093-944f-3d50574698e3","system_id":"levelo_inurba_marseille","lat":43.309047,"lon":5.396551,"is_reserved":false,"is_disabled":false,"rental_uris":{"android":"levelo://app?vid=3e5d453b-9b7a-4093-944f-3d50574698e3","ios":"levelo://app?vid=3e5d453b-9b7a-4093-944f-3d50574698e3"},"vehicle_type_id":"4","last_reported":1719086837,"current_range_meters":0,"station_id":"ce4bh012rcd13ifvqcv0","pricing_plan_id":"cebpf4jnsgd1na2vs0mg"},{"bike_id":"d00cd3c4-cffb-458c-88f9-ba555f8ca6c6","system_id":"levelo_inurba_marseille","lat":43.29529,"lon":5.385581,"is_reserved":false,"is_disabled":false,"rental_uris":{"android":"levelo://app?vid=d00cd3c4-cffb-458c-88f9-ba555f8ca6c6","ios":"levelo://app?vid=d00cd3c4-cffb-458c-88f9-ba555f8ca6c6"},"vehicle_type_id":"4","last_reported":1719086837,"current_range_meters":15600,"station_id":"ce4bgih2rcd13ifvqba0","pricing_plan_id":"cebpf4jnsgd1na2vs0mg"},{"bike_id":"9c3efffe-ad52-47d7-a40c-71b7d5ee7994","system_id":"levelo_inurba_marseille","lat":43.2954,"lon":5.38545,"is_reserved":false,"is_disabled":false,"rental_uris":{"android":"levelo://app?vid=9c3efffe-ad52-47d7-a40c-71b7d5ee7994","ios":"levelo://app?vid=9c3efffe-ad52-47d7-a40c-71b7d5ee7994"},"vehicle_type_id":"4","last_reported":1719086837,"current_range_meters":31200,"station_id":"ce4bgih2rcd13ifvqba0","pricing_plan_id":"cebpf4jnsgd1na2vs0mg"},{"bike_id":"22462360-d0f9-4e2a-b4f0-5f19dad6de70","system_id":"levelo_inurba_marseille","lat":43.29529,"lon":5.385581,"is_reserved":false,"is_disabled":false,"rental_uris":{"android":"levelo://app?vid=22462360-d0f9-4e2a-b4f0-5f19dad6de70","ios":"levelo://app?vid=22462360-d0f9-4e2a-b4f0-5f19dad6de70"},"vehicle_type_id":"4","last_reported":1719086837,"current_range_meters":10400,"station_id":"ce4bgih2rcd13ifvqba0","pricing_plan_id":"cebpf4jnsgd1na2vs0mg"},{"bike_id":"06965ce6-ea9d-4002-bcbe-cda02a085364","system_id":"levelo_inurba_marseille","lat":43.29529,"lon":5.385581,"is_reserved":false,"is_disabled":false,"rental_uris":{"android":"levelo://app?vid=06965ce6-ea9d-4002-bcbe-cda02a085364","ios":"levelo://app?vid=06965ce6-ea9d-4002-bcbe-cda02a085364"},"vehicle_type_id":"4","last_reported":1719086837,"current_range_meters":30800,"station_id":"ce4bgih2rcd13ifvqba0","pricing_plan_id":"cebpf4jnsgd1na2vs0mg"},{"bike_id":"7e5b13d0-f4ed-47f5-8738-1b7a69b19049","system_id":"levelo_inurba_marseille","lat":43.29529,"lon":5.385581,"is_reserved":false,"is_disabled":false,"rental_uris":{"android":"levelo://app?vid=7e5b13d0-f4ed-47f5-8738-1b7a69b19049","ios":"levelo://app?vid=7e5b13d0-f4ed-47f5-8738-1b7a69b19049"},"vehicle_type_id":"4","last_reported":1719086837,"current_range_meters":17600,"station_id":"ce4bgih2rcd13ifvqba0","pricing_plan_id":"cebpf4jnsgd1na2vs0mg"},{"bike_id":"b850c0c2-45ad-428c-a83a-4382f30f097a","system_id":"levelo_inurba_marseille","lat":43.29529,"lon":5.385581,"is_reserved":false,"is_disabled":false,"rental_uris":{"android":"levelo://app?vid=b850c0c2-45ad-428c-a83a-4382f30f097a","ios":"levelo://app?vid=b850c0c2-45ad-428c-a83a-4382f30f097a"},"vehicle_type_id":"4","last_reported":1719086837,"current_range_meters":18400,"station_id":"ce4bgih2rcd13ifvqba0","pricing_plan_id":"cebpf4jnsgd1na2vs0mg"},{"bike_id":"ff73dfa3-2f69-4a1d-9b8d-c7c8ac03f14e","system_id":"levelo_inurba_marseille","lat":43.29795,"lon":5.404086,"is_reserved":false,"is_disabled":false,"rental_uris":{"android":"levelo://app?vid=ff73dfa3-2f69-4a1d-9b8d-c7c8ac03f14e","ios":"levelo://app?vid=ff73dfa3-2f69-4a1d-9b8d-c7c8ac03f14e"},"vehicle_type_id":"4","last_reported":1719086837,"current_range_meters":23200,"station_id":"ce4bh112rcd13ifvqd90","pricing_plan_id":"cebpf4jnsgd1na2vs0mg"},{"bike_id":"84b6003e-d7ff-4b82-88e1-bcab48b28905","system_id":"levelo_inurba_marseille","lat":43.29529,"lon":5.385581,"is_reserved":false,"is_disabled":false,"rental_uris":{"android":"levelo://app?vid=84b6003e-d7ff-4b82-88e1-bcab48b28905","ios":"levelo://app?vid=84b6003e-d7ff-4b82-88e1-bcab48b28905"},"vehicle_type_id":"4","last_reported":1719086837,"current_range_meters":27200,"station_id":"ce4bgih2rcd13ifvqba0","pricing_plan_id":"cebpf4jnsgd1na2vs0mg"},{"bike_id":"ad19c4f7-5fb1-4a83-ae96-bf41b092f22f","system_id":"levelo_inurba_marseille","lat":43.29529,"lon":5.385581,"is_reserved":false,"is_disabled":false,"rental_uris":{"android":"levelo://app?vid=ad19c4f7-5fb1-4a83-ae96-bf41b092f22f","ios":"levelo://app?vid=ad19c4f7-5fb1-4a83-ae96-bf41b092f22f"},"vehicle_type_id":"4","last_reported":1719086837,"current_range_meters":18800,"station_id":"ce4bgih2rcd13ifvqba0","pricing_plan_id":"cebpf4jnsgd1na2vs0mg"},{"bike_id":"ab01d602-5dee-4593-a5f2-784b7e7504af","system_id":"levelo_inurba_marseille","lat":43.29529,"lon":5.385581,"is_reserved":false,"is_disabled":false,"rental_uris":{"android":"levelo://app?vid=ab01d602-5dee-4593-a5f2-784b7e7504af","ios":"levelo://app?vid=ab01d602-5dee-4593-a5f2-784b7e7504af"},"vehicle_type_id":"4","last_reported":1719086837,"current_range_meters":16400,"station_id":"ce4bgih2rcd13ifvqba0","pricing_plan_id":"cebpf4jnsgd1na2vs0mg"},{"bike_id":"f6e06a20-d642-4738-8625-647f6ad081e5","system_id":"levelo_inurba_marseille","lat":43.29529,"lon":5.385581,"is_reserved":false,"is_disabled":false,"rental_uris":{"android":"levelo://app?vid=f6e06a20-d642-4738-8625-647f6ad081e5","ios":"levelo://app?vid=f6e06a20-d642-4738-8625-647f6ad081e5"},"vehicle_type_id":"4","last_reported":1719086837,"current_range_meters":17200,"station_id":"ce4bgih2rcd13ifvqba0","pricing_plan_id":"cebpf4jnsgd1na2vs0mg"},{"bike_id":"4aaaffe7-7111-41d1-b010-eb987bedc874","system_id":"levelo_inurba_marseille","lat":43.29529,"lon":5.385581,"is_reserved":false,"is_disabled":false,"rental_uris":{"android":"levelo://app?vid=4aaaffe7-7111-41d1-b010-eb987bedc874","ios":"levelo://app?vid=4aaaffe7-7111-41d1-b010-eb987bedc874"},"vehicle_type_id":"4","last_reported":1719086837,"current_range_meters":9200,"station_id":"ce4bgih2rcd13ifvqba0","pricing_plan_id":"cebpf4jnsgd1na2vs0mg"},{"bike_id":"1a30683b-a1dc-4af3-9236-64d781b7edc0","system_id":"levelo_inurba_marseille","lat":43.29529,"lon":5.385581,"is_reserved":false,"is_disabled":false,"rental_uris":{"android":"levelo://app?vid=1a30683b-a1dc-4af3-9236-64d781b7edc0","ios":"levelo://app?vid=1a30683b-a1dc-4af3-9236-64d781b7edc0"},"vehicle_type_id":"4","last_reported":1719086837,"current_range_meters":28000,"station_id":"ce4bgih2rcd13ifvqba0","pricing_plan_id":"cebpf4jnsgd1na2vs0mg"},{"bike_id":"fbae516d-58a4-480a-9ca3-374e0bf60850","system_id":"levelo_inurba_marseille","lat":43.29529,"lon":5.385581,"is_reserved":false,"is_disabled":false,"rental_uris":{"android":"levelo://app?vid=fbae516d-58a4-480a-9ca3-374e0bf60850","ios":"levelo://app?vid=fbae516d-58a4-480a-9ca3-374e0bf60850"},"vehicle_type_id":"4","last_reported":1719086837,"current_range_meters":20800,"station_id":"ce4bgih2rcd13ifvqba0","pricing_plan_id":"cebpf4jnsgd1na2vs0mg"},{"bike_id":"7c5ab279-5e3e-4ed6-8a3c-92dc1ed1d3fc","system_id":"levelo_inurba_marseille","lat":43.290779,"lon":5.371482,"is_reserved":false,"is_disabled":false,"rental_uris":{"android":"levelo://app?vid=7c5ab279-5e3e-4ed6-8a3c-92dc1ed1d3fc","ios":"levelo://app?vid=7c5ab279-5e3e-4ed6-8a3c-92dc1ed1d3fc"},"vehicle_type_id":"4","last_reported":1719086837,"current_range_meters":31200,"station_id":"ce4bh5p2rcd13ifvqe4g","pricing_plan_id":"cebpf4jnsgd1na2vs0mg"},{"bike_id":"255c8d32-4058-46ca-98bb-bc11cfd4cdd4","system_id":"levelo_inurba_marseille","lat":43.302008,"lon":5.394694,"is_reserved":false,"is_disabled":false,"rental_uris":{"android":"levelo://app?vid=255c8d32-4058-46ca-98bb-bc11cfd4cdd4","ios":"levelo://app?vid=255c8d32-4058-46ca-98bb-bc11cfd4cdd4"},"vehicle_type_id":"4","last_reported":1719086837,"current_range_meters":26800,"station_id":"ce4bh0p2rcd13ifvqd70","pricing_plan_id":"cebpf4jnsgd1na2vs0mg"},{"bike_id":"de7e4ccf-70a9-4a1c-9521-5d8ac1e76102","system_id":"levelo_inurba_marseille","lat":43.290631,"lon":5.359244,"is_reserved":false,"is_disabled":false,"rental_uris":{"android":"levelo://app?vid=de7e4ccf-70a9-4a1c-9521-5d8ac1e76102","ios":"levelo://app?vid=de7e4ccf-70a9-4a1c-9521-5d8ac1e76102"},"vehicle_type_id":"4","last_reported":1719086837,"current_range_meters":15200,"station_id":"ce4bha92rcd13ifvqeg0","pricing_plan_id":"cebpf4jnsgd1na2vs0mg"},{"bike_id":"fd4f93c5-f41e-4136-822a-e20753ab5a4b","system_id":"levelo_inurba_marseille","lat":43.290624,"lon":5.359245,"is_reserved":false,"is_disabled":false,"rental_uris":{"android":"levelo://app?vid=fd4f93c5-f41e-4136-822a-e20753ab5a4b","ios":"levelo://app?vid=fd4f93c5-f41e-4136-822a-e20753ab5a4b"},"vehicle_type_id":"4","last_reported":1719086837,"current_range_meters":18000,"station_id":"ce4bha92rcd13ifvqeg0","pricing_plan_id":"cebpf4jnsgd1na2vs0mg"},{"bike_id":"f347532e-7952-4298-bff7-62d2e73e269e","system_id":"levelo_inurba_marseille","lat":43.290624,"lon":5.359245,"is_reserved":false,"is_disabled":false,"rental_uris":{"android":"levelo://app?vid=f347532e-7952-4298-bff7-62d2e73e269e","ios":"levelo://app?vid=f347532e-7952-4298-bff7-62d2e73e269e"},"vehicle_type_id":"4","last_reported":1719086837,"current_range_meters":26000,"station_id":"ce4bha92rcd13ifvqeg0","pricing_plan_id":"cebpf4jnsgd1na2vs0mg"},{"bike_id":"6a4bd3de-82b6-48c5-8db0-80a5d5cec1f1","system_id":"levelo_inurba_marseille","lat":43.290319,"lon":5.375732,"is_reserved":false,"is_disabled":false,"rental_uris":{"android":"levelo://app?vid=6a4bd3de-82b6-48c5-8db0-80a5d5cec1f1","ios":"levelo://app?vid=6a4bd3de-82b6-48c5-8db0-80a5d5cec1f1"},"vehicle_type_id":"4","last_reported":1719086837,"current_range_meters":15600,"station_id":"ce4bh692rcd13ifvqe90","pricing_plan_id":"cebpf4jnsgd1na2vs0mg"},{"bike_id":"a55a59df-b0f5-412b-8c3a-38dc4b036279","system_id":"levelo_inurba_marseille","lat":43.294153,"lon":5.386305,"is_reserved":false,"is_disabled":false,"rental_uris":{"android":"levelo://app?vid=a55a59df-b0f5-412b-8c3a-38dc4b036279","ios":"levelo://app?vid=a55a59df-b0f5-412b-8c3a-38dc4b036279"},"vehicle_type_id":"4","last_reported":1719086837,"current_range_meters":29200,"station_id":"ce4bh2h2rcd13ifvqdh0","pricing_plan_id":"cebpf4jnsgd1na2vs0mg"},{"bike_id":"61e2bd75-34cf-46ed-8438-5fe85389ebfb","system_id":"levelo_inurba_marseille","lat":43.290327,"lon":5.375711,"is_reserved":false,"is_disabled":false,"rental_uris":{"android":"levelo://app?vid=61e2bd75-34cf-46ed-8438-5fe85389ebfb","ios":"levelo://app?vid=61e2bd75-34cf-46ed-8438-5fe85389ebfb"},"vehicle_type_id":"4","last_reported":1719086837,"current_range_meters":7600,"station_id":"ce4bh692rcd13ifvqe90","pricing_plan_id":"cebpf4jnsgd1na2vs0mg"},{"bike_id":"7dfe6e3e-66f7-491f-8341-d4096fdd9a0d","system_id":"levelo_inurba_marseille","lat":43.294153,"lon":5.386305,"is_reserved":false,"is_disabled":false,"rental_uris":{"android":"levelo://app?vid=7dfe6e3e-66f7-491f-8341-d4096fdd9a0d","ios":"levelo://app?vid=7dfe6e3e-66f7-491f-8341-d4096fdd9a0d"},"vehicle_type_id":"4","last_reported":1719086837,"current_range_meters":26000,"station_id":"ce4bh2h2rcd13ifvqdh0","pricing_plan_id":"cebpf4jnsgd1na2vs0mg"},{"bike_id":"7b914505-2c0f-4cb9-926b-c3bafbd18071","system_id":"levelo_inurba_marseille","lat":43.289184,"lon":5.366408,"is_reserved":false,"is_disabled":false,"rental_uris":{"android":"levelo://app?vid=7b914505-2c0f-4cb9-926b-c3bafbd18071","ios":"levelo://app?vid=7b914505-2c0f-4cb9-926b-c3bafbd18071"},"vehicle_type_id":"4","last_reported":1719086837,"current_range_meters":19600,"station_id":"ce4bhap2rcd13ifvqek0","pricing_plan_id":"cebpf4jnsgd1na2vs0mg"},{"bike_id":"57f1a615-533c-4842-8974-4d9585f24699","system_id":"levelo_inurba_marseille","lat":43.294153,"lon":5.386305,"is_reserved":false,"is_disabled":false,"rental_uris":{"android":"levelo://app?vid=57f1a615-533c-4842-8974-4d9585f24699","ios":"levelo://app?vid=57f1a615-533c-4842-8974-4d9585f24699"},"vehicle_type_id":"4","last_reported":1719086837,"current_range_meters":16000,"station_id":"ce4bh2h2rcd13ifvqdh0","pricing_plan_id":"cebpf4jnsgd1na2vs0mg"},{"bike_id":"af8e7f16-b882-49e7-b41c-aee86663dc8d","system_id":"levelo_inurba_marseille","lat":43.28945,"lon":5.36644,"is_reserved":false,"is_disabled":false,"rental_uris":{"android":"levelo://app?vid=af8e7f16-b882-49e7-b41c-aee86663dc8d","ios":"levelo://app?vid=af8e7f16-b882-49e7-b41c-aee86663dc8d"},"vehicle_type_id":"4","last_reported":1719086837,"current_range_meters":24000,"station_id":"ce4bhap2rcd13ifvqek0","pricing_plan_id":"cebpf4jnsgd1na2vs0mg"},{"bike_id":"741c9ef7-3525-4409-b1f5-08fc618048ce","system_id":"levelo_inurba_marseille","lat":43.294162,"lon":5.386292,"is_reserved":false,"is_disabled":false,"rental_uris":{"android":"levelo://app?vid=741c9ef7-3525-4409-b1f5-08fc618048ce","ios":"levelo://app?vid=741c9ef7-3525-4409-b1f5-08fc618048ce"},"vehicle_type_id":"4","last_reported":1719086837,"current_range_meters":31200,"station_id":"ce4bh2h2rcd13ifvqdh0","pricing_plan_id":"cebpf4jnsgd1na2vs0mg"},{"bike_id":"ef83376e-0fd1-44ed-a120-5cbb29ce4642","system_id":"levelo_inurba_marseille","lat":43.294162,"lon":5.386292,"is_reserved":false,"is_disabled":false,"rental_uris":{"android":"levelo://app?vid=ef83376e-0fd1-44ed-a120-5cbb29ce4642","ios":"levelo://app?vid=ef83376e-0fd1-44ed-a120-5cbb29ce4642"},"vehicle_type_id":"4","last_reported":1719086837,"current_range_meters":10400,"station_id":"ce4bh2h2rcd13ifvqdh0","pricing_plan_id":"cebpf4jnsgd1na2vs0mg"},{"bike_id":"4a1ac41d-d44a-409c-9ea7-9e74f84ff7ad","system_id":"levelo_inurba_marseille","lat":43.290319,"lon":5.375732,"is_reserved":false,"is_disabled":false,"rental_uris":{"android":"levelo://app?vid=4a1ac41d-d44a-409c-9ea7-9e74f84ff7ad","ios":"levelo://app?vid=4a1ac41d-d44a-409c-9ea7-9e74f84ff7ad"},"vehicle_type_id":"4","last_reported":1719086837,"current_range_meters":29600,"station_id":"ce4bh692rcd13ifvqe90","pricing_plan_id":"cebpf4jnsgd1na2vs0mg"},{"bike_id":"4cdabf13-fbb1-4211-9e88-a92615e98bac","system_id":"levelo_inurba_marseille","lat":43.289184,"lon":5.366408,"is_reserved":false,"is_disabled":false,"rental_uris":{"android":"levelo://app?vid=4cdabf13-fbb1-4211-9e88-a92615e98bac","ios":"levelo://app?vid=4cdabf13-fbb1-4211-9e88-a92615e98bac"},"vehicle_type_id":"4","last_reported":1719086837,"current_range_meters":9200,"station_id":"ce4bhap2rcd13ifvqek0","pricing_plan_id":"cebpf4jnsgd1na2vs0mg"},{"bike_id":"6cbe4433-25c8-4ce8-90a4-09ccb06708cd","system_id":"levelo_inurba_marseille","lat":43.289184,"lon":5.366408,"is_reserved":false,"is_disabled":false,"rental_uris":{"android":"levelo://app?vid=6cbe4433-25c8-4ce8-90a4-09ccb06708cd","ios":"levelo://app?vid=6cbe4433-25c8-4ce8-90a4-09ccb06708cd"},"vehicle_type_id":"4","last_reported":1719086837,"current_range_meters":14000,"station_id":"ce4bhap2rcd13ifvqek0","pricing_plan_id":"cebpf4jnsgd1na2vs0mg"},{"bike_id":"d4ef6769-c3c7-42f6-bd5f-68e2793b7c38","system_id":"levelo_inurba_marseille","lat":43.289351,"lon":5.366403,"is_reserved":false,"is_disabled":false,"rental_uris":{"android":"levelo://app?vid=d4ef6769-c3c7-42f6-bd5f-68e2793b7c38","ios":"levelo://app?vid=d4ef6769-c3c7-42f6-bd5f-68e2793b7c38"},"vehicle_type_id":"4","last_reported":1719086837,"current_range_meters":31200,"station_id":"ce4bhap2rcd13ifvqek0","pricing_plan_id":"cebpf4jnsgd1na2vs0mg"},{"bike_id":"3783dd4a-b6b4-42f5-8c89-7c8e609bd31c","system_id":"levelo_inurba_marseille","lat":43.28935,"lon":5.3663,"is_reserved":false,"is_disabled":false,"rental_uris":{"android":"levelo://app?vid=3783dd4a-b6b4-42f5-8c89-7c8e609bd31c","ios":"levelo://app?vid=3783dd4a-b6b4-42f5-8c89-7c8e609bd31c"},"vehicle_type_id":"4","last_reported":1719086837,"current_range_meters":24800,"station_id":"ce4bhap2rcd13ifvqek0","pricing_plan_id":"cebpf4jnsgd1na2vs0mg"},{"bike_id":"2960749b-73ab-4675-9601-606993ac82fc","system_id":"levelo_inurba_marseille","lat":43.289184,"lon":5.366408,"is_reserved":false,"is_disabled":false,"rental_uris":{"android":"levelo://app?vid=2960749b-73ab-4675-9601-606993ac82fc","ios":"levelo://app?vid=2960749b-73ab-4675-9601-606993ac82fc"},"vehicle_type_id":"4","last_reported":1719086837,"current_range_meters":16800,"station_id":"ce4bhap2rcd13ifvqek0","pricing_plan_id":"cebpf4jnsgd1na2vs0mg"},{"bike_id":"e919e5cb-4501-47ef-88f0-2548b87b30e8","system_id":"levelo_inurba_marseille","lat":43.289314,"lon":5.3664,"is_reserved":false,"is_disabled":false,"rental_uris":{"android":"levelo://app?vid=e919e5cb-4501-47ef-88f0-2548b87b30e8","ios":"levelo://app?vid=e919e5cb-4501-47ef-88f0-2548b87b30e8"},"vehicle_type_id":"4","last_reported":1719086837,"current_range_meters":31200,"station_id":"ce4bhap2rcd13ifvqek0","pricing_plan_id":"cebpf4jnsgd1na2vs0mg"},{"bike_id":"1e7b7b99-7ef0-4c91-bcdb-0d3ebeabfdaa","system_id":"levelo_inurba_marseille","lat":43.292642,"lon":5.384254,"is_reserved":false,"is_disabled":false,"rental_uris":{"android":"levelo://app?vid=1e7b7b99-7ef0-4c91-bcdb-0d3ebeabfdaa","ios":"levelo://app?vid=1e7b7b99-7ef0-4c91-bcdb-0d3ebeabfdaa"},"vehicle_type_id":"4","last_reported":1719086837,"current_range_meters":25600,"station_id":"ce4bh692rcd13ifvqea0","pricing_plan_id":"cebpf4jnsgd1na2vs0mg"},{"bike_id":"06878a3f-f4f5-4c09-a7e9-93613d68d87b","system_id":"levelo_inurba_marseille","lat":43.292642,"lon":5.384254,"is_reserved":false,"is_disabled":false,"rental_uris":{"android":"levelo://app?vid=06878a3f-f4f5-4c09-a7e9-93613d68d87b","ios":"levelo://app?vid=06878a3f-f4f5-4c09-a7e9-93613d68d87b"},"vehicle_type_id":"4","last_reported":1719086837,"current_range_meters":23600,"station_id":"ce4bh692rcd13ifvqea0","pricing_plan_id":"cebpf4jnsgd1na2vs0mg"},{"bike_id":"7dd4ce24-afc4-4347-aa01-5b30dc217bf0","system_id":"levelo_inurba_marseille","lat":43.292644,"lon":5.384257,"is_reserved":false,"is_disabled":false,"rental_uris":{"android":"levelo://app?vid=7dd4ce24-afc4-4347-aa01-5b30dc217bf0","ios":"levelo://app?vid=7dd4ce24-afc4-4347-aa01-5b30dc217bf0"},"vehicle_type_id":"4","last_reported":1719086837,"current_range_meters":16400,"station_id":"ce4bh692rcd13ifvqea0","pricing_plan_id":"cebpf4jnsgd1na2vs0mg"},{"bike_id":"efbc860f-73a2-4888-a393-eb67667338d6","system_id":"levelo_inurba_marseille","lat":43.292642,"lon":5.384254,"is_reserved":false,"is_disabled":false,"rental_uris":{"android":"levelo://app?vid=efbc860f-73a2-4888-a393-eb67667338d6","ios":"levelo://app?vid=efbc860f-73a2-4888-a393-eb67667338d6"},"vehicle_type_id":"4","last_reported":1719086837,"current_range_meters":22400,"station_id":"ce4bh692rcd13ifvqea0","pricing_plan_id":"cebpf4jnsgd1na2vs0mg"},{"bike_id":"75b5e040-23a2-4600-9d5e-2b55a990993f","system_id":"levelo_inurba_marseille","lat":43.29258,"lon":5.3844,"is_reserved":false,"is_disabled":false,"rental_uris":{"android":"levelo://app?vid=75b5e040-23a2-4600-9d5e-2b55a990993f","ios":"levelo://app?vid=75b5e040-23a2-4600-9d5e-2b55a990993f"},"vehicle_type_id":"4","last_reported":1719086837,"current_range_meters":13600,"station_id":"ce4bh692rcd13ifvqea0","pricing_plan_id":"cebpf4jnsgd1na2vs0mg"},{"bike_id":"6f90c79f-f91b-4127-9b0e-b4c75afb9416","system_id":"levelo_inurba_marseille","lat":43.292642,"lon":5.384254,"is_reserved":false,"is_disabled":false,"rental_uris":{"android":"levelo://app?vid=6f90c79f-f91b-4127-9b0e-b4c75afb9416","ios":"levelo://app?vid=6f90c79f-f91b-4127-9b0e-b4c75afb9416"},"vehicle_type_id":"4","last_reported":1719086837,"current_range_meters":4000,"station_id":"ce4bh692rcd13ifvqea0","pricing_plan_id":"cebpf4jnsgd1na2vs0mg"},{"bike_id":"8574d864-e129-46fa-a302-a361f38e2a85","system_id":"levelo_inurba_marseille","lat":43.290103,"lon":5.356114,"is_reserved":false,"is_disabled":false,"rental_uris":{"android":"levelo://app?vid=8574d864-e129-46fa-a302-a361f38e2a85","ios":"levelo://app?vid=8574d864-e129-46fa-a302-a361f38e2a85"},"vehicle_type_id":"4","last_reported":1719086837,"current_range_meters":19600,"station_id":"ce4bhb92rcd13ifvqen0","pricing_plan_id":"cebpf4jnsgd1na2vs0mg"},{"bike_id":"99b3e8f4-ba83-4233-8bd9-5bb5feac28e1","system_id":"levelo_inurba_marseille","lat":43.29783,"lon":5.3934,"is_reserved":false,"is_disabled":false,"rental_uris":{"android":"levelo://app?vid=99b3e8f4-ba83-4233-8bd9-5bb5feac28e1","ios":"levelo://app?vid=99b3e8f4-ba83-4233-8bd9-5bb5feac28e1"},"vehicle_type_id":"4","last_reported":1719086837,"current_range_meters":31200,"station_id":"chh1huq6cuj3fo74tm60","pricing_plan_id":"cebpf4jnsgd1na2vs0mg"},{"bike_id":"68b0fbd6-3f2f-46a0-ae3c-936e3608113e","system_id":"levelo_inurba_marseille","lat":43.330442,"lon":5.389148,"is_reserved":false,"is_disabled":false,"rental_uris":{"android":"levelo://app?vid=68b0fbd6-3f2f-46a0-ae3c-936e3608113e","ios":"levelo://app?vid=68b0fbd6-3f2f-46a0-ae3c-936e3608113e"},"vehicle_type_id":"4","last_reported":1719086837,"current_range_meters":6000,"station_id":"ce4bhr92rcd13ifvqhrg","pricing_plan_id":"cebpf4jnsgd1na2vs0mg"},{"bike_id":"49523f87-6e16-453a-891a-86e24d2ee0a3","system_id":"levelo_inurba_marseille","lat":43.295169,"lon":5.390426,"is_reserved":false,"is_disabled":false,"rental_uris":{"android":"levelo://app?vid=49523f87-6e16-453a-891a-86e24d2ee0a3","ios":"levelo://app?vid=49523f87-6e16-453a-891a-86e24d2ee0a3"},"vehicle_type_id":"4","last_reported":1719086837,"current_range_meters":16400,"station_id":"ce4bh3p2rcd13ifvqdp0","pricing_plan_id":"cebpf4jnsgd1na2vs0mg"},{"bike_id":"88e2f51e-e62f-4278-ad1f-4f1a615dea1a","system_id":"levelo_inurba_marseille","lat":43.330442,"lon":5.389148,"is_reserved":false,"is_disabled":false,"rental_uris":{"android":"levelo://app?vid=88e2f51e-e62f-4278-ad1f-4f1a615dea1a","ios":"levelo://app?vid=88e2f51e-e62f-4278-ad1f-4f1a615dea1a"},"vehicle_type_id":"4","last_reported":1719086837,"current_range_meters":10400,"station_id":"ce4bhr92rcd13ifvqhrg","pricing_plan_id":"cebpf4jnsgd1na2vs0mg"},{"bike_id":"4ae8483d-9a45-4ef3-a67a-0937f32a9419","system_id":"levelo_inurba_marseille","lat":43.295169,"lon":5.390426,"is_reserved":false,"is_disabled":false,"rental_uris":{"android":"levelo://app?vid=4ae8483d-9a45-4ef3-a67a-0937f32a9419","ios":"levelo://app?vid=4ae8483d-9a45-4ef3-a67a-0937f32a9419"},"vehicle_type_id":"4","last_reported":1719086837,"current_range_meters":31200,"station_id":"ce4bh3p2rcd13ifvqdp0","pricing_plan_id":"cebpf4jnsgd1na2vs0mg"},{"bike_id":"c8736b82-5883-46c1-9617-9eb4986c923c","system_id":"levelo_inurba_marseille","lat":43.295169,"lon":5.390426,"is_reserved":false,"is_disabled":false,"rental_uris":{"android":"levelo://app?vid=c8736b82-5883-46c1-9617-9eb4986c923c","ios":"levelo://app?vid=c8736b82-5883-46c1-9617-9eb4986c923c"},"vehicle_type_id":"4","last_reported":1719086837,"current_range_meters":27600,"station_id":"ce4bh3p2rcd13ifvqdp0","pricing_plan_id":"cebpf4jnsgd1na2vs0mg"},{"bike_id":"0e03e884-35dc-41d0-8e40-1506a297c859","system_id":"levelo_inurba_marseille","lat":43.290094,"lon":5.381264,"is_reserved":false,"is_disabled":false,"rental_uris":{"android":"levelo://app?vid=0e03e884-35dc-41d0-8e40-1506a297c859","ios":"levelo://app?vid=0e03e884-35dc-41d0-8e40-1506a297c859"},"vehicle_type_id":"4","last_reported":1719086837,"current_range_meters":31200,"station_id":"ce4bh4p2rcd13ifvqe1g","pricing_plan_id":"cebpf4jnsgd1na2vs0mg"},{"bike_id":"24f904e7-440b-4e47-b0ed-9fa164e15cd5","system_id":"levelo_inurba_marseille","lat":43.2901,"lon":5.381269,"is_reserved":false,"is_disabled":false,"rental_uris":{"android":"levelo://app?vid=24f904e7-440b-4e47-b0ed-9fa164e15cd5","ios":"levelo://app?vid=24f904e7-440b-4e47-b0ed-9fa164e15cd5"},"vehicle_type_id":"4","last_reported":1719086837,"current_range_meters":23600,"station_id":"ce4bh4p2rcd13ifvqe1g","pricing_plan_id":"cebpf4jnsgd1na2vs0mg"},{"bike_id":"5182fae3-f7b8-449d-9928-8d861ea33300","system_id":"levelo_inurba_marseille","lat":43.289184,"lon":5.366408,"is_reserved":false,"is_disabled":false,"rental_uris":{"android":"levelo://app?vid=5182fae3-f7b8-449d-9928-8d861ea33300","ios":"levelo://app?vid=5182fae3-f7b8-449d-9928-8d861ea33300"},"vehicle_type_id":"4","last_reported":1719086837,"current_range_meters":31200,"station_id":"ce4bhap2rcd13ifvqek0","pricing_plan_id":"cebpf4jnsgd1na2vs0mg"},{"bike_id":"2f4fbfed-2a31-4621-a34c-aa526ca5539e","system_id":"levelo_inurba_marseille","lat":43.28856,"lon":5.358371,"is_reserved":false,"is_disabled":false,"rental_uris":{"android":"levelo://app?vid=2f4fbfed-2a31-4621-a34c-aa526ca5539e","ios":"levelo://app?vid=2f4fbfed-2a31-4621-a34c-aa526ca5539e"},"vehicle_type_id":"4","last_reported":1719086837,"current_range_meters":30800,"station_id":"ce4bhb12rcd13ifvqem0","pricing_plan_id":"cebpf4jnsgd1na2vs0mg"},{"bike_id":"05092e03-5cef-41c3-9575-df5db7507ebd","system_id":"levelo_inurba_marseille","lat":43.33739,"lon":5.37464,"is_reserved":false,"is_disabled":false,"rental_uris":{"android":"levelo://app?vid=05092e03-5cef-41c3-9575-df5db7507ebd","ios":"levelo://app?vid=05092e03-5cef-41c3-9575-df5db7507ebd"},"vehicle_type_id":"4","last_reported":1719086837,"current_range_meters":18400,"station_id":"","pricing_plan_id":"cebpf4jnsgd1na2vs0mg"},{"bike_id":"b81fcc4e-cad8-4182-84b9-d420bf5181c0","system_id":"levelo_inurba_marseille","lat":43.30934,"lon":5.40141,"is_reserved":false,"is_disabled":false,"rental_uris":{"android":"levelo://app?vid=b81fcc4e-cad8-4182-84b9-d420bf5181c0","ios":"levelo://app?vid=b81fcc4e-cad8-4182-84b9-d420bf5181c0"},"vehicle_type_id":"4","last_reported":1719086837,"current_range_meters":0,"station_id":"","pricing_plan_id":"cebpf4jnsgd1na2vs0mg"},{"bike_id":"3605a0be-beaa-4536-af12-7e2345ff8546","system_id":"levelo_inurba_marseille","lat":43.312609,"lon":5.401662,"is_reserved":false,"is_disabled":false,"rental_uris":{"android":"levelo://app?vid=3605a0be-beaa-4536-af12-7e2345ff8546","ios":"levelo://app?vid=3605a0be-beaa-4536-af12-7e2345ff8546"},"vehicle_type_id":"4","last_reported":1719086837,"current_range_meters":30000,"station_id":"ce4bh092rcd13ifvqd30","pricing_plan_id":"cebpf4jnsgd1na2vs0mg"},{"bike_id":"5b5cae36-09e1-4bd0-aeb4-83d37c064d16","system_id":"levelo_inurba_marseille","lat":43.33746,"lon":5.37459,"is_reserved":false,"is_disabled":false,"rental_uris":{"android":"levelo://app?vid=5b5cae36-09e1-4bd0-aeb4-83d37c064d16","ios":"levelo://app?vid=5b5cae36-09e1-4bd0-aeb4-83d37c064d16"},"vehicle_type_id":"4","last_reported":1719086837,"current_range_meters":24400,"station_id":"","pricing_plan_id":"cebpf4jnsgd1na2vs0mg"},{"bike_id":"584bc56f-2ca4-4f4d-87e6-87e7f1cda8e9","system_id":"levelo_inurba_marseille","lat":43.31265,"lon":5.40178,"is_reserved":false,"is_disabled":false,"rental_uris":{"android":"levelo://app?vid=584bc56f-2ca4-4f4d-87e6-87e7f1cda8e9","ios":"levelo://app?vid=584bc56f-2ca4-4f4d-87e6-87e7f1cda8e9"},"vehicle_type_id":"4","last_reported":1719086837,"current_range_meters":14800,"station_id":"","pricing_plan_id":"cebpf4jnsgd1na2vs0mg"},{"bike_id":"b96c5d51-82b0-4b78-bde4-3aaef404bf1b","system_id":"levelo_inurba_marseille","lat":43.309371,"lon":5.401449,"is_reserved":false,"is_disabled":false,"rental_uris":{"android":"levelo://app?vid=b96c5d51-82b0-4b78-bde4-3aaef404bf1b","ios":"levelo://app?vid=b96c5d51-82b0-4b78-bde4-3aaef404bf1b"},"vehicle_type_id":"4","last_reported":1719086837,"current_range_meters":0,"station_id":"ce4bgvp2rcd13ifvqct0","pricing_plan_id":"cebpf4jnsgd1na2vs0mg"},{"bike_id":"0b1b3bd1-331f-4f61-a489-61ae2a7b1949","system_id":"levelo_inurba_marseille","lat":43.309371,"lon":5.401449,"is_reserved":false,"is_disabled":false,"rental_uris":{"android":"levelo://app?vid=0b1b3bd1-331f-4f61-a489-61ae2a7b1949","ios":"levelo://app?vid=0b1b3bd1-331f-4f61-a489-61ae2a7b1949"},"vehicle_type_id":"4","last_reported":1719086837,"current_range_meters":24800,"station_id":"ce4bgvp2rcd13ifvqct0","pricing_plan_id":"cebpf4jnsgd1na2vs0mg"},{"bike_id":"a00c218c-138a-4388-aca4-2952a6961815","system_id":"levelo_inurba_marseille","lat":43.33753,"lon":5.37478,"is_reserved":false,"is_disabled":false,"rental_uris":{"android":"levelo://app?vid=a00c218c-138a-4388-aca4-2952a6961815","ios":"levelo://app?vid=a00c218c-138a-4388-aca4-2952a6961815"},"vehicle_type_id":"4","last_reported":1719086837,"current_range_meters":28000,"station_id":"","pricing_plan_id":"cebpf4jnsgd1na2vs0mg"},{"bike_id":"0e11bbab-a5d9-4098-a6f1-624d89f27c59","system_id":"levelo_inurba_marseille","lat":43.337572,"lon":5.374546,"is_reserved":false,"is_disabled":false,"rental_uris":{"android":"levelo://app?vid=0e11bbab-a5d9-4098-a6f1-624d89f27c59","ios":"levelo://app?vid=0e11bbab-a5d9-4098-a6f1-624d89f27c59"},"vehicle_type_id":"4","last_reported":1719086837,"current_range_meters":23200,"station_id":"","pricing_plan_id":"cebpf4jnsgd1na2vs0mg"},{"bike_id":"db534928-e6a2-47cc-a852-558fe66ed50c","system_id":"levelo_inurba_marseille","lat":43.337583,"lon":5.374633,"is_reserved":false,"is_disabled":false,"rental_uris":{"android":"levelo://app?vid=db534928-e6a2-47cc-a852-558fe66ed50c","ios":"levelo://app?vid=db534928-e6a2-47cc-a852-558fe66ed50c"},"vehicle_type_id":"4","last_reported":1719086837,"current_range_meters":21600,"station_id":"","pricing_plan_id":"cebpf4jnsgd1na2vs0mg"},