{"last_updated":1702660008,"ttl":30,"version":"2.2","data":{"bikes":[{"bike_id":"c3e9f335-cb30-48b1-a84a-eddaeadc6e1d","system_id":"levelo_inurba_marseille","lat":43.309076,"lon":5.368465,"is_reserved":false,"is_disabled":false,"rental_uris":{"android":"levelo://app?vid=c3e9f335-cb30-48b1-a84a-eddaeadc6e1d","ios":"levelo://app?vid=c3e9f335-cb30-48b1-a84a-eddaeadc6e1d"},"vehicle_type_id":"4","last_reported":1702660008,"current_range_meters":17600,"station_id":"ce4bgn92rcd13ifvqbvg","pricing_plan_id":"free"},{"bike_id":"8ea01875-f3a5-4241-8ddd-47ce57abdd49","system_id":"levelo_inurba_marseille","lat":43.309076,"lon":5.368465,"is_reserved":false,"is_disabled":false,"rental_uris":{"android":"levelo://app?vid=8ea01875-f3a5-4241-8ddd-47ce57abdd49","ios":"levelo://app?vid=8ea01875-f3a5-4241-8ddd-47ce57abdd49"},"vehicle_type_id":"4","last_reported":1702660008,"current_range_meters":18800,"station_id":"ce4bgn92rcd13ifvqbvg","pricing_plan_id":"free"},{"bike_id":"d8eceda9-5b4f-41aa-b770-7e16ff3af1de","system_id":"levelo_inurba_marseille","lat":43.314811,"lon":5.373103,"is_reserved":false,"is_disabled":false,"rental_uris":{"android":"levelo://app?vid=d8eceda9-5b4f-41aa-b770-7e16ff3af1de","ios":"levelo://app?vid=d8eceda9-5b4f-41aa-b770-7e16ff3af1de"},"vehicle_type_id":"4","last_reported":1702660008,"current_range_meters":2800,"station_id":"ce4bgt12rcd13ifvqcd0","pricing_plan_id":"free"},{"bike_id":"3f8b821f-e430-4a35-bf14-f8b6e777ea11","system_id":"levelo_inurba_marseille","lat":43.313939,"lon":5.375306,"is_reserved":false,"is_disabled":false,"rental_uris":{"android":"levelo://app?vid=3f8b821f-e430-4a35-bf14-f8b6e777ea11","ios":"levelo://app?vid=3f8b821f-e430-4a35-bf14-f8b6e777ea11"},"vehicle_type_id":"4","last_reported":1702660008,"current_range_meters":0,"station_id":"","pricing_plan_id":"free"},{"bike_id":"e21babcc-edfb-4a0c-8934-c33615b34be0","system_id":"levelo_inurba_marseille","lat":43.305714,"lon":5.365633,"is_reserved":false,"is_disabled":false,"rental_uris":{"android":"levelo://app?vid=e21babcc-edfb-4a0c-8934-c33615b34be0","ios":"levelo://app?vid=e21babcc-edfb-4a0c-8934-c33615b34be0"},"vehicle_type_id":"4","last_reported":1702660008,"current_range_meters":18400,"station_id":"ce4bgs12rcd13ifvqcag","pricing_plan_id":"free"},{"bike_id":"6e384e4d-aa3c-42d2-98bc-676f488ba353","system_id":"levelo_inurba_marseille","lat":43.305368,"lon":5.367343,"is_reserved":false,"is_disabled":false,"rental_uris":{"android":"levelo://app?vid=6e384e4d-aa3c-42d2-98bc-676f488ba353","ios":"levelo://app?vid=6e384e4d-aa3c-42d2-98bc-676f488ba353"},"vehicle_type_id":"4","last_reported":1702660008,"current_range_meters":29600,"station_id":"ce4bgrp2rcd13ifvqc9g","pricing_plan_id":"free"},{"bike_id":"955e4ab2-16e5-44e8-a986-a2f50ff96c06","system_id":"levelo_inurba_marseille","lat":43.305382,"lon":5.365389,"is_reserved":false,"is_disabled":false,"rental_uris":{"android":"levelo://app?vid=955e4ab2-16e5-44e8-a986-a2f50ff96c06","ios":"levelo://app?vid=955e4ab2-16e5-44e8-a986-a2f50ff96c06"},"vehicle_type_id":"4","last_reported":1702660008,"current_range_meters":18800,"station_id":"","pricing_plan_id":"free"},{"bike_id":"fe6da689-dd2b-4cdc-ae67-8b68cc878b05","system_id":"levelo_inurba_marseille","lat":43.305706,"lon":5.365654,"is_reserved":false,"is_disabled":false,"rental_uris":{"android":"levelo://app?vid=fe6da689-dd2b-4cdc-ae67-8b68cc878b05","ios":"levelo://app?vid=fe6da689-dd2b-4cdc-ae67-8b68cc878b05"},"vehicle_type_id":"4","last_reported":1702660008,"current_range_meters":24800,"station_id":"ce4bgs12rcd13ifvqcag","pricing_plan_id":"free"},{"bike_id":"3b0420e4-3371-40cf-8a75-c202b1098912","system_id":"levelo_inurba_marseille","lat":43.305989,"lon":5.37225,"is_reserved":false,"is_disabled":false,"rental_uris":{"android":"levelo://app?vid=3b0420e4-3371-40cf-8a75-c202b1098912","ios":"levelo://app?vid=3b0420e4-3371-40cf-8a75-c202b1098912"},"vehicle_type_id":"4","last_reported":1702660008,"current_range_meters":26400,"station_id":"ce4bgqh2rcd13ifvqc4g","pricing_plan_id":"free"},{"bike_id":"fafe79d7-9311-472f-9bf4-f48c54b4d8bf","system_id":"levelo_inurba_marseille","lat":43.305989,"lon":5.37225,"is_reserved":false,"is_disabled":false,"rental_uris":{"android":"levelo://app?vid=fafe79d7-9311-472f-9bf4-f48c54b4d8bf","ios":"levelo://app?vid=fafe79d7-9311-472f-9bf4-f48c54b4d8bf"},"vehicle_type_id":"4","last_reported":1702660008,"current_range_meters":25600,"station_id":"ce4bgqh2rcd13ifvqc4g","pricing_plan_id":"free"},{"bike_id":"0c1969d2-5d1a-4bda-bcb2-8adf5bc8c42c","system_id":"levelo_inurba_marseille","lat":43.307945,"lon":5.376487,"is_reserved":false,"is_disabled":false,"rental_uris":{"android":"levelo://app?vid=0c1969d2-5d1a-4bda-bcb2-8adf5bc8c42c","ios":"levelo://app?vid=0c1969d2-5d1a-4bda-bcb2-8adf5bc8c42c"},"vehicle_type_id":"4","last_reported":1702660008,"current_range_meters":30000,"station_id":"ce4bgv92rcd13ifvqcq0","pricing_plan_id":"free"},{"bike_id":"4dc1d170-0b06-4dd4-ab9e-f1bc6833dd7b","system_id":"levelo_inurba_marseille","lat":43.317,"lon":5.377425,"is_reserved":false,"is_disabled":false,"rental_uris":{"android":"levelo://app?vid=4dc1d170-0b06-4dd4-ab9e-f1bc6833dd7b","ios":"levelo://app?vid=4dc1d170-0b06-4dd4-ab9e-f1bc6833dd7b"},"vehicle_type_id":"4","last_reported":1702660008,"current_range_meters":2000,"station_id":"ce4bgth2rcd13ifvqch0","pricing_plan_id":"free"},{"bike_id":"b92ea576-d5b0-4943-ad41-df2b9b8cdbcf","system_id":"levelo_inurba_marseille","lat":43.317075,"lon":5.377367,"is_reserved":false,"is_disabled":false,"rental_uris":{"android":"levelo://app?vid=b92ea576-d5b0-4943-ad41-df2b9b8cdbcf","ios":"levelo://app?vid=b92ea576-d5b0-4943-ad41-df2b9b8cdbcf"},"vehicle_type_id":"4","last_reported":1702660008,"current_range_meters":31200,"station_id":"ce4bgth2rcd13ifvqch0","pricing_plan_id":"free"},{"bike_id":"112889bc-8d0f-431d-9767-314715ea602b","system_id":"levelo_inurba_marseille","lat":43.31554,"lon":5.38027,"is_reserved":false,"is_disabled":false,"rental_uris":{"android":"levelo://app?vid=112889bc-8d0f-431d-9767-314715ea602b","ios":"levelo://app?vid=112889bc-8d0f-431d-9767-314715ea602b"},"vehicle_type_id":"4","last_reported":1702660008,"current_range_meters":19600,"station_id":"ce4bhsp2rcd13ifvqi50","pricing_plan_id":"free"},{"bike_id":"88f7ea2a-62f7-4a88-9e9d-900940b4d7e5","system_id":"levelo_inurba_marseille","lat":43.324771,"lon":5.36557,"is_reserved":false,"is_disabled":false,"rental_uris":{"android":"levelo://app?vid=88f7ea2a-62f7-4a88-9e9d-900940b4d7e5","ios":"levelo://app?vid=88f7ea2a-62f7-4a88-9e9d-900940b4d7e5"},"vehicle_type_id":"4","last_reported":1702660008,"current_range_meters":20000,"station_id":"ce4bhs12rcd13ifvqhvg","pricing_plan_id":"free"},{"bike_id":"46517c49-8cc1-4945-a236-859171f54c11","system_id":"levelo_inurba_marseille","lat":43.302784,"lon":5.377158,"is_reserved":false,"is_disabled":false,"rental_uris":{"android":"levelo://app?vid=46517c49-8cc1-4945-a236-859171f54c11","ios":"levelo://app?vid=46517c49-8cc1-4945-a236-859171f54c11"},"vehicle_type_id":"4","last_reported":1702660008,"current_range_meters":10000,"station_id":"ce4bguh2rcd13ifvqcj0","pricing_plan_id":"free"},{"bike_id":"cd0bd15a-afe2-4904-aa5a-c2c2f34df5de","system_id":"levelo_inurba_marseille","lat":43.302784,"lon":5.377158,"is_reserved":false,"is_disabled":false,"rental_uris":{"android":"levelo://app?vid=cd0bd15a-afe2-4904-aa5a-c2c2f34df5de","ios":"levelo://app?vid=cd0bd15a-afe2-4904-aa5a-c2c2f34df5de"},"vehicle_type_id":"4","last_reported":1702660008,"current_range_meters":0,"station_id":"ce4bguh2rcd13ifvqcj0","pricing_plan_id":"free"},{"bike_id":"d727eaf9-f63c-4cba-b689-ba048885d00c","system_id":"levelo_inurba_marseille","lat":43.30143,"lon":5.37413,"is_reserved":false,"is_disabled":false,"rental_uris":{"android":"levelo://app?vid=d727eaf9-f63c-4cba-b689-ba048885d00c","ios":"levelo://app?vid=d727eaf9-f63c-4cba-b689-ba048885d00c"},"vehicle_type_id":"4","last_reported":1702660008,"current_range_meters":23600,"station_id":"ce4bgs92rcd13ifvqcc0","pricing_plan_id":"free"},{"bike_id":"7fd40965-65ed-4127-ab75-0a982225b29e","system_id":"levelo_inurba_marseille","lat":43.3014,"lon":5.37415,"is_reserved":false,"is_disabled":false,"rental_uris":{"android":"levelo://app?vid=7fd40965-65ed-4127-ab75-0a982225b29e","ios":"levelo://app?vid=7fd40965-65ed-4127-ab75-0a982225b29e"},"vehicle_type_id":"4","last_reported":1702660008,"current_range_meters":0,"station_id":"ce4bgs92rcd13ifvqcc0","pricing_plan_id":"free"},{"bike_id":"71db69c0-c8c2-46a7-a4aa-df88a2e9400e","system_id":"levelo_inurba_marseille","lat":43.30143,"lon":5.37413,"is_reserved":false,"is_disabled":false,"rental_uris":{"android":"levelo://app?vid=71db69c0-c8c2-46a7-a4aa-df88a2e9400e","ios":"levelo://app?vid=71db69c0-c8c2-46a7-a4aa-df88a2e9400e"},"vehicle_type_id":"4","last_reported":1702660008,"current_range_meters":20000,"station_id":"ce4bgs92rcd13ifvqcc0","pricing_plan_id":"free"},{"bike_id":"56a6c11d-625f-4631-99f9-5e50e25455ac","system_id":"levelo_inurba_marseille","lat":43.313571,"lon":5.384829,"is_reserved":false,"is_disabled":false,"rental_uris":{"android":"levelo://app?vid=56a6c11d-625f-4631-99f9-5e50e25455ac","ios":"levelo://app?vid=56a6c11d-625f-4631-99f9-5e50e25455ac"},"vehicle_type_id":"4","last_reported":1702660008,"current_range_meters":5200,"station_id":"ce4bgt92rcd13ifvqcf0","pricing_plan_id":"free"},{"bike_id":"f1d27d0a-9fe0-4922-95ce-a9f0ddf93ea1","system_id":"levelo_inurba_marseille","lat":43.313571,"lon":5.384829,"is_reserved":false,"is_disabled":false,"rental_uris":{"android":"levelo://app?vid=f1d27d0a-9fe0-4922-95ce-a9f0ddf93ea1","ios":"levelo://app?vid=f1d27d0a-9fe0-4922-95ce-a9f0ddf93ea1"},"vehicle_type_id":"4","last_reported":1702660008,"current_range_meters":18000,"station_id":"ce4bgt92rcd13ifvqcf0","pricing_plan_id":"free"},{"bike_id":"20bb28ed-c4f1-4c9b-b398-6dd770bacc7e","system_id":"levelo_inurba_marseille","lat":43.305364,"lon":5.384119,"is_reserved":false,"is_disabled":false,"rental_uris":{"android":"levelo://app?vid=20bb28ed-c4f1-4c9b-b398-6dd770bacc7e","ios":"levelo://app?vid=20bb28ed-c4f1-4c9b-b398-6dd770bacc7e"},"vehicle_type_id":"4","last_reported":1702660008,"current_range_meters":9600,"station_id":"ce4bgg92rcd13ifvqb30","pricing_plan_id":"free"},{"bike_id":"c4e77394-aef9-4077-b745-e99148625344","system_id":"levelo_inurba_marseille","lat":43.32733,"lon":5.36707,"is_reserved":false,"is_disabled":false,"rental_uris":{"android":"levelo://app?vid=c4e77394-aef9-4077-b745-e99148625344","ios":"levelo://app?vid=c4e77394-aef9-4077-b745-e99148625344"},"vehicle_type_id":"4","last_reported":1702660008,"current_range_meters":26000,"station_id":"","pricing_plan_id":"free"},{"bike_id":"e85a18a5-1778-4fd6-93f9-b641e870c561","system_id":"levelo_inurba_marseille","lat":43.322872,"lon":5.382756,"is_reserved":false,"is_disabled":false,"rental_uris":{"android":"levelo://app?vid=e85a18a5-1778-4fd6-93f9-b641e870c561","ios":"levelo://app?vid=e85a18a5-1778-4fd6-93f9-b641e870c561"},"vehicle_type_id":"4","last_reported":1702660008,"current_range_meters":21200,"station_id":"ce4bhr12rcd13ifvqhqg","pricing_plan_id":"free"},{"bike_id":"bb8c9969-4d82-47ff-b7c6-bf27117dcf6b","system_id":"levelo_inurba_marseille","lat":43.297163,"lon":5.365866,"is_reserved":false,"is_disabled":false,"rental_uris":{"android":"levelo://app?vid=bb8c9969-4d82-47ff-b7c6-bf27117dcf6b","ios":"levelo://app?vid=bb8c9969-4d82-47ff-b7c6-bf27117dcf6b"},"vehicle_type_id":"4","last_reported":1702660008,"current_range_meters":1200,"station_id":"ce4bgn12rcd13ifvqbt0","pricing_plan_id":"free"},{"bike_id":"51beeea8-0ce5-405d-870f-fa44d04b6c3a","system_id":"levelo_inurba_marseille","lat":43.2968,"lon":5.37291,"is_reserved":false,"is_disabled":false,"rental_uris":{"android":"levelo://app?vid=51beeea8-0ce5-405d-870f-fa44d04b6c3a","ios":"levelo://app?vid=51beeea8-0ce5-405d-870f-fa44d04b6c3a"},"vehicle_type_id":"4","last_reported":1702660008,"current_range_meters":24800,"station_id":"ce4bgk12rcd13ifvqbj0","pricing_plan_id":"free"},{"bike_id":"722057ff-5b37-4ac3-aa32-d7d9d9d44e89","system_id":"levelo_inurba_marseille","lat":43.296196,"lon":5.371496,"is_reserved":false,"is_disabled":false,"rental_uris":{"android":"levelo://app?vid=722057ff-5b37-4ac3-aa32-d7d9d9d44e89","ios":"levelo://app?vid=722057ff-5b37-4ac3-aa32-d7d9d9d44e89"},"vehicle_type_id":"4","last_reported":1702660008,"current_range_meters":30800,"station_id":"ce4bgnh2rcd13ifvqc0g","pricing_plan_id":"free"},{"bike_id":"75e34609-ed7d-44b8-9b5f-d0d1294bd46a","system_id":"levelo_inurba_marseille","lat":43.299028,"lon":5.381509,"is_reserved":false,"is_disabled":false,"rental_uris":{"android":"levelo://app?vid=75e34609-ed7d-44b8-9b5f-d0d1294bd46a","ios":"levelo://app?vid=75e34609-ed7d-44b8-9b5f-d0d1294bd46a"},"vehicle_type_id":"4","last_reported":1702660008,"current_range_meters":12800,"station_id":"ce4bgj12rcd13ifvqbc0","pricing_plan_id":"free"},{"bike_id":"06e1644a-5a7c-4090-9785-156cdede5601","system_id":"levelo_inurba_marseille","lat":43.296935,"lon":5.376544,"is_reserved":false,"is_disabled":false,"rental_uris":{"android":"levelo://app?vid=06e1644a-5a7c-4090-9785-156cdede5601","ios":"levelo://app?vid=06e1644a-5a7c-4090-9785-156cdede5601"},"vehicle_type_id":"4","last_reported":1702660008,"current_range_meters":9600,"station_id":"ce4bgkh2rcd13ifvqbl0","pricing_plan_id":"free"},{"bike_id":"2d21c9ce-a1d0-4f95-94a3-2306965e167e","system_id":"levelo_inurba_marseille","lat":43.309589,"lon":5.390258,"is_reserved":false,"is_disabled":false,"rental_uris":{"android":"levelo://app?vid=2d21c9ce-a1d0-4f95-94a3-2306965e167e","ios":"levelo://app?vid=2d21c9ce-a1d0-4f95-94a3-2306965e167e"},"vehicle_type_id":"4","last_reported":1702660008,"current_range_meters":14000,"station_id":"ce4bgup2rcd13ifvqco0","pricing_plan_id":"free"},{"bike_id":"4abab835-d721-45bc-a5f2-9f7c99ce9a36","system_id":"levelo_inurba_marseille","lat":43.304274,"lon":5.388873,"is_reserved":false,"is_disabled":false,"rental_uris":{"android":"levelo://app?vid=4abab835-d721-45bc-a5f2-9f7c99ce9a36","ios":"levelo://app?vid=4abab835-d721-45bc-a5f2-9f7c99ce9a36"},"vehicle_type_id":"4","last_reported":1702660008,"current_range_meters":16800,"station_id":"ce4bgk12rcd13ifvqbi0","pricing_plan_id":"free"},{"bike_id":"5f07df62-9d26-448b-b119-b0f24b4af484","system_id":"levelo_inurba_marseille","lat":43.29526,"lon":5.3738,"is_reserved":false,"is_disabled":false,"rental_uris":{"android":"levelo://app?vid=5f07df62-9d26-448b-b119-b0f24b4af484","ios":"levelo://app?vid=5f07df62-9d26-448b-b119-b0f24b4af484"},"vehicle_type_id":"4","last_reported":1702660008,"current_range_meters":15600,"station_id":"","pricing_plan_id":"free"},{"bike_id":"775427c3-d0ae-436f-b79a-1aa922d885a2","system_id":"levelo_inurba_marseille","lat":43.296263,"lon":5.377094,"is_reserved":false,"is_disabled":false,"rental_uris":{"android":"levelo://app?vid=775427c3-d0ae-436f-b79a-1aa922d885a2","ios":"levelo://app?vid=775427c3-d0ae-436f-b79a-1aa922d885a2"},"vehicle_type_id":"4","last_reported":1702660008,"current_range_meters":0,"station_id":"ce4bgi92rcd13ifvqb90","pricing_plan_id":"free"},{"bike_id":"7f497167-8b79-414e-b442-9ca6f30279be","system_id":"levelo_inurba_marseille","lat":43.299707,"lon":5.384859,"is_reserved":false,"is_disabled":false,"rental_uris":{"android":"levelo://app?vid=7f497167-8b79-414e-b442-9ca6f30279be","ios":"levelo://app?vid=7f497167-8b79-414e-b442-9ca6f30279be"},"vehicle_type_id":"4","last_reported":1702660008,"current_range_meters":0,"station_id":"ce4bgj92rcd13ifvqbd0","pricing_plan_id":"free"},{"bike_id":"991fc440-fdac-442e-8229-0253e72fd13a","system_id":"levelo_inurba_marseille","lat":43.299707,"lon":5.384859,"is_reserved":false,"is_disabled":false,"rental_uris":{"android":"levelo://app?vid=991fc440-fdac-442e-8229-0253e72fd13a","ios":"levelo://app?vid=991fc440-fdac-442e-8229-0253e72fd13a"},"vehicle_type_id":"4","last_reported":1702660008,"current_range_meters":0,"station_id":"ce4bgj92rcd13ifvqbd0","pricing_plan_id":"free"},{"bike_id":"a20416a9-0d4c-4185-a373-f08d7cb384bb","system_id":"levelo_inurba_marseille","lat":43.299707,"lon":5.384859,"is_reserved":false,"is_disabled":false,"rental_uris":{"android":"levelo://app?vid=a20416a9-0d4c-4185-a373-f08d7cb384bb","ios":"levelo://app?vid=a20416a9-0d4c-4185-a373-f08d7cb384bb"},"vehicle_type_id":"4","last_reported":1702660008,"current_range_meters":0,"station_id":"ce4bgj92rcd13ifvqbd0","pricing_plan_id":"free"},{"bike_id":"d82f284e-a74b-47a6-9271-b1b293858162","system_id":"levelo_inurba_marseille","lat":43.32368,"lon":5.38889,"is_reserved":false,"is_disabled":false,"rental_uris":{"android":"levelo://app?vid=d82f284e-a74b-47a6-9271-b1b293858162","ios":"levelo://app?vid=d82f284e-a74b-47a6-9271-b1b293858162"},"vehicle_type_id":"4","last_reported":1702660008,"current_range_meters":14400,"station_id":"ce4bhqp2rcd13ifvqhog","pricing_plan_id":"free"},{"bike_id":"40fa86cf-6076-45b5-a80e-bb70331c2e3e","system_id":"levelo_inurba_marseille","lat":43.29601,"lon":5.381084,"is_reserved":false,"is_disabled":false,"rental_uris":{"android":"levelo://app?vid=40fa86cf-6076-45b5-a80e-bb70331c2e3e","ios":"levelo://app?vid=40fa86cf-6076-45b5-a80e-bb70331c2e3e"},"vehicle_type_id":"4","last_reported":1702660008,"current_range_meters":6400,"station_id":"ce4bgl12rcd13ifvqbo0","pricing_plan_id":"free"},{"bike_id":"809f41cc-8cd8-4913-a22e-5c5845bf7c36","system_id":"levelo_inurba_marseille","lat":43.29302,"lon":5.37455,"is_reserved":false,"is_disabled":false,"rental_uris":{"android":"levelo://app?vid=809f41cc-8cd8-4913-a22e-5c5845bf7c36","ios":"levelo://app?vid=809f41cc-8cd8-4913-a22e-5c5845bf7c36"},"vehicle_type_id":"4","last_reported":1702660008,"current_range_meters":18400,"station_id":"ce4bgi12rcd13ifvqb70","pricing_plan_id":"free"},{"bike_id":"c8547e1b-0463-473a-89c0-604ac9b00e1c","system_id":"levelo_inurba_marseille","lat":43.293009,"lon":5.374584,"is_reserved":false,"is_disabled":false,"rental_uris":{"android":"levelo://app?vid=c8547e1b-0463-473a-89c0-604ac9b00e1c","ios":"levelo://app?vid=c8547e1b-0463-473a-89c0-604ac9b00e1c"},"vehicle_type_id":"4","last_reported":1702660008,"current_range_meters":13200,"station_id":"ce4bgi12rcd13ifvqb70","pricing_plan_id":"free"},{"bike_id":"1517d63c-2da1-4da4-80bf-47cb16184fb2","system_id":"levelo_inurba_marseille","lat":43.293009,"lon":5.374584,"is_reserved":false,"is_disabled":false,"rental_uris":{"android":"levelo://app?vid=1517d63c-2da1-4da4-80bf-47cb16184fb2","ios":"levelo://app?vid=1517d63c-2da1-4da4-80bf-47cb16184fb2"},"vehicle_type_id":"4","last_reported":1702660008,"current_range_meters":20400,"station_id":"ce4bgi12rcd13ifvqb70","pricing_plan_id":"free"},{"bike_id":"cf6a9331-f65c-4aae-8943-5746b63ad2f3","system_id":"levelo_inurba_marseille","lat":43.305994,"lon":5.393687,"is_reserved":false,"is_disabled":false,"rental_uris":{"android":"levelo://app?vid=cf6a9331-f65c-4aae-8943-5746b63ad2f3","ios":"levelo://app?vid=cf6a9331-f65c-4aae-8943-5746b63ad2f3"},"vehicle_type_id":"4","last_reported":1702660008,"current_range_meters":800,"station_id":"ce4bh0p2rcd13ifvqd80","pricing_plan_id":"free"},{"bike_id":"93ddb065-a271-41e8-9d16-a49af23b2332","system_id":"levelo_inurba_marseille","lat":43.305994,"lon":5.393687,"is_reserved":false,"is_disabled":false,"rental_uris":{"android":"levelo://app?vid=93ddb065-a271-41e8-9d16-a49af23b2332","ios":"levelo://app?vid=93ddb065-a271-41e8-9d16-a49af23b2332"},"vehicle_type_id":"4","last_reported":1702660008,"current_range_meters":10800,"station_id":"ce4bh0p2rcd13ifvqd80","pricing_plan_id":"free"},{"bike_id":"4bb03bf7-ac34-474b-b9ba-4ae816dd6d9c","system_id":"levelo_inurba_marseille","lat":43.30085,"lon":5.390856,"is_reserved":false,"is_disabled":false,"rental_uris":{"android":"levelo://app?vid=4bb03bf7-ac34-474b-b9ba-4ae816dd6d9c","ios":"levelo://app?vid=4bb03bf7-ac34-474b-b9ba-4ae816dd6d9c"},"vehicle_type_id":"4","last_reported":1702660008,"current_range_meters":9600,"station_id":"ce4bh192rcd13ifvqdb0","pricing_plan_id":"free"},{"bike_id":"39d6c08d-e7d7-4228-8242-4754a63f0070","system_id":"levelo_inurba_marseille","lat":43.30085,"lon":5.390856,"is_reserved":false,"is_disabled":false,"rental_uris":{"android":"levelo://app?vid=39d6c08d-e7d7-4228-8242-4754a63f0070","ios":"levelo://app?vid=39d6c08d-e7d7-4228-8242-4754a63f0070"},"vehicle_type_id":"4","last_reported":1702660008,"current_range_meters":0,"station_id":"ce4bh192rcd13ifvqdb0","pricing_plan_id":"free"},{"bike_id":"0bdd3e7d-130b-4170-b8e6-fde20c12d434","system_id":"levelo_inurba_marseille","lat":43.29266,"lon":5.3763,"is_reserved":false,"is_disabled":false,"rental_uris":{"android":"levelo://app?vid=0bdd3e7d-130b-4170-b8e6-fde20c12d434","ios":"levelo://app?vid=0bdd3e7d-130b-4170-b8e6-fde20c12d434"},"vehicle_type_id":"4","last_reported":1702660008,"current_range_meters":10400,"station_id":"","pricing_plan_id":"free"},{"bike_id":"4760300f-a1ac-45fd-ae07-c342ef7b3f37","system_id":"levelo_inurba_marseille","lat":43.29871,"lon":5.38908,"is_reserved":false,"is_disabled":false,"rental_uris":{"android":"levelo://app?vid=4760300f-a1ac-45fd-ae07-c342ef7b3f37","ios":"levelo://app?vid=4760300f-a1ac-45fd-ae07-c342ef7b3f37"},"vehicle_type_id":"4","last_reported":1702660008,"current_range_meters":19200,"station_id":"","pricing_plan_id":"free"},{"bike_id":"cefa2ff1-3dd1-4d07-acca-0a4e3051a600","system_id":"levelo_inurba_marseille","lat":43.29868,"lon":5.38909,"is_reserved":false,"is_disabled":false,"rental_uris":{"android":"levelo://app?vid=cefa2ff1-3dd1-4d07-acca-0a4e3051a600","ios":"levelo://app?vid=cefa2ff1-3dd1-4d07-acca-0a4e3051a600"},"vehicle_type_id":"4","last_reported":1702660008,"current_range_meters":18000,"station_id":"","pricing_plan_id":"free"},{"bike_id":"833a4f9a-5716-4681-9fbb-f52cbfe7fac5","system_id":"levelo_inurba_marseille","lat":43.29601,"lon":5.381084,"is_reserved":false,"is_disabled":false,"rental_uris":{"android":"levelo://app?vid=833a4f9a-5716-4681-9fbb-f52cbfe7fac5","ios":"levelo://app?vid=833a4f9a-5716-4681-9fbb-f52cbfe7fac5"},"vehicle_type_id":"4","last_reported":1702660008,"current_range_meters":20000,"station_id":"ce4bgl12rcd13ifvqbo0","pricing_plan_id":"free"},{"bike_id":"889bfd42-2eb6-4d7d-aa56-180945131452","system_id":"levelo_inurba_marseille","lat":43.29529,"lon":5.385581,"is_reserved":false,"is_disabled":false,"rental_uris":{"android":"levelo://app?vid=889bfd42-2eb6-4d7d-aa56-180945131452","ios":"levelo://app?vid=889bfd42-2eb6-4d7d-aa56-180945131452"},"vehicle_type_id":"4","last_reported":1702660008,"current_range_meters":13600,"station_id":"ce4bgih2rcd13ifvqba0","pricing_plan_id":"free"},{"bike_id":"5c4e82dd-7d44-44dc-8fa0-7a536dfda9d2","system_id":"levelo_inurba_marseille","lat":43.29573,"lon":5.367355,"is_reserved":false,"is_disabled":false,"rental_uris":{"android":"levelo://app?vid=5c4e82dd-7d44-44dc-8fa0-7a536dfda9d2","ios":"levelo://app?vid=5c4e82dd-7d44-44dc-8fa0-7a536dfda9d2"},"vehicle_type_id":"4","last_reported":1702660008,"current_range_meters":800,"station_id":"ce4bgph2rcd13ifvqc2g","pricing_plan_id":"free"},{"bike_id":"f48d44f7-7eb3-4998-a1c4-ecec5f2326a3","system_id":"levelo_inurba_marseille","lat":43.302008,"lon":5.394694,"is_reserved":false,"is_disabled":false,"rental_uris":{"android":"levelo://app?vid=f48d44f7-7eb3-4998-a1c4-ecec5f2326a3","ios":"levelo://app?vid=f48d44f7-7eb3-4998-a1c4-ecec5f2326a3"},"vehicle_type_id":"4","last_reported":1702660008,"current_range_meters":14400,"station_id":"ce4bh0p2rcd13ifvqd70","pricing_plan_id":"free"},{"bike_id":"63d1c1ff-3e37-44b2-8b06-e21b9b957f47","system_id":"levelo_inurba_marseille","lat":43.302008,"lon":5.394694,"is_reserved":false,"is_disabled":false,"rental_uris":{"android":"levelo://app?vid=63d1c1ff-3e37-44b2-8b06-e21b9b957f47","ios":"levelo://app?vid=63d1c1ff-3e37-44b2-8b06-e21b9b957f47"},"vehicle_type_id":"4","last_reported":1702660008,"current_range_meters":26000,"station_id":"ce4bh0p2rcd13ifvqd70","pricing_plan_id":"free"},{"bike_id":"920261d2-2a57-41e7-9265-5d472d7e7513","system_id":"levelo_inurba_marseille","lat":43.294153,"lon":5.386305,"is_reserved":false,"is_disabled":false,"rental_uris":{"android":"levelo://app?vid=920261d2-2a57-41e7-9265-5d472d7e7513","ios":"levelo://app?vid=920261d2-2a57-41e7-9265-5d472d7e7513"},"vehicle_type_id":"4","last_reported":1702660008,"current_range_meters":6000,"station_id":"ce4bh2h2rcd13ifvqdh0","pricing_plan_id":"free"},{"bike_id":"259066b3-9312-4bf7-804e-1597df0b85f7","system_id":"levelo_inurba_marseille","lat":43.289184,"lon":5.366408,"is_reserved":false,"is_disabled":false,"rental_uris":{"android":"levelo://app?vid=259066b3-9312-4bf7-804e-1597df0b85f7","ios":"levelo://app?vid=259066b3-9312-4bf7-804e-1597df0b85f7"},"vehicle_type_id":"4","last_reported":1702660008,"current_range_meters":1600,"station_id":"ce4bhap2rcd13ifvqek0","pricing_plan_id":"free"},{"bike_id":"ba7439f1-4465-4976-97b1-09bf7ce20723","system_id":"levelo_inurba_marseille","lat":43.304274,"lon":5.397513,"is_reserved":false,"is_disabled":false,"rental_uris":{"android":"levelo://app?vid=ba7439f1-4465-4976-97b1-09bf7ce20723","ios":"levelo://app?vid=ba7439f1-4465-4976-97b1-09bf7ce20723"},"vehicle_type_id":"4","last_reported":1702660008,"current_range_meters":0,"station_id":"ce4bh092rcd13ifvqd20","pricing_plan_id":"free"},{"bike_id":"7dfe0961-92bc-46a5-80f7-c79bd846848c","system_id":"levelo_inurba_marseille","lat":43.292644,"lon":5.384257,"is_reserved":false,"is_disabled":false,"rental_uris":{"android":"levelo://app?vid=7dfe0961-92bc-46a5-80f7-c79bd846848c","ios":"levelo://app?vid=7dfe0961-92bc-46a5-80f7-c79bd846848c"},"vehicle_type_id":"4","last_reported":1702660008,"current_range_meters":17600,"station_id":"ce4bh692rcd13ifvqea0","pricing_plan_id":"free"},{"bike_id":"60991f1e-ead4-4375-b89e-62c690ed812b","system_id":"levelo_inurba_marseille","lat":43.292644,"lon":5.384257,"is_reserved":false,"is_disabled":false,"rental_uris":{"android":"levelo://app?vid=60991f1e-ead4-4375-b89e-62c690ed812b","ios":"levelo://app?vid=60991f1e-ead4-4375-b89e-62c690ed812b"},"vehicle_type_id":"4","last_reported":1702660008,"current_range_meters":6400,"station_id":"ce4bh692rcd13ifvqea0","pricing_plan_id":"free"},{"bike_id":"f2c160a8-4c8e-4357-a555-9fdd0cb55b4f","system_id":"levelo_inurba_marseille","lat":43.3304,"lon":5.38926,"is_reserved":false,"is_disabled":false,"rental_uris":{"android":"levelo://app?vid=f2c160a8-4c8e-4357-a555-9fdd0cb55b4f","ios":"levelo://app?vid=f2c160a8-4c8e-4357-a555-9fdd0cb55b4f"},"vehicle_type_id":"4","last_reported":1702660008,"current_range_meters":20000,"station_id":"ce4bhr92rcd13ifvqhrg","pricing_plan_id":"free"},{"bike_id":"b529858f-e842-4d2d-ad08-9c530f4633ea","system_id":"levelo_inurba_marseille","lat":43.290103,"lon":5.356114,"is_reserved":false,"is_disabled":false,"rental_uris":{"android":"levelo://app?vid=b529858f-e842-4d2d-ad08-9c530f4633ea","ios":"levelo://app?vid=b529858f-e842-4d2d-ad08-9c530f4633ea"},"vehicle_type_id":"4","last_reported":1702660008,"current_range_meters":23600,"station_id":"ce4bhb92rcd13ifvqen0","pricing_plan_id":"free"},{"bike_id":"735ace55-f4d3-424e-a893-676a0ed9caa9","system_id":"levelo_inurba_marseille","lat":43.33043,"lon":5.38923,"is_reserved":false,"is_disabled":false,"rental_uris":{"android":"levelo://app?vid=735ace55-f4d3-424e-a893-676a0ed9caa9","ios":"levelo://app?vid=735ace55-f4d3-424e-a893-676a0ed9caa9"},"vehicle_type_id":"4","last_reported":1702660008,"current_range_meters":23600,"station_id":"ce4bhr92rcd13ifvqhrg","pricing_plan_id":"free"},{"bike_id":"a3d91f58-c1da-4402-94d9-3b6a25030a94","system_id":"levelo_inurba_marseille","lat":43.289741,"lon":5.378306,"is_reserved":false,"is_disabled":false,"rental_uris":{"android":"levelo://app?vid=a3d91f58-c1da-4402-94d9-3b6a25030a94","ios":"levelo://app?vid=a3d91f58-c1da-4402-94d9-3b6a25030a94"},"vehicle_type_id":"4","last_reported":1702660008,"current_range_meters":30000,"station_id":"ce4bh9p2rcd13ifvqed0","pricing_plan_id":"free"},{"bike_id":"dd9a1ec7-941a-4ef2-9ed9-b4343fe5c8d5","system_id":"levelo_inurba_marseille","lat":43.295169,"lon":5.390426,"is_reserved":false,"is_disabled":false,"rental_uris":{"android":"levelo://app?vid=dd9a1ec7-941a-4ef2-9ed9-b4343fe5c8d5","ios":"levelo://app?vid=dd9a1ec7-941a-4ef2-9ed9-b4343fe5c8d5"},"vehicle_type_id":"4","last_reported":1702660008,"current_range_meters":800,"station_id":"ce4bh3p2rcd13ifvqdp0","pricing_plan_id":"free"},{"bike_id":"5320020a-4b4a-4c34-94d2-f6bb4071c822","system_id":"levelo_inurba_marseille","lat":43.289741,"lon":5.378306,"is_reserved":false,"is_disabled":false,"rental_uris":{"android":"levelo://app?vid=5320020a-4b4a-4c34-94d2-f6bb4071c822","ios":"levelo://app?vid=5320020a-4b4a-4c34-94d2-f6bb4071c822"},"vehicle_type_id":"4","last_reported":1702660008,"current_range_meters":22400,"station_id":"ce4bh9p2rcd13ifvqed0","pricing_plan_id":"free"},{"bike_id":"271cdce5-60a1-448a-aa87-a666b78ab556","system_id":"levelo_inurba_marseille","lat":43.28856,"lon":5.358371,"is_reserved":false,"is_disabled":false,"rental_uris":{"android":"levelo://app?vid=271cdce5-60a1-448a-aa87-a666b78ab556","ios":"levelo://app?vid=271cdce5-60a1-448a-aa87-a666b78ab556"},"vehicle_type_id":"4","last_reported":1702660008,"current_range_meters":0,"station_id":"ce4bhb12rcd13ifvqem0","pricing_plan_id":"free"},{"bike_id":"f0cd831c-cfb9-44c7-9487-103b6df223ca","system_id":"levelo_inurba_marseille","lat":43.3374,"lon":5.374623,"is_reserved":false,"is_disabled":false,"rental_uris":{"android":"levelo://app?vid=f0cd831c-cfb9-44c7-9487-103b6df223ca","ios":"levelo://app?vid=f0cd831c-cfb9-44c7-9487-103b6df223ca"},"vehicle_type_id":"4","last_reported":1702660008,"current_range_meters":29600,"station_id":"","pricing_plan_id":"free"},{"bike_id":"a15a6f31-d26a-498f-aab0-fad2629bd007","system_id":"levelo_inurba_marseille","lat":43.337535,"lon":5.37446,"is_reserved":false,"is_disabled":false,"rental_uris":{"android":"levelo://app?vid=a15a6f31-d26a-498f-aab0-fad2629bd007","ios":"levelo://app?vid=a15a6f31-d26a-498f-aab0-fad2629bd007"},"vehicle_type_id":"4","last_reported":1702660008,"current_range_meters":2000,"station_id":"","pricing_plan_id":"free"},{"bike_id":"9fa3b58e-388c-4955-b6b9-c1473d2d42be","system_id":"levelo_inurba_marseille","lat":43.31275,"lon":5.40183,"is_reserved":false,"is_disabled":false,"rental_uris":{"android":"levelo://app?vid=9fa3b58e-388c-4955-b6b9-c1473d2d42be","ios":"levelo://app?vid=9fa3b58e-388c-4955-b6b9-c1473d2d42be"},"vehicle_type_id":"4","last_reported":1702660008,"current_range_meters":0,"station_id":"ce4bh092rcd13ifvqd30","pricing_plan_id":"free"},{"bike_id":"930bba3a-4350-44cf-bb9b-310a6cbdb5ef","system_id":"levelo_inurba_marseille","lat":43.337599,"lon":5.374541,"is_reserved":false,"is_disabled":false,"rental_uris":{"android":"levelo://app?vid=930bba3a-4350-44cf-bb9b-310a6cbdb5ef","ios":"levelo://app?vid=930bba3a-4350-44cf-bb9b-310a6cbdb5ef"},"vehicle_type_id":"4","last_reported":1702660008,"current_range_meters":28000,"station_id":"","pricing_plan_id":"free"},{"bike_id":"1b1bd80c-92ec-4f8e-8e80-a125315f4b22","system_id":"levelo_inurba_marseille","lat":43.337675,"lon":5.37436,"is_reserved":false,"is_disabled":false,"rental_uris":{"android":"levelo://app?vid=1b1bd80c-92ec-4f8e-8e80-a125315f4b22","ios":"levelo://app?vid=1b1bd80c-92ec-4f8e-8e80-a125315f4b22"},"vehicle_type_id":"4","last_reported":1702660008,"current_range_meters":18400,"station_id":"","pricing_plan_id":"free"},{"bike_id":"cb55828c-d9f7-429e-9171-eec84b8cc7fa","system_id":"levelo_inurba_marseille","lat":43.301117,"lon":5.398795,"is_reserved":false,"is_disabled":false,"rental_uris":{"android":"levelo://app?vid=cb55828c-d9f7-429e-9171-eec84b8cc7fa","ios":"levelo://app?vid=cb55828c-d9f7-429e-9171-eec84b8cc7fa"},"vehicle_type_id":"4","last_reported":1702660008,"current_range_meters":12000,"station_id":"ce4bh0h2rcd13ifvqd40","pricing_plan_id":"free"},{"bike_id":"f5746d85-cf56-4253-b477-7ac4aa92abc1","system_id":"levelo_inurba_marseille","lat":43.301117,"lon":5.398795,"is_reserved":false,"is_disabled":false,"rental_uris":{"android":"levelo://app?vid=f5746d85-cf56-4253-b477-7ac4aa92abc1","ios":"levelo://app?vid=f5746d85-cf56-4253-b477-7ac4aa92abc1"},"vehicle_type_id":"4","last_reported":1702660008,"current_range_meters":4800,"station_id":"ce4bh0h2rcd13ifvqd40","pricing_plan_id":"free"},{"bike_id":"ab96e522-3ff5-4cab-815e-16904ed58019","system_id":"levelo_inurba_marseille","lat":43.301117,"lon":5.398795,"is_reserved":false,"is_disabled":false,"rental_uris":{"android":"levelo://app?vid=ab96e522-3ff5-4cab-815e-16904ed58019","ios":"levelo://app?vid=ab96e522-3ff5-4cab-815e-16904ed58019"},"vehicle_type_id":"4","last_reported":1702660008,"current_range_meters":18800,"station_id":"ce4bh0h2rcd13ifvqd40","pricing_plan_id":"free"},{"bike_id":"f8ef69a8-a0e2-4fc2-b20f-8581b3a6c2ef","system_id":"levelo_inurba_marseille","lat":43.286593,"lon":5.363346,"is_reserved":false,"is_disabled":false,"rental_uris":{"android":"levelo://app?vid=f8ef69a8-a0e2-4fc2-b20f-8581b3a6c2ef","ios":"levelo://app?vid=f8ef69a8-a0e2-4fc2-b20f-8581b3a6c2ef"},"vehicle_type_id":"4","last_reported":1702660008,"current_range_meters":27600,"station_id":"ce4bhah2rcd13ifvqej0","pricing_plan_id":"free"},{"bike_id":"2510509a-28f0-4a9e-8a94-ddb037a18a4a","system_id":"levelo_inurba_marseille","lat":43.298681,"lon":5.397225,"is_reserved":false,"is_disabled":false,"rental_uris":{"android":"levelo://app?vid=2510509a-28f0-4a9e-8a94-ddb037a18a4a","ios":"levelo://app?vid=2510509a-28f0-4a9e-8a94-ddb037a18a4a"},"vehicle_type_id":"4","last_reported":1702660008,"current_range_meters":24000,"station_id":"ce4bh0h2rcd13ifvqd50","pricing_plan_id":"free"},{"bike_id":"1a507f1d-121a-4f1d-8c9e-5f88871a5072","system_id":"levelo_inurba_marseille","lat":43.286961,"lon":5.373785,"is_reserved":false,"is_disabled":false,"rental_uris":{"android":"levelo://app?vid=1a507f1d-121a-4f1d-8c9e-5f88871a5072","ios":"levelo://app?vid=1a507f1d-121a-4f1d-8c9e-5f88871a5072"},"vehicle_type_id":"4","last_reported":1702660008,"current_range_meters":23600,"station_id":"ce4bh3p2rcd13ifvqdq0","pricing_plan_id":"free"},{"bike_id":"a35a47f2-0953-4257-b4e5-5aaff1fec589","system_id":"levelo_inurba_marseille","lat":43.295196,"lon":5.39397,"is_reserved":false,"is_disabled":false,"rental_uris":{"android":"levelo://app?vid=a35a47f2-0953-4257-b4e5-5aaff1fec589","ios":"levelo://app?vid=a35a47f2-0953-4257-b4e5-5aaff1fec589"},"vehicle_type_id":"4","last_reported":1702660008,"current_range_meters":14800,"station_id":"ce4bh292rcd13ifvqdf0","pricing_plan_id":"free"},{"bike_id":"252d6cf7-dba1-4c4b-9879-48163e57a83e","system_id":"levelo_inurba_marseille","lat":43.302759,"lon":5.400793,"is_reserved":false,"is_disabled":false,"rental_uris":{"android":"levelo://app?vid=252d6cf7-dba1-4c4b-9879-48163e57a83e","ios":"levelo://app?vid=252d6cf7-dba1-4c4b-9879-48163e57a83e"},"vehicle_type_id":"4","last_reported":1702660008,"current_range_meters":9200,"station_id":"ce4bgvh2rcd13ifvqcs0","pricing_plan_id":"free"},{"bike_id":"f79aee0f-deb9-41c4-88ea-7f05ac30308f","system_id":"levelo_inurba_marseille","lat":43.289307,"lon":5.38406,"is_reserved":false,"is_disabled":false,"rental_uris":{"android":"levelo://app?vid=f79aee0f-deb9-41c4-88ea-7f05ac30308f","ios":"levelo://app?vid=f79aee0f-deb9-41c4-88ea-7f05ac30308f"},"vehicle_type_id":"4","last_reported":1702660008,"current_range_meters":4800,"station_id":"ce4bh612rcd13ifvqe6g","pricing_plan_id":"free"},{"bike_id":"e09bd795-85af-4fc5-8a1d-997dacf975fa","system_id":"levelo_inurba_marseille","lat":43.302759,"lon":5.400793,"is_reserved":false,"is_disabled":false,"rental_uris":{"android":"levelo://app?vid=e09bd795-85af-4fc5-8a1d-997dacf975fa","ios":"levelo://app?vid=e09bd795-85af-4fc5-8a1d-997dacf975fa"},"vehicle_type_id":"4","last_reported":1702660008,"current_range_meters":2800,"station_id":"ce4bgvh2rcd13ifvqcs0","pricing_plan_id":"free"},{"bike_id":"56efa424-d0dd-4b5e-9064-54b78d86fd64","system_id":"levelo_inurba_marseille","lat":43.302759,"lon":5.400793,"is_reserved":false,"is_disabled":false,"rental_uris":{"android":"levelo://app?vid=56efa424-d0dd-4b5e-9064-54b78d86fd64","ios":"levelo://app?vid=56efa424-d0dd-4b5e-9064-54b78d86fd64"},"vehicle_type_id":"4","last_reported":1702660008,"current_range_meters":23200,"station_id":"ce4bgvh2rcd13ifvqcs0","pricing_plan_id":"free"},{"bike_id":"cffe57f8-e2bf-4029-a5ca-eac7569e060d","system_id":"levelo_inurba_marseille","lat":43.286039,"lon":5.370679,"is_reserved":false,"is_disabled":false,"rental_uris":{"android":"levelo://app?vid=cffe57f8-e2bf-4029-a5ca-eac7569e060d","ios":"levelo://app?vid=cffe57f8-e2bf-4029-a5ca-eac7569e060d"},"vehicle_type_id":"4","last_reported":1702660008,"current_range_meters":30000,"station_id":"ce4bht12rcd13ifvqi60","pricing_plan_id":"free"},{"bike_id":"9e2ef12a-5d51-4ed0-b882-b58076ab3b31","system_id":"levelo_inurba_marseille","lat":43.286039,"lon":5.370679,"is_reserved":false,"is_disabled":false,"rental_uris":{"android":"levelo://app?vid=9e2ef12a-5d51-4ed0-b882-b58076ab3b31","ios":"levelo://app?vid=9e2ef12a-5d51-4ed0-b882-b58076ab3b31"},"vehicle_type_id":"4","last_reported":1702660008,"current_range_meters":22400,"station_id":"ce4bht12rcd13ifvqi60","pricing_plan_id":"free"},{"bike_id":"9d063255-3e62-4a2e-9259-1dabf662f9a9","system_id":"levelo_inurba_marseille","lat":43.287184,"lon":5.37937,"is_reserved":false,"is_disabled":false,"rental_uris":{"android":"levelo://app?vid=9d063255-3e62-4a2e-9259-1dabf662f9a9","ios":"levelo://app?vid=9d063255-3e62-4a2e-9259-1dabf662f9a9"},"vehicle_type_id":"4","last_reported":1702660008,"current_range_meters":0,"station_id":"ce4bh9p2rcd13ifvqec0","pricing_plan_id":"free"},{"bike_id":"ceabe6fd-8dc9-49e5-9d79-e8db470e5d5a","system_id":"levelo_inurba_marseille","lat":43.287185,"lon":5.379373,"is_reserved":false,"is_disabled":false,"rental_uris":{"android":"levelo://app?vid=ceabe6fd-8dc9-49e5-9d79-e8db470e5d5a","ios":"levelo://app?vid=ceabe6fd-8dc9-49e5-9d79-e8db470e5d5a"},"vehicle_type_id":"4","last_reported":1702660008,"current_range_meters":21600,"station_id":"ce4bh9p2rcd13ifvqec0","pricing_plan_id":"free"},{"bike_id":"5db69c84-4f23-4782-9de9-d2d734a8ff6a","system_id":"levelo_inurba_marseille","lat":43.291994,"lon":5.392907,"is_reserved":false,"is_disabled":false,"rental_uris":{"android":"levelo://app?vid=5db69c84-4f23-4782-9de9-d2d734a8ff6a","ios":"levelo://app?vid=5db69c84-4f23-4782-9de9-d2d734a8ff6a"},"vehicle_type_id":"4","last_reported":1702660008,"current_range_meters":13200,"station_id":"ce4bh192rcd13ifvqdd0","pricing_plan_id":"free"},{"bike_id":"19b3a2b6-b807-4502-926b-f822c05fcb89","system_id":"levelo_inurba_marseille","lat":43.284538,"lon":5.358657,"is_reserved":false,"is_disabled":false,"rental_uris":{"android":"levelo://app?vid=19b3a2b6-b807-4502-926b-f822c05fcb89","ios":"levelo://app?vid=19b3a2b6-b807-4502-926b-f822c05fcb89"},"vehicle_type_id":"4","last_reported":1702660008,"current_range_meters":800,"station_id":"ce4bhah2rcd13ifvqei0","pricing_plan_id":"free"},{"bike_id":"c27c6b08-a380-40cc-858b-1bf6fc972fdd","system_id":"levelo_inurba_marseille","lat":43.28452,"lon":5.35891,"is_reserved":false,"is_disabled":false,"rental_uris":{"android":"levelo://app?vid=c27c6b08-a380-40cc-858b-1bf6fc972fdd","ios":"levelo://app?vid=c27c6b08-a380-40cc-858b-1bf6fc972fdd"},"vehicle_type_id":"4","last_reported":1702660008,"current_range_meters":20400,"station_id":"","pricing_plan_id":"free"},{"bike_id":"09708d1a-c48b-488d-96bb-b8bb734ab2e9","system_id":"levelo_inurba_marseille","lat":43.2862,"lon":5.35105,"is_reserved":false,"is_disabled":false,"rental_uris":{"android":"levelo://app?vid=09708d1a-c48b-488d-96bb-b8bb734ab2e9","ios":"levelo://app?vid=09708d1a-c48b-488d-96bb-b8bb734ab2e9"},"vehicle_type_id":"4","last_reported":1702660008,"current_range_meters":12800,"station_id":"ce4bhch2rcd13ifvqeug","pricing_plan_id":"free"},{"bike_id":"a0b0e314-f5cd-4f40-bc2f-bc0276d1b958","system_id":"levelo_inurba_marseille","lat":43.283998,"lon":5.375062,"is_reserved":false,"is_disabled":false,"rental_uris":{"android":"levelo://app?vid=a0b0e314-f5cd-4f40-bc2f-bc0276d1b958","ios":"levelo://app?vid=a0b0e314-f5cd-4f40-bc2f-bc0276d1b958"},"vehicle_type_id":"4","last_reported":1702660008,"current_range_meters":14000,"station_id":"ce4bh412rcd13ifvqds0","pricing_plan_id":"free"},{"bike_id":"a2ffb3af-69fc-4847-b1de-1d3cf0c58532","system_id":"levelo_inurba_marseille","lat":43.28412,"lon":5.37523,"is_reserved":false,"is_disabled":false,"rental_uris":{"android":"levelo://app?vid=a2ffb3af-69fc-4847-b1de-1d3cf0c58532","ios":"levelo://app?vid=a2ffb3af-69fc-4847-b1de-1d3cf0c58532"},"vehicle_type_id":"4","last_reported":1702660008,"current_range_meters":8000,"station_id":"ce4bh412rcd13ifvqds0","pricing_plan_id":"free"},{"bike_id":"54e7d73f-58fc-46b1-a2a8-c4be9c2402da","system_id":"levelo_inurba_marseille","lat":43.283998,"lon":5.375062,"is_reserved":false,"is_disabled":false,"rental_uris":{"android":"levelo://app?vid=54e7d73f-58fc-46b1-a2a8-c4be9c2402da","ios":"levelo://app?vid=54e7d73f-58fc-46b1-a2a8-c4be9c2402da"},"vehicle_type_id":"4","last_reported":1702660008,"current_range_meters":3200,"station_id":"ce4bh412rcd13ifvqds0","pricing_plan_id":"free"},{"bike_id":"09f94e38-065c-4931-b747-12644780c8d1","system_id":"levelo_inurba_marseille","lat":43.28398,"lon":5.37517,"is_reserved":false,"is_disabled":false,"rental_uris":{"android":"levelo://app?vid=09f94e38-065c-4931-b747-12644780c8d1","ios":"levelo://app?vid=09f94e38-065c-4931-b747-12644780c8d1"},"vehicle_type_id":"4","last_reported":1702660008,"current_range_meters":0,"station_id":"ce4bh412rcd13ifvqds0","pricing_plan_id":"free"},{"bike_id":"7dad4481-4867-4557-8614-5bf9a8d365e1","system_id":"levelo_inurba_marseille","lat":43.337168,"lon":5.391825,"is_reserved":false,"is_disabled":false,"rental_uris":{"android":"levelo://app?vid=7dad4481-4867-4557-8614-5bf9a8d365e1","ios":"levelo://app?vid=7dad4481-4867-4557-8614-5bf9a8d365e1"},"vehicle_type_id":"4","last_reported":1702660008,"current_range_meters":20000,"station_id":"ce4bhr92rcd13ifvqhsg","pricing_plan_id":"free"},{"bike_id":"b0e7a102-346e-4b80-9ef6-1eeed83ce819","system_id":"levelo_inurba_marseille","lat":43.297946,"lon":5.404063,"is_reserved":false,"is_disabled":false,"rental_uris":{"android":"levelo://app?vid=b0e7a102-346e-4b80-9ef6-1eeed83ce819","ios":"levelo://app?vid=b0e7a102-346e-4b80-9ef6-1eeed83ce819"},"vehicle_type_id":"4","last_reported":1702660008,"current_range_meters":3200,"station_id":"ce4bh112rcd13ifvqd90","pricing_plan_id":"free"},{"bike_id":"4ff48058-7e65-4bb5-88c5-25eb6c546a04","system_id":"levelo_inurba_marseille","lat":43.292724,"lon":5.401131,"is_reserved":false,"is_disabled":false,"rental_uris":{"android":"levelo://app?vid=4ff48058-7e65-4bb5-88c5-25eb6c546a04","ios":"levelo://app?vid=4ff48058-7e65-4bb5-88c5-25eb6c546a04"},"vehicle_type_id":"4","last_reported":1702660008,"current_range_meters":23200,"station_id":"ce4bh312rcd13ifvqdk0","pricing_plan_id":"free"},{"bike_id":"a60a958a-71c2-4f44-b148-ee91dd8c58cc","system_id":"levelo_inurba_marseille","lat":43.282754,"lon":5.350519,"is_reserved":false,"is_disabled":false,"rental_uris":{"android":"levelo://app?vid=a60a958a-71c2-4f44-b148-ee91dd8c58cc","ios":"levelo://app?vid=a60a958a-71c2-4f44-b148-ee91dd8c58cc"},"vehicle_type_id":"4","last_reported":1702660008,"current_range_meters":0,"station_id":"ce4bhbp2rcd13ifvqerg","pricing_plan_id":"free"},{"bike_id":"078aaffb-b8bb-4f7a-be72-f9410dd16633","system_id":"levelo_inurba_marseille","lat":43.280382,"lon":5.369291,"is_reserved":false,"is_disabled":false,"rental_uris":{"android":"levelo://app?vid=078aaffb-b8bb-4f7a-be72-f9410dd16633","ios":"levelo://app?vid=078aaffb-b8bb-4f7a-be72-f9410dd16633"},"vehicle_type_id":"4","last_reported":1702660008,"current_range_meters":15600,"station_id":"ce4bha12rcd13ifvqef0","pricing_plan_id":"free"},{"bike_id":"8fb47eb9-d1de-47c3-9a4f-063d68d00739","system_id":"levelo_inurba_marseille","lat":43.280382,"lon":5.369291,"is_reserved":false,"is_disabled":false,"rental_uris":{"android":"levelo://app?vid=8fb47eb9-d1de-47c3-9a4f-063d68d00739","ios":"levelo://app?vid=8fb47eb9-d1de-47c3-9a4f-063d68d00739"},"vehicle_type_id":"4","last_reported":1702660008,"current_range_meters":30400,"station_id":"ce4bha12rcd13ifvqef0","pricing_plan_id":"free"},{"bike_id":"62c32a41-5c85-445e-a62d-27f8a6e615c9","system_id":"levelo_inurba_marseille","lat":43.280382,"lon":5.369291,"is_reserved":false,"is_disabled":false,"rental_uris":{"android":"levelo://app?vid=62c32a41-5c85-445e-a62d-27f8a6e615c9","ios":"levelo://app?vid=62c32a41-5c85-445e-a62d-27f8a6e615c9"},"vehicle_type_id":"4","last_reported":1702660008,"current_range_meters":26800,"station_id":"ce4bha12rcd13ifvqef0","pricing_plan_id":"free"},{"bike_id":"eecd5a2e-23b9-4a48-a7d9-5d48163860d4","system_id":"levelo_inurba_marseille","lat":43.29045,"lon":5.39969,"is_reserved":false,"is_disabled":false,"rental_uris":{"android":"levelo://app?vid=eecd5a2e-23b9-4a48-a7d9-5d48163860d4","ios":"levelo://app?vid=eecd5a2e-23b9-4a48-a7d9-5d48163860d4"},"vehicle_type_id":"4","last_reported":1702660008,"current_range_meters":0,"station_id":"ce4bh392rcd13ifvqdm0","pricing_plan_id":"free"},{"bike_id":"8ffd7305-f582-43cb-9b6d-bde5c6cc7d62","system_id":"levelo_inurba_marseille","lat":43.284462,"lon":5.392121,"is_reserved":false,"is_disabled":false,"rental_uris":{"android":"levelo://app?vid=8ffd7305-f582-43cb-9b6d-bde5c6cc7d62","ios":"levelo://app?vid=8ffd7305-f582-43cb-9b6d-bde5c6cc7d62"},"vehicle_type_id":"4","last_reported":1702660008,"current_range_meters":1600,"station_id":"ce4bhoh2rcd13ifvqh5g","pricing_plan_id":"free"},{"bike_id":"6cc9b4d0-c823-4f37-a580-1ca7d93e063b","system_id":"levelo_inurba_marseille","lat":43.284462,"lon":5.392121,"is_reserved":false,"is_disabled":false,"rental_uris":{"android":"levelo://app?vid=6cc9b4d0-c823-4f37-a580-1ca7d93e063b","ios":"levelo://app?vid=6cc9b4d0-c823-4f37-a580-1ca7d93e063b"},"vehicle_type_id":"4","last_reported":1702660008,"current_range_meters":14400,"station_id":"ce4bhoh2rcd13ifvqh5g","pricing_plan_id":"free"},{"bike_id":"a303a6fa-7143-4835-8208-5e1179cdc196","system_id":"levelo_inurba_marseille","lat":43.28573,"lon":5.394992,"is_reserved":false,"is_disabled":false,"rental_uris":{"android":"levelo://app?vid=a303a6fa-7143-4835-8208-5e1179cdc196","ios":"levelo://app?vid=a303a6fa-7143-4835-8208-5e1179cdc196"},"vehicle_type_id":"4","last_reported":1702660008,"current_range_meters":24800,"station_id":"ce4bh292rcd13ifvqdg0","pricing_plan_id":"free"},{"bike_id":"290aaebc-9b3a-45f8-b0d3-20a5f634c4f9","system_id":"levelo_inurba_marseille","lat":43.279087,"lon":5.380114,"is_reserved":false,"is_disabled":false,"rental_uris":{"android":"levelo://app?vid=290aaebc-9b3a-45f8-b0d3-20a5f634c4f9","ios":"levelo://app?vid=290aaebc-9b3a-45f8-b0d3-20a5f634c4f9"},"vehicle_type_id":"4","last_reported":1702660008,"current_range_meters":8800,"station_id":"ce4bhf92rcd13ifvqf50","pricing_plan_id":"free"},{"bike_id":"a881c7b4-1e71-4f64-a691-1e71bda5965a","system_id":"levelo_inurba_marseille","lat":43.279742,"lon":5.38744,"is_reserved":false,"is_disabled":false,"rental_uris":{"android":"levelo://app?vid=a881c7b4-1e71-4f64-a691-1e71bda5965a","ios":"levelo://app?vid=a881c7b4-1e71-4f64-a691-1e71bda5965a"},"vehicle_type_id":"4","last_reported":1702660008,"current_range_meters":3600,"station_id":"ce4bhg12rcd13ifvqf80","pricing_plan_id":"free"},{"bike_id":"c40aebd4-c148-4d4d-9243-dcfaa5c4b14c","system_id":"levelo_inurba_marseille","lat":43.27615,"lon":5.36115,"is_reserved":false,"is_disabled":false,"rental_uris":{"android":"levelo://app?vid=c40aebd4-c148-4d4d-9243-dcfaa5c4b14c","ios":"levelo://app?vid=c40aebd4-c148-4d4d-9243-dcfaa5c4b14c"},"vehicle_type_id":"4","last_reported":1702660008,"current_range_meters":18400,"station_id":"ce4bgj92rcd13ifvqbe0","pricing_plan_id":"free"},{"bike_id":"a32cfc00-35d9-45d8-aac5-844d4450ef4e","system_id":"levelo_inurba_marseille","lat":43.276179,"lon":5.361009,"is_reserved":false,"is_disabled":false,"rental_uris":{"android":"levelo://app?vid=a32cfc00-35d9-45d8-aac5-844d4450ef4e","ios":"levelo://app?vid=a32cfc00-35d9-45d8-aac5-844d4450ef4e"},"vehicle_type_id":"4","last_reported":1702660008,"current_range_meters":15200,"station_id":"ce4bgj92rcd13ifvqbe0","pricing_plan_id":"free"},{"bike_id":"85967ac3-c8bf-4c4d-9f65-8f46db69571a","system_id":"levelo_inurba_marseille","lat":43.27611,"lon":5.361205,"is_reserved":false,"is_disabled":false,"rental_uris":{"android":"levelo://app?vid=85967ac3-c8bf-4c4d-9f65-8f46db69571a","ios":"levelo://app?vid=85967ac3-c8bf-4c4d-9f65-8f46db69571a"},"vehicle_type_id":"4","last_reported":1702660008,"current_range_meters":30000,"station_id":"ce4bgj92rcd13ifvqbe0","pricing_plan_id":"free"},{"bike_id":"8084ae2c-549d-421d-a3c5-d8f91b926d82","system_id":"levelo_inurba_marseille","lat":43.280784,"lon":5.396622,"is_reserved":false,"is_disabled":false,"rental_uris":{"android":"levelo://app?vid=8084ae2c-549d-421d-a3c5-d8f91b926d82","ios":"levelo://app?vid=8084ae2c-549d-421d-a3c5-d8f91b926d82"},"vehicle_type_id":"4","last_reported":1702660008,"current_range_meters":30400,"station_id":"ce4bho12rcd13ifvqh2g","pricing_plan_id":"free"},{"bike_id":"0a47c193-7d32-42af-8b7b-37fd614e8e4c","system_id":"levelo_inurba_marseille","lat":43.303837,"lon":5.418724,"is_reserved":false,"is_disabled":false,"rental_uris":{"android":"levelo://app?vid=0a47c193-7d32-42af-8b7b-37fd614e8e4c","ios":"levelo://app?vid=0a47c193-7d32-42af-8b7b-37fd614e8e4c"},"vehicle_type_id":"4","last_reported":1702660008,"current_range_meters":5600,"station_id":"ce4bhop2rcd13ifvqh7g","pricing_plan_id":"free"},{"bike_id":"d14d66b3-6cb9-46f7-82d5-6456b10c6e81","system_id":"levelo_inurba_marseille","lat":43.303837,"lon":5.418724,"is_reserved":false,"is_disabled":false,"rental_uris":{"android":"levelo://app?vid=d14d66b3-6cb9-46f7-82d5-6456b10c6e81","ios":"levelo://app?vid=d14d66b3-6cb9-46f7-82d5-6456b10c6e81"},"vehicle_type_id":"4","last_reported":1702660008,"current_range_meters":30400,"station_id":"ce4bhop2rcd13ifvqh7g","pricing_plan_id":"free"},{"bike_id":"f6273839-cb1b-4eb7-8f99-8cc80ce1c29b","system_id":"levelo_inurba_marseille","lat":43.303837,"lon":5.418724,"is_reserved":false,"is_disabled":false,"rental_uris":{"android":"levelo://app?vid=f6273839-cb1b-4eb7-8f99-8cc80ce1c29b","ios":"levelo://app?vid=f6273839-cb1b-4eb7-8f99-8cc80ce1c29b"},"vehicle_type_id":"4","last_reported":1702660008,"current_range_meters":4400,"station_id":"ce4bhop2rcd13ifvqh7g","pricing_plan_id":"free"},{"bike_id":"61ca0a2f-3d94-48fd-b21c-ce6d7ddf5f12","system_id":"levelo_inurba_marseille","lat":43.278401,"lon":5.392152,"is_reserved":false,"is_disabled":false,"rental_uris":{"android":"levelo://app?vid=61ca0a2f-3d94-48fd-b21c-ce6d7ddf5f12","ios":"levelo://app?vid=61ca0a2f-3d94-48fd-b21c-ce6d7ddf5f12"},"vehicle_type_id":"4","last_reported":1702660008,"current_range_meters":0,"station_id":"ce4bhjp2rcd13ifvqga0","pricing_plan_id":"free"},{"bike_id":"d72eed7e-53d8-4659-b4b9-4abd46f6b19e","system_id":"levelo_inurba_marseille","lat":43.278399,"lon":5.392139,"is_reserved":false,"is_disabled":false,"rental_uris":{"android":"levelo://app?vid=d72eed7e-53d8-4659-b4b9-4abd46f6b19e","ios":"levelo://app?vid=d72eed7e-53d8-4659-b4b9-4abd46f6b19e"},"vehicle_type_id":"4","last_reported":1702660008,"current_range_meters":4800,"station_id":"ce4bhjp2rcd13ifvqga0","pricing_plan_id":"free"},{"bike_id":"8e1e848d-d96b-4302-ada5-5df8b44d4656","system_id":"levelo_inurba_marseille","lat":43.303375,"lon":5.419038,"is_reserved":false,"is_disabled":false,"rental_uris":{"android":"levelo://app?vid=8e1e848d-d96b-4302-ada5-5df8b44d4656","ios":"levelo://app?vid=8e1e848d-d96b-4302-ada5-5df8b44d4656"},"vehicle_type_id":"4","last_reported":1702660008,"current_range_meters":17200,"station_id":"ce4bhop2rcd13ifvqh7g","pricing_plan_id":"free"},{"bike_id":"d1d17a65-03ce-4489-acd4-06452176afb5","system_id":"levelo_inurba_marseille","lat":43.273613,"lon":5.362705,"is_reserved":false,"is_disabled":false,"rental_uris":{"android":"levelo://app?vid=d1d17a65-03ce-4489-acd4-06452176afb5","ios":"levelo://app?vid=d1d17a65-03ce-4489-acd4-06452176afb5"},"vehicle_type_id":"4","last_reported":1702660008,"current_range_meters":28400,"station_id":"ce4bhbh2rcd13ifvqeo0","pricing_plan_id":"free"},{"bike_id":"3bce963e-4ff0-44ae-911c-664b1b6677df","system_id":"levelo_inurba_marseille","lat":43.27377,"lon":5.36249,"is_reserved":false,"is_disabled":false,"rental_uris":{"android":"levelo://app?vid=3bce963e-4ff0-44ae-911c-664b1b6677df","ios":"levelo://app?vid=3bce963e-4ff0-44ae-911c-664b1b6677df"},"vehicle_type_id":"4","last_reported":1702660008,"current_range_meters":19600,"station_id":"ce4bhbh2rcd13ifvqeo0","pricing_plan_id":"free"},{"bike_id":"f46b8131-d934-4d08-8783-3a4977f7a16d","system_id":"levelo_inurba_marseille","lat":43.273613,"lon":5.362705,"is_reserved":false,"is_disabled":false,"rental_uris":{"android":"levelo://app?vid=f46b8131-d934-4d08-8783-3a4977f7a16d","ios":"levelo://app?vid=f46b8131-d934-4d08-8783-3a4977f7a16d"},"vehicle_type_id":"4","last_reported":1702660008,"current_range_meters":31600,"station_id":"ce4bhbh2rcd13ifvqeo0","pricing_plan_id":"free"},{"bike_id":"6e4978ec-24f1-4134-9d3d-af26496dab02","system_id":"levelo_inurba_marseille","lat":43.27557,"lon":5.38432,"is_reserved":false,"is_disabled":false,"rental_uris":{"android":"levelo://app?vid=6e4978ec-24f1-4134-9d3d-af26496dab02","ios":"levelo://app?vid=6e4978ec-24f1-4134-9d3d-af26496dab02"},"vehicle_type_id":"4","last_reported":1702660008,"current_range_meters":20400,"station_id":"ce4bhh92rcd13ifvqfi0","pricing_plan_id":"free"},{"bike_id":"ad646319-1f58-46f1-bd20-f392fd6f0e55","system_id":"levelo_inurba_marseille","lat":43.276769,"lon":5.388787,"is_reserved":false,"is_disabled":false,"rental_uris":{"android":"levelo://app?vid=ad646319-1f58-46f1-bd20-f392fd6f0e55","ios":"levelo://app?vid=ad646319-1f58-46f1-bd20-f392fd6f0e55"},"vehicle_type_id":"4","last_reported":1702660008,"current_range_meters":1600,"station_id":"ce4bhi12rcd13ifvqfo0","pricing_plan_id":"free"},{"bike_id":"acbba970-e172-4046-8e90-a4bc639bd2f2","system_id":"levelo_inurba_marseille","lat":43.279952,"lon":5.400085,"is_reserved":false,"is_disabled":false,"rental_uris":{"android":"levelo://app?vid=acbba970-e172-4046-8e90-a4bc639bd2f2","ios":"levelo://app?vid=acbba970-e172-4046-8e90-a4bc639bd2f2"},"vehicle_type_id":"4","last_reported":1702660008,"current_range_meters":22800,"station_id":"ce4bho92rcd13ifvqh4g","pricing_plan_id":"free"},{"bike_id":"be704098-660b-4c17-9e3e-bf9d21e82cd6","system_id":"levelo_inurba_marseille","lat":43.279952,"lon":5.400085,"is_reserved":false,"is_disabled":false,"rental_uris":{"android":"levelo://app?vid=be704098-660b-4c17-9e3e-bf9d21e82cd6","ios":"levelo://app?vid=be704098-660b-4c17-9e3e-bf9d21e82cd6"},"vehicle_type_id":"4","last_reported":1702660008,"current_range_meters":31200,"station_id":"ce4bho92rcd13ifvqh4g","pricing_plan_id":"free"},{"bike_id":"58836c95-6366-4507-b317-696c63def311","system_id":"levelo_inurba_marseille","lat":43.317121,"lon":5.423936,"is_reserved":false,"is_disabled":false,"rental_uris":{"android":"levelo://app?vid=58836c95-6366-4507-b317-696c63def311","ios":"levelo://app?vid=58836c95-6366-4507-b317-696c63def311"},"vehicle_type_id":"4","last_reported":1702660008,"current_range_meters":30400,"station_id":"ce4bhp92rcd13ifvqhbg","pricing_plan_id":"free"},{"bike_id":"cdc69067-dad5-415d-b4f3-0a438e350196","system_id":"levelo_inurba_marseille","lat":43.317121,"lon":5.423936,"is_reserved":false,"is_disabled":false,"rental_uris":{"android":"levelo://app?vid=cdc69067-dad5-415d-b4f3-0a438e350196","ios":"levelo://app?vid=cdc69067-dad5-415d-b4f3-0a438e350196"},"vehicle_type_id":"4","last_reported":1702660008,"current_range_meters":18800,"station_id":"ce4bhp92rcd13ifvqhbg","pricing_plan_id":"free"},{"bike_id":"93a9a0b0-f09a-4679-973e-f3ebca0caf36","system_id":"levelo_inurba_marseille","lat":43.310785,"lon":5.424305,"is_reserved":false,"is_disabled":false,"rental_uris":{"android":"levelo://app?vid=93a9a0b0-f09a-4679-973e-f3ebca0caf36","ios":"levelo://app?vid=93a9a0b0-f09a-4679-973e-f3ebca0caf36"},"vehicle_type_id":"4","last_reported":1702660008,"current_range_meters":25200,"station_id":"ce4bhp92rcd13ifvqhag","pricing_plan_id":"free"},{"bike_id":"13b63d08-aaa3-4985-bf57-1f32727c58d1","system_id":"levelo_inurba_marseille","lat":43.310785,"lon":5.424305,"is_reserved":false,"is_disabled":false,"rental_uris":{"android":"levelo://app?vid=13b63d08-aaa3-4985-bf57-1f32727c58d1","ios":"levelo://app?vid=13b63d08-aaa3-4985-bf57-1f32727c58d1"},"vehicle_type_id":"4","last_reported":1702660008,"current_range_meters":24800,"station_id":"ce4bhp92rcd13ifvqhag","pricing_plan_id":"free"},{"bike_id":"3ca2c2d2-99b0-4aa6-a05d-e30f02e6a7fb","system_id":"levelo_inurba_marseille","lat":43.276092,"lon":5.395289,"is_reserved":false,"is_disabled":false,"rental_uris":{"android":"levelo://app?vid=3ca2c2d2-99b0-4aa6-a05d-e30f02e6a7fb","ios":"levelo://app?vid=3ca2c2d2-99b0-4aa6-a05d-e30f02e6a7fb"},"vehicle_type_id":"4","last_reported":1702660008,"current_range_meters":27200,"station_id":"","pricing_plan_id":"free"},{"bike_id":"5e043416-2a0f-4ee4-a5d6-a5244fea3d65","system_id":"levelo_inurba_marseille","lat":43.30459,"lon":5.42561,"is_reserved":false,"is_disabled":false,"rental_uris":{"android":"levelo://app?vid=5e043416-2a0f-4ee4-a5d6-a5244fea3d65","ios":"levelo://app?vid=5e043416-2a0f-4ee4-a5d6-a5244fea3d65"},"vehicle_type_id":"4","last_reported":1702660008,"current_range_meters":26000,"station_id":"","pricing_plan_id":"free"},{"bike_id":"de9feb39-3844-4206-aa16-9fe6fe1926e0","system_id":"levelo_inurba_marseille","lat":43.295511,"lon":5.422926,"is_reserved":false,"is_disabled":false,"rental_uris":{"android":"levelo://app?vid=de9feb39-3844-4206-aa16-9fe6fe1926e0","ios":"levelo://app?vid=de9feb39-3844-4206-aa16-9fe6fe1926e0"},"vehicle_type_id":"4","last_reported":1702660008,"current_range_meters":18800,"station_id":"ce4bhph2rcd13ifvqhdg","pricing_plan_id":"free"},{"bike_id":"037fb45d-5781-4ed2-a553-628ca420aa27","system_id":"levelo_inurba_marseille","lat":43.295511,"lon":5.422926,"is_reserved":false,"is_disabled":false,"rental_uris":{"android":"levelo://app?vid=037fb45d-5781-4ed2-a553-628ca420aa27","ios":"levelo://app?vid=037fb45d-5781-4ed2-a553-628ca420aa27"},"vehicle_type_id":"4","last_reported":1702660008,"current_range_meters":29600,"station_id":"ce4bhph2rcd13ifvqhdg","pricing_plan_id":"free"},{"bike_id":"1d2472e2-350f-44fa-a627-38e6bb5829da","system_id":"levelo_inurba_marseille","lat":43.295511,"lon":5.422926,"is_reserved":false,"is_disabled":false,"rental_uris":{"android":"levelo://app?vid=1d2472e2-350f-44fa-a627-38e6bb5829da","ios":"levelo://app?vid=1d2472e2-350f-44fa-a627-38e6bb5829da"},"vehicle_type_id":"4","last_reported":1702660008,"current_range_meters":31600,"station_id":"ce4bhph2rcd13ifvqhdg","pricing_plan_id":"free"},{"bike_id":"071b16aa-0110-4e2f-8e53-c0a33f9ce55a","system_id":"levelo_inurba_marseille","lat":43.27192,"lon":5.39234,"is_reserved":false,"is_disabled":false,"rental_uris":{"android":"levelo://app?vid=071b16aa-0110-4e2f-8e53-c0a33f9ce55a","ios":"levelo://app?vid=071b16aa-0110-4e2f-8e53-c0a33f9ce55a"},"vehicle_type_id":"4","last_reported":1702660008,"current_range_meters":20400,"station_id":"ce4bhhp2rcd13ifvqfm0","pricing_plan_id":"free"},{"bike_id":"1507ee37-976e-4843-bfc3-fa2eec645b39","system_id":"levelo_inurba_marseille","lat":43.279465,"lon":5.410561,"is_reserved":false,"is_disabled":false,"rental_uris":{"android":"levelo://app?vid=1507ee37-976e-4843-bfc3-fa2eec645b39","ios":"levelo://app?vid=1507ee37-976e-4843-bfc3-fa2eec645b39"},"vehicle_type_id":"4","last_reported":1702660008,"current_range_meters":17200,"station_id":"ce4bhnp2rcd13ifvqh0g","pricing_plan_id":"free"},{"bike_id":"046d5894-3046-4a12-b99e-a922b7056ad7","system_id":"levelo_inurba_marseille","lat":43.279465,"lon":5.410561,"is_reserved":false,"is_disabled":false,"rental_uris":{"android":"levelo://app?vid=046d5894-3046-4a12-b99e-a922b7056ad7","ios":"levelo://app?vid=046d5894-3046-4a12-b99e-a922b7056ad7"},"vehicle_type_id":"4","last_reported":1702660008,"current_range_meters":9600,"station_id":"ce4bhnp2rcd13ifvqh0g","pricing_plan_id":"free"},{"bike_id":"db774753-4382-453e-a138-c32d538f9839","system_id":"levelo_inurba_marseille","lat":43.3587,"lon":5.35679,"is_reserved":false,"is_disabled":false,"rental_uris":{"android":"levelo://app?vid=db774753-4382-453e-a138-c32d538f9839","ios":"levelo://app?vid=db774753-4382-453e-a138-c32d538f9839"},"vehicle_type_id":"4","last_reported":1702660008,"current_range_meters":11600,"station_id":"","pricing_plan_id":"free"},{"bike_id":"9687dce1-f89d-4b43-b98d-2df7ef7820bd","system_id":"levelo_inurba_marseille","lat":43.26553,"lon":5.37283,"is_reserved":false,"is_disabled":false,"rental_uris":{"android":"levelo://app?vid=9687dce1-f89d-4b43-b98d-2df7ef7820bd","ios":"levelo://app?vid=9687dce1-f89d-4b43-b98d-2df7ef7820bd"},"vehicle_type_id":"4","last_reported":1702660008,"current_range_meters":15200,"station_id":"ce4bhg12rcd13ifvqf70","pricing_plan_id":"free"},{"bike_id":"dcfbfa3b-3ba6-46ed-b6af-1bdf7eaa508f","system_id":"levelo_inurba_marseille","lat":43.26553,"lon":5.37283,"is_reserved":false,"is_disabled":false,"rental_uris":{"android":"levelo://app?vid=dcfbfa3b-3ba6-46ed-b6af-1bdf7eaa508f","ios":"levelo://app?vid=dcfbfa3b-3ba6-46ed-b6af-1bdf7eaa508f"},"vehicle_type_id":"4","last_reported":1702660008,"current_range_meters":15200,"station_id":"ce4bhg12rcd13ifvqf70","pricing_plan_id":"free"},{"bike_id":"f10f1c5c-66c0-46e2-bbe9-f949e84dfcb2","system_id":"levelo_inurba_marseille","lat":43.267966,"lon":5.393976,"is_reserved":false,"is_disabled":false,"rental_uris":{"android":"levelo://app?vid=f10f1c5c-66c0-46e2-bbe9-f949e84dfcb2","ios":"levelo://app?vid=f10f1c5c-66c0-46e2-bbe9-f949e84dfcb2"},"vehicle_type_id":"4","last_reported":1702660008,"current_range_meters":400,"station_id":"ce4bhh12rcd13ifvqfg0","pricing_plan_id":"free"},{"bike_id":"098bca68-8e8d-4a2d-8c81-90c69817c497","system_id":"levelo_inurba_marseille","lat":43.26942,"lon":5.40255,"is_reserved":false,"is_disabled":false,"rental_uris":{"android":"levelo://app?vid=098bca68-8e8d-4a2d-8c81-90c69817c497","ios":"levelo://app?vid=098bca68-8e8d-4a2d-8c81-90c69817c497"},"vehicle_type_id":"4","last_reported":1702660008,"current_range_meters":11200,"station_id":"cjm6bp8fraef2m0cb0m0","pricing_plan_id":"free"},{"bike_id":"6e9363a8-9f5a-4494-8841-b57182808981","system_id":"levelo_inurba_marseille","lat":43.26949,"lon":5.40262,"is_reserved":false,"is_disabled":false,"rental_uris":{"android":"levelo://app?vid=6e9363a8-9f5a-4494-8841-b57182808981","ios":"levelo://app?vid=6e9363a8-9f5a-4494-8841-b57182808981"},"vehicle_type_id":"4","last_reported":1702660008,"current_range_meters":24800,"station_id":"cjm6bp8fraef2m0cb0m0","pricing_plan_id":"free"},{"bike_id":"2ea3438b-778c-44ba-ad3c-38b35ae7104f","system_id":"levelo_inurba_marseille","lat":43.317104,"lon":5.436818,"is_reserved":false,"is_disabled":false,"rental_uris":{"android":"levelo://app?vid=2ea3438b-778c-44ba-ad3c-38b35ae7104f","ios":"levelo://app?vid=2ea3438b-778c-44ba-ad3c-38b35ae7104f"},"vehicle_type_id":"4","last_reported":1702660008,"current_range_meters":22000,"station_id":"ce4bhp92rcd13ifvqhcg","pricing_plan_id":"free"},{"bike_id":"aa7ebe32-f1a4-4d47-bd7a-34b412f08674","system_id":"levelo_inurba_marseille","lat":43.317104,"lon":5.436818,"is_reserved":false,"is_disabled":false,"rental_uris":{"android":"levelo://app?vid=aa7ebe32-f1a4-4d47-bd7a-34b412f08674","ios":"levelo://app?vid=aa7ebe32-f1a4-4d47-bd7a-34b412f08674"},"vehicle_type_id":"4","last_reported":1702660008,"current_range_meters":28400,"station_id":"ce4bhp92rcd13ifvqhcg","pricing_plan_id":"free"},{"bike_id":"ff01e0c1-49fc-45da-88c8-0264066783c4","system_id":"levelo_inurba_marseille","lat":43.26202,"lon":5.379299,"is_reserved":false,"is_disabled":false,"rental_uris":{"android":"levelo://app?vid=ff01e0c1-49fc-45da-88c8-0264066783c4","ios":"levelo://app?vid=ff01e0c1-49fc-45da-88c8-0264066783c4"},"vehicle_type_id":"4","last_reported":1702660008,"current_range_meters":5200,"station_id":"ce4bhjp2rcd13ifvqg90","pricing_plan_id":"free"},{"bike_id":"2eacc17e-52cf-4e4f-b894-8bcb074f70e1","system_id":"levelo_inurba_marseille","lat":43.267959,"lon":5.402685,"is_reserved":false,"is_disabled":false,"rental_uris":{"android":"levelo://app?vid=2eacc17e-52cf-4e4f-b894-8bcb074f70e1","ios":"levelo://app?vid=2eacc17e-52cf-4e4f-b894-8bcb074f70e1"},"vehicle_type_id":"4","last_reported":1702660008,"current_range_meters":28800,"station_id":"ce501612rcd8frsf0b60","pricing_plan_id":"free"},{"bike_id":"1b2ffb28-3a74-46df-a6cc-1511eba807e4","system_id":"levelo_inurba_marseille","lat":43.267959,"lon":5.402687,"is_reserved":false,"is_disabled":false,"rental_uris":{"android":"levelo://app?vid=1b2ffb28-3a74-46df-a6cc-1511eba807e4","ios":"levelo://app?vid=1b2ffb28-3a74-46df-a6cc-1511eba807e4"},"vehicle_type_id":"4","last_reported":1702660008,"current_range_meters":23200,"station_id":"ce501612rcd8frsf0b60","pricing_plan_id":"free"},{"bike_id":"4510633c-6100-41ad-9855-e4f0def2a04e","system_id":"levelo_inurba_marseille","lat":43.29901,"lon":5.43665,"is_reserved":false,"is_disabled":false,"rental_uris":{"android":"levelo://app?vid=4510633c-6100-41ad-9855-e4f0def2a04e","ios":"levelo://app?vid=4510633c-6100-41ad-9855-e4f0def2a04e"},"vehicle_type_id":"4","last_reported":1702660008,"current_range_meters":19200,"station_id":"ce4bhpp2rcd13ifvqhfg","pricing_plan_id":"free"},{"bike_id":"4c7a20c4-a54a-40b7-9c69-0e1b467c9b97","system_id":"levelo_inurba_marseille","lat":43.298768,"lon":5.43643,"is_reserved":false,"is_disabled":false,"rental_uris":{"android":"levelo://app?vid=4c7a20c4-a54a-40b7-9c69-0e1b467c9b97","ios":"levelo://app?vid=4c7a20c4-a54a-40b7-9c69-0e1b467c9b97"},"vehicle_type_id":"4","last_reported":1702660008,"current_range_meters":12000,"station_id":"ce4bhpp2rcd13ifvqhfg","pricing_plan_id":"free"},{"bike_id":"cf97c7f3-3bfa-4fce-8cda-1ca8600ca6e9","system_id":"levelo_inurba_marseille","lat":43.281548,"lon":5.42643,"is_reserved":false,"is_disabled":false,"rental_uris":{"android":"levelo://app?vid=cf97c7f3-3bfa-4fce-8cda-1ca8600ca6e9","ios":"levelo://app?vid=cf97c7f3-3bfa-4fce-8cda-1ca8600ca6e9"},"vehicle_type_id":"4","last_reported":1702660008,"current_range_meters":17600,"station_id":"ce4bhnh2rcd13ifvqgug","pricing_plan_id":"free"},{"bike_id":"5b29ac48-5ba9-4f57-847d-b41be8046c39","system_id":"levelo_inurba_marseille","lat":43.281548,"lon":5.42643,"is_reserved":false,"is_disabled":false,"rental_uris":{"android":"levelo://app?vid=5b29ac48-5ba9-4f57-847d-b41be8046c39","ios":"levelo://app?vid=5b29ac48-5ba9-4f57-847d-b41be8046c39"},"vehicle_type_id":"4","last_reported":1702660008,"current_range_meters":1200,"station_id":"ce4bhnh2rcd13ifvqgug","pricing_plan_id":"free"},{"bike_id":"b76e4b50-f6f0-431f-a6f8-b141c06663a4","system_id":"levelo_inurba_marseille","lat":43.275028,"lon":5.424534,"is_reserved":false,"is_disabled":false,"rental_uris":{"android":"levelo://app?vid=b76e4b50-f6f0-431f-a6f8-b141c06663a4","ios":"levelo://app?vid=b76e4b50-f6f0-431f-a6f8-b141c06663a4"},"vehicle_type_id":"4","last_reported":1702660008,"current_range_meters":9600,"station_id":"ce4bhn92rcd13ifvqgrg","pricing_plan_id":"free"},{"bike_id":"41e16c50-7b0a-4366-978a-957c87615b02","system_id":"levelo_inurba_marseille","lat":43.255,"lon":5.37653,"is_reserved":false,"is_disabled":false,"rental_uris":{"android":"levelo://app?vid=41e16c50-7b0a-4366-978a-957c87615b02","ios":"levelo://app?vid=41e16c50-7b0a-4366-978a-957c87615b02"},"vehicle_type_id":"4","last_reported":1702660008,"current_range_meters":0,"station_id":"ce4bhh12rcd13ifvqff0","pricing_plan_id":"free"},{"bike_id":"6c4cdd79-d70b-4e6b-a1b0-a64c1e1d3bff","system_id":"levelo_inurba_marseille","lat":43.254947,"lon":5.376454,"is_reserved":false,"is_disabled":false,"rental_uris":{"android":"levelo://app?vid=6c4cdd79-d70b-4e6b-a1b0-a64c1e1d3bff","ios":"levelo://app?vid=6c4cdd79-d70b-4e6b-a1b0-a64c1e1d3bff"},"vehicle_type_id":"4","last_reported":1702660008,"current_range_meters":0,"station_id":"ce4bhh12rcd13ifvqff0","pricing_plan_id":"free"},{"bike_id":"684c1270-0092-4a86-ad29-c7608ce182e8","system_id":"levelo_inurba_marseille","lat":43.254947,"lon":5.376454,"is_reserved":false,"is_disabled":false,"rental_uris":{"android":"levelo://app?vid=684c1270-0092-4a86-ad29-c7608ce182e8","ios":"levelo://app?vid=684c1270-0092-4a86-ad29-c7608ce182e8"},"vehicle_type_id":"4","last_reported":1702660008,"current_range_meters":29200,"station_id":"ce4bhh12rcd13ifvqff0","pricing_plan_id":"free"},{"bike_id":"51fbc073-d4b5-4fad-b3f5-538567d17cc0","system_id":"levelo_inurba_marseille","lat":43.254947,"lon":5.376454,"is_reserved":false,"is_disabled":false,"rental_uris":{"android":"levelo://app?vid=51fbc073-d4b5-4fad-b3f5-538567d17cc0","ios":"levelo://app?vid=51fbc073-d4b5-4fad-b3f5-538567d17cc0"},"vehicle_type_id":"4","last_reported":1702660008,"current_range_meters":31200,"station_id":"ce4bhh12rcd13ifvqff0","pricing_plan_id":"free"},{"bike_id":"5e961a5f-df6a-445d-936d-a4f8ea7b0b0c","system_id":"levelo_inurba_marseille","lat":43.270721,"lon":5.422764,"is_reserved":false,"is_disabled":false,"rental_uris":{"android":"levelo://app?vid=5e961a5f-df6a-445d-936d-a4f8ea7b0b0c","ios":"levelo://app?vid=5e961a5f-df6a-445d-936d-a4f8ea7b0b0c"},"vehicle_type_id":"4","last_reported":1702660008,"current_range_meters":24400,"station_id":"ce4bhk92rcd13ifvqgb0","pricing_plan_id":"free"},{"bike_id":"d756ebd2-86d9-4872-ab5c-d9c33bf99eaf","system_id":"levelo_inurba_marseille","lat":43.270721,"lon":5.422764,"is_reserved":false,"is_disabled":false,"rental_uris":{"android":"levelo://app?vid=d756ebd2-86d9-4872-ab5c-d9c33bf99eaf","ios":"levelo://app?vid=d756ebd2-86d9-4872-ab5c-d9c33bf99eaf"},"vehicle_type_id":"4","last_reported":1702660008,"current_range_meters":23200,"station_id":"ce4bhk92rcd13ifvqgb0","pricing_plan_id":"free"},{"bike_id":"30f27992-ba7e-43f7-aa91-a4e7136a79eb","system_id":"levelo_inurba_marseille","lat":43.25729,"lon":5.4111,"is_reserved":false,"is_disabled":false,"rental_uris":{"android":"levelo://app?vid=30f27992-ba7e-43f7-aa91-a4e7136a79eb","ios":"levelo://app?vid=30f27992-ba7e-43f7-aa91-a4e7136a79eb"},"vehicle_type_id":"4","last_reported":1702660008,"current_range_meters":30800,"station_id":"ce4bhkp2rcd13ifvqgd0","pricing_plan_id":"free"},{"bike_id":"36055a51-5a34-47f1-96fe-daf072616fe9","system_id":"levelo_inurba_marseille","lat":43.257275,"lon":5.41108,"is_reserved":false,"is_disabled":false,"rental_uris":{"android":"levelo://app?vid=36055a51-5a34-47f1-96fe-daf072616fe9","ios":"levelo://app?vid=36055a51-5a34-47f1-96fe-daf072616fe9"},"vehicle_type_id":"4","last_reported":1702660008,"current_range_meters":22800,"station_id":"ce4bhkp2rcd13ifvqgd0","pricing_plan_id":"free"},{"bike_id":"12de703f-ebdd-447c-80fe-fa03c5d2a6e2","system_id":"levelo_inurba_marseille","lat":43.25005,"lon":5.38932,"is_reserved":false,"is_disabled":false,"rental_uris":{"android":"levelo://app?vid=12de703f-ebdd-447c-80fe-fa03c5d2a6e2","ios":"levelo://app?vid=12de703f-ebdd-447c-80fe-fa03c5d2a6e2"},"vehicle_type_id":"4","last_reported":1702660008,"current_range_meters":2800,"station_id":"ce4bhgp2rcd13ifvqfd0","pricing_plan_id":"free"},{"bike_id":"a7b9d0cf-907f-47c9-af0f-e0977490e4d9","system_id":"levelo_inurba_marseille","lat":43.24881,"lon":5.38171,"is_reserved":false,"is_disabled":false,"rental_uris":{"android":"levelo://app?vid=a7b9d0cf-907f-47c9-af0f-e0977490e4d9","ios":"levelo://app?vid=a7b9d0cf-907f-47c9-af0f-e0977490e4d9"},"vehicle_type_id":"4","last_reported":1702660008,"current_range_meters":0,"station_id":"","pricing_plan_id":"free"},{"bike_id":"8d8d74e9-dc7b-4235-901a-c0cbfe3bca40","system_id":"levelo_inurba_marseille","lat":43.2479,"lon":5.374457,"is_reserved":false,"is_disabled":false,"rental_uris":{"android":"levelo://app?vid=8d8d74e9-dc7b-4235-901a-c0cbfe3bca40","ios":"levelo://app?vid=8d8d74e9-dc7b-4235-901a-c0cbfe3bca40"},"vehicle_type_id":"4","last_reported":1702660008,"current_range_meters":13200,"station_id":"ce4bhgh2rcd13ifvqfb0","pricing_plan_id":"free"},{"bike_id":"b58173ed-5f2c-4e52-a9d2-47a02a146e99","system_id":"levelo_inurba_marseille","lat":43.2479,"lon":5.374457,"is_reserved":false,"is_disabled":false,"rental_uris":{"android":"levelo://app?vid=b58173ed-5f2c-4e52-a9d2-47a02a146e99","ios":"levelo://app?vid=b58173ed-5f2c-4e52-a9d2-47a02a146e99"},"vehicle_type_id":"4","last_reported":1702660008,"current_range_meters":31600,"station_id":"ce4bhgh2rcd13ifvqfb0","pricing_plan_id":"free"},{"bike_id":"24823af9-e338-40f7-b3ab-8a760ed4d424","system_id":"levelo_inurba_marseille","lat":43.24693,"lon":5.382096,"is_reserved":false,"is_disabled":false,"rental_uris":{"android":"levelo://app?vid=24823af9-e338-40f7-b3ab-8a760ed4d424","ios":"levelo://app?vid=24823af9-e338-40f7-b3ab-8a760ed4d424"},"vehicle_type_id":"4","last_reported":1702660008,"current_range_meters":30400,"station_id":"ce4bhih2rcd13ifvqfr0","pricing_plan_id":"free"},{"bike_id":"e43c72a6-f899-480c-84b7-43f0d0e896e4","system_id":"levelo_inurba_marseille","lat":43.24693,"lon":5.382096,"is_reserved":false,"is_disabled":false,"rental_uris":{"android":"levelo://app?vid=e43c72a6-f899-480c-84b7-43f0d0e896e4","ios":"levelo://app?vid=e43c72a6-f899-480c-84b7-43f0d0e896e4"},"vehicle_type_id":"4","last_reported":1702660008,"current_range_meters":20800,"station_id":"ce4bhih2rcd13ifvqfr0","pricing_plan_id":"free"},{"bike_id":"4dcb92a6-a047-4d56-9f26-2a5401237f3d","system_id":"levelo_inurba_marseille","lat":43.24662,"lon":5.38164,"is_reserved":false,"is_disabled":false,"rental_uris":{"android":"levelo://app?vid=4dcb92a6-a047-4d56-9f26-2a5401237f3d","ios":"levelo://app?vid=4dcb92a6-a047-4d56-9f26-2a5401237f3d"},"vehicle_type_id":"4","last_reported":1702660008,"current_range_meters":31200,"station_id":"ce4bhih2rcd13ifvqfr0","pricing_plan_id":"free"},{"bike_id":"1792bf4b-2a7a-4e47-9b67-780a8c27534f","system_id":"levelo_inurba_marseille","lat":43.24693,"lon":5.382096,"is_reserved":false,"is_disabled":false,"rental_uris":{"android":"levelo://app?vid=1792bf4b-2a7a-4e47-9b67-780a8c27534f","ios":"levelo://app?vid=1792bf4b-2a7a-4e47-9b67-780a8c27534f"},"vehicle_type_id":"4","last_reported":1702660008,"current_range_meters":24400,"station_id":"ce4bhih2rcd13ifvqfr0","pricing_plan_id":"free"},{"bike_id":"34b69203-613a-479b-8c79-741d2eebb768","system_id":"levelo_inurba_marseille","lat":43.246467,"lon":5.388984,"is_reserved":false,"is_disabled":false,"rental_uris":{"android":"levelo://app?vid=34b69203-613a-479b-8c79-741d2eebb768","ios":"levelo://app?vid=34b69203-613a-479b-8c79-741d2eebb768"},"vehicle_type_id":"4","last_reported":1702660008,"current_range_meters":22800,"station_id":"ce4bhg12rcd13ifvqf60","pricing_plan_id":"free"},{"bike_id":"03a5d81e-8f35-4b75-8315-e1569fdd606a","system_id":"levelo_inurba_marseille","lat":43.240737,"lon":5.377567,"is_reserved":false,"is_disabled":false,"rental_uris":{"android":"levelo://app?vid=03a5d81e-8f35-4b75-8315-e1569fdd606a","ios":"levelo://app?vid=03a5d81e-8f35-4b75-8315-e1569fdd606a"},"vehicle_type_id":"4","last_reported":1702660008,"current_range_meters":31200,"station_id":"ce4bhnp2rcd13ifvqgvg","pricing_plan_id":"free"},{"bike_id":"6d680d70-803a-4545-9d63-f28f95cfd909","system_id":"levelo_inurba_marseille","lat":43.240623,"lon":5.377642,"is_reserved":false,"is_disabled":false,"rental_uris":{"android":"levelo://app?vid=6d680d70-803a-4545-9d63-f28f95cfd909","ios":"levelo://app?vid=6d680d70-803a-4545-9d63-f28f95cfd909"},"vehicle_type_id":"4","last_reported":1702660008,"current_range_meters":31200,"station_id":"ce4bhnp2rcd13ifvqgvg","pricing_plan_id":"free"},{"bike_id":"633a54a7-ec31-4855-849b-d14e8dd63cf3","system_id":"levelo_inurba_marseille","lat":43.24069,"lon":5.3777,"is_reserved":false,"is_disabled":false,"rental_uris":{"android":"levelo://app?vid=633a54a7-ec31-4855-849b-d14e8dd63cf3","ios":"levelo://app?vid=633a54a7-ec31-4855-849b-d14e8dd63cf3"},"vehicle_type_id":"4","last_reported":1702660008,"current_range_meters":31200,"station_id":"ce4bhnp2rcd13ifvqgvg","pricing_plan_id":"free"},{"bike_id":"02ac37ee-bee9-46b1-a52f-37d0d09b2ffc","system_id":"levelo_inurba_marseille","lat":43.239588,"lon":5.366238,"is_reserved":false,"is_disabled":false,"rental_uris":{"android":"levelo://app?vid=02ac37ee-bee9-46b1-a52f-37d0d09b2ffc","ios":"levelo://app?vid=02ac37ee-bee9-46b1-a52f-37d0d09b2ffc"},"vehicle_type_id":"4","last_reported":1702660008,"current_range_meters":16800,"station_id":"ce4bhi12rcd13ifvqfp0","pricing_plan_id":"free"},{"bike_id":"8c112bac-5f5a-407d-8532-bc3c79605cd8","system_id":"levelo_inurba_marseille","lat":43.239588,"lon":5.366238,"is_reserved":false,"is_disabled":false,"rental_uris":{"android":"levelo://app?vid=8c112bac-5f5a-407d-8532-bc3c79605cd8","ios":"levelo://app?vid=8c112bac-5f5a-407d-8532-bc3c79605cd8"},"vehicle_type_id":"4","last_reported":1702660008,"current_range_meters":31200,"station_id":"ce4bhi12rcd13ifvqfp0","pricing_plan_id":"free"},{"bike_id":"d7644ad0-5563-4976-bd30-a0001421d6fa","system_id":"levelo_inurba_marseille","lat":43.24181,"lon":5.39728,"is_reserved":false,"is_disabled":false,"rental_uris":{"android":"levelo://app?vid=d7644ad0-5563-4976-bd30-a0001421d6fa","ios":"levelo://app?vid=d7644ad0-5563-4976-bd30-a0001421d6fa"},"vehicle_type_id":"4","last_reported":1702660008,"current_range_meters":0,"station_id":"ce4bhn12rcd13ifvqgpg","pricing_plan_id":"free"},{"bike_id":"dd223708-507f-4d30-9f83-f553e061c6f5","system_id":"levelo_inurba_marseille","lat":43.2418,"lon":5.3973,"is_reserved":false,"is_disabled":false,"rental_uris":{"android":"levelo://app?vid=dd223708-507f-4d30-9f83-f553e061c6f5","ios":"levelo://app?vid=dd223708-507f-4d30-9f83-f553e061c6f5"},"vehicle_type_id":"4","last_reported":1702660008,"current_range_meters":21600,"station_id":"ce4bhn12rcd13ifvqgpg","pricing_plan_id":"free"},{"bike_id":"6159a088-b370-48df-b5da-9c5aafd142ff","system_id":"levelo_inurba_marseille","lat":43.23201,"lon":5.35547,"is_reserved":false,"is_disabled":false,"rental_uris":{"android":"levelo://app?vid=6159a088-b370-48df-b5da-9c5aafd142ff","ios":"levelo://app?vid=6159a088-b370-48df-b5da-9c5aafd142ff"},"vehicle_type_id":"4","last_reported":1702660008,"current_range_meters":7200,"station_id":"ce4bhu92rcd13ifvqi70","pricing_plan_id":"free"},{"bike_id":"bad9b33d-de7d-4c7c-82d1-be01fc455f93","system_id":"levelo_inurba_marseille","lat":43.231919,"lon":5.355532,"is_reserved":false,"is_disabled":false,"rental_uris":{"android":"levelo://app?vid=bad9b33d-de7d-4c7c-82d1-be01fc455f93","ios":"levelo://app?vid=bad9b33d-de7d-4c7c-82d1-be01fc455f93"},"vehicle_type_id":"4","last_reported":1702660008,"current_range_meters":26400,"station_id":"ce4bhu92rcd13ifvqi70","pricing_plan_id":"free"},{"bike_id":"600bdeb8-ea2a-4d1c-a6da-f7a255388a48","system_id":"levelo_inurba_marseille","lat":43.23198,"lon":5.35552,"is_reserved":false,"is_disabled":false,"rental_uris":{"android":"levelo://app?vid=600bdeb8-ea2a-4d1c-a6da-f7a255388a48","ios":"levelo://app?vid=600bdeb8-ea2a-4d1c-a6da-f7a255388a48"},"vehicle_type_id":"4","last_reported":1702660008,"current_range_meters":14400,"station_id":"ce4bhu92rcd13ifvqi70","pricing_plan_id":"free"},{"bike_id":"547672b1-18af-4711-b9a3-86e73cab70b4","system_id":"levelo_inurba_marseille","lat":43.23197,"lon":5.3555,"is_reserved":false,"is_disabled":false,"rental_uris":{"android":"levelo://app?vid=547672b1-18af-4711-b9a3-86e73cab70b4","ios":"levelo://app?vid=547672b1-18af-4711-b9a3-86e73cab70b4"},"vehicle_type_id":"4","last_reported":1702660008,"current_range_meters":20000,"station_id":"ce4bhu92rcd13ifvqi70","pricing_plan_id":"free"},{"bike_id":"f500303a-8ac6-445d-adc7-107959ea5aff","system_id":"levelo_inurba_marseille","lat":43.231919,"lon":5.355532,"is_reserved":false,"is_disabled":false,"rental_uris":{"android":"levelo://app?vid=f500303a-8ac6-445d-adc7-107959ea5aff","ios":"levelo://app?vid=f500303a-8ac6-445d-adc7-107959ea5aff"},"vehicle_type_id":"4","last_reported":1702660008,"current_range_meters":29600,"station_id":"ce4bhu92rcd13ifvqi70","pricing_plan_id":"free"},{"bike_id":"185da70e-7a95-41eb-8b73-66c95513e7d7","system_id":"levelo_inurba_marseille","lat":43.231919,"lon":5.355532,"is_reserved":false,"is_disabled":false,"rental_uris":{"android":"levelo://app?vid=185da70e-7a95-41eb-8b73-66c95513e7d7","ios":"levelo://app?vid=185da70e-7a95-41eb-8b73-66c95513e7d7"},"vehicle_type_id":"4","last_reported":1702660008,"current_range_meters":20000,"station_id":"ce4bhu92rcd13ifvqi70","pricing_plan_id":"free"},{"bike_id":"c1429ef9-64a4-4967-b791-1805b200879e","system_id":"levelo_inurba_marseille","lat":43.231919,"lon":5.355532,"is_reserved":false,"is_disabled":false,"rental_uris":{"android":"levelo://app?vid=c1429ef9-64a4-4967-b791-1805b200879e","ios":"levelo://app?vid=c1429ef9-64a4-4967-b791-1805b200879e"},"vehicle_type_id":"4","last_reported":1702660008,"current_range_meters":20800,"station_id":"ce4bhu92rcd13ifvqi70","pricing_plan_id":"free"},{"bike_id":"a6ab5f0e-f0ee-41be-b237-17726a43f065","system_id":"levelo_inurba_marseille","lat":43.23193,"lon":5.35546,"is_reserved":false,"is_disabled":false,"rental_uris":{"android":"levelo://app?vid=a6ab5f0e-f0ee-41be-b237-17726a43f065","ios":"levelo://app?vid=a6ab5f0e-f0ee-41be-b237-17726a43f065"},"vehicle_type_id":"4","last_reported":1702660008,"current_range_meters":7200,"station_id":"ce4bhu92rcd13ifvqi70","pricing_plan_id":"free"},{"bike_id":"bb21ca5a-cb13-451e-943b-2dfa4a3b7fbc","system_id":"levelo_inurba_marseille","lat":43.231919,"lon":5.355532,"is_reserved":false,"is_disabled":false,"rental_uris":{"android":"levelo://app?vid=bb21ca5a-cb13-451e-943b-2dfa4a3b7fbc","ios":"levelo://app?vid=bb21ca5a-cb13-451e-943b-2dfa4a3b7fbc"},"vehicle_type_id":"4","last_reported":1702660008,"current_range_meters":29200,"station_id":"ce4bhu92rcd13ifvqi70","pricing_plan_id":"free"},{"bike_id":"f232aa67-6076-4223-8e5a-a70e7a8cdfcf","system_id":"levelo_inurba_marseille","lat":43.231794,"lon":5.400052,"is_reserved":false,"is_disabled":false,"rental_uris":{"android":"levelo://app?vid=f232aa67-6076-4223-8e5a-a70e7a8cdfcf","ios":"levelo://app?vid=f232aa67-6076-4223-8e5a-a70e7a8cdfcf"},"vehicle_type_id":"4","last_reported":1702660008,"current_range_meters":20000,"station_id":"ce4bhn12rcd13ifvqgqg","pricing_plan_id":"free"},{"bike_id":"ad4a709a-3bbc-4b66-b7ec-31b555a6fb6f","system_id":"levelo_inurba_marseille","lat":43.231794,"lon":5.400052,"is_reserved":false,"is_disabled":false,"rental_uris":{"android":"levelo://app?vid=ad4a709a-3bbc-4b66-b7ec-31b555a6fb6f","ios":"levelo://app?vid=ad4a709a-3bbc-4b66-b7ec-31b555a6fb6f"},"vehicle_type_id":"4","last_reported":1702660008,"current_range_meters":18400,"station_id":"ce4bhn12rcd13ifvqgqg","pricing_plan_id":"free"},{"bike_id":"5e675e68-5f89-4337-9f5e-8b0067b010c6","system_id":"levelo_inurba_marseille","lat":43.231794,"lon":5.400052,"is_reserved":false,"is_disabled":false,"rental_uris":{"android":"levelo://app?vid=5e675e68-5f89-4337-9f5e-8b0067b010c6","ios":"levelo://app?vid=5e675e68-5f89-4337-9f5e-8b0067b010c6"},"vehicle_type_id":"4","last_reported":1702660008,"current_range_meters":9200,"station_id":"ce4bhn12rcd13ifvqgqg","pricing_plan_id":"free"}]}}