{"last_updated":1747501693,"ttl":60,"version":"2.2","data":{"bikes":[{"bike_id":"c0b9fd4f-e181-46ce-b0bf-f5119973334f","system_id":"levelo_inurba_marseille","lat":43.33771,"lon":5.37424,"is_reserved":false,"is_disabled":false,"rental_uris":{"android":"levelo://app?vid=c0b9fd4f-e181-46ce-b0bf-f5119973334f","ios":"levelo://app?vid=c0b9fd4f-e181-46ce-b0bf-f5119973334f"},"vehicle_type_id":"4","last_reported":1747501693,"current_range_meters":4400,"station_id":"","pricing_plan_id":"cebpf4jnsgd1na2vs0mg"},{"bike_id":"48665b95-667b-49fb-9ccb-cffccb54b457","system_id":"levelo_inurba_marseille","lat":43.25105,"lon":5.40323,"is_reserved":false,"is_disabled":true,"rental_uris":{"android":"levelo://app?vid=48665b95-667b-49fb-9ccb-cffccb54b457","ios":"levelo://app?vid=48665b95-667b-49fb-9ccb-cffccb54b457"},"vehicle_type_id":"4","last_reported":1747501693,"current_range_meters":0,"station_id":"","pricing_plan_id":"cebpf4jnsgd1na2vs0mg"},{"bike_id":"fc2577e7-1497-425b-9d4f-ab8d7dc843c6","system_id":"levelo_inurba_marseille","lat":43.33771,"lon":5.37485,"is_reserved":false,"is_disabled":true,"rental_uris":{"android":"levelo://app?vid=fc2577e7-1497-425b-9d4f-ab8d7dc843c6","ios":"levelo://app?vid=fc2577e7-1497-425b-9d4f-ab8d7dc843c6"},"vehicle_type_id":"4","last_reported":1747501693,"current_range_meters":0,"station_id":"","pricing_plan_id":"cebpf4jnsgd1na2vs0mg"},{"bike_id":"80d0d83f-909d-4568-b4e7-8a3ef4eed2de","system_id":"levelo_inurba_marseille","lat":43.253831,"lon":5.419018,"is_reserved":false,"is_disabled":true,"rental_uris":{"android":"levelo://app?vid=80d0d83f-909d-4568-b4e7-8a3ef4eed2de","ios":"levelo://app?vid=80d0d83f-909d-4568-b4e7-8a3ef4eed2de"},"vehicle_type_id":"4","last_reported":1747501693,"current_range_meters":0,"station_id":"","pricing_plan_id":"cebpf4jnsgd1na2vs0mg"},{"bike_id":"0b7b8d9e-a565-4a78-b09b-a8c868649f48","system_id":"levelo_inurba_marseille","lat":43.337444,"lon":5.374475,"is_reserved":false,"is_disabled":true,"rental_uris":{"android":"levelo://app?vid=0b7b8d9e-a565-4a78-b09b-a8c868649f48","ios":"levelo://app?vid=0b7b8d9e-a565-4a78-b09b-a8c868649f48"},"vehicle_type_id":"4","last_reported":1747501693,"current_range_meters":0,"station_id":"","pricing_plan_id":"cebpf4jnsgd1na2vs0mg"},{"bike_id":"d8911881-e82e-4c7b-963e-42a565f0cadb","system_id":"levelo_inurba_marseille","lat":43.27029,"lon":5.40688,"is_reserved":false,"is_disabled":true,"rental_uris":{"android":"levelo://app?vid=d8911881-e82e-4c7b-963e-42a565f0cadb","ios":"levelo://app?vid=d8911881-e82e-4c7b-963e-42a565f0cadb"},"vehicle_type_id":"4","last_reported":1747501693,"current_range_meters":0,"station_id":"","pricing_plan_id":"cebpf4jnsgd1na2vs0mg"},{"bike_id":"ce4325af-2448-4172-bdec-81d552ee0b62","system_id":"levelo_inurba_marseille","lat":43.26165,"lon":5.4201,"is_reserved":false,"is_disabled":true,"rental_uris":{"android":"levelo://app?vid=ce4325af-2448-4172-bdec-81d552ee0b62","ios":"levelo://app?vid=ce4325af-2448-4172-bdec-81d552ee0b62"},"vehicle_type_id":"4","last_reported":1747501693,"current_range_meters":0,"station_id":"","pricing_plan_id":"cebpf4jnsgd1na2vs0mg"},{"bike_id":"23939faf-d206-4b93-ade4-199417584041","system_id":"levelo_inurba_marseille","lat":43.24953,"lon":5.37537,"is_reserved":false,"is_disabled":true,"rental_uris":{"android":"levelo://app?vid=23939faf-d206-4b93-ade4-199417584041","ios":"levelo://app?vid=23939faf-d206-4b93-ade4-199417584041"},"vehicle_type_id":"4","last_reported":1747501693,"current_range_meters":0,"station_id":"","pricing_plan_id":"cebpf4jnsgd1na2vs0mg"},{"bike_id":"0bfde7b4-e080-4521-b524-d2de129d9e74","system_id":"levelo_inurba_marseille","lat":43.32271,"lon":5.38348,"is_reserved":false,"is_disabled":true,"rental_uris":{"android":"levelo://app?vid=0bfde7b4-e080-4521-b524-d2de129d9e74","ios":"levelo://app?vid=0bfde7b4-e080-4521-b524-d2de129d9e74"},"vehicle_type_id":"4","last_reported":1747501693,"current_range_meters":0,"station_id":"","pricing_plan_id":"cebpf4jnsgd1na2vs0mg"},{"bike_id":"792567c6-0442-4011-aff0-9c05e25deb48","system_id":"levelo_inurba_marseille","lat":43.337444,"lon":5.374475,"is_reserved":false,"is_disabled":true,"rental_uris":{"android":"levelo://app?vid=792567c6-0442-4011-aff0-9c05e25deb48","ios":"levelo://app?vid=792567c6-0442-4011-aff0-9c05e25deb48"},"vehicle_type_id":"4","last_reported":1747501693,"current_range_meters":0,"station_id":"","pricing_plan_id":"cebpf4jnsgd1na2vs0mg"},{"bike_id":"bb0baa39-1e01-43e0-a77c-5ba8d631e8a2","system_id":"levelo_inurba_marseille","lat":43.27252,"lon":5.38571,"is_reserved":false,"is_disabled":true,"rental_uris":{"android":"levelo://app?vid=bb0baa39-1e01-43e0-a77c-5ba8d631e8a2","ios":"levelo://app?vid=bb0baa39-1e01-43e0-a77c-5ba8d631e8a2"},"vehicle_type_id":"4","last_reported":1747501693,"current_range_meters":0,"station_id":"","pricing_plan_id":"cebpf4jnsgd1na2vs0mg"},{"bike_id":"5954becd-2e08-4314-9dc9-a93fc36bba74","system_id":"levelo_inurba_marseille","lat":43.30125,"lon":5.38791,"is_reserved":false,"is_disabled":true,"rental_uris":{"android":"levelo://app?vid=5954becd-2e08-4314-9dc9-a93fc36bba74","ios":"levelo://app?vid=5954becd-2e08-4314-9dc9-a93fc36bba74"},"vehicle_type_id":"4","last_reported":1747501693,"current_range_meters":0,"station_id":"ce4bghh2rcd13ifvqb60","pricing_plan_id":"cebpf4jnsgd1na2vs0mg"},{"bike_id":"e230f362-837b-4c5c-8749-f98e7ba94904","system_id":"levelo_inurba_marseille","lat":43.299742,"lon":5.385041,"is_reserved":false,"is_disabled":true,"rental_uris":{"android":"levelo://app?vid=e230f362-837b-4c5c-8749-f98e7ba94904","ios":"levelo://app?vid=e230f362-837b-4c5c-8749-f98e7ba94904"},"vehicle_type_id":"4","last_reported":1747501693,"current_range_meters":0,"station_id":"ce4bgj92rcd13ifvqbd0","pricing_plan_id":"cebpf4jnsgd1na2vs0mg"},{"bike_id":"8e3215af-00d7-4b46-9e67-36be53a09426","system_id":"levelo_inurba_marseille","lat":43.29772,"lon":5.37108,"is_reserved":false,"is_disabled":true,"rental_uris":{"android":"levelo://app?vid=8e3215af-00d7-4b46-9e67-36be53a09426","ios":"levelo://app?vid=8e3215af-00d7-4b46-9e67-36be53a09426"},"vehicle_type_id":"4","last_reported":1747501693,"current_range_meters":0,"station_id":"ce4bgop2rcd13ifvqc1g","pricing_plan_id":"cebpf4jnsgd1na2vs0mg"},{"bike_id":"d418384d-c804-4bc0-8961-c84f653998be","system_id":"levelo_inurba_marseille","lat":43.30191,"lon":5.36618,"is_reserved":false,"is_disabled":true,"rental_uris":{"android":"levelo://app?vid=d418384d-c804-4bc0-8961-c84f653998be","ios":"levelo://app?vid=d418384d-c804-4bc0-8961-c84f653998be"},"vehicle_type_id":"4","last_reported":1747501693,"current_range_meters":0,"station_id":"ce4bgrh2rcd13ifvqc8g","pricing_plan_id":"cebpf4jnsgd1na2vs0mg"},{"bike_id":"27249a6c-9c71-41de-b048-c7184e3f520a","system_id":"levelo_inurba_marseille","lat":43.31464,"lon":5.37301,"is_reserved":false,"is_disabled":true,"rental_uris":{"android":"levelo://app?vid=27249a6c-9c71-41de-b048-c7184e3f520a","ios":"levelo://app?vid=27249a6c-9c71-41de-b048-c7184e3f520a"},"vehicle_type_id":"4","last_reported":1747501693,"current_range_meters":0,"station_id":"ce4bgt12rcd13ifvqcd0","pricing_plan_id":"cebpf4jnsgd1na2vs0mg"},{"bike_id":"2e0168a9-2021-4634-ab09-46c0b5a30b46","system_id":"levelo_inurba_marseille","lat":43.31074,"lon":5.38351,"is_reserved":false,"is_disabled":true,"rental_uris":{"android":"levelo://app?vid=2e0168a9-2021-4634-ab09-46c0b5a30b46","ios":"levelo://app?vid=2e0168a9-2021-4634-ab09-46c0b5a30b46"},"vehicle_type_id":"4","last_reported":1747501693,"current_range_meters":0,"station_id":"ce4bgv92rcd13ifvqcr0","pricing_plan_id":"cebpf4jnsgd1na2vs0mg"},{"bike_id":"a7ec48ba-cda9-462e-ac28-385050afeca3","system_id":"levelo_inurba_marseille","lat":43.31692,"lon":5.40467,"is_reserved":false,"is_disabled":true,"rental_uris":{"android":"levelo://app?vid=a7ec48ba-cda9-462e-ac28-385050afeca3","ios":"levelo://app?vid=a7ec48ba-cda9-462e-ac28-385050afeca3"},"vehicle_type_id":"4","last_reported":1747501693,"current_range_meters":0,"station_id":"ce4bh012rcd13ifvqd00","pricing_plan_id":"cebpf4jnsgd1na2vs0mg"},{"bike_id":"b8e0dbfb-f09f-4382-9d5b-1c0944877941","system_id":"levelo_inurba_marseille","lat":43.28344,"lon":5.38104,"is_reserved":false,"is_disabled":true,"rental_uris":{"android":"levelo://app?vid=b8e0dbfb-f09f-4382-9d5b-1c0944877941","ios":"levelo://app?vid=b8e0dbfb-f09f-4382-9d5b-1c0944877941"},"vehicle_type_id":"4","last_reported":1747501693,"current_range_meters":0,"station_id":"ce4bh412rcd13ifvqdr0","pricing_plan_id":"cebpf4jnsgd1na2vs0mg"},{"bike_id":"c56555b0-2158-4fb7-a6f8-39fd7c6614db","system_id":"levelo_inurba_marseille","lat":43.28425,"lon":5.35001,"is_reserved":false,"is_disabled":true,"rental_uris":{"android":"levelo://app?vid=c56555b0-2158-4fb7-a6f8-39fd7c6614db","ios":"levelo://app?vid=c56555b0-2158-4fb7-a6f8-39fd7c6614db"},"vehicle_type_id":"4","last_reported":1747501693,"current_range_meters":0,"station_id":"ce4bhbh2rcd13ifvqepg","pricing_plan_id":"cebpf4jnsgd1na2vs0mg"},{"bike_id":"3efdc528-d7f6-456a-b60a-a305381a6dc6","system_id":"levelo_inurba_marseille","lat":43.28615,"lon":5.351,"is_reserved":false,"is_disabled":true,"rental_uris":{"android":"levelo://app?vid=3efdc528-d7f6-456a-b60a-a305381a6dc6","ios":"levelo://app?vid=3efdc528-d7f6-456a-b60a-a305381a6dc6"},"vehicle_type_id":"4","last_reported":1747501693,"current_range_meters":0,"station_id":"ce4bhch2rcd13ifvqeug","pricing_plan_id":"cebpf4jnsgd1na2vs0mg"},{"bike_id":"edd0bb48-3551-473c-9c3e-5cf8de9b1d43","system_id":"levelo_inurba_marseille","lat":43.26028,"lon":5.37551,"is_reserved":false,"is_disabled":true,"rental_uris":{"android":"levelo://app?vid=edd0bb48-3551-473c-9c3e-5cf8de9b1d43","ios":"levelo://app?vid=edd0bb48-3551-473c-9c3e-5cf8de9b1d43"},"vehicle_type_id":"4","last_reported":1747501693,"current_range_meters":0,"station_id":"ce4bhgh2rcd13ifvqfa0","pricing_plan_id":"cebpf4jnsgd1na2vs0mg"},{"bike_id":"056a902e-e58e-4865-8c5e-b73d16be5218","system_id":"levelo_inurba_marseille","lat":43.26775,"lon":5.39451,"is_reserved":false,"is_disabled":true,"rental_uris":{"android":"levelo://app?vid=056a902e-e58e-4865-8c5e-b73d16be5218","ios":"levelo://app?vid=056a902e-e58e-4865-8c5e-b73d16be5218"},"vehicle_type_id":"4","last_reported":1747501693,"current_range_meters":0,"station_id":"ce4bhh12rcd13ifvqfg0","pricing_plan_id":"cebpf4jnsgd1na2vs0mg"},{"bike_id":"56417b56-7fdd-4977-b094-4074601f291a","system_id":"levelo_inurba_marseille","lat":43.27204,"lon":5.39201,"is_reserved":false,"is_disabled":true,"rental_uris":{"android":"levelo://app?vid=56417b56-7fdd-4977-b094-4074601f291a","ios":"levelo://app?vid=56417b56-7fdd-4977-b094-4074601f291a"},"vehicle_type_id":"4","last_reported":1747501693,"current_range_meters":0,"station_id":"ce4bhhp2rcd13ifvqfm0","pricing_plan_id":"cebpf4jnsgd1na2vs0mg"},{"bike_id":"bd5ceeb0-edf2-41fb-9e30-cf6350b763fe","system_id":"levelo_inurba_marseille","lat":43.27202,"lon":5.3921,"is_reserved":false,"is_disabled":true,"rental_uris":{"android":"levelo://app?vid=bd5ceeb0-edf2-41fb-9e30-cf6350b763fe","ios":"levelo://app?vid=bd5ceeb0-edf2-41fb-9e30-cf6350b763fe"},"vehicle_type_id":"4","last_reported":1747501693,"current_range_meters":0,"station_id":"ce4bhhp2rcd13ifvqfm0","pricing_plan_id":"cebpf4jnsgd1na2vs0mg"},{"bike_id":"77531a78-702c-4d5b-89bb-6587de1a6d9f","system_id":"levelo_inurba_marseille","lat":43.27659,"lon":5.3891,"is_reserved":false,"is_disabled":true,"rental_uris":{"android":"levelo://app?vid=77531a78-702c-4d5b-89bb-6587de1a6d9f","ios":"levelo://app?vid=77531a78-702c-4d5b-89bb-6587de1a6d9f"},"vehicle_type_id":"4","last_reported":1747501693,"current_range_meters":0,"station_id":"ce4bhi12rcd13ifvqfo0","pricing_plan_id":"cebpf4jnsgd1na2vs0mg"},{"bike_id":"e57bd10d-d67d-4041-8491-3d33057818f6","system_id":"levelo_inurba_marseille","lat":43.25581,"lon":5.38227,"is_reserved":false,"is_disabled":true,"rental_uris":{"android":"levelo://app?vid=e57bd10d-d67d-4041-8491-3d33057818f6","ios":"levelo://app?vid=e57bd10d-d67d-4041-8491-3d33057818f6"},"vehicle_type_id":"4","last_reported":1747501693,"current_range_meters":0,"station_id":"ce4bhih2rcd13ifvqfs0","pricing_plan_id":"cebpf4jnsgd1na2vs0mg"},{"bike_id":"6a5ae94c-4285-4908-9487-0aadd824b18a","system_id":"levelo_inurba_marseille","lat":43.25109,"lon":5.40324,"is_reserved":false,"is_disabled":true,"rental_uris":{"android":"levelo://app?vid=6a5ae94c-4285-4908-9487-0aadd824b18a","ios":"levelo://app?vid=6a5ae94c-4285-4908-9487-0aadd824b18a"},"vehicle_type_id":"4","last_reported":1747501693,"current_range_meters":0,"station_id":"ce4bhlh2rcd13ifvqgig","pricing_plan_id":"cebpf4jnsgd1na2vs0mg"},{"bike_id":"98b8c9da-77e0-4213-bef2-e59272dfbed2","system_id":"levelo_inurba_marseille","lat":43.23147,"lon":5.43728,"is_reserved":false,"is_disabled":true,"rental_uris":{"android":"levelo://app?vid=98b8c9da-77e0-4213-bef2-e59272dfbed2","ios":"levelo://app?vid=98b8c9da-77e0-4213-bef2-e59272dfbed2"},"vehicle_type_id":"4","last_reported":1747501693,"current_range_meters":0,"station_id":"ce4bhmp2rcd13ifvqgog","pricing_plan_id":"cebpf4jnsgd1na2vs0mg"},{"bike_id":"0d5ec5dc-1184-4e2f-b2c9-ab60a3457c0f","system_id":"levelo_inurba_marseille","lat":43.2319,"lon":5.43669,"is_reserved":false,"is_disabled":true,"rental_uris":{"android":"levelo://app?vid=0d5ec5dc-1184-4e2f-b2c9-ab60a3457c0f","ios":"levelo://app?vid=0d5ec5dc-1184-4e2f-b2c9-ab60a3457c0f"},"vehicle_type_id":"4","last_reported":1747501693,"current_range_meters":0,"station_id":"ce4bhmp2rcd13ifvqgog","pricing_plan_id":"cebpf4jnsgd1na2vs0mg"},{"bike_id":"a1c9066c-592b-4af5-9d41-868c49186776","system_id":"levelo_inurba_marseille","lat":43.278253,"lon":5.407027,"is_reserved":false,"is_disabled":true,"rental_uris":{"android":"levelo://app?vid=a1c9066c-592b-4af5-9d41-868c49186776","ios":"levelo://app?vid=a1c9066c-592b-4af5-9d41-868c49186776"},"vehicle_type_id":"4","last_reported":1747501693,"current_range_meters":0,"station_id":"ce4bhnh2rcd13ifvqgtg","pricing_plan_id":"cebpf4jnsgd1na2vs0mg"},{"bike_id":"4e5cfbec-6aac-4ee7-ac9c-110bf218aee5","system_id":"levelo_inurba_marseille","lat":43.28153,"lon":5.42633,"is_reserved":false,"is_disabled":true,"rental_uris":{"android":"levelo://app?vid=4e5cfbec-6aac-4ee7-ac9c-110bf218aee5","ios":"levelo://app?vid=4e5cfbec-6aac-4ee7-ac9c-110bf218aee5"},"vehicle_type_id":"4","last_reported":1747501693,"current_range_meters":0,"station_id":"ce4bhnh2rcd13ifvqgug","pricing_plan_id":"cebpf4jnsgd1na2vs0mg"},{"bike_id":"8dfc7a93-fe59-4dc8-899a-44c379b230b3","system_id":"levelo_inurba_marseille","lat":43.27949,"lon":5.41049,"is_reserved":false,"is_disabled":true,"rental_uris":{"android":"levelo://app?vid=8dfc7a93-fe59-4dc8-899a-44c379b230b3","ios":"levelo://app?vid=8dfc7a93-fe59-4dc8-899a-44c379b230b3"},"vehicle_type_id":"4","last_reported":1747501693,"current_range_meters":0,"station_id":"ce4bhnp2rcd13ifvqh0g","pricing_plan_id":"cebpf4jnsgd1na2vs0mg"},{"bike_id":"2157e5f1-d7c6-4bc3-9f22-02a74b6daaaf","system_id":"levelo_inurba_marseille","lat":43.27959,"lon":5.41036,"is_reserved":false,"is_disabled":true,"rental_uris":{"android":"levelo://app?vid=2157e5f1-d7c6-4bc3-9f22-02a74b6daaaf","ios":"levelo://app?vid=2157e5f1-d7c6-4bc3-9f22-02a74b6daaaf"},"vehicle_type_id":"4","last_reported":1747501693,"current_range_meters":0,"station_id":"ce4bhnp2rcd13ifvqh0g","pricing_plan_id":"cebpf4jnsgd1na2vs0mg"},{"bike_id":"d55315b6-7f96-4c08-92d0-976ca6f43b61","system_id":"levelo_inurba_marseille","lat":43.26946,"lon":5.40259,"is_reserved":false,"is_disabled":true,"rental_uris":{"android":"levelo://app?vid=d55315b6-7f96-4c08-92d0-976ca6f43b61","ios":"levelo://app?vid=d55315b6-7f96-4c08-92d0-976ca6f43b61"},"vehicle_type_id":"4","last_reported":1747501693,"current_range_meters":0,"station_id":"cjm6bp8fraef2m0cb0m0","pricing_plan_id":"cebpf4jnsgd1na2vs0mg"},{"bike_id":"761f97ef-3d44-49e1-a980-dbcf9a00e013","system_id":"levelo_inurba_marseille","lat":43.225148,"lon":5.347778,"is_reserved":false,"is_disabled":true,"rental_uris":{"android":"levelo://app?vid=761f97ef-3d44-49e1-a980-dbcf9a00e013","ios":"levelo://app?vid=761f97ef-3d44-49e1-a980-dbcf9a00e013"},"vehicle_type_id":"4","last_reported":1747501693,"current_range_meters":0,"station_id":"st_cvj5dfep6f1abm77gieg","pricing_plan_id":"cebpf4jnsgd1na2vs0mg"},{"bike_id":"59e33bab-443b-4b82-946a-94b602858b07","system_id":"levelo_inurba_marseille","lat":43.28181,"lon":5.38452,"is_reserved":false,"is_disabled":true,"rental_uris":{"android":"levelo://app?vid=59e33bab-443b-4b82-946a-94b602858b07","ios":"levelo://app?vid=59e33bab-443b-4b82-946a-94b602858b07"},"vehicle_type_id":"4","last_reported":1747501693,"current_range_meters":400,"station_id":"","pricing_plan_id":"cebpf4jnsgd1na2vs0mg"},{"bike_id":"24872082-7f86-4a25-9a79-64ee46d0e13a","system_id":"levelo_inurba_marseille","lat":43.31371,"lon":5.385083,"is_reserved":false,"is_disabled":true,"rental_uris":{"android":"levelo://app?vid=24872082-7f86-4a25-9a79-64ee46d0e13a","ios":"levelo://app?vid=24872082-7f86-4a25-9a79-64ee46d0e13a"},"vehicle_type_id":"4","last_reported":1747501693,"current_range_meters":400,"station_id":"ce4bgt92rcd13ifvqcf0","pricing_plan_id":"cebpf4jnsgd1na2vs0mg"},{"bike_id":"79842b00-96df-4fb6-b6da-9c22b71e810a","system_id":"levelo_inurba_marseille","lat":43.26499,"lon":5.39536,"is_reserved":false,"is_disabled":true,"rental_uris":{"android":"levelo://app?vid=79842b00-96df-4fb6-b6da-9c22b71e810a","ios":"levelo://app?vid=79842b00-96df-4fb6-b6da-9c22b71e810a"},"vehicle_type_id":"4","last_reported":1747501693,"current_range_meters":400,"station_id":"ce4bhi12rcd13ifvqfq0","pricing_plan_id":"cebpf4jnsgd1na2vs0mg"},{"bike_id":"c3838288-29e6-49c2-90ad-767cd717c496","system_id":"levelo_inurba_marseille","lat":43.30333,"lon":5.40423,"is_reserved":false,"is_disabled":true,"rental_uris":{"android":"levelo://app?vid=c3838288-29e6-49c2-90ad-767cd717c496","ios":"levelo://app?vid=c3838288-29e6-49c2-90ad-767cd717c496"},"vehicle_type_id":"4","last_reported":1747501693,"current_range_meters":800,"station_id":"","pricing_plan_id":"cebpf4jnsgd1na2vs0mg"},{"bike_id":"71de4cd8-d535-482a-b323-5c8ae6692e83","system_id":"levelo_inurba_marseille","lat":43.31369,"lon":5.38495,"is_reserved":false,"is_disabled":true,"rental_uris":{"android":"levelo://app?vid=71de4cd8-d535-482a-b323-5c8ae6692e83","ios":"levelo://app?vid=71de4cd8-d535-482a-b323-5c8ae6692e83"},"vehicle_type_id":"4","last_reported":1747501693,"current_range_meters":800,"station_id":"ce4bgt92rcd13ifvqcf0","pricing_plan_id":"cebpf4jnsgd1na2vs0mg"},{"bike_id":"178fa387-c15e-4c32-b6bd-7db313760e99","system_id":"levelo_inurba_marseille","lat":43.31072,"lon":5.38351,"is_reserved":false,"is_disabled":true,"rental_uris":{"android":"levelo://app?vid=178fa387-c15e-4c32-b6bd-7db313760e99","ios":"levelo://app?vid=178fa387-c15e-4c32-b6bd-7db313760e99"},"vehicle_type_id":"4","last_reported":1747501693,"current_range_meters":800,"station_id":"ce4bgv92rcd13ifvqcr0","pricing_plan_id":"cebpf4jnsgd1na2vs0mg"},{"bike_id":"8e5d3b2a-69d8-4f05-bd32-33e6d19bb4e1","system_id":"levelo_inurba_marseille","lat":43.28381,"lon":5.38648,"is_reserved":false,"is_disabled":true,"rental_uris":{"android":"levelo://app?vid=8e5d3b2a-69d8-4f05-bd32-33e6d19bb4e1","ios":"levelo://app?vid=8e5d3b2a-69d8-4f05-bd32-33e6d19bb4e1"},"vehicle_type_id":"4","last_reported":1747501693,"current_range_meters":800,"station_id":"ce4bh492rcd13ifvqdvg","pricing_plan_id":"cebpf4jnsgd1na2vs0mg"},{"bike_id":"a532ec1c-5a75-42a6-a345-3b84e9cc89aa","system_id":"levelo_inurba_marseille","lat":43.28413,"lon":5.34986,"is_reserved":false,"is_disabled":true,"rental_uris":{"android":"levelo://app?vid=a532ec1c-5a75-42a6-a345-3b84e9cc89aa","ios":"levelo://app?vid=a532ec1c-5a75-42a6-a345-3b84e9cc89aa"},"vehicle_type_id":"4","last_reported":1747501693,"current_range_meters":800,"station_id":"ce4bhbh2rcd13ifvqepg","pricing_plan_id":"cebpf4jnsgd1na2vs0mg"},{"bike_id":"5f6aa085-8dd0-43d0-8ca5-dbb3ec26e4f0","system_id":"levelo_inurba_marseille","lat":43.24391,"lon":5.37058,"is_reserved":false,"is_disabled":true,"rental_uris":{"android":"levelo://app?vid=5f6aa085-8dd0-43d0-8ca5-dbb3ec26e4f0","ios":"levelo://app?vid=5f6aa085-8dd0-43d0-8ca5-dbb3ec26e4f0"},"vehicle_type_id":"4","last_reported":1747501693,"current_range_meters":800,"station_id":"ce4bhhh2rcd13ifvqfk0","pricing_plan_id":"cebpf4jnsgd1na2vs0mg"},{"bike_id":"97e547a6-c267-46d9-b61f-c703897e796e","system_id":"levelo_inurba_marseille","lat":43.27192,"lon":5.39176,"is_reserved":false,"is_disabled":true,"rental_uris":{"android":"levelo://app?vid=97e547a6-c267-46d9-b61f-c703897e796e","ios":"levelo://app?vid=97e547a6-c267-46d9-b61f-c703897e796e"},"vehicle_type_id":"4","last_reported":1747501693,"current_range_meters":800,"station_id":"ce4bhhp2rcd13ifvqfm0","pricing_plan_id":"cebpf4jnsgd1na2vs0mg"},{"bike_id":"04b5e1bc-33df-4fd5-a086-d9ac90a057b9","system_id":"levelo_inurba_marseille","lat":43.25827,"lon":5.39436,"is_reserved":false,"is_disabled":true,"rental_uris":{"android":"levelo://app?vid=04b5e1bc-33df-4fd5-a086-d9ac90a057b9","ios":"levelo://app?vid=04b5e1bc-33df-4fd5-a086-d9ac90a057b9"},"vehicle_type_id":"4","last_reported":1747501693,"current_range_meters":800,"station_id":"ce4bhip2rcd13ifvqft0","pricing_plan_id":"cebpf4jnsgd1na2vs0mg"},{"bike_id":"c5029801-2144-4e79-9bc4-5eb7ac729b65","system_id":"levelo_inurba_marseille","lat":43.29845,"lon":5.36278,"is_reserved":false,"is_disabled":true,"rental_uris":{"android":"levelo://app?vid=c5029801-2144-4e79-9bc4-5eb7ac729b65","ios":"levelo://app?vid=c5029801-2144-4e79-9bc4-5eb7ac729b65"},"vehicle_type_id":"4","last_reported":1747501693,"current_range_meters":1200,"station_id":"ce4bgpp2rcd13ifvqc3g","pricing_plan_id":"cebpf4jnsgd1na2vs0mg"},{"bike_id":"caaaacbb-8589-492a-b81c-4abdd6dee246","system_id":"levelo_inurba_marseille","lat":43.28274,"lon":5.35077,"is_reserved":false,"is_disabled":true,"rental_uris":{"android":"levelo://app?vid=caaaacbb-8589-492a-b81c-4abdd6dee246","ios":"levelo://app?vid=caaaacbb-8589-492a-b81c-4abdd6dee246"},"vehicle_type_id":"4","last_reported":1747501693,"current_range_meters":1200,"station_id":"ce4bhbp2rcd13ifvqerg","pricing_plan_id":"cebpf4jnsgd1na2vs0mg"},{"bike_id":"b88f8177-57fa-419d-bf9f-18c5faf14a84","system_id":"levelo_inurba_marseille","lat":43.26556,"lon":5.37279,"is_reserved":false,"is_disabled":true,"rental_uris":{"android":"levelo://app?vid=b88f8177-57fa-419d-bf9f-18c5faf14a84","ios":"levelo://app?vid=b88f8177-57fa-419d-bf9f-18c5faf14a84"},"vehicle_type_id":"4","last_reported":1747501693,"current_range_meters":1200,"station_id":"ce4bhg12rcd13ifvqf70","pricing_plan_id":"cebpf4jnsgd1na2vs0mg"},{"bike_id":"f03cbb86-1380-4293-8567-f7212ddf3dc6","system_id":"levelo_inurba_marseille","lat":43.231669,"lon":5.437153,"is_reserved":false,"is_disabled":true,"rental_uris":{"android":"levelo://app?vid=f03cbb86-1380-4293-8567-f7212ddf3dc6","ios":"levelo://app?vid=f03cbb86-1380-4293-8567-f7212ddf3dc6"},"vehicle_type_id":"4","last_reported":1747501693,"current_range_meters":1200,"station_id":"ce4bhmp2rcd13ifvqgog","pricing_plan_id":"cebpf4jnsgd1na2vs0mg"},{"bike_id":"79014c20-9fb3-4bde-888f-87cd4445595a","system_id":"levelo_inurba_marseille","lat":43.31726,"lon":5.42393,"is_reserved":false,"is_disabled":true,"rental_uris":{"android":"levelo://app?vid=79014c20-9fb3-4bde-888f-87cd4445595a","ios":"levelo://app?vid=79014c20-9fb3-4bde-888f-87cd4445595a"},"vehicle_type_id":"4","last_reported":1747501693,"current_range_meters":1200,"station_id":"ce4bhp92rcd13ifvqhbg","pricing_plan_id":"cebpf4jnsgd1na2vs0mg"},{"bike_id":"5e95c466-178f-4d4d-bbf7-2515dc306a5d","system_id":"levelo_inurba_marseille","lat":43.32368,"lon":5.38888,"is_reserved":false,"is_disabled":true,"rental_uris":{"android":"levelo://app?vid=5e95c466-178f-4d4d-bbf7-2515dc306a5d","ios":"levelo://app?vid=5e95c466-178f-4d4d-bbf7-2515dc306a5d"},"vehicle_type_id":"4","last_reported":1747501693,"current_range_meters":1200,"station_id":"ce4bhqp2rcd13ifvqhog","pricing_plan_id":"cebpf4jnsgd1na2vs0mg"},{"bike_id":"de8d8a19-e4e8-4c2d-9fde-2c416a4c95c4","system_id":"levelo_inurba_marseille","lat":43.28479,"lon":5.38573,"is_reserved":false,"is_disabled":true,"rental_uris":{"android":"levelo://app?vid=de8d8a19-e4e8-4c2d-9fde-2c416a4c95c4","ios":"levelo://app?vid=de8d8a19-e4e8-4c2d-9fde-2c416a4c95c4"},"vehicle_type_id":"4","last_reported":1747501693,"current_range_meters":1600,"station_id":"ce4bh8p2rcd13ifvqeb0","pricing_plan_id":"cebpf4jnsgd1na2vs0mg"},{"bike_id":"4100b0a7-3b21-4f66-879e-01fedce64f9a","system_id":"levelo_inurba_marseille","lat":43.28415,"lon":5.34989,"is_reserved":false,"is_disabled":true,"rental_uris":{"android":"levelo://app?vid=4100b0a7-3b21-4f66-879e-01fedce64f9a","ios":"levelo://app?vid=4100b0a7-3b21-4f66-879e-01fedce64f9a"},"vehicle_type_id":"4","last_reported":1747501693,"current_range_meters":1600,"station_id":"ce4bhbh2rcd13ifvqepg","pricing_plan_id":"cebpf4jnsgd1na2vs0mg"},{"bike_id":"4b166557-b7d3-451e-b60a-282da4a62956","system_id":"levelo_inurba_marseille","lat":43.27972,"lon":5.3874,"is_reserved":false,"is_disabled":true,"rental_uris":{"android":"levelo://app?vid=4b166557-b7d3-451e-b60a-282da4a62956","ios":"levelo://app?vid=4b166557-b7d3-451e-b60a-282da4a62956"},"vehicle_type_id":"4","last_reported":1747501693,"current_range_meters":1600,"station_id":"ce4bhg12rcd13ifvqf80","pricing_plan_id":"cebpf4jnsgd1na2vs0mg"},{"bike_id":"db2cb3b2-256a-41ea-a814-b64e84b50360","system_id":"levelo_inurba_marseille","lat":43.25494,"lon":5.37648,"is_reserved":false,"is_disabled":true,"rental_uris":{"android":"levelo://app?vid=db2cb3b2-256a-41ea-a814-b64e84b50360","ios":"levelo://app?vid=db2cb3b2-256a-41ea-a814-b64e84b50360"},"vehicle_type_id":"4","last_reported":1747501693,"current_range_meters":1600,"station_id":"ce4bhh12rcd13ifvqff0","pricing_plan_id":"cebpf4jnsgd1na2vs0mg"},{"bike_id":"4693a426-d36e-4bb1-9971-e404b61b754e","system_id":"levelo_inurba_marseille","lat":43.26796,"lon":5.39417,"is_reserved":false,"is_disabled":true,"rental_uris":{"android":"levelo://app?vid=4693a426-d36e-4bb1-9971-e404b61b754e","ios":"levelo://app?vid=4693a426-d36e-4bb1-9971-e404b61b754e"},"vehicle_type_id":"4","last_reported":1747501693,"current_range_meters":1600,"station_id":"ce4bhh12rcd13ifvqfg0","pricing_plan_id":"cebpf4jnsgd1na2vs0mg"},{"bike_id":"59f9598d-e110-4192-bc18-7a255f754535","system_id":"levelo_inurba_marseille","lat":43.21755,"lon":5.34602,"is_reserved":false,"is_disabled":true,"rental_uris":{"android":"levelo://app?vid=59f9598d-e110-4192-bc18-7a255f754535","ios":"levelo://app?vid=59f9598d-e110-4192-bc18-7a255f754535"},"vehicle_type_id":"4","last_reported":1747501693,"current_range_meters":1600,"station_id":"st_cvj6r9ubvosntc0bgbag","pricing_plan_id":"cebpf4jnsgd1na2vs0mg"},{"bike_id":"46e9fe67-7a41-4927-982e-de9494141325","system_id":"levelo_inurba_marseille","lat":43.295768,"lon":5.375141,"is_reserved":false,"is_disabled":false,"rental_uris":{"android":"levelo://app?vid=46e9fe67-7a41-4927-982e-de9494141325","ios":"levelo://app?vid=46e9fe67-7a41-4927-982e-de9494141325"},"vehicle_type_id":"4","last_reported":1747501693,"current_range_meters":2000,"station_id":"ce4bgh92rcd13ifvqb50","pricing_plan_id":"cebpf4jnsgd1na2vs0mg"},{"bike_id":"3d81c1f1-50e1-4995-8e4e-08c0ca4f9ce1","system_id":"levelo_inurba_marseille","lat":43.29314,"lon":5.37443,"is_reserved":false,"is_disabled":true,"rental_uris":{"android":"levelo://app?vid=3d81c1f1-50e1-4995-8e4e-08c0ca4f9ce1","ios":"levelo://app?vid=3d81c1f1-50e1-4995-8e4e-08c0ca4f9ce1"},"vehicle_type_id":"4","last_reported":1747501693,"current_range_meters":2000,"station_id":"ce4bgi12rcd13ifvqb70","pricing_plan_id":"cebpf4jnsgd1na2vs0mg"},{"bike_id":"3a20c63d-56b5-43ae-b842-eb3505db16b7","system_id":"levelo_inurba_marseille","lat":43.30189,"lon":5.36611,"is_reserved":false,"is_disabled":true,"rental_uris":{"android":"levelo://app?vid=3a20c63d-56b5-43ae-b842-eb3505db16b7","ios":"levelo://app?vid=3a20c63d-56b5-43ae-b842-eb3505db16b7"},"vehicle_type_id":"4","last_reported":1747501693,"current_range_meters":2000,"station_id":"ce4bgrh2rcd13ifvqc8g","pricing_plan_id":"cebpf4jnsgd1na2vs0mg"},{"bike_id":"19025608-a55f-48d2-9149-fb88c3e13a4c","system_id":"levelo_inurba_marseille","lat":43.30959,"lon":5.39043,"is_reserved":false,"is_disabled":true,"rental_uris":{"android":"levelo://app?vid=19025608-a55f-48d2-9149-fb88c3e13a4c","ios":"levelo://app?vid=19025608-a55f-48d2-9149-fb88c3e13a4c"},"vehicle_type_id":"4","last_reported":1747501693,"current_range_meters":2000,"station_id":"ce4bgup2rcd13ifvqco0","pricing_plan_id":"cebpf4jnsgd1na2vs0mg"},{"bike_id":"be98142e-ab99-4f68-b04a-ff2165061bb2","system_id":"levelo_inurba_marseille","lat":43.26959,"lon":5.38628,"is_reserved":false,"is_disabled":true,"rental_uris":{"android":"levelo://app?vid=be98142e-ab99-4f68-b04a-ff2165061bb2","ios":"levelo://app?vid=be98142e-ab99-4f68-b04a-ff2165061bb2"},"vehicle_type_id":"4","last_reported":1747501693,"current_range_meters":2000,"station_id":"ce4bhh92rcd13ifvqfh0","pricing_plan_id":"cebpf4jnsgd1na2vs0mg"},{"bike_id":"c42cd195-52f3-4a9f-b6b3-9449c698db20","system_id":"levelo_inurba_marseille","lat":43.27665,"lon":5.389237,"is_reserved":false,"is_disabled":true,"rental_uris":{"android":"levelo://app?vid=c42cd195-52f3-4a9f-b6b3-9449c698db20","ios":"levelo://app?vid=c42cd195-52f3-4a9f-b6b3-9449c698db20"},"vehicle_type_id":"4","last_reported":1747501693,"current_range_meters":2000,"station_id":"ce4bhi12rcd13ifvqfo0","pricing_plan_id":"cebpf4jnsgd1na2vs0mg"},{"bike_id":"39f663ba-1318-4d5f-ba97-0055c8c56cae","system_id":"levelo_inurba_marseille","lat":43.27661,"lon":5.38904,"is_reserved":false,"is_disabled":true,"rental_uris":{"android":"levelo://app?vid=39f663ba-1318-4d5f-ba97-0055c8c56cae","ios":"levelo://app?vid=39f663ba-1318-4d5f-ba97-0055c8c56cae"},"vehicle_type_id":"4","last_reported":1747501693,"current_range_meters":2000,"station_id":"ce4bhi12rcd13ifvqfo0","pricing_plan_id":"cebpf4jnsgd1na2vs0mg"},{"bike_id":"c6b342c8-082b-4de1-bddf-9f8ffcac8913","system_id":"levelo_inurba_marseille","lat":43.25578,"lon":5.38253,"is_reserved":false,"is_disabled":true,"rental_uris":{"android":"levelo://app?vid=c6b342c8-082b-4de1-bddf-9f8ffcac8913","ios":"levelo://app?vid=c6b342c8-082b-4de1-bddf-9f8ffcac8913"},"vehicle_type_id":"4","last_reported":1747501693,"current_range_meters":2000,"station_id":"ce4bhih2rcd13ifvqfs0","pricing_plan_id":"cebpf4jnsgd1na2vs0mg"},{"bike_id":"9ab86564-3aee-4bea-8622-626097fed707","system_id":"levelo_inurba_marseille","lat":43.25166,"lon":5.402941,"is_reserved":false,"is_disabled":true,"rental_uris":{"android":"levelo://app?vid=9ab86564-3aee-4bea-8622-626097fed707","ios":"levelo://app?vid=9ab86564-3aee-4bea-8622-626097fed707"},"vehicle_type_id":"4","last_reported":1747501693,"current_range_meters":2000,"station_id":"ce4bhlh2rcd13ifvqgig","pricing_plan_id":"cebpf4jnsgd1na2vs0mg"},{"bike_id":"ef947622-ce9d-41d0-97f9-850dbe58510a","system_id":"levelo_inurba_marseille","lat":43.30147,"lon":5.38081,"is_reserved":false,"is_disabled":false,"rental_uris":{"android":"levelo://app?vid=ef947622-ce9d-41d0-97f9-850dbe58510a","ios":"levelo://app?vid=ef947622-ce9d-41d0-97f9-850dbe58510a"},"vehicle_type_id":"4","last_reported":1747501693,"current_range_meters":2800,"station_id":"ce4bgjp2rcd13ifvqbh0","pricing_plan_id":"cebpf4jnsgd1na2vs0mg"},{"bike_id":"f22c4869-363e-425f-bdc5-d649a19a81e6","system_id":"levelo_inurba_marseille","lat":43.28038,"lon":5.36951,"is_reserved":false,"is_disabled":false,"rental_uris":{"android":"levelo://app?vid=f22c4869-363e-425f-bdc5-d649a19a81e6","ios":"levelo://app?vid=f22c4869-363e-425f-bdc5-d649a19a81e6"},"vehicle_type_id":"4","last_reported":1747501693,"current_range_meters":2800,"station_id":"ce4bha12rcd13ifvqef0","pricing_plan_id":"cebpf4jnsgd1na2vs0mg"},{"bike_id":"15bdb2cb-60a0-4c42-8c18-0e6826a8f67b","system_id":"levelo_inurba_marseille","lat":43.27439,"lon":5.39409,"is_reserved":false,"is_disabled":false,"rental_uris":{"android":"levelo://app?vid=15bdb2cb-60a0-4c42-8c18-0e6826a8f67b","ios":"levelo://app?vid=15bdb2cb-60a0-4c42-8c18-0e6826a8f67b"},"vehicle_type_id":"4","last_reported":1747501693,"current_range_meters":2800,"station_id":"ce4bhdp2rcd13ifvqf20","pricing_plan_id":"cebpf4jnsgd1na2vs0mg"},{"bike_id":"7f6fcbb9-722c-4722-ac3c-23d7641aedac","system_id":"levelo_inurba_marseille","lat":43.31884,"lon":5.40737,"is_reserved":false,"is_disabled":false,"rental_uris":{"android":"levelo://app?vid=7f6fcbb9-722c-4722-ac3c-23d7641aedac","ios":"levelo://app?vid=7f6fcbb9-722c-4722-ac3c-23d7641aedac"},"vehicle_type_id":"4","last_reported":1747501693,"current_range_meters":2800,"station_id":"ce4bhq12rcd13ifvqhig","pricing_plan_id":"cebpf4jnsgd1na2vs0mg"},{"bike_id":"5bf5dad3-56f5-48d4-a1b8-5850584bb5ee","system_id":"levelo_inurba_marseille","lat":43.29781,"lon":5.37109,"is_reserved":false,"is_disabled":false,"rental_uris":{"android":"levelo://app?vid=5bf5dad3-56f5-48d4-a1b8-5850584bb5ee","ios":"levelo://app?vid=5bf5dad3-56f5-48d4-a1b8-5850584bb5ee"},"vehicle_type_id":"4","last_reported":1747501693,"current_range_meters":3200,"station_id":"ce4bgop2rcd13ifvqc1g","pricing_plan_id":"cebpf4jnsgd1na2vs0mg"},{"bike_id":"1f4ef3bb-f7fb-4226-9414-35616d76cf47","system_id":"levelo_inurba_marseille","lat":43.3136,"lon":5.38485,"is_reserved":false,"is_disabled":false,"rental_uris":{"android":"levelo://app?vid=1f4ef3bb-f7fb-4226-9414-35616d76cf47","ios":"levelo://app?vid=1f4ef3bb-f7fb-4226-9414-35616d76cf47"},"vehicle_type_id":"4","last_reported":1747501693,"current_range_meters":3200,"station_id":"ce4bgt92rcd13ifvqcf0","pricing_plan_id":"cebpf4jnsgd1na2vs0mg"},{"bike_id":"520b4491-1040-472f-86c0-f26ba1d23e5b","system_id":"levelo_inurba_marseille","lat":43.26575,"lon":5.39028,"is_reserved":false,"is_disabled":false,"rental_uris":{"android":"levelo://app?vid=520b4491-1040-472f-86c0-f26ba1d23e5b","ios":"levelo://app?vid=520b4491-1040-472f-86c0-f26ba1d23e5b"},"vehicle_type_id":"4","last_reported":1747501693,"current_range_meters":3200,"station_id":"ce4bhe12rcd13ifvqf30","pricing_plan_id":"cebpf4jnsgd1na2vs0mg"},{"bike_id":"ae2e8f51-f1a2-4c28-a947-eb52d6401759","system_id":"levelo_inurba_marseille","lat":43.27575,"lon":5.38449,"is_reserved":false,"is_disabled":false,"rental_uris":{"android":"levelo://app?vid=ae2e8f51-f1a2-4c28-a947-eb52d6401759","ios":"levelo://app?vid=ae2e8f51-f1a2-4c28-a947-eb52d6401759"},"vehicle_type_id":"4","last_reported":1747501693,"current_range_meters":3200,"station_id":"ce4bhh92rcd13ifvqfi0","pricing_plan_id":"cebpf4jnsgd1na2vs0mg"},{"bike_id":"6fec4a31-33a9-4830-ab8b-2a848d2372b2","system_id":"levelo_inurba_marseille","lat":43.27175,"lon":5.4099,"is_reserved":false,"is_disabled":false,"rental_uris":{"android":"levelo://app?vid=6fec4a31-33a9-4830-ab8b-2a848d2372b2","ios":"levelo://app?vid=6fec4a31-33a9-4830-ab8b-2a848d2372b2"},"vehicle_type_id":"4","last_reported":1747501693,"current_range_meters":3200,"station_id":"ce4bhl12rcd13ifvqgf0","pricing_plan_id":"cebpf4jnsgd1na2vs0mg"},{"bike_id":"59934285-0787-4cd4-88d1-3f935f1d5a3b","system_id":"levelo_inurba_marseille","lat":43.25484,"lon":5.40481,"is_reserved":false,"is_disabled":false,"rental_uris":{"android":"levelo://app?vid=59934285-0787-4cd4-88d1-3f935f1d5a3b","ios":"levelo://app?vid=59934285-0787-4cd4-88d1-3f935f1d5a3b"},"vehicle_type_id":"4","last_reported":1747501693,"current_range_meters":3600,"station_id":"","pricing_plan_id":"cebpf4jnsgd1na2vs0mg"},{"bike_id":"5ef1f64f-d2af-42da-b3f8-b2fa63a5056f","system_id":"levelo_inurba_marseille","lat":43.296204,"lon":5.372589,"is_reserved":false,"is_disabled":false,"rental_uris":{"android":"levelo://app?vid=5ef1f64f-d2af-42da-b3f8-b2fa63a5056f","ios":"levelo://app?vid=5ef1f64f-d2af-42da-b3f8-b2fa63a5056f"},"vehicle_type_id":"4","last_reported":1747501693,"current_range_meters":3600,"station_id":"ce4bgnh2rcd13ifvqc0g","pricing_plan_id":"cebpf4jnsgd1na2vs0mg"},{"bike_id":"57a603a2-5634-444b-ac16-8d71d3fac64d","system_id":"levelo_inurba_marseille","lat":43.2963,"lon":5.406,"is_reserved":false,"is_disabled":false,"rental_uris":{"android":"levelo://app?vid=57a603a2-5634-444b-ac16-8d71d3fac64d","ios":"levelo://app?vid=57a603a2-5634-444b-ac16-8d71d3fac64d"},"vehicle_type_id":"4","last_reported":1747501693,"current_range_meters":3600,"station_id":"ce4bh0h2rcd13ifvqd60","pricing_plan_id":"cebpf4jnsgd1na2vs0mg"},{"bike_id":"1118f31d-0321-421a-affd-8b8b4313572e","system_id":"levelo_inurba_marseille","lat":43.29004,"lon":5.35614,"is_reserved":false,"is_disabled":false,"rental_uris":{"android":"levelo://app?vid=1118f31d-0321-421a-affd-8b8b4313572e","ios":"levelo://app?vid=1118f31d-0321-421a-affd-8b8b4313572e"},"vehicle_type_id":"4","last_reported":1747501693,"current_range_meters":3600,"station_id":"ce4bhb92rcd13ifvqen0","pricing_plan_id":"cebpf4jnsgd1na2vs0mg"},{"bike_id":"dea735a9-73da-4773-9af4-ce045bb5cf04","system_id":"levelo_inurba_marseille","lat":43.25252,"lon":5.375943,"is_reserved":false,"is_disabled":false,"rental_uris":{"android":"levelo://app?vid=dea735a9-73da-4773-9af4-ce045bb5cf04","ios":"levelo://app?vid=dea735a9-73da-4773-9af4-ce045bb5cf04"},"vehicle_type_id":"4","last_reported":1747501693,"current_range_meters":3600,"station_id":"ce4bhgh2rcd13ifvqfb0","pricing_plan_id":"cebpf4jnsgd1na2vs0mg"},{"bike_id":"3d98a4f8-43d2-48a6-8ca1-ce282c98595e","system_id":"levelo_inurba_marseille","lat":43.30421,"lon":5.38886,"is_reserved":false,"is_disabled":false,"rental_uris":{"android":"levelo://app?vid=3d98a4f8-43d2-48a6-8ca1-ce282c98595e","ios":"levelo://app?vid=3d98a4f8-43d2-48a6-8ca1-ce282c98595e"},"vehicle_type_id":"4","last_reported":1747501693,"current_range_meters":4000,"station_id":"ce4bgk12rcd13ifvqbi0","pricing_plan_id":"cebpf4jnsgd1na2vs0mg"},{"bike_id":"bacf5afe-3204-4209-b2ec-3b5a177aef39","system_id":"levelo_inurba_marseille","lat":43.295824,"lon":5.367357,"is_reserved":false,"is_disabled":false,"rental_uris":{"android":"levelo://app?vid=bacf5afe-3204-4209-b2ec-3b5a177aef39","ios":"levelo://app?vid=bacf5afe-3204-4209-b2ec-3b5a177aef39"},"vehicle_type_id":"4","last_reported":1747501693,"current_range_meters":4000,"station_id":"ce4bgph2rcd13ifvqc2g","pricing_plan_id":"cebpf4jnsgd1na2vs0mg"},{"bike_id":"50bbddd4-3f16-4440-8cd7-cd6374368314","system_id":"levelo_inurba_marseille","lat":43.26015,"lon":5.37555,"is_reserved":false,"is_disabled":false,"rental_uris":{"android":"levelo://app?vid=50bbddd4-3f16-4440-8cd7-cd6374368314","ios":"levelo://app?vid=50bbddd4-3f16-4440-8cd7-cd6374368314"},"vehicle_type_id":"4","last_reported":1747501693,"current_range_meters":4000,"station_id":"ce4bhgh2rcd13ifvqfa0","pricing_plan_id":"cebpf4jnsgd1na2vs0mg"},{"bike_id":"7cd6de49-70ac-4a21-a03a-657a3a0b8644","system_id":"levelo_inurba_marseille","lat":43.27322,"lon":5.39112,"is_reserved":false,"is_disabled":false,"rental_uris":{"android":"levelo://app?vid=7cd6de49-70ac-4a21-a03a-657a3a0b8644","ios":"levelo://app?vid=7cd6de49-70ac-4a21-a03a-657a3a0b8644"},"vehicle_type_id":"4","last_reported":1747501693,"current_range_meters":4000,"station_id":"ce4bhgp2rcd13ifvqfe0","pricing_plan_id":"cebpf4jnsgd1na2vs0mg"},{"bike_id":"ab1904d4-31f6-4d30-bad4-6636770922e7","system_id":"levelo_inurba_marseille","lat":43.26811,"lon":5.39402,"is_reserved":false,"is_disabled":false,"rental_uris":{"android":"levelo://app?vid=ab1904d4-31f6-4d30-bad4-6636770922e7","ios":"levelo://app?vid=ab1904d4-31f6-4d30-bad4-6636770922e7"},"vehicle_type_id":"4","last_reported":1747501693,"current_range_meters":4000,"station_id":"ce4bhh12rcd13ifvqfg0","pricing_plan_id":"cebpf4jnsgd1na2vs0mg"},{"bike_id":"547f3f82-ba1b-4520-b634-adf098624e39","system_id":"levelo_inurba_marseille","lat":43.27203,"lon":5.39173,"is_reserved":false,"is_disabled":false,"rental_uris":{"android":"levelo://app?vid=547f3f82-ba1b-4520-b634-adf098624e39","ios":"levelo://app?vid=547f3f82-ba1b-4520-b634-adf098624e39"},"vehicle_type_id":"4","last_reported":1747501693,"current_range_meters":4000,"station_id":"ce4bhhp2rcd13ifvqfm0","pricing_plan_id":"cebpf4jnsgd1na2vs0mg"},{"bike_id":"1f4422f0-225a-46a9-be11-cd78e15d00e4","system_id":"levelo_inurba_marseille","lat":43.297729,"lon":5.393226,"is_reserved":false,"is_disabled":false,"rental_uris":{"android":"levelo://app?vid=1f4422f0-225a-46a9-be11-cd78e15d00e4","ios":"levelo://app?vid=1f4422f0-225a-46a9-be11-cd78e15d00e4"},"vehicle_type_id":"4","last_reported":1747501693,"current_range_meters":4000,"station_id":"chh1huq6cuj3fo74tm60","pricing_plan_id":"cebpf4jnsgd1na2vs0mg"},{"bike_id":"e1ef5517-213e-4b2f-aa27-26a7936c53d4","system_id":"levelo_inurba_marseille","lat":43.297258,"lon":5.36614,"is_reserved":false,"is_disabled":false,"rental_uris":{"android":"levelo://app?vid=e1ef5517-213e-4b2f-aa27-26a7936c53d4","ios":"levelo://app?vid=e1ef5517-213e-4b2f-aa27-26a7936c53d4"},"vehicle_type_id":"4","last_reported":1747501693,"current_range_meters":4400,"station_id":"ce4bgn12rcd13ifvqbt0","pricing_plan_id":"cebpf4jnsgd1na2vs0mg"},{"bike_id":"4b5eafb4-9a3c-4583-8f12-6250fb35c2bc","system_id":"levelo_inurba_marseille","lat":43.31356,"lon":5.38491,"is_reserved":false,"is_disabled":false,"rental_uris":{"android":"levelo://app?vid=4b5eafb4-9a3c-4583-8f12-6250fb35c2bc","ios":"levelo://app?vid=4b5eafb4-9a3c-4583-8f12-6250fb35c2bc"},"vehicle_type_id":"4","last_reported":1747501693,"current_range_meters":4400,"station_id":"ce4bgt92rcd13ifvqcf0","pricing_plan_id":"cebpf4jnsgd1na2vs0mg"},{"bike_id":"99d82738-4e6d-4a8a-a124-3dda0cba04c9","system_id":"levelo_inurba_marseille","lat":43.27979,"lon":5.38788,"is_reserved":false,"is_disabled":false,"rental_uris":{"android":"levelo://app?vid=99d82738-4e6d-4a8a-a124-3dda0cba04c9","ios":"levelo://app?vid=99d82738-4e6d-4a8a-a124-3dda0cba04c9"},"vehicle_type_id":"4","last_reported":1747501693,"current_range_meters":4400,"station_id":"ce4bhg12rcd13ifvqf80","pricing_plan_id":"cebpf4jnsgd1na2vs0mg"},{"bike_id":"ddd9ccea-3fd7-4a8e-8cfb-69c6998ad9cd","system_id":"levelo_inurba_marseille","lat":43.27211,"lon":5.39175,"is_reserved":false,"is_disabled":false,"rental_uris":{"android":"levelo://app?vid=ddd9ccea-3fd7-4a8e-8cfb-69c6998ad9cd","ios":"levelo://app?vid=ddd9ccea-3fd7-4a8e-8cfb-69c6998ad9cd"},"vehicle_type_id":"4","last_reported":1747501693,"current_range_meters":4400,"station_id":"ce4bhhp2rcd13ifvqfm0","pricing_plan_id":"cebpf4jnsgd1na2vs0mg"},{"bike_id":"0c2144a1-6c5e-4f79-83c9-12ef8e7108d8","system_id":"levelo_inurba_marseille","lat":43.26962,"lon":5.40244,"is_reserved":false,"is_disabled":false,"rental_uris":{"android":"levelo://app?vid=0c2144a1-6c5e-4f79-83c9-12ef8e7108d8","ios":"levelo://app?vid=0c2144a1-6c5e-4f79-83c9-12ef8e7108d8"},"vehicle_type_id":"4","last_reported":1747501693,"current_range_meters":4400,"station_id":"cjm6bp8fraef2m0cb0m0","pricing_plan_id":"cebpf4jnsgd1na2vs0mg"},{"bike_id":"cce99b32-62c2-4674-a812-a8eaf22ff25d","system_id":"levelo_inurba_marseille","lat":43.3043,"lon":5.38894,"is_reserved":false,"is_disabled":false,"rental_uris":{"android":"levelo://app?vid=cce99b32-62c2-4674-a812-a8eaf22ff25d","ios":"levelo://app?vid=cce99b32-62c2-4674-a812-a8eaf22ff25d"},"vehicle_type_id":"4","last_reported":1747501693,"current_range_meters":4800,"station_id":"ce4bgk12rcd13ifvqbi0","pricing_plan_id":"cebpf4jnsgd1na2vs0mg"},{"bike_id":"39ab4010-8b87-4c58-b9a3-a1f8002d5826","system_id":"levelo_inurba_marseille","lat":43.23194,"lon":5.35552,"is_reserved":false,"is_disabled":false,"rental_uris":{"android":"levelo://app?vid=39ab4010-8b87-4c58-b9a3-a1f8002d5826","ios":"levelo://app?vid=39ab4010-8b87-4c58-b9a3-a1f8002d5826"},"vehicle_type_id":"4","last_reported":1747501693,"current_range_meters":4800,"station_id":"ce4bhu92rcd13ifvqi70","pricing_plan_id":"cebpf4jnsgd1na2vs0mg"},{"bike_id":"ed8bfdc4-c902-4edc-a5ed-735f50e8de20","system_id":"levelo_inurba_marseille","lat":43.29504,"lon":5.38538,"is_reserved":false,"is_disabled":false,"rental_uris":{"android":"levelo://app?vid=ed8bfdc4-c902-4edc-a5ed-735f50e8de20","ios":"levelo://app?vid=ed8bfdc4-c902-4edc-a5ed-735f50e8de20"},"vehicle_type_id":"4","last_reported":1747501693,"current_range_meters":5600,"station_id":"ce4bgih2rcd13ifvqba0","pricing_plan_id":"cebpf4jnsgd1na2vs0mg"},{"bike_id":"dd91789a-f36d-4b99-97f8-a2e77ad52c65","system_id":"levelo_inurba_marseille","lat":43.27975,"lon":5.38745,"is_reserved":false,"is_disabled":false,"rental_uris":{"android":"levelo://app?vid=dd91789a-f36d-4b99-97f8-a2e77ad52c65","ios":"levelo://app?vid=dd91789a-f36d-4b99-97f8-a2e77ad52c65"},"vehicle_type_id":"4","last_reported":1747501693,"current_range_meters":5600,"station_id":"ce4bhg12rcd13ifvqf80","pricing_plan_id":"cebpf4jnsgd1na2vs0mg"},{"bike_id":"79008b60-4fda-4f37-b8a2-b70aecca5af7","system_id":"levelo_inurba_marseille","lat":43.23179,"lon":5.3999,"is_reserved":false,"is_disabled":false,"rental_uris":{"android":"levelo://app?vid=79008b60-4fda-4f37-b8a2-b70aecca5af7","ios":"levelo://app?vid=79008b60-4fda-4f37-b8a2-b70aecca5af7"},"vehicle_type_id":"4","last_reported":1747501693,"current_range_meters":5600,"station_id":"ce4bhn12rcd13ifvqgqg","pricing_plan_id":"cebpf4jnsgd1na2vs0mg"},{"bike_id":"c00f6690-f2af-48b2-a508-4236ca115e36","system_id":"levelo_inurba_marseille","lat":43.29041,"lon":5.39958,"is_reserved":false,"is_disabled":false,"rental_uris":{"android":"levelo://app?vid=c00f6690-f2af-48b2-a508-4236ca115e36","ios":"levelo://app?vid=c00f6690-f2af-48b2-a508-4236ca115e36"},"vehicle_type_id":"4","last_reported":1747501693,"current_range_meters":6000,"station_id":"ce4bh392rcd13ifvqdm0","pricing_plan_id":"cebpf4jnsgd1na2vs0mg"},{"bike_id":"5fe9e359-2f44-4dce-b39f-2f036d298839","system_id":"levelo_inurba_marseille","lat":43.283661,"lon":5.386442,"is_reserved":false,"is_disabled":false,"rental_uris":{"android":"levelo://app?vid=5fe9e359-2f44-4dce-b39f-2f036d298839","ios":"levelo://app?vid=5fe9e359-2f44-4dce-b39f-2f036d298839"},"vehicle_type_id":"4","last_reported":1747501693,"current_range_meters":6000,"station_id":"ce4bh492rcd13ifvqdvg","pricing_plan_id":"cebpf4jnsgd1na2vs0mg"},{"bike_id":"9d3a1f9e-691d-4354-b5bd-adc20958eb72","system_id":"levelo_inurba_marseille","lat":43.28611,"lon":5.3707,"is_reserved":false,"is_disabled":false,"rental_uris":{"android":"levelo://app?vid=9d3a1f9e-691d-4354-b5bd-adc20958eb72","ios":"levelo://app?vid=9d3a1f9e-691d-4354-b5bd-adc20958eb72"},"vehicle_type_id":"4","last_reported":1747501693,"current_range_meters":6000,"station_id":"ce4bht12rcd13ifvqi60","pricing_plan_id":"cebpf4jnsgd1na2vs0mg"},{"bike_id":"0390d809-9393-482c-b3c5-bf6e57a8f578","system_id":"levelo_inurba_marseille","lat":43.29858,"lon":5.36268,"is_reserved":false,"is_disabled":false,"rental_uris":{"android":"levelo://app?vid=0390d809-9393-482c-b3c5-bf6e57a8f578","ios":"levelo://app?vid=0390d809-9393-482c-b3c5-bf6e57a8f578"},"vehicle_type_id":"4","last_reported":1747501693,"current_range_meters":6400,"station_id":"ce4bgpp2rcd13ifvqc3g","pricing_plan_id":"cebpf4jnsgd1na2vs0mg"},{"bike_id":"10f0e90f-30fd-43a9-9eda-d70b32e51d4a","system_id":"levelo_inurba_marseille","lat":43.31166,"lon":5.38706,"is_reserved":false,"is_disabled":false,"rental_uris":{"android":"levelo://app?vid=10f0e90f-30fd-43a9-9eda-d70b32e51d4a","ios":"levelo://app?vid=10f0e90f-30fd-43a9-9eda-d70b32e51d4a"},"vehicle_type_id":"4","last_reported":1747501693,"current_range_meters":6400,"station_id":"ce4bgv12rcd13ifvqcp0","pricing_plan_id":"cebpf4jnsgd1na2vs0mg"},{"bike_id":"69eee504-4b3c-495e-968d-734a9614799c","system_id":"levelo_inurba_marseille","lat":43.30644,"lon":5.40085,"is_reserved":false,"is_disabled":false,"rental_uris":{"android":"levelo://app?vid=69eee504-4b3c-495e-968d-734a9614799c","ios":"levelo://app?vid=69eee504-4b3c-495e-968d-734a9614799c"},"vehicle_type_id":"4","last_reported":1747501693,"current_range_meters":6400,"station_id":"ce4bh112rcd13ifvqda0","pricing_plan_id":"cebpf4jnsgd1na2vs0mg"},{"bike_id":"aab21fbf-d75f-4e05-b8b1-c66c0f44ff23","system_id":"levelo_inurba_marseille","lat":43.2918,"lon":5.357937,"is_reserved":false,"is_disabled":false,"rental_uris":{"android":"levelo://app?vid=aab21fbf-d75f-4e05-b8b1-c66c0f44ff23","ios":"levelo://app?vid=aab21fbf-d75f-4e05-b8b1-c66c0f44ff23"},"vehicle_type_id":"4","last_reported":1747501693,"current_range_meters":6400,"station_id":"ce4bhb12rcd13ifvqel0","pricing_plan_id":"cebpf4jnsgd1na2vs0mg"},{"bike_id":"93e2466e-eae0-478c-bcab-c3acd632c5d4","system_id":"levelo_inurba_marseille","lat":43.25871,"lon":5.399,"is_reserved":false,"is_disabled":false,"rental_uris":{"android":"levelo://app?vid=93e2466e-eae0-478c-bcab-c3acd632c5d4","ios":"levelo://app?vid=93e2466e-eae0-478c-bcab-c3acd632c5d4"},"vehicle_type_id":"4","last_reported":1747501693,"current_range_meters":6400,"station_id":"ce4bhl92rcd13ifvqghg","pricing_plan_id":"cebpf4jnsgd1na2vs0mg"},{"bike_id":"fc21894f-cf00-4fb7-89b3-490da9657dda","system_id":"levelo_inurba_marseille","lat":43.232,"lon":5.3555,"is_reserved":false,"is_disabled":false,"rental_uris":{"android":"levelo://app?vid=fc21894f-cf00-4fb7-89b3-490da9657dda","ios":"levelo://app?vid=fc21894f-cf00-4fb7-89b3-490da9657dda"},"vehicle_type_id":"4","last_reported":1747501693,"current_range_meters":6400,"station_id":"ce4bhu92rcd13ifvqi70","pricing_plan_id":"cebpf4jnsgd1na2vs0mg"},{"bike_id":"6e612e7b-28be-478c-9618-97651a5de57b","system_id":"levelo_inurba_marseille","lat":43.24648,"lon":5.39541,"is_reserved":false,"is_disabled":false,"rental_uris":{"android":"levelo://app?vid=6e612e7b-28be-478c-9618-97651a5de57b","ios":"levelo://app?vid=6e612e7b-28be-478c-9618-97651a5de57b"},"vehicle_type_id":"4","last_reported":1747501693,"current_range_meters":6800,"station_id":"","pricing_plan_id":"cebpf4jnsgd1na2vs0mg"},{"bike_id":"09f1078f-1db5-4cd5-8a67-364fc4412b04","system_id":"levelo_inurba_marseille","lat":43.29591,"lon":5.38104,"is_reserved":false,"is_disabled":false,"rental_uris":{"android":"levelo://app?vid=09f1078f-1db5-4cd5-8a67-364fc4412b04","ios":"levelo://app?vid=09f1078f-1db5-4cd5-8a67-364fc4412b04"},"vehicle_type_id":"4","last_reported":1747501693,"current_range_meters":6800,"station_id":"ce4bgl12rcd13ifvqbo0","pricing_plan_id":"cebpf4jnsgd1na2vs0mg"},{"bike_id":"6a4abd9f-a0b2-44cb-887b-ada3a1dd2658","system_id":"levelo_inurba_marseille","lat":43.29845,"lon":5.36273,"is_reserved":false,"is_disabled":false,"rental_uris":{"android":"levelo://app?vid=6a4abd9f-a0b2-44cb-887b-ada3a1dd2658","ios":"levelo://app?vid=6a4abd9f-a0b2-44cb-887b-ada3a1dd2658"},"vehicle_type_id":"4","last_reported":1747501693,"current_range_meters":6800,"station_id":"ce4bgpp2rcd13ifvqc3g","pricing_plan_id":"cebpf4jnsgd1na2vs0mg"},{"bike_id":"66a43757-335b-430c-bbf1-1ffd50fa4679","system_id":"levelo_inurba_marseille","lat":43.311765,"lon":5.387162,"is_reserved":false,"is_disabled":false,"rental_uris":{"android":"levelo://app?vid=66a43757-335b-430c-bbf1-1ffd50fa4679","ios":"levelo://app?vid=66a43757-335b-430c-bbf1-1ffd50fa4679"},"vehicle_type_id":"4","last_reported":1747501693,"current_range_meters":6800,"station_id":"ce4bgv12rcd13ifvqcp0","pricing_plan_id":"cebpf4jnsgd1na2vs0mg"},{"bike_id":"87c384e1-d154-41e4-974a-db447154cf16","system_id":"levelo_inurba_marseille","lat":43.28933,"lon":5.38398,"is_reserved":false,"is_disabled":false,"rental_uris":{"android":"levelo://app?vid=87c384e1-d154-41e4-974a-db447154cf16","ios":"levelo://app?vid=87c384e1-d154-41e4-974a-db447154cf16"},"vehicle_type_id":"4","last_reported":1747501693,"current_range_meters":6800,"station_id":"ce4bh612rcd13ifvqe6g","pricing_plan_id":"cebpf4jnsgd1na2vs0mg"},{"bike_id":"e42e438a-b760-4541-942c-446b90a2579a","system_id":"levelo_inurba_marseille","lat":43.27208,"lon":5.39188,"is_reserved":false,"is_disabled":false,"rental_uris":{"android":"levelo://app?vid=e42e438a-b760-4541-942c-446b90a2579a","ios":"levelo://app?vid=e42e438a-b760-4541-942c-446b90a2579a"},"vehicle_type_id":"4","last_reported":1747501693,"current_range_meters":6800,"station_id":"ce4bhhp2rcd13ifvqfm0","pricing_plan_id":"cebpf4jnsgd1na2vs0mg"},{"bike_id":"3c776350-fb15-460e-bd00-414f3c82fcae","system_id":"levelo_inurba_marseille","lat":43.25126,"lon":5.403284,"is_reserved":false,"is_disabled":false,"rental_uris":{"android":"levelo://app?vid=3c776350-fb15-460e-bd00-414f3c82fcae","ios":"levelo://app?vid=3c776350-fb15-460e-bd00-414f3c82fcae"},"vehicle_type_id":"4","last_reported":1747501693,"current_range_meters":6800,"station_id":"ce4bhlh2rcd13ifvqgig","pricing_plan_id":"cebpf4jnsgd1na2vs0mg"},{"bike_id":"33bab87c-c9f7-4898-908e-db2e61f4a98e","system_id":"levelo_inurba_marseille","lat":43.28159,"lon":5.42639,"is_reserved":false,"is_disabled":false,"rental_uris":{"android":"levelo://app?vid=33bab87c-c9f7-4898-908e-db2e61f4a98e","ios":"levelo://app?vid=33bab87c-c9f7-4898-908e-db2e61f4a98e"},"vehicle_type_id":"4","last_reported":1747501693,"current_range_meters":6800,"station_id":"ce4bhnh2rcd13ifvqgug","pricing_plan_id":"cebpf4jnsgd1na2vs0mg"},{"bike_id":"6f0eb859-c354-4ec9-9ed0-fc59fdc99960","system_id":"levelo_inurba_marseille","lat":43.31717,"lon":5.42401,"is_reserved":false,"is_disabled":false,"rental_uris":{"android":"levelo://app?vid=6f0eb859-c354-4ec9-9ed0-fc59fdc99960","ios":"levelo://app?vid=6f0eb859-c354-4ec9-9ed0-fc59fdc99960"},"vehicle_type_id":"4","last_reported":1747501693,"current_range_meters":6800,"station_id":"ce4bhp92rcd13ifvqhbg","pricing_plan_id":"cebpf4jnsgd1na2vs0mg"},{"bike_id":"6cd5c425-f8ac-4068-b8ea-a8bfbef29ee5","system_id":"levelo_inurba_marseille","lat":43.249984,"lon":5.379482,"is_reserved":false,"is_disabled":false,"rental_uris":{"android":"levelo://app?vid=6cd5c425-f8ac-4068-b8ea-a8bfbef29ee5","ios":"levelo://app?vid=6cd5c425-f8ac-4068-b8ea-a8bfbef29ee5"},"vehicle_type_id":"4","last_reported":1747501693,"current_range_meters":7200,"station_id":"","pricing_plan_id":"cebpf4jnsgd1na2vs0mg"},{"bike_id":"4c3b34ac-0a0e-473f-b7fa-9dd07e85a88b","system_id":"levelo_inurba_marseille","lat":43.28038,"lon":5.36951,"is_reserved":false,"is_disabled":false,"rental_uris":{"android":"levelo://app?vid=4c3b34ac-0a0e-473f-b7fa-9dd07e85a88b","ios":"levelo://app?vid=4c3b34ac-0a0e-473f-b7fa-9dd07e85a88b"},"vehicle_type_id":"4","last_reported":1747501693,"current_range_meters":7200,"station_id":"","pricing_plan_id":"cebpf4jnsgd1na2vs0mg"},{"bike_id":"c03f5262-e692-48b4-9ac1-0f046204a813","system_id":"levelo_inurba_marseille","lat":43.28571,"lon":5.39502,"is_reserved":false,"is_disabled":false,"rental_uris":{"android":"levelo://app?vid=c03f5262-e692-48b4-9ac1-0f046204a813","ios":"levelo://app?vid=c03f5262-e692-48b4-9ac1-0f046204a813"},"vehicle_type_id":"4","last_reported":1747501693,"current_range_meters":7200,"station_id":"ce4bh292rcd13ifvqdg0","pricing_plan_id":"cebpf4jnsgd1na2vs0mg"},{"bike_id":"a8254a85-ce7f-450e-838a-87d02721207d","system_id":"levelo_inurba_marseille","lat":43.241813,"lon":5.397347,"is_reserved":false,"is_disabled":false,"rental_uris":{"android":"levelo://app?vid=a8254a85-ce7f-450e-838a-87d02721207d","ios":"levelo://app?vid=a8254a85-ce7f-450e-838a-87d02721207d"},"vehicle_type_id":"4","last_reported":1747501693,"current_range_meters":7200,"station_id":"ce4bhn12rcd13ifvqgpg","pricing_plan_id":"cebpf4jnsgd1na2vs0mg"},{"bike_id":"7c75e111-8800-4ff6-a5e9-4fbe05a018a0","system_id":"levelo_inurba_marseille","lat":43.31722,"lon":5.4241,"is_reserved":false,"is_disabled":false,"rental_uris":{"android":"levelo://app?vid=7c75e111-8800-4ff6-a5e9-4fbe05a018a0","ios":"levelo://app?vid=7c75e111-8800-4ff6-a5e9-4fbe05a018a0"},"vehicle_type_id":"4","last_reported":1747501693,"current_range_meters":7200,"station_id":"ce4bhp92rcd13ifvqhbg","pricing_plan_id":"cebpf4jnsgd1na2vs0mg"},{"bike_id":"eaaad56b-637b-49e0-8df3-68228f0a5881","system_id":"levelo_inurba_marseille","lat":43.31531,"lon":5.38026,"is_reserved":false,"is_disabled":false,"rental_uris":{"android":"levelo://app?vid=eaaad56b-637b-49e0-8df3-68228f0a5881","ios":"levelo://app?vid=eaaad56b-637b-49e0-8df3-68228f0a5881"},"vehicle_type_id":"4","last_reported":1747501693,"current_range_meters":7200,"station_id":"ce4bhsp2rcd13ifvqi50","pricing_plan_id":"cebpf4jnsgd1na2vs0mg"},{"bike_id":"f1048496-1bad-4ee4-bd22-cfe9455b0496","system_id":"levelo_inurba_marseille","lat":43.29939,"lon":5.36558,"is_reserved":false,"is_disabled":false,"rental_uris":{"android":"levelo://app?vid=f1048496-1bad-4ee4-bd22-cfe9455b0496","ios":"levelo://app?vid=f1048496-1bad-4ee4-bd22-cfe9455b0496"},"vehicle_type_id":"4","last_reported":1747501693,"current_range_meters":8000,"station_id":"ce4bgm92rcd13ifvqbr0","pricing_plan_id":"cebpf4jnsgd1na2vs0mg"},{"bike_id":"3990cdcd-d1ba-4183-9524-9c34536e0934","system_id":"levelo_inurba_marseille","lat":43.3117,"lon":5.38724,"is_reserved":false,"is_disabled":false,"rental_uris":{"android":"levelo://app?vid=3990cdcd-d1ba-4183-9524-9c34536e0934","ios":"levelo://app?vid=3990cdcd-d1ba-4183-9524-9c34536e0934"},"vehicle_type_id":"4","last_reported":1747501693,"current_range_meters":8000,"station_id":"ce4bgv12rcd13ifvqcp0","pricing_plan_id":"cebpf4jnsgd1na2vs0mg"},{"bike_id":"7bc5b9cd-a3c2-4d18-ba6f-c5a4dd00a154","system_id":"levelo_inurba_marseille","lat":43.30791,"lon":5.37643,"is_reserved":false,"is_disabled":false,"rental_uris":{"android":"levelo://app?vid=7bc5b9cd-a3c2-4d18-ba6f-c5a4dd00a154","ios":"levelo://app?vid=7bc5b9cd-a3c2-4d18-ba6f-c5a4dd00a154"},"vehicle_type_id":"4","last_reported":1747501693,"current_range_meters":8000,"station_id":"ce4bgv92rcd13ifvqcq0","pricing_plan_id":"cebpf4jnsgd1na2vs0mg"},{"bike_id":"c27ec0ea-d52a-4457-accf-cde74db5dbf0","system_id":"levelo_inurba_marseille","lat":43.28935,"lon":5.39625,"is_reserved":false,"is_disabled":false,"rental_uris":{"android":"levelo://app?vid=c27ec0ea-d52a-4457-accf-cde74db5dbf0","ios":"levelo://app?vid=c27ec0ea-d52a-4457-accf-cde74db5dbf0"},"vehicle_type_id":"4","last_reported":1747501693,"current_range_meters":8000,"station_id":"ce4bh3h2rcd13ifvqdn0","pricing_plan_id":"cebpf4jnsgd1na2vs0mg"},{"bike_id":"153c3d1b-97a7-480e-a581-bc15c133fd4d","system_id":"levelo_inurba_marseille","lat":43.27904,"lon":5.38027,"is_reserved":false,"is_disabled":false,"rental_uris":{"android":"levelo://app?vid=153c3d1b-97a7-480e-a581-bc15c133fd4d","ios":"levelo://app?vid=153c3d1b-97a7-480e-a581-bc15c133fd4d"},"vehicle_type_id":"4","last_reported":1747501693,"current_range_meters":8000,"station_id":"ce4bhf92rcd13ifvqf50","pricing_plan_id":"cebpf4jnsgd1na2vs0mg"},{"bike_id":"0962a9a3-8cb5-4e8a-be1d-03e07fed18be","system_id":"levelo_inurba_marseille","lat":43.27308,"lon":5.3909,"is_reserved":false,"is_disabled":false,"rental_uris":{"android":"levelo://app?vid=0962a9a3-8cb5-4e8a-be1d-03e07fed18be","ios":"levelo://app?vid=0962a9a3-8cb5-4e8a-be1d-03e07fed18be"},"vehicle_type_id":"4","last_reported":1747501693,"current_range_meters":8000,"station_id":"ce4bhgp2rcd13ifvqfe0","pricing_plan_id":"cebpf4jnsgd1na2vs0mg"},{"bike_id":"ae1decf1-ec66-4d4b-8d53-6eab440f376d","system_id":"levelo_inurba_marseille","lat":43.33745,"lon":5.39188,"is_reserved":false,"is_disabled":false,"rental_uris":{"android":"levelo://app?vid=ae1decf1-ec66-4d4b-8d53-6eab440f376d","ios":"levelo://app?vid=ae1decf1-ec66-4d4b-8d53-6eab440f376d"},"vehicle_type_id":"4","last_reported":1747501693,"current_range_meters":8000,"station_id":"ce4bhr92rcd13ifvqhsg","pricing_plan_id":"cebpf4jnsgd1na2vs0mg"},{"bike_id":"bbd82c95-01a7-4785-92ed-ebfbcf1fab88","system_id":"levelo_inurba_marseille","lat":43.23193,"lon":5.35564,"is_reserved":false,"is_disabled":false,"rental_uris":{"android":"levelo://app?vid=bbd82c95-01a7-4785-92ed-ebfbcf1fab88","ios":"levelo://app?vid=bbd82c95-01a7-4785-92ed-ebfbcf1fab88"},"vehicle_type_id":"4","last_reported":1747501693,"current_range_meters":8000,"station_id":"ce4bhu92rcd13ifvqi70","pricing_plan_id":"cebpf4jnsgd1na2vs0mg"},{"bike_id":"54e8dc58-db86-4ef9-8d1c-e40c2dbadbf6","system_id":"levelo_inurba_marseille","lat":43.28219,"lon":5.39051,"is_reserved":false,"is_disabled":false,"rental_uris":{"android":"levelo://app?vid=54e8dc58-db86-4ef9-8d1c-e40c2dbadbf6","ios":"levelo://app?vid=54e8dc58-db86-4ef9-8d1c-e40c2dbadbf6"},"vehicle_type_id":"4","last_reported":1747501693,"current_range_meters":8400,"station_id":"","pricing_plan_id":"cebpf4jnsgd1na2vs0mg"},{"bike_id":"a7356ad8-abd4-46cf-bb26-acc757c1a299","system_id":"levelo_inurba_marseille","lat":43.29906,"lon":5.38147,"is_reserved":false,"is_disabled":false,"rental_uris":{"android":"levelo://app?vid=a7356ad8-abd4-46cf-bb26-acc757c1a299","ios":"levelo://app?vid=a7356ad8-abd4-46cf-bb26-acc757c1a299"},"vehicle_type_id":"4","last_reported":1747501693,"current_range_meters":8400,"station_id":"ce4bgj12rcd13ifvqbc0","pricing_plan_id":"cebpf4jnsgd1na2vs0mg"},{"bike_id":"c7d906b2-f350-4a56-8be7-986b185990b7","system_id":"levelo_inurba_marseille","lat":43.31169,"lon":5.38726,"is_reserved":false,"is_disabled":false,"rental_uris":{"android":"levelo://app?vid=c7d906b2-f350-4a56-8be7-986b185990b7","ios":"levelo://app?vid=c7d906b2-f350-4a56-8be7-986b185990b7"},"vehicle_type_id":"4","last_reported":1747501693,"current_range_meters":8400,"station_id":"ce4bgv12rcd13ifvqcp0","pricing_plan_id":"cebpf4jnsgd1na2vs0mg"},{"bike_id":"402d3aa0-c5bc-4774-bf0e-e65b750d2902","system_id":"levelo_inurba_marseille","lat":43.29042,"lon":5.39937,"is_reserved":false,"is_disabled":false,"rental_uris":{"android":"levelo://app?vid=402d3aa0-c5bc-4774-bf0e-e65b750d2902","ios":"levelo://app?vid=402d3aa0-c5bc-4774-bf0e-e65b750d2902"},"vehicle_type_id":"4","last_reported":1747501693,"current_range_meters":8400,"station_id":"ce4bh392rcd13ifvqdm0","pricing_plan_id":"cebpf4jnsgd1na2vs0mg"},{"bike_id":"3a5c8b41-b7c2-42e3-92dc-e63d4b0cdfdf","system_id":"levelo_inurba_marseille","lat":43.288163,"lon":5.384643,"is_reserved":false,"is_disabled":false,"rental_uris":{"android":"levelo://app?vid=3a5c8b41-b7c2-42e3-92dc-e63d4b0cdfdf","ios":"levelo://app?vid=3a5c8b41-b7c2-42e3-92dc-e63d4b0cdfdf"},"vehicle_type_id":"4","last_reported":1747501693,"current_range_meters":8400,"station_id":"ce4bh612rcd13ifvqe6g","pricing_plan_id":"cebpf4jnsgd1na2vs0mg"},{"bike_id":"a283c959-9e46-409b-acbc-89790531b982","system_id":"levelo_inurba_marseille","lat":43.28487,"lon":5.38562,"is_reserved":false,"is_disabled":false,"rental_uris":{"android":"levelo://app?vid=a283c959-9e46-409b-acbc-89790531b982","ios":"levelo://app?vid=a283c959-9e46-409b-acbc-89790531b982"},"vehicle_type_id":"4","last_reported":1747501693,"current_range_meters":8400,"station_id":"ce4bh8p2rcd13ifvqeb0","pricing_plan_id":"cebpf4jnsgd1na2vs0mg"},{"bike_id":"d5fe3f2e-dd2a-46b0-af25-2613d20f4c97","system_id":"levelo_inurba_marseille","lat":43.27569,"lon":5.38425,"is_reserved":false,"is_disabled":false,"rental_uris":{"android":"levelo://app?vid=d5fe3f2e-dd2a-46b0-af25-2613d20f4c97","ios":"levelo://app?vid=d5fe3f2e-dd2a-46b0-af25-2613d20f4c97"},"vehicle_type_id":"4","last_reported":1747501693,"current_range_meters":8400,"station_id":"ce4bhh92rcd13ifvqfi0","pricing_plan_id":"cebpf4jnsgd1na2vs0mg"},{"bike_id":"674164c5-ea40-45b7-b4fb-cd50357db429","system_id":"levelo_inurba_marseille","lat":43.29539,"lon":5.37494,"is_reserved":false,"is_disabled":false,"rental_uris":{"android":"levelo://app?vid=674164c5-ea40-45b7-b4fb-cd50357db429","ios":"levelo://app?vid=674164c5-ea40-45b7-b4fb-cd50357db429"},"vehicle_type_id":"4","last_reported":1747501693,"current_range_meters":8800,"station_id":"ce4bgkp2rcd13ifvqbmg","pricing_plan_id":"cebpf4jnsgd1na2vs0mg"},{"bike_id":"ab7916db-a9ad-471d-a8d0-a86bfe6bd38a","system_id":"levelo_inurba_marseille","lat":43.26691,"lon":5.38264,"is_reserved":false,"is_disabled":false,"rental_uris":{"android":"levelo://app?vid=ab7916db-a9ad-471d-a8d0-a86bfe6bd38a","ios":"levelo://app?vid=ab7916db-a9ad-471d-a8d0-a86bfe6bd38a"},"vehicle_type_id":"4","last_reported":1747501693,"current_range_meters":8800,"station_id":"ce4bhg92rcd13ifvqf90","pricing_plan_id":"cebpf4jnsgd1na2vs0mg"},{"bike_id":"79ed6c63-3a91-4c6a-90d0-86ebc6184dc0","system_id":"levelo_inurba_marseille","lat":43.26947,"lon":5.38643,"is_reserved":false,"is_disabled":false,"rental_uris":{"android":"levelo://app?vid=79ed6c63-3a91-4c6a-90d0-86ebc6184dc0","ios":"levelo://app?vid=79ed6c63-3a91-4c6a-90d0-86ebc6184dc0"},"vehicle_type_id":"4","last_reported":1747501693,"current_range_meters":8800,"station_id":"ce4bhh92rcd13ifvqfh0","pricing_plan_id":"cebpf4jnsgd1na2vs0mg"},{"bike_id":"8919f8b3-6562-4b0b-baf5-43ded9ce85ff","system_id":"levelo_inurba_marseille","lat":43.24673,"lon":5.38159,"is_reserved":false,"is_disabled":false,"rental_uris":{"android":"levelo://app?vid=8919f8b3-6562-4b0b-baf5-43ded9ce85ff","ios":"levelo://app?vid=8919f8b3-6562-4b0b-baf5-43ded9ce85ff"},"vehicle_type_id":"4","last_reported":1747501693,"current_range_meters":8800,"station_id":"ce4bhih2rcd13ifvqfr0","pricing_plan_id":"cebpf4jnsgd1na2vs0mg"},{"bike_id":"4b770c2a-7d24-44eb-b966-a109b6bc6e1c","system_id":"levelo_inurba_marseille","lat":43.27951,"lon":5.41041,"is_reserved":false,"is_disabled":false,"rental_uris":{"android":"levelo://app?vid=4b770c2a-7d24-44eb-b966-a109b6bc6e1c","ios":"levelo://app?vid=4b770c2a-7d24-44eb-b966-a109b6bc6e1c"},"vehicle_type_id":"4","last_reported":1747501693,"current_range_meters":8800,"station_id":"ce4bhnp2rcd13ifvqh0g","pricing_plan_id":"cebpf4jnsgd1na2vs0mg"},{"bike_id":"9d1ced73-c438-4da3-99cb-5368d05e355b","system_id":"levelo_inurba_marseille","lat":43.26942,"lon":5.40257,"is_reserved":false,"is_disabled":false,"rental_uris":{"android":"levelo://app?vid=9d1ced73-c438-4da3-99cb-5368d05e355b","ios":"levelo://app?vid=9d1ced73-c438-4da3-99cb-5368d05e355b"},"vehicle_type_id":"4","last_reported":1747501693,"current_range_meters":8800,"station_id":"cjm6bp8fraef2m0cb0m0","pricing_plan_id":"cebpf4jnsgd1na2vs0mg"},{"bike_id":"55fb771a-6e76-45c4-a9b7-cda97a0011d0","system_id":"levelo_inurba_marseille","lat":43.28685,"lon":5.383148,"is_reserved":false,"is_disabled":false,"rental_uris":{"android":"levelo://app?vid=55fb771a-6e76-45c4-a9b7-cda97a0011d0","ios":"levelo://app?vid=55fb771a-6e76-45c4-a9b7-cda97a0011d0"},"vehicle_type_id":"4","last_reported":1747501693,"current_range_meters":9200,"station_id":"","pricing_plan_id":"cebpf4jnsgd1na2vs0mg"},{"bike_id":"787c9c98-3409-4236-a158-d665fd46ef22","system_id":"levelo_inurba_marseille","lat":43.29568,"lon":5.37528,"is_reserved":false,"is_disabled":false,"rental_uris":{"android":"levelo://app?vid=787c9c98-3409-4236-a158-d665fd46ef22","ios":"levelo://app?vid=787c9c98-3409-4236-a158-d665fd46ef22"},"vehicle_type_id":"4","last_reported":1747501693,"current_range_meters":9200,"station_id":"ce4bgh92rcd13ifvqb50","pricing_plan_id":"cebpf4jnsgd1na2vs0mg"},{"bike_id":"a063b40b-df40-49a7-9f2d-1f2ba19974f2","system_id":"levelo_inurba_marseille","lat":43.29859,"lon":5.36272,"is_reserved":false,"is_disabled":false,"rental_uris":{"android":"levelo://app?vid=a063b40b-df40-49a7-9f2d-1f2ba19974f2","ios":"levelo://app?vid=a063b40b-df40-49a7-9f2d-1f2ba19974f2"},"vehicle_type_id":"4","last_reported":1747501693,"current_range_meters":9200,"station_id":"ce4bgpp2rcd13ifvqc3g","pricing_plan_id":"cebpf4jnsgd1na2vs0mg"},{"bike_id":"4811d829-a6a0-48be-95ec-e946763ac686","system_id":"levelo_inurba_marseille","lat":43.30191,"lon":5.36616,"is_reserved":false,"is_disabled":false,"rental_uris":{"android":"levelo://app?vid=4811d829-a6a0-48be-95ec-e946763ac686","ios":"levelo://app?vid=4811d829-a6a0-48be-95ec-e946763ac686"},"vehicle_type_id":"4","last_reported":1747501693,"current_range_meters":9200,"station_id":"ce4bgrh2rcd13ifvqc8g","pricing_plan_id":"cebpf4jnsgd1na2vs0mg"},{"bike_id":"d61fb63a-1e70-400e-8f51-60c75fb4d020","system_id":"levelo_inurba_marseille","lat":43.31171,"lon":5.38724,"is_reserved":false,"is_disabled":false,"rental_uris":{"android":"levelo://app?vid=d61fb63a-1e70-400e-8f51-60c75fb4d020","ios":"levelo://app?vid=d61fb63a-1e70-400e-8f51-60c75fb4d020"},"vehicle_type_id":"4","last_reported":1747501693,"current_range_meters":9200,"station_id":"ce4bgv12rcd13ifvqcp0","pricing_plan_id":"cebpf4jnsgd1na2vs0mg"},{"bike_id":"7ee3ad68-28ad-428f-8999-4b73cbc1cd52","system_id":"levelo_inurba_marseille","lat":43.29259,"lon":5.40902,"is_reserved":false,"is_disabled":false,"rental_uris":{"android":"levelo://app?vid=7ee3ad68-28ad-428f-8999-4b73cbc1cd52","ios":"levelo://app?vid=7ee3ad68-28ad-428f-8999-4b73cbc1cd52"},"vehicle_type_id":"4","last_reported":1747501693,"current_range_meters":9200,"station_id":"ce4bh192rcd13ifvqdc0","pricing_plan_id":"cebpf4jnsgd1na2vs0mg"},{"bike_id":"1f6ea189-2bcd-41fe-9dc2-8f6d12325f81","system_id":"levelo_inurba_marseille","lat":43.29259,"lon":5.40901,"is_reserved":false,"is_disabled":false,"rental_uris":{"android":"levelo://app?vid=1f6ea189-2bcd-41fe-9dc2-8f6d12325f81","ios":"levelo://app?vid=1f6ea189-2bcd-41fe-9dc2-8f6d12325f81"},"vehicle_type_id":"4","last_reported":1747501693,"current_range_meters":9200,"station_id":"ce4bh192rcd13ifvqdc0","pricing_plan_id":"cebpf4jnsgd1na2vs0mg"},{"bike_id":"cc357fd6-5b83-4b7a-9314-56ef15d4733b","system_id":"levelo_inurba_marseille","lat":43.29516,"lon":5.39041,"is_reserved":false,"is_disabled":false,"rental_uris":{"android":"levelo://app?vid=cc357fd6-5b83-4b7a-9314-56ef15d4733b","ios":"levelo://app?vid=cc357fd6-5b83-4b7a-9314-56ef15d4733b"},"vehicle_type_id":"4","last_reported":1747501693,"current_range_meters":9200,"station_id":"ce4bh3p2rcd13ifvqdp0","pricing_plan_id":"cebpf4jnsgd1na2vs0mg"},{"bike_id":"272817ba-5ef5-4655-94f9-302214ab3fd0","system_id":"levelo_inurba_marseille","lat":43.26497,"lon":5.39534,"is_reserved":false,"is_disabled":false,"rental_uris":{"android":"levelo://app?vid=272817ba-5ef5-4655-94f9-302214ab3fd0","ios":"levelo://app?vid=272817ba-5ef5-4655-94f9-302214ab3fd0"},"vehicle_type_id":"4","last_reported":1747501693,"current_range_meters":9200,"station_id":"ce4bhi12rcd13ifvqfq0","pricing_plan_id":"cebpf4jnsgd1na2vs0mg"},{"bike_id":"1661566b-ccd8-4e62-a385-eb008586373c","system_id":"levelo_inurba_marseille","lat":43.24179,"lon":5.39738,"is_reserved":false,"is_disabled":false,"rental_uris":{"android":"levelo://app?vid=1661566b-ccd8-4e62-a385-eb008586373c","ios":"levelo://app?vid=1661566b-ccd8-4e62-a385-eb008586373c"},"vehicle_type_id":"4","last_reported":1747501693,"current_range_meters":9200,"station_id":"ce4bhn12rcd13ifvqgpg","pricing_plan_id":"cebpf4jnsgd1na2vs0mg"},{"bike_id":"390a2137-8939-45da-be7a-2dabc5317449","system_id":"levelo_inurba_marseille","lat":43.29299,"lon":5.37466,"is_reserved":false,"is_disabled":false,"rental_uris":{"android":"levelo://app?vid=390a2137-8939-45da-be7a-2dabc5317449","ios":"levelo://app?vid=390a2137-8939-45da-be7a-2dabc5317449"},"vehicle_type_id":"4","last_reported":1747501693,"current_range_meters":9600,"station_id":"ce4bgi12rcd13ifvqb70","pricing_plan_id":"cebpf4jnsgd1na2vs0mg"},{"bike_id":"29703bda-94a8-456a-965b-33c78b900cbc","system_id":"levelo_inurba_marseille","lat":43.27431,"lon":5.3942,"is_reserved":false,"is_disabled":false,"rental_uris":{"android":"levelo://app?vid=29703bda-94a8-456a-965b-33c78b900cbc","ios":"levelo://app?vid=29703bda-94a8-456a-965b-33c78b900cbc"},"vehicle_type_id":"4","last_reported":1747501693,"current_range_meters":9600,"station_id":"ce4bhdp2rcd13ifvqf20","pricing_plan_id":"cebpf4jnsgd1na2vs0mg"},{"bike_id":"4b4d3cff-7950-42aa-acb1-4cbfe11c53e9","system_id":"levelo_inurba_marseille","lat":43.27175,"lon":5.40999,"is_reserved":false,"is_disabled":false,"rental_uris":{"android":"levelo://app?vid=4b4d3cff-7950-42aa-acb1-4cbfe11c53e9","ios":"levelo://app?vid=4b4d3cff-7950-42aa-acb1-4cbfe11c53e9"},"vehicle_type_id":"4","last_reported":1747501693,"current_range_meters":9600,"station_id":"ce4bhl12rcd13ifvqgf0","pricing_plan_id":"cebpf4jnsgd1na2vs0mg"},{"bike_id":"7decbbd1-6092-4fc7-82e4-33eb2c988733","system_id":"levelo_inurba_marseille","lat":43.23197,"lon":5.35553,"is_reserved":false,"is_disabled":false,"rental_uris":{"android":"levelo://app?vid=7decbbd1-6092-4fc7-82e4-33eb2c988733","ios":"levelo://app?vid=7decbbd1-6092-4fc7-82e4-33eb2c988733"},"vehicle_type_id":"4","last_reported":1747501693,"current_range_meters":9600,"station_id":"ce4bhu92rcd13ifvqi70","pricing_plan_id":"cebpf4jnsgd1na2vs0mg"},{"bike_id":"9452f740-70f1-4090-9177-42f303e5eeee","system_id":"levelo_inurba_marseille","lat":43.297848,"lon":5.392773,"is_reserved":false,"is_disabled":false,"rental_uris":{"android":"levelo://app?vid=9452f740-70f1-4090-9177-42f303e5eeee","ios":"levelo://app?vid=9452f740-70f1-4090-9177-42f303e5eeee"},"vehicle_type_id":"4","last_reported":1747501693,"current_range_meters":9600,"station_id":"chh1huq6cuj3fo74tm60","pricing_plan_id":"cebpf4jnsgd1na2vs0mg"},{"bike_id":"2ea67723-53f2-477d-badf-d1c353776f5b","system_id":"levelo_inurba_marseille","lat":43.29851,"lon":5.36289,"is_reserved":false,"is_disabled":false,"rental_uris":{"android":"levelo://app?vid=2ea67723-53f2-477d-badf-d1c353776f5b","ios":"levelo://app?vid=2ea67723-53f2-477d-badf-d1c353776f5b"},"vehicle_type_id":"4","last_reported":1747501693,"current_range_meters":10000,"station_id":"ce4bgpp2rcd13ifvqc3g","pricing_plan_id":"cebpf4jnsgd1na2vs0mg"},{"bike_id":"88bdbfe6-cd35-47e5-9867-8cba54fcd59a","system_id":"levelo_inurba_marseille","lat":43.29631,"lon":5.40598,"is_reserved":false,"is_disabled":false,"rental_uris":{"android":"levelo://app?vid=88bdbfe6-cd35-47e5-9867-8cba54fcd59a","ios":"levelo://app?vid=88bdbfe6-cd35-47e5-9867-8cba54fcd59a"},"vehicle_type_id":"4","last_reported":1747501693,"current_range_meters":10000,"station_id":"ce4bh0h2rcd13ifvqd60","pricing_plan_id":"cebpf4jnsgd1na2vs0mg"},{"bike_id":"77fd7d48-e28d-43ab-af05-547fa8c36b64","system_id":"levelo_inurba_marseille","lat":43.29162,"lon":5.37161,"is_reserved":false,"is_disabled":false,"rental_uris":{"android":"levelo://app?vid=77fd7d48-e28d-43ab-af05-547fa8c36b64","ios":"levelo://app?vid=77fd7d48-e28d-43ab-af05-547fa8c36b64"},"vehicle_type_id":"4","last_reported":1747501693,"current_range_meters":10000,"station_id":"ce4bha92rcd13ifvqeh0","pricing_plan_id":"cebpf4jnsgd1na2vs0mg"},{"bike_id":"52563676-f54a-4d83-bb4b-b7d11c7cea38","system_id":"levelo_inurba_marseille","lat":43.24804,"lon":5.37463,"is_reserved":false,"is_disabled":false,"rental_uris":{"android":"levelo://app?vid=52563676-f54a-4d83-bb4b-b7d11c7cea38","ios":"levelo://app?vid=52563676-f54a-4d83-bb4b-b7d11c7cea38"},"vehicle_type_id":"4","last_reported":1747501693,"current_range_meters":10000,"station_id":"ce4bhgh2rcd13ifvqfb0","pricing_plan_id":"cebpf4jnsgd1na2vs0mg"},{"bike_id":"f5c3d704-6dd9-430b-be6d-d13ed0323d6f","system_id":"levelo_inurba_marseille","lat":43.25,"lon":5.3892,"is_reserved":false,"is_disabled":false,"rental_uris":{"android":"levelo://app?vid=f5c3d704-6dd9-430b-be6d-d13ed0323d6f","ios":"levelo://app?vid=f5c3d704-6dd9-430b-be6d-d13ed0323d6f"},"vehicle_type_id":"4","last_reported":1747501693,"current_range_meters":10000,"station_id":"ce4bhgp2rcd13ifvqfd0","pricing_plan_id":"cebpf4jnsgd1na2vs0mg"},{"bike_id":"ca046087-a8bc-4f7b-9b15-45221230521d","system_id":"levelo_inurba_marseille","lat":43.266324,"lon":5.381823,"is_reserved":false,"is_disabled":false,"rental_uris":{"android":"levelo://app?vid=ca046087-a8bc-4f7b-9b15-45221230521d","ios":"levelo://app?vid=ca046087-a8bc-4f7b-9b15-45221230521d"},"vehicle_type_id":"4","last_reported":1747501693,"current_range_meters":10000,"station_id":"ce4bhgp2rcd13ifvqfe0","pricing_plan_id":"cebpf4jnsgd1na2vs0mg"},{"bike_id":"d29765b1-0b7f-42d3-b8c5-f57edda9038b","system_id":"levelo_inurba_marseille","lat":43.2719,"lon":5.39175,"is_reserved":false,"is_disabled":false,"rental_uris":{"android":"levelo://app?vid=d29765b1-0b7f-42d3-b8c5-f57edda9038b","ios":"levelo://app?vid=d29765b1-0b7f-42d3-b8c5-f57edda9038b"},"vehicle_type_id":"4","last_reported":1747501693,"current_range_meters":10000,"station_id":"ce4bhhp2rcd13ifvqfm0","pricing_plan_id":"cebpf4jnsgd1na2vs0mg"},{"bike_id":"dd9fbf3d-7152-4aab-8d2b-b8881ea9ea9c","system_id":"levelo_inurba_marseille","lat":43.244677,"lon":5.379649,"is_reserved":false,"is_disabled":false,"rental_uris":{"android":"levelo://app?vid=dd9fbf3d-7152-4aab-8d2b-b8881ea9ea9c","ios":"levelo://app?vid=dd9fbf3d-7152-4aab-8d2b-b8881ea9ea9c"},"vehicle_type_id":"4","last_reported":1747501693,"current_range_meters":10000,"station_id":"ce4bhlp2rcd13ifvqgjg","pricing_plan_id":"cebpf4jnsgd1na2vs0mg"},{"bike_id":"6ffe77d2-33b1-443b-b33d-0cf3ac55991c","system_id":"levelo_inurba_marseille","lat":43.31085,"lon":5.4243,"is_reserved":false,"is_disabled":false,"rental_uris":{"android":"levelo://app?vid=6ffe77d2-33b1-443b-b33d-0cf3ac55991c","ios":"levelo://app?vid=6ffe77d2-33b1-443b-b33d-0cf3ac55991c"},"vehicle_type_id":"4","last_reported":1747501693,"current_range_meters":10000,"station_id":"ce4bhp92rcd13ifvqhag","pricing_plan_id":"cebpf4jnsgd1na2vs0mg"},{"bike_id":"efb84f33-e88b-4d0a-8fd3-b38e6d7d3595","system_id":"levelo_inurba_marseille","lat":43.29898,"lon":5.43673,"is_reserved":false,"is_disabled":false,"rental_uris":{"android":"levelo://app?vid=efb84f33-e88b-4d0a-8fd3-b38e6d7d3595","ios":"levelo://app?vid=efb84f33-e88b-4d0a-8fd3-b38e6d7d3595"},"vehicle_type_id":"4","last_reported":1747501693,"current_range_meters":10000,"station_id":"ce4bhpp2rcd13ifvqhfg","pricing_plan_id":"cebpf4jnsgd1na2vs0mg"},{"bike_id":"3b68d28a-36f7-41e1-86a4-5d590311a1b6","system_id":"levelo_inurba_marseille","lat":43.32482,"lon":5.36564,"is_reserved":false,"is_disabled":false,"rental_uris":{"android":"levelo://app?vid=3b68d28a-36f7-41e1-86a4-5d590311a1b6","ios":"levelo://app?vid=3b68d28a-36f7-41e1-86a4-5d590311a1b6"},"vehicle_type_id":"4","last_reported":1747501693,"current_range_meters":10000,"station_id":"ce4bhs12rcd13ifvqhvg","pricing_plan_id":"cebpf4jnsgd1na2vs0mg"},{"bike_id":"fee778e0-22e4-4f53-b5de-4a030a634eec","system_id":"levelo_inurba_marseille","lat":43.21752,"lon":5.34605,"is_reserved":false,"is_disabled":false,"rental_uris":{"android":"levelo://app?vid=fee778e0-22e4-4f53-b5de-4a030a634eec","ios":"levelo://app?vid=fee778e0-22e4-4f53-b5de-4a030a634eec"},"vehicle_type_id":"4","last_reported":1747501693,"current_range_meters":10000,"station_id":"st_cvj6r9ubvosntc0bgbag","pricing_plan_id":"cebpf4jnsgd1na2vs0mg"},{"bike_id":"b8e6468b-87db-4ff6-8122-ef13bf5b7c8c","system_id":"levelo_inurba_marseille","lat":43.31379,"lon":5.37916,"is_reserved":false,"is_disabled":false,"rental_uris":{"android":"levelo://app?vid=b8e6468b-87db-4ff6-8122-ef13bf5b7c8c","ios":"levelo://app?vid=b8e6468b-87db-4ff6-8122-ef13bf5b7c8c"},"vehicle_type_id":"4","last_reported":1747501693,"current_range_meters":10800,"station_id":"","pricing_plan_id":"cebpf4jnsgd1na2vs0mg"},{"bike_id":"476423c3-aafd-47a0-8422-215904691436","system_id":"levelo_inurba_marseille","lat":43.28224,"lon":5.39073,"is_reserved":false,"is_disabled":false,"rental_uris":{"android":"levelo://app?vid=476423c3-aafd-47a0-8422-215904691436","ios":"levelo://app?vid=476423c3-aafd-47a0-8422-215904691436"},"vehicle_type_id":"4","last_reported":1747501693,"current_range_meters":10800,"station_id":"","pricing_plan_id":"cebpf4jnsgd1na2vs0mg"},{"bike_id":"490d952e-732e-4e62-9468-f9f6e950e47b","system_id":"levelo_inurba_marseille","lat":43.297057,"lon":5.366125,"is_reserved":false,"is_disabled":false,"rental_uris":{"android":"levelo://app?vid=490d952e-732e-4e62-9468-f9f6e950e47b","ios":"levelo://app?vid=490d952e-732e-4e62-9468-f9f6e950e47b"},"vehicle_type_id":"4","last_reported":1747501693,"current_range_meters":10800,"station_id":"ce4bgn12rcd13ifvqbt0","pricing_plan_id":"cebpf4jnsgd1na2vs0mg"},{"bike_id":"82820a95-b463-4862-8c54-3cc0e9a36657","system_id":"levelo_inurba_marseille","lat":43.308933,"lon":5.371934,"is_reserved":false,"is_disabled":false,"rental_uris":{"android":"levelo://app?vid=82820a95-b463-4862-8c54-3cc0e9a36657","ios":"levelo://app?vid=82820a95-b463-4862-8c54-3cc0e9a36657"},"vehicle_type_id":"4","last_reported":1747501693,"current_range_meters":10800,"station_id":"ce4bguh2rcd13ifvqckg","pricing_plan_id":"cebpf4jnsgd1na2vs0mg"},{"bike_id":"57ac6ad5-83da-4762-852b-d8e9c7fc1e81","system_id":"levelo_inurba_marseille","lat":43.298746,"lon":5.397292,"is_reserved":false,"is_disabled":false,"rental_uris":{"android":"levelo://app?vid=57ac6ad5-83da-4762-852b-d8e9c7fc1e81","ios":"levelo://app?vid=57ac6ad5-83da-4762-852b-d8e9c7fc1e81"},"vehicle_type_id":"4","last_reported":1747501693,"current_range_meters":10800,"station_id":"ce4bh0h2rcd13ifvqd50","pricing_plan_id":"cebpf4jnsgd1na2vs0mg"},{"bike_id":"21dd0731-1ca0-4730-8b5b-b5772def9d97","system_id":"levelo_inurba_marseille","lat":43.2926,"lon":5.40911,"is_reserved":false,"is_disabled":false,"rental_uris":{"android":"levelo://app?vid=21dd0731-1ca0-4730-8b5b-b5772def9d97","ios":"levelo://app?vid=21dd0731-1ca0-4730-8b5b-b5772def9d97"},"vehicle_type_id":"4","last_reported":1747501693,"current_range_meters":10800,"station_id":"ce4bh192rcd13ifvqdc0","pricing_plan_id":"cebpf4jnsgd1na2vs0mg"},{"bike_id":"ffcee26c-f758-42a7-8834-b0f44727468a","system_id":"levelo_inurba_marseille","lat":43.27974,"lon":5.38744,"is_reserved":false,"is_disabled":false,"rental_uris":{"android":"levelo://app?vid=ffcee26c-f758-42a7-8834-b0f44727468a","ios":"levelo://app?vid=ffcee26c-f758-42a7-8834-b0f44727468a"},"vehicle_type_id":"4","last_reported":1747501693,"current_range_meters":10800,"station_id":"ce4bhg12rcd13ifvqf80","pricing_plan_id":"cebpf4jnsgd1na2vs0mg"},{"bike_id":"f6b330aa-7efb-4b9c-9f83-02d7ed1fe6cf","system_id":"levelo_inurba_marseille","lat":43.27308,"lon":5.39077,"is_reserved":false,"is_disabled":false,"rental_uris":{"android":"levelo://app?vid=f6b330aa-7efb-4b9c-9f83-02d7ed1fe6cf","ios":"levelo://app?vid=f6b330aa-7efb-4b9c-9f83-02d7ed1fe6cf"},"vehicle_type_id":"4","last_reported":1747501693,"current_range_meters":10800,"station_id":"ce4bhgp2rcd13ifvqfe0","pricing_plan_id":"cebpf4jnsgd1na2vs0mg"},{"bike_id":"0846d848-3735-4701-8d49-89d4d7c4f2a8","system_id":"levelo_inurba_marseille","lat":43.24073,"lon":5.37765,"is_reserved":false,"is_disabled":false,"rental_uris":{"android":"levelo://app?vid=0846d848-3735-4701-8d49-89d4d7c4f2a8","ios":"levelo://app?vid=0846d848-3735-4701-8d49-89d4d7c4f2a8"},"vehicle_type_id":"4","last_reported":1747501693,"current_range_meters":10800,"station_id":"ce4bhnp2rcd13ifvqgvg","pricing_plan_id":"cebpf4jnsgd1na2vs0mg"},{"bike_id":"6bad99d6-c400-4729-a6f1-dd5f2da6c3f2","system_id":"levelo_inurba_marseille","lat":43.31724,"lon":5.42397,"is_reserved":false,"is_disabled":false,"rental_uris":{"android":"levelo://app?vid=6bad99d6-c400-4729-a6f1-dd5f2da6c3f2","ios":"levelo://app?vid=6bad99d6-c400-4729-a6f1-dd5f2da6c3f2"},"vehicle_type_id":"4","last_reported":1747501693,"current_range_meters":10800,"station_id":"ce4bhp92rcd13ifvqhbg","pricing_plan_id":"cebpf4jnsgd1na2vs0mg"},{"bike_id":"777dc9b0-2125-4abb-8cdf-4284d9b5262b","system_id":"levelo_inurba_marseille","lat":43.23055,"lon":5.35492,"is_reserved":false,"is_disabled":false,"rental_uris":{"android":"levelo://app?vid=777dc9b0-2125-4abb-8cdf-4284d9b5262b","ios":"levelo://app?vid=777dc9b0-2125-4abb-8cdf-4284d9b5262b"},"vehicle_type_id":"4","last_reported":1747501693,"current_range_meters":10800,"station_id":"cpo3342slgdg3j2ifvpg","pricing_plan_id":"cebpf4jnsgd1na2vs0mg"},{"bike_id":"78e1da3c-b6b2-4f14-b5bb-706aa24108a6","system_id":"levelo_inurba_marseille","lat":43.27211,"lon":5.3916,"is_reserved":false,"is_disabled":false,"rental_uris":{"android":"levelo://app?vid=78e1da3c-b6b2-4f14-b5bb-706aa24108a6","ios":"levelo://app?vid=78e1da3c-b6b2-4f14-b5bb-706aa24108a6"},"vehicle_type_id":"4","last_reported":1747501693,"current_range_meters":11200,"station_id":"ce4bhhp2rcd13ifvqfm0","pricing_plan_id":"cebpf4jnsgd1na2vs0mg"},{"bike_id":"9187c104-9b06-48af-9f58-758fc1dd1410","system_id":"levelo_inurba_marseille","lat":43.2322,"lon":5.35546,"is_reserved":false,"is_disabled":false,"rental_uris":{"android":"levelo://app?vid=9187c104-9b06-48af-9f58-758fc1dd1410","ios":"levelo://app?vid=9187c104-9b06-48af-9f58-758fc1dd1410"},"vehicle_type_id":"4","last_reported":1747501693,"current_range_meters":11200,"station_id":"ce4bhu92rcd13ifvqi70","pricing_plan_id":"cebpf4jnsgd1na2vs0mg"},{"bike_id":"0a312e86-30fb-41c7-bc98-99122e66a78a","system_id":"levelo_inurba_marseille","lat":43.260393,"lon":5.37552,"is_reserved":false,"is_disabled":false,"rental_uris":{"android":"levelo://app?vid=0a312e86-30fb-41c7-bc98-99122e66a78a","ios":"levelo://app?vid=0a312e86-30fb-41c7-bc98-99122e66a78a"},"vehicle_type_id":"4","last_reported":1747501693,"current_range_meters":11600,"station_id":"ce4bhgh2rcd13ifvqfa0","pricing_plan_id":"cebpf4jnsgd1na2vs0mg"},{"bike_id":"873cbb05-ac2c-401f-b0ad-8f397fa4e17a","system_id":"levelo_inurba_marseille","lat":43.26952,"lon":5.38624,"is_reserved":false,"is_disabled":false,"rental_uris":{"android":"levelo://app?vid=873cbb05-ac2c-401f-b0ad-8f397fa4e17a","ios":"levelo://app?vid=873cbb05-ac2c-401f-b0ad-8f397fa4e17a"},"vehicle_type_id":"4","last_reported":1747501693,"current_range_meters":11600,"station_id":"ce4bhh92rcd13ifvqfh0","pricing_plan_id":"cebpf4jnsgd1na2vs0mg"},{"bike_id":"a4d7457e-a382-4ab7-9876-e9ba20692ec9","system_id":"levelo_inurba_marseille","lat":43.319949,"lon":5.381567,"is_reserved":false,"is_disabled":false,"rental_uris":{"android":"levelo://app?vid=a4d7457e-a382-4ab7-9876-e9ba20692ec9","ios":"levelo://app?vid=a4d7457e-a382-4ab7-9876-e9ba20692ec9"},"vehicle_type_id":"4","last_reported":1747501693,"current_range_meters":11600,"station_id":"ce4bhr12rcd13ifvqhpg","pricing_plan_id":"cebpf4jnsgd1na2vs0mg"},{"bike_id":"6e1bd625-3ec1-43df-9657-36d71ae09f8d","system_id":"levelo_inurba_marseille","lat":43.33746,"lon":5.37473,"is_reserved":false,"is_disabled":false,"rental_uris":{"android":"levelo://app?vid=6e1bd625-3ec1-43df-9657-36d71ae09f8d","ios":"levelo://app?vid=6e1bd625-3ec1-43df-9657-36d71ae09f8d"},"vehicle_type_id":"4","last_reported":1747501693,"current_range_meters":12000,"station_id":"","pricing_plan_id":"cebpf4jnsgd1na2vs0mg"},{"bike_id":"b28e18bd-c5e4-4ab5-ac4e-d82641789cfa","system_id":"levelo_inurba_marseille","lat":43.29535,"lon":5.3854,"is_reserved":false,"is_disabled":false,"rental_uris":{"android":"levelo://app?vid=b28e18bd-c5e4-4ab5-ac4e-d82641789cfa","ios":"levelo://app?vid=b28e18bd-c5e4-4ab5-ac4e-d82641789cfa"},"vehicle_type_id":"4","last_reported":1747501693,"current_range_meters":12000,"station_id":"ce4bgih2rcd13ifvqba0","pricing_plan_id":"cebpf4jnsgd1na2vs0mg"},{"bike_id":"b738820f-5e71-4e62-aa0b-47b97ef62436","system_id":"levelo_inurba_marseille","lat":43.29166,"lon":5.3716,"is_reserved":false,"is_disabled":false,"rental_uris":{"android":"levelo://app?vid=b738820f-5e71-4e62-aa0b-47b97ef62436","ios":"levelo://app?vid=b738820f-5e71-4e62-aa0b-47b97ef62436"},"vehicle_type_id":"4","last_reported":1747501693,"current_range_meters":12000,"station_id":"ce4bha92rcd13ifvqeh0","pricing_plan_id":"cebpf4jnsgd1na2vs0mg"},{"bike_id":"9198e2d7-73b9-4eeb-a63f-e0c363dfbfab","system_id":"levelo_inurba_marseille","lat":43.26034,"lon":5.37551,"is_reserved":false,"is_disabled":false,"rental_uris":{"android":"levelo://app?vid=9198e2d7-73b9-4eeb-a63f-e0c363dfbfab","ios":"levelo://app?vid=9198e2d7-73b9-4eeb-a63f-e0c363dfbfab"},"vehicle_type_id":"4","last_reported":1747501693,"current_range_meters":12000,"station_id":"ce4bhgh2rcd13ifvqfa0","pricing_plan_id":"cebpf4jnsgd1na2vs0mg"},{"bike_id":"1f4e5b15-dd38-4df8-98d5-d49d8dbd83c7","system_id":"levelo_inurba_marseille","lat":43.26774,"lon":5.3942,"is_reserved":false,"is_disabled":false,"rental_uris":{"android":"levelo://app?vid=1f4e5b15-dd38-4df8-98d5-d49d8dbd83c7","ios":"levelo://app?vid=1f4e5b15-dd38-4df8-98d5-d49d8dbd83c7"},"vehicle_type_id":"4","last_reported":1747501693,"current_range_meters":12000,"station_id":"ce4bhh12rcd13ifvqfg0","pricing_plan_id":"cebpf4jnsgd1na2vs0mg"},{"bike_id":"0fd2fef1-faee-4bf0-b036-bba2b0fedf76","system_id":"levelo_inurba_marseille","lat":43.27572,"lon":5.38434,"is_reserved":false,"is_disabled":false,"rental_uris":{"android":"levelo://app?vid=0fd2fef1-faee-4bf0-b036-bba2b0fedf76","ios":"levelo://app?vid=0fd2fef1-faee-4bf0-b036-bba2b0fedf76"},"vehicle_type_id":"4","last_reported":1747501693,"current_range_meters":12000,"station_id":"ce4bhh92rcd13ifvqfi0","pricing_plan_id":"cebpf4jnsgd1na2vs0mg"},{"bike_id":"a34a3087-0026-4b9a-a02f-ebb4a75b0b22","system_id":"levelo_inurba_marseille","lat":43.2721,"lon":5.39209,"is_reserved":false,"is_disabled":false,"rental_uris":{"android":"levelo://app?vid=a34a3087-0026-4b9a-a02f-ebb4a75b0b22","ios":"levelo://app?vid=a34a3087-0026-4b9a-a02f-ebb4a75b0b22"},"vehicle_type_id":"4","last_reported":1747501693,"current_range_meters":12000,"station_id":"ce4bhhp2rcd13ifvqfm0","pricing_plan_id":"cebpf4jnsgd1na2vs0mg"},{"bike_id":"4f2dc1cf-a6e1-444f-9cc6-1c5281c4b15e","system_id":"levelo_inurba_marseille","lat":43.29905,"lon":5.38147,"is_reserved":false,"is_disabled":false,"rental_uris":{"android":"levelo://app?vid=4f2dc1cf-a6e1-444f-9cc6-1c5281c4b15e","ios":"levelo://app?vid=4f2dc1cf-a6e1-444f-9cc6-1c5281c4b15e"},"vehicle_type_id":"4","last_reported":1747501693,"current_range_meters":12400,"station_id":"ce4bgj12rcd13ifvqbc0","pricing_plan_id":"cebpf4jnsgd1na2vs0mg"},{"bike_id":"18ab222e-3a14-480b-99a2-a6cb8b42f745","system_id":"levelo_inurba_marseille","lat":43.30146,"lon":5.38052,"is_reserved":false,"is_disabled":false,"rental_uris":{"android":"levelo://app?vid=18ab222e-3a14-480b-99a2-a6cb8b42f745","ios":"levelo://app?vid=18ab222e-3a14-480b-99a2-a6cb8b42f745"},"vehicle_type_id":"4","last_reported":1747501693,"current_range_meters":12400,"station_id":"ce4bgjp2rcd13ifvqbh0","pricing_plan_id":"cebpf4jnsgd1na2vs0mg"},{"bike_id":"a79cf4fe-93cd-4244-ae76-fc64d5a7565c","system_id":"levelo_inurba_marseille","lat":43.29275,"lon":5.38431,"is_reserved":false,"is_disabled":false,"rental_uris":{"android":"levelo://app?vid=a79cf4fe-93cd-4244-ae76-fc64d5a7565c","ios":"levelo://app?vid=a79cf4fe-93cd-4244-ae76-fc64d5a7565c"},"vehicle_type_id":"4","last_reported":1747501693,"current_range_meters":12400,"station_id":"ce4bh692rcd13ifvqea0","pricing_plan_id":"cebpf4jnsgd1na2vs0mg"},{"bike_id":"a12a3787-341b-4e76-a655-3c992f794f1e","system_id":"levelo_inurba_marseille","lat":43.28032,"lon":5.3695,"is_reserved":false,"is_disabled":false,"rental_uris":{"android":"levelo://app?vid=a12a3787-341b-4e76-a655-3c992f794f1e","ios":"levelo://app?vid=a12a3787-341b-4e76-a655-3c992f794f1e"},"vehicle_type_id":"4","last_reported":1747501693,"current_range_meters":12400,"station_id":"ce4bha12rcd13ifvqef0","pricing_plan_id":"cebpf4jnsgd1na2vs0mg"},{"bike_id":"a22e5774-054c-4ef5-8760-0fea5f887764","system_id":"levelo_inurba_marseille","lat":43.24063,"lon":5.37748,"is_reserved":false,"is_disabled":false,"rental_uris":{"android":"levelo://app?vid=a22e5774-054c-4ef5-8760-0fea5f887764","ios":"levelo://app?vid=a22e5774-054c-4ef5-8760-0fea5f887764"},"vehicle_type_id":"4","last_reported":1747501693,"current_range_meters":12400,"station_id":"ce4bhnp2rcd13ifvqgvg","pricing_plan_id":"cebpf4jnsgd1na2vs0mg"},{"bike_id":"c493ef29-ab8b-4b63-acad-33b362301146","system_id":"levelo_inurba_marseille","lat":43.23197,"lon":5.35555,"is_reserved":false,"is_disabled":false,"rental_uris":{"android":"levelo://app?vid=c493ef29-ab8b-4b63-acad-33b362301146","ios":"levelo://app?vid=c493ef29-ab8b-4b63-acad-33b362301146"},"vehicle_type_id":"4","last_reported":1747501693,"current_range_meters":12400,"station_id":"ce4bhu92rcd13ifvqi70","pricing_plan_id":"cebpf4jnsgd1na2vs0mg"},{"bike_id":"3980d76b-e904-45ba-9bbd-4ee10919b44c","system_id":"levelo_inurba_marseille","lat":43.31058,"lon":5.38194,"is_reserved":false,"is_disabled":false,"rental_uris":{"android":"levelo://app?vid=3980d76b-e904-45ba-9bbd-4ee10919b44c","ios":"levelo://app?vid=3980d76b-e904-45ba-9bbd-4ee10919b44c"},"vehicle_type_id":"4","last_reported":1747501693,"current_range_meters":12800,"station_id":"","pricing_plan_id":"cebpf4jnsgd1na2vs0mg"},{"bike_id":"14603e41-b2dd-4757-a53c-2e366aa4f983","system_id":"levelo_inurba_marseille","lat":43.26999,"lon":5.42813,"is_reserved":false,"is_disabled":false,"rental_uris":{"android":"levelo://app?vid=14603e41-b2dd-4757-a53c-2e366aa4f983","ios":"levelo://app?vid=14603e41-b2dd-4757-a53c-2e366aa4f983"},"vehicle_type_id":"4","last_reported":1747501693,"current_range_meters":12800,"station_id":"","pricing_plan_id":"cebpf4jnsgd1na2vs0mg"},{"bike_id":"714e46a7-cc7e-445a-94bb-fc82a24385df","system_id":"levelo_inurba_marseille","lat":43.31174,"lon":5.38719,"is_reserved":false,"is_disabled":false,"rental_uris":{"android":"levelo://app?vid=714e46a7-cc7e-445a-94bb-fc82a24385df","ios":"levelo://app?vid=714e46a7-cc7e-445a-94bb-fc82a24385df"},"vehicle_type_id":"4","last_reported":1747501693,"current_range_meters":12800,"station_id":"ce4bgv12rcd13ifvqcp0","pricing_plan_id":"cebpf4jnsgd1na2vs0mg"},{"bike_id":"31a8cf92-d4a4-410e-b635-20463d3b0ea6","system_id":"levelo_inurba_marseille","lat":43.27906,"lon":5.38012,"is_reserved":false,"is_disabled":false,"rental_uris":{"android":"levelo://app?vid=31a8cf92-d4a4-410e-b635-20463d3b0ea6","ios":"levelo://app?vid=31a8cf92-d4a4-410e-b635-20463d3b0ea6"},"vehicle_type_id":"4","last_reported":1747501693,"current_range_meters":12800,"station_id":"ce4bhf92rcd13ifvqf50","pricing_plan_id":"cebpf4jnsgd1na2vs0mg"},{"bike_id":"bba67333-7a43-456d-9134-5575e1f6d56e","system_id":"levelo_inurba_marseille","lat":43.26011,"lon":5.37579,"is_reserved":false,"is_disabled":false,"rental_uris":{"android":"levelo://app?vid=bba67333-7a43-456d-9134-5575e1f6d56e","ios":"levelo://app?vid=bba67333-7a43-456d-9134-5575e1f6d56e"},"vehicle_type_id":"4","last_reported":1747501693,"current_range_meters":12800,"station_id":"ce4bhgh2rcd13ifvqfa0","pricing_plan_id":"cebpf4jnsgd1na2vs0mg"},{"bike_id":"3a2d2174-bea7-4f0a-9d37-00868001ab00","system_id":"levelo_inurba_marseille","lat":43.27056,"lon":5.40259,"is_reserved":false,"is_disabled":false,"rental_uris":{"android":"levelo://app?vid=3a2d2174-bea7-4f0a-9d37-00868001ab00","ios":"levelo://app?vid=3a2d2174-bea7-4f0a-9d37-00868001ab00"},"vehicle_type_id":"4","last_reported":1747501693,"current_range_meters":12800,"station_id":"ce4bhk92rcd13ifvqgc0","pricing_plan_id":"cebpf4jnsgd1na2vs0mg"},{"bike_id":"0b8e995b-6903-4aad-b2d6-0d9f1b1ac3e7","system_id":"levelo_inurba_marseille","lat":43.32293,"lon":5.38271,"is_reserved":false,"is_disabled":false,"rental_uris":{"android":"levelo://app?vid=0b8e995b-6903-4aad-b2d6-0d9f1b1ac3e7","ios":"levelo://app?vid=0b8e995b-6903-4aad-b2d6-0d9f1b1ac3e7"},"vehicle_type_id":"4","last_reported":1747501693,"current_range_meters":12800,"station_id":"ce4bhr12rcd13ifvqhqg","pricing_plan_id":"cebpf4jnsgd1na2vs0mg"},{"bike_id":"a6c5eff1-5b54-466b-aeb1-2aced63847e6","system_id":"levelo_inurba_marseille","lat":43.23062,"lon":5.3549,"is_reserved":false,"is_disabled":false,"rental_uris":{"android":"levelo://app?vid=a6c5eff1-5b54-466b-aeb1-2aced63847e6","ios":"levelo://app?vid=a6c5eff1-5b54-466b-aeb1-2aced63847e6"},"vehicle_type_id":"4","last_reported":1747501693,"current_range_meters":12800,"station_id":"cpo3342slgdg3j2ifvpg","pricing_plan_id":"cebpf4jnsgd1na2vs0mg"},{"bike_id":"fa66ff84-cef2-4a9f-9134-a8a88dd918b2","system_id":"levelo_inurba_marseille","lat":43.28938,"lon":5.3664,"is_reserved":false,"is_disabled":false,"rental_uris":{"android":"levelo://app?vid=fa66ff84-cef2-4a9f-9134-a8a88dd918b2","ios":"levelo://app?vid=fa66ff84-cef2-4a9f-9134-a8a88dd918b2"},"vehicle_type_id":"4","last_reported":1747501693,"current_range_meters":13600,"station_id":"ce4bhap2rcd13ifvqek0","pricing_plan_id":"cebpf4jnsgd1na2vs0mg"},{"bike_id":"2d46840f-db92-45ad-afcf-7d2332cc31bb","system_id":"levelo_inurba_marseille","lat":43.27909,"lon":5.38013,"is_reserved":false,"is_disabled":false,"rental_uris":{"android":"levelo://app?vid=2d46840f-db92-45ad-afcf-7d2332cc31bb","ios":"levelo://app?vid=2d46840f-db92-45ad-afcf-7d2332cc31bb"},"vehicle_type_id":"4","last_reported":1747501693,"current_range_meters":13600,"station_id":"ce4bhf92rcd13ifvqf50","pricing_plan_id":"cebpf4jnsgd1na2vs0mg"},{"bike_id":"7c30ee04-1d3f-4965-9463-5b2b0e529953","system_id":"levelo_inurba_marseille","lat":43.2804,"lon":5.36952,"is_reserved":false,"is_disabled":false,"rental_uris":{"android":"levelo://app?vid=7c30ee04-1d3f-4965-9463-5b2b0e529953","ios":"levelo://app?vid=7c30ee04-1d3f-4965-9463-5b2b0e529953"},"vehicle_type_id":"4","last_reported":1747501693,"current_range_meters":14000,"station_id":"ce4bha12rcd13ifvqef0","pricing_plan_id":"cebpf4jnsgd1na2vs0mg"},{"bike_id":"405bc324-0b35-4b7c-b942-b538e1845b65","system_id":"levelo_inurba_marseille","lat":43.292653,"lon":5.384455,"is_reserved":false,"is_disabled":false,"rental_uris":{"android":"levelo://app?vid=405bc324-0b35-4b7c-b942-b538e1845b65","ios":"levelo://app?vid=405bc324-0b35-4b7c-b942-b538e1845b65"},"vehicle_type_id":"4","last_reported":1747501693,"current_range_meters":14000,"station_id":"ce4bhah2rcd13ifvqej0","pricing_plan_id":"cebpf4jnsgd1na2vs0mg"},{"bike_id":"8d3ba799-4866-4e13-8f0a-753a801550a2","system_id":"levelo_inurba_marseille","lat":43.28365,"lon":5.3848,"is_reserved":false,"is_disabled":false,"rental_uris":{"android":"levelo://app?vid=8d3ba799-4866-4e13-8f0a-753a801550a2","ios":"levelo://app?vid=8d3ba799-4866-4e13-8f0a-753a801550a2"},"vehicle_type_id":"4","last_reported":1747501693,"current_range_meters":14000,"station_id":"ce4bhgp2rcd13ifvqfe0","pricing_plan_id":"cebpf4jnsgd1na2vs0mg"},{"bike_id":"65907648-dc91-4c21-8e68-3a22a2313b88","system_id":"levelo_inurba_marseille","lat":43.30927,"lon":5.40142,"is_reserved":false,"is_disabled":false,"rental_uris":{"android":"levelo://app?vid=65907648-dc91-4c21-8e68-3a22a2313b88","ios":"levelo://app?vid=65907648-dc91-4c21-8e68-3a22a2313b88"},"vehicle_type_id":"4","last_reported":1747501693,"current_range_meters":14400,"station_id":"ce4bgvp2rcd13ifvqct0","pricing_plan_id":"cebpf4jnsgd1na2vs0mg"},{"bike_id":"09b3eb29-a917-4cfd-803f-f199cab89b4d","system_id":"levelo_inurba_marseille","lat":43.25535,"lon":5.37659,"is_reserved":false,"is_disabled":false,"rental_uris":{"android":"levelo://app?vid=09b3eb29-a917-4cfd-803f-f199cab89b4d","ios":"levelo://app?vid=09b3eb29-a917-4cfd-803f-f199cab89b4d"},"vehicle_type_id":"4","last_reported":1747501693,"current_range_meters":14400,"station_id":"ce4bhh12rcd13ifvqff0","pricing_plan_id":"cebpf4jnsgd1na2vs0mg"},{"bike_id":"c1631295-af43-4973-a05f-50d521b45493","system_id":"levelo_inurba_marseille","lat":43.2694,"lon":5.40254,"is_reserved":false,"is_disabled":false,"rental_uris":{"android":"levelo://app?vid=c1631295-af43-4973-a05f-50d521b45493","ios":"levelo://app?vid=c1631295-af43-4973-a05f-50d521b45493"},"vehicle_type_id":"4","last_reported":1747501693,"current_range_meters":14400,"station_id":"cjm6bp8fraef2m0cb0m0","pricing_plan_id":"cebpf4jnsgd1na2vs0mg"},{"bike_id":"14d5eb2b-d075-4d8d-8120-3a0e827019c5","system_id":"levelo_inurba_marseille","lat":43.29601,"lon":5.37534,"is_reserved":false,"is_disabled":false,"rental_uris":{"android":"levelo://app?vid=14d5eb2b-d075-4d8d-8120-3a0e827019c5","ios":"levelo://app?vid=14d5eb2b-d075-4d8d-8120-3a0e827019c5"},"vehicle_type_id":"4","last_reported":1747501693,"current_range_meters":14800,"station_id":"ce4bgh92rcd13ifvqb50","pricing_plan_id":"cebpf4jnsgd1na2vs0mg"},{"bike_id":"4c57dbdf-50cf-400e-856c-02f38b605415","system_id":"levelo_inurba_marseille","lat":43.29946,"lon":5.36524,"is_reserved":false,"is_disabled":false,"rental_uris":{"android":"levelo://app?vid=4c57dbdf-50cf-400e-856c-02f38b605415","ios":"levelo://app?vid=4c57dbdf-50cf-400e-856c-02f38b605415"},"vehicle_type_id":"4","last_reported":1747501693,"current_range_meters":14800,"station_id":"ce4bgm92rcd13ifvqbr0","pricing_plan_id":"cebpf4jnsgd1na2vs0mg"},{"bike_id":"da80c725-5071-4d4f-bc34-f95ff0ad93e2","system_id":"levelo_inurba_marseille","lat":43.29625,"lon":5.37162,"is_reserved":false,"is_disabled":false,"rental_uris":{"android":"levelo://app?vid=da80c725-5071-4d4f-bc34-f95ff0ad93e2","ios":"levelo://app?vid=da80c725-5071-4d4f-bc34-f95ff0ad93e2"},"vehicle_type_id":"4","last_reported":1747501693,"current_range_meters":14800,"station_id":"ce4bgnh2rcd13ifvqc0g","pricing_plan_id":"cebpf4jnsgd1na2vs0mg"},{"bike_id":"dae28ef9-9ff5-49a4-b83d-29537692b9b8","system_id":"levelo_inurba_marseille","lat":43.299,"lon":5.43667,"is_reserved":false,"is_disabled":false,"rental_uris":{"android":"levelo://app?vid=dae28ef9-9ff5-49a4-b83d-29537692b9b8","ios":"levelo://app?vid=dae28ef9-9ff5-49a4-b83d-29537692b9b8"},"vehicle_type_id":"4","last_reported":1747501693,"current_range_meters":14800,"station_id":"ce4bhpp2rcd13ifvqhfg","pricing_plan_id":"cebpf4jnsgd1na2vs0mg"},