{"last_updated":1730916753,"ttl":60,"version":"2.2","data":{"bikes":[{"bike_id":"ad7bd7b0-39aa-4255-b369-36ca8455a7df","system_id":"levelo_inurba_marseille","lat":43.31996,"lon":5.38166,"is_reserved":false,"is_disabled":false,"rental_uris":{"android":"levelo://app?vid=ad7bd7b0-39aa-4255-b369-36ca8455a7df","ios":"levelo://app?vid=ad7bd7b0-39aa-4255-b369-36ca8455a7df"},"vehicle_type_id":"4","last_reported":1730916753,"current_range_meters":13600,"station_id":"ce4bhr12rcd13ifvqhpg","pricing_plan_id":"cebpf4jnsgd1na2vs0mg"},{"bike_id":"7ae96026-45f8-4be1-a705-40a234940d94","system_id":"levelo_inurba_marseille","lat":43.2799,"lon":5.40024,"is_reserved":false,"is_disabled":false,"rental_uris":{"android":"levelo://app?vid=7ae96026-45f8-4be1-a705-40a234940d94","ios":"levelo://app?vid=7ae96026-45f8-4be1-a705-40a234940d94"},"vehicle_type_id":"4","last_reported":1730916753,"current_range_meters":38000,"station_id":"ce4bho92rcd13ifvqh4g","pricing_plan_id":"cebpf4jnsgd1na2vs0mg"},{"bike_id":"1d6369ea-d7b1-4de0-8bcb-b88a6757b0f8","system_id":"levelo_inurba_marseille","lat":43.32111,"lon":5.36774,"is_reserved":false,"is_disabled":false,"rental_uris":{"android":"levelo://app?vid=1d6369ea-d7b1-4de0-8bcb-b88a6757b0f8","ios":"levelo://app?vid=1d6369ea-d7b1-4de0-8bcb-b88a6757b0f8"},"vehicle_type_id":"4","last_reported":1730916753,"current_range_meters":37600,"station_id":"ce4bhrh2rcd13ifvqhug","pricing_plan_id":"cebpf4jnsgd1na2vs0mg"},{"bike_id":"d38a4e03-a9ca-42f2-a77e-a6464b524e68","system_id":"levelo_inurba_marseille","lat":43.28154,"lon":5.42649,"is_reserved":false,"is_disabled":false,"rental_uris":{"android":"levelo://app?vid=d38a4e03-a9ca-42f2-a77e-a6464b524e68","ios":"levelo://app?vid=d38a4e03-a9ca-42f2-a77e-a6464b524e68"},"vehicle_type_id":"4","last_reported":1730916753,"current_range_meters":33600,"station_id":"ce4bhnh2rcd13ifvqgug","pricing_plan_id":"cebpf4jnsgd1na2vs0mg"},{"bike_id":"2358f1b7-8303-46b0-8fd0-ffc2b5a34c06","system_id":"levelo_inurba_marseille","lat":43.24663,"lon":5.3817,"is_reserved":false,"is_disabled":false,"rental_uris":{"android":"levelo://app?vid=2358f1b7-8303-46b0-8fd0-ffc2b5a34c06","ios":"levelo://app?vid=2358f1b7-8303-46b0-8fd0-ffc2b5a34c06"},"vehicle_type_id":"4","last_reported":1730916753,"current_range_meters":38800,"station_id":"ce4bhih2rcd13ifvqfr0","pricing_plan_id":"cebpf4jnsgd1na2vs0mg"},{"bike_id":"0eb170cc-0370-4464-813a-3c6cf97bdf61","system_id":"levelo_inurba_marseille","lat":43.30613,"lon":5.37222,"is_reserved":false,"is_disabled":false,"rental_uris":{"android":"levelo://app?vid=0eb170cc-0370-4464-813a-3c6cf97bdf61","ios":"levelo://app?vid=0eb170cc-0370-4464-813a-3c6cf97bdf61"},"vehicle_type_id":"4","last_reported":1730916753,"current_range_meters":30400,"station_id":"ce4bgqh2rcd13ifvqc4g","pricing_plan_id":"cebpf4jnsgd1na2vs0mg"},{"bike_id":"8cfac06c-664c-4191-80ef-378f683605c5","system_id":"levelo_inurba_marseille","lat":43.2953,"lon":5.38547,"is_reserved":false,"is_disabled":false,"rental_uris":{"android":"levelo://app?vid=8cfac06c-664c-4191-80ef-378f683605c5","ios":"levelo://app?vid=8cfac06c-664c-4191-80ef-378f683605c5"},"vehicle_type_id":"4","last_reported":1730916753,"current_range_meters":38800,"station_id":"ce4bgih2rcd13ifvqba0","pricing_plan_id":"cebpf4jnsgd1na2vs0mg"},{"bike_id":"d386fd97-6c3d-467c-b1bf-bd1effebdeb3","system_id":"levelo_inurba_marseille","lat":43.30135,"lon":5.39876,"is_reserved":false,"is_disabled":false,"rental_uris":{"android":"levelo://app?vid=d386fd97-6c3d-467c-b1bf-bd1effebdeb3","ios":"levelo://app?vid=d386fd97-6c3d-467c-b1bf-bd1effebdeb3"},"vehicle_type_id":"4","last_reported":1730916753,"current_range_meters":39200,"station_id":"ce4bh0h2rcd13ifvqd40","pricing_plan_id":"cebpf4jnsgd1na2vs0mg"},{"bike_id":"ddb129d2-4109-4f3d-8589-9db10629dcbe","system_id":"levelo_inurba_marseille","lat":43.28856,"lon":5.35856,"is_reserved":false,"is_disabled":false,"rental_uris":{"android":"levelo://app?vid=ddb129d2-4109-4f3d-8589-9db10629dcbe","ios":"levelo://app?vid=ddb129d2-4109-4f3d-8589-9db10629dcbe"},"vehicle_type_id":"4","last_reported":1730916753,"current_range_meters":38800,"station_id":"ce4bhb12rcd13ifvqem0","pricing_plan_id":"cebpf4jnsgd1na2vs0mg"},{"bike_id":"aaf896be-23fc-4cde-b212-d643c208e7c1","system_id":"levelo_inurba_marseille","lat":43.30416,"lon":5.41301,"is_reserved":false,"is_disabled":false,"rental_uris":{"android":"levelo://app?vid=aaf896be-23fc-4cde-b212-d643c208e7c1","ios":"levelo://app?vid=aaf896be-23fc-4cde-b212-d643c208e7c1"},"vehicle_type_id":"4","last_reported":1730916753,"current_range_meters":36800,"station_id":"ce4bhop2rcd13ifvqh8g","pricing_plan_id":"cebpf4jnsgd1na2vs0mg"},{"bike_id":"979fc5cf-357b-40ea-8dd3-6933241cfac3","system_id":"levelo_inurba_marseille","lat":43.30253,"lon":5.40086,"is_reserved":false,"is_disabled":false,"rental_uris":{"android":"levelo://app?vid=979fc5cf-357b-40ea-8dd3-6933241cfac3","ios":"levelo://app?vid=979fc5cf-357b-40ea-8dd3-6933241cfac3"},"vehicle_type_id":"4","last_reported":1730916753,"current_range_meters":16400,"station_id":"ce4bgvh2rcd13ifvqcs0","pricing_plan_id":"cebpf4jnsgd1na2vs0mg"},{"bike_id":"72efadbb-bf11-43ff-96cf-c421a3f198ee","system_id":"levelo_inurba_marseille","lat":43.27615,"lon":5.3612,"is_reserved":false,"is_disabled":false,"rental_uris":{"android":"levelo://app?vid=72efadbb-bf11-43ff-96cf-c421a3f198ee","ios":"levelo://app?vid=72efadbb-bf11-43ff-96cf-c421a3f198ee"},"vehicle_type_id":"4","last_reported":1730916753,"current_range_meters":14800,"station_id":"ce4bgj92rcd13ifvqbe0","pricing_plan_id":"cebpf4jnsgd1na2vs0mg"},{"bike_id":"e8c5a94c-115d-4efc-aeae-96d817313e30","system_id":"levelo_inurba_marseille","lat":43.30317,"lon":5.3691,"is_reserved":false,"is_disabled":false,"rental_uris":{"android":"levelo://app?vid=e8c5a94c-115d-4efc-aeae-96d817313e30","ios":"levelo://app?vid=e8c5a94c-115d-4efc-aeae-96d817313e30"},"vehicle_type_id":"4","last_reported":1730916753,"current_range_meters":30000,"station_id":"ce4bgqh2rcd13ifvqc5g","pricing_plan_id":"cebpf4jnsgd1na2vs0mg"},{"bike_id":"8af378d1-5bc4-457f-9470-74e88c52bda7","system_id":"levelo_inurba_marseille","lat":43.31996,"lon":5.38155,"is_reserved":false,"is_disabled":false,"rental_uris":{"android":"levelo://app?vid=8af378d1-5bc4-457f-9470-74e88c52bda7","ios":"levelo://app?vid=8af378d1-5bc4-457f-9470-74e88c52bda7"},"vehicle_type_id":"4","last_reported":1730916753,"current_range_meters":38800,"station_id":"ce4bhr12rcd13ifvqhpg","pricing_plan_id":"cebpf4jnsgd1na2vs0mg"},{"bike_id":"55fc641b-46b1-4285-8546-805cff3fb723","system_id":"levelo_inurba_marseille","lat":43.28079,"lon":5.39661,"is_reserved":false,"is_disabled":false,"rental_uris":{"android":"levelo://app?vid=55fc641b-46b1-4285-8546-805cff3fb723","ios":"levelo://app?vid=55fc641b-46b1-4285-8546-805cff3fb723"},"vehicle_type_id":"4","last_reported":1730916753,"current_range_meters":6800,"station_id":"ce4bho12rcd13ifvqh2g","pricing_plan_id":"cebpf4jnsgd1na2vs0mg"},{"bike_id":"92437862-9629-46f7-8ed5-946bc7784f02","system_id":"levelo_inurba_marseille","lat":43.31996,"lon":5.38167,"is_reserved":false,"is_disabled":false,"rental_uris":{"android":"levelo://app?vid=92437862-9629-46f7-8ed5-946bc7784f02","ios":"levelo://app?vid=92437862-9629-46f7-8ed5-946bc7784f02"},"vehicle_type_id":"4","last_reported":1730916753,"current_range_meters":30400,"station_id":"ce4bhr12rcd13ifvqhpg","pricing_plan_id":"cebpf4jnsgd1na2vs0mg"},{"bike_id":"44135612-fabe-4db6-b769-98ffa02d00e4","system_id":"levelo_inurba_marseille","lat":43.32291,"lon":5.38279,"is_reserved":false,"is_disabled":false,"rental_uris":{"android":"levelo://app?vid=44135612-fabe-4db6-b769-98ffa02d00e4","ios":"levelo://app?vid=44135612-fabe-4db6-b769-98ffa02d00e4"},"vehicle_type_id":"4","last_reported":1730916753,"current_range_meters":32400,"station_id":"ce4bhr12rcd13ifvqhqg","pricing_plan_id":"cebpf4jnsgd1na2vs0mg"},{"bike_id":"1e042949-838c-4779-9ed3-e835e41e7461","system_id":"levelo_inurba_marseille","lat":43.28005,"lon":5.40014,"is_reserved":false,"is_disabled":false,"rental_uris":{"android":"levelo://app?vid=1e042949-838c-4779-9ed3-e835e41e7461","ios":"levelo://app?vid=1e042949-838c-4779-9ed3-e835e41e7461"},"vehicle_type_id":"4","last_reported":1730916753,"current_range_meters":7200,"station_id":"ce4bho92rcd13ifvqh4g","pricing_plan_id":"cebpf4jnsgd1na2vs0mg"},{"bike_id":"8ab8f648-ce30-4cf5-afe6-0e778780037b","system_id":"levelo_inurba_marseille","lat":43.29427,"lon":5.38626,"is_reserved":false,"is_disabled":false,"rental_uris":{"android":"levelo://app?vid=8ab8f648-ce30-4cf5-afe6-0e778780037b","ios":"levelo://app?vid=8ab8f648-ce30-4cf5-afe6-0e778780037b"},"vehicle_type_id":"4","last_reported":1730916753,"current_range_meters":38800,"station_id":"ce4bh2h2rcd13ifvqdh0","pricing_plan_id":"cebpf4jnsgd1na2vs0mg"},{"bike_id":"713ed168-7d30-43ee-b6d0-9a9e81afd06c","system_id":"levelo_inurba_marseille","lat":43.23156,"lon":5.437073,"is_reserved":false,"is_disabled":false,"rental_uris":{"android":"levelo://app?vid=713ed168-7d30-43ee-b6d0-9a9e81afd06c","ios":"levelo://app?vid=713ed168-7d30-43ee-b6d0-9a9e81afd06c"},"vehicle_type_id":"4","last_reported":1730916753,"current_range_meters":39200,"station_id":"ce4bhmp2rcd13ifvqgog","pricing_plan_id":"cebpf4jnsgd1na2vs0mg"},{"bike_id":"57ab0675-2eb2-4196-ad1e-2134947b7146","system_id":"levelo_inurba_marseille","lat":43.27809,"lon":5.40722,"is_reserved":false,"is_disabled":false,"rental_uris":{"android":"levelo://app?vid=57ab0675-2eb2-4196-ad1e-2134947b7146","ios":"levelo://app?vid=57ab0675-2eb2-4196-ad1e-2134947b7146"},"vehicle_type_id":"4","last_reported":1730916753,"current_range_meters":34800,"station_id":"ce4bhnh2rcd13ifvqgtg","pricing_plan_id":"cebpf4jnsgd1na2vs0mg"},{"bike_id":"40512a4d-68bc-40a3-81d1-67cc73d350d9","system_id":"levelo_inurba_marseille","lat":43.27182,"lon":5.40994,"is_reserved":false,"is_disabled":false,"rental_uris":{"android":"levelo://app?vid=40512a4d-68bc-40a3-81d1-67cc73d350d9","ios":"levelo://app?vid=40512a4d-68bc-40a3-81d1-67cc73d350d9"},"vehicle_type_id":"4","last_reported":1730916753,"current_range_meters":24800,"station_id":"ce4bhl12rcd13ifvqgf0","pricing_plan_id":"cebpf4jnsgd1na2vs0mg"},{"bike_id":"8a401a8a-30f9-4643-ad63-74116d1b600f","system_id":"levelo_inurba_marseille","lat":43.32483,"lon":5.36578,"is_reserved":false,"is_disabled":false,"rental_uris":{"android":"levelo://app?vid=8a401a8a-30f9-4643-ad63-74116d1b600f","ios":"levelo://app?vid=8a401a8a-30f9-4643-ad63-74116d1b600f"},"vehicle_type_id":"4","last_reported":1730916753,"current_range_meters":38800,"station_id":"ce4bhs12rcd13ifvqhvg","pricing_plan_id":"cebpf4jnsgd1na2vs0mg"},{"bike_id":"171db454-9231-4690-bd0b-fa5dcfdd830b","system_id":"levelo_inurba_marseille","lat":43.31753,"lon":5.39022,"is_reserved":false,"is_disabled":false,"rental_uris":{"android":"levelo://app?vid=171db454-9231-4690-bd0b-fa5dcfdd830b","ios":"levelo://app?vid=171db454-9231-4690-bd0b-fa5dcfdd830b"},"vehicle_type_id":"4","last_reported":1730916753,"current_range_meters":38800,"station_id":"ce4bhqp2rcd13ifvqhng","pricing_plan_id":"cebpf4jnsgd1na2vs0mg"},{"bike_id":"4f52b563-a7be-4136-b14b-feeb142387e9","system_id":"levelo_inurba_marseille","lat":43.30789,"lon":5.3765,"is_reserved":false,"is_disabled":false,"rental_uris":{"android":"levelo://app?vid=4f52b563-a7be-4136-b14b-feeb142387e9","ios":"levelo://app?vid=4f52b563-a7be-4136-b14b-feeb142387e9"},"vehicle_type_id":"4","last_reported":1730916753,"current_range_meters":4000,"station_id":"ce4bgv92rcd13ifvqcq0","pricing_plan_id":"cebpf4jnsgd1na2vs0mg"},{"bike_id":"9df8b2aa-d51e-480d-b959-cc2426a02eb9","system_id":"levelo_inurba_marseille","lat":43.30956,"lon":5.39031,"is_reserved":false,"is_disabled":false,"rental_uris":{"android":"levelo://app?vid=9df8b2aa-d51e-480d-b959-cc2426a02eb9","ios":"levelo://app?vid=9df8b2aa-d51e-480d-b959-cc2426a02eb9"},"vehicle_type_id":"4","last_reported":1730916753,"current_range_meters":16800,"station_id":"ce4bgup2rcd13ifvqco0","pricing_plan_id":"cebpf4jnsgd1na2vs0mg"},{"bike_id":"8f3d5bb4-726d-4a11-94fb-f1dee42b4c2f","system_id":"levelo_inurba_marseille","lat":43.29543,"lon":5.3947,"is_reserved":false,"is_disabled":false,"rental_uris":{"android":"levelo://app?vid=8f3d5bb4-726d-4a11-94fb-f1dee42b4c2f","ios":"levelo://app?vid=8f3d5bb4-726d-4a11-94fb-f1dee42b4c2f"},"vehicle_type_id":"4","last_reported":1730916753,"current_range_meters":22800,"station_id":"ce4bh0p2rcd13ifvqd70","pricing_plan_id":"cebpf4jnsgd1na2vs0mg"},{"bike_id":"d229beaa-ac54-4996-9589-9d5015965115","system_id":"levelo_inurba_marseille","lat":43.28558,"lon":5.39501,"is_reserved":false,"is_disabled":false,"rental_uris":{"android":"levelo://app?vid=d229beaa-ac54-4996-9589-9d5015965115","ios":"levelo://app?vid=d229beaa-ac54-4996-9589-9d5015965115"},"vehicle_type_id":"4","last_reported":1730916753,"current_range_meters":26800,"station_id":"ce4bh292rcd13ifvqdg0","pricing_plan_id":"cebpf4jnsgd1na2vs0mg"},{"bike_id":"72ab18df-21fe-430a-8dc7-5381272d51d9","system_id":"levelo_inurba_marseille","lat":43.27942,"lon":5.41052,"is_reserved":false,"is_disabled":false,"rental_uris":{"android":"levelo://app?vid=72ab18df-21fe-430a-8dc7-5381272d51d9","ios":"levelo://app?vid=72ab18df-21fe-430a-8dc7-5381272d51d9"},"vehicle_type_id":"4","last_reported":1730916753,"current_range_meters":23200,"station_id":"ce4bhnp2rcd13ifvqh0g","pricing_plan_id":"cebpf4jnsgd1na2vs0mg"},{"bike_id":"ae291a7b-b0c8-4773-99e9-95879baade31","system_id":"levelo_inurba_marseille","lat":43.29358,"lon":5.37858,"is_reserved":false,"is_disabled":false,"rental_uris":{"android":"levelo://app?vid=ae291a7b-b0c8-4773-99e9-95879baade31","ios":"levelo://app?vid=ae291a7b-b0c8-4773-99e9-95879baade31"},"vehicle_type_id":"4","last_reported":1730916753,"current_range_meters":19600,"station_id":"ce4bgjh2rcd13ifvqbf0","pricing_plan_id":"cebpf4jnsgd1na2vs0mg"},{"bike_id":"328512fc-3e80-4303-8fb9-8bdfa1c9bb84","system_id":"levelo_inurba_marseille","lat":43.2895,"lon":5.39669,"is_reserved":false,"is_disabled":false,"rental_uris":{"android":"levelo://app?vid=328512fc-3e80-4303-8fb9-8bdfa1c9bb84","ios":"levelo://app?vid=328512fc-3e80-4303-8fb9-8bdfa1c9bb84"},"vehicle_type_id":"4","last_reported":1730916753,"current_range_meters":36800,"station_id":"ce4bh3h2rcd13ifvqdn0","pricing_plan_id":"cebpf4jnsgd1na2vs0mg"},{"bike_id":"692f31da-ed64-4e18-b7cc-350f01a2fb79","system_id":"levelo_inurba_marseille","lat":43.29897,"lon":5.43672,"is_reserved":false,"is_disabled":false,"rental_uris":{"android":"levelo://app?vid=692f31da-ed64-4e18-b7cc-350f01a2fb79","ios":"levelo://app?vid=692f31da-ed64-4e18-b7cc-350f01a2fb79"},"vehicle_type_id":"4","last_reported":1730916753,"current_range_meters":18000,"station_id":"ce4bhpp2rcd13ifvqhfg","pricing_plan_id":"cebpf4jnsgd1na2vs0mg"},{"bike_id":"8b1d7819-65f0-4cb2-bedd-ed63609540e6","system_id":"levelo_inurba_marseille","lat":43.30323,"lon":5.40446,"is_reserved":false,"is_disabled":false,"rental_uris":{"android":"levelo://app?vid=8b1d7819-65f0-4cb2-bedd-ed63609540e6","ios":"levelo://app?vid=8b1d7819-65f0-4cb2-bedd-ed63609540e6"},"vehicle_type_id":"4","last_reported":1730916753,"current_range_meters":21600,"station_id":"ce4bh012rcd13ifvqd10","pricing_plan_id":"cebpf4jnsgd1na2vs0mg"},{"bike_id":"8db99c1a-830b-4086-b709-a6d26cbb5069","system_id":"levelo_inurba_marseille","lat":43.29073,"lon":5.37171,"is_reserved":false,"is_disabled":false,"rental_uris":{"android":"levelo://app?vid=8db99c1a-830b-4086-b709-a6d26cbb5069","ios":"levelo://app?vid=8db99c1a-830b-4086-b709-a6d26cbb5069"},"vehicle_type_id":"4","last_reported":1730916753,"current_range_meters":4000,"station_id":"ce4bh5p2rcd13ifvqe4g","pricing_plan_id":"cebpf4jnsgd1na2vs0mg"},{"bike_id":"1a7eedfe-51e7-48ee-94ef-aabdee6a31a6","system_id":"levelo_inurba_marseille","lat":43.28037,"lon":5.36943,"is_reserved":false,"is_disabled":false,"rental_uris":{"android":"levelo://app?vid=1a7eedfe-51e7-48ee-94ef-aabdee6a31a6","ios":"levelo://app?vid=1a7eedfe-51e7-48ee-94ef-aabdee6a31a6"},"vehicle_type_id":"4","last_reported":1730916753,"current_range_meters":36800,"station_id":"ce4bha12rcd13ifvqef0","pricing_plan_id":"cebpf4jnsgd1na2vs0mg"},{"bike_id":"b3ab13db-8990-417f-b526-d674774d17db","system_id":"levelo_inurba_marseille","lat":43.29967,"lon":5.38082,"is_reserved":false,"is_disabled":false,"rental_uris":{"android":"levelo://app?vid=b3ab13db-8990-417f-b526-d674774d17db","ios":"levelo://app?vid=b3ab13db-8990-417f-b526-d674774d17db"},"vehicle_type_id":"4","last_reported":1730916753,"current_range_meters":9200,"station_id":"ce4bh292rcd13ifvqdf0","pricing_plan_id":"cebpf4jnsgd1na2vs0mg"},{"bike_id":"af114740-a9c4-4afa-9ec9-1d0f168702da","system_id":"levelo_inurba_marseille","lat":43.29415,"lon":5.38605,"is_reserved":false,"is_disabled":false,"rental_uris":{"android":"levelo://app?vid=af114740-a9c4-4afa-9ec9-1d0f168702da","ios":"levelo://app?vid=af114740-a9c4-4afa-9ec9-1d0f168702da"},"vehicle_type_id":"4","last_reported":1730916753,"current_range_meters":38000,"station_id":"ce4bh2h2rcd13ifvqdh0","pricing_plan_id":"cebpf4jnsgd1na2vs0mg"},{"bike_id":"3a265529-f2df-4840-bbc7-a2d699d588fb","system_id":"levelo_inurba_marseille","lat":43.24389,"lon":5.37066,"is_reserved":false,"is_disabled":false,"rental_uris":{"android":"levelo://app?vid=3a265529-f2df-4840-bbc7-a2d699d588fb","ios":"levelo://app?vid=3a265529-f2df-4840-bbc7-a2d699d588fb"},"vehicle_type_id":"4","last_reported":1730916753,"current_range_meters":20800,"station_id":"ce4bhhh2rcd13ifvqfk0","pricing_plan_id":"cebpf4jnsgd1na2vs0mg"},{"bike_id":"869803f0-d2be-4124-9c33-8082d1f80a8c","system_id":"levelo_inurba_marseille","lat":43.311223,"lon":5.383334,"is_reserved":false,"is_disabled":false,"rental_uris":{"android":"levelo://app?vid=869803f0-d2be-4124-9c33-8082d1f80a8c","ios":"levelo://app?vid=869803f0-d2be-4124-9c33-8082d1f80a8c"},"vehicle_type_id":"4","last_reported":1730916753,"current_range_meters":12000,"station_id":"","pricing_plan_id":"cebpf4jnsgd1na2vs0mg"},{"bike_id":"5dd7668a-4a2c-4ecb-8db7-007134c70f06","system_id":"levelo_inurba_marseille","lat":43.3109,"lon":5.42429,"is_reserved":false,"is_disabled":false,"rental_uris":{"android":"levelo://app?vid=5dd7668a-4a2c-4ecb-8db7-007134c70f06","ios":"levelo://app?vid=5dd7668a-4a2c-4ecb-8db7-007134c70f06"},"vehicle_type_id":"4","last_reported":1730916753,"current_range_meters":17200,"station_id":"ce4bhp92rcd13ifvqhag","pricing_plan_id":"cebpf4jnsgd1na2vs0mg"},{"bike_id":"ff218047-aee7-4cd5-9c22-0bde1affddbe","system_id":"levelo_inurba_marseille","lat":43.29521,"lon":5.39052,"is_reserved":false,"is_disabled":false,"rental_uris":{"android":"levelo://app?vid=ff218047-aee7-4cd5-9c22-0bde1affddbe","ios":"levelo://app?vid=ff218047-aee7-4cd5-9c22-0bde1affddbe"},"vehicle_type_id":"4","last_reported":1730916753,"current_range_meters":29600,"station_id":"ce4bh3p2rcd13ifvqdp0","pricing_plan_id":"cebpf4jnsgd1na2vs0mg"},{"bike_id":"78ea8e6b-fcbc-4ca9-b233-6e6fd40ab14f","system_id":"levelo_inurba_marseille","lat":43.28037,"lon":5.3695,"is_reserved":false,"is_disabled":false,"rental_uris":{"android":"levelo://app?vid=78ea8e6b-fcbc-4ca9-b233-6e6fd40ab14f","ios":"levelo://app?vid=78ea8e6b-fcbc-4ca9-b233-6e6fd40ab14f"},"vehicle_type_id":"4","last_reported":1730916753,"current_range_meters":16400,"station_id":"ce4bha12rcd13ifvqef0","pricing_plan_id":"cebpf4jnsgd1na2vs0mg"},{"bike_id":"66cadc2f-87dc-4b78-bb91-c6d6eee1cfce","system_id":"levelo_inurba_marseille","lat":43.3014,"lon":5.3987,"is_reserved":false,"is_disabled":false,"rental_uris":{"android":"levelo://app?vid=66cadc2f-87dc-4b78-bb91-c6d6eee1cfce","ios":"levelo://app?vid=66cadc2f-87dc-4b78-bb91-c6d6eee1cfce"},"vehicle_type_id":"4","last_reported":1730916753,"current_range_meters":18000,"station_id":"ce4bh0h2rcd13ifvqd40","pricing_plan_id":"cebpf4jnsgd1na2vs0mg"},{"bike_id":"a711d526-17f9-4333-96b8-d1dff3f07d6d","system_id":"levelo_inurba_marseille","lat":43.26808,"lon":5.4027,"is_reserved":false,"is_disabled":false,"rental_uris":{"android":"levelo://app?vid=a711d526-17f9-4333-96b8-d1dff3f07d6d","ios":"levelo://app?vid=a711d526-17f9-4333-96b8-d1dff3f07d6d"},"vehicle_type_id":"4","last_reported":1730916753,"current_range_meters":20000,"station_id":"ce501612rcd8frsf0b60","pricing_plan_id":"cebpf4jnsgd1na2vs0mg"},{"bike_id":"eae29b0d-8757-4157-ae69-56d1b94309b3","system_id":"levelo_inurba_marseille","lat":43.29881,"lon":5.38913,"is_reserved":false,"is_disabled":false,"rental_uris":{"android":"levelo://app?vid=eae29b0d-8757-4157-ae69-56d1b94309b3","ios":"levelo://app?vid=eae29b0d-8757-4157-ae69-56d1b94309b3"},"vehicle_type_id":"4","last_reported":1730916753,"current_range_meters":39200,"station_id":"ce4bh392rcd13ifvqdl0","pricing_plan_id":"cebpf4jnsgd1na2vs0mg"},{"bike_id":"081053e3-ccb9-46ca-9453-43abcf34915a","system_id":"levelo_inurba_marseille","lat":43.24667,"lon":5.38165,"is_reserved":false,"is_disabled":false,"rental_uris":{"android":"levelo://app?vid=081053e3-ccb9-46ca-9453-43abcf34915a","ios":"levelo://app?vid=081053e3-ccb9-46ca-9453-43abcf34915a"},"vehicle_type_id":"4","last_reported":1730916753,"current_range_meters":30000,"station_id":"ce4bhih2rcd13ifvqfr0","pricing_plan_id":"cebpf4jnsgd1na2vs0mg"},{"bike_id":"fda585f3-425c-4d9f-b8ce-f5692b144a9b","system_id":"levelo_inurba_marseille","lat":43.29525,"lon":5.38534,"is_reserved":false,"is_disabled":false,"rental_uris":{"android":"levelo://app?vid=fda585f3-425c-4d9f-b8ce-f5692b144a9b","ios":"levelo://app?vid=fda585f3-425c-4d9f-b8ce-f5692b144a9b"},"vehicle_type_id":"4","last_reported":1730916753,"current_range_meters":38400,"station_id":"ce4bgih2rcd13ifvqba0","pricing_plan_id":"cebpf4jnsgd1na2vs0mg"},{"bike_id":"f395edc5-6eed-4d5f-b300-95ff2f12f18c","system_id":"levelo_inurba_marseille","lat":43.24802,"lon":5.37456,"is_reserved":false,"is_disabled":false,"rental_uris":{"android":"levelo://app?vid=f395edc5-6eed-4d5f-b300-95ff2f12f18c","ios":"levelo://app?vid=f395edc5-6eed-4d5f-b300-95ff2f12f18c"},"vehicle_type_id":"4","last_reported":1730916753,"current_range_meters":28400,"station_id":"ce4bhgh2rcd13ifvqfb0","pricing_plan_id":"cebpf4jnsgd1na2vs0mg"},{"bike_id":"a38f2a8c-cf19-4e30-9c4b-2af64ae8949c","system_id":"levelo_inurba_marseille","lat":43.22935,"lon":5.35379,"is_reserved":false,"is_disabled":false,"rental_uris":{"android":"levelo://app?vid=a38f2a8c-cf19-4e30-9c4b-2af64ae8949c","ios":"levelo://app?vid=a38f2a8c-cf19-4e30-9c4b-2af64ae8949c"},"vehicle_type_id":"4","last_reported":1730916753,"current_range_meters":16800,"station_id":"cpo3532slgdg3j2ikp40","pricing_plan_id":"cebpf4jnsgd1na2vs0mg"},{"bike_id":"109d10f4-02e4-4395-8a3b-ada3d1f69163","system_id":"levelo_inurba_marseille","lat":43.30129,"lon":5.39867,"is_reserved":false,"is_disabled":false,"rental_uris":{"android":"levelo://app?vid=109d10f4-02e4-4395-8a3b-ada3d1f69163","ios":"levelo://app?vid=109d10f4-02e4-4395-8a3b-ada3d1f69163"},"vehicle_type_id":"4","last_reported":1730916753,"current_range_meters":9200,"station_id":"ce4bh0h2rcd13ifvqd40","pricing_plan_id":"cebpf4jnsgd1na2vs0mg"},{"bike_id":"865987c4-ebc4-4029-a442-b82214165a34","system_id":"levelo_inurba_marseille","lat":43.31361,"lon":5.38504,"is_reserved":false,"is_disabled":false,"rental_uris":{"android":"levelo://app?vid=865987c4-ebc4-4029-a442-b82214165a34","ios":"levelo://app?vid=865987c4-ebc4-4029-a442-b82214165a34"},"vehicle_type_id":"4","last_reported":1730916753,"current_range_meters":21600,"station_id":"ce4bgt92rcd13ifvqcf0","pricing_plan_id":"cebpf4jnsgd1na2vs0mg"},{"bike_id":"8ab29640-65be-41dd-9041-a77b74292777","system_id":"levelo_inurba_marseille","lat":43.3031,"lon":5.36885,"is_reserved":false,"is_disabled":false,"rental_uris":{"android":"levelo://app?vid=8ab29640-65be-41dd-9041-a77b74292777","ios":"levelo://app?vid=8ab29640-65be-41dd-9041-a77b74292777"},"vehicle_type_id":"4","last_reported":1730916753,"current_range_meters":8400,"station_id":"ce4bh0h2rcd13ifvqd60","pricing_plan_id":"cebpf4jnsgd1na2vs0mg"},{"bike_id":"a9134a2c-0cd3-42f1-aaa5-22766e2fb6e3","system_id":"levelo_inurba_marseille","lat":43.30595,"lon":5.37214,"is_reserved":false,"is_disabled":false,"rental_uris":{"android":"levelo://app?vid=a9134a2c-0cd3-42f1-aaa5-22766e2fb6e3","ios":"levelo://app?vid=a9134a2c-0cd3-42f1-aaa5-22766e2fb6e3"},"vehicle_type_id":"4","last_reported":1730916753,"current_range_meters":38800,"station_id":"ce4bgqh2rcd13ifvqc4g","pricing_plan_id":"cebpf4jnsgd1na2vs0mg"},{"bike_id":"79b66b6b-4771-4777-9ec3-5f9ad57fb8c8","system_id":"levelo_inurba_marseille","lat":43.28725,"lon":5.36095,"is_reserved":false,"is_disabled":false,"rental_uris":{"android":"levelo://app?vid=79b66b6b-4771-4777-9ec3-5f9ad57fb8c8","ios":"levelo://app?vid=79b66b6b-4771-4777-9ec3-5f9ad57fb8c8"},"vehicle_type_id":"4","last_reported":1730916753,"current_range_meters":34000,"station_id":"cki0cbj6b192h4jlfktg","pricing_plan_id":"cebpf4jnsgd1na2vs0mg"},{"bike_id":"42163e3e-5009-401f-a1ce-f09eb7e2a510","system_id":"levelo_inurba_marseille","lat":43.3133,"lon":5.39698,"is_reserved":false,"is_disabled":false,"rental_uris":{"android":"levelo://app?vid=42163e3e-5009-401f-a1ce-f09eb7e2a510","ios":"levelo://app?vid=42163e3e-5009-401f-a1ce-f09eb7e2a510"},"vehicle_type_id":"4","last_reported":1730916753,"current_range_meters":40000,"station_id":"ce4bgvp2rcd13ifvqcu0","pricing_plan_id":"cebpf4jnsgd1na2vs0mg"},{"bike_id":"8fea68b3-8356-4724-9689-1bf24897173c","system_id":"levelo_inurba_marseille","lat":43.29783,"lon":5.39347,"is_reserved":false,"is_disabled":false,"rental_uris":{"android":"levelo://app?vid=8fea68b3-8356-4724-9689-1bf24897173c","ios":"levelo://app?vid=8fea68b3-8356-4724-9689-1bf24897173c"},"vehicle_type_id":"4","last_reported":1730916753,"current_range_meters":26000,"station_id":"chh1huq6cuj3fo74tm60","pricing_plan_id":"cebpf4jnsgd1na2vs0mg"},{"bike_id":"a0db1695-32d8-4d9c-9829-ab1da773a69e","system_id":"levelo_inurba_marseille","lat":43.30142,"lon":5.39869,"is_reserved":false,"is_disabled":false,"rental_uris":{"android":"levelo://app?vid=a0db1695-32d8-4d9c-9829-ab1da773a69e","ios":"levelo://app?vid=a0db1695-32d8-4d9c-9829-ab1da773a69e"},"vehicle_type_id":"4","last_reported":1730916753,"current_range_meters":36400,"station_id":"ce4bh0h2rcd13ifvqd40","pricing_plan_id":"cebpf4jnsgd1na2vs0mg"},{"bike_id":"004d64a9-54a8-4c66-9404-6b8c735fc439","system_id":"levelo_inurba_marseille","lat":43.28936,"lon":5.38391,"is_reserved":false,"is_disabled":false,"rental_uris":{"android":"levelo://app?vid=004d64a9-54a8-4c66-9404-6b8c735fc439","ios":"levelo://app?vid=004d64a9-54a8-4c66-9404-6b8c735fc439"},"vehicle_type_id":"4","last_reported":1730916753,"current_range_meters":4400,"station_id":"ce4bh612rcd13ifvqe6g","pricing_plan_id":"cebpf4jnsgd1na2vs0mg"},{"bike_id":"da9b49c8-697c-4e75-9fb9-89118f9338db","system_id":"levelo_inurba_marseille","lat":43.3089,"lon":5.372,"is_reserved":false,"is_disabled":false,"rental_uris":{"android":"levelo://app?vid=da9b49c8-697c-4e75-9fb9-89118f9338db","ios":"levelo://app?vid=da9b49c8-697c-4e75-9fb9-89118f9338db"},"vehicle_type_id":"4","last_reported":1730916753,"current_range_meters":19200,"station_id":"ce4bguh2rcd13ifvqckg","pricing_plan_id":"cebpf4jnsgd1na2vs0mg"},{"bike_id":"72e3c6c6-702a-4434-bb9e-fbf2671a8951","system_id":"levelo_inurba_marseille","lat":43.28849,"lon":5.39313,"is_reserved":false,"is_disabled":false,"rental_uris":{"android":"levelo://app?vid=72e3c6c6-702a-4434-bb9e-fbf2671a8951","ios":"levelo://app?vid=72e3c6c6-702a-4434-bb9e-fbf2671a8951"},"vehicle_type_id":"4","last_reported":1730916753,"current_range_meters":2000,"station_id":"ce4bh2p2rcd13ifvqdi0","pricing_plan_id":"cebpf4jnsgd1na2vs0mg"},{"bike_id":"2be58595-1ee4-4e97-90d2-c6d933b5e1c7","system_id":"levelo_inurba_marseille","lat":43.29897,"lon":5.43667,"is_reserved":false,"is_disabled":false,"rental_uris":{"android":"levelo://app?vid=2be58595-1ee4-4e97-90d2-c6d933b5e1c7","ios":"levelo://app?vid=2be58595-1ee4-4e97-90d2-c6d933b5e1c7"},"vehicle_type_id":"4","last_reported":1730916753,"current_range_meters":18800,"station_id":"ce4bhpp2rcd13ifvqhfg","pricing_plan_id":"cebpf4jnsgd1na2vs0mg"},{"bike_id":"2dc66268-89a1-4c06-bb73-286474ed5638","system_id":"levelo_inurba_marseille","lat":43.29957,"lon":5.41317,"is_reserved":false,"is_disabled":false,"rental_uris":{"android":"levelo://app?vid=2dc66268-89a1-4c06-bb73-286474ed5638","ios":"levelo://app?vid=2dc66268-89a1-4c06-bb73-286474ed5638"},"vehicle_type_id":"4","last_reported":1730916753,"current_range_meters":29600,"station_id":"ce4bhp12rcd13ifvqh9g","pricing_plan_id":"cebpf4jnsgd1na2vs0mg"},{"bike_id":"c30771aa-cc4f-4666-a90c-a827905eae63","system_id":"levelo_inurba_marseille","lat":43.28076,"lon":5.39664,"is_reserved":false,"is_disabled":false,"rental_uris":{"android":"levelo://app?vid=c30771aa-cc4f-4666-a90c-a827905eae63","ios":"levelo://app?vid=c30771aa-cc4f-4666-a90c-a827905eae63"},"vehicle_type_id":"4","last_reported":1730916753,"current_range_meters":15200,"station_id":"ce4bho12rcd13ifvqh2g","pricing_plan_id":"cebpf4jnsgd1na2vs0mg"},{"bike_id":"c81b123c-c0ce-486e-a4ee-60a8c2af7fb0","system_id":"levelo_inurba_marseille","lat":43.30208,"lon":5.39464,"is_reserved":false,"is_disabled":false,"rental_uris":{"android":"levelo://app?vid=c81b123c-c0ce-486e-a4ee-60a8c2af7fb0","ios":"levelo://app?vid=c81b123c-c0ce-486e-a4ee-60a8c2af7fb0"},"vehicle_type_id":"4","last_reported":1730916753,"current_range_meters":36000,"station_id":"ce4bh0p2rcd13ifvqd70","pricing_plan_id":"cebpf4jnsgd1na2vs0mg"},{"bike_id":"9dd3607f-4f2f-4f96-ba92-948334cfc5ef","system_id":"levelo_inurba_marseille","lat":43.2953,"lon":5.38542,"is_reserved":false,"is_disabled":false,"rental_uris":{"android":"levelo://app?vid=9dd3607f-4f2f-4f96-ba92-948334cfc5ef","ios":"levelo://app?vid=9dd3607f-4f2f-4f96-ba92-948334cfc5ef"},"vehicle_type_id":"4","last_reported":1730916753,"current_range_meters":32000,"station_id":"ce4bgih2rcd13ifvqba0","pricing_plan_id":"cebpf4jnsgd1na2vs0mg"},{"bike_id":"16ab1282-3e67-4cc5-adc9-e6c22e528278","system_id":"levelo_inurba_marseille","lat":43.29267,"lon":5.38438,"is_reserved":false,"is_disabled":false,"rental_uris":{"android":"levelo://app?vid=16ab1282-3e67-4cc5-adc9-e6c22e528278","ios":"levelo://app?vid=16ab1282-3e67-4cc5-adc9-e6c22e528278"},"vehicle_type_id":"4","last_reported":1730916753,"current_range_meters":27600,"station_id":"ce4bh692rcd13ifvqea0","pricing_plan_id":"cebpf4jnsgd1na2vs0mg"},{"bike_id":"6254c024-9f8b-48c6-9465-e9d334efdc4a","system_id":"levelo_inurba_marseille","lat":43.288505,"lon":5.35851,"is_reserved":false,"is_disabled":false,"rental_uris":{"android":"levelo://app?vid=6254c024-9f8b-48c6-9465-e9d334efdc4a","ios":"levelo://app?vid=6254c024-9f8b-48c6-9465-e9d334efdc4a"},"vehicle_type_id":"4","last_reported":1730916753,"current_range_meters":28800,"station_id":"ce4bhb12rcd13ifvqem0","pricing_plan_id":"cebpf4jnsgd1na2vs0mg"},{"bike_id":"f348c9f4-9a66-4443-89e4-59eadd84ea52","system_id":"levelo_inurba_marseille","lat":43.315301,"lon":5.372481,"is_reserved":false,"is_disabled":false,"rental_uris":{"android":"levelo://app?vid=f348c9f4-9a66-4443-89e4-59eadd84ea52","ios":"levelo://app?vid=f348c9f4-9a66-4443-89e4-59eadd84ea52"},"vehicle_type_id":"4","last_reported":1730916753,"current_range_meters":6800,"station_id":"","pricing_plan_id":"cebpf4jnsgd1na2vs0mg"},{"bike_id":"4f2bdee6-4456-42ff-8942-9afb667ca1cb","system_id":"levelo_inurba_marseille","lat":43.25116,"lon":5.40327,"is_reserved":false,"is_disabled":false,"rental_uris":{"android":"levelo://app?vid=4f2bdee6-4456-42ff-8942-9afb667ca1cb","ios":"levelo://app?vid=4f2bdee6-4456-42ff-8942-9afb667ca1cb"},"vehicle_type_id":"4","last_reported":1730916753,"current_range_meters":38000,"station_id":"ce4bhlh2rcd13ifvqgig","pricing_plan_id":"cebpf4jnsgd1na2vs0mg"},{"bike_id":"9a57b94b-08e2-46b1-a431-346b37d938e3","system_id":"levelo_inurba_marseille","lat":43.27183,"lon":5.40994,"is_reserved":false,"is_disabled":false,"rental_uris":{"android":"levelo://app?vid=9a57b94b-08e2-46b1-a431-346b37d938e3","ios":"levelo://app?vid=9a57b94b-08e2-46b1-a431-346b37d938e3"},"vehicle_type_id":"4","last_reported":1730916753,"current_range_meters":3600,"station_id":"ce4bhl12rcd13ifvqgf0","pricing_plan_id":"cebpf4jnsgd1na2vs0mg"},{"bike_id":"37ebd3c5-6b18-4388-abf4-d033b2be7440","system_id":"levelo_inurba_marseille","lat":43.26805,"lon":5.4027,"is_reserved":false,"is_disabled":false,"rental_uris":{"android":"levelo://app?vid=37ebd3c5-6b18-4388-abf4-d033b2be7440","ios":"levelo://app?vid=37ebd3c5-6b18-4388-abf4-d033b2be7440"},"vehicle_type_id":"4","last_reported":1730916753,"current_range_meters":9600,"station_id":"ce501612rcd8frsf0b60","pricing_plan_id":"cebpf4jnsgd1na2vs0mg"},{"bike_id":"d78c2e42-7450-4457-9eb8-2dbc8a399de4","system_id":"levelo_inurba_marseille","lat":43.3088,"lon":5.39654,"is_reserved":false,"is_disabled":false,"rental_uris":{"android":"levelo://app?vid=d78c2e42-7450-4457-9eb8-2dbc8a399de4","ios":"levelo://app?vid=d78c2e42-7450-4457-9eb8-2dbc8a399de4"},"vehicle_type_id":"4","last_reported":1730916753,"current_range_meters":38000,"station_id":"ce4bh012rcd13ifvqcv0","pricing_plan_id":"cebpf4jnsgd1na2vs0mg"},{"bike_id":"73bfab2f-2160-41b5-95ab-d2e0665d7584","system_id":"levelo_inurba_marseille","lat":43.31531,"lon":5.38041,"is_reserved":false,"is_disabled":false,"rental_uris":{"android":"levelo://app?vid=73bfab2f-2160-41b5-95ab-d2e0665d7584","ios":"levelo://app?vid=73bfab2f-2160-41b5-95ab-d2e0665d7584"},"vehicle_type_id":"4","last_reported":1730916753,"current_range_meters":8400,"station_id":"ce4bhsp2rcd13ifvqi50","pricing_plan_id":"cebpf4jnsgd1na2vs0mg"},{"bike_id":"1f605dcf-489a-46c5-8ec0-74217c529382","system_id":"levelo_inurba_marseille","lat":43.2439,"lon":5.37063,"is_reserved":false,"is_disabled":false,"rental_uris":{"android":"levelo://app?vid=1f605dcf-489a-46c5-8ec0-74217c529382","ios":"levelo://app?vid=1f605dcf-489a-46c5-8ec0-74217c529382"},"vehicle_type_id":"4","last_reported":1730916753,"current_range_meters":11200,"station_id":"ce4bhhh2rcd13ifvqfk0","pricing_plan_id":"cebpf4jnsgd1na2vs0mg"},{"bike_id":"2fdeba19-632d-4758-a067-7c748675a2c1","system_id":"levelo_inurba_marseille","lat":43.28926,"lon":5.38393,"is_reserved":false,"is_disabled":false,"rental_uris":{"android":"levelo://app?vid=2fdeba19-632d-4758-a067-7c748675a2c1","ios":"levelo://app?vid=2fdeba19-632d-4758-a067-7c748675a2c1"},"vehicle_type_id":"4","last_reported":1730916753,"current_range_meters":38800,"station_id":"ce4bh612rcd13ifvqe6g","pricing_plan_id":"cebpf4jnsgd1na2vs0mg"},{"bike_id":"8f4078f6-9cbf-4855-9a02-85a2afdebc7a","system_id":"levelo_inurba_marseille","lat":43.30603,"lon":5.37226,"is_reserved":false,"is_disabled":false,"rental_uris":{"android":"levelo://app?vid=8f4078f6-9cbf-4855-9a02-85a2afdebc7a","ios":"levelo://app?vid=8f4078f6-9cbf-4855-9a02-85a2afdebc7a"},"vehicle_type_id":"4","last_reported":1730916753,"current_range_meters":24800,"station_id":"ce4bgqh2rcd13ifvqc4g","pricing_plan_id":"cebpf4jnsgd1na2vs0mg"},{"bike_id":"eacb38ea-2f2a-44fb-83b2-e31d8203ffb4","system_id":"levelo_inurba_marseille","lat":43.28699,"lon":5.39984,"is_reserved":false,"is_disabled":false,"rental_uris":{"android":"levelo://app?vid=eacb38ea-2f2a-44fb-83b2-e31d8203ffb4","ios":"levelo://app?vid=eacb38ea-2f2a-44fb-83b2-e31d8203ffb4"},"vehicle_type_id":"4","last_reported":1730916753,"current_range_meters":30000,"station_id":"ce4bho92rcd13ifvqh3g","pricing_plan_id":"cebpf4jnsgd1na2vs0mg"},{"bike_id":"138edf40-8b55-4b5b-8ebd-2a9cd72069a9","system_id":"levelo_inurba_marseille","lat":43.24665,"lon":5.38165,"is_reserved":false,"is_disabled":false,"rental_uris":{"android":"levelo://app?vid=138edf40-8b55-4b5b-8ebd-2a9cd72069a9","ios":"levelo://app?vid=138edf40-8b55-4b5b-8ebd-2a9cd72069a9"},"vehicle_type_id":"4","last_reported":1730916753,"current_range_meters":18000,"station_id":"ce4bhih2rcd13ifvqfr0","pricing_plan_id":"cebpf4jnsgd1na2vs0mg"},{"bike_id":"c1f11680-2672-40b6-8614-d00a9bc5e3c1","system_id":"levelo_inurba_marseille","lat":43.25863,"lon":5.39908,"is_reserved":false,"is_disabled":false,"rental_uris":{"android":"levelo://app?vid=c1f11680-2672-40b6-8614-d00a9bc5e3c1","ios":"levelo://app?vid=c1f11680-2672-40b6-8614-d00a9bc5e3c1"},"vehicle_type_id":"4","last_reported":1730916753,"current_range_meters":37600,"station_id":"ce4bhl92rcd13ifvqghg","pricing_plan_id":"cebpf4jnsgd1na2vs0mg"},{"bike_id":"cde33d01-4fdf-4588-9993-50576e545d63","system_id":"levelo_inurba_marseille","lat":43.29903,"lon":5.43677,"is_reserved":false,"is_disabled":false,"rental_uris":{"android":"levelo://app?vid=cde33d01-4fdf-4588-9993-50576e545d63","ios":"levelo://app?vid=cde33d01-4fdf-4588-9993-50576e545d63"},"vehicle_type_id":"4","last_reported":1730916753,"current_range_meters":36800,"station_id":"ce4bhpp2rcd13ifvqhfg","pricing_plan_id":"cebpf4jnsgd1na2vs0mg"},{"bike_id":"7b0fa45b-73b1-43d0-b318-c7b89f93ae59","system_id":"levelo_inurba_marseille","lat":43.31334,"lon":5.39704,"is_reserved":false,"is_disabled":false,"rental_uris":{"android":"levelo://app?vid=7b0fa45b-73b1-43d0-b318-c7b89f93ae59","ios":"levelo://app?vid=7b0fa45b-73b1-43d0-b318-c7b89f93ae59"},"vehicle_type_id":"4","last_reported":1730916753,"current_range_meters":8400,"station_id":"ce4bgvp2rcd13ifvqcu0","pricing_plan_id":"cebpf4jnsgd1na2vs0mg"},{"bike_id":"b479ed1a-0154-4ad8-bb5e-8792ecef09e1","system_id":"levelo_inurba_marseille","lat":43.29789,"lon":5.3809,"is_reserved":false,"is_disabled":false,"rental_uris":{"android":"levelo://app?vid=b479ed1a-0154-4ad8-bb5e-8792ecef09e1","ios":"levelo://app?vid=b479ed1a-0154-4ad8-bb5e-8792ecef09e1"},"vehicle_type_id":"4","last_reported":1730916753,"current_range_meters":38800,"station_id":"ce4bgip2rcd13ifvqbb0","pricing_plan_id":"cebpf4jnsgd1na2vs0mg"},{"bike_id":"71eb0f9f-9f44-4bf9-97c6-f800b88ffdbd","system_id":"levelo_inurba_marseille","lat":43.25868,"lon":5.399,"is_reserved":false,"is_disabled":false,"rental_uris":{"android":"levelo://app?vid=71eb0f9f-9f44-4bf9-97c6-f800b88ffdbd","ios":"levelo://app?vid=71eb0f9f-9f44-4bf9-97c6-f800b88ffdbd"},"vehicle_type_id":"4","last_reported":1730916753,"current_range_meters":38800,"station_id":"ce4bhl92rcd13ifvqghg","pricing_plan_id":"cebpf4jnsgd1na2vs0mg"},{"bike_id":"7a31ffc8-eae5-4ff8-bdac-732d75e07e54","system_id":"levelo_inurba_marseille","lat":43.30131,"lon":5.39869,"is_reserved":false,"is_disabled":false,"rental_uris":{"android":"levelo://app?vid=7a31ffc8-eae5-4ff8-bdac-732d75e07e54","ios":"levelo://app?vid=7a31ffc8-eae5-4ff8-bdac-732d75e07e54"},"vehicle_type_id":"4","last_reported":1730916753,"current_range_meters":38800,"station_id":"ce4bh0h2rcd13ifvqd40","pricing_plan_id":"cebpf4jnsgd1na2vs0mg"},{"bike_id":"4a83bd7b-12aa-4e70-b926-90a7e4fae100","system_id":"levelo_inurba_marseille","lat":43.28672,"lon":5.38652,"is_reserved":false,"is_disabled":false,"rental_uris":{"android":"levelo://app?vid=4a83bd7b-12aa-4e70-b926-90a7e4fae100","ios":"levelo://app?vid=4a83bd7b-12aa-4e70-b926-90a7e4fae100"},"vehicle_type_id":"4","last_reported":1730916753,"current_range_meters":22400,"station_id":"ce4bh492rcd13ifvqdug","pricing_plan_id":"cebpf4jnsgd1na2vs0mg"},{"bike_id":"cd01ed3b-00df-4dc2-b1c1-0da20e266904","system_id":"levelo_inurba_marseille","lat":43.25123,"lon":5.40319,"is_reserved":false,"is_disabled":false,"rental_uris":{"android":"levelo://app?vid=cd01ed3b-00df-4dc2-b1c1-0da20e266904","ios":"levelo://app?vid=cd01ed3b-00df-4dc2-b1c1-0da20e266904"},"vehicle_type_id":"4","last_reported":1730916753,"current_range_meters":38800,"station_id":"ce4bhlh2rcd13ifvqgig","pricing_plan_id":"cebpf4jnsgd1na2vs0mg"},{"bike_id":"bc8ee944-4095-408e-9184-b2d4e6d962c5","system_id":"levelo_inurba_marseille","lat":43.29201,"lon":5.3932,"is_reserved":false,"is_disabled":false,"rental_uris":{"android":"levelo://app?vid=bc8ee944-4095-408e-9184-b2d4e6d962c5","ios":"levelo://app?vid=bc8ee944-4095-408e-9184-b2d4e6d962c5"},"vehicle_type_id":"4","last_reported":1730916753,"current_range_meters":35200,"station_id":"ce4bh192rcd13ifvqdd0","pricing_plan_id":"cebpf4jnsgd1na2vs0mg"},{"bike_id":"5174ae6b-73b7-4eb9-b82e-9c61c1f78ce8","system_id":"levelo_inurba_marseille","lat":43.31228,"lon":5.40609,"is_reserved":false,"is_disabled":false,"rental_uris":{"android":"levelo://app?vid=5174ae6b-73b7-4eb9-b82e-9c61c1f78ce8","ios":"levelo://app?vid=5174ae6b-73b7-4eb9-b82e-9c61c1f78ce8"},"vehicle_type_id":"4","last_reported":1730916753,"current_range_meters":22000,"station_id":"","pricing_plan_id":"cebpf4jnsgd1na2vs0mg"},{"bike_id":"d3fd73c9-6496-4e01-8aa0-ed9deb248dfb","system_id":"levelo_inurba_marseille","lat":43.2981,"lon":5.38099,"is_reserved":false,"is_disabled":false,"rental_uris":{"android":"levelo://app?vid=d3fd73c9-6496-4e01-8aa0-ed9deb248dfb","ios":"levelo://app?vid=d3fd73c9-6496-4e01-8aa0-ed9deb248dfb"},"vehicle_type_id":"4","last_reported":1730916753,"current_range_meters":8400,"station_id":"ce4bgip2rcd13ifvqbb0","pricing_plan_id":"cebpf4jnsgd1na2vs0mg"},{"bike_id":"14dbe77a-179c-4f3a-96a9-2e4fd6c1d55a","system_id":"levelo_inurba_marseille","lat":43.29257,"lon":5.3844,"is_reserved":false,"is_disabled":false,"rental_uris":{"android":"levelo://app?vid=14dbe77a-179c-4f3a-96a9-2e4fd6c1d55a","ios":"levelo://app?vid=14dbe77a-179c-4f3a-96a9-2e4fd6c1d55a"},"vehicle_type_id":"4","last_reported":1730916753,"current_range_meters":9600,"station_id":"ce4bh692rcd13ifvqea0","pricing_plan_id":"cebpf4jnsgd1na2vs0mg"},{"bike_id":"6c6067c7-81ca-4cfd-98d1-3c4aa468815b","system_id":"levelo_inurba_marseille","lat":43.31753,"lon":5.39026,"is_reserved":false,"is_disabled":false,"rental_uris":{"android":"levelo://app?vid=6c6067c7-81ca-4cfd-98d1-3c4aa468815b","ios":"levelo://app?vid=6c6067c7-81ca-4cfd-98d1-3c4aa468815b"},"vehicle_type_id":"4","last_reported":1730916753,"current_range_meters":38800,"station_id":"ce4bhqp2rcd13ifvqhng","pricing_plan_id":"cebpf4jnsgd1na2vs0mg"},{"bike_id":"07e3b50b-3a36-453a-9a2d-5be179a0f1df","system_id":"levelo_inurba_marseille","lat":43.30886,"lon":5.39656,"is_reserved":false,"is_disabled":false,"rental_uris":{"android":"levelo://app?vid=07e3b50b-3a36-453a-9a2d-5be179a0f1df","ios":"levelo://app?vid=07e3b50b-3a36-453a-9a2d-5be179a0f1df"},"vehicle_type_id":"4","last_reported":1730916753,"current_range_meters":28000,"station_id":"ce4bh012rcd13ifvqcv0","pricing_plan_id":"cebpf4jnsgd1na2vs0mg"},{"bike_id":"73c53c13-4b99-443a-bf46-889ae8071c20","system_id":"levelo_inurba_marseille","lat":43.25085,"lon":5.39518,"is_reserved":false,"is_disabled":false,"rental_uris":{"android":"levelo://app?vid=73c53c13-4b99-443a-bf46-889ae8071c20","ios":"levelo://app?vid=73c53c13-4b99-443a-bf46-889ae8071c20"},"vehicle_type_id":"4","last_reported":1730916753,"current_range_meters":17600,"station_id":"ce4bhm12rcd13ifvqgkg","pricing_plan_id":"cebpf4jnsgd1na2vs0mg"},{"bike_id":"bff19b85-fa9d-4d2e-a404-1b3282f15d63","system_id":"levelo_inurba_marseille","lat":43.2801,"lon":5.40016,"is_reserved":false,"is_disabled":false,"rental_uris":{"android":"levelo://app?vid=bff19b85-fa9d-4d2e-a404-1b3282f15d63","ios":"levelo://app?vid=bff19b85-fa9d-4d2e-a404-1b3282f15d63"},"vehicle_type_id":"4","last_reported":1730916753,"current_range_meters":38000,"station_id":"ce4bho92rcd13ifvqh4g","pricing_plan_id":"cebpf4jnsgd1na2vs0mg"},{"bike_id":"0439fa8e-2b05-4a9a-a0e2-05de4a43e20f","system_id":"levelo_inurba_marseille","lat":43.29966,"lon":5.384897,"is_reserved":false,"is_disabled":false,"rental_uris":{"android":"levelo://app?vid=0439fa8e-2b05-4a9a-a0e2-05de4a43e20f","ios":"levelo://app?vid=0439fa8e-2b05-4a9a-a0e2-05de4a43e20f"},"vehicle_type_id":"4","last_reported":1730916753,"current_range_meters":20000,"station_id":"ce4bgjh2rcd13ifvqbg0","pricing_plan_id":"cebpf4jnsgd1na2vs0mg"},{"bike_id":"d25cc44c-d51b-4657-b44d-4c31a96a9ac3","system_id":"levelo_inurba_marseille","lat":43.32343,"lon":5.40615,"is_reserved":false,"is_disabled":false,"rental_uris":{"android":"levelo://app?vid=d25cc44c-d51b-4657-b44d-4c31a96a9ac3","ios":"levelo://app?vid=d25cc44c-d51b-4657-b44d-4c31a96a9ac3"},"vehicle_type_id":"4","last_reported":1730916753,"current_range_meters":16800,"station_id":"ce4bhq92rcd13ifvqhjg","pricing_plan_id":"cebpf4jnsgd1na2vs0mg"},{"bike_id":"f65e7c09-c1e1-4fff-bd59-50ca1a2cba11","system_id":"levelo_inurba_marseille","lat":43.3089,"lon":5.39659,"is_reserved":false,"is_disabled":false,"rental_uris":{"android":"levelo://app?vid=f65e7c09-c1e1-4fff-bd59-50ca1a2cba11","ios":"levelo://app?vid=f65e7c09-c1e1-4fff-bd59-50ca1a2cba11"},"vehicle_type_id":"4","last_reported":1730916753,"current_range_meters":28400,"station_id":"ce4bh012rcd13ifvqcv0","pricing_plan_id":"cebpf4jnsgd1na2vs0mg"},{"bike_id":"1a200d94-7fcc-43a0-baf7-0653f1297e9d","system_id":"levelo_inurba_marseille","lat":43.246649,"lon":5.381712,"is_reserved":false,"is_disabled":false,"rental_uris":{"android":"levelo://app?vid=1a200d94-7fcc-43a0-baf7-0653f1297e9d","ios":"levelo://app?vid=1a200d94-7fcc-43a0-baf7-0653f1297e9d"},"vehicle_type_id":"4","last_reported":1730916753,"current_range_meters":19600,"station_id":"ce4bhih2rcd13ifvqfr0","pricing_plan_id":"cebpf4jnsgd1na2vs0mg"},{"bike_id":"dd172bf8-d14d-45c6-9752-e4c7a309bb9f","system_id":"levelo_inurba_marseille","lat":43.25824,"lon":5.39423,"is_reserved":false,"is_disabled":false,"rental_uris":{"android":"levelo://app?vid=dd172bf8-d14d-45c6-9752-e4c7a309bb9f","ios":"levelo://app?vid=dd172bf8-d14d-45c6-9752-e4c7a309bb9f"},"vehicle_type_id":"4","last_reported":1730916753,"current_range_meters":38000,"station_id":"ce4bhip2rcd13ifvqft0","pricing_plan_id":"cebpf4jnsgd1na2vs0mg"},{"bike_id":"9fd2eafb-b3a2-4330-b6d6-848617578953","system_id":"levelo_inurba_marseille","lat":43.32001,"lon":5.38162,"is_reserved":false,"is_disabled":false,"rental_uris":{"android":"levelo://app?vid=9fd2eafb-b3a2-4330-b6d6-848617578953","ios":"levelo://app?vid=9fd2eafb-b3a2-4330-b6d6-848617578953"},"vehicle_type_id":"4","last_reported":1730916753,"current_range_meters":8400,"station_id":"ce4bhr12rcd13ifvqhpg","pricing_plan_id":"cebpf4jnsgd1na2vs0mg"},{"bike_id":"ed9d7a87-b2a5-4493-8ad8-420f1b483592","system_id":"levelo_inurba_marseille","lat":43.3088,"lon":5.39638,"is_reserved":false,"is_disabled":false,"rental_uris":{"android":"levelo://app?vid=ed9d7a87-b2a5-4493-8ad8-420f1b483592","ios":"levelo://app?vid=ed9d7a87-b2a5-4493-8ad8-420f1b483592"},"vehicle_type_id":"4","last_reported":1730916753,"current_range_meters":39200,"station_id":"ce4bh012rcd13ifvqcv0","pricing_plan_id":"cebpf4jnsgd1na2vs0mg"},{"bike_id":"cfdf668a-e40a-4cb4-9d3c-0b34832b6a89","system_id":"levelo_inurba_marseille","lat":43.27002,"lon":5.39958,"is_reserved":false,"is_disabled":false,"rental_uris":{"android":"levelo://app?vid=cfdf668a-e40a-4cb4-9d3c-0b34832b6a89","ios":"levelo://app?vid=cfdf668a-e40a-4cb4-9d3c-0b34832b6a89"},"vehicle_type_id":"4","last_reported":1730916753,"current_range_meters":25600,"station_id":"","pricing_plan_id":"cebpf4jnsgd1na2vs0mg"},{"bike_id":"49b91869-73c1-469e-8156-9ede284d7096","system_id":"levelo_inurba_marseille","lat":43.31714,"lon":5.43709,"is_reserved":false,"is_disabled":false,"rental_uris":{"android":"levelo://app?vid=49b91869-73c1-469e-8156-9ede284d7096","ios":"levelo://app?vid=49b91869-73c1-469e-8156-9ede284d7096"},"vehicle_type_id":"4","last_reported":1730916753,"current_range_meters":24800,"station_id":"ce4bhp92rcd13ifvqhcg","pricing_plan_id":"cebpf4jnsgd1na2vs0mg"},{"bike_id":"2fe515d7-c2ba-40bc-af58-2812fb065090","system_id":"levelo_inurba_marseille","lat":43.29865,"lon":5.39739,"is_reserved":false,"is_disabled":false,"rental_uris":{"android":"levelo://app?vid=2fe515d7-c2ba-40bc-af58-2812fb065090","ios":"levelo://app?vid=2fe515d7-c2ba-40bc-af58-2812fb065090"},"vehicle_type_id":"4","last_reported":1730916753,"current_range_meters":17200,"station_id":"ce4bh0h2rcd13ifvqd50","pricing_plan_id":"cebpf4jnsgd1na2vs0mg"},{"bike_id":"60123827-01e2-4009-9984-c9687bad179c","system_id":"levelo_inurba_marseille","lat":43.30259,"lon":5.40075,"is_reserved":false,"is_disabled":false,"rental_uris":{"android":"levelo://app?vid=60123827-01e2-4009-9984-c9687bad179c","ios":"levelo://app?vid=60123827-01e2-4009-9984-c9687bad179c"},"vehicle_type_id":"4","last_reported":1730916753,"current_range_meters":28800,"station_id":"ce4bgvh2rcd13ifvqcs0","pricing_plan_id":"cebpf4jnsgd1na2vs0mg"},{"bike_id":"a5bc2fce-204d-4ecc-bd2f-0a758ce61f0d","system_id":"levelo_inurba_marseille","lat":43.27991,"lon":5.4002,"is_reserved":false,"is_disabled":false,"rental_uris":{"android":"levelo://app?vid=a5bc2fce-204d-4ecc-bd2f-0a758ce61f0d","ios":"levelo://app?vid=a5bc2fce-204d-4ecc-bd2f-0a758ce61f0d"},"vehicle_type_id":"4","last_reported":1730916753,"current_range_meters":8400,"station_id":"ce4bho92rcd13ifvqh4g","pricing_plan_id":"cebpf4jnsgd1na2vs0mg"},{"bike_id":"d0196702-7429-4a2d-86eb-6777a267cff3","system_id":"levelo_inurba_marseille","lat":43.29981,"lon":5.37172,"is_reserved":false,"is_disabled":false,"rental_uris":{"android":"levelo://app?vid=d0196702-7429-4a2d-86eb-6777a267cff3","ios":"levelo://app?vid=d0196702-7429-4a2d-86eb-6777a267cff3"},"vehicle_type_id":"4","last_reported":1730916753,"current_range_meters":8800,"station_id":"ce4bgr92rcd13ifvqc7g","pricing_plan_id":"cebpf4jnsgd1na2vs0mg"},{"bike_id":"2ee5cf43-fc2d-4208-8b67-beba11e71ad1","system_id":"levelo_inurba_marseille","lat":43.29528,"lon":5.38546,"is_reserved":false,"is_disabled":false,"rental_uris":{"android":"levelo://app?vid=2ee5cf43-fc2d-4208-8b67-beba11e71ad1","ios":"levelo://app?vid=2ee5cf43-fc2d-4208-8b67-beba11e71ad1"},"vehicle_type_id":"4","last_reported":1730916753,"current_range_meters":26000,"station_id":"ce4bgih2rcd13ifvqba0","pricing_plan_id":"cebpf4jnsgd1na2vs0mg"},{"bike_id":"4d3c374a-1f45-46b9-8607-f64397074506","system_id":"levelo_inurba_marseille","lat":43.25089,"lon":5.39513,"is_reserved":false,"is_disabled":false,"rental_uris":{"android":"levelo://app?vid=4d3c374a-1f45-46b9-8607-f64397074506","ios":"levelo://app?vid=4d3c374a-1f45-46b9-8607-f64397074506"},"vehicle_type_id":"4","last_reported":1730916753,"current_range_meters":30000,"station_id":"ce4bhm12rcd13ifvqgkg","pricing_plan_id":"cebpf4jnsgd1na2vs0mg"},{"bike_id":"fb42b791-ae4f-4dea-b067-a809775f4415","system_id":"levelo_inurba_marseille","lat":43.25722,"lon":5.41114,"is_reserved":false,"is_disabled":false,"rental_uris":{"android":"levelo://app?vid=fb42b791-ae4f-4dea-b067-a809775f4415","ios":"levelo://app?vid=fb42b791-ae4f-4dea-b067-a809775f4415"},"vehicle_type_id":"4","last_reported":1730916753,"current_range_meters":3200,"station_id":"ce4bhkp2rcd13ifvqgd0","pricing_plan_id":"cebpf4jnsgd1na2vs0mg"},{"bike_id":"b7dd8bea-767b-4a90-a1d4-bc825086e891","system_id":"levelo_inurba_marseille","lat":43.3013,"lon":5.3987,"is_reserved":false,"is_disabled":false,"rental_uris":{"android":"levelo://app?vid=b7dd8bea-767b-4a90-a1d4-bc825086e891","ios":"levelo://app?vid=b7dd8bea-767b-4a90-a1d4-bc825086e891"},"vehicle_type_id":"4","last_reported":1730916753,"current_range_meters":28000,"station_id":"ce4bh0h2rcd13ifvqd40","pricing_plan_id":"cebpf4jnsgd1na2vs0mg"},{"bike_id":"9a0ae2e4-d1fa-4de6-b4c7-29ff5e540266","system_id":"levelo_inurba_marseille","lat":43.34144,"lon":5.40911,"is_reserved":false,"is_disabled":false,"rental_uris":{"android":"levelo://app?vid=9a0ae2e4-d1fa-4de6-b4c7-29ff5e540266","ios":"levelo://app?vid=9a0ae2e4-d1fa-4de6-b4c7-29ff5e540266"},"vehicle_type_id":"4","last_reported":1730916753,"current_range_meters":38800,"station_id":"ce4bhqh2rcd13ifvqhlg","pricing_plan_id":"cebpf4jnsgd1na2vs0mg"},{"bike_id":"fa75792c-e5d5-4826-a65d-b964422195e2","system_id":"levelo_inurba_marseille","lat":43.31755,"lon":5.39023,"is_reserved":false,"is_disabled":false,"rental_uris":{"android":"levelo://app?vid=fa75792c-e5d5-4826-a65d-b964422195e2","ios":"levelo://app?vid=fa75792c-e5d5-4826-a65d-b964422195e2"},"vehicle_type_id":"4","last_reported":1730916753,"current_range_meters":38800,"station_id":"ce4bhqp2rcd13ifvqhng","pricing_plan_id":"cebpf4jnsgd1na2vs0mg"},{"bike_id":"dee376ac-3809-4888-b3c6-3f4b373d74ca","system_id":"levelo_inurba_marseille","lat":43.2941,"lon":5.38622,"is_reserved":false,"is_disabled":false,"rental_uris":{"android":"levelo://app?vid=dee376ac-3809-4888-b3c6-3f4b373d74ca","ios":"levelo://app?vid=dee376ac-3809-4888-b3c6-3f4b373d74ca"},"vehicle_type_id":"4","last_reported":1730916753,"current_range_meters":30400,"station_id":"ce4bh2h2rcd13ifvqdh0","pricing_plan_id":"cebpf4jnsgd1na2vs0mg"},{"bike_id":"a5df2937-cd58-409d-b56a-da9705e38f08","system_id":"levelo_inurba_marseille","lat":43.23153,"lon":5.43725,"is_reserved":false,"is_disabled":false,"rental_uris":{"android":"levelo://app?vid=a5df2937-cd58-409d-b56a-da9705e38f08","ios":"levelo://app?vid=a5df2937-cd58-409d-b56a-da9705e38f08"},"vehicle_type_id":"4","last_reported":1730916753,"current_range_meters":30000,"station_id":"ce4bhmp2rcd13ifvqgog","pricing_plan_id":"cebpf4jnsgd1na2vs0mg"},{"bike_id":"55a677bd-87c6-4021-ae5c-c9a5693b7d71","system_id":"levelo_inurba_marseille","lat":43.31333,"lon":5.39705,"is_reserved":false,"is_disabled":false,"rental_uris":{"android":"levelo://app?vid=55a677bd-87c6-4021-ae5c-c9a5693b7d71","ios":"levelo://app?vid=55a677bd-87c6-4021-ae5c-c9a5693b7d71"},"vehicle_type_id":"4","last_reported":1730916753,"current_range_meters":38800,"station_id":"ce4bgvp2rcd13ifvqcu0","pricing_plan_id":"cebpf4jnsgd1na2vs0mg"},{"bike_id":"4e5d727a-7c34-44b8-af94-45a54b88c1cc","system_id":"levelo_inurba_marseille","lat":43.3372,"lon":5.39183,"is_reserved":false,"is_disabled":false,"rental_uris":{"android":"levelo://app?vid=4e5d727a-7c34-44b8-af94-45a54b88c1cc","ios":"levelo://app?vid=4e5d727a-7c34-44b8-af94-45a54b88c1cc"},"vehicle_type_id":"4","last_reported":1730916753,"current_range_meters":40000,"station_id":"ce4bhr92rcd13ifvqhsg","pricing_plan_id":"cebpf4jnsgd1na2vs0mg"},{"bike_id":"caf9ca9a-088f-4c1b-8946-fafbfbd38c8f","system_id":"levelo_inurba_marseille","lat":43.308953,"lon":5.396473,"is_reserved":false,"is_disabled":false,"rental_uris":{"android":"levelo://app?vid=caf9ca9a-088f-4c1b-8946-fafbfbd38c8f","ios":"levelo://app?vid=caf9ca9a-088f-4c1b-8946-fafbfbd38c8f"},"vehicle_type_id":"4","last_reported":1730916753,"current_range_meters":38800,"station_id":"ce4bh012rcd13ifvqcv0","pricing_plan_id":"cebpf4jnsgd1na2vs0mg"},{"bike_id":"3db45f7f-ec27-4759-ad8b-90c3525b8c51","system_id":"levelo_inurba_marseille","lat":43.30096,"lon":5.3908,"is_reserved":false,"is_disabled":false,"rental_uris":{"android":"levelo://app?vid=3db45f7f-ec27-4759-ad8b-90c3525b8c51","ios":"levelo://app?vid=3db45f7f-ec27-4759-ad8b-90c3525b8c51"},"vehicle_type_id":"4","last_reported":1730916753,"current_range_meters":24400,"station_id":"ce4bh192rcd13ifvqdb0","pricing_plan_id":"cebpf4jnsgd1na2vs0mg"},{"bike_id":"2ac59b30-95ad-4d41-84cd-66b709f67fc4","system_id":"levelo_inurba_marseille","lat":43.337444,"lon":5.374475,"is_reserved":false,"is_disabled":false,"rental_uris":{"android":"levelo://app?vid=2ac59b30-95ad-4d41-84cd-66b709f67fc4","ios":"levelo://app?vid=2ac59b30-95ad-4d41-84cd-66b709f67fc4"},"vehicle_type_id":"4","last_reported":1730916753,"current_range_meters":36000,"station_id":"","pricing_plan_id":"cebpf4jnsgd1na2vs0mg"},{"bike_id":"26c32043-c46e-41e3-99f6-455429997b2f","system_id":"levelo_inurba_marseille","lat":43.2977,"lon":5.39369,"is_reserved":false,"is_disabled":false,"rental_uris":{"android":"levelo://app?vid=26c32043-c46e-41e3-99f6-455429997b2f","ios":"levelo://app?vid=26c32043-c46e-41e3-99f6-455429997b2f"},"vehicle_type_id":"4","last_reported":1730916753,"current_range_meters":39200,"station_id":"chh1huq6cuj3fo74tm60","pricing_plan_id":"cebpf4jnsgd1na2vs0mg"},{"bike_id":"6a0c2d4f-2304-4324-9fb6-964e08aa013b","system_id":"levelo_inurba_marseille","lat":43.33025,"lon":5.39038,"is_reserved":false,"is_disabled":false,"rental_uris":{"android":"levelo://app?vid=6a0c2d4f-2304-4324-9fb6-964e08aa013b","ios":"levelo://app?vid=6a0c2d4f-2304-4324-9fb6-964e08aa013b"},"vehicle_type_id":"4","last_reported":1730916753,"current_range_meters":28000,"station_id":"ce4bhr92rcd13ifvqhrg","pricing_plan_id":"cebpf4jnsgd1na2vs0mg"},{"bike_id":"dbea3ed8-16a9-43c1-966c-8c7f31ebffe9","system_id":"levelo_inurba_marseille","lat":43.31076,"lon":5.38357,"is_reserved":false,"is_disabled":false,"rental_uris":{"android":"levelo://app?vid=dbea3ed8-16a9-43c1-966c-8c7f31ebffe9","ios":"levelo://app?vid=dbea3ed8-16a9-43c1-966c-8c7f31ebffe9"},"vehicle_type_id":"4","last_reported":1730916753,"current_range_meters":8400,"station_id":"ce4bgv92rcd13ifvqcr0","pricing_plan_id":"cebpf4jnsgd1na2vs0mg"},{"bike_id":"43c389a5-9c0e-40fe-8585-3ad26addbdcc","system_id":"levelo_inurba_marseille","lat":43.283832,"lon":5.386284,"is_reserved":false,"is_disabled":false,"rental_uris":{"android":"levelo://app?vid=43c389a5-9c0e-40fe-8585-3ad26addbdcc","ios":"levelo://app?vid=43c389a5-9c0e-40fe-8585-3ad26addbdcc"},"vehicle_type_id":"4","last_reported":1730916753,"current_range_meters":34000,"station_id":"ce4bh492rcd13ifvqdvg","pricing_plan_id":"cebpf4jnsgd1na2vs0mg"},{"bike_id":"3d161c35-9f40-4b08-a68a-f579008f18ef","system_id":"levelo_inurba_marseille","lat":43.25729,"lon":5.41108,"is_reserved":false,"is_disabled":false,"rental_uris":{"android":"levelo://app?vid=3d161c35-9f40-4b08-a68a-f579008f18ef","ios":"levelo://app?vid=3d161c35-9f40-4b08-a68a-f579008f18ef"},"vehicle_type_id":"4","last_reported":1730916753,"current_range_meters":12400,"station_id":"ce4bhkp2rcd13ifvqgd0","pricing_plan_id":"cebpf4jnsgd1na2vs0mg"},{"bike_id":"0427f15c-f020-426b-b0c7-99742a4d06ae","system_id":"levelo_inurba_marseille","lat":43.32485,"lon":5.36561,"is_reserved":false,"is_disabled":false,"rental_uris":{"android":"levelo://app?vid=0427f15c-f020-426b-b0c7-99742a4d06ae","ios":"levelo://app?vid=0427f15c-f020-426b-b0c7-99742a4d06ae"},"vehicle_type_id":"4","last_reported":1730916753,"current_range_meters":38800,"station_id":"ce4bhs12rcd13ifvqhvg","pricing_plan_id":"cebpf4jnsgd1na2vs0mg"},{"bike_id":"91dbb18e-7c31-498e-8c65-eddd96e1049a","system_id":"levelo_inurba_marseille","lat":43.287,"lon":5.37396,"is_reserved":false,"is_disabled":false,"rental_uris":{"android":"levelo://app?vid=91dbb18e-7c31-498e-8c65-eddd96e1049a","ios":"levelo://app?vid=91dbb18e-7c31-498e-8c65-eddd96e1049a"},"vehicle_type_id":"4","last_reported":1730916753,"current_range_meters":38800,"station_id":"ce4bh3p2rcd13ifvqdq0","pricing_plan_id":"cebpf4jnsgd1na2vs0mg"},{"bike_id":"501860bc-6da1-4c97-8f79-8898a1540d3f","system_id":"levelo_inurba_marseille","lat":43.2887,"lon":5.39304,"is_reserved":false,"is_disabled":false,"rental_uris":{"android":"levelo://app?vid=501860bc-6da1-4c97-8f79-8898a1540d3f","ios":"levelo://app?vid=501860bc-6da1-4c97-8f79-8898a1540d3f"},"vehicle_type_id":"4","last_reported":1730916753,"current_range_meters":4800,"station_id":"ce4bh2p2rcd13ifvqdi0","pricing_plan_id":"cebpf4jnsgd1na2vs0mg"},{"bike_id":"44144d57-9c23-4136-92b5-7992ae432d41","system_id":"levelo_inurba_marseille","lat":43.29964,"lon":5.41326,"is_reserved":false,"is_disabled":false,"rental_uris":{"android":"levelo://app?vid=44144d57-9c23-4136-92b5-7992ae432d41","ios":"levelo://app?vid=44144d57-9c23-4136-92b5-7992ae432d41"},"vehicle_type_id":"4","last_reported":1730916753,"current_range_meters":38400,"station_id":"ce4bhp12rcd13ifvqh9g","pricing_plan_id":"cebpf4jnsgd1na2vs0mg"},{"bike_id":"fccee34f-9cfa-4825-9220-6e416ec4caf7","system_id":"levelo_inurba_marseille","lat":43.29196,"lon":5.35812,"is_reserved":false,"is_disabled":false,"rental_uris":{"android":"levelo://app?vid=fccee34f-9cfa-4825-9220-6e416ec4caf7","ios":"levelo://app?vid=fccee34f-9cfa-4825-9220-6e416ec4caf7"},"vehicle_type_id":"4","last_reported":1730916753,"current_range_meters":38400,"station_id":"ce4bhb12rcd13ifvqel0","pricing_plan_id":"cebpf4jnsgd1na2vs0mg"},{"bike_id":"f5d805c8-fe03-43f2-868f-ba6c317f6dc4","system_id":"levelo_inurba_marseille","lat":43.28156,"lon":5.42642,"is_reserved":false,"is_disabled":false,"rental_uris":{"android":"levelo://app?vid=f5d805c8-fe03-43f2-868f-ba6c317f6dc4","ios":"levelo://app?vid=f5d805c8-fe03-43f2-868f-ba6c317f6dc4"},"vehicle_type_id":"4","last_reported":1730916753,"current_range_meters":16800,"station_id":"ce4bhnh2rcd13ifvqgug","pricing_plan_id":"cebpf4jnsgd1na2vs0mg"},{"bike_id":"0072c09f-84dc-4387-89a5-d8c408b867ad","system_id":"levelo_inurba_marseille","lat":43.30134,"lon":5.39855,"is_reserved":false,"is_disabled":false,"rental_uris":{"android":"levelo://app?vid=0072c09f-84dc-4387-89a5-d8c408b867ad","ios":"levelo://app?vid=0072c09f-84dc-4387-89a5-d8c408b867ad"},"vehicle_type_id":"4","last_reported":1730916753,"current_range_meters":39200,"station_id":"ce4bh0h2rcd13ifvqd40","pricing_plan_id":"cebpf4jnsgd1na2vs0mg"},{"bike_id":"ecc2597c-73b2-4662-b036-f015722a8a69","system_id":"levelo_inurba_marseille","lat":43.22933,"lon":5.35384,"is_reserved":false,"is_disabled":false,"rental_uris":{"android":"levelo://app?vid=ecc2597c-73b2-4662-b036-f015722a8a69","ios":"levelo://app?vid=ecc2597c-73b2-4662-b036-f015722a8a69"},"vehicle_type_id":"4","last_reported":1730916753,"current_range_meters":28800,"station_id":"cpo3532slgdg3j2ikp40","pricing_plan_id":"cebpf4jnsgd1na2vs0mg"},{"bike_id":"52af7a3b-ddda-465a-a3b9-5cc6f08e1552","system_id":"levelo_inurba_marseille","lat":43.24167,"lon":5.36397,"is_reserved":false,"is_disabled":false,"rental_uris":{"android":"levelo://app?vid=52af7a3b-ddda-465a-a3b9-5cc6f08e1552","ios":"levelo://app?vid=52af7a3b-ddda-465a-a3b9-5cc6f08e1552"},"vehicle_type_id":"4","last_reported":1730916753,"current_range_meters":20000,"station_id":"cpo36qri1sfpv3e86is0","pricing_plan_id":"cebpf4jnsgd1na2vs0mg"},{"bike_id":"5c6bc1f3-7017-4929-976f-f1324a18e705","system_id":"levelo_inurba_marseille","lat":43.27999,"lon":5.41659,"is_reserved":false,"is_disabled":false,"rental_uris":{"android":"levelo://app?vid=5c6bc1f3-7017-4929-976f-f1324a18e705","ios":"levelo://app?vid=5c6bc1f3-7017-4929-976f-f1324a18e705"},"vehicle_type_id":"4","last_reported":1730916753,"current_range_meters":28000,"station_id":"ce4bho12rcd13ifvqh1g","pricing_plan_id":"cebpf4jnsgd1na2vs0mg"},{"bike_id":"bc588710-1eda-4b3e-bc3f-32711088ba39","system_id":"levelo_inurba_marseille","lat":43.29008,"lon":5.3561,"is_reserved":false,"is_disabled":false,"rental_uris":{"android":"levelo://app?vid=bc588710-1eda-4b3e-bc3f-32711088ba39","ios":"levelo://app?vid=bc588710-1eda-4b3e-bc3f-32711088ba39"},"vehicle_type_id":"4","last_reported":1730916753,"current_range_meters":2800,"station_id":"ce4bhb92rcd13ifvqen0","pricing_plan_id":"cebpf4jnsgd1na2vs0mg"},{"bike_id":"923d8709-2f23-428d-889a-a4c82a103832","system_id":"levelo_inurba_marseille","lat":43.29959,"lon":5.41326,"is_reserved":false,"is_disabled":false,"rental_uris":{"android":"levelo://app?vid=923d8709-2f23-428d-889a-a4c82a103832","ios":"levelo://app?vid=923d8709-2f23-428d-889a-a4c82a103832"},"vehicle_type_id":"4","last_reported":1730916753,"current_range_meters":38400,"station_id":"ce4bhop2rcd13ifvqh8g","pricing_plan_id":"cebpf4jnsgd1na2vs0mg"},{"bike_id":"dd591836-f417-403f-84a9-67ff85978f8f","system_id":"levelo_inurba_marseille","lat":43.2318,"lon":5.3999,"is_reserved":false,"is_disabled":false,"rental_uris":{"android":"levelo://app?vid=dd591836-f417-403f-84a9-67ff85978f8f","ios":"levelo://app?vid=dd591836-f417-403f-84a9-67ff85978f8f"},"vehicle_type_id":"4","last_reported":1730916753,"current_range_meters":8400,"station_id":"ce4bhn12rcd13ifvqgqg","pricing_plan_id":"cebpf4jnsgd1na2vs0mg"},{"bike_id":"1a2f43dc-b6a7-4aa1-86b9-d19871b5f68b","system_id":"levelo_inurba_marseille","lat":43.28656,"lon":5.38667,"is_reserved":false,"is_disabled":false,"rental_uris":{"android":"levelo://app?vid=1a2f43dc-b6a7-4aa1-86b9-d19871b5f68b","ios":"levelo://app?vid=1a2f43dc-b6a7-4aa1-86b9-d19871b5f68b"},"vehicle_type_id":"4","last_reported":1730916753,"current_range_meters":16400,"station_id":"ce4bh492rcd13ifvqdug","pricing_plan_id":"cebpf4jnsgd1na2vs0mg"},{"bike_id":"76f2a7a7-cbb8-43ad-9b49-d9984deef523","system_id":"levelo_inurba_marseille","lat":43.29527,"lon":5.38543,"is_reserved":false,"is_disabled":false,"rental_uris":{"android":"levelo://app?vid=76f2a7a7-cbb8-43ad-9b49-d9984deef523","ios":"levelo://app?vid=76f2a7a7-cbb8-43ad-9b49-d9984deef523"},"vehicle_type_id":"4","last_reported":1730916753,"current_range_meters":24400,"station_id":"ce4bgih2rcd13ifvqba0","pricing_plan_id":"cebpf4jnsgd1na2vs0mg"},{"bike_id":"2b50e712-99fa-4182-95cf-6dfe586f03cb","system_id":"levelo_inurba_marseille","lat":43.23183,"lon":5.39986,"is_reserved":false,"is_disabled":false,"rental_uris":{"android":"levelo://app?vid=2b50e712-99fa-4182-95cf-6dfe586f03cb","ios":"levelo://app?vid=2b50e712-99fa-4182-95cf-6dfe586f03cb"},"vehicle_type_id":"4","last_reported":1730916753,"current_range_meters":9600,"station_id":"ce4bhn12rcd13ifvqgqg","pricing_plan_id":"cebpf4jnsgd1na2vs0mg"},{"bike_id":"ad1865ed-747b-46a4-b35c-dbf86b6f57ee","system_id":"levelo_inurba_marseille","lat":43.30545,"lon":5.36706,"is_reserved":false,"is_disabled":false,"rental_uris":{"android":"levelo://app?vid=ad1865ed-747b-46a4-b35c-dbf86b6f57ee","ios":"levelo://app?vid=ad1865ed-747b-46a4-b35c-dbf86b6f57ee"},"vehicle_type_id":"4","last_reported":1730916753,"current_range_meters":2000,"station_id":"ce4bgrp2rcd13ifvqc9g","pricing_plan_id":"cebpf4jnsgd1na2vs0mg"},{"bike_id":"45fef84c-93fa-45ae-b460-ad7ddcd3eec1","system_id":"levelo_inurba_marseille","lat":43.296,"lon":5.38106,"is_reserved":false,"is_disabled":false,"rental_uris":{"android":"levelo://app?vid=45fef84c-93fa-45ae-b460-ad7ddcd3eec1","ios":"levelo://app?vid=45fef84c-93fa-45ae-b460-ad7ddcd3eec1"},"vehicle_type_id":"4","last_reported":1730916753,"current_range_meters":28000,"station_id":"ce4bgl12rcd13ifvqbo0","pricing_plan_id":"cebpf4jnsgd1na2vs0mg"},{"bike_id":"1529359c-122e-4c9a-aa9e-4cb2884ac623","system_id":"levelo_inurba_marseille","lat":43.29007,"lon":5.356092,"is_reserved":false,"is_disabled":false,"rental_uris":{"android":"levelo://app?vid=1529359c-122e-4c9a-aa9e-4cb2884ac623","ios":"levelo://app?vid=1529359c-122e-4c9a-aa9e-4cb2884ac623"},"vehicle_type_id":"4","last_reported":1730916753,"current_range_meters":38800,"station_id":"ce4bhb92rcd13ifvqen0","pricing_plan_id":"cebpf4jnsgd1na2vs0mg"},{"bike_id":"542beac7-c5b6-4e3a-8105-02f9024597f3","system_id":"levelo_inurba_marseille","lat":43.28105,"lon":5.3784,"is_reserved":false,"is_disabled":false,"rental_uris":{"android":"levelo://app?vid=542beac7-c5b6-4e3a-8105-02f9024597f3","ios":"levelo://app?vid=542beac7-c5b6-4e3a-8105-02f9024597f3"},"vehicle_type_id":"4","last_reported":1730916753,"current_range_meters":28400,"station_id":"ce4bha12rcd13ifvqee0","pricing_plan_id":"cebpf4jnsgd1na2vs0mg"},{"bike_id":"27b827b3-9e6a-40e5-85ac-202e46f3f38b","system_id":"levelo_inurba_marseille","lat":43.29571,"lon":5.39781,"is_reserved":false,"is_disabled":false,"rental_uris":{"android":"levelo://app?vid=27b827b3-9e6a-40e5-85ac-202e46f3f38b","ios":"levelo://app?vid=27b827b3-9e6a-40e5-85ac-202e46f3f38b"},"vehicle_type_id":"4","last_reported":1730916753,"current_range_meters":33600,"station_id":"ce4bh3p2rcd13ifvqdp0","pricing_plan_id":"cebpf4jnsgd1na2vs0mg"},{"bike_id":"024922e8-233b-4014-88e5-4b99f4e5c262","system_id":"levelo_inurba_marseille","lat":43.29218,"lon":5.36077,"is_reserved":false,"is_disabled":false,"rental_uris":{"android":"levelo://app?vid=024922e8-233b-4014-88e5-4b99f4e5c262","ios":"levelo://app?vid=024922e8-233b-4014-88e5-4b99f4e5c262"},"vehicle_type_id":"4","last_reported":1730916753,"current_range_meters":38800,"station_id":"ce4bhbh2rcd13ifvqeqg","pricing_plan_id":"cebpf4jnsgd1na2vs0mg"},{"bike_id":"ed058e4f-9ac0-418d-bdc9-6394a770ce1f","system_id":"levelo_inurba_marseille","lat":43.29252,"lon":5.40917,"is_reserved":false,"is_disabled":false,"rental_uris":{"android":"levelo://app?vid=ed058e4f-9ac0-418d-bdc9-6394a770ce1f","ios":"levelo://app?vid=ed058e4f-9ac0-418d-bdc9-6394a770ce1f"},"vehicle_type_id":"4","last_reported":1730916753,"current_range_meters":40000,"station_id":"ce4bh192rcd13ifvqdc0","pricing_plan_id":"cebpf4jnsgd1na2vs0mg"},{"bike_id":"0cf91d95-9757-4ba9-89ef-7fe0764b02e7","system_id":"levelo_inurba_marseille","lat":43.29257,"lon":5.40916,"is_reserved":false,"is_disabled":false,"rental_uris":{"android":"levelo://app?vid=0cf91d95-9757-4ba9-89ef-7fe0764b02e7","ios":"levelo://app?vid=0cf91d95-9757-4ba9-89ef-7fe0764b02e7"},"vehicle_type_id":"4","last_reported":1730916753,"current_range_meters":8800,"station_id":"ce4bh192rcd13ifvqdc0","pricing_plan_id":"cebpf4jnsgd1na2vs0mg"},{"bike_id":"7b03e489-e38f-490f-b482-ed7db3c26bb0","system_id":"levelo_inurba_marseille","lat":43.29867,"lon":5.39744,"is_reserved":false,"is_disabled":false,"rental_uris":{"android":"levelo://app?vid=7b03e489-e38f-490f-b482-ed7db3c26bb0","ios":"levelo://app?vid=7b03e489-e38f-490f-b482-ed7db3c26bb0"},"vehicle_type_id":"4","last_reported":1730916753,"current_range_meters":30400,"station_id":"ce4bh0h2rcd13ifvqd50","pricing_plan_id":"cebpf4jnsgd1na2vs0mg"},{"bike_id":"67b46448-46ec-4f2f-bf13-37c3ea9c93e4","system_id":"levelo_inurba_marseille","lat":43.28,"lon":5.41664,"is_reserved":false,"is_disabled":false,"rental_uris":{"android":"levelo://app?vid=67b46448-46ec-4f2f-bf13-37c3ea9c93e4","ios":"levelo://app?vid=67b46448-46ec-4f2f-bf13-37c3ea9c93e4"},"vehicle_type_id":"4","last_reported":1730916753,"current_range_meters":28800,"station_id":"ce4bho12rcd13ifvqh1g","pricing_plan_id":"cebpf4jnsgd1na2vs0mg"},{"bike_id":"65db49b4-b930-41a8-b3de-94ae5277e660","system_id":"levelo_inurba_marseille","lat":43.25585,"lon":5.38245,"is_reserved":false,"is_disabled":false,"rental_uris":{"android":"levelo://app?vid=65db49b4-b930-41a8-b3de-94ae5277e660","ios":"levelo://app?vid=65db49b4-b930-41a8-b3de-94ae5277e660"},"vehicle_type_id":"4","last_reported":1730916753,"current_range_meters":16400,"station_id":"ce4bhih2rcd13ifvqfs0","pricing_plan_id":"cebpf4jnsgd1na2vs0mg"},{"bike_id":"04510e51-8625-4cff-9feb-4f9800bf7a15","system_id":"levelo_inurba_marseille","lat":43.27288,"lon":5.39119,"is_reserved":false,"is_disabled":false,"rental_uris":{"android":"levelo://app?vid=04510e51-8625-4cff-9feb-4f9800bf7a15","ios":"levelo://app?vid=04510e51-8625-4cff-9feb-4f9800bf7a15"},"vehicle_type_id":"4","last_reported":1730916753,"current_range_meters":4000,"station_id":"ce4bhgp2rcd13ifvqfe0","pricing_plan_id":"cebpf4jnsgd1na2vs0mg"},{"bike_id":"edb3af9d-c45e-44c3-a8b6-a2c739b6da3b","system_id":"levelo_inurba_marseille","lat":43.27497,"lon":5.42462,"is_reserved":false,"is_disabled":false,"rental_uris":{"android":"levelo://app?vid=edb3af9d-c45e-44c3-a8b6-a2c739b6da3b","ios":"levelo://app?vid=edb3af9d-c45e-44c3-a8b6-a2c739b6da3b"},"vehicle_type_id":"4","last_reported":1730916753,"current_range_meters":36400,"station_id":"ce4bhn92rcd13ifvqgrg","pricing_plan_id":"cebpf4jnsgd1na2vs0mg"},{"bike_id":"4174861a-146d-49ec-8066-da30563c39ce","system_id":"levelo_inurba_marseille","lat":43.27827,"lon":5.39221,"is_reserved":false,"is_disabled":false,"rental_uris":{"android":"levelo://app?vid=4174861a-146d-49ec-8066-da30563c39ce","ios":"levelo://app?vid=4174861a-146d-49ec-8066-da30563c39ce"},"vehicle_type_id":"4","last_reported":1730916753,"current_range_meters":32800,"station_id":"ce4bhjp2rcd13ifvqga0","pricing_plan_id":"cebpf4jnsgd1na2vs0mg"},{"bike_id":"d42e973d-2c93-4443-b098-71d6d11cc36d","system_id":"levelo_inurba_marseille","lat":43.29587,"lon":5.3674,"is_reserved":false,"is_disabled":false,"rental_uris":{"android":"levelo://app?vid=d42e973d-2c93-4443-b098-71d6d11cc36d","ios":"levelo://app?vid=d42e973d-2c93-4443-b098-71d6d11cc36d"},"vehicle_type_id":"4","last_reported":1730916753,"current_range_meters":24400,"station_id":"ce4bgph2rcd13ifvqc2g","pricing_plan_id":"cebpf4jnsgd1na2vs0mg"},{"bike_id":"35407b98-1366-4ad9-9f29-3d6c39644252","system_id":"levelo_inurba_marseille","lat":43.25577,"lon":5.38234,"is_reserved":false,"is_disabled":false,"rental_uris":{"android":"levelo://app?vid=35407b98-1366-4ad9-9f29-3d6c39644252","ios":"levelo://app?vid=35407b98-1366-4ad9-9f29-3d6c39644252"},"vehicle_type_id":"4","last_reported":1730916753,"current_range_meters":20800,"station_id":"ce4bhih2rcd13ifvqfs0","pricing_plan_id":"cebpf4jnsgd1na2vs0mg"},{"bike_id":"0007c120-2b8f-49c1-b3a2-b69854c6b2ad","system_id":"levelo_inurba_marseille","lat":43.27996,"lon":5.40016,"is_reserved":false,"is_disabled":false,"rental_uris":{"android":"levelo://app?vid=0007c120-2b8f-49c1-b3a2-b69854c6b2ad","ios":"levelo://app?vid=0007c120-2b8f-49c1-b3a2-b69854c6b2ad"},"vehicle_type_id":"4","last_reported":1730916753,"current_range_meters":34000,"station_id":"ce4bho92rcd13ifvqh4g","pricing_plan_id":"cebpf4jnsgd1na2vs0mg"},{"bike_id":"d164019b-03bd-4a70-bd50-f52c7414be8c","system_id":"levelo_inurba_marseille","lat":43.24809,"lon":5.37459,"is_reserved":false,"is_disabled":false,"rental_uris":{"android":"levelo://app?vid=d164019b-03bd-4a70-bd50-f52c7414be8c","ios":"levelo://app?vid=d164019b-03bd-4a70-bd50-f52c7414be8c"},"vehicle_type_id":"4","last_reported":1730916753,"current_range_meters":14800,"station_id":"ce4bhgh2rcd13ifvqfb0","pricing_plan_id":"cebpf4jnsgd1na2vs0mg"},{"bike_id":"76a6e6d2-4686-4b04-b754-fb622b90a2bd","system_id":"levelo_inurba_marseille","lat":43.30126,"lon":5.3988,"is_reserved":false,"is_disabled":false,"rental_uris":{"android":"levelo://app?vid=76a6e6d2-4686-4b04-b754-fb622b90a2bd","ios":"levelo://app?vid=76a6e6d2-4686-4b04-b754-fb622b90a2bd"},"vehicle_type_id":"4","last_reported":1730916753,"current_range_meters":38800,"station_id":"ce4bh0h2rcd13ifvqd40","pricing_plan_id":"cebpf4jnsgd1na2vs0mg"},{"bike_id":"714b64f1-c9e6-4072-ad71-842d75e1d90c","system_id":"levelo_inurba_marseille","lat":43.28484,"lon":5.38419,"is_reserved":false,"is_disabled":false,"rental_uris":{"android":"levelo://app?vid=714b64f1-c9e6-4072-ad71-842d75e1d90c","ios":"levelo://app?vid=714b64f1-c9e6-4072-ad71-842d75e1d90c"},"vehicle_type_id":"4","last_reported":1730916753,"current_range_meters":6800,"station_id":"ce4bh512rcd13ifvqe3g","pricing_plan_id":"cebpf4jnsgd1na2vs0mg"},{"bike_id":"9cd0732f-5f18-41e1-b15b-6cd9d4be0540","system_id":"levelo_inurba_marseille","lat":43.29195,"lon":5.39322,"is_reserved":false,"is_disabled":false,"rental_uris":{"android":"levelo://app?vid=9cd0732f-5f18-41e1-b15b-6cd9d4be0540","ios":"levelo://app?vid=9cd0732f-5f18-41e1-b15b-6cd9d4be0540"},"vehicle_type_id":"4","last_reported":1730916753,"current_range_meters":10000,"station_id":"ce4bh192rcd13ifvqdd0","pricing_plan_id":"cebpf4jnsgd1na2vs0mg"},{"bike_id":"8436ecb3-47e0-4cca-9ae8-d7421c2f92f4","system_id":"levelo_inurba_marseille","lat":43.23178,"lon":5.39981,"is_reserved":false,"is_disabled":false,"rental_uris":{"android":"levelo://app?vid=8436ecb3-47e0-4cca-9ae8-d7421c2f92f4","ios":"levelo://app?vid=8436ecb3-47e0-4cca-9ae8-d7421c2f92f4"},"vehicle_type_id":"4","last_reported":1730916753,"current_range_meters":9600,"station_id":"ce4bhn12rcd13ifvqgqg","pricing_plan_id":"cebpf4jnsgd1na2vs0mg"},{"bike_id":"4ba0fd4c-85b7-4658-823b-6e96a105d085","system_id":"levelo_inurba_marseille","lat":43.27499,"lon":5.42448,"is_reserved":false,"is_disabled":false,"rental_uris":{"android":"levelo://app?vid=4ba0fd4c-85b7-4658-823b-6e96a105d085","ios":"levelo://app?vid=4ba0fd4c-85b7-4658-823b-6e96a105d085"},"vehicle_type_id":"4","last_reported":1730916753,"current_range_meters":24000,"station_id":"ce4bhn92rcd13ifvqgrg","pricing_plan_id":"cebpf4jnsgd1na2vs0mg"},{"bike_id":"0235ad22-6d87-4f43-b0e9-92ff12bebbf1","system_id":"levelo_inurba_marseille","lat":43.2465,"lon":5.38895,"is_reserved":false,"is_disabled":false,"rental_uris":{"android":"levelo://app?vid=0235ad22-6d87-4f43-b0e9-92ff12bebbf1","ios":"levelo://app?vid=0235ad22-6d87-4f43-b0e9-92ff12bebbf1"},"vehicle_type_id":"4","last_reported":1730916753,"current_range_meters":39200,"station_id":"ce4bhg12rcd13ifvqf60","pricing_plan_id":"cebpf4jnsgd1na2vs0mg"},{"bike_id":"eddbfe76-8b03-461a-80ed-f58e73c78f72","system_id":"levelo_inurba_marseille","lat":43.30335,"lon":5.40442,"is_reserved":false,"is_disabled":false,"rental_uris":{"android":"levelo://app?vid=eddbfe76-8b03-461a-80ed-f58e73c78f72","ios":"levelo://app?vid=eddbfe76-8b03-461a-80ed-f58e73c78f72"},"vehicle_type_id":"4","last_reported":1730916753,"current_range_meters":38800,"station_id":"ce4bh012rcd13ifvqd10","pricing_plan_id":"cebpf4jnsgd1na2vs0mg"},{"bike_id":"26a215cb-f291-4fc9-9aed-5a1737bce06d","system_id":"levelo_inurba_marseille","lat":43.33026,"lon":5.39039,"is_reserved":false,"is_disabled":false,"rental_uris":{"android":"levelo://app?vid=26a215cb-f291-4fc9-9aed-5a1737bce06d","ios":"levelo://app?vid=26a215cb-f291-4fc9-9aed-5a1737bce06d"},"vehicle_type_id":"4","last_reported":1730916753,"current_range_meters":6800,"station_id":"ce4bhr92rcd13ifvqhrg","pricing_plan_id":"cebpf4jnsgd1na2vs0mg"},{"bike_id":"6ff17230-9190-45f4-969d-a06055cf0fd2","system_id":"levelo_inurba_marseille","lat":43.28921,"lon":5.38399,"is_reserved":false,"is_disabled":false,"rental_uris":{"android":"levelo://app?vid=6ff17230-9190-45f4-969d-a06055cf0fd2","ios":"levelo://app?vid=6ff17230-9190-45f4-969d-a06055cf0fd2"},"vehicle_type_id":"4","last_reported":1730916753,"current_range_meters":6400,"station_id":"ce4bh612rcd13ifvqe6g","pricing_plan_id":"cebpf4jnsgd1na2vs0mg"},{"bike_id":"2380cf76-3f9c-42b4-9dfd-db4906622735","system_id":"levelo_inurba_marseille","lat":43.260632,"lon":5.394009,"is_reserved":false,"is_disabled":false,"rental_uris":{"android":"levelo://app?vid=2380cf76-3f9c-42b4-9dfd-db4906622735","ios":"levelo://app?vid=2380cf76-3f9c-42b4-9dfd-db4906622735"},"vehicle_type_id":"4","last_reported":1730916753,"current_range_meters":4800,"station_id":"ce4bhh92rcd13ifvqfj0","pricing_plan_id":"cebpf4jnsgd1na2vs0mg"},{"bike_id":"ea278086-f75f-4c79-8099-420bbc207917","system_id":"levelo_inurba_marseille","lat":43.31129,"lon":5.37769,"is_reserved":false,"is_disabled":false,"rental_uris":{"android":"levelo://app?vid=ea278086-f75f-4c79-8099-420bbc207917","ios":"levelo://app?vid=ea278086-f75f-4c79-8099-420bbc207917"},"vehicle_type_id":"4","last_reported":1730916753,"current_range_meters":3600,"station_id":"ce4bgt92rcd13ifvqcg0","pricing_plan_id":"cebpf4jnsgd1na2vs0mg"},{"bike_id":"a731dd33-10c2-4158-b07e-2a8192e06221","system_id":"levelo_inurba_marseille","lat":43.27172,"lon":5.40992,"is_reserved":false,"is_disabled":false,"rental_uris":{"android":"levelo://app?vid=a731dd33-10c2-4158-b07e-2a8192e06221","ios":"levelo://app?vid=a731dd33-10c2-4158-b07e-2a8192e06221"},"vehicle_type_id":"4","last_reported":1730916753,"current_range_meters":34000,"station_id":"ce4bhl12rcd13ifvqgf0","pricing_plan_id":"cebpf4jnsgd1na2vs0mg"},{"bike_id":"e13a3043-eb73-4632-8f62-988107f0e07a","system_id":"levelo_inurba_marseille","lat":43.27578,"lon":5.38429,"is_reserved":false,"is_disabled":false,"rental_uris":{"android":"levelo://app?vid=e13a3043-eb73-4632-8f62-988107f0e07a","ios":"levelo://app?vid=e13a3043-eb73-4632-8f62-988107f0e07a"},"vehicle_type_id":"4","last_reported":1730916753,"current_range_meters":19600,"station_id":"ce4bhh92rcd13ifvqfi0","pricing_plan_id":"cebpf4jnsgd1na2vs0mg"},{"bike_id":"06a3ca4a-7b9d-458a-aba6-ee00bbe03d30","system_id":"levelo_inurba_marseille","lat":43.27828,"lon":5.3921,"is_reserved":false,"is_disabled":false,"rental_uris":{"android":"levelo://app?vid=06a3ca4a-7b9d-458a-aba6-ee00bbe03d30","ios":"levelo://app?vid=06a3ca4a-7b9d-458a-aba6-ee00bbe03d30"},"vehicle_type_id":"4","last_reported":1730916753,"current_range_meters":24000,"station_id":"ce4bhjp2rcd13ifvqga0","pricing_plan_id":"cebpf4jnsgd1na2vs0mg"},{"bike_id":"f059f358-dfe4-438d-a4ad-86a84fee5481","system_id":"levelo_inurba_marseille","lat":43.30795,"lon":5.43528,"is_reserved":false,"is_disabled":false,"rental_uris":{"android":"levelo://app?vid=f059f358-dfe4-438d-a4ad-86a84fee5481","ios":"levelo://app?vid=f059f358-dfe4-438d-a4ad-86a84fee5481"},"vehicle_type_id":"4","last_reported":1730916753,"current_range_meters":14000,"station_id":"ce4bhph2rcd13ifvqheg","pricing_plan_id":"cebpf4jnsgd1na2vs0mg"},{"bike_id":"196465df-ff70-4c36-8d62-8e3e671559e3","system_id":"levelo_inurba_marseille","lat":43.28472,"lon":5.38413,"is_reserved":false,"is_disabled":false,"rental_uris":{"android":"levelo://app?vid=196465df-ff70-4c36-8d62-8e3e671559e3","ios":"levelo://app?vid=196465df-ff70-4c36-8d62-8e3e671559e3"},"vehicle_type_id":"4","last_reported":1730916753,"current_range_meters":16400,"station_id":"ce4bh512rcd13ifvqe3g","pricing_plan_id":"cebpf4jnsgd1na2vs0mg"},{"bike_id":"4cd41ba4-29eb-4b4c-8c91-22e98602c0a7","system_id":"levelo_inurba_marseille","lat":43.29878,"lon":5.38914,"is_reserved":false,"is_disabled":false,"rental_uris":{"android":"levelo://app?vid=4cd41ba4-29eb-4b4c-8c91-22e98602c0a7","ios":"levelo://app?vid=4cd41ba4-29eb-4b4c-8c91-22e98602c0a7"},"vehicle_type_id":"4","last_reported":1730916753,"current_range_meters":29600,"station_id":"ce4bh392rcd13ifvqdl0","pricing_plan_id":"cebpf4jnsgd1na2vs0mg"},{"bike_id":"3c68ffc4-da9b-493b-87ee-62b804b09943","system_id":"levelo_inurba_marseille","lat":43.2961,"lon":5.38106,"is_reserved":false,"is_disabled":false,"rental_uris":{"android":"levelo://app?vid=3c68ffc4-da9b-493b-87ee-62b804b09943","ios":"levelo://app?vid=3c68ffc4-da9b-493b-87ee-62b804b09943"},"vehicle_type_id":"4","last_reported":1730916753,"current_range_meters":33200,"station_id":"ce4bgl12rcd13ifvqbo0","pricing_plan_id":"cebpf4jnsgd1na2vs0mg"},{"bike_id":"fbed8a20-ba8f-493d-a500-85e828f3ec4e","system_id":"levelo_inurba_marseille","lat":43.28725,"lon":5.36093,"is_reserved":false,"is_disabled":false,"rental_uris":{"android":"levelo://app?vid=fbed8a20-ba8f-493d-a500-85e828f3ec4e","ios":"levelo://app?vid=fbed8a20-ba8f-493d-a500-85e828f3ec4e"},"vehicle_type_id":"4","last_reported":1730916753,"current_range_meters":39200,"station_id":"cki0cbj6b192h4jlfktg","pricing_plan_id":"cebpf4jnsgd1na2vs0mg"},{"bike_id":"8df84343-d669-4d22-996e-2b091048787a","system_id":"levelo_inurba_marseille","lat":43.29631,"lon":5.406,"is_reserved":false,"is_disabled":false,"rental_uris":{"android":"levelo://app?vid=8df84343-d669-4d22-996e-2b091048787a","ios":"levelo://app?vid=8df84343-d669-4d22-996e-2b091048787a"},"vehicle_type_id":"4","last_reported":1730916753,"current_range_meters":24000,"station_id":"ce4bh0h2rcd13ifvqd60","pricing_plan_id":"cebpf4jnsgd1na2vs0mg"},{"bike_id":"4d715f9f-ce94-4939-89ff-301e505a0127","system_id":"levelo_inurba_marseille","lat":43.2903,"lon":5.38639,"is_reserved":false,"is_disabled":false,"rental_uris":{"android":"levelo://app?vid=4d715f9f-ce94-4939-89ff-301e505a0127","ios":"levelo://app?vid=4d715f9f-ce94-4939-89ff-301e505a0127"},"vehicle_type_id":"4","last_reported":1730916753,"current_range_meters":16000,"station_id":"ce4bh4p2rcd13ifvqe0g","pricing_plan_id":"cebpf4jnsgd1na2vs0mg"},{"bike_id":"b89de553-ece7-4f05-be05-40bcfbb19999","system_id":"levelo_inurba_marseille","lat":43.29255,"lon":5.38438,"is_reserved":false,"is_disabled":false,"rental_uris":{"android":"levelo://app?vid=b89de553-ece7-4f05-be05-40bcfbb19999","ios":"levelo://app?vid=b89de553-ece7-4f05-be05-40bcfbb19999"},"vehicle_type_id":"4","last_reported":1730916753,"current_range_meters":24800,"station_id":"ce4bh692rcd13ifvqea0","pricing_plan_id":"cebpf4jnsgd1na2vs0mg"},{"bike_id":"e2ebc34f-8877-44b7-b7e6-cf338a86e03b","system_id":"levelo_inurba_marseille","lat":43.29879,"lon":5.38915,"is_reserved":false,"is_disabled":false,"rental_uris":{"android":"levelo://app?vid=e2ebc34f-8877-44b7-b7e6-cf338a86e03b","ios":"levelo://app?vid=e2ebc34f-8877-44b7-b7e6-cf338a86e03b"},"vehicle_type_id":"4","last_reported":1730916753,"current_range_meters":38800,"station_id":"ce4bh392rcd13ifvqdl0","pricing_plan_id":"cebpf4jnsgd1na2vs0mg"},{"bike_id":"f0b99e93-ead7-4e88-bbdd-3342f65820c0","system_id":"levelo_inurba_marseille","lat":43.29263,"lon":5.38432,"is_reserved":false,"is_disabled":false,"rental_uris":{"android":"levelo://app?vid=f0b99e93-ead7-4e88-bbdd-3342f65820c0","ios":"levelo://app?vid=f0b99e93-ead7-4e88-bbdd-3342f65820c0"},"vehicle_type_id":"4","last_reported":1730916753,"current_range_meters":9600,"station_id":"ce4bh692rcd13ifvqea0","pricing_plan_id":"cebpf4jnsgd1na2vs0mg"},{"bike_id":"72eddcef-73cb-4ac8-8d64-73296182d704","system_id":"levelo_inurba_marseille","lat":43.29037,"lon":5.37561,"is_reserved":false,"is_disabled":false,"rental_uris":{"android":"levelo://app?vid=72eddcef-73cb-4ac8-8d64-73296182d704","ios":"levelo://app?vid=72eddcef-73cb-4ac8-8d64-73296182d704"},"vehicle_type_id":"4","last_reported":1730916753,"current_range_meters":35600,"station_id":"ce4bh692rcd13ifvqe90","pricing_plan_id":"cebpf4jnsgd1na2vs0mg"},{"bike_id":"3d59477b-e46c-4282-9c17-cc3b50a4f9ed","system_id":"levelo_inurba_marseille","lat":43.25827,"lon":5.39439,"is_reserved":false,"is_disabled":false,"rental_uris":{"android":"levelo://app?vid=3d59477b-e46c-4282-9c17-cc3b50a4f9ed","ios":"levelo://app?vid=3d59477b-e46c-4282-9c17-cc3b50a4f9ed"},"vehicle_type_id":"4","last_reported":1730916753,"current_range_meters":6400,"station_id":"ce4bhip2rcd13ifvqft0","pricing_plan_id":"cebpf4jnsgd1na2vs0mg"},{"bike_id":"151bd9e0-9891-4c0d-b482-4a60d546ee45","system_id":"levelo_inurba_marseille","lat":43.25721,"lon":5.41114,"is_reserved":false,"is_disabled":false,"rental_uris":{"android":"levelo://app?vid=151bd9e0-9891-4c0d-b482-4a60d546ee45","ios":"levelo://app?vid=151bd9e0-9891-4c0d-b482-4a60d546ee45"},"vehicle_type_id":"4","last_reported":1730916753,"current_range_meters":34000,"station_id":"ce4bhkp2rcd13ifvqgd0","pricing_plan_id":"cebpf4jnsgd1na2vs0mg"},{"bike_id":"d3e54780-ddfb-432e-bfd3-55d19e8c43c8","system_id":"levelo_inurba_marseille","lat":43.31752,"lon":5.39026,"is_reserved":false,"is_disabled":false,"rental_uris":{"android":"levelo://app?vid=d3e54780-ddfb-432e-bfd3-55d19e8c43c8","ios":"levelo://app?vid=d3e54780-ddfb-432e-bfd3-55d19e8c43c8"},"vehicle_type_id":"4","last_reported":1730916753,"current_range_meters":37600,"station_id":"ce4bhqp2rcd13ifvqhng","pricing_plan_id":"cebpf4jnsgd1na2vs0mg"},{"bike_id":"575ba5d2-89b1-4fa2-90a8-bfc83bb813e2","system_id":"levelo_inurba_marseille","lat":43.2985,"lon":5.39754,"is_reserved":false,"is_disabled":false,"rental_uris":{"android":"levelo://app?vid=575ba5d2-89b1-4fa2-90a8-bfc83bb813e2","ios":"levelo://app?vid=575ba5d2-89b1-4fa2-90a8-bfc83bb813e2"},"vehicle_type_id":"4","last_reported":1730916753,"current_range_meters":38800,"station_id":"ce4bh0h2rcd13ifvqd50","pricing_plan_id":"cebpf4jnsgd1na2vs0mg"},{"bike_id":"768af60d-4a04-494a-aa2e-cfd7e8c78507","system_id":"levelo_inurba_marseille","lat":43.28457,"lon":5.35887,"is_reserved":false,"is_disabled":false,"rental_uris":{"android":"levelo://app?vid=768af60d-4a04-494a-aa2e-cfd7e8c78507","ios":"levelo://app?vid=768af60d-4a04-494a-aa2e-cfd7e8c78507"},"vehicle_type_id":"4","last_reported":1730916753,"current_range_meters":10800,"station_id":"ce4bhah2rcd13ifvqei0","pricing_plan_id":"cebpf4jnsgd1na2vs0mg"},{"bike_id":"a482a3a2-2edd-4960-90b1-3f8fafdad5f6","system_id":"levelo_inurba_marseille","lat":43.31271,"lon":5.40176,"is_reserved":false,"is_disabled":false,"rental_uris":{"android":"levelo://app?vid=a482a3a2-2edd-4960-90b1-3f8fafdad5f6","ios":"levelo://app?vid=a482a3a2-2edd-4960-90b1-3f8fafdad5f6"},"vehicle_type_id":"4","last_reported":1730916753,"current_range_meters":15200,"station_id":"ce4bh092rcd13ifvqd30","pricing_plan_id":"cebpf4jnsgd1na2vs0mg"},{"bike_id":"2eca8e2e-e37e-430f-aa64-f4a3139af4a4","system_id":"levelo_inurba_marseille","lat":43.306548,"lon":5.393947,"is_reserved":false,"is_disabled":false,"rental_uris":{"android":"levelo://app?vid=2eca8e2e-e37e-430f-aa64-f4a3139af4a4","ios":"levelo://app?vid=2eca8e2e-e37e-430f-aa64-f4a3139af4a4"},"vehicle_type_id":"4","last_reported":1730916753,"current_range_meters":36800,"station_id":"ce4bh0p2rcd13ifvqd80","pricing_plan_id":"cebpf4jnsgd1na2vs0mg"},{"bike_id":"c734fdee-2267-432b-9b9e-79152a77ab4a","system_id":"levelo_inurba_marseille","lat":43.306103,"lon":5.372291,"is_reserved":false,"is_disabled":false,"rental_uris":{"android":"levelo://app?vid=c734fdee-2267-432b-9b9e-79152a77ab4a","ios":"levelo://app?vid=c734fdee-2267-432b-9b9e-79152a77ab4a"},"vehicle_type_id":"4","last_reported":1730916753,"current_range_meters":19200,"station_id":"ce4bgqh2rcd13ifvqc4g","pricing_plan_id":"cebpf4jnsgd1na2vs0mg"},{"bike_id":"a2573e7b-0f5e-446f-958f-d725aca3e2d4","system_id":"levelo_inurba_marseille","lat":43.29258,"lon":5.38441,"is_reserved":false,"is_disabled":false,"rental_uris":{"android":"levelo://app?vid=a2573e7b-0f5e-446f-958f-d725aca3e2d4","ios":"levelo://app?vid=a2573e7b-0f5e-446f-958f-d725aca3e2d4"},"vehicle_type_id":"4","last_reported":1730916753,"current_range_meters":19200,"station_id":"ce4bh692rcd13ifvqea0","pricing_plan_id":"cebpf4jnsgd1na2vs0mg"},{"bike_id":"2b5ac0fa-6ef7-42f9-b41d-4756aff17319","system_id":"levelo_inurba_marseille","lat":43.30149,"lon":5.39881,"is_reserved":false,"is_disabled":false,"rental_uris":{"android":"levelo://app?vid=2b5ac0fa-6ef7-42f9-b41d-4756aff17319","ios":"levelo://app?vid=2b5ac0fa-6ef7-42f9-b41d-4756aff17319"},"vehicle_type_id":"4","last_reported":1730916753,"current_range_meters":38800,"station_id":"ce4bh0h2rcd13ifvqd40","pricing_plan_id":"cebpf4jnsgd1na2vs0mg"},{"bike_id":"f55cc1d3-66e2-4092-8a56-209373b1b8a1","system_id":"levelo_inurba_marseille","lat":43.27615,"lon":5.3612,"is_reserved":false,"is_disabled":false,"rental_uris":{"android":"levelo://app?vid=f55cc1d3-66e2-4092-8a56-209373b1b8a1","ios":"levelo://app?vid=f55cc1d3-66e2-4092-8a56-209373b1b8a1"},"vehicle_type_id":"4","last_reported":1730916753,"current_range_meters":22400,"station_id":"ce4bgj92rcd13ifvqbe0","pricing_plan_id":"cebpf4jnsgd1na2vs0mg"},{"bike_id":"8387a344-9b71-41ea-8197-c95ee593a2c6","system_id":"levelo_inurba_marseille","lat":43.29901,"lon":5.43673,"is_reserved":false,"is_disabled":false,"rental_uris":{"android":"levelo://app?vid=8387a344-9b71-41ea-8197-c95ee593a2c6","ios":"levelo://app?vid=8387a344-9b71-41ea-8197-c95ee593a2c6"},"vehicle_type_id":"4","last_reported":1730916753,"current_range_meters":28800,"station_id":"ce4bhpp2rcd13ifvqhfg","pricing_plan_id":"cebpf4jnsgd1na2vs0mg"},{"bike_id":"b729eccb-adec-409e-820a-fda4cffe87ba","system_id":"levelo_inurba_marseille","lat":43.231557,"lon":5.437071,"is_reserved":false,"is_disabled":false,"rental_uris":{"android":"levelo://app?vid=b729eccb-adec-409e-820a-fda4cffe87ba","ios":"levelo://app?vid=b729eccb-adec-409e-820a-fda4cffe87ba"},"vehicle_type_id":"4","last_reported":1730916753,"current_range_meters":38800,"station_id":"ce4bhmp2rcd13ifvqgog","pricing_plan_id":"cebpf4jnsgd1na2vs0mg"},{"bike_id":"075b048b-8589-435e-a40a-b3890b9d40d5","system_id":"levelo_inurba_marseille","lat":43.2439,"lon":5.37063,"is_reserved":false,"is_disabled":false,"rental_uris":{"android":"levelo://app?vid=075b048b-8589-435e-a40a-b3890b9d40d5","ios":"levelo://app?vid=075b048b-8589-435e-a40a-b3890b9d40d5"},"vehicle_type_id":"4","last_reported":1730916753,"current_range_meters":32400,"station_id":"ce4bhhh2rcd13ifvqfk0","pricing_plan_id":"cebpf4jnsgd1na2vs0mg"},{"bike_id":"41893eb3-bef0-46eb-a163-0f3640f8e022","system_id":"levelo_inurba_marseille","lat":43.29257,"lon":5.40914,"is_reserved":false,"is_disabled":false,"rental_uris":{"android":"levelo://app?vid=41893eb3-bef0-46eb-a163-0f3640f8e022","ios":"levelo://app?vid=41893eb3-bef0-46eb-a163-0f3640f8e022"},"vehicle_type_id":"4","last_reported":1730916753,"current_range_meters":14400,"station_id":"ce4bh192rcd13ifvqdc0","pricing_plan_id":"cebpf4jnsgd1na2vs0mg"},{"bike_id":"bb2f80f4-862e-4e28-b1df-8c460f4e6331","system_id":"levelo_inurba_marseille","lat":43.2847,"lon":5.38406,"is_reserved":false,"is_disabled":false,"rental_uris":{"android":"levelo://app?vid=bb2f80f4-862e-4e28-b1df-8c460f4e6331","ios":"levelo://app?vid=bb2f80f4-862e-4e28-b1df-8c460f4e6331"},"vehicle_type_id":"4","last_reported":1730916753,"current_range_meters":24000,"station_id":"ce4bh512rcd13ifvqe3g","pricing_plan_id":"cebpf4jnsgd1na2vs0mg"},{"bike_id":"281fb4b1-fa93-4201-ada9-890011a1cc19","system_id":"levelo_inurba_marseille","lat":43.2964,"lon":5.37487,"is_reserved":false,"is_disabled":false,"rental_uris":{"android":"levelo://app?vid=281fb4b1-fa93-4201-ada9-890011a1cc19","ios":"levelo://app?vid=281fb4b1-fa93-4201-ada9-890011a1cc19"},"vehicle_type_id":"4","last_reported":1730916753,"current_range_meters":32400,"station_id":"ce4bgl12rcd13ifvqbo0","pricing_plan_id":"cebpf4jnsgd1na2vs0mg"},{"bike_id":"627b251a-f500-42f4-9659-7bb69bf13dc9","system_id":"levelo_inurba_marseille","lat":43.24185,"lon":5.39733,"is_reserved":false,"is_disabled":false,"rental_uris":{"android":"levelo://app?vid=627b251a-f500-42f4-9659-7bb69bf13dc9","ios":"levelo://app?vid=627b251a-f500-42f4-9659-7bb69bf13dc9"},"vehicle_type_id":"4","last_reported":1730916753,"current_range_meters":16000,"station_id":"ce4bhn12rcd13ifvqgpg","pricing_plan_id":"cebpf4jnsgd1na2vs0mg"},{"bike_id":"6d27232f-4ea8-4613-acc0-c4108b735739","system_id":"levelo_inurba_marseille","lat":43.28002,"lon":5.41663,"is_reserved":false,"is_disabled":false,"rental_uris":{"android":"levelo://app?vid=6d27232f-4ea8-4613-acc0-c4108b735739","ios":"levelo://app?vid=6d27232f-4ea8-4613-acc0-c4108b735739"},"vehicle_type_id":"4","last_reported":1730916753,"current_range_meters":30800,"station_id":"ce4bho12rcd13ifvqh1g","pricing_plan_id":"cebpf4jnsgd1na2vs0mg"},{"bike_id":"615280ca-f059-40fe-82f2-b888639b02a5","system_id":"levelo_inurba_marseille","lat":43.326584,"lon":5.409937,"is_reserved":false,"is_disabled":false,"rental_uris":{"android":"levelo://app?vid=615280ca-f059-40fe-82f2-b888639b02a5","ios":"levelo://app?vid=615280ca-f059-40fe-82f2-b888639b02a5"},"vehicle_type_id":"4","last_reported":1730916753,"current_range_meters":32000,"station_id":"ce4bhpp2rcd13ifvqhgg","pricing_plan_id":"cebpf4jnsgd1na2vs0mg"},{"bike_id":"51af0a6b-ab65-4a32-a61e-bba1707c844d","system_id":"levelo_inurba_marseille","lat":43.292683,"lon":5.384403,"is_reserved":false,"is_disabled":false,"rental_uris":{"android":"levelo://app?vid=51af0a6b-ab65-4a32-a61e-bba1707c844d","ios":"levelo://app?vid=51af0a6b-ab65-4a32-a61e-bba1707c844d"},"vehicle_type_id":"4","last_reported":1730916753,"current_range_meters":39200,"station_id":"ce4bh692rcd13ifvqea0","pricing_plan_id":"cebpf4jnsgd1na2vs0mg"},{"bike_id":"23d94fea-d1fe-489e-8e76-34c73d47b261","system_id":"levelo_inurba_marseille","lat":43.28858,"lon":5.35853,"is_reserved":false,"is_disabled":false,"rental_uris":{"android":"levelo://app?vid=23d94fea-d1fe-489e-8e76-34c73d47b261","ios":"levelo://app?vid=23d94fea-d1fe-489e-8e76-34c73d47b261"},"vehicle_type_id":"4","last_reported":1730916753,"current_range_meters":30800,"station_id":"ce4bhb12rcd13ifvqem0","pricing_plan_id":"cebpf4jnsgd1na2vs0mg"},{"bike_id":"1b8665b8-3fba-48e1-9f38-47bc7afbeb61","system_id":"levelo_inurba_marseille","lat":43.30135,"lon":5.39853,"is_reserved":false,"is_disabled":false,"rental_uris":{"android":"levelo://app?vid=1b8665b8-3fba-48e1-9f38-47bc7afbeb61","ios":"levelo://app?vid=1b8665b8-3fba-48e1-9f38-47bc7afbeb61"},"vehicle_type_id":"4","last_reported":1730916753,"current_range_meters":39200,"station_id":"ce4bh0h2rcd13ifvqd40","pricing_plan_id":"cebpf4jnsgd1na2vs0mg"},{"bike_id":"31742fa1-2ed6-45b8-899b-61d61381d6c7","system_id":"levelo_inurba_marseille","lat":43.27819,"lon":5.40709,"is_reserved":false,"is_disabled":false,"rental_uris":{"android":"levelo://app?vid=31742fa1-2ed6-45b8-899b-61d61381d6c7","ios":"levelo://app?vid=31742fa1-2ed6-45b8-899b-61d61381d6c7"},"vehicle_type_id":"4","last_reported":1730916753,"current_range_meters":2800,"station_id":"ce4bhnh2rcd13ifvqgtg","pricing_plan_id":"cebpf4jnsgd1na2vs0mg"},{"bike_id":"20c80413-bdb6-4737-bcdb-0a5d048834b3","system_id":"levelo_inurba_marseille","lat":43.23187,"lon":5.39988,"is_reserved":false,"is_disabled":false,"rental_uris":{"android":"levelo://app?vid=20c80413-bdb6-4737-bcdb-0a5d048834b3","ios":"levelo://app?vid=20c80413-bdb6-4737-bcdb-0a5d048834b3"},"vehicle_type_id":"4","last_reported":1730916753,"current_range_meters":40000,"station_id":"ce4bhn12rcd13ifvqgqg","pricing_plan_id":"cebpf4jnsgd1na2vs0mg"},{"bike_id":"bdf52a34-8790-49fd-815a-8a08721cb924","system_id":"levelo_inurba_marseille","lat":43.29868,"lon":5.39746,"is_reserved":false,"is_disabled":false,"rental_uris":{"android":"levelo://app?vid=bdf52a34-8790-49fd-815a-8a08721cb924","ios":"levelo://app?vid=bdf52a34-8790-49fd-815a-8a08721cb924"},"vehicle_type_id":"4","last_reported":1730916753,"current_range_meters":39200,"station_id":"ce4bh0h2rcd13ifvqd50","pricing_plan_id":"cebpf4jnsgd1na2vs0mg"},{"bike_id":"608fcdd3-8778-4aab-b394-fbd464c177ea","system_id":"levelo_inurba_marseille","lat":43.29034,"lon":5.38649,"is_reserved":false,"is_disabled":false,"rental_uris":{"android":"levelo://app?vid=608fcdd3-8778-4aab-b394-fbd464c177ea","ios":"levelo://app?vid=608fcdd3-8778-4aab-b394-fbd464c177ea"},"vehicle_type_id":"4","last_reported":1730916753,"current_range_meters":9600,"station_id":"ce4bh4p2rcd13ifvqe0g","pricing_plan_id":"cebpf4jnsgd1na2vs0mg"},{"bike_id":"319d4761-c65a-4af6-b42c-312f7abb5990","system_id":"levelo_inurba_marseille","lat":43.337551,"lon":5.374532,"is_reserved":false,"is_disabled":false,"rental_uris":{"android":"levelo://app?vid=319d4761-c65a-4af6-b42c-312f7abb5990","ios":"levelo://app?vid=319d4761-c65a-4af6-b42c-312f7abb5990"},"vehicle_type_id":"4","last_reported":1730916753,"current_range_meters":30800,"station_id":"","pricing_plan_id":"cebpf4jnsgd1na2vs0mg"},{"bike_id":"5e5019fc-32a0-4197-80aa-16c751178b9e","system_id":"levelo_inurba_marseille","lat":43.26574,"lon":5.39014,"is_reserved":false,"is_disabled":false,"rental_uris":{"android":"levelo://app?vid=5e5019fc-32a0-4197-80aa-16c751178b9e","ios":"levelo://app?vid=5e5019fc-32a0-4197-80aa-16c751178b9e"},"vehicle_type_id":"4","last_reported":1730916753,"current_range_meters":10800,"station_id":"ce4bhe12rcd13ifvqf30","pricing_plan_id":"cebpf4jnsgd1na2vs0mg"},{"bike_id":"269333cd-efd3-4dd6-8ef1-972ee5d591ad","system_id":"levelo_inurba_marseille","lat":43.27662,"lon":5.38895,"is_reserved":false,"is_disabled":false,"rental_uris":{"android":"levelo://app?vid=269333cd-efd3-4dd6-8ef1-972ee5d591ad","ios":"levelo://app?vid=269333cd-efd3-4dd6-8ef1-972ee5d591ad"},"vehicle_type_id":"4","last_reported":1730916753,"current_range_meters":8400,"station_id":"ce4bhi12rcd13ifvqfo0","pricing_plan_id":"cebpf4jnsgd1na2vs0mg"},{"bike_id":"b6a58992-2ba4-4b29-9a0f-7ec6e7d96688","system_id":"levelo_inurba_marseille","lat":43.28569,"lon":5.39499,"is_reserved":false,"is_disabled":false,"rental_uris":{"android":"levelo://app?vid=b6a58992-2ba4-4b29-9a0f-7ec6e7d96688","ios":"levelo://app?vid=b6a58992-2ba4-4b29-9a0f-7ec6e7d96688"},"vehicle_type_id":"4","last_reported":1730916753,"current_range_meters":38800,"station_id":"ce4bh292rcd13ifvqdg0","pricing_plan_id":"cebpf4jnsgd1na2vs0mg"},{"bike_id":"93a83a5c-0d3d-43a2-be24-e99a92c3575d","system_id":"levelo_inurba_marseille","lat":43.30834,"lon":5.37119,"is_reserved":false,"is_disabled":false,"rental_uris":{"android":"levelo://app?vid=93a83a5c-0d3d-43a2-be24-e99a92c3575d","ios":"levelo://app?vid=93a83a5c-0d3d-43a2-be24-e99a92c3575d"},"vehicle_type_id":"4","last_reported":1730916753,"current_range_meters":7200,"station_id":"","pricing_plan_id":"cebpf4jnsgd1na2vs0mg"},{"bike_id":"c0866652-0040-4770-a45a-3f7f022c6c50","system_id":"levelo_inurba_marseille","lat":43.27995,"lon":5.41663,"is_reserved":false,"is_disabled":false,"rental_uris":{"android":"levelo://app?vid=c0866652-0040-4770-a45a-3f7f022c6c50","ios":"levelo://app?vid=c0866652-0040-4770-a45a-3f7f022c6c50"},"vehicle_type_id":"4","last_reported":1730916753,"current_range_meters":24800,"station_id":"ce4bho12rcd13ifvqh1g","pricing_plan_id":"cebpf4jnsgd1na2vs0mg"},{"bike_id":"532e26a2-f67f-432f-9516-8358c15ba66a","system_id":"levelo_inurba_marseille","lat":43.24653,"lon":5.38897,"is_reserved":false,"is_disabled":false,"rental_uris":{"android":"levelo://app?vid=532e26a2-f67f-432f-9516-8358c15ba66a","ios":"levelo://app?vid=532e26a2-f67f-432f-9516-8358c15ba66a"},"vehicle_type_id":"4","last_reported":1730916753,"current_range_meters":8800,"station_id":"ce4bhg12rcd13ifvqf60","pricing_plan_id":"cebpf4jnsgd1na2vs0mg"},{"bike_id":"dbe9fe21-cdbc-44f3-89da-147306de56e4","system_id":"levelo_inurba_marseille","lat":43.28565,"lon":5.39497,"is_reserved":false,"is_disabled":false,"rental_uris":{"android":"levelo://app?vid=dbe9fe21-cdbc-44f3-89da-147306de56e4","ios":"levelo://app?vid=dbe9fe21-cdbc-44f3-89da-147306de56e4"},"vehicle_type_id":"4","last_reported":1730916753,"current_range_meters":28400,"station_id":"ce4bh292rcd13ifvqdg0","pricing_plan_id":"cebpf4jnsgd1na2vs0mg"},